{"data": {"bikes": [{"lon": -77.00345583333333, "bike_id": "93d1f805567f82844244346ae7b0a683", "lat": 38.90358066666667, "fusion_lon": 0.0, "fusion_lat": 0.0, "type": "electric_scooter", "name": "93d1f805567f82844244346ae7b0a683", "is_disabled": 0, "rental_uris": {"ios": "https://dc.lft.to/lastmile_qr_scan", "android": "https://dc.lft.to/lastmile_qr_scan"}, "is_reserved": 0}, {"lon": -77.0303955, "bike_id": "8ccd22e2c8279548d9e1f4ef631e2e0c", "lat": 38.916795666666665, "fusion_lon": 0.0, "fusion_lat": 0.0, "type": "electric_scooter", "name": "8ccd22e2c8279548d9e1f4ef631e2e0c", "is_disabled": 0, "rental_uris": {"ios": "https://dc.lft.to/lastmile_qr_scan", "android": "https://dc.lft.to/lastmile_qr_scan"}, "is_reserved": 0}, {"lon": -76.978585, "bike_id": "4446e2020d7708a9430df423fabe41ee", "lat": 38.870705666666666, "fusion_lon": 0.0, "fusion_lat": 0.0, "type": "electric_scooter", "name": "4446e2020d7708a9430df423fabe41ee", "is_disabled": 0, "rental_uris": {"ios": "https://dc.lft.to/lastmile_qr_scan", "android": "https://dc.lft.to/lastmile_qr_scan"}, "is_reserved": 0}, {"lon": -77.004811, "bike_id": "288aab9a2486a5fbee499a5d46bd18bd", "lat": 38.920640166666665, "fusion_lon": 0.0, "fusion_lat": 0.0, "type": "electric_scooter", "name": "288aab9a2486a5fbee499a5d46bd18bd", "is_disabled": 0, "rental_uris": {"ios": "https://dc.lft.to/lastmile_qr_scan", "android": "https://dc.lft.to/lastmile_qr_scan"}, "is_reserved": 0}, {"lon": -77.02957866666667, "bike_id": "ba23b259214ccfb2a72d86be1d452b62", "lat": 38.9217545, "fusion_lon": 0.0, "fusion_lat": 0.0, "type": "electric_scooter", "name": "ba23b259214ccfb2a72d86be1d452b62", "is_disabled": 0, "rental_uris": {"ios": "https://dc.lft.to/lastmile_qr_scan", "android": "https://dc.lft.to/lastmile_qr_scan"}, "is_reserved": 0}, {"lon": -77.00191133333334, "bike_id": "854f0fe12a2f9a22d27dc6c12b92bf83", "lat": 38.914747166666665, "fusion_lon": 0.0, "fusion_lat": 0.0, "type": "electric_scooter", "name": "854f0fe12a2f9a22d27dc6c12b92bf83", "is_disabled": 0, "rental_uris": {"ios": "https://dc.lft.to/lastmile_qr_scan", "android": "https://dc.lft.to/lastmile_qr_scan"}, "is_reserved": 0}, {"lon": -77.06415933333334, "bike_id": "b743036a27596afa5354ad530d23ac0e", "lat": 38.8404005, "fusion_lon": 0.0, "fusion_lat": 0.0, "type": "electric_bike", "name": "b743036a27596afa5354ad530d23ac0e", "is_disabled": 0, "rental_uris": {"ios": "https://dc.lft.to/lastmile_qr_scan", "android": "https://dc.lft.to/lastmile_qr_scan"}, "is_reserved": 0}, {"lon": -77.02544566666667, "bike_id": "6d0b5c80649bf15fcdd0effc86c49e37", "lat": 38.9308, "fusion_lon": 0.0, "fusion_lat": 0.0, "type": "electric_scooter", "name": "6d0b5c80649bf15fcdd0effc86c49e37", "is_disabled": 0, "rental_uris": {"ios": "https://dc.lft.to/lastmile_qr_scan", "android": "https://dc.lft.to/lastmile_qr_scan"}, "is_reserved": 0}, {"lon": -77.0239415, "bike_id": "fb26e5ffa0c0c9466ddaf3956e727f7a", "lat": 38.9009235, "fusion_lon": 0.0, "fusion_lat": 0.0, "type": "electric_scooter", "name": "fb26e5ffa0c0c9466ddaf3956e727f7a", "is_disabled": 0, "rental_uris": {"ios": "https://dc.lft.to/lastmile_qr_scan", "android": "https://dc.lft.to/lastmile_qr_scan"}, "is_reserved": 0}, {"lon": -76.980082, "bike_id": "d44f3e580ce0a0cce37ae2bad4e9ff2a", "lat": 38.902369666666665, "fusion_lon": 0.0, "fusion_lat": 0.0, "type": "electric_bike", "name": "d44f3e580ce0a0cce37ae2bad4e9ff2a", "is_disabled": 0, "rental_uris": {"ios": "https://dc.lft.to/lastmile_qr_scan", "android": "https://dc.lft.to/lastmile_qr_scan"}, "is_reserved": 0}, {"lon": -77.0245965, "bike_id": "b1315329a25d36979cd74f838974c285", "lat": 38.899758166666665, "fusion_lon": 0.0, "fusion_lat": 0.0, "type": "electric_scooter", "name": "b1315329a25d36979cd74f838974c285", "is_disabled": 0, "rental_uris": {"ios": "https://dc.lft.to/lastmile_qr_scan", "android": "https://dc.lft.to/lastmile_qr_scan"}, "is_reserved": 0}, {"lon": -77.0341195, "bike_id": "cb535d5d3b8f29cb786c9c00c695a2e3", "lat": 38.96028333333334, "fusion_lon": 0.0, "fusion_lat": 0.0, "type": "electric_bike", "name": "cb535d5d3b8f29cb786c9c00c695a2e3", "is_disabled": 0, "rental_uris": {"ios": "https://dc.lft.to/lastmile_qr_scan", "android": "https://dc.lft.to/lastmile_qr_scan"}, "is_reserved": 0}, {"lon": -76.995231, "bike_id": "4eb1a7895f434c5f3c4842a49df00c24", "lat": 38.90007966666667, "fusion_lon": 0.0, "fusion_lat": 0.0, "type": "electric_scooter", "name": "4eb1a7895f434c5f3c4842a49df00c24", "is_disabled": 0, "rental_uris": {"ios": "https://dc.lft.to/lastmile_qr_scan", "android": "https://dc.lft.to/lastmile_qr_scan"}, "is_reserved": 0}, {"lon": -77.04475183333334, "bike_id": "8610f701480a89abd8487fc344fbc0f0", "lat": 38.922785166666664, "fusion_lon": 0.0, "fusion_lat": 0.0, "type": "electric_scooter", "name": "8610f701480a89abd8487fc344fbc0f0", "is_disabled": 0, "rental_uris": {"ios": "https://dc.lft.to/lastmile_qr_scan", "android": "https://dc.lft.to/lastmile_qr_scan"}, "is_reserved": 0}, {"lon": -76.99783233333333, "bike_id": "03bb1926f90b550ec5f2a899c79cdbaf", "lat": 38.84429183333334, "fusion_lon": 0.0, "fusion_lat": 0.0, "type": "electric_scooter", "name": "03bb1926f90b550ec5f2a899c79cdbaf", "is_disabled": 0, "rental_uris": {"ios": "https://dc.lft.to/lastmile_qr_scan", "android": "https://dc.lft.to/lastmile_qr_scan"}, "is_reserved": 0}, {"lon": -77.04326966666666, "bike_id": "b49feef693f1e93c7685101d065443e8", "lat": 38.918732166666665, "fusion_lon": 0.0, "fusion_lat": 0.0, "type": "electric_scooter", "name": "b49feef693f1e93c7685101d065443e8", "is_disabled": 0, "rental_uris": {"ios": "https://dc.lft.to/lastmile_qr_scan", "android": "https://dc.lft.to/lastmile_qr_scan"}, "is_reserved": 0}, {"lon": -77.02240216666667, "bike_id": "e64c6c06564964bab33e2fdc6c22bfcc", "lat": 38.90184083333333, "fusion_lon": 0.0, "fusion_lat": 0.0, "type": "electric_scooter", "name": "e64c6c06564964bab33e2fdc6c22bfcc", "is_disabled": 0, "rental_uris": {"ios": "https://dc.lft.to/lastmile_qr_scan", "android": "https://dc.lft.to/lastmile_qr_scan"}, "is_reserved": 0}, {"lon": -77.02437233333333, "bike_id": "9e0bbba5d02a0e21772f4bc443616be5", "lat": 38.927504166666665, "fusion_lon": 0.0, "fusion_lat": 0.0, "type": "electric_scooter", "name": "9e0bbba5d02a0e21772f4bc443616be5", "is_disabled": 0, "rental_uris": {"ios": "https://dc.lft.to/lastmile_qr_scan", "android": "https://dc.lft.to/lastmile_qr_scan"}, "is_reserved": 0}, {"lon": -76.99511366666667, "bike_id": "89ef5556dcf02be937ee629ebe1cfb1f", "lat": 38.877736, "fusion_lon": 0.0, "fusion_lat": 0.0, "type": "electric_scooter", "name": "89ef5556dcf02be937ee629ebe1cfb1f", "is_disabled": 0, "rental_uris": {"ios": "https://dc.lft.to/lastmile_qr_scan", "android": "https://dc.lft.to/lastmile_qr_scan"}, "is_reserved": 0}, {"lon": -77.031858, "bike_id": "45ddd58407dbe52379b954340c9a5036", "lat": 38.908992, "fusion_lon": 0.0, "fusion_lat": 0.0, "type": "electric_scooter", "name": "45ddd58407dbe52379b954340c9a5036", "is_disabled": 0, "rental_uris": {"ios": "https://dc.lft.to/lastmile_qr_scan", "android": "https://dc.lft.to/lastmile_qr_scan"}, "is_reserved": 0}, {"lon": -77.02189833333334, "bike_id": "c4068b09aab29b9ccbcb38700ac02d39", "lat": 38.90105833333333, "fusion_lon": 0.0, "fusion_lat": 0.0, "type": "electric_scooter", "name": "c4068b09aab29b9ccbcb38700ac02d39", "is_disabled": 0, "rental_uris": {"ios": "https://dc.lft.to/lastmile_qr_scan", "android": "https://dc.lft.to/lastmile_qr_scan"}, "is_reserved": 0}, {"lon": -77.04334783333333, "bike_id": "6410f7e293a223c6a2c62e8d3bf48ab9", "lat": 38.9281505, "fusion_lon": 0.0, "fusion_lat": 0.0, "type": "electric_scooter", "name": "6410f7e293a223c6a2c62e8d3bf48ab9", "is_disabled": 0, "rental_uris": {"ios": "https://dc.lft.to/lastmile_qr_scan", "android": "https://dc.lft.to/lastmile_qr_scan"}, "is_reserved": 0}, {"lon": -77.02622983333333, "bike_id": "52b57b35a04dcd39748cbca5a72db07e", "lat": 38.91530233333334, "fusion_lon": 0.0, "fusion_lat": 0.0, "type": "electric_scooter", "name": "52b57b35a04dcd39748cbca5a72db07e", "is_disabled": 0, "rental_uris": {"ios": "https://dc.lft.to/lastmile_qr_scan", "android": "https://dc.lft.to/lastmile_qr_scan"}, "is_reserved": 0}, {"lon": -77.00290466666667, "bike_id": "ab4aa76fbafaa286a6a178d48ffff850", "lat": 38.956892, "fusion_lon": 0.0, "fusion_lat": 0.0, "type": "electric_bike", "name": "ab4aa76fbafaa286a6a178d48ffff850", "is_disabled": 0, "rental_uris": {"ios": "https://dc.lft.to/lastmile_qr_scan", "android": "https://dc.lft.to/lastmile_qr_scan"}, "is_reserved": 0}, {"lon": -76.96584283333334, "bike_id": "4e47edccefc4275b6e7a6ebbcb1ec730", "lat": 38.87135883333333, "fusion_lon": 0.0, "fusion_lat": 0.0, "type": "electric_scooter", "name": "4e47edccefc4275b6e7a6ebbcb1ec730", "is_disabled": 0, "rental_uris": {"ios": "https://dc.lft.to/lastmile_qr_scan", "android": "https://dc.lft.to/lastmile_qr_scan"}, "is_reserved": 0}, {"lon": -77.1249555, "bike_id": "8c6f7275094302801f4b2752f226b27d", "lat": 38.8278285, "fusion_lon": 0.0, "fusion_lat": 0.0, "type": "electric_bike", "name": "8c6f7275094302801f4b2752f226b27d", "is_disabled": 0, "rental_uris": {"ios": "https://dc.lft.to/lastmile_qr_scan", "android": "https://dc.lft.to/lastmile_qr_scan"}, "is_reserved": 0}, {"lon": -77.0642585, "bike_id": "aa1fe8cd1afcb33fc61be008e369da5d", "lat": 38.90888366666667, "fusion_lon": 0.0, "fusion_lat": 0.0, "type": "electric_scooter", "name": "aa1fe8cd1afcb33fc61be008e369da5d", "is_disabled": 0, "rental_uris": {"ios": "https://dc.lft.to/lastmile_qr_scan", "android": "https://dc.lft.to/lastmile_qr_scan"}, "is_reserved": 0}, {"lon": -76.937377, "bike_id": "c2c25221c3d433a8f93b6402f6f04023", "lat": 38.8900515, "fusion_lon": 0.0, "fusion_lat": 0.0, "type": "electric_scooter", "name": "c2c25221c3d433a8f93b6402f6f04023", "is_disabled": 0, "rental_uris": {"ios": "https://dc.lft.to/lastmile_qr_scan", "android": "https://dc.lft.to/lastmile_qr_scan"}, "is_reserved": 0}, {"lon": -77.03677183333333, "bike_id": "308a75239c185061d9bd385f965eb6ad", "lat": 38.908685166666665, "fusion_lon": 0.0, "fusion_lat": 0.0, "type": "electric_scooter", "name": "308a75239c185061d9bd385f965eb6ad", "is_disabled": 0, "rental_uris": {"ios": "https://dc.lft.to/lastmile_qr_scan", "android": "https://dc.lft.to/lastmile_qr_scan"}, "is_reserved": 0}, {"lon": -77.03270016666667, "bike_id": "9e02a4ece0e5e5bed29d4ccd9b499ed7", "lat": 38.9369555, "fusion_lon": 0.0, "fusion_lat": 0.0, "type": "electric_scooter", "name": "9e02a4ece0e5e5bed29d4ccd9b499ed7", "is_disabled": 0, "rental_uris": {"ios": "https://dc.lft.to/lastmile_qr_scan", "android": "https://dc.lft.to/lastmile_qr_scan"}, "is_reserved": 0}, {"lon": -77.006783, "bike_id": "e31c220b762bdfd6d2c306dec51be017", "lat": 38.90004166666667, "fusion_lon": 0.0, "fusion_lat": 0.0, "type": "electric_scooter", "name": "e31c220b762bdfd6d2c306dec51be017", "is_disabled": 0, "rental_uris": {"ios": "https://dc.lft.to/lastmile_qr_scan", "android": "https://dc.lft.to/lastmile_qr_scan"}, "is_reserved": 0}, {"lon": -76.9376, "bike_id": "71065f65f3783bcb4752cd2892459aa6", "lat": 38.8904415, "fusion_lon": 0.0, "fusion_lat": 0.0, "type": "electric_scooter", "name": "71065f65f3783bcb4752cd2892459aa6", "is_disabled": 0, "rental_uris": {"ios": "https://dc.lft.to/lastmile_qr_scan", "android": "https://dc.lft.to/lastmile_qr_scan"}, "is_reserved": 0}, {"lon": -77.05240966666666, "bike_id": "78b882c1c43f86d8a339dd01e9aff953", "lat": 38.9245775, "fusion_lon": 0.0, "fusion_lat": 0.0, "type": "electric_scooter", "name": "78b882c1c43f86d8a339dd01e9aff953", "is_disabled": 0, "rental_uris": {"ios": "https://dc.lft.to/lastmile_qr_scan", "android": "https://dc.lft.to/lastmile_qr_scan"}, "is_reserved": 0}, {"lon": -77.042102, "bike_id": "2f02233d9e2d6e20500ca8a4809619ac", "lat": 38.89264983333333, "fusion_lon": 0.0, "fusion_lat": 0.0, "type": "electric_scooter", "name": "2f02233d9e2d6e20500ca8a4809619ac", "is_disabled": 0, "rental_uris": {"ios": "https://dc.lft.to/lastmile_qr_scan", "android": "https://dc.lft.to/lastmile_qr_scan"}, "is_reserved": 0}, {"lon": -76.99546766666667, "bike_id": "bfe03136d2a230894437f72c96ccb765", "lat": 38.862526333333335, "fusion_lon": 0.0, "fusion_lat": 0.0, "type": "electric_scooter", "name": "bfe03136d2a230894437f72c96ccb765", "is_disabled": 0, "rental_uris": {"ios": "https://dc.lft.to/lastmile_qr_scan", "android": "https://dc.lft.to/lastmile_qr_scan"}, "is_reserved": 0}, {"lon": -77.03197133333333, "bike_id": "10c97758935624e635876bad9d94d31c", "lat": 38.907044166666665, "fusion_lon": 0.0, "fusion_lat": 0.0, "type": "electric_scooter", "name": "10c97758935624e635876bad9d94d31c", "is_disabled": 0, "rental_uris": {"ios": "https://dc.lft.to/lastmile_qr_scan", "android": "https://dc.lft.to/lastmile_qr_scan"}, "is_reserved": 0}, {"lon": -77.01653683333333, "bike_id": "c45c2bf0e92a98a7b6935709c60895a5", "lat": 38.929012666666665, "fusion_lon": 0.0, "fusion_lat": 0.0, "type": "electric_scooter", "name": "c45c2bf0e92a98a7b6935709c60895a5", "is_disabled": 0, "rental_uris": {"ios": "https://dc.lft.to/lastmile_qr_scan", "android": "https://dc.lft.to/lastmile_qr_scan"}, "is_reserved": 0}, {"lon": -77.05805783333334, "bike_id": "c9d357bf4590c208526cabe2d500632f", "lat": 38.9344825, "fusion_lon": 0.0, "fusion_lat": 0.0, "type": "electric_scooter", "name": "c9d357bf4590c208526cabe2d500632f", "is_disabled": 0, "rental_uris": {"ios": "https://dc.lft.to/lastmile_qr_scan", "android": "https://dc.lft.to/lastmile_qr_scan"}, "is_reserved": 0}, {"lon": -77.01734083333334, "bike_id": "092861df9bc92db305e06b45ef51033d", "lat": 38.90243, "fusion_lon": 0.0, "fusion_lat": 0.0, "type": "electric_scooter", "name": "092861df9bc92db305e06b45ef51033d", "is_disabled": 0, "rental_uris": {"ios": "https://dc.lft.to/lastmile_qr_scan", "android": "https://dc.lft.to/lastmile_qr_scan"}, "is_reserved": 0}, {"lon": -77.04899416666666, "bike_id": "e3f652216f6256c4b09b909df83bdd00", "lat": 38.90346683333333, "fusion_lon": 0.0, "fusion_lat": 0.0, "type": "electric_scooter", "name": "e3f652216f6256c4b09b909df83bdd00", "is_disabled": 0, "rental_uris": {"ios": "https://dc.lft.to/lastmile_qr_scan", "android": "https://dc.lft.to/lastmile_qr_scan"}, "is_reserved": 0}, {"lon": -77.03674783333334, "bike_id": "f219dc3270349189780a155203c08ce9", "lat": 38.909618, "fusion_lon": 0.0, "fusion_lat": 0.0, "type": "electric_scooter", "name": "f219dc3270349189780a155203c08ce9", "is_disabled": 0, "rental_uris": {"ios": "https://dc.lft.to/lastmile_qr_scan", "android": "https://dc.lft.to/lastmile_qr_scan"}, "is_reserved": 0}, {"lon": -76.9889175, "bike_id": "94d534ff058d0ad298fc2592b5e884f5", "lat": 38.913400333333335, "fusion_lon": 0.0, "fusion_lat": 0.0, "type": "electric_scooter", "name": "94d534ff058d0ad298fc2592b5e884f5", "is_disabled": 0, "rental_uris": {"ios": "https://dc.lft.to/lastmile_qr_scan", "android": "https://dc.lft.to/lastmile_qr_scan"}, "is_reserved": 0}, {"lon": -77.03219083333333, "bike_id": "97492da35a5d6dc34bd1415f9fb1abf2", "lat": 38.916991333333335, "fusion_lon": 0.0, "fusion_lat": 0.0, "type": "electric_scooter", "name": "97492da35a5d6dc34bd1415f9fb1abf2", "is_disabled": 0, "rental_uris": {"ios": "https://dc.lft.to/lastmile_qr_scan", "android": "https://dc.lft.to/lastmile_qr_scan"}, "is_reserved": 0}, {"lon": -77.059748, "bike_id": "e5f5d9acd19e4c9d81b61617beb7bdb9", "lat": 38.862559833333336, "fusion_lon": 0.0, "fusion_lat": 0.0, "type": "electric_scooter", "name": "e5f5d9acd19e4c9d81b61617beb7bdb9", "is_disabled": 0, "rental_uris": {"ios": "https://dc.lft.to/lastmile_qr_scan", "android": "https://dc.lft.to/lastmile_qr_scan"}, "is_reserved": 0}, {"lon": -77.04268216666667, "bike_id": "29bd8b9f2969f82b78d6178e86ef45e9", "lat": 38.92246816666667, "fusion_lon": 0.0, "fusion_lat": 0.0, "type": "electric_scooter", "name": "29bd8b9f2969f82b78d6178e86ef45e9", "is_disabled": 0, "rental_uris": {"ios": "https://dc.lft.to/lastmile_qr_scan", "android": "https://dc.lft.to/lastmile_qr_scan"}, "is_reserved": 0}, {"lon": -77.02935216666667, "bike_id": "e83a83fe64b7ff322595327136642337", "lat": 38.9208045, "fusion_lon": 0.0, "fusion_lat": 0.0, "type": "electric_scooter", "name": "e83a83fe64b7ff322595327136642337", "is_disabled": 0, "rental_uris": {"ios": "https://dc.lft.to/lastmile_qr_scan", "android": "https://dc.lft.to/lastmile_qr_scan"}, "is_reserved": 0}, {"lon": -77.029785, "bike_id": "a567e12bba0aca19a6d90153532924c4", "lat": 38.902859666666664, "fusion_lon": 0.0, "fusion_lat": 0.0, "type": "electric_scooter", "name": "a567e12bba0aca19a6d90153532924c4", "is_disabled": 0, "rental_uris": {"ios": "https://dc.lft.to/lastmile_qr_scan", "android": "https://dc.lft.to/lastmile_qr_scan"}, "is_reserved": 0}, {"lon": -77.002101, "bike_id": "6f10d3a1269863181a46f904dcffeaa5", "lat": 38.9023185, "fusion_lon": 0.0, "fusion_lat": 0.0, "type": "electric_scooter", "name": "6f10d3a1269863181a46f904dcffeaa5", "is_disabled": 0, "rental_uris": {"ios": "https://dc.lft.to/lastmile_qr_scan", "android": "https://dc.lft.to/lastmile_qr_scan"}, "is_reserved": 0}, {"lon": -77.05236216666667, "bike_id": "fd38dfe8f704b469dc71bbd022a58876", "lat": 38.924598833333334, "fusion_lon": 0.0, "fusion_lat": 0.0, "type": "electric_scooter", "name": "fd38dfe8f704b469dc71bbd022a58876", "is_disabled": 0, "rental_uris": {"ios": "https://dc.lft.to/lastmile_qr_scan", "android": "https://dc.lft.to/lastmile_qr_scan"}, "is_reserved": 0}, {"lon": -77.00842183333333, "bike_id": "31b97455d97078fcf30e77c770137a4f", "lat": 38.91623583333333, "fusion_lon": 0.0, "fusion_lat": 0.0, "type": "electric_scooter", "name": "31b97455d97078fcf30e77c770137a4f", "is_disabled": 0, "rental_uris": {"ios": "https://dc.lft.to/lastmile_qr_scan", "android": "https://dc.lft.to/lastmile_qr_scan"}, "is_reserved": 0}, {"lon": -77.020479, "bike_id": "ba2c9d8d59405106f7de19b2d023c0b8", "lat": 38.915479500000004, "fusion_lon": 0.0, "fusion_lat": 0.0, "type": "electric_scooter", "name": "ba2c9d8d59405106f7de19b2d023c0b8", "is_disabled": 0, "rental_uris": {"ios": "https://dc.lft.to/lastmile_qr_scan", "android": "https://dc.lft.to/lastmile_qr_scan"}, "is_reserved": 0}, {"lon": -77.03395116666667, "bike_id": "21fa2db2feeeaa6085a44ec25b1e59d2", "lat": 38.90141633333333, "fusion_lon": 0.0, "fusion_lat": 0.0, "type": "electric_scooter", "name": "21fa2db2feeeaa6085a44ec25b1e59d2", "is_disabled": 0, "rental_uris": {"ios": "https://dc.lft.to/lastmile_qr_scan", "android": "https://dc.lft.to/lastmile_qr_scan"}, "is_reserved": 0}, {"lon": -77.04166666666667, "bike_id": "3b9ae8deb7868bffee514d6dd9aa1a71", "lat": 38.903533333333336, "fusion_lon": 0.0, "fusion_lat": 0.0, "type": "electric_scooter", "name": "3b9ae8deb7868bffee514d6dd9aa1a71", "is_disabled": 0, "rental_uris": {"ios": "https://dc.lft.to/lastmile_qr_scan", "android": "https://dc.lft.to/lastmile_qr_scan"}, "is_reserved": 0}, {"lon": -77.02571866666666, "bike_id": "f4ede491cd6e928822fe5503f01f54b7", "lat": 38.887418833333335, "fusion_lon": 0.0, "fusion_lat": 0.0, "type": "electric_scooter", "name": "f4ede491cd6e928822fe5503f01f54b7", "is_disabled": 0, "rental_uris": {"ios": "https://dc.lft.to/lastmile_qr_scan", "android": "https://dc.lft.to/lastmile_qr_scan"}, "is_reserved": 0}, {"lon": -77.03270016666667, "bike_id": "69af2e3c9d334bcc13ee43655e54bbc3", "lat": 38.92061566666667, "fusion_lon": 0.0, "fusion_lat": 0.0, "type": "electric_scooter", "name": "69af2e3c9d334bcc13ee43655e54bbc3", "is_disabled": 0, "rental_uris": {"ios": "https://dc.lft.to/lastmile_qr_scan", "android": "https://dc.lft.to/lastmile_qr_scan"}, "is_reserved": 0}, {"lon": -76.9463605, "bike_id": "87fa7be12f91781b8f81c375938e3047", "lat": 38.89833866666667, "fusion_lon": 0.0, "fusion_lat": 0.0, "type": "electric_scooter", "name": "87fa7be12f91781b8f81c375938e3047", "is_disabled": 0, "rental_uris": {"ios": "https://dc.lft.to/lastmile_qr_scan", "android": "https://dc.lft.to/lastmile_qr_scan"}, "is_reserved": 0}, {"lon": -77.02984633333334, "bike_id": "a9a57e6c005b9351ba7e1bff00a23b80", "lat": 38.907626, "fusion_lon": 0.0, "fusion_lat": 0.0, "type": "electric_scooter", "name": "a9a57e6c005b9351ba7e1bff00a23b80", "is_disabled": 0, "rental_uris": {"ios": "https://dc.lft.to/lastmile_qr_scan", "android": "https://dc.lft.to/lastmile_qr_scan"}, "is_reserved": 0}, {"lon": -77.03101383333333, "bike_id": "a31f5210f853ded8e6f937e7a4b50a5b", "lat": 38.93449416666667, "fusion_lon": 0.0, "fusion_lat": 0.0, "type": "electric_scooter", "name": "a31f5210f853ded8e6f937e7a4b50a5b", "is_disabled": 0, "rental_uris": {"ios": "https://dc.lft.to/lastmile_qr_scan", "android": "https://dc.lft.to/lastmile_qr_scan"}, "is_reserved": 0}, {"lon": -77.0320625, "bike_id": "6850de216e7e97b9b71eb420246a541a", "lat": 38.916754, "fusion_lon": 0.0, "fusion_lat": 0.0, "type": "electric_scooter", "name": "6850de216e7e97b9b71eb420246a541a", "is_disabled": 0, "rental_uris": {"ios": "https://dc.lft.to/lastmile_qr_scan", "android": "https://dc.lft.to/lastmile_qr_scan"}, "is_reserved": 0}, {"lon": -76.9410275, "bike_id": "48fef6c9177191cfe37fc88658f13312", "lat": 38.88645566666667, "fusion_lon": 0.0, "fusion_lat": 0.0, "type": "electric_scooter", "name": "48fef6c9177191cfe37fc88658f13312", "is_disabled": 0, "rental_uris": {"ios": "https://dc.lft.to/lastmile_qr_scan", "android": "https://dc.lft.to/lastmile_qr_scan"}, "is_reserved": 0}, {"lon": -77.04948366666666, "bike_id": "5e61c5495aeb95d6651bc731c7bc6be2", "lat": 38.908401166666664, "fusion_lon": 0.0, "fusion_lat": 0.0, "type": "electric_scooter", "name": "5e61c5495aeb95d6651bc731c7bc6be2", "is_disabled": 0, "rental_uris": {"ios": "https://dc.lft.to/lastmile_qr_scan", "android": "https://dc.lft.to/lastmile_qr_scan"}, "is_reserved": 0}, {"lon": -77.05024433333334, "bike_id": "9afad2c3819d36f0b6fe14eab974a6e3", "lat": 38.898174833333336, "fusion_lon": 0.0, "fusion_lat": 0.0, "type": "electric_scooter", "name": "9afad2c3819d36f0b6fe14eab974a6e3", "is_disabled": 0, "rental_uris": {"ios": "https://dc.lft.to/lastmile_qr_scan", "android": "https://dc.lft.to/lastmile_qr_scan"}, "is_reserved": 0}, {"lon": -77.02207366666667, "bike_id": "a75e074faf826584985d9e047fb8615f", "lat": 38.92012583333333, "fusion_lon": 0.0, "fusion_lat": 0.0, "type": "electric_scooter", "name": "a75e074faf826584985d9e047fb8615f", "is_disabled": 0, "rental_uris": {"ios": "https://dc.lft.to/lastmile_qr_scan", "android": "https://dc.lft.to/lastmile_qr_scan"}, "is_reserved": 0}, {"lon": -77.03965733333334, "bike_id": "3c3b552e04342c86ec936f9733f8dc36", "lat": 38.902472333333336, "fusion_lon": 0.0, "fusion_lat": 0.0, "type": "electric_scooter", "name": "3c3b552e04342c86ec936f9733f8dc36", "is_disabled": 0, "rental_uris": {"ios": "https://dc.lft.to/lastmile_qr_scan", "android": "https://dc.lft.to/lastmile_qr_scan"}, "is_reserved": 0}, {"lon": -77.0670535, "bike_id": "c0d4f0c9754164fe92f40f46cf51a518", "lat": 38.903841, "fusion_lon": 0.0, "fusion_lat": 0.0, "type": "electric_scooter", "name": "c0d4f0c9754164fe92f40f46cf51a518", "is_disabled": 0, "rental_uris": {"ios": "https://dc.lft.to/lastmile_qr_scan", "android": "https://dc.lft.to/lastmile_qr_scan"}, "is_reserved": 0}, {"lon": -77.05224216666667, "bike_id": "523179e891e4537ae4875cec5e9735d0", "lat": 38.91561, "fusion_lon": 0.0, "fusion_lat": 0.0, "type": "electric_scooter", "name": "523179e891e4537ae4875cec5e9735d0", "is_disabled": 0, "rental_uris": {"ios": "https://dc.lft.to/lastmile_qr_scan", "android": "https://dc.lft.to/lastmile_qr_scan"}, "is_reserved": 0}, {"lon": -77.02718733333333, "bike_id": "72e8f0a4fe5401702c841d469f9a0393", "lat": 38.916789333333334, "fusion_lon": 0.0, "fusion_lat": 0.0, "type": "electric_scooter", "name": "72e8f0a4fe5401702c841d469f9a0393", "is_disabled": 0, "rental_uris": {"ios": "https://dc.lft.to/lastmile_qr_scan", "android": "https://dc.lft.to/lastmile_qr_scan"}, "is_reserved": 0}, {"lon": -76.98498466666666, "bike_id": "880b0b7f8c045199e7a51392d09f9b82", "lat": 38.878328, "fusion_lon": 0.0, "fusion_lat": 0.0, "type": "electric_scooter", "name": "880b0b7f8c045199e7a51392d09f9b82", "is_disabled": 0, "rental_uris": {"ios": "https://dc.lft.to/lastmile_qr_scan", "android": "https://dc.lft.to/lastmile_qr_scan"}, "is_reserved": 0}, {"lon": -77.03547966666666, "bike_id": "ce297fbfb2b59033857f76d3de955357", "lat": 38.90778016666667, "fusion_lon": 0.0, "fusion_lat": 0.0, "type": "electric_scooter", "name": "ce297fbfb2b59033857f76d3de955357", "is_disabled": 0, "rental_uris": {"ios": "https://dc.lft.to/lastmile_qr_scan", "android": "https://dc.lft.to/lastmile_qr_scan"}, "is_reserved": 0}, {"lon": -77.04235833333334, "bike_id": "abec31261f6f369e2f9502ee3d2ea176", "lat": 38.921787333333334, "fusion_lon": 0.0, "fusion_lat": 0.0, "type": "electric_scooter", "name": "abec31261f6f369e2f9502ee3d2ea176", "is_disabled": 0, "rental_uris": {"ios": "https://dc.lft.to/lastmile_qr_scan", "android": "https://dc.lft.to/lastmile_qr_scan"}, "is_reserved": 0}, {"lon": -76.98181666666666, "bike_id": "fbac57c703e846b594b81b9a5ce68f77", "lat": 38.89576183333333, "fusion_lon": 0.0, "fusion_lat": 0.0, "type": "electric_scooter", "name": "fbac57c703e846b594b81b9a5ce68f77", "is_disabled": 0, "rental_uris": {"ios": "https://dc.lft.to/lastmile_qr_scan", "android": "https://dc.lft.to/lastmile_qr_scan"}, "is_reserved": 0}, {"lon": -77.038619, "bike_id": "7337979c096c5c069b3ae9962675f32c", "lat": 38.9157325, "fusion_lon": 0.0, "fusion_lat": 0.0, "type": "electric_scooter", "name": "7337979c096c5c069b3ae9962675f32c", "is_disabled": 0, "rental_uris": {"ios": "https://dc.lft.to/lastmile_qr_scan", "android": "https://dc.lft.to/lastmile_qr_scan"}, "is_reserved": 0}, {"lon": -77.02305066666666, "bike_id": "edc326ccefbbcb11f286f4fbf34419f1", "lat": 38.9097345, "fusion_lon": 0.0, "fusion_lat": 0.0, "type": "electric_scooter", "name": "edc326ccefbbcb11f286f4fbf34419f1", "is_disabled": 0, "rental_uris": {"ios": "https://dc.lft.to/lastmile_qr_scan", "android": "https://dc.lft.to/lastmile_qr_scan"}, "is_reserved": 0}, {"lon": -76.933769, "bike_id": "66123a70fe21f2b166775b8592321b3f", "lat": 38.8991225, "fusion_lon": 0.0, "fusion_lat": 0.0, "type": "electric_scooter", "name": "66123a70fe21f2b166775b8592321b3f", "is_disabled": 0, "rental_uris": {"ios": "https://dc.lft.to/lastmile_qr_scan", "android": "https://dc.lft.to/lastmile_qr_scan"}, "is_reserved": 0}, {"lon": -77.03341666666667, "bike_id": "3e809b9a560ebb4954cd9dbff066b149", "lat": 38.89744566666667, "fusion_lon": 0.0, "fusion_lat": 0.0, "type": "electric_scooter", "name": "3e809b9a560ebb4954cd9dbff066b149", "is_disabled": 0, "rental_uris": {"ios": "https://dc.lft.to/lastmile_qr_scan", "android": "https://dc.lft.to/lastmile_qr_scan"}, "is_reserved": 0}, {"lon": -77.03216883333333, "bike_id": "909bef82970abd9134e31a42cdf29096", "lat": 38.89917166666667, "fusion_lon": 0.0, "fusion_lat": 0.0, "type": "electric_scooter", "name": "909bef82970abd9134e31a42cdf29096", "is_disabled": 0, "rental_uris": {"ios": "https://dc.lft.to/lastmile_qr_scan", "android": "https://dc.lft.to/lastmile_qr_scan"}, "is_reserved": 0}, {"lon": -77.03198, "bike_id": "f5101f8bc0adbce22405700971b34fc0", "lat": 38.90705833333333, "fusion_lon": 0.0, "fusion_lat": 0.0, "type": "electric_scooter", "name": "f5101f8bc0adbce22405700971b34fc0", "is_disabled": 0, "rental_uris": {"ios": "https://dc.lft.to/lastmile_qr_scan", "android": "https://dc.lft.to/lastmile_qr_scan"}, "is_reserved": 0}, {"lon": -77.0434975, "bike_id": "77575db43632880f0fddb80aa5e782f8", "lat": 38.929646, "fusion_lon": 0.0, "fusion_lat": 0.0, "type": "electric_scooter", "name": "77575db43632880f0fddb80aa5e782f8", "is_disabled": 0, "rental_uris": {"ios": "https://dc.lft.to/lastmile_qr_scan", "android": "https://dc.lft.to/lastmile_qr_scan"}, "is_reserved": 0}, {"lon": -77.0242695, "bike_id": "f931418cc80c5e169577c00732fe480e", "lat": 38.919375333333335, "fusion_lon": 0.0, "fusion_lat": 0.0, "type": "electric_scooter", "name": "f931418cc80c5e169577c00732fe480e", "is_disabled": 0, "rental_uris": {"ios": "https://dc.lft.to/lastmile_qr_scan", "android": "https://dc.lft.to/lastmile_qr_scan"}, "is_reserved": 0}, {"lon": -77.0241865, "bike_id": "88a2e9733b4a982665d4860bb0998b2e", "lat": 38.907270833333335, "fusion_lon": 0.0, "fusion_lat": 0.0, "type": "electric_scooter", "name": "88a2e9733b4a982665d4860bb0998b2e", "is_disabled": 0, "rental_uris": {"ios": "https://dc.lft.to/lastmile_qr_scan", "android": "https://dc.lft.to/lastmile_qr_scan"}, "is_reserved": 0}, {"lon": -76.9837845, "bike_id": "41d9f8986c6dff014fcbcc0f86a0551c", "lat": 38.896047833333334, "fusion_lon": 0.0, "fusion_lat": 0.0, "type": "electric_scooter", "name": "41d9f8986c6dff014fcbcc0f86a0551c", "is_disabled": 0, "rental_uris": {"ios": "https://dc.lft.to/lastmile_qr_scan", "android": "https://dc.lft.to/lastmile_qr_scan"}, "is_reserved": 0}, {"lon": -77.0411185, "bike_id": "16c45502c92bc0e0082d71f95755fd37", "lat": 38.92798333333333, "fusion_lon": 0.0, "fusion_lat": 0.0, "type": "electric_scooter", "name": "16c45502c92bc0e0082d71f95755fd37", "is_disabled": 0, "rental_uris": {"ios": "https://dc.lft.to/lastmile_qr_scan", "android": "https://dc.lft.to/lastmile_qr_scan"}, "is_reserved": 0}, {"lon": -77.02789033333333, "bike_id": "81af713dca2d48a65e768606eb3f67ab", "lat": 38.892188833333336, "fusion_lon": 0.0, "fusion_lat": 0.0, "type": "electric_scooter", "name": "81af713dca2d48a65e768606eb3f67ab", "is_disabled": 0, "rental_uris": {"ios": "https://dc.lft.to/lastmile_qr_scan", "android": "https://dc.lft.to/lastmile_qr_scan"}, "is_reserved": 0}, {"lon": -77.03531716666667, "bike_id": "ef072ec132e184b577e0304c53caf75d", "lat": 38.925656833333335, "fusion_lon": 0.0, "fusion_lat": 0.0, "type": "electric_scooter", "name": "ef072ec132e184b577e0304c53caf75d", "is_disabled": 0, "rental_uris": {"ios": "https://dc.lft.to/lastmile_qr_scan", "android": "https://dc.lft.to/lastmile_qr_scan"}, "is_reserved": 0}, {"lon": -77.01792283333333, "bike_id": "bf8da41c67c958a3c049e6f6b5eac33e", "lat": 38.9050295, "fusion_lon": 0.0, "fusion_lat": 0.0, "type": "electric_scooter", "name": "bf8da41c67c958a3c049e6f6b5eac33e", "is_disabled": 0, "rental_uris": {"ios": "https://dc.lft.to/lastmile_qr_scan", "android": "https://dc.lft.to/lastmile_qr_scan"}, "is_reserved": 0}, {"lon": -77.00942466666666, "bike_id": "6ad18e4dac5bd64eadf11bd7e685c65a", "lat": 38.88314183333333, "fusion_lon": 0.0, "fusion_lat": 0.0, "type": "electric_scooter", "name": "6ad18e4dac5bd64eadf11bd7e685c65a", "is_disabled": 0, "rental_uris": {"ios": "https://dc.lft.to/lastmile_qr_scan", "android": "https://dc.lft.to/lastmile_qr_scan"}, "is_reserved": 0}, {"lon": -77.03768183333334, "bike_id": "4cf1356643883ffeb33d8c44a6b71ff0", "lat": 38.920117, "fusion_lon": 0.0, "fusion_lat": 0.0, "type": "electric_scooter", "name": "4cf1356643883ffeb33d8c44a6b71ff0", "is_disabled": 0, "rental_uris": {"ios": "https://dc.lft.to/lastmile_qr_scan", "android": "https://dc.lft.to/lastmile_qr_scan"}, "is_reserved": 0}, {"lon": -77.0445675, "bike_id": "ae9f073c6f419cdd1e6ebfc12c8a75d5", "lat": 38.915244666666666, "fusion_lon": 0.0, "fusion_lat": 0.0, "type": "electric_scooter", "name": "ae9f073c6f419cdd1e6ebfc12c8a75d5", "is_disabled": 0, "rental_uris": {"ios": "https://dc.lft.to/lastmile_qr_scan", "android": "https://dc.lft.to/lastmile_qr_scan"}, "is_reserved": 0}, {"lon": -77.00718983333333, "bike_id": "2ab036b785434d44206280116f99d618", "lat": 38.83336533333333, "fusion_lon": 0.0, "fusion_lat": 0.0, "type": "electric_bike", "name": "2ab036b785434d44206280116f99d618", "is_disabled": 0, "rental_uris": {"ios": "https://dc.lft.to/lastmile_qr_scan", "android": "https://dc.lft.to/lastmile_qr_scan"}, "is_reserved": 0}, {"lon": -77.00959116666667, "bike_id": "1bf95dc2d982de2f05e8d771e9d604e7", "lat": 38.921262166666665, "fusion_lon": 0.0, "fusion_lat": 0.0, "type": "electric_scooter", "name": "1bf95dc2d982de2f05e8d771e9d604e7", "is_disabled": 0, "rental_uris": {"ios": "https://dc.lft.to/lastmile_qr_scan", "android": "https://dc.lft.to/lastmile_qr_scan"}, "is_reserved": 0}, {"lon": -77.02707283333334, "bike_id": "4d9ebe2f4843c7835243814a33e79ca7", "lat": 38.923983166666666, "fusion_lon": 0.0, "fusion_lat": 0.0, "type": "electric_scooter", "name": "4d9ebe2f4843c7835243814a33e79ca7", "is_disabled": 0, "rental_uris": {"ios": "https://dc.lft.to/lastmile_qr_scan", "android": "https://dc.lft.to/lastmile_qr_scan"}, "is_reserved": 0}, {"lon": -77.0466555, "bike_id": "0c57fffc488bb76631f13c4972584190", "lat": 38.90424866666667, "fusion_lon": 0.0, "fusion_lat": 0.0, "type": "electric_scooter", "name": "0c57fffc488bb76631f13c4972584190", "is_disabled": 0, "rental_uris": {"ios": "https://dc.lft.to/lastmile_qr_scan", "android": "https://dc.lft.to/lastmile_qr_scan"}, "is_reserved": 0}, {"lon": -76.930741, "bike_id": "4188b53a34938fa1da54f1fae13725b7", "lat": 38.895574833333335, "fusion_lon": 0.0, "fusion_lat": 0.0, "type": "electric_scooter", "name": "4188b53a34938fa1da54f1fae13725b7", "is_disabled": 0, "rental_uris": {"ios": "https://dc.lft.to/lastmile_qr_scan", "android": "https://dc.lft.to/lastmile_qr_scan"}, "is_reserved": 0}, {"lon": -77.02234233333333, "bike_id": "f51a42a49f27a630f8004e008ccb8dc6", "lat": 38.90395483333333, "fusion_lon": 0.0, "fusion_lat": 0.0, "type": "electric_scooter", "name": "f51a42a49f27a630f8004e008ccb8dc6", "is_disabled": 0, "rental_uris": {"ios": "https://dc.lft.to/lastmile_qr_scan", "android": "https://dc.lft.to/lastmile_qr_scan"}, "is_reserved": 0}, {"lon": -77.00206633333333, "bike_id": "2e23d378b7f0022864e6a3bd740bdf4c", "lat": 38.90235933333334, "fusion_lon": 0.0, "fusion_lat": 0.0, "type": "electric_scooter", "name": "2e23d378b7f0022864e6a3bd740bdf4c", "is_disabled": 0, "rental_uris": {"ios": "https://dc.lft.to/lastmile_qr_scan", "android": "https://dc.lft.to/lastmile_qr_scan"}, "is_reserved": 0}, {"lon": -77.02476516666667, "bike_id": "394bed2533d2686da77e9fc9a11de314", "lat": 38.91990333333333, "fusion_lon": 0.0, "fusion_lat": 0.0, "type": "electric_scooter", "name": "394bed2533d2686da77e9fc9a11de314", "is_disabled": 0, "rental_uris": {"ios": "https://dc.lft.to/lastmile_qr_scan", "android": "https://dc.lft.to/lastmile_qr_scan"}, "is_reserved": 0}, {"lon": -77.036539, "bike_id": "2f651d2f522d0bd4efca279c69a6dc7d", "lat": 38.95608516666667, "fusion_lon": 0.0, "fusion_lat": 0.0, "type": "electric_scooter", "name": "2f651d2f522d0bd4efca279c69a6dc7d", "is_disabled": 0, "rental_uris": {"ios": "https://dc.lft.to/lastmile_qr_scan", "android": "https://dc.lft.to/lastmile_qr_scan"}, "is_reserved": 0}, {"lon": -76.97835116666667, "bike_id": "4150a1eeeda544b9159d852889393eab", "lat": 38.84362683333333, "fusion_lon": 0.0, "fusion_lat": 0.0, "type": "electric_bike", "name": "4150a1eeeda544b9159d852889393eab", "is_disabled": 0, "rental_uris": {"ios": "https://dc.lft.to/lastmile_qr_scan", "android": "https://dc.lft.to/lastmile_qr_scan"}, "is_reserved": 0}, {"lon": -77.04758166666667, "bike_id": "cd950d3cec023dcc8f61dca233c08c7c", "lat": 38.90956966666667, "fusion_lon": 0.0, "fusion_lat": 0.0, "type": "electric_scooter", "name": "cd950d3cec023dcc8f61dca233c08c7c", "is_disabled": 0, "rental_uris": {"ios": "https://dc.lft.to/lastmile_qr_scan", "android": "https://dc.lft.to/lastmile_qr_scan"}, "is_reserved": 0}, {"lon": -77.031159, "bike_id": "09ee1a47587bde48d762ab1f0fcc3355", "lat": 38.93321016666667, "fusion_lon": 0.0, "fusion_lat": 0.0, "type": "electric_scooter", "name": "09ee1a47587bde48d762ab1f0fcc3355", "is_disabled": 0, "rental_uris": {"ios": "https://dc.lft.to/lastmile_qr_scan", "android": "https://dc.lft.to/lastmile_qr_scan"}, "is_reserved": 0}, {"lon": -77.09065883333334, "bike_id": "6c96da714a0986ead1480d6359b696e1", "lat": 38.862540333333335, "fusion_lon": 0.0, "fusion_lat": 0.0, "type": "electric_bike", "name": "6c96da714a0986ead1480d6359b696e1", "is_disabled": 0, "rental_uris": {"ios": "https://dc.lft.to/lastmile_qr_scan", "android": "https://dc.lft.to/lastmile_qr_scan"}, "is_reserved": 0}, {"lon": -77.04487933333333, "bike_id": "4dbaafb905645b5f9d33d70418e10ca4", "lat": 38.90801283333333, "fusion_lon": 0.0, "fusion_lat": 0.0, "type": "electric_scooter", "name": "4dbaafb905645b5f9d33d70418e10ca4", "is_disabled": 0, "rental_uris": {"ios": "https://dc.lft.to/lastmile_qr_scan", "android": "https://dc.lft.to/lastmile_qr_scan"}, "is_reserved": 0}, {"lon": -77.032519, "bike_id": "30b978c9fd03a0b7036612287cb4c50e", "lat": 38.915594666666664, "fusion_lon": 0.0, "fusion_lat": 0.0, "type": "electric_scooter", "name": "30b978c9fd03a0b7036612287cb4c50e", "is_disabled": 0, "rental_uris": {"ios": "https://dc.lft.to/lastmile_qr_scan", "android": "https://dc.lft.to/lastmile_qr_scan"}, "is_reserved": 0}, {"lon": -77.005663, "bike_id": "e6206082f1f7f255702e05c7c89d7d3d", "lat": 38.87466466666667, "fusion_lon": 0.0, "fusion_lat": 0.0, "type": "electric_scooter", "name": "e6206082f1f7f255702e05c7c89d7d3d", "is_disabled": 0, "rental_uris": {"ios": "https://dc.lft.to/lastmile_qr_scan", "android": "https://dc.lft.to/lastmile_qr_scan"}, "is_reserved": 0}, {"lon": -77.03454966666666, "bike_id": "73198a8a564757d356bfbb43bf7d733e", "lat": 38.9343625, "fusion_lon": 0.0, "fusion_lat": 0.0, "type": "electric_scooter", "name": "73198a8a564757d356bfbb43bf7d733e", "is_disabled": 0, "rental_uris": {"ios": "https://dc.lft.to/lastmile_qr_scan", "android": "https://dc.lft.to/lastmile_qr_scan"}, "is_reserved": 0}, {"lon": -77.0195515, "bike_id": "b819212b1af0976f48474e185f11c37f", "lat": 38.913023833333334, "fusion_lon": 0.0, "fusion_lat": 0.0, "type": "electric_scooter", "name": "b819212b1af0976f48474e185f11c37f", "is_disabled": 0, "rental_uris": {"ios": "https://dc.lft.to/lastmile_qr_scan", "android": "https://dc.lft.to/lastmile_qr_scan"}, "is_reserved": 0}, {"lon": -77.04622166666667, "bike_id": "df2118e92bc0501bd41f58268ddea984", "lat": 38.907616833333336, "fusion_lon": 0.0, "fusion_lat": 0.0, "type": "electric_scooter", "name": "df2118e92bc0501bd41f58268ddea984", "is_disabled": 0, "rental_uris": {"ios": "https://dc.lft.to/lastmile_qr_scan", "android": "https://dc.lft.to/lastmile_qr_scan"}, "is_reserved": 0}, {"lon": -76.99932766666667, "bike_id": "123991b9f9aef0a493f66c47fdd91d70", "lat": 38.90856016666667, "fusion_lon": 0.0, "fusion_lat": 0.0, "type": "electric_scooter", "name": "123991b9f9aef0a493f66c47fdd91d70", "is_disabled": 0, "rental_uris": {"ios": "https://dc.lft.to/lastmile_qr_scan", "android": "https://dc.lft.to/lastmile_qr_scan"}, "is_reserved": 0}, {"lon": -77.0326625, "bike_id": "a91c5e3dfd8bfeba50ffba459ebc5d59", "lat": 38.93450416666667, "fusion_lon": 0.0, "fusion_lat": 0.0, "type": "electric_scooter", "name": "a91c5e3dfd8bfeba50ffba459ebc5d59", "is_disabled": 0, "rental_uris": {"ios": "https://dc.lft.to/lastmile_qr_scan", "android": "https://dc.lft.to/lastmile_qr_scan"}, "is_reserved": 0}, {"lon": -76.9866815, "bike_id": "97ee246ea82370bc44427f75c1c1a68b", "lat": 38.867323166666665, "fusion_lon": 0.0, "fusion_lat": 0.0, "type": "electric_scooter", "name": "97ee246ea82370bc44427f75c1c1a68b", "is_disabled": 0, "rental_uris": {"ios": "https://dc.lft.to/lastmile_qr_scan", "android": "https://dc.lft.to/lastmile_qr_scan"}, "is_reserved": 0}, {"lon": -77.0308635, "bike_id": "709cc57ef484a7cf610c72dbb91c9aec", "lat": 38.91559766666666, "fusion_lon": 0.0, "fusion_lat": 0.0, "type": "electric_scooter", "name": "709cc57ef484a7cf610c72dbb91c9aec", "is_disabled": 0, "rental_uris": {"ios": "https://dc.lft.to/lastmile_qr_scan", "android": "https://dc.lft.to/lastmile_qr_scan"}, "is_reserved": 0}, {"lon": -77.0249755, "bike_id": "93047d129ea34daf7e70df3c21e4eca1", "lat": 38.925866666666664, "fusion_lon": 0.0, "fusion_lat": 0.0, "type": "electric_scooter", "name": "93047d129ea34daf7e70df3c21e4eca1", "is_disabled": 0, "rental_uris": {"ios": "https://dc.lft.to/lastmile_qr_scan", "android": "https://dc.lft.to/lastmile_qr_scan"}, "is_reserved": 0}, {"lon": -76.95477333333334, "bike_id": "c6c4bd7e2721b79b30a869389868016b", "lat": 38.88654, "fusion_lon": 0.0, "fusion_lat": 0.0, "type": "electric_scooter", "name": "c6c4bd7e2721b79b30a869389868016b", "is_disabled": 0, "rental_uris": {"ios": "https://dc.lft.to/lastmile_qr_scan", "android": "https://dc.lft.to/lastmile_qr_scan"}, "is_reserved": 0}, {"lon": -77.02967233333334, "bike_id": "66f9cb158df61d08d94696fc8427ce28", "lat": 38.930808, "fusion_lon": 0.0, "fusion_lat": 0.0, "type": "electric_scooter", "name": "66f9cb158df61d08d94696fc8427ce28", "is_disabled": 0, "rental_uris": {"ios": "https://dc.lft.to/lastmile_qr_scan", "android": "https://dc.lft.to/lastmile_qr_scan"}, "is_reserved": 0}, {"lon": -77.04163983333333, "bike_id": "442fc0b3433791ef4445f5185b480dbb", "lat": 38.907371833333336, "fusion_lon": 0.0, "fusion_lat": 0.0, "type": "electric_scooter", "name": "442fc0b3433791ef4445f5185b480dbb", "is_disabled": 0, "rental_uris": {"ios": "https://dc.lft.to/lastmile_qr_scan", "android": "https://dc.lft.to/lastmile_qr_scan"}, "is_reserved": 0}, {"lon": -77.02714583333334, "bike_id": "8e6d231907c683c451e71c666f48d8f1", "lat": 38.92882183333333, "fusion_lon": 0.0, "fusion_lat": 0.0, "type": "electric_scooter", "name": "8e6d231907c683c451e71c666f48d8f1", "is_disabled": 0, "rental_uris": {"ios": "https://dc.lft.to/lastmile_qr_scan", "android": "https://dc.lft.to/lastmile_qr_scan"}, "is_reserved": 0}, {"lon": -77.04676166666667, "bike_id": "5d7e4b5778f02770f82fbe1e3c52cf13", "lat": 38.913559, "fusion_lon": 0.0, "fusion_lat": 0.0, "type": "electric_scooter", "name": "5d7e4b5778f02770f82fbe1e3c52cf13", "is_disabled": 0, "rental_uris": {"ios": "https://dc.lft.to/lastmile_qr_scan", "android": "https://dc.lft.to/lastmile_qr_scan"}, "is_reserved": 0}, {"lon": -77.03687916666667, "bike_id": "90cb9485370ce702beaa9c0587c1e5c0", "lat": 38.916813, "fusion_lon": 0.0, "fusion_lat": 0.0, "type": "electric_scooter", "name": "90cb9485370ce702beaa9c0587c1e5c0", "is_disabled": 0, "rental_uris": {"ios": "https://dc.lft.to/lastmile_qr_scan", "android": "https://dc.lft.to/lastmile_qr_scan"}, "is_reserved": 0}, {"lon": -77.03277516666667, "bike_id": "e572d3cb3a645da1a70d7567d9b17279", "lat": 38.91988166666667, "fusion_lon": 0.0, "fusion_lat": 0.0, "type": "electric_scooter", "name": "e572d3cb3a645da1a70d7567d9b17279", "is_disabled": 0, "rental_uris": {"ios": "https://dc.lft.to/lastmile_qr_scan", "android": "https://dc.lft.to/lastmile_qr_scan"}, "is_reserved": 0}, {"lon": -76.9364645, "bike_id": "2333e334757be4c09c67897e0aa1e7f8", "lat": 38.90061033333333, "fusion_lon": 0.0, "fusion_lat": 0.0, "type": "electric_scooter", "name": "2333e334757be4c09c67897e0aa1e7f8", "is_disabled": 0, "rental_uris": {"ios": "https://dc.lft.to/lastmile_qr_scan", "android": "https://dc.lft.to/lastmile_qr_scan"}, "is_reserved": 0}, {"lon": -76.9317725, "bike_id": "50d1862250b273871011c2b90bf2eade", "lat": 38.898827833333335, "fusion_lon": 0.0, "fusion_lat": 0.0, "type": "electric_scooter", "name": "50d1862250b273871011c2b90bf2eade", "is_disabled": 0, "rental_uris": {"ios": "https://dc.lft.to/lastmile_qr_scan", "android": "https://dc.lft.to/lastmile_qr_scan"}, "is_reserved": 0}, {"lon": -77.04498566666666, "bike_id": "a6b03db233dc1fd836cf386664afddb9", "lat": 38.905401, "fusion_lon": 0.0, "fusion_lat": 0.0, "type": "electric_bike", "name": "a6b03db233dc1fd836cf386664afddb9", "is_disabled": 0, "rental_uris": {"ios": "https://dc.lft.to/lastmile_qr_scan", "android": "https://dc.lft.to/lastmile_qr_scan"}, "is_reserved": 0}, {"lon": -77.02447466666666, "bike_id": "5a44a6a337b4e3436411b2037b7527d7", "lat": 38.93746766666667, "fusion_lon": 0.0, "fusion_lat": 0.0, "type": "electric_scooter", "name": "5a44a6a337b4e3436411b2037b7527d7", "is_disabled": 0, "rental_uris": {"ios": "https://dc.lft.to/lastmile_qr_scan", "android": "https://dc.lft.to/lastmile_qr_scan"}, "is_reserved": 0}, {"lon": -77.026873, "bike_id": "4e621ec36af2901eac183d50caf71631", "lat": 38.895990833333336, "fusion_lon": 0.0, "fusion_lat": 0.0, "type": "electric_bike", "name": "4e621ec36af2901eac183d50caf71631", "is_disabled": 0, "rental_uris": {"ios": "https://dc.lft.to/lastmile_qr_scan", "android": "https://dc.lft.to/lastmile_qr_scan"}, "is_reserved": 0}, {"lon": -77.03289166666667, "bike_id": "4b80d0fce313b953205f7a3e7f818e71", "lat": 38.9564505, "fusion_lon": 0.0, "fusion_lat": 0.0, "type": "electric_scooter", "name": "4b80d0fce313b953205f7a3e7f818e71", "is_disabled": 0, "rental_uris": {"ios": "https://dc.lft.to/lastmile_qr_scan", "android": "https://dc.lft.to/lastmile_qr_scan"}, "is_reserved": 0}, {"lon": -77.02499883333333, "bike_id": "8280d1cc6afe2d5b3599b07d7589e6fc", "lat": 38.905037666666665, "fusion_lon": 0.0, "fusion_lat": 0.0, "type": "electric_scooter", "name": "8280d1cc6afe2d5b3599b07d7589e6fc", "is_disabled": 0, "rental_uris": {"ios": "https://dc.lft.to/lastmile_qr_scan", "android": "https://dc.lft.to/lastmile_qr_scan"}, "is_reserved": 0}, {"lon": -77.04369333333334, "bike_id": "8ef0f107ae2ef0338e369c95fb7c92e6", "lat": 38.902479, "fusion_lon": 0.0, "fusion_lat": 0.0, "type": "electric_scooter", "name": "8ef0f107ae2ef0338e369c95fb7c92e6", "is_disabled": 0, "rental_uris": {"ios": "https://dc.lft.to/lastmile_qr_scan", "android": "https://dc.lft.to/lastmile_qr_scan"}, "is_reserved": 0}, {"lon": -76.93015183333333, "bike_id": "632eb178992a0de19abc9aa054a1f68e", "lat": 38.8964995, "fusion_lon": 0.0, "fusion_lat": 0.0, "type": "electric_bike", "name": "632eb178992a0de19abc9aa054a1f68e", "is_disabled": 0, "rental_uris": {"ios": "https://dc.lft.to/lastmile_qr_scan", "android": "https://dc.lft.to/lastmile_qr_scan"}, "is_reserved": 0}, {"lon": -77.0269995, "bike_id": "8dce70258a5b857b0db6d7bb00d055db", "lat": 38.93227, "fusion_lon": 0.0, "fusion_lat": 0.0, "type": "electric_bike", "name": "8dce70258a5b857b0db6d7bb00d055db", "is_disabled": 0, "rental_uris": {"ios": "https://dc.lft.to/lastmile_qr_scan", "android": "https://dc.lft.to/lastmile_qr_scan"}, "is_reserved": 0}, {"lon": -77.027267, "bike_id": "fdca7429c17c3ef48cc0f43dd0670304", "lat": 38.9156325, "fusion_lon": 0.0, "fusion_lat": 0.0, "type": "electric_scooter", "name": "fdca7429c17c3ef48cc0f43dd0670304", "is_disabled": 0, "rental_uris": {"ios": "https://dc.lft.to/lastmile_qr_scan", "android": "https://dc.lft.to/lastmile_qr_scan"}, "is_reserved": 0}, {"lon": -76.99686116666666, "bike_id": "004085ab513cfff8dfa447780a460934", "lat": 38.908311166666664, "fusion_lon": 0.0, "fusion_lat": 0.0, "type": "electric_scooter", "name": "004085ab513cfff8dfa447780a460934", "is_disabled": 0, "rental_uris": {"ios": "https://dc.lft.to/lastmile_qr_scan", "android": "https://dc.lft.to/lastmile_qr_scan"}, "is_reserved": 0}, {"lon": -77.03056366666667, "bike_id": "3fe4bc7ce33b453a38bb7ac8fca3570c", "lat": 38.88416183333333, "fusion_lon": 0.0, "fusion_lat": 0.0, "type": "electric_scooter", "name": "3fe4bc7ce33b453a38bb7ac8fca3570c", "is_disabled": 0, "rental_uris": {"ios": "https://dc.lft.to/lastmile_qr_scan", "android": "https://dc.lft.to/lastmile_qr_scan"}, "is_reserved": 0}, {"lon": -77.03414516666666, "bike_id": "2091b38157a6b2322f1ae997f4f495db", "lat": 38.9324585, "fusion_lon": 0.0, "fusion_lat": 0.0, "type": "electric_scooter", "name": "2091b38157a6b2322f1ae997f4f495db", "is_disabled": 0, "rental_uris": {"ios": "https://dc.lft.to/lastmile_qr_scan", "android": "https://dc.lft.to/lastmile_qr_scan"}, "is_reserved": 0}, {"lon": -77.0395825, "bike_id": "793b670888ece68d82b17a97539f5906", "lat": 38.90120966666667, "fusion_lon": 0.0, "fusion_lat": 0.0, "type": "electric_scooter", "name": "793b670888ece68d82b17a97539f5906", "is_disabled": 0, "rental_uris": {"ios": "https://dc.lft.to/lastmile_qr_scan", "android": "https://dc.lft.to/lastmile_qr_scan"}, "is_reserved": 0}, {"lon": -77.02758066666667, "bike_id": "31cf545dbc1ae44ff5f33d4072ad66a3", "lat": 38.94179366666667, "fusion_lon": 0.0, "fusion_lat": 0.0, "type": "electric_scooter", "name": "31cf545dbc1ae44ff5f33d4072ad66a3", "is_disabled": 0, "rental_uris": {"ios": "https://dc.lft.to/lastmile_qr_scan", "android": "https://dc.lft.to/lastmile_qr_scan"}, "is_reserved": 0}, {"lon": -76.973048, "bike_id": "b0d71058b2c3142378d06b4ec981f47a", "lat": 38.88746716666667, "fusion_lon": 0.0, "fusion_lat": 0.0, "type": "electric_scooter", "name": "b0d71058b2c3142378d06b4ec981f47a", "is_disabled": 0, "rental_uris": {"ios": "https://dc.lft.to/lastmile_qr_scan", "android": "https://dc.lft.to/lastmile_qr_scan"}, "is_reserved": 0}, {"lon": -77.0523375, "bike_id": "f61fc3edb6887dca14b0797f3b1f5281", "lat": 38.92335666666666, "fusion_lon": 0.0, "fusion_lat": 0.0, "type": "electric_scooter", "name": "f61fc3edb6887dca14b0797f3b1f5281", "is_disabled": 0, "rental_uris": {"ios": "https://dc.lft.to/lastmile_qr_scan", "android": "https://dc.lft.to/lastmile_qr_scan"}, "is_reserved": 0}, {"lon": -76.987656, "bike_id": "938b28c2fe35e15b85a7a1b8f7c21dc2", "lat": 38.85767766666667, "fusion_lon": 0.0, "fusion_lat": 0.0, "type": "electric_bike", "name": "938b28c2fe35e15b85a7a1b8f7c21dc2", "is_disabled": 0, "rental_uris": {"ios": "https://dc.lft.to/lastmile_qr_scan", "android": "https://dc.lft.to/lastmile_qr_scan"}, "is_reserved": 0}, {"lon": -77.02767266666666, "bike_id": "b328d2cee5a8c58ed8d43100b9a5b14f", "lat": 38.95421183333333, "fusion_lon": 0.0, "fusion_lat": 0.0, "type": "electric_scooter", "name": "b328d2cee5a8c58ed8d43100b9a5b14f", "is_disabled": 0, "rental_uris": {"ios": "https://dc.lft.to/lastmile_qr_scan", "android": "https://dc.lft.to/lastmile_qr_scan"}, "is_reserved": 0}, {"lon": -77.0326505, "bike_id": "df53e72e8ad556c135ce2125a1cdc180", "lat": 38.9372825, "fusion_lon": 0.0, "fusion_lat": 0.0, "type": "electric_scooter", "name": "df53e72e8ad556c135ce2125a1cdc180", "is_disabled": 0, "rental_uris": {"ios": "https://dc.lft.to/lastmile_qr_scan", "android": "https://dc.lft.to/lastmile_qr_scan"}, "is_reserved": 0}, {"lon": -77.06837683333333, "bike_id": "cd7c64d409cef5e4c5b52071c1e43f96", "lat": 38.80564233333333, "fusion_lon": 0.0, "fusion_lat": 0.0, "type": "electric_bike", "name": "cd7c64d409cef5e4c5b52071c1e43f96", "is_disabled": 0, "rental_uris": {"ios": "https://dc.lft.to/lastmile_qr_scan", "android": "https://dc.lft.to/lastmile_qr_scan"}, "is_reserved": 0}, {"lon": -77.0435245, "bike_id": "54d14d4e19f3b4d7d1a214bd52e7fca1", "lat": 38.9104635, "fusion_lon": 0.0, "fusion_lat": 0.0, "type": "electric_scooter", "name": "54d14d4e19f3b4d7d1a214bd52e7fca1", "is_disabled": 0, "rental_uris": {"ios": "https://dc.lft.to/lastmile_qr_scan", "android": "https://dc.lft.to/lastmile_qr_scan"}, "is_reserved": 0}, {"lon": -76.98089316666666, "bike_id": "a321e571164c09f7f3cf8781b7556e2c", "lat": 38.90706133333333, "fusion_lon": 0.0, "fusion_lat": 0.0, "type": "electric_scooter", "name": "a321e571164c09f7f3cf8781b7556e2c", "is_disabled": 0, "rental_uris": {"ios": "https://dc.lft.to/lastmile_qr_scan", "android": "https://dc.lft.to/lastmile_qr_scan"}, "is_reserved": 0}, {"lon": -77.003365, "bike_id": "86a42d30c6cd2a02328482f6e4f6e49d", "lat": 38.89727833333333, "fusion_lon": 0.0, "fusion_lat": 0.0, "type": "electric_scooter", "name": "86a42d30c6cd2a02328482f6e4f6e49d", "is_disabled": 0, "rental_uris": {"ios": "https://dc.lft.to/lastmile_qr_scan", "android": "https://dc.lft.to/lastmile_qr_scan"}, "is_reserved": 0}, {"lon": -77.03228633333333, "bike_id": "324842292bd9bea16aa0ed58cfd5e50e", "lat": 38.938811666666666, "fusion_lon": 0.0, "fusion_lat": 0.0, "type": "electric_scooter", "name": "324842292bd9bea16aa0ed58cfd5e50e", "is_disabled": 0, "rental_uris": {"ios": "https://dc.lft.to/lastmile_qr_scan", "android": "https://dc.lft.to/lastmile_qr_scan"}, "is_reserved": 0}, {"lon": -77.03328466666666, "bike_id": "13a3c729c921c5e10ab2ba4140516b42", "lat": 38.915646, "fusion_lon": 0.0, "fusion_lat": 0.0, "type": "electric_scooter", "name": "13a3c729c921c5e10ab2ba4140516b42", "is_disabled": 0, "rental_uris": {"ios": "https://dc.lft.to/lastmile_qr_scan", "android": "https://dc.lft.to/lastmile_qr_scan"}, "is_reserved": 0}, {"lon": -77.03747033333333, "bike_id": "f8d06ac36b35fa8a344b71c539820ec1", "lat": 38.916963833333334, "fusion_lon": 0.0, "fusion_lat": 0.0, "type": "electric_scooter", "name": "f8d06ac36b35fa8a344b71c539820ec1", "is_disabled": 0, "rental_uris": {"ios": "https://dc.lft.to/lastmile_qr_scan", "android": "https://dc.lft.to/lastmile_qr_scan"}, "is_reserved": 0}, {"lon": -76.9275785, "bike_id": "4095f2ad490df044fbf21b9dd47354ca", "lat": 38.880546333333335, "fusion_lon": 0.0, "fusion_lat": 0.0, "type": "electric_scooter", "name": "4095f2ad490df044fbf21b9dd47354ca", "is_disabled": 0, "rental_uris": {"ios": "https://dc.lft.to/lastmile_qr_scan", "android": "https://dc.lft.to/lastmile_qr_scan"}, "is_reserved": 0}, {"lon": -77.00770033333333, "bike_id": "97dfdb20ef4e934ce02805d9b9bae443", "lat": 38.906655666666666, "fusion_lon": 0.0, "fusion_lat": 0.0, "type": "electric_scooter", "name": "97dfdb20ef4e934ce02805d9b9bae443", "is_disabled": 0, "rental_uris": {"ios": "https://dc.lft.to/lastmile_qr_scan", "android": "https://dc.lft.to/lastmile_qr_scan"}, "is_reserved": 0}, {"lon": -77.03271483333333, "bike_id": "4347c1cce46c7431feffbd1f70c445a2", "lat": 38.9296175, "fusion_lon": 0.0, "fusion_lat": 0.0, "type": "electric_scooter", "name": "4347c1cce46c7431feffbd1f70c445a2", "is_disabled": 0, "rental_uris": {"ios": "https://dc.lft.to/lastmile_qr_scan", "android": "https://dc.lft.to/lastmile_qr_scan"}, "is_reserved": 0}, {"lon": -77.03861383333333, "bike_id": "b2dcf7ab605e2e636882fcd5b6031851", "lat": 38.915752166666664, "fusion_lon": 0.0, "fusion_lat": 0.0, "type": "electric_scooter", "name": "b2dcf7ab605e2e636882fcd5b6031851", "is_disabled": 0, "rental_uris": {"ios": "https://dc.lft.to/lastmile_qr_scan", "android": "https://dc.lft.to/lastmile_qr_scan"}, "is_reserved": 0}, {"lon": -77.022722, "bike_id": "b6915a4fd1dd3af4cde2dd26aa04a292", "lat": 38.93772116666667, "fusion_lon": 0.0, "fusion_lat": 0.0, "type": "electric_scooter", "name": "b6915a4fd1dd3af4cde2dd26aa04a292", "is_disabled": 0, "rental_uris": {"ios": "https://dc.lft.to/lastmile_qr_scan", "android": "https://dc.lft.to/lastmile_qr_scan"}, "is_reserved": 0}, {"lon": -77.05264616666666, "bike_id": "0b5932c677dfab55333a85e2258f5f90", "lat": 38.91004866666667, "fusion_lon": 0.0, "fusion_lat": 0.0, "type": "electric_scooter", "name": "0b5932c677dfab55333a85e2258f5f90", "is_disabled": 0, "rental_uris": {"ios": "https://dc.lft.to/lastmile_qr_scan", "android": "https://dc.lft.to/lastmile_qr_scan"}, "is_reserved": 0}, {"lon": -77.05604066666666, "bike_id": "b8da1d55ffe8fe67d53258cec72ccfd5", "lat": 38.92327133333333, "fusion_lon": 0.0, "fusion_lat": 0.0, "type": "electric_scooter", "name": "b8da1d55ffe8fe67d53258cec72ccfd5", "is_disabled": 0, "rental_uris": {"ios": "https://dc.lft.to/lastmile_qr_scan", "android": "https://dc.lft.to/lastmile_qr_scan"}, "is_reserved": 0}, {"lon": -77.05241133333334, "bike_id": "6830925da568aca75539088ed37b6bd4", "lat": 38.9246395, "fusion_lon": 0.0, "fusion_lat": 0.0, "type": "electric_scooter", "name": "6830925da568aca75539088ed37b6bd4", "is_disabled": 0, "rental_uris": {"ios": "https://dc.lft.to/lastmile_qr_scan", "android": "https://dc.lft.to/lastmile_qr_scan"}, "is_reserved": 0}, {"lon": -77.02797233333334, "bike_id": "d57f6e5b8a84c1d3278271db6fda081c", "lat": 38.95679583333333, "fusion_lon": 0.0, "fusion_lat": 0.0, "type": "electric_scooter", "name": "d57f6e5b8a84c1d3278271db6fda081c", "is_disabled": 0, "rental_uris": {"ios": "https://dc.lft.to/lastmile_qr_scan", "android": "https://dc.lft.to/lastmile_qr_scan"}, "is_reserved": 0}, {"lon": -77.02312183333333, "bike_id": "7a7abb0323ca43b23a1e7f97977346f3", "lat": 38.909488, "fusion_lon": 0.0, "fusion_lat": 0.0, "type": "electric_scooter", "name": "7a7abb0323ca43b23a1e7f97977346f3", "is_disabled": 0, "rental_uris": {"ios": "https://dc.lft.to/lastmile_qr_scan", "android": "https://dc.lft.to/lastmile_qr_scan"}, "is_reserved": 0}, {"lon": -77.04250883333333, "bike_id": "1cd3606b9764ac8181a71793d98fdbc3", "lat": 38.92634666666667, "fusion_lon": 0.0, "fusion_lat": 0.0, "type": "electric_scooter", "name": "1cd3606b9764ac8181a71793d98fdbc3", "is_disabled": 0, "rental_uris": {"ios": "https://dc.lft.to/lastmile_qr_scan", "android": "https://dc.lft.to/lastmile_qr_scan"}, "is_reserved": 0}, {"lon": -77.04401983333334, "bike_id": "723879b7788749911f15b839ffca7d3e", "lat": 38.93320083333333, "fusion_lon": 0.0, "fusion_lat": 0.0, "type": "electric_scooter", "name": "723879b7788749911f15b839ffca7d3e", "is_disabled": 0, "rental_uris": {"ios": "https://dc.lft.to/lastmile_qr_scan", "android": "https://dc.lft.to/lastmile_qr_scan"}, "is_reserved": 0}, {"lon": -76.98939016666667, "bike_id": "4a0b582fd2cc32fb5cff0683168f0587", "lat": 38.91835866666667, "fusion_lon": 0.0, "fusion_lat": 0.0, "type": "electric_scooter", "name": "4a0b582fd2cc32fb5cff0683168f0587", "is_disabled": 0, "rental_uris": {"ios": "https://dc.lft.to/lastmile_qr_scan", "android": "https://dc.lft.to/lastmile_qr_scan"}, "is_reserved": 0}, {"lon": -77.023011, "bike_id": "53f26c1477a2a1f3fbbdab1e17c69e18", "lat": 38.918326666666665, "fusion_lon": 0.0, "fusion_lat": 0.0, "type": "electric_scooter", "name": "53f26c1477a2a1f3fbbdab1e17c69e18", "is_disabled": 0, "rental_uris": {"ios": "https://dc.lft.to/lastmile_qr_scan", "android": "https://dc.lft.to/lastmile_qr_scan"}, "is_reserved": 0}, {"lon": -76.98407166666667, "bike_id": "b8b03c492a6af3b944f5d7f2eff0a3a0", "lat": 38.906313, "fusion_lon": 0.0, "fusion_lat": 0.0, "type": "electric_scooter", "name": "b8b03c492a6af3b944f5d7f2eff0a3a0", "is_disabled": 0, "rental_uris": {"ios": "https://dc.lft.to/lastmile_qr_scan", "android": "https://dc.lft.to/lastmile_qr_scan"}, "is_reserved": 0}, {"lon": -77.02590183333334, "bike_id": "c89c7c35c52564b36bf81418cd3fe9dd", "lat": 38.900506666666665, "fusion_lon": 0.0, "fusion_lat": 0.0, "type": "electric_scooter", "name": "c89c7c35c52564b36bf81418cd3fe9dd", "is_disabled": 0, "rental_uris": {"ios": "https://dc.lft.to/lastmile_qr_scan", "android": "https://dc.lft.to/lastmile_qr_scan"}, "is_reserved": 0}, {"lon": -77.02415716666667, "bike_id": "9a7699ec31601767f506d3a840d6d8c4", "lat": 38.920767833333336, "fusion_lon": 0.0, "fusion_lat": 0.0, "type": "electric_scooter", "name": "9a7699ec31601767f506d3a840d6d8c4", "is_disabled": 0, "rental_uris": {"ios": "https://dc.lft.to/lastmile_qr_scan", "android": "https://dc.lft.to/lastmile_qr_scan"}, "is_reserved": 0}, {"lon": -77.05932783333333, "bike_id": "92150fe351d2f8257c42f83bbd7b9b7c", "lat": 38.905329333333334, "fusion_lon": 0.0, "fusion_lat": 0.0, "type": "electric_scooter", "name": "92150fe351d2f8257c42f83bbd7b9b7c", "is_disabled": 0, "rental_uris": {"ios": "https://dc.lft.to/lastmile_qr_scan", "android": "https://dc.lft.to/lastmile_qr_scan"}, "is_reserved": 0}, {"lon": -77.023119, "bike_id": "505bce653f4c2c8ca75fa3ceef25bfdd", "lat": 38.90893483333333, "fusion_lon": 0.0, "fusion_lat": 0.0, "type": "electric_scooter", "name": "505bce653f4c2c8ca75fa3ceef25bfdd", "is_disabled": 0, "rental_uris": {"ios": "https://dc.lft.to/lastmile_qr_scan", "android": "https://dc.lft.to/lastmile_qr_scan"}, "is_reserved": 0}, {"lon": -77.03740233333333, "bike_id": "3a3cf62fd02b9c0dd05819808d0910e0", "lat": 38.8799465, "fusion_lon": 0.0, "fusion_lat": 0.0, "type": "electric_scooter", "name": "3a3cf62fd02b9c0dd05819808d0910e0", "is_disabled": 0, "rental_uris": {"ios": "https://dc.lft.to/lastmile_qr_scan", "android": "https://dc.lft.to/lastmile_qr_scan"}, "is_reserved": 0}, {"lon": -77.03777466666666, "bike_id": "ee8eff399b3b5893d647f1d6e0d4f1da", "lat": 38.929588333333335, "fusion_lon": 0.0, "fusion_lat": 0.0, "type": "electric_scooter", "name": "ee8eff399b3b5893d647f1d6e0d4f1da", "is_disabled": 0, "rental_uris": {"ios": "https://dc.lft.to/lastmile_qr_scan", "android": "https://dc.lft.to/lastmile_qr_scan"}, "is_reserved": 0}, {"lon": -77.05002833333333, "bike_id": "8f4e4c9fa1710a38bf73709a86d39471", "lat": 38.9005955, "fusion_lon": 0.0, "fusion_lat": 0.0, "type": "electric_scooter", "name": "8f4e4c9fa1710a38bf73709a86d39471", "is_disabled": 0, "rental_uris": {"ios": "https://dc.lft.to/lastmile_qr_scan", "android": "https://dc.lft.to/lastmile_qr_scan"}, "is_reserved": 0}, {"lon": -77.006833, "bike_id": "10ee4c8f2d22c8c182c8e6f245b63741", "lat": 38.834936166666665, "fusion_lon": 0.0, "fusion_lat": 0.0, "type": "electric_scooter", "name": "10ee4c8f2d22c8c182c8e6f245b63741", "is_disabled": 0, "rental_uris": {"ios": "https://dc.lft.to/lastmile_qr_scan", "android": "https://dc.lft.to/lastmile_qr_scan"}, "is_reserved": 0}, {"lon": -77.03474716666666, "bike_id": "d058383666450b3ca28320029966d8a4", "lat": 38.884863333333335, "fusion_lon": 0.0, "fusion_lat": 0.0, "type": "electric_scooter", "name": "d058383666450b3ca28320029966d8a4", "is_disabled": 0, "rental_uris": {"ios": "https://dc.lft.to/lastmile_qr_scan", "android": "https://dc.lft.to/lastmile_qr_scan"}, "is_reserved": 0}, {"lon": -77.052953, "bike_id": "43a8810ce9687107fe00bc1d577376b4", "lat": 38.903392333333336, "fusion_lon": 0.0, "fusion_lat": 0.0, "type": "electric_scooter", "name": "43a8810ce9687107fe00bc1d577376b4", "is_disabled": 0, "rental_uris": {"ios": "https://dc.lft.to/lastmile_qr_scan", "android": "https://dc.lft.to/lastmile_qr_scan"}, "is_reserved": 0}, {"lon": -77.03084366666667, "bike_id": "8705111c2f7feef9a1a01cceeca14d88", "lat": 38.907583333333335, "fusion_lon": 0.0, "fusion_lat": 0.0, "type": "electric_scooter", "name": "8705111c2f7feef9a1a01cceeca14d88", "is_disabled": 0, "rental_uris": {"ios": "https://dc.lft.to/lastmile_qr_scan", "android": "https://dc.lft.to/lastmile_qr_scan"}, "is_reserved": 0}, {"lon": -76.94127466666667, "bike_id": "21e1aa8ccb5518ab275592b54ce37bd3", "lat": 38.908144166666666, "fusion_lon": 0.0, "fusion_lat": 0.0, "type": "electric_scooter", "name": "21e1aa8ccb5518ab275592b54ce37bd3", "is_disabled": 0, "rental_uris": {"ios": "https://dc.lft.to/lastmile_qr_scan", "android": "https://dc.lft.to/lastmile_qr_scan"}, "is_reserved": 0}, {"lon": -77.00713733333333, "bike_id": "6cbb5b74e53ae5fbd454cfc15a7234dd", "lat": 38.884883, "fusion_lon": 0.0, "fusion_lat": 0.0, "type": "electric_scooter", "name": "6cbb5b74e53ae5fbd454cfc15a7234dd", "is_disabled": 0, "rental_uris": {"ios": "https://dc.lft.to/lastmile_qr_scan", "android": "https://dc.lft.to/lastmile_qr_scan"}, "is_reserved": 0}, {"lon": -77.02514866666667, "bike_id": "85b6bc4be2e0f7c1e83ed2ed7074845c", "lat": 38.9398785, "fusion_lon": 0.0, "fusion_lat": 0.0, "type": "electric_scooter", "name": "85b6bc4be2e0f7c1e83ed2ed7074845c", "is_disabled": 0, "rental_uris": {"ios": "https://dc.lft.to/lastmile_qr_scan", "android": "https://dc.lft.to/lastmile_qr_scan"}, "is_reserved": 0}, {"lon": -76.94792183333334, "bike_id": "c0450288e587726a211ed4c496267a1b", "lat": 38.86187833333334, "fusion_lon": 0.0, "fusion_lat": 0.0, "type": "electric_bike", "name": "c0450288e587726a211ed4c496267a1b", "is_disabled": 0, "rental_uris": {"ios": "https://dc.lft.to/lastmile_qr_scan", "android": "https://dc.lft.to/lastmile_qr_scan"}, "is_reserved": 0}, {"lon": -77.0171355, "bike_id": "953d8dfa79e075b095d791bca3283ca6", "lat": 38.917440166666665, "fusion_lon": 0.0, "fusion_lat": 0.0, "type": "electric_scooter", "name": "953d8dfa79e075b095d791bca3283ca6", "is_disabled": 0, "rental_uris": {"ios": "https://dc.lft.to/lastmile_qr_scan", "android": "https://dc.lft.to/lastmile_qr_scan"}, "is_reserved": 0}, {"lon": -77.03379166666667, "bike_id": "106da72315e1a61304daa17d7e83f68c", "lat": 38.938678833333334, "fusion_lon": 0.0, "fusion_lat": 0.0, "type": "electric_scooter", "name": "106da72315e1a61304daa17d7e83f68c", "is_disabled": 0, "rental_uris": {"ios": "https://dc.lft.to/lastmile_qr_scan", "android": "https://dc.lft.to/lastmile_qr_scan"}, "is_reserved": 0}, {"lon": -77.03845316666667, "bike_id": "01156ac3b45ef1f63661eb31cc4c3048", "lat": 38.931104166666664, "fusion_lon": 0.0, "fusion_lat": 0.0, "type": "electric_scooter", "name": "01156ac3b45ef1f63661eb31cc4c3048", "is_disabled": 0, "rental_uris": {"ios": "https://dc.lft.to/lastmile_qr_scan", "android": "https://dc.lft.to/lastmile_qr_scan"}, "is_reserved": 0}, {"lon": -77.00342866666666, "bike_id": "8150668c89fd6f12784a0c0c994a6ee0", "lat": 38.903572, "fusion_lon": 0.0, "fusion_lat": 0.0, "type": "electric_scooter", "name": "8150668c89fd6f12784a0c0c994a6ee0", "is_disabled": 0, "rental_uris": {"ios": "https://dc.lft.to/lastmile_qr_scan", "android": "https://dc.lft.to/lastmile_qr_scan"}, "is_reserved": 0}, {"lon": -76.99358416666666, "bike_id": "22d4534599b539692b617d6422a40dc3", "lat": 38.8450235, "fusion_lon": 0.0, "fusion_lat": 0.0, "type": "electric_bike", "name": "22d4534599b539692b617d6422a40dc3", "is_disabled": 0, "rental_uris": {"ios": "https://dc.lft.to/lastmile_qr_scan", "android": "https://dc.lft.to/lastmile_qr_scan"}, "is_reserved": 0}, {"lon": -77.03160216666667, "bike_id": "cde5ba05968144d00236d1be81f65bc5", "lat": 38.91608, "fusion_lon": 0.0, "fusion_lat": 0.0, "type": "electric_scooter", "name": "cde5ba05968144d00236d1be81f65bc5", "is_disabled": 0, "rental_uris": {"ios": "https://dc.lft.to/lastmile_qr_scan", "android": "https://dc.lft.to/lastmile_qr_scan"}, "is_reserved": 0}, {"lon": -77.03287283333333, "bike_id": "cf668f4891099e56be68065474248332", "lat": 38.923395166666666, "fusion_lon": 0.0, "fusion_lat": 0.0, "type": "electric_scooter", "name": "cf668f4891099e56be68065474248332", "is_disabled": 0, "rental_uris": {"ios": "https://dc.lft.to/lastmile_qr_scan", "android": "https://dc.lft.to/lastmile_qr_scan"}, "is_reserved": 0}, {"lon": -77.0629925, "bike_id": "c13822634f20d39b8cb8e9f59496c087", "lat": 38.903949, "fusion_lon": 0.0, "fusion_lat": 0.0, "type": "electric_scooter", "name": "c13822634f20d39b8cb8e9f59496c087", "is_disabled": 0, "rental_uris": {"ios": "https://dc.lft.to/lastmile_qr_scan", "android": "https://dc.lft.to/lastmile_qr_scan"}, "is_reserved": 0}, {"lon": -76.94402333333333, "bike_id": "08a50632ff0708fe3839d111ab774c5b", "lat": 38.881394, "fusion_lon": 0.0, "fusion_lat": 0.0, "type": "electric_scooter", "name": "08a50632ff0708fe3839d111ab774c5b", "is_disabled": 0, "rental_uris": {"ios": "https://dc.lft.to/lastmile_qr_scan", "android": "https://dc.lft.to/lastmile_qr_scan"}, "is_reserved": 0}, {"lon": -77.03081283333333, "bike_id": "b62762831a8489e9eb08bf340583d23a", "lat": 38.90758666666667, "fusion_lon": 0.0, "fusion_lat": 0.0, "type": "electric_scooter", "name": "b62762831a8489e9eb08bf340583d23a", "is_disabled": 0, "rental_uris": {"ios": "https://dc.lft.to/lastmile_qr_scan", "android": "https://dc.lft.to/lastmile_qr_scan"}, "is_reserved": 0}, {"lon": -77.02273883333334, "bike_id": "a68f00933f0669b9cbd563ad4134295a", "lat": 38.927262666666664, "fusion_lon": 0.0, "fusion_lat": 0.0, "type": "electric_scooter", "name": "a68f00933f0669b9cbd563ad4134295a", "is_disabled": 0, "rental_uris": {"ios": "https://dc.lft.to/lastmile_qr_scan", "android": "https://dc.lft.to/lastmile_qr_scan"}, "is_reserved": 0}, {"lon": -77.02197583333333, "bike_id": "4653d337d3b9086844f8f9d49e38517f", "lat": 38.89952483333333, "fusion_lon": 0.0, "fusion_lat": 0.0, "type": "electric_scooter", "name": "4653d337d3b9086844f8f9d49e38517f", "is_disabled": 0, "rental_uris": {"ios": "https://dc.lft.to/lastmile_qr_scan", "android": "https://dc.lft.to/lastmile_qr_scan"}, "is_reserved": 0}, {"lon": -76.974955, "bike_id": "b0032ab509c4433a61642141402ee766", "lat": 38.919200833333335, "fusion_lon": 0.0, "fusion_lat": 0.0, "type": "electric_scooter", "name": "b0032ab509c4433a61642141402ee766", "is_disabled": 0, "rental_uris": {"ios": "https://dc.lft.to/lastmile_qr_scan", "android": "https://dc.lft.to/lastmile_qr_scan"}, "is_reserved": 0}, {"lon": -77.0459195, "bike_id": "81006b857da8f0df70ddd057f64bc91b", "lat": 38.921262166666665, "fusion_lon": 0.0, "fusion_lat": 0.0, "type": "electric_scooter", "name": "81006b857da8f0df70ddd057f64bc91b", "is_disabled": 0, "rental_uris": {"ios": "https://dc.lft.to/lastmile_qr_scan", "android": "https://dc.lft.to/lastmile_qr_scan"}, "is_reserved": 0}, {"lon": -77.00846083333333, "bike_id": "75baa35354751709a23d3b3821848752", "lat": 38.89707966666667, "fusion_lon": 0.0, "fusion_lat": 0.0, "type": "electric_scooter", "name": "75baa35354751709a23d3b3821848752", "is_disabled": 0, "rental_uris": {"ios": "https://dc.lft.to/lastmile_qr_scan", "android": "https://dc.lft.to/lastmile_qr_scan"}, "is_reserved": 0}, {"lon": -77.042175, "bike_id": "befecd13c383a3fa86f71bcc8043335f", "lat": 38.92103766666666, "fusion_lon": 0.0, "fusion_lat": 0.0, "type": "electric_scooter", "name": "befecd13c383a3fa86f71bcc8043335f", "is_disabled": 0, "rental_uris": {"ios": "https://dc.lft.to/lastmile_qr_scan", "android": "https://dc.lft.to/lastmile_qr_scan"}, "is_reserved": 0}, {"lon": -77.03194833333333, "bike_id": "194d9940a64d5e3b011bec57f1f1a066", "lat": 38.91170416666667, "fusion_lon": 0.0, "fusion_lat": 0.0, "type": "electric_scooter", "name": "194d9940a64d5e3b011bec57f1f1a066", "is_disabled": 0, "rental_uris": {"ios": "https://dc.lft.to/lastmile_qr_scan", "android": "https://dc.lft.to/lastmile_qr_scan"}, "is_reserved": 0}, {"lon": -77.0282715, "bike_id": "e10ea1131427f725de094079d97423b0", "lat": 38.898091666666666, "fusion_lon": 0.0, "fusion_lat": 0.0, "type": "electric_scooter", "name": "e10ea1131427f725de094079d97423b0", "is_disabled": 0, "rental_uris": {"ios": "https://dc.lft.to/lastmile_qr_scan", "android": "https://dc.lft.to/lastmile_qr_scan"}, "is_reserved": 0}, {"lon": -77.02696366666666, "bike_id": "156e6e1e63b31366cf937a23fdf4baee", "lat": 38.91225333333333, "fusion_lon": 0.0, "fusion_lat": 0.0, "type": "electric_scooter", "name": "156e6e1e63b31366cf937a23fdf4baee", "is_disabled": 0, "rental_uris": {"ios": "https://dc.lft.to/lastmile_qr_scan", "android": "https://dc.lft.to/lastmile_qr_scan"}, "is_reserved": 0}, {"lon": -77.04473583333333, "bike_id": "f283b2bca6e9d39bd7b969324067a710", "lat": 38.923861333333335, "fusion_lon": 0.0, "fusion_lat": 0.0, "type": "electric_scooter", "name": "f283b2bca6e9d39bd7b969324067a710", "is_disabled": 0, "rental_uris": {"ios": "https://dc.lft.to/lastmile_qr_scan", "android": "https://dc.lft.to/lastmile_qr_scan"}, "is_reserved": 0}, {"lon": -76.96613416666666, "bike_id": "70a406b475a1a8e51b05f3a69975073d", "lat": 38.8710535, "fusion_lon": 0.0, "fusion_lat": 0.0, "type": "electric_scooter", "name": "70a406b475a1a8e51b05f3a69975073d", "is_disabled": 0, "rental_uris": {"ios": "https://dc.lft.to/lastmile_qr_scan", "android": "https://dc.lft.to/lastmile_qr_scan"}, "is_reserved": 0}, {"lon": -77.02770683333334, "bike_id": "9c37e0f3b99cc98ca32691328e50c94e", "lat": 38.954205, "fusion_lon": 0.0, "fusion_lat": 0.0, "type": "electric_scooter", "name": "9c37e0f3b99cc98ca32691328e50c94e", "is_disabled": 0, "rental_uris": {"ios": "https://dc.lft.to/lastmile_qr_scan", "android": "https://dc.lft.to/lastmile_qr_scan"}, "is_reserved": 0}, {"lon": -77.02029466666667, "bike_id": "ba55232b134481d3f9f664756f37124f", "lat": 38.905555, "fusion_lon": 0.0, "fusion_lat": 0.0, "type": "electric_scooter", "name": "ba55232b134481d3f9f664756f37124f", "is_disabled": 0, "rental_uris": {"ios": "https://dc.lft.to/lastmile_qr_scan", "android": "https://dc.lft.to/lastmile_qr_scan"}, "is_reserved": 0}, {"lon": -77.02293433333334, "bike_id": "b50acb7ce326f70ae1274322c1b55b78", "lat": 38.9222745, "fusion_lon": 0.0, "fusion_lat": 0.0, "type": "electric_scooter", "name": "b50acb7ce326f70ae1274322c1b55b78", "is_disabled": 0, "rental_uris": {"ios": "https://dc.lft.to/lastmile_qr_scan", "android": "https://dc.lft.to/lastmile_qr_scan"}, "is_reserved": 0}, {"lon": -77.0320895, "bike_id": "76d3e3c1b2394ad3c10954aa3ae1cb1f", "lat": 38.9152795, "fusion_lon": 0.0, "fusion_lat": 0.0, "type": "electric_scooter", "name": "76d3e3c1b2394ad3c10954aa3ae1cb1f", "is_disabled": 0, "rental_uris": {"ios": "https://dc.lft.to/lastmile_qr_scan", "android": "https://dc.lft.to/lastmile_qr_scan"}, "is_reserved": 0}, {"lon": -76.99370416666666, "bike_id": "76fb9ec1017f8c71ed1bea04b209e973", "lat": 38.87972883333333, "fusion_lon": 0.0, "fusion_lat": 0.0, "type": "electric_scooter", "name": "76fb9ec1017f8c71ed1bea04b209e973", "is_disabled": 0, "rental_uris": {"ios": "https://dc.lft.to/lastmile_qr_scan", "android": "https://dc.lft.to/lastmile_qr_scan"}, "is_reserved": 0}, {"lon": -77.00910283333333, "bike_id": "0d1b83be23f4d1b1edd46a5ee82ad1a6", "lat": 38.9062575, "fusion_lon": 0.0, "fusion_lat": 0.0, "type": "electric_scooter", "name": "0d1b83be23f4d1b1edd46a5ee82ad1a6", "is_disabled": 0, "rental_uris": {"ios": "https://dc.lft.to/lastmile_qr_scan", "android": "https://dc.lft.to/lastmile_qr_scan"}, "is_reserved": 0}, {"lon": -76.99453633333333, "bike_id": "ab45e3f85e59eb05160cddc1673d9919", "lat": 38.96616383333333, "fusion_lon": 0.0, "fusion_lat": 0.0, "type": "electric_bike", "name": "ab45e3f85e59eb05160cddc1673d9919", "is_disabled": 0, "rental_uris": {"ios": "https://dc.lft.to/lastmile_qr_scan", "android": "https://dc.lft.to/lastmile_qr_scan"}, "is_reserved": 0}, {"lon": -77.0006415, "bike_id": "bd496cfa38c475aa2b57c3d6c06a914c", "lat": 38.8965785, "fusion_lon": 0.0, "fusion_lat": 0.0, "type": "electric_scooter", "name": "bd496cfa38c475aa2b57c3d6c06a914c", "is_disabled": 0, "rental_uris": {"ios": "https://dc.lft.to/lastmile_qr_scan", "android": "https://dc.lft.to/lastmile_qr_scan"}, "is_reserved": 0}, {"lon": -76.99543016666667, "bike_id": "8bfcb4101646ea175b651772af98b5ff", "lat": 38.86252733333333, "fusion_lon": 0.0, "fusion_lat": 0.0, "type": "electric_scooter", "name": "8bfcb4101646ea175b651772af98b5ff", "is_disabled": 0, "rental_uris": {"ios": "https://dc.lft.to/lastmile_qr_scan", "android": "https://dc.lft.to/lastmile_qr_scan"}, "is_reserved": 0}, {"lon": -77.00839883333333, "bike_id": "31b4978201a0065449e4d121c5558b00", "lat": 38.9134375, "fusion_lon": 0.0, "fusion_lat": 0.0, "type": "electric_scooter", "name": "31b4978201a0065449e4d121c5558b00", "is_disabled": 0, "rental_uris": {"ios": "https://dc.lft.to/lastmile_qr_scan", "android": "https://dc.lft.to/lastmile_qr_scan"}, "is_reserved": 0}, {"lon": -77.02286016666666, "bike_id": "7b1562d0f72f1ba574b37c745006ab72", "lat": 38.878681, "fusion_lon": 0.0, "fusion_lat": 0.0, "type": "electric_scooter", "name": "7b1562d0f72f1ba574b37c745006ab72", "is_disabled": 0, "rental_uris": {"ios": "https://dc.lft.to/lastmile_qr_scan", "android": "https://dc.lft.to/lastmile_qr_scan"}, "is_reserved": 0}, {"lon": -77.0987205, "bike_id": "68cc71d7676bd4e5dd830f1b2246bd28", "lat": 38.9496325, "fusion_lon": 0.0, "fusion_lat": 0.0, "type": "electric_scooter", "name": "68cc71d7676bd4e5dd830f1b2246bd28", "is_disabled": 0, "rental_uris": {"ios": "https://dc.lft.to/lastmile_qr_scan", "android": "https://dc.lft.to/lastmile_qr_scan"}, "is_reserved": 0}, {"lon": -77.01331766666667, "bike_id": "bcbc6ee72f8625aef12e68a8e2dcb0c0", "lat": 38.871563, "fusion_lon": 0.0, "fusion_lat": 0.0, "type": "electric_scooter", "name": "bcbc6ee72f8625aef12e68a8e2dcb0c0", "is_disabled": 0, "rental_uris": {"ios": "https://dc.lft.to/lastmile_qr_scan", "android": "https://dc.lft.to/lastmile_qr_scan"}, "is_reserved": 0}, {"lon": -77.02972783333334, "bike_id": "9744ae9d9f212091c57e380995b16221", "lat": 38.930328333333335, "fusion_lon": 0.0, "fusion_lat": 0.0, "type": "electric_scooter", "name": "9744ae9d9f212091c57e380995b16221", "is_disabled": 0, "rental_uris": {"ios": "https://dc.lft.to/lastmile_qr_scan", "android": "https://dc.lft.to/lastmile_qr_scan"}, "is_reserved": 0}, {"lon": -77.06301466666666, "bike_id": "73f76a4b4bc70242d8661d221575ca7d", "lat": 38.90691483333333, "fusion_lon": 0.0, "fusion_lat": 0.0, "type": "electric_scooter", "name": "73f76a4b4bc70242d8661d221575ca7d", "is_disabled": 0, "rental_uris": {"ios": "https://dc.lft.to/lastmile_qr_scan", "android": "https://dc.lft.to/lastmile_qr_scan"}, "is_reserved": 0}, {"lon": -77.01958616666667, "bike_id": "d18257dab2ca71a6ae38deb99158e7c1", "lat": 38.93041066666667, "fusion_lon": 0.0, "fusion_lat": 0.0, "type": "electric_scooter", "name": "d18257dab2ca71a6ae38deb99158e7c1", "is_disabled": 0, "rental_uris": {"ios": "https://dc.lft.to/lastmile_qr_scan", "android": "https://dc.lft.to/lastmile_qr_scan"}, "is_reserved": 0}, {"lon": -77.003753, "bike_id": "e02cbdfb521ad37f79bcbcf3838d2f0b", "lat": 38.897293833333336, "fusion_lon": 0.0, "fusion_lat": 0.0, "type": "electric_scooter", "name": "e02cbdfb521ad37f79bcbcf3838d2f0b", "is_disabled": 0, "rental_uris": {"ios": "https://dc.lft.to/lastmile_qr_scan", "android": "https://dc.lft.to/lastmile_qr_scan"}, "is_reserved": 0}, {"lon": -76.99004616666667, "bike_id": "013c216cbddb0011e1bdba42043dcc55", "lat": 38.865049166666665, "fusion_lon": 0.0, "fusion_lat": 0.0, "type": "electric_scooter", "name": "013c216cbddb0011e1bdba42043dcc55", "is_disabled": 0, "rental_uris": {"ios": "https://dc.lft.to/lastmile_qr_scan", "android": "https://dc.lft.to/lastmile_qr_scan"}, "is_reserved": 0}, {"lon": -77.01666633333333, "bike_id": "d920fe1e06da3fa66502297e1fa8a997", "lat": 38.87698683333333, "fusion_lon": 0.0, "fusion_lat": 0.0, "type": "electric_scooter", "name": "d920fe1e06da3fa66502297e1fa8a997", "is_disabled": 0, "rental_uris": {"ios": "https://dc.lft.to/lastmile_qr_scan", "android": "https://dc.lft.to/lastmile_qr_scan"}, "is_reserved": 0}, {"lon": -77.02000933333333, "bike_id": "581c7a01eb930944417143ba6b743179", "lat": 38.96627316666667, "fusion_lon": 0.0, "fusion_lat": 0.0, "type": "electric_scooter", "name": "581c7a01eb930944417143ba6b743179", "is_disabled": 0, "rental_uris": {"ios": "https://dc.lft.to/lastmile_qr_scan", "android": "https://dc.lft.to/lastmile_qr_scan"}, "is_reserved": 0}, {"lon": -77.02406966666666, "bike_id": "b93903e2476cb9a8191c0518caf42595", "lat": 38.90390466666667, "fusion_lon": 0.0, "fusion_lat": 0.0, "type": "electric_scooter", "name": "b93903e2476cb9a8191c0518caf42595", "is_disabled": 0, "rental_uris": {"ios": "https://dc.lft.to/lastmile_qr_scan", "android": "https://dc.lft.to/lastmile_qr_scan"}, "is_reserved": 0}, {"lon": -77.01503533333333, "bike_id": "18a1f8c291fcd9e0ee8e06d56f0e53c4", "lat": 38.92697283333333, "fusion_lon": 0.0, "fusion_lat": 0.0, "type": "electric_scooter", "name": "18a1f8c291fcd9e0ee8e06d56f0e53c4", "is_disabled": 0, "rental_uris": {"ios": "https://dc.lft.to/lastmile_qr_scan", "android": "https://dc.lft.to/lastmile_qr_scan"}, "is_reserved": 0}, {"lon": -77.01871366666667, "bike_id": "6539c96a42c55091a3e92700377eb79e", "lat": 38.89836866666667, "fusion_lon": 0.0, "fusion_lat": 0.0, "type": "electric_scooter", "name": "6539c96a42c55091a3e92700377eb79e", "is_disabled": 0, "rental_uris": {"ios": "https://dc.lft.to/lastmile_qr_scan", "android": "https://dc.lft.to/lastmile_qr_scan"}, "is_reserved": 0}, {"lon": -77.04656183333333, "bike_id": "69e1f3db6b7d6df8b7f209c26fba8b12", "lat": 38.89250283333333, "fusion_lon": 0.0, "fusion_lat": 0.0, "type": "electric_scooter", "name": "69e1f3db6b7d6df8b7f209c26fba8b12", "is_disabled": 0, "rental_uris": {"ios": "https://dc.lft.to/lastmile_qr_scan", "android": "https://dc.lft.to/lastmile_qr_scan"}, "is_reserved": 0}, {"lon": -76.98467033333333, "bike_id": "bf36ac496d953eedb3139b8c81467c9a", "lat": 38.90395933333333, "fusion_lon": 0.0, "fusion_lat": 0.0, "type": "electric_scooter", "name": "bf36ac496d953eedb3139b8c81467c9a", "is_disabled": 0, "rental_uris": {"ios": "https://dc.lft.to/lastmile_qr_scan", "android": "https://dc.lft.to/lastmile_qr_scan"}, "is_reserved": 0}, {"lon": -77.02558766666667, "bike_id": "f2e468adcce16c8f109a76ca75094bd7", "lat": 38.93097383333333, "fusion_lon": 0.0, "fusion_lat": 0.0, "type": "electric_scooter", "name": "f2e468adcce16c8f109a76ca75094bd7", "is_disabled": 0, "rental_uris": {"ios": "https://dc.lft.to/lastmile_qr_scan", "android": "https://dc.lft.to/lastmile_qr_scan"}, "is_reserved": 0}, {"lon": -77.02770616666666, "bike_id": "7fa17227934e84ee2dc592f1fce5d36a", "lat": 38.95415083333333, "fusion_lon": 0.0, "fusion_lat": 0.0, "type": "electric_scooter", "name": "7fa17227934e84ee2dc592f1fce5d36a", "is_disabled": 0, "rental_uris": {"ios": "https://dc.lft.to/lastmile_qr_scan", "android": "https://dc.lft.to/lastmile_qr_scan"}, "is_reserved": 0}, {"lon": -77.05192383333333, "bike_id": "5748dde17ade897830527f4a457b9512", "lat": 38.92392266666667, "fusion_lon": 0.0, "fusion_lat": 0.0, "type": "electric_scooter", "name": "5748dde17ade897830527f4a457b9512", "is_disabled": 0, "rental_uris": {"ios": "https://dc.lft.to/lastmile_qr_scan", "android": "https://dc.lft.to/lastmile_qr_scan"}, "is_reserved": 0}, {"lon": -77.04175333333333, "bike_id": "1ea54a9e47d17277f4bdb66c59f8c6e8", "lat": 38.908142833333336, "fusion_lon": 0.0, "fusion_lat": 0.0, "type": "electric_scooter", "name": "1ea54a9e47d17277f4bdb66c59f8c6e8", "is_disabled": 0, "rental_uris": {"ios": "https://dc.lft.to/lastmile_qr_scan", "android": "https://dc.lft.to/lastmile_qr_scan"}, "is_reserved": 0}, {"lon": -77.03288066666667, "bike_id": "6caec254bcce69fc0548c4e5f22fa57a", "lat": 38.916051, "fusion_lon": 0.0, "fusion_lat": 0.0, "type": "electric_bike", "name": "6caec254bcce69fc0548c4e5f22fa57a", "is_disabled": 0, "rental_uris": {"ios": "https://dc.lft.to/lastmile_qr_scan", "android": "https://dc.lft.to/lastmile_qr_scan"}, "is_reserved": 0}, {"lon": -77.02321316666666, "bike_id": "4d35acd7bd78241e503c925f774a3ab6", "lat": 38.92073933333333, "fusion_lon": 0.0, "fusion_lat": 0.0, "type": "electric_scooter", "name": "4d35acd7bd78241e503c925f774a3ab6", "is_disabled": 0, "rental_uris": {"ios": "https://dc.lft.to/lastmile_qr_scan", "android": "https://dc.lft.to/lastmile_qr_scan"}, "is_reserved": 0}, {"lon": -77.0223195, "bike_id": "06351ee36c1a57bc5d6b04001e4a4cb2", "lat": 38.96204633333333, "fusion_lon": 0.0, "fusion_lat": 0.0, "type": "electric_scooter", "name": "06351ee36c1a57bc5d6b04001e4a4cb2", "is_disabled": 0, "rental_uris": {"ios": "https://dc.lft.to/lastmile_qr_scan", "android": "https://dc.lft.to/lastmile_qr_scan"}, "is_reserved": 0}, {"lon": -77.032474, "bike_id": "85e1daa175cbb2f1e29c53ceaff88e79", "lat": 38.9154885, "fusion_lon": 0.0, "fusion_lat": 0.0, "type": "electric_scooter", "name": "85e1daa175cbb2f1e29c53ceaff88e79", "is_disabled": 0, "rental_uris": {"ios": "https://dc.lft.to/lastmile_qr_scan", "android": "https://dc.lft.to/lastmile_qr_scan"}, "is_reserved": 0}, {"lon": -77.03103966666667, "bike_id": "df87e44a0af5ec2ca9bc6b1a2fde0738", "lat": 38.91694433333333, "fusion_lon": 0.0, "fusion_lat": 0.0, "type": "electric_scooter", "name": "df87e44a0af5ec2ca9bc6b1a2fde0738", "is_disabled": 0, "rental_uris": {"ios": "https://dc.lft.to/lastmile_qr_scan", "android": "https://dc.lft.to/lastmile_qr_scan"}, "is_reserved": 0}, {"lon": -76.98239533333333, "bike_id": "f2b0b4243b96478602509353d86ea347", "lat": 38.916476833333334, "fusion_lon": 0.0, "fusion_lat": 0.0, "type": "electric_scooter", "name": "f2b0b4243b96478602509353d86ea347", "is_disabled": 0, "rental_uris": {"ios": "https://dc.lft.to/lastmile_qr_scan", "android": "https://dc.lft.to/lastmile_qr_scan"}, "is_reserved": 0}, {"lon": -76.9889785, "bike_id": "574139179aa341d21e38411c90123d53", "lat": 38.913383, "fusion_lon": 0.0, "fusion_lat": 0.0, "type": "electric_scooter", "name": "574139179aa341d21e38411c90123d53", "is_disabled": 0, "rental_uris": {"ios": "https://dc.lft.to/lastmile_qr_scan", "android": "https://dc.lft.to/lastmile_qr_scan"}, "is_reserved": 0}, {"lon": -76.933795, "bike_id": "bd768fa4be65b6a7b26e63e3ea3d10a4", "lat": 38.899110666666665, "fusion_lon": 0.0, "fusion_lat": 0.0, "type": "electric_scooter", "name": "bd768fa4be65b6a7b26e63e3ea3d10a4", "is_disabled": 0, "rental_uris": {"ios": "https://dc.lft.to/lastmile_qr_scan", "android": "https://dc.lft.to/lastmile_qr_scan"}, "is_reserved": 0}, {"lon": -76.99407716666667, "bike_id": "ad9a3af7656c439fe5bd3ccaa19a8579", "lat": 38.831328166666665, "fusion_lon": 0.0, "fusion_lat": 0.0, "type": "electric_bike", "name": "ad9a3af7656c439fe5bd3ccaa19a8579", "is_disabled": 0, "rental_uris": {"ios": "https://dc.lft.to/lastmile_qr_scan", "android": "https://dc.lft.to/lastmile_qr_scan"}, "is_reserved": 0}, {"lon": -77.01160566666667, "bike_id": "83c92a06058310108ee9bc7eb52648ef", "lat": 38.9139685, "fusion_lon": 0.0, "fusion_lat": 0.0, "type": "electric_scooter", "name": "83c92a06058310108ee9bc7eb52648ef", "is_disabled": 0, "rental_uris": {"ios": "https://dc.lft.to/lastmile_qr_scan", "android": "https://dc.lft.to/lastmile_qr_scan"}, "is_reserved": 0}, {"lon": -77.0366965, "bike_id": "978127541ccde19febaef829ef8b34af", "lat": 38.917382, "fusion_lon": 0.0, "fusion_lat": 0.0, "type": "electric_scooter", "name": "978127541ccde19febaef829ef8b34af", "is_disabled": 0, "rental_uris": {"ios": "https://dc.lft.to/lastmile_qr_scan", "android": "https://dc.lft.to/lastmile_qr_scan"}, "is_reserved": 0}, {"lon": -77.02682966666667, "bike_id": "7deecc282c378abcb0d9e348cbda929c", "lat": 38.92777533333334, "fusion_lon": 0.0, "fusion_lat": 0.0, "type": "electric_scooter", "name": "7deecc282c378abcb0d9e348cbda929c", "is_disabled": 0, "rental_uris": {"ios": "https://dc.lft.to/lastmile_qr_scan", "android": "https://dc.lft.to/lastmile_qr_scan"}, "is_reserved": 0}, {"lon": -76.95470316666666, "bike_id": "3cb37f378a9aefb4abc50bb0766d7331", "lat": 38.884574666666666, "fusion_lon": 0.0, "fusion_lat": 0.0, "type": "electric_scooter", "name": "3cb37f378a9aefb4abc50bb0766d7331", "is_disabled": 0, "rental_uris": {"ios": "https://dc.lft.to/lastmile_qr_scan", "android": "https://dc.lft.to/lastmile_qr_scan"}, "is_reserved": 0}, {"lon": -77.02367366666667, "bike_id": "9dfd1c35861bf724cb17b82fb817cd9f", "lat": 38.906948166666666, "fusion_lon": 0.0, "fusion_lat": 0.0, "type": "electric_scooter", "name": "9dfd1c35861bf724cb17b82fb817cd9f", "is_disabled": 0, "rental_uris": {"ios": "https://dc.lft.to/lastmile_qr_scan", "android": "https://dc.lft.to/lastmile_qr_scan"}, "is_reserved": 0}, {"lon": -77.10092316666666, "bike_id": "9ff72a97831c8e1778b90c19e00d07a9", "lat": 38.959525166666666, "fusion_lon": 0.0, "fusion_lat": 0.0, "type": "electric_bike", "name": "9ff72a97831c8e1778b90c19e00d07a9", "is_disabled": 0, "rental_uris": {"ios": "https://dc.lft.to/lastmile_qr_scan", "android": "https://dc.lft.to/lastmile_qr_scan"}, "is_reserved": 0}, {"lon": -76.99487166666667, "bike_id": "10069b94c10d5f34a25acd64f7324e7d", "lat": 38.915706166666666, "fusion_lon": 0.0, "fusion_lat": 0.0, "type": "electric_scooter", "name": "10069b94c10d5f34a25acd64f7324e7d", "is_disabled": 0, "rental_uris": {"ios": "https://dc.lft.to/lastmile_qr_scan", "android": "https://dc.lft.to/lastmile_qr_scan"}, "is_reserved": 0}, {"lon": -76.9859365, "bike_id": "ce2e18fd59831ec2b574f5a99a3a36ee", "lat": 38.90810883333333, "fusion_lon": 0.0, "fusion_lat": 0.0, "type": "electric_scooter", "name": "ce2e18fd59831ec2b574f5a99a3a36ee", "is_disabled": 0, "rental_uris": {"ios": "https://dc.lft.to/lastmile_qr_scan", "android": "https://dc.lft.to/lastmile_qr_scan"}, "is_reserved": 0}, {"lon": -76.98264733333333, "bike_id": "f231fdad39d0468393e56263e48f1bfc", "lat": 38.90854566666667, "fusion_lon": 0.0, "fusion_lat": 0.0, "type": "electric_scooter", "name": "f231fdad39d0468393e56263e48f1bfc", "is_disabled": 0, "rental_uris": {"ios": "https://dc.lft.to/lastmile_qr_scan", "android": "https://dc.lft.to/lastmile_qr_scan"}, "is_reserved": 0}, {"lon": -77.02810916666667, "bike_id": "c990bbcf480180d05321e226b608bf3d", "lat": 38.906153, "fusion_lon": 0.0, "fusion_lat": 0.0, "type": "electric_scooter", "name": "c990bbcf480180d05321e226b608bf3d", "is_disabled": 0, "rental_uris": {"ios": "https://dc.lft.to/lastmile_qr_scan", "android": "https://dc.lft.to/lastmile_qr_scan"}, "is_reserved": 0}, {"lon": -77.00789116666667, "bike_id": "e82648d1d1e356f445e32d4ea643471d", "lat": 38.896685, "fusion_lon": 0.0, "fusion_lat": 0.0, "type": "electric_scooter", "name": "e82648d1d1e356f445e32d4ea643471d", "is_disabled": 0, "rental_uris": {"ios": "https://dc.lft.to/lastmile_qr_scan", "android": "https://dc.lft.to/lastmile_qr_scan"}, "is_reserved": 0}, {"lon": -76.98189366666666, "bike_id": "744a5fc699987d200c31721366874181", "lat": 38.92601166666667, "fusion_lon": 0.0, "fusion_lat": 0.0, "type": "electric_scooter", "name": "744a5fc699987d200c31721366874181", "is_disabled": 0, "rental_uris": {"ios": "https://dc.lft.to/lastmile_qr_scan", "android": "https://dc.lft.to/lastmile_qr_scan"}, "is_reserved": 0}, {"lon": -77.0448005, "bike_id": "2f9128e979679d0158c229b75bc1a1a6", "lat": 38.90315433333333, "fusion_lon": 0.0, "fusion_lat": 0.0, "type": "electric_scooter", "name": "2f9128e979679d0158c229b75bc1a1a6", "is_disabled": 0, "rental_uris": {"ios": "https://dc.lft.to/lastmile_qr_scan", "android": "https://dc.lft.to/lastmile_qr_scan"}, "is_reserved": 0}, {"lon": -77.01131083333334, "bike_id": "a4378b77db8fa34dbc17221073343fa3", "lat": 38.8949525, "fusion_lon": 0.0, "fusion_lat": 0.0, "type": "electric_scooter", "name": "a4378b77db8fa34dbc17221073343fa3", "is_disabled": 0, "rental_uris": {"ios": "https://dc.lft.to/lastmile_qr_scan", "android": "https://dc.lft.to/lastmile_qr_scan"}, "is_reserved": 0}, {"lon": -77.02443116666667, "bike_id": "a79359af2edb89c4068856241c2e2a75", "lat": 38.918404, "fusion_lon": 0.0, "fusion_lat": 0.0, "type": "electric_scooter", "name": "a79359af2edb89c4068856241c2e2a75", "is_disabled": 0, "rental_uris": {"ios": "https://dc.lft.to/lastmile_qr_scan", "android": "https://dc.lft.to/lastmile_qr_scan"}, "is_reserved": 0}, {"lon": -77.0145595, "bike_id": "58f3bcdea6dbcc408722a5c3ee4d9158", "lat": 38.90521583333334, "fusion_lon": 0.0, "fusion_lat": 0.0, "type": "electric_scooter", "name": "58f3bcdea6dbcc408722a5c3ee4d9158", "is_disabled": 0, "rental_uris": {"ios": "https://dc.lft.to/lastmile_qr_scan", "android": "https://dc.lft.to/lastmile_qr_scan"}, "is_reserved": 0}, {"lon": -77.01165316666666, "bike_id": "4908a54a4e124b0d8d012f895b12960b", "lat": 38.89597883333333, "fusion_lon": 0.0, "fusion_lat": 0.0, "type": "electric_scooter", "name": "4908a54a4e124b0d8d012f895b12960b", "is_disabled": 0, "rental_uris": {"ios": "https://dc.lft.to/lastmile_qr_scan", "android": "https://dc.lft.to/lastmile_qr_scan"}, "is_reserved": 0}, {"lon": -77.0179865, "bike_id": "9db9e5cb90fc606919d7a6f6eb00c44f", "lat": 38.9199775, "fusion_lon": 0.0, "fusion_lat": 0.0, "type": "electric_scooter", "name": "9db9e5cb90fc606919d7a6f6eb00c44f", "is_disabled": 0, "rental_uris": {"ios": "https://dc.lft.to/lastmile_qr_scan", "android": "https://dc.lft.to/lastmile_qr_scan"}, "is_reserved": 0}, {"lon": -76.98850866666666, "bike_id": "651806a17cbc899e254875507877bf0e", "lat": 38.90120733333333, "fusion_lon": 0.0, "fusion_lat": 0.0, "type": "electric_scooter", "name": "651806a17cbc899e254875507877bf0e", "is_disabled": 0, "rental_uris": {"ios": "https://dc.lft.to/lastmile_qr_scan", "android": "https://dc.lft.to/lastmile_qr_scan"}, "is_reserved": 0}, {"lon": -76.977562, "bike_id": "e29d83a24a7d1c8a1caef70d848e51c2", "lat": 38.86500766666666, "fusion_lon": 0.0, "fusion_lat": 0.0, "type": "electric_scooter", "name": "e29d83a24a7d1c8a1caef70d848e51c2", "is_disabled": 0, "rental_uris": {"ios": "https://dc.lft.to/lastmile_qr_scan", "android": "https://dc.lft.to/lastmile_qr_scan"}, "is_reserved": 0}, {"lon": -77.02976183333334, "bike_id": "577655fb3fc2cc17b122f0bfd1519cec", "lat": 38.92998083333333, "fusion_lon": 0.0, "fusion_lat": 0.0, "type": "electric_scooter", "name": "577655fb3fc2cc17b122f0bfd1519cec", "is_disabled": 0, "rental_uris": {"ios": "https://dc.lft.to/lastmile_qr_scan", "android": "https://dc.lft.to/lastmile_qr_scan"}, "is_reserved": 0}, {"lon": -77.12227016666667, "bike_id": "b4f7098bd55e3f67f83bc01d463aa969", "lat": 38.85296016666667, "fusion_lon": 0.0, "fusion_lat": 0.0, "type": "electric_bike", "name": "b4f7098bd55e3f67f83bc01d463aa969", "is_disabled": 0, "rental_uris": {"ios": "https://dc.lft.to/lastmile_qr_scan", "android": "https://dc.lft.to/lastmile_qr_scan"}, "is_reserved": 0}, {"lon": -77.01511516666666, "bike_id": "50eebef1ff6700ea251b0e347276d227", "lat": 38.899558, "fusion_lon": 0.0, "fusion_lat": 0.0, "type": "electric_scooter", "name": "50eebef1ff6700ea251b0e347276d227", "is_disabled": 0, "rental_uris": {"ios": "https://dc.lft.to/lastmile_qr_scan", "android": "https://dc.lft.to/lastmile_qr_scan"}, "is_reserved": 0}, {"lon": -77.02558533333334, "bike_id": "eb17a57d790ba61c2c47a7569ff73bdd", "lat": 38.9413385, "fusion_lon": 0.0, "fusion_lat": 0.0, "type": "electric_scooter", "name": "eb17a57d790ba61c2c47a7569ff73bdd", "is_disabled": 0, "rental_uris": {"ios": "https://dc.lft.to/lastmile_qr_scan", "android": "https://dc.lft.to/lastmile_qr_scan"}, "is_reserved": 0}, {"lon": -77.0349905, "bike_id": "fb3d624359830e6ba55442da6ef73d9a", "lat": 38.932709333333335, "fusion_lon": 0.0, "fusion_lat": 0.0, "type": "electric_scooter", "name": "fb3d624359830e6ba55442da6ef73d9a", "is_disabled": 0, "rental_uris": {"ios": "https://dc.lft.to/lastmile_qr_scan", "android": "https://dc.lft.to/lastmile_qr_scan"}, "is_reserved": 0}, {"lon": -77.03086033333334, "bike_id": "02dd91a40a3cc0978f233cee6d727b02", "lat": 38.9073765, "fusion_lon": 0.0, "fusion_lat": 0.0, "type": "electric_scooter", "name": "02dd91a40a3cc0978f233cee6d727b02", "is_disabled": 0, "rental_uris": {"ios": "https://dc.lft.to/lastmile_qr_scan", "android": "https://dc.lft.to/lastmile_qr_scan"}, "is_reserved": 0}, {"lon": -76.941916, "bike_id": "5ce3edb0840939bc0f199f97aba2c207", "lat": 38.8930615, "fusion_lon": 0.0, "fusion_lat": 0.0, "type": "electric_bike", "name": "5ce3edb0840939bc0f199f97aba2c207", "is_disabled": 0, "rental_uris": {"ios": "https://dc.lft.to/lastmile_qr_scan", "android": "https://dc.lft.to/lastmile_qr_scan"}, "is_reserved": 0}, {"lon": -76.9867955, "bike_id": "19d314a5f4a342daae6ff89a70ca2636", "lat": 38.8996955, "fusion_lon": 0.0, "fusion_lat": 0.0, "type": "electric_bike", "name": "19d314a5f4a342daae6ff89a70ca2636", "is_disabled": 0, "rental_uris": {"ios": "https://dc.lft.to/lastmile_qr_scan", "android": "https://dc.lft.to/lastmile_qr_scan"}, "is_reserved": 0}, {"lon": -77.04137533333333, "bike_id": "6de0d52a5776a6c251b4699995256c84", "lat": 38.92987316666667, "fusion_lon": 0.0, "fusion_lat": 0.0, "type": "electric_scooter", "name": "6de0d52a5776a6c251b4699995256c84", "is_disabled": 0, "rental_uris": {"ios": "https://dc.lft.to/lastmile_qr_scan", "android": "https://dc.lft.to/lastmile_qr_scan"}, "is_reserved": 0}, {"lon": -77.033543, "bike_id": "301d5e0d6faec25b855b52fdf0397f87", "lat": 38.895265, "fusion_lon": 0.0, "fusion_lat": 0.0, "type": "electric_scooter", "name": "301d5e0d6faec25b855b52fdf0397f87", "is_disabled": 0, "rental_uris": {"ios": "https://dc.lft.to/lastmile_qr_scan", "android": "https://dc.lft.to/lastmile_qr_scan"}, "is_reserved": 0}, {"lon": -76.99871016666667, "bike_id": "835f9b8f9fd34438db48841c02e7107d", "lat": 38.90024183333333, "fusion_lon": 0.0, "fusion_lat": 0.0, "type": "electric_scooter", "name": "835f9b8f9fd34438db48841c02e7107d", "is_disabled": 0, "rental_uris": {"ios": "https://dc.lft.to/lastmile_qr_scan", "android": "https://dc.lft.to/lastmile_qr_scan"}, "is_reserved": 0}, {"lon": -77.036428, "bike_id": "7728a4a117b8b520b33187f7650b9962", "lat": 38.91857683333333, "fusion_lon": 0.0, "fusion_lat": 0.0, "type": "electric_scooter", "name": "7728a4a117b8b520b33187f7650b9962", "is_disabled": 0, "rental_uris": {"ios": "https://dc.lft.to/lastmile_qr_scan", "android": "https://dc.lft.to/lastmile_qr_scan"}, "is_reserved": 0}, {"lon": -77.03762683333333, "bike_id": "eee6e4fecafc320adbcf6ce6e14bb583", "lat": 38.91874033333333, "fusion_lon": 0.0, "fusion_lat": 0.0, "type": "electric_scooter", "name": "eee6e4fecafc320adbcf6ce6e14bb583", "is_disabled": 0, "rental_uris": {"ios": "https://dc.lft.to/lastmile_qr_scan", "android": "https://dc.lft.to/lastmile_qr_scan"}, "is_reserved": 0}, {"lon": -77.01030733333333, "bike_id": "7e8fe884c4e2bdf498bbdf1c82790171", "lat": 38.91035766666667, "fusion_lon": 0.0, "fusion_lat": 0.0, "type": "electric_scooter", "name": "7e8fe884c4e2bdf498bbdf1c82790171", "is_disabled": 0, "rental_uris": {"ios": "https://dc.lft.to/lastmile_qr_scan", "android": "https://dc.lft.to/lastmile_qr_scan"}, "is_reserved": 0}, {"lon": -77.05736533333334, "bike_id": "9d32775a31cf894f8b3678b4f53510c5", "lat": 38.93362466666667, "fusion_lon": 0.0, "fusion_lat": 0.0, "type": "electric_scooter", "name": "9d32775a31cf894f8b3678b4f53510c5", "is_disabled": 0, "rental_uris": {"ios": "https://dc.lft.to/lastmile_qr_scan", "android": "https://dc.lft.to/lastmile_qr_scan"}, "is_reserved": 0}, {"lon": -77.02897216666666, "bike_id": "ff6d4a1a8bf959316dd6bfecd02096e3", "lat": 38.90700066666667, "fusion_lon": 0.0, "fusion_lat": 0.0, "type": "electric_scooter", "name": "ff6d4a1a8bf959316dd6bfecd02096e3", "is_disabled": 0, "rental_uris": {"ios": "https://dc.lft.to/lastmile_qr_scan", "android": "https://dc.lft.to/lastmile_qr_scan"}, "is_reserved": 0}, {"lon": -77.038547, "bike_id": "aa6c102f8023c20a0f7b111e9a7c2b1a", "lat": 38.906710833333335, "fusion_lon": 0.0, "fusion_lat": 0.0, "type": "electric_scooter", "name": "aa6c102f8023c20a0f7b111e9a7c2b1a", "is_disabled": 0, "rental_uris": {"ios": "https://dc.lft.to/lastmile_qr_scan", "android": "https://dc.lft.to/lastmile_qr_scan"}, "is_reserved": 0}, {"lon": -76.97911616666667, "bike_id": "f8fd73019ae67bab3f6defe09eaaa96c", "lat": 38.9245475, "fusion_lon": 0.0, "fusion_lat": 0.0, "type": "electric_bike", "name": "f8fd73019ae67bab3f6defe09eaaa96c", "is_disabled": 0, "rental_uris": {"ios": "https://dc.lft.to/lastmile_qr_scan", "android": "https://dc.lft.to/lastmile_qr_scan"}, "is_reserved": 0}, {"lon": -76.9884165, "bike_id": "e16631c04de4d77bea0a5814aaba75ed", "lat": 38.8966635, "fusion_lon": 0.0, "fusion_lat": 0.0, "type": "electric_scooter", "name": "e16631c04de4d77bea0a5814aaba75ed", "is_disabled": 0, "rental_uris": {"ios": "https://dc.lft.to/lastmile_qr_scan", "android": "https://dc.lft.to/lastmile_qr_scan"}, "is_reserved": 0}, {"lon": -77.00761933333334, "bike_id": "9bb5a54198c12106d85018ca5389b214", "lat": 38.8709905, "fusion_lon": 0.0, "fusion_lat": 0.0, "type": "electric_scooter", "name": "9bb5a54198c12106d85018ca5389b214", "is_disabled": 0, "rental_uris": {"ios": "https://dc.lft.to/lastmile_qr_scan", "android": "https://dc.lft.to/lastmile_qr_scan"}, "is_reserved": 0}, {"lon": -77.02138333333333, "bike_id": "c6f0323abaa16c5852d2faa435df5d4d", "lat": 38.915945666666666, "fusion_lon": 0.0, "fusion_lat": 0.0, "type": "electric_scooter", "name": "c6f0323abaa16c5852d2faa435df5d4d", "is_disabled": 0, "rental_uris": {"ios": "https://dc.lft.to/lastmile_qr_scan", "android": "https://dc.lft.to/lastmile_qr_scan"}, "is_reserved": 0}, {"lon": -76.98498883333333, "bike_id": "dc064918ecbdca1471f679eabbab6505", "lat": 38.893552666666665, "fusion_lon": 0.0, "fusion_lat": 0.0, "type": "electric_scooter", "name": "dc064918ecbdca1471f679eabbab6505", "is_disabled": 0, "rental_uris": {"ios": "https://dc.lft.to/lastmile_qr_scan", "android": "https://dc.lft.to/lastmile_qr_scan"}, "is_reserved": 0}, {"lon": -77.06524733333333, "bike_id": "934afb0798c6b9f7a9adb24a20fef4c9", "lat": 38.90881383333333, "fusion_lon": 0.0, "fusion_lat": 0.0, "type": "electric_scooter", "name": "934afb0798c6b9f7a9adb24a20fef4c9", "is_disabled": 0, "rental_uris": {"ios": "https://dc.lft.to/lastmile_qr_scan", "android": "https://dc.lft.to/lastmile_qr_scan"}, "is_reserved": 0}, {"lon": -77.02381616666666, "bike_id": "f5198ebfe82ba936a43aa5fd88e92de1", "lat": 38.9205815, "fusion_lon": 0.0, "fusion_lat": 0.0, "type": "electric_scooter", "name": "f5198ebfe82ba936a43aa5fd88e92de1", "is_disabled": 0, "rental_uris": {"ios": "https://dc.lft.to/lastmile_qr_scan", "android": "https://dc.lft.to/lastmile_qr_scan"}, "is_reserved": 0}, {"lon": -76.99802716666667, "bike_id": "1d28525239ed8f1d56082cc424baa609", "lat": 38.95637583333333, "fusion_lon": 0.0, "fusion_lat": 0.0, "type": "electric_bike", "name": "1d28525239ed8f1d56082cc424baa609", "is_disabled": 0, "rental_uris": {"ios": "https://dc.lft.to/lastmile_qr_scan", "android": "https://dc.lft.to/lastmile_qr_scan"}, "is_reserved": 0}, {"lon": -76.97326633333333, "bike_id": "c3cbfbd082b713fccedd82746b6fc858", "lat": 38.90476833333334, "fusion_lon": 0.0, "fusion_lat": 0.0, "type": "electric_bike", "name": "c3cbfbd082b713fccedd82746b6fc858", "is_disabled": 0, "rental_uris": {"ios": "https://dc.lft.to/lastmile_qr_scan", "android": "https://dc.lft.to/lastmile_qr_scan"}, "is_reserved": 0},