{"data": {"bikes": [{"lon": -77.04852266666667, "bike_id": "1f64b39d8171da2292ec9f8721728a73", "lat": 38.904388, "fusion_lon": 0.0, "fusion_lat": 0.0, "type": "electric_scooter", "name": "1f64b39d8171da2292ec9f8721728a73", "is_disabled": 0, "rental_uris": {"ios": "https://dc.lft.to/lastmile_qr_scan", "android": "https://dc.lft.to/lastmile_qr_scan"}, "is_reserved": 0}, {"lon": -76.99807283333334, "bike_id": "cd81ea2f0cd3df8c74b798fc7c58ffac", "lat": 38.90730816666667, "fusion_lon": 0.0, "fusion_lat": 0.0, "type": "electric_scooter", "name": "cd81ea2f0cd3df8c74b798fc7c58ffac", "is_disabled": 0, "rental_uris": {"ios": "https://dc.lft.to/lastmile_qr_scan", "android": "https://dc.lft.to/lastmile_qr_scan"}, "is_reserved": 0}, {"lon": -77.03037566666667, "bike_id": "cdff501539344ac68b096ff879770676", "lat": 38.913327, "fusion_lon": 0.0, "fusion_lat": 0.0, "type": "electric_scooter", "name": "cdff501539344ac68b096ff879770676", "is_disabled": 0, "rental_uris": {"ios": "https://dc.lft.to/lastmile_qr_scan", "android": "https://dc.lft.to/lastmile_qr_scan"}, "is_reserved": 0}, {"lon": -76.973817, "bike_id": "0c64d4220d4594e7521d16a3a2d9f659", "lat": 38.86513166666667, "fusion_lon": 0.0, "fusion_lat": 0.0, "type": "electric_scooter", "name": "0c64d4220d4594e7521d16a3a2d9f659", "is_disabled": 0, "rental_uris": {"ios": "https://dc.lft.to/lastmile_qr_scan", "android": "https://dc.lft.to/lastmile_qr_scan"}, "is_reserved": 0}, {"lon": -77.05109383333334, "bike_id": "4823b051a8c299d339cc064d63b9ceae", "lat": 39.036709333333334, "fusion_lon": 0.0, "fusion_lat": 0.0, "type": "electric_bike", "name": "4823b051a8c299d339cc064d63b9ceae", "is_disabled": 0, "rental_uris": {"ios": "https://dc.lft.to/lastmile_qr_scan", "android": "https://dc.lft.to/lastmile_qr_scan"}, "is_reserved": 0}, {"lon": -77.048605, "bike_id": "58ffa9701cbbe3f99375cfb7c224ed58", "lat": 38.89226383333333, "fusion_lon": 0.0, "fusion_lat": 0.0, "type": "electric_scooter", "name": "58ffa9701cbbe3f99375cfb7c224ed58", "is_disabled": 0, "rental_uris": {"ios": "https://dc.lft.to/lastmile_qr_scan", "android": "https://dc.lft.to/lastmile_qr_scan"}, "is_reserved": 0}, {"lon": -77.02611033333334, "bike_id": "35add26a23cf93284e5d8707114e0738", "lat": 38.91915183333333, "fusion_lon": 0.0, "fusion_lat": 0.0, "type": "electric_scooter", "name": "35add26a23cf93284e5d8707114e0738", "is_disabled": 0, "rental_uris": {"ios": "https://dc.lft.to/lastmile_qr_scan", "android": "https://dc.lft.to/lastmile_qr_scan"}, "is_reserved": 0}, {"lon": -76.99113133333333, "bike_id": "3ace566282f156d35034da63e25ba26a", "lat": 38.93362583333333, "fusion_lon": 0.0, "fusion_lat": 0.0, "type": "electric_scooter", "name": "3ace566282f156d35034da63e25ba26a", "is_disabled": 0, "rental_uris": {"ios": "https://dc.lft.to/lastmile_qr_scan", "android": "https://dc.lft.to/lastmile_qr_scan"}, "is_reserved": 0}, {"lon": -77.04589533333333, "bike_id": "5982ff43aa464fc2a99336df7b0c93a0", "lat": 38.91865133333334, "fusion_lon": 0.0, "fusion_lat": 0.0, "type": "electric_scooter", "name": "5982ff43aa464fc2a99336df7b0c93a0", "is_disabled": 0, "rental_uris": {"ios": "https://dc.lft.to/lastmile_qr_scan", "android": "https://dc.lft.to/lastmile_qr_scan"}, "is_reserved": 0}, {"lon": -76.9853685, "bike_id": "2f5d4ffa8ef7b843dacc372e2259aaf0", "lat": 38.88347383333333, "fusion_lon": 0.0, "fusion_lat": 0.0, "type": "electric_scooter", "name": "2f5d4ffa8ef7b843dacc372e2259aaf0", "is_disabled": 0, "rental_uris": {"ios": "https://dc.lft.to/lastmile_qr_scan", "android": "https://dc.lft.to/lastmile_qr_scan"}, "is_reserved": 0}, {"lon": -76.9870285, "bike_id": "d5025b18f4dec63bdbff7d5d53e29c00", "lat": 38.86540183333334, "fusion_lon": 0.0, "fusion_lat": 0.0, "type": "electric_scooter", "name": "d5025b18f4dec63bdbff7d5d53e29c00", "is_disabled": 0, "rental_uris": {"ios": "https://dc.lft.to/lastmile_qr_scan", "android": "https://dc.lft.to/lastmile_qr_scan"}, "is_reserved": 0}, {"lon": -77.04852716666667, "bike_id": "7da05638a02a3f84141388240d7ed8c7", "lat": 38.904569, "fusion_lon": 0.0, "fusion_lat": 0.0, "type": "electric_scooter", "name": "7da05638a02a3f84141388240d7ed8c7", "is_disabled": 0, "rental_uris": {"ios": "https://dc.lft.to/lastmile_qr_scan", "android": "https://dc.lft.to/lastmile_qr_scan"}, "is_reserved": 0}, {"lon": -77.04236183333333, "bike_id": "9d81f384e07cf3390f1387d953ef0f30", "lat": 38.91060683333333, "fusion_lon": 0.0, "fusion_lat": 0.0, "type": "electric_scooter", "name": "9d81f384e07cf3390f1387d953ef0f30", "is_disabled": 0, "rental_uris": {"ios": "https://dc.lft.to/lastmile_qr_scan", "android": "https://dc.lft.to/lastmile_qr_scan"}, "is_reserved": 0}, {"lon": -77.04930966666667, "bike_id": "fe6b7d2a5844890d8fe3b0cff28bbd0d", "lat": 38.9183135, "fusion_lon": 0.0, "fusion_lat": 0.0, "type": "electric_scooter", "name": "fe6b7d2a5844890d8fe3b0cff28bbd0d", "is_disabled": 0, "rental_uris": {"ios": "https://dc.lft.to/lastmile_qr_scan", "android": "https://dc.lft.to/lastmile_qr_scan"}, "is_reserved": 0}, {"lon": -76.97281133333334, "bike_id": "c7dffb45dcbdad689174430b8f67883f", "lat": 38.91449866666667, "fusion_lon": 0.0, "fusion_lat": 0.0, "type": "electric_bike", "name": "c7dffb45dcbdad689174430b8f67883f", "is_disabled": 0, "rental_uris": {"ios": "https://dc.lft.to/lastmile_qr_scan", "android": "https://dc.lft.to/lastmile_qr_scan"}, "is_reserved": 0}, {"lon": -77.02280683333333, "bike_id": "2ba06eb46c36863cec62fc3f9adc4cb0", "lat": 38.92665933333333, "fusion_lon": 0.0, "fusion_lat": 0.0, "type": "electric_scooter", "name": "2ba06eb46c36863cec62fc3f9adc4cb0", "is_disabled": 0, "rental_uris": {"ios": "https://dc.lft.to/lastmile_qr_scan", "android": "https://dc.lft.to/lastmile_qr_scan"}, "is_reserved": 0}, {"lon": -76.99608866666667, "bike_id": "831dd0c0b37f664371b17397153bdbd2", "lat": 38.909617, "fusion_lon": 0.0, "fusion_lat": 0.0, "type": "electric_scooter", "name": "831dd0c0b37f664371b17397153bdbd2", "is_disabled": 0, "rental_uris": {"ios": "https://dc.lft.to/lastmile_qr_scan", "android": "https://dc.lft.to/lastmile_qr_scan"}, "is_reserved": 0}, {"lon": -77.03810233333333, "bike_id": "4985bfb380b6bae3304baeafeea04c3d", "lat": 38.907167, "fusion_lon": 0.0, "fusion_lat": 0.0, "type": "electric_scooter", "name": "4985bfb380b6bae3304baeafeea04c3d", "is_disabled": 0, "rental_uris": {"ios": "https://dc.lft.to/lastmile_qr_scan", "android": "https://dc.lft.to/lastmile_qr_scan"}, "is_reserved": 0}, {"lon": -76.98863916666667, "bike_id": "48277869ef023a2302e410750148e6c0", "lat": 38.95488133333333, "fusion_lon": 0.0, "fusion_lat": 0.0, "type": "electric_bike", "name": "48277869ef023a2302e410750148e6c0", "is_disabled": 0, "rental_uris": {"ios": "https://dc.lft.to/lastmile_qr_scan", "android": "https://dc.lft.to/lastmile_qr_scan"}, "is_reserved": 0}, {"lon": -76.993334, "bike_id": "8543ea468d33aa9c2feda9c42cba2ab8", "lat": 38.87142683333333, "fusion_lon": 0.0, "fusion_lat": 0.0, "type": "electric_scooter", "name": "8543ea468d33aa9c2feda9c42cba2ab8", "is_disabled": 0, "rental_uris": {"ios": "https://dc.lft.to/lastmile_qr_scan", "android": "https://dc.lft.to/lastmile_qr_scan"}, "is_reserved": 0}, {"lon": -77.073513, "bike_id": "b6fabeb431196972fa570b0bf5910092", "lat": 38.93051216666667, "fusion_lon": 0.0, "fusion_lat": 0.0, "type": "electric_bike", "name": "b6fabeb431196972fa570b0bf5910092", "is_disabled": 0, "rental_uris": {"ios": "https://dc.lft.to/lastmile_qr_scan", "android": "https://dc.lft.to/lastmile_qr_scan"}, "is_reserved": 0}, {"lon": -76.987228, "bike_id": "a2302e1d49e115471fbfe40d43263d9e", "lat": 38.86708316666667, "fusion_lon": 0.0, "fusion_lat": 0.0, "type": "electric_scooter", "name": "a2302e1d49e115471fbfe40d43263d9e", "is_disabled": 0, "rental_uris": {"ios": "https://dc.lft.to/lastmile_qr_scan", "android": "https://dc.lft.to/lastmile_qr_scan"}, "is_reserved": 0}, {"lon": -77.03334916666667, "bike_id": "0c20e11d5622fbbdf21afbf433ef3d9e", "lat": 38.936376333333335, "fusion_lon": 0.0, "fusion_lat": 0.0, "type": "electric_scooter", "name": "0c20e11d5622fbbdf21afbf433ef3d9e", "is_disabled": 0, "rental_uris": {"ios": "https://dc.lft.to/lastmile_qr_scan", "android": "https://dc.lft.to/lastmile_qr_scan"}, "is_reserved": 0}, {"lon": -76.94885816666667, "bike_id": "1398270ffc7586d301de43ed15f5d4ac", "lat": 38.8950995, "fusion_lon": 0.0, "fusion_lat": 0.0, "type": "electric_scooter", "name": "1398270ffc7586d301de43ed15f5d4ac", "is_disabled": 0, "rental_uris": {"ios": "https://dc.lft.to/lastmile_qr_scan", "android": "https://dc.lft.to/lastmile_qr_scan"}, "is_reserved": 0}, {"lon": -77.01645233333333, "bike_id": "b310a08d67a506d9fdc80b33316c130c", "lat": 38.9057445, "fusion_lon": 0.0, "fusion_lat": 0.0, "type": "electric_scooter", "name": "b310a08d67a506d9fdc80b33316c130c", "is_disabled": 0, "rental_uris": {"ios": "https://dc.lft.to/lastmile_qr_scan", "android": "https://dc.lft.to/lastmile_qr_scan"}, "is_reserved": 0}, {"lon": -77.02087316666666, "bike_id": "e21301492580c8997df7d5d2cbe7509b", "lat": 38.957489, "fusion_lon": 0.0, "fusion_lat": 0.0, "type": "electric_scooter", "name": "e21301492580c8997df7d5d2cbe7509b", "is_disabled": 0, "rental_uris": {"ios": "https://dc.lft.to/lastmile_qr_scan", "android": "https://dc.lft.to/lastmile_qr_scan"}, "is_reserved": 0}, {"lon": -77.02775066666666, "bike_id": "ce2cbc42991d0b76f23babe9b14f9860", "lat": 38.89697666666667, "fusion_lon": 0.0, "fusion_lat": 0.0, "type": "electric_scooter", "name": "ce2cbc42991d0b76f23babe9b14f9860", "is_disabled": 0, "rental_uris": {"ios": "https://dc.lft.to/lastmile_qr_scan", "android": "https://dc.lft.to/lastmile_qr_scan"}, "is_reserved": 0}, {"lon": -76.96058833333333, "bike_id": "c7bc2858084d94fa25c45f0bb7e46b6c", "lat": 38.8840675, "fusion_lon": 0.0, "fusion_lat": 0.0, "type": "electric_bike", "name": "c7bc2858084d94fa25c45f0bb7e46b6c", "is_disabled": 0, "rental_uris": {"ios": "https://dc.lft.to/lastmile_qr_scan", "android": "https://dc.lft.to/lastmile_qr_scan"}, "is_reserved": 0}, {"lon": -76.99483833333333, "bike_id": "2fcd4989a9e070cc1cff2aba508dcd33", "lat": 38.88189966666667, "fusion_lon": 0.0, "fusion_lat": 0.0, "type": "electric_scooter", "name": "2fcd4989a9e070cc1cff2aba508dcd33", "is_disabled": 0, "rental_uris": {"ios": "https://dc.lft.to/lastmile_qr_scan", "android": "https://dc.lft.to/lastmile_qr_scan"}, "is_reserved": 0}, {"lon": -77.04164783333333, "bike_id": "a0e774d00f19f4b6da0f78fbf4281bc0", "lat": 38.90997316666667, "fusion_lon": 0.0, "fusion_lat": 0.0, "type": "electric_scooter", "name": "a0e774d00f19f4b6da0f78fbf4281bc0", "is_disabled": 0, "rental_uris": {"ios": "https://dc.lft.to/lastmile_qr_scan", "android": "https://dc.lft.to/lastmile_qr_scan"}, "is_reserved": 0}, {"lon": -77.131017, "bike_id": "4d759b5fa2341f7b9368ae269bc733d0", "lat": 39.02437166666667, "fusion_lon": 0.0, "fusion_lat": 0.0, "type": "electric_bike", "name": "4d759b5fa2341f7b9368ae269bc733d0", "is_disabled": 0, "rental_uris": {"ios": "https://dc.lft.to/lastmile_qr_scan", "android": "https://dc.lft.to/lastmile_qr_scan"}, "is_reserved": 0}, {"lon": -77.0418515, "bike_id": "f3ecf927b7ee763f252a457f1c6d35f9", "lat": 38.906111833333334, "fusion_lon": 0.0, "fusion_lat": 0.0, "type": "electric_scooter", "name": "f3ecf927b7ee763f252a457f1c6d35f9", "is_disabled": 0, "rental_uris": {"ios": "https://dc.lft.to/lastmile_qr_scan", "android": "https://dc.lft.to/lastmile_qr_scan"}, "is_reserved": 0}, {"lon": -77.09595966666667, "bike_id": "aa9b31d94c35aeabea59df72a005fa16", "lat": 39.0289035, "fusion_lon": 0.0, "fusion_lat": 0.0, "type": "electric_bike", "name": "aa9b31d94c35aeabea59df72a005fa16", "is_disabled": 0, "rental_uris": {"ios": "https://dc.lft.to/lastmile_qr_scan", "android": "https://dc.lft.to/lastmile_qr_scan"}, "is_reserved": 0}, {"lon": -77.03939533333333, "bike_id": "0d722bc21c9b5319ab20bd552a6bbbd3", "lat": 38.9211635, "fusion_lon": 0.0, "fusion_lat": 0.0, "type": "electric_scooter", "name": "0d722bc21c9b5319ab20bd552a6bbbd3", "is_disabled": 0, "rental_uris": {"ios": "https://dc.lft.to/lastmile_qr_scan", "android": "https://dc.lft.to/lastmile_qr_scan"}, "is_reserved": 0}, {"lon": -77.03170233333333, "bike_id": "cc1b0a44fecf74bf9193394de132f762", "lat": 38.912682, "fusion_lon": 0.0, "fusion_lat": 0.0, "type": "electric_scooter", "name": "cc1b0a44fecf74bf9193394de132f762", "is_disabled": 0, "rental_uris": {"ios": "https://dc.lft.to/lastmile_qr_scan", "android": "https://dc.lft.to/lastmile_qr_scan"}, "is_reserved": 0}, {"lon": -77.045483, "bike_id": "e558868ffd441ff729b3d917eb571ade", "lat": 38.912673, "fusion_lon": 0.0, "fusion_lat": 0.0, "type": "electric_scooter", "name": "e558868ffd441ff729b3d917eb571ade", "is_disabled": 0, "rental_uris": {"ios": "https://dc.lft.to/lastmile_qr_scan", "android": "https://dc.lft.to/lastmile_qr_scan"}, "is_reserved": 0}, {"lon": -77.011154, "bike_id": "592acdbbc183ae87434e1049171679bd", "lat": 38.885535, "fusion_lon": 0.0, "fusion_lat": 0.0, "type": "electric_scooter", "name": "592acdbbc183ae87434e1049171679bd", "is_disabled": 0, "rental_uris": {"ios": "https://dc.lft.to/lastmile_qr_scan", "android": "https://dc.lft.to/lastmile_qr_scan"}, "is_reserved": 0}, {"lon": -77.02944266666667, "bike_id": "b494f2af204c8333027887645665ea85", "lat": 38.905212166666665, "fusion_lon": 0.0, "fusion_lat": 0.0, "type": "electric_scooter", "name": "b494f2af204c8333027887645665ea85", "is_disabled": 0, "rental_uris": {"ios": "https://dc.lft.to/lastmile_qr_scan", "android": "https://dc.lft.to/lastmile_qr_scan"}, "is_reserved": 0}, {"lon": -77.05622083333333, "bike_id": "8033733ee9d49b8dd8c7b833113f75b9", "lat": 38.9607795, "fusion_lon": 0.0, "fusion_lat": 0.0, "type": "electric_scooter", "name": "8033733ee9d49b8dd8c7b833113f75b9", "is_disabled": 0, "rental_uris": {"ios": "https://dc.lft.to/lastmile_qr_scan", "android": "https://dc.lft.to/lastmile_qr_scan"}, "is_reserved": 0}, {"lon": -77.0354, "bike_id": "90f642f793af1cc24a63beed6d74a7f7", "lat": 38.924114, "fusion_lon": 0.0, "fusion_lat": 0.0, "type": "electric_scooter", "name": "90f642f793af1cc24a63beed6d74a7f7", "is_disabled": 0, "rental_uris": {"ios": "https://dc.lft.to/lastmile_qr_scan", "android": "https://dc.lft.to/lastmile_qr_scan"}, "is_reserved": 0}, {"lon": -76.99834816666667, "bike_id": "20480cf51edc8148720d38ccf0c9119e", "lat": 38.902128166666664, "fusion_lon": 0.0, "fusion_lat": 0.0, "type": "electric_scooter", "name": "20480cf51edc8148720d38ccf0c9119e", "is_disabled": 0, "rental_uris": {"ios": "https://dc.lft.to/lastmile_qr_scan", "android": "https://dc.lft.to/lastmile_qr_scan"}, "is_reserved": 0}, {"lon": -77.04197716666667, "bike_id": "a9039bce9f3794529d51e78b31b9e7fd", "lat": 38.920906333333335, "fusion_lon": 0.0, "fusion_lat": 0.0, "type": "electric_scooter", "name": "a9039bce9f3794529d51e78b31b9e7fd", "is_disabled": 0, "rental_uris": {"ios": "https://dc.lft.to/lastmile_qr_scan", "android": "https://dc.lft.to/lastmile_qr_scan"}, "is_reserved": 0}, {"lon": -77.03514233333334, "bike_id": "0bc51b2a072e35b7859cf7b8e098a03e", "lat": 38.924138166666665, "fusion_lon": 0.0, "fusion_lat": 0.0, "type": "electric_bike", "name": "0bc51b2a072e35b7859cf7b8e098a03e", "is_disabled": 0, "rental_uris": {"ios": "https://dc.lft.to/lastmile_qr_scan", "android": "https://dc.lft.to/lastmile_qr_scan"}, "is_reserved": 0}, {"lon": -77.03257583333334, "bike_id": "46c6bc2346e578791da23495f98350ac", "lat": 38.937273, "fusion_lon": 0.0, "fusion_lat": 0.0, "type": "electric_scooter", "name": "46c6bc2346e578791da23495f98350ac", "is_disabled": 0, "rental_uris": {"ios": "https://dc.lft.to/lastmile_qr_scan", "android": "https://dc.lft.to/lastmile_qr_scan"}, "is_reserved": 0}, {"lon": -76.9614875, "bike_id": "98e3aa763e96084b0fc48cccc059746e", "lat": 38.883569666666666, "fusion_lon": 0.0, "fusion_lat": 0.0, "type": "electric_scooter", "name": "98e3aa763e96084b0fc48cccc059746e", "is_disabled": 0, "rental_uris": {"ios": "https://dc.lft.to/lastmile_qr_scan", "android": "https://dc.lft.to/lastmile_qr_scan"}, "is_reserved": 0}, {"lon": -77.03889733333334, "bike_id": "4532fda6f3789f47953e4c105fe86c74", "lat": 38.910048, "fusion_lon": 0.0, "fusion_lat": 0.0, "type": "electric_scooter", "name": "4532fda6f3789f47953e4c105fe86c74", "is_disabled": 0, "rental_uris": {"ios": "https://dc.lft.to/lastmile_qr_scan", "android": "https://dc.lft.to/lastmile_qr_scan"}, "is_reserved": 0}, {"lon": -77.03864966666667, "bike_id": "7724f3dcd2caa8f3de5fe6d16b36b017", "lat": 38.94504833333333, "fusion_lon": 0.0, "fusion_lat": 0.0, "type": "electric_scooter", "name": "7724f3dcd2caa8f3de5fe6d16b36b017", "is_disabled": 0, "rental_uris": {"ios": "https://dc.lft.to/lastmile_qr_scan", "android": "https://dc.lft.to/lastmile_qr_scan"}, "is_reserved": 0}, {"lon": -77.03215733333333, "bike_id": "6dc0adb99d559ae897dad983f068529c", "lat": 38.9148735, "fusion_lon": 0.0, "fusion_lat": 0.0, "type": "electric_scooter", "name": "6dc0adb99d559ae897dad983f068529c", "is_disabled": 0, "rental_uris": {"ios": "https://dc.lft.to/lastmile_qr_scan", "android": "https://dc.lft.to/lastmile_qr_scan"}, "is_reserved": 0}, {"lon": -76.9536915, "bike_id": "cb1970924252dd61d770e15837682574", "lat": 38.892027666666664, "fusion_lon": 0.0, "fusion_lat": 0.0, "type": "electric_scooter", "name": "cb1970924252dd61d770e15837682574", "is_disabled": 0, "rental_uris": {"ios": "https://dc.lft.to/lastmile_qr_scan", "android": "https://dc.lft.to/lastmile_qr_scan"}, "is_reserved": 0}, {"lon": -76.98722133333334, "bike_id": "4c6a004e009f82e80b5a800d33869dcb", "lat": 38.866788666666665, "fusion_lon": 0.0, "fusion_lat": 0.0, "type": "electric_scooter", "name": "4c6a004e009f82e80b5a800d33869dcb", "is_disabled": 0, "rental_uris": {"ios": "https://dc.lft.to/lastmile_qr_scan", "android": "https://dc.lft.to/lastmile_qr_scan"}, "is_reserved": 0}, {"lon": -76.96778833333333, "bike_id": "36a2af03a05e2686987f625352ab2696", "lat": 38.868500833333336, "fusion_lon": 0.0, "fusion_lat": 0.0, "type": "electric_scooter", "name": "36a2af03a05e2686987f625352ab2696", "is_disabled": 0, "rental_uris": {"ios": "https://dc.lft.to/lastmile_qr_scan", "android": "https://dc.lft.to/lastmile_qr_scan"}, "is_reserved": 0}, {"lon": -77.00584683333334, "bike_id": "fe71e8e17af106b13bed28f4f999737c", "lat": 38.884284666666666, "fusion_lon": 0.0, "fusion_lat": 0.0, "type": "electric_scooter", "name": "fe71e8e17af106b13bed28f4f999737c", "is_disabled": 0, "rental_uris": {"ios": "https://dc.lft.to/lastmile_qr_scan", "android": "https://dc.lft.to/lastmile_qr_scan"}, "is_reserved": 0}, {"lon": -77.02612833333333, "bike_id": "b33dcbe0f95284a7b898909c23e5b70f", "lat": 38.914129, "fusion_lon": 0.0, "fusion_lat": 0.0, "type": "electric_scooter", "name": "b33dcbe0f95284a7b898909c23e5b70f", "is_disabled": 0, "rental_uris": {"ios": "https://dc.lft.to/lastmile_qr_scan", "android": "https://dc.lft.to/lastmile_qr_scan"}, "is_reserved": 0}, {"lon": -77.01756366666666, "bike_id": "58960d1720d6678ffe9bb3edaf6d3787", "lat": 38.87221, "fusion_lon": 0.0, "fusion_lat": 0.0, "type": "electric_scooter", "name": "58960d1720d6678ffe9bb3edaf6d3787", "is_disabled": 0, "rental_uris": {"ios": "https://dc.lft.to/lastmile_qr_scan", "android": "https://dc.lft.to/lastmile_qr_scan"}, "is_reserved": 0}, {"lon": -77.02968616666666, "bike_id": "5ba532697846ecf3cb74a29495820220", "lat": 38.91729083333333, "fusion_lon": 0.0, "fusion_lat": 0.0, "type": "electric_scooter", "name": "5ba532697846ecf3cb74a29495820220", "is_disabled": 0, "rental_uris": {"ios": "https://dc.lft.to/lastmile_qr_scan", "android": "https://dc.lft.to/lastmile_qr_scan"}, "is_reserved": 0}, {"lon": -77.07012683333333, "bike_id": "b336e2935fe3ce3b59b66b482c94f792", "lat": 38.90593466666667, "fusion_lon": 0.0, "fusion_lat": 0.0, "type": "electric_bike", "name": "b336e2935fe3ce3b59b66b482c94f792", "is_disabled": 0, "rental_uris": {"ios": "https://dc.lft.to/lastmile_qr_scan", "android": "https://dc.lft.to/lastmile_qr_scan"}, "is_reserved": 0}, {"lon": -77.0104965, "bike_id": "d4e6c3eb21bbd7db333f1698b495f042", "lat": 38.9635375, "fusion_lon": 0.0, "fusion_lat": 0.0, "type": "electric_scooter", "name": "d4e6c3eb21bbd7db333f1698b495f042", "is_disabled": 0, "rental_uris": {"ios": "https://dc.lft.to/lastmile_qr_scan", "android": "https://dc.lft.to/lastmile_qr_scan"}, "is_reserved": 0}, {"lon": -77.0244115, "bike_id": "1682f7eb233ae366123d6fe4e476ee80", "lat": 38.920478333333335, "fusion_lon": 0.0, "fusion_lat": 0.0, "type": "electric_scooter", "name": "1682f7eb233ae366123d6fe4e476ee80", "is_disabled": 0, "rental_uris": {"ios": "https://dc.lft.to/lastmile_qr_scan", "android": "https://dc.lft.to/lastmile_qr_scan"}, "is_reserved": 0}, {"lon": -77.11913966666667, "bike_id": "45466e1411de9722603f0131132cc8db", "lat": 38.876357666666664, "fusion_lon": 0.0, "fusion_lat": 0.0, "type": "electric_bike", "name": "45466e1411de9722603f0131132cc8db", "is_disabled": 0, "rental_uris": {"ios": "https://dc.lft.to/lastmile_qr_scan", "android": "https://dc.lft.to/lastmile_qr_scan"}, "is_reserved": 0}, {"lon": -77.00582916666667, "bike_id": "8ed4611dd584a15b7568fb9d10ef762e", "lat": 38.8767675, "fusion_lon": 0.0, "fusion_lat": 0.0, "type": "electric_scooter", "name": "8ed4611dd584a15b7568fb9d10ef762e", "is_disabled": 0, "rental_uris": {"ios": "https://dc.lft.to/lastmile_qr_scan", "android": "https://dc.lft.to/lastmile_qr_scan"}, "is_reserved": 0}, {"lon": -77.078102, "bike_id": "feebc745259906a3a51f6b668a297950", "lat": 38.92462916666667, "fusion_lon": 0.0, "fusion_lat": 0.0, "type": "electric_scooter", "name": "feebc745259906a3a51f6b668a297950", "is_disabled": 0, "rental_uris": {"ios": "https://dc.lft.to/lastmile_qr_scan", "android": "https://dc.lft.to/lastmile_qr_scan"}, "is_reserved": 0}, {"lon": -77.00214666666666, "bike_id": "6102c2c0947e8660d649056b145bce4b", "lat": 38.9024745, "fusion_lon": 0.0, "fusion_lat": 0.0, "type": "electric_scooter", "name": "6102c2c0947e8660d649056b145bce4b", "is_disabled": 0, "rental_uris": {"ios": "https://dc.lft.to/lastmile_qr_scan", "android": "https://dc.lft.to/lastmile_qr_scan"}, "is_reserved": 0}, {"lon": -77.03110966666667, "bike_id": "0041032d88ad164cc1b5b3611a7c9566", "lat": 38.904450833333335, "fusion_lon": 0.0, "fusion_lat": 0.0, "type": "electric_scooter", "name": "0041032d88ad164cc1b5b3611a7c9566", "is_disabled": 0, "rental_uris": {"ios": "https://dc.lft.to/lastmile_qr_scan", "android": "https://dc.lft.to/lastmile_qr_scan"}, "is_reserved": 0}, {"lon": -77.05332933333334, "bike_id": "c537785dc626d82d2f8de5ec0fab3c6f", "lat": 38.898758, "fusion_lon": 0.0, "fusion_lat": 0.0, "type": "electric_scooter", "name": "c537785dc626d82d2f8de5ec0fab3c6f", "is_disabled": 0, "rental_uris": {"ios": "https://dc.lft.to/lastmile_qr_scan", "android": "https://dc.lft.to/lastmile_qr_scan"}, "is_reserved": 0}, {"lon": -77.02288166666666, "bike_id": "247f8dadf3cc657ab71a167519abe81e", "lat": 38.915538833333336, "fusion_lon": 0.0, "fusion_lat": 0.0, "type": "electric_scooter", "name": "247f8dadf3cc657ab71a167519abe81e", "is_disabled": 0, "rental_uris": {"ios": "https://dc.lft.to/lastmile_qr_scan", "android": "https://dc.lft.to/lastmile_qr_scan"}, "is_reserved": 0}, {"lon": -77.02154983333334, "bike_id": "e8860c7be5a234562e0aed6ca2e7a3f2", "lat": 38.90970566666667, "fusion_lon": 0.0, "fusion_lat": 0.0, "type": "electric_scooter", "name": "e8860c7be5a234562e0aed6ca2e7a3f2", "is_disabled": 0, "rental_uris": {"ios": "https://dc.lft.to/lastmile_qr_scan", "android": "https://dc.lft.to/lastmile_qr_scan"}, "is_reserved": 0}, {"lon": -77.04078516666667, "bike_id": "1d26900ee909a106af3afda6cec82b20", "lat": 38.92308516666667, "fusion_lon": 0.0, "fusion_lat": 0.0, "type": "electric_scooter", "name": "1d26900ee909a106af3afda6cec82b20", "is_disabled": 0, "rental_uris": {"ios": "https://dc.lft.to/lastmile_qr_scan", "android": "https://dc.lft.to/lastmile_qr_scan"}, "is_reserved": 0}, {"lon": -76.982469, "bike_id": "81d9cbfcb683e152fa1fd41aef492bc7", "lat": 38.86459766666667, "fusion_lon": 0.0, "fusion_lat": 0.0, "type": "electric_scooter", "name": "81d9cbfcb683e152fa1fd41aef492bc7", "is_disabled": 0, "rental_uris": {"ios": "https://dc.lft.to/lastmile_qr_scan", "android": "https://dc.lft.to/lastmile_qr_scan"}, "is_reserved": 0}, {"lon": -77.04699216666667, "bike_id": "b6d2c48c7c3579709ae660e7ed731b8a", "lat": 38.919054833333334, "fusion_lon": 0.0, "fusion_lat": 0.0, "type": "electric_scooter", "name": "b6d2c48c7c3579709ae660e7ed731b8a", "is_disabled": 0, "rental_uris": {"ios": "https://dc.lft.to/lastmile_qr_scan", "android": "https://dc.lft.to/lastmile_qr_scan"}, "is_reserved": 0}, {"lon": -77.04256883333333, "bike_id": "3da11d57dfaf16bb65ef9cbe0a6b120a", "lat": 38.92200033333334, "fusion_lon": 0.0, "fusion_lat": 0.0, "type": "electric_scooter", "name": "3da11d57dfaf16bb65ef9cbe0a6b120a", "is_disabled": 0, "rental_uris": {"ios": "https://dc.lft.to/lastmile_qr_scan", "android": "https://dc.lft.to/lastmile_qr_scan"}, "is_reserved": 0}, {"lon": -77.00187, "bike_id": "106f6f327df947badb149c052e197826", "lat": 38.89475733333333, "fusion_lon": 0.0, "fusion_lat": 0.0, "type": "electric_scooter", "name": "106f6f327df947badb149c052e197826", "is_disabled": 0, "rental_uris": {"ios": "https://dc.lft.to/lastmile_qr_scan", "android": "https://dc.lft.to/lastmile_qr_scan"}, "is_reserved": 0}, {"lon": -77.02177116666667, "bike_id": "1b502f45fa322c8eb7e700881b30d0b0", "lat": 38.90103783333333, "fusion_lon": 0.0, "fusion_lat": 0.0, "type": "electric_scooter", "name": "1b502f45fa322c8eb7e700881b30d0b0", "is_disabled": 0, "rental_uris": {"ios": "https://dc.lft.to/lastmile_qr_scan", "android": "https://dc.lft.to/lastmile_qr_scan"}, "is_reserved": 0}, {"lon": -77.0150005, "bike_id": "a41a7f1f7b11599498cd24bf06cf08a9", "lat": 38.945337, "fusion_lon": 0.0, "fusion_lat": 0.0, "type": "electric_scooter", "name": "a41a7f1f7b11599498cd24bf06cf08a9", "is_disabled": 0, "rental_uris": {"ios": "https://dc.lft.to/lastmile_qr_scan", "android": "https://dc.lft.to/lastmile_qr_scan"}, "is_reserved": 0}, {"lon": -76.98553216666667, "bike_id": "2a5551ac4ab813ee3bf6e47d3b0b8509", "lat": 38.91033316666667, "fusion_lon": 0.0, "fusion_lat": 0.0, "type": "electric_scooter", "name": "2a5551ac4ab813ee3bf6e47d3b0b8509", "is_disabled": 0, "rental_uris": {"ios": "https://dc.lft.to/lastmile_qr_scan", "android": "https://dc.lft.to/lastmile_qr_scan"}, "is_reserved": 0}, {"lon": -77.00113166666667, "bike_id": "9a12a5438f9cf3fce63e2fb324dc94cf", "lat": 38.91969916666667, "fusion_lon": 0.0, "fusion_lat": 0.0, "type": "electric_scooter", "name": "9a12a5438f9cf3fce63e2fb324dc94cf", "is_disabled": 0, "rental_uris": {"ios": "https://dc.lft.to/lastmile_qr_scan", "android": "https://dc.lft.to/lastmile_qr_scan"}, "is_reserved": 0}, {"lon": -76.98104066666667, "bike_id": "c7d74e24f67c270dfdf7825f61f357ca", "lat": 38.877305, "fusion_lon": 0.0, "fusion_lat": 0.0, "type": "electric_bike", "name": "c7d74e24f67c270dfdf7825f61f357ca", "is_disabled": 0, "rental_uris": {"ios": "https://dc.lft.to/lastmile_qr_scan", "android": "https://dc.lft.to/lastmile_qr_scan"}, "is_reserved": 0}, {"lon": -77.030624, "bike_id": "af9cb6fda950238e2791f29523378a03", "lat": 38.9247085, "fusion_lon": 0.0, "fusion_lat": 0.0, "type": "electric_scooter", "name": "af9cb6fda950238e2791f29523378a03", "is_disabled": 0, "rental_uris": {"ios": "https://dc.lft.to/lastmile_qr_scan", "android": "https://dc.lft.to/lastmile_qr_scan"}, "is_reserved": 0}, {"lon": -77.0059135, "bike_id": "d6ec0eebd491d10398d8ba8430b2ffae", "lat": 38.90035533333333, "fusion_lon": 0.0, "fusion_lat": 0.0, "type": "electric_scooter", "name": "d6ec0eebd491d10398d8ba8430b2ffae", "is_disabled": 0, "rental_uris": {"ios": "https://dc.lft.to/lastmile_qr_scan", "android": "https://dc.lft.to/lastmile_qr_scan"}, "is_reserved": 0}, {"lon": -76.997888, "bike_id": "8df9cd89264ca1341c243de620d45c07", "lat": 38.890885, "fusion_lon": 0.0, "fusion_lat": 0.0, "type": "electric_scooter", "name": "8df9cd89264ca1341c243de620d45c07", "is_disabled": 0, "rental_uris": {"ios": "https://dc.lft.to/lastmile_qr_scan", "android": "https://dc.lft.to/lastmile_qr_scan"}, "is_reserved": 0}, {"lon": -77.0397325, "bike_id": "134b7dd60d88d5ea7bda4e14f8cc67ca", "lat": 38.920815, "fusion_lon": 0.0, "fusion_lat": 0.0, "type": "electric_scooter", "name": "134b7dd60d88d5ea7bda4e14f8cc67ca", "is_disabled": 0, "rental_uris": {"ios": "https://dc.lft.to/lastmile_qr_scan", "android": "https://dc.lft.to/lastmile_qr_scan"}, "is_reserved": 0}, {"lon": -77.01063583333334, "bike_id": "eaea951632c30dcf2c73963418cf1953", "lat": 38.866751666666666, "fusion_lon": 0.0, "fusion_lat": 0.0, "type": "electric_scooter", "name": "eaea951632c30dcf2c73963418cf1953", "is_disabled": 0, "rental_uris": {"ios": "https://dc.lft.to/lastmile_qr_scan", "android": "https://dc.lft.to/lastmile_qr_scan"}, "is_reserved": 0}, {"lon": -77.03475783333333, "bike_id": "574d8342e0b6e68b72f6481b357c3d59", "lat": 38.905958166666665, "fusion_lon": 0.0, "fusion_lat": 0.0, "type": "electric_scooter", "name": "574d8342e0b6e68b72f6481b357c3d59", "is_disabled": 0, "rental_uris": {"ios": "https://dc.lft.to/lastmile_qr_scan", "android": "https://dc.lft.to/lastmile_qr_scan"}, "is_reserved": 0}, {"lon": -77.01104483333333, "bike_id": "c98c27c2ff777744761c5d18a054c0b2", "lat": 38.903471, "fusion_lon": 0.0, "fusion_lat": 0.0, "type": "electric_scooter", "name": "c98c27c2ff777744761c5d18a054c0b2", "is_disabled": 0, "rental_uris": {"ios": "https://dc.lft.to/lastmile_qr_scan", "android": "https://dc.lft.to/lastmile_qr_scan"}, "is_reserved": 0}, {"lon": -77.02005716666666, "bike_id": "469db1c923a27f95f62f2b33766b4777", "lat": 38.924143, "fusion_lon": 0.0, "fusion_lat": 0.0, "type": "electric_scooter", "name": "469db1c923a27f95f62f2b33766b4777", "is_disabled": 0, "rental_uris": {"ios": "https://dc.lft.to/lastmile_qr_scan", "android": "https://dc.lft.to/lastmile_qr_scan"}, "is_reserved": 0}, {"lon": -77.00305583333333, "bike_id": "bc48742e934e3b56a070b21ef7ad054c", "lat": 38.894965666666664, "fusion_lon": 0.0, "fusion_lat": 0.0, "type": "electric_scooter", "name": "bc48742e934e3b56a070b21ef7ad054c", "is_disabled": 0, "rental_uris": {"ios": "https://dc.lft.to/lastmile_qr_scan", "android": "https://dc.lft.to/lastmile_qr_scan"}, "is_reserved": 0}, {"lon": -77.08512016666667, "bike_id": "efacbe0fdd84b8f68d54d3f004ce9847", "lat": 38.95926983333333, "fusion_lon": 0.0, "fusion_lat": 0.0, "type": "electric_scooter", "name": "efacbe0fdd84b8f68d54d3f004ce9847", "is_disabled": 0, "rental_uris": {"ios": "https://dc.lft.to/lastmile_qr_scan", "android": "https://dc.lft.to/lastmile_qr_scan"}, "is_reserved": 0}, {"lon": -77.0303245, "bike_id": "5299da2c632642843636bb005c8f1520", "lat": 38.87836433333333, "fusion_lon": 0.0, "fusion_lat": 0.0, "type": "electric_scooter", "name": "5299da2c632642843636bb005c8f1520", "is_disabled": 0, "rental_uris": {"ios": "https://dc.lft.to/lastmile_qr_scan", "android": "https://dc.lft.to/lastmile_qr_scan"}, "is_reserved": 0}, {"lon": -77.04339116666667, "bike_id": "ec318227fb9b6d73670c27284d6cfdb0", "lat": 38.91052033333333, "fusion_lon": 0.0, "fusion_lat": 0.0, "type": "electric_scooter", "name": "ec318227fb9b6d73670c27284d6cfdb0", "is_disabled": 0, "rental_uris": {"ios": "https://dc.lft.to/lastmile_qr_scan", "android": "https://dc.lft.to/lastmile_qr_scan"}, "is_reserved": 0}, {"lon": -77.01812066666666, "bike_id": "2264edf997d2b7462ffc241eca343bfc", "lat": 38.923656333333334, "fusion_lon": 0.0, "fusion_lat": 0.0, "type": "electric_scooter", "name": "2264edf997d2b7462ffc241eca343bfc", "is_disabled": 0, "rental_uris": {"ios": "https://dc.lft.to/lastmile_qr_scan", "android": "https://dc.lft.to/lastmile_qr_scan"}, "is_reserved": 0}, {"lon": -77.0510545, "bike_id": "2f12f3f774dffe3b727f702738b0edc4", "lat": 38.923051666666666, "fusion_lon": 0.0, "fusion_lat": 0.0, "type": "electric_scooter", "name": "2f12f3f774dffe3b727f702738b0edc4", "is_disabled": 0, "rental_uris": {"ios": "https://dc.lft.to/lastmile_qr_scan", "android": "https://dc.lft.to/lastmile_qr_scan"}, "is_reserved": 0}, {"lon": -77.01310316666667, "bike_id": "8f6ce3cbdfd555490b379b2092db055b", "lat": 38.90734783333333, "fusion_lon": 0.0, "fusion_lat": 0.0, "type": "electric_scooter", "name": "8f6ce3cbdfd555490b379b2092db055b", "is_disabled": 0, "rental_uris": {"ios": "https://dc.lft.to/lastmile_qr_scan", "android": "https://dc.lft.to/lastmile_qr_scan"}, "is_reserved": 0}, {"lon": -77.02484916666667, "bike_id": "522d186b4bc0848659ceeb4112c05b71", "lat": 38.90728166666667, "fusion_lon": 0.0, "fusion_lat": 0.0, "type": "electric_scooter", "name": "522d186b4bc0848659ceeb4112c05b71", "is_disabled": 0, "rental_uris": {"ios": "https://dc.lft.to/lastmile_qr_scan", "android": "https://dc.lft.to/lastmile_qr_scan"}, "is_reserved": 0}, {"lon": -77.04539816666667, "bike_id": "d48b66e67f031381d0ae40fc8bb80a1e", "lat": 38.90967666666667, "fusion_lon": 0.0, "fusion_lat": 0.0, "type": "electric_scooter", "name": "d48b66e67f031381d0ae40fc8bb80a1e", "is_disabled": 0, "rental_uris": {"ios": "https://dc.lft.to/lastmile_qr_scan", "android": "https://dc.lft.to/lastmile_qr_scan"}, "is_reserved": 0}, {"lon": -77.00549733333334, "bike_id": "ac4bc97171485351c5b8d0b3367b484c", "lat": 38.88754266666667, "fusion_lon": 0.0, "fusion_lat": 0.0, "type": "electric_scooter", "name": "ac4bc97171485351c5b8d0b3367b484c", "is_disabled": 0, "rental_uris": {"ios": "https://dc.lft.to/lastmile_qr_scan", "android": "https://dc.lft.to/lastmile_qr_scan"}, "is_reserved": 0}, {"lon": -77.02574916666667, "bike_id": "e0f785aa3960b1f4cbdb8c0f17ce94ee", "lat": 38.91403583333334, "fusion_lon": 0.0, "fusion_lat": 0.0, "type": "electric_scooter", "name": "e0f785aa3960b1f4cbdb8c0f17ce94ee", "is_disabled": 0, "rental_uris": {"ios": "https://dc.lft.to/lastmile_qr_scan", "android": "https://dc.lft.to/lastmile_qr_scan"}, "is_reserved": 0}, {"lon": -77.00475883333333, "bike_id": "edc817910523872e3fa27fe332eb47e0", "lat": 38.89586716666667, "fusion_lon": 0.0, "fusion_lat": 0.0, "type": "electric_scooter", "name": "edc817910523872e3fa27fe332eb47e0", "is_disabled": 0, "rental_uris": {"ios": "https://dc.lft.to/lastmile_qr_scan", "android": "https://dc.lft.to/lastmile_qr_scan"}, "is_reserved": 0}, {"lon": -76.96128066666667, "bike_id": "3072b856128110b14d2d762eb70d3bee", "lat": 38.94214766666666, "fusion_lon": 0.0, "fusion_lat": 0.0, "type": "electric_bike", "name": "3072b856128110b14d2d762eb70d3bee", "is_disabled": 0, "rental_uris": {"ios": "https://dc.lft.to/lastmile_qr_scan", "android": "https://dc.lft.to/lastmile_qr_scan"}, "is_reserved": 0}, {"lon": -77.04649883333333, "bike_id": "24b1bce1424055ad3dcf0a83c271b75e", "lat": 39.05503133333333, "fusion_lon": 0.0, "fusion_lat": 0.0, "type": "electric_bike", "name": "24b1bce1424055ad3dcf0a83c271b75e", "is_disabled": 0, "rental_uris": {"ios": "https://dc.lft.to/lastmile_qr_scan", "android": "https://dc.lft.to/lastmile_qr_scan"}, "is_reserved": 0}, {"lon": -77.00958833333334, "bike_id": "844a4b0584c36b2354a589f2104a6410", "lat": 38.91707533333334, "fusion_lon": 0.0, "fusion_lat": 0.0, "type": "electric_scooter", "name": "844a4b0584c36b2354a589f2104a6410", "is_disabled": 0, "rental_uris": {"ios": "https://dc.lft.to/lastmile_qr_scan", "android": "https://dc.lft.to/lastmile_qr_scan"}, "is_reserved": 0}, {"lon": -77.02759916666666, "bike_id": "1dcd7652c519e80e04bedfd43c2b1d54", "lat": 38.965678, "fusion_lon": 0.0, "fusion_lat": 0.0, "type": "electric_bike", "name": "1dcd7652c519e80e04bedfd43c2b1d54", "is_disabled": 0, "rental_uris": {"ios": "https://dc.lft.to/lastmile_qr_scan", "android": "https://dc.lft.to/lastmile_qr_scan"}, "is_reserved": 0}, {"lon": -77.01789483333333, "bike_id": "ff626ec571075042bb710f266a7188d0", "lat": 38.901373166666666, "fusion_lon": 0.0, "fusion_lat": 0.0, "type": "electric_scooter", "name": "ff626ec571075042bb710f266a7188d0", "is_disabled": 0, "rental_uris": {"ios": "https://dc.lft.to/lastmile_qr_scan", "android": "https://dc.lft.to/lastmile_qr_scan"}, "is_reserved": 0}, {"lon": -76.98820483333333, "bike_id": "d7bc4311a9c5a3d7a8c2e68750c9d541", "lat": 38.890765, "fusion_lon": 0.0, "fusion_lat": 0.0, "type": "electric_scooter", "name": "d7bc4311a9c5a3d7a8c2e68750c9d541", "is_disabled": 0, "rental_uris": {"ios": "https://dc.lft.to/lastmile_qr_scan", "android": "https://dc.lft.to/lastmile_qr_scan"}, "is_reserved": 0}, {"lon": -77.12733583333333, "bike_id": "375129995e9d1bf6959e41ceea79e1c1", "lat": 38.8955835, "fusion_lon": 0.0, "fusion_lat": 0.0, "type": "electric_bike", "name": "375129995e9d1bf6959e41ceea79e1c1", "is_disabled": 0, "rental_uris": {"ios": "https://dc.lft.to/lastmile_qr_scan", "android": "https://dc.lft.to/lastmile_qr_scan"}, "is_reserved": 0}, {"lon": -77.01803683333333, "bike_id": "a6c60f30bfaa1fb63f8d1427b1426cb7", "lat": 38.96483466666667, "fusion_lon": 0.0, "fusion_lat": 0.0, "type": "electric_scooter", "name": "a6c60f30bfaa1fb63f8d1427b1426cb7", "is_disabled": 0, "rental_uris": {"ios": "https://dc.lft.to/lastmile_qr_scan", "android": "https://dc.lft.to/lastmile_qr_scan"}, "is_reserved": 0}, {"lon": -77.03641716666667, "bike_id": "0ef5641b69281774b75866ba1ca08f14", "lat": 38.91333816666667, "fusion_lon": 0.0, "fusion_lat": 0.0, "type": "electric_scooter", "name": "0ef5641b69281774b75866ba1ca08f14", "is_disabled": 0, "rental_uris": {"ios": "https://dc.lft.to/lastmile_qr_scan", "android": "https://dc.lft.to/lastmile_qr_scan"}, "is_reserved": 0}, {"lon": -76.88398916666667, "bike_id": "963f36271514694af499de11230f6b84", "lat": 38.93169133333333, "fusion_lon": 0.0, "fusion_lat": 0.0, "type": "electric_bike", "name": "963f36271514694af499de11230f6b84", "is_disabled": 0, "rental_uris": {"ios": "https://dc.lft.to/lastmile_qr_scan", "android": "https://dc.lft.to/lastmile_qr_scan"}, "is_reserved": 0}, {"lon": -77.05736633333333, "bike_id": "46c70b241f8dcc378e1ec51ffe3c1578", "lat": 38.933921166666664, "fusion_lon": 0.0, "fusion_lat": 0.0, "type": "electric_scooter", "name": "46c70b241f8dcc378e1ec51ffe3c1578", "is_disabled": 0, "rental_uris": {"ios": "https://dc.lft.to/lastmile_qr_scan", "android": "https://dc.lft.to/lastmile_qr_scan"}, "is_reserved": 0}, {"lon": -77.048343, "bike_id": "e9321fa564ef4268a7257de38f93f444", "lat": 38.903862, "fusion_lon": 0.0, "fusion_lat": 0.0, "type": "electric_scooter", "name": "e9321fa564ef4268a7257de38f93f444", "is_disabled": 0, "rental_uris": {"ios": "https://dc.lft.to/lastmile_qr_scan", "android": "https://dc.lft.to/lastmile_qr_scan"}, "is_reserved": 0}, {"lon": -77.03884983333333, "bike_id": "c863bdeab904ea22d0c5fd55fbe0766a", "lat": 38.948701166666666, "fusion_lon": 0.0, "fusion_lat": 0.0, "type": "electric_scooter", "name": "c863bdeab904ea22d0c5fd55fbe0766a", "is_disabled": 0, "rental_uris": {"ios": "https://dc.lft.to/lastmile_qr_scan", "android": "https://dc.lft.to/lastmile_qr_scan"}, "is_reserved": 0}, {"lon": -77.02949683333334, "bike_id": "92589a3274096e46094c7d3a050671ba", "lat": 38.9051995, "fusion_lon": 0.0, "fusion_lat": 0.0, "type": "electric_scooter", "name": "92589a3274096e46094c7d3a050671ba", "is_disabled": 0, "rental_uris": {"ios": "https://dc.lft.to/lastmile_qr_scan", "android": "https://dc.lft.to/lastmile_qr_scan"}, "is_reserved": 0}, {"lon": -76.9564965, "bike_id": "7c1017987c0d77ad0893f921dd23186f", "lat": 38.896126, "fusion_lon": 0.0, "fusion_lat": 0.0, "type": "electric_scooter", "name": "7c1017987c0d77ad0893f921dd23186f", "is_disabled": 0, "rental_uris": {"ios": "https://dc.lft.to/lastmile_qr_scan", "android": "https://dc.lft.to/lastmile_qr_scan"}, "is_reserved": 0}, {"lon": -77.09062783333333, "bike_id": "1668b9f6ceed5b8e5c587b34948d9268", "lat": 38.8625565, "fusion_lon": 0.0, "fusion_lat": 0.0, "type": "electric_bike", "name": "1668b9f6ceed5b8e5c587b34948d9268", "is_disabled": 0, "rental_uris": {"ios": "https://dc.lft.to/lastmile_qr_scan", "android": "https://dc.lft.to/lastmile_qr_scan"}, "is_reserved": 0}, {"lon": -77.02685783333334, "bike_id": "c82b454f743c5591c6edb6e19640cd72", "lat": 38.898361333333334, "fusion_lon": 0.0, "fusion_lat": 0.0, "type": "electric_scooter", "name": "c82b454f743c5591c6edb6e19640cd72", "is_disabled": 0, "rental_uris": {"ios": "https://dc.lft.to/lastmile_qr_scan", "android": "https://dc.lft.to/lastmile_qr_scan"}, "is_reserved": 0}, {"lon": -77.023988, "bike_id": "0398f9869b9dead6e45b01c394cf350a", "lat": 38.9010235, "fusion_lon": 0.0, "fusion_lat": 0.0, "type": "electric_scooter", "name": "0398f9869b9dead6e45b01c394cf350a", "is_disabled": 0, "rental_uris": {"ios": "https://dc.lft.to/lastmile_qr_scan", "android": "https://dc.lft.to/lastmile_qr_scan"}, "is_reserved": 0}, {"lon": -77.03464583333333, "bike_id": "5a84f162129d57542ee013c29356b5c0", "lat": 38.918730833333335, "fusion_lon": 0.0, "fusion_lat": 0.0, "type": "electric_scooter", "name": "5a84f162129d57542ee013c29356b5c0", "is_disabled": 0, "rental_uris": {"ios": "https://dc.lft.to/lastmile_qr_scan", "android": "https://dc.lft.to/lastmile_qr_scan"}, "is_reserved": 0}, {"lon": -77.01849883333334, "bike_id": "96ab51997d25d504790ab198a58c6918", "lat": 38.95428483333333, "fusion_lon": 0.0, "fusion_lat": 0.0, "type": "electric_scooter", "name": "96ab51997d25d504790ab198a58c6918", "is_disabled": 0, "rental_uris": {"ios": "https://dc.lft.to/lastmile_qr_scan", "android": "https://dc.lft.to/lastmile_qr_scan"}, "is_reserved": 0}, {"lon": -77.04154416666667, "bike_id": "55ab7339ea6134243af04d3304ef848a", "lat": 38.91490316666667, "fusion_lon": 0.0, "fusion_lat": 0.0, "type": "electric_scooter", "name": "55ab7339ea6134243af04d3304ef848a", "is_disabled": 0, "rental_uris": {"ios": "https://dc.lft.to/lastmile_qr_scan", "android": "https://dc.lft.to/lastmile_qr_scan"}, "is_reserved": 0}, {"lon": -76.94376783333334, "bike_id": "356db7b0db42f3640886ba31f12e3a72", "lat": 38.893267333333334, "fusion_lon": 0.0, "fusion_lat": 0.0, "type": "electric_scooter", "name": "356db7b0db42f3640886ba31f12e3a72", "is_disabled": 0, "rental_uris": {"ios": "https://dc.lft.to/lastmile_qr_scan", "android": "https://dc.lft.to/lastmile_qr_scan"}, "is_reserved": 0}, {"lon": -76.98271683333333, "bike_id": "10d29d51ec57c72def1785870586e351", "lat": 38.90142266666667, "fusion_lon": 0.0, "fusion_lat": 0.0, "type": "electric_scooter", "name": "10d29d51ec57c72def1785870586e351", "is_disabled": 0, "rental_uris": {"ios": "https://dc.lft.to/lastmile_qr_scan", "android": "https://dc.lft.to/lastmile_qr_scan"}, "is_reserved": 0}, {"lon": -76.97825666666667, "bike_id": "71c2c961a20029a17babb1b5d6704edb", "lat": 38.8436435, "fusion_lon": 0.0, "fusion_lat": 0.0, "type": "electric_bike", "name": "71c2c961a20029a17babb1b5d6704edb", "is_disabled": 0, "rental_uris": {"ios": "https://dc.lft.to/lastmile_qr_scan", "android": "https://dc.lft.to/lastmile_qr_scan"}, "is_reserved": 0}, {"lon": -77.03185183333333, "bike_id": "0c81ec05665c4bdde755e5437bbb385f", "lat": 38.9168085, "fusion_lon": 0.0, "fusion_lat": 0.0, "type": "electric_scooter", "name": "0c81ec05665c4bdde755e5437bbb385f", "is_disabled": 0, "rental_uris": {"ios": "https://dc.lft.to/lastmile_qr_scan", "android": "https://dc.lft.to/lastmile_qr_scan"}, "is_reserved": 0}, {"lon": -76.97417016666667, "bike_id": "44fbda0eeec60110a84ed9cb04fc408b", "lat": 38.90401383333333, "fusion_lon": 0.0, "fusion_lat": 0.0, "type": "electric_scooter", "name": "44fbda0eeec60110a84ed9cb04fc408b", "is_disabled": 0, "rental_uris": {"ios": "https://dc.lft.to/lastmile_qr_scan", "android": "https://dc.lft.to/lastmile_qr_scan"}, "is_reserved": 0}, {"lon": -77.03020766666667, "bike_id": "6b3ea5a061c45e57f32192f3344be43a", "lat": 38.88395083333333, "fusion_lon": 0.0, "fusion_lat": 0.0, "type": "electric_scooter", "name": "6b3ea5a061c45e57f32192f3344be43a", "is_disabled": 0, "rental_uris": {"ios": "https://dc.lft.to/lastmile_qr_scan", "android": "https://dc.lft.to/lastmile_qr_scan"}, "is_reserved": 0}, {"lon": -77.002018, "bike_id": "8923052fe7a28dd0dbe381f0e5fcc7aa", "lat": 38.90237616666667, "fusion_lon": 0.0, "fusion_lat": 0.0, "type": "electric_scooter", "name": "8923052fe7a28dd0dbe381f0e5fcc7aa", "is_disabled": 0, "rental_uris": {"ios": "https://dc.lft.to/lastmile_qr_scan", "android": "https://dc.lft.to/lastmile_qr_scan"}, "is_reserved": 0}, {"lon": -77.03082133333334, "bike_id": "38537a10600d37e694e48bb6b7f4646e", "lat": 38.9272175, "fusion_lon": 0.0, "fusion_lat": 0.0, "type": "electric_scooter", "name": "38537a10600d37e694e48bb6b7f4646e", "is_disabled": 0, "rental_uris": {"ios": "https://dc.lft.to/lastmile_qr_scan", "android": "https://dc.lft.to/lastmile_qr_scan"}, "is_reserved": 0}, {"lon": -77.0224335, "bike_id": "2aa27c8b0c91c04a74495b9d4f73696d", "lat": 38.922825833333334, "fusion_lon": 0.0, "fusion_lat": 0.0, "type": "electric_bike", "name": "2aa27c8b0c91c04a74495b9d4f73696d", "is_disabled": 0, "rental_uris": {"ios": "https://dc.lft.to/lastmile_qr_scan", "android": "https://dc.lft.to/lastmile_qr_scan"}, "is_reserved": 0}, {"lon": -77.02494333333334, "bike_id": "9598f05a2e664ed3eef8137263482ea2", "lat": 38.94201433333333, "fusion_lon": 0.0, "fusion_lat": 0.0, "type": "electric_scooter", "name": "9598f05a2e664ed3eef8137263482ea2", "is_disabled": 0, "rental_uris": {"ios": "https://dc.lft.to/lastmile_qr_scan", "android": "https://dc.lft.to/lastmile_qr_scan"}, "is_reserved": 0}, {"lon": -77.041677, "bike_id": "112a5b8a4b6ab22beb3f638496aa4864", "lat": 38.91376116666667, "fusion_lon": 0.0, "fusion_lat": 0.0, "type": "electric_scooter", "name": "112a5b8a4b6ab22beb3f638496aa4864", "is_disabled": 0, "rental_uris": {"ios": "https://dc.lft.to/lastmile_qr_scan", "android": "https://dc.lft.to/lastmile_qr_scan"}, "is_reserved": 0}, {"lon": -77.02945716666666, "bike_id": "c99f24204c141226a9ca7d03eee65a1c", "lat": 38.9045915, "fusion_lon": 0.0, "fusion_lat": 0.0, "type": "electric_scooter", "name": "c99f24204c141226a9ca7d03eee65a1c", "is_disabled": 0, "rental_uris": {"ios": "https://dc.lft.to/lastmile_qr_scan", "android": "https://dc.lft.to/lastmile_qr_scan"}, "is_reserved": 0}, {"lon": -77.03590933333334, "bike_id": "3a1c0fe20041368f575bf4a2218a165c", "lat": 38.93934083333333, "fusion_lon": 0.0, "fusion_lat": 0.0, "type": "electric_scooter", "name": "3a1c0fe20041368f575bf4a2218a165c", "is_disabled": 0, "rental_uris": {"ios": "https://dc.lft.to/lastmile_qr_scan", "android": "https://dc.lft.to/lastmile_qr_scan"}, "is_reserved": 0}, {"lon": -76.99843016666667, "bike_id": "6588e0aeb8fba1d0b092d363795f6895", "lat": 38.89082, "fusion_lon": 0.0, "fusion_lat": 0.0, "type": "electric_scooter", "name": "6588e0aeb8fba1d0b092d363795f6895", "is_disabled": 0, "rental_uris": {"ios": "https://dc.lft.to/lastmile_qr_scan", "android": "https://dc.lft.to/lastmile_qr_scan"}, "is_reserved": 0}, {"lon": -76.98158083333334, "bike_id": "158832988cdc0acad51d54db2e73edae", "lat": 38.90325633333333, "fusion_lon": 0.0, "fusion_lat": 0.0, "type": "electric_scooter", "name": "158832988cdc0acad51d54db2e73edae", "is_disabled": 0, "rental_uris": {"ios": "https://dc.lft.to/lastmile_qr_scan", "android": "https://dc.lft.to/lastmile_qr_scan"}, "is_reserved": 0}, {"lon": -77.0240925, "bike_id": "2a0750689ca6d68965e198f9b0ad8cbf", "lat": 38.92038066666667, "fusion_lon": 0.0, "fusion_lat": 0.0, "type": "electric_scooter", "name": "2a0750689ca6d68965e198f9b0ad8cbf", "is_disabled": 0, "rental_uris": {"ios": "https://dc.lft.to/lastmile_qr_scan", "android": "https://dc.lft.to/lastmile_qr_scan"}, "is_reserved": 0}, {"lon": -77.0184065, "bike_id": "c61c773da2e3d77c8a45bccb79fb6b6f", "lat": 38.94633483333333, "fusion_lon": 0.0, "fusion_lat": 0.0, "type": "electric_scooter", "name": "c61c773da2e3d77c8a45bccb79fb6b6f", "is_disabled": 0, "rental_uris": {"ios": "https://dc.lft.to/lastmile_qr_scan", "android": "https://dc.lft.to/lastmile_qr_scan"}, "is_reserved": 0}, {"lon": -76.98809183333333, "bike_id": "1747d2e74a04a7105f9a941e0b2ff164", "lat": 38.867437, "fusion_lon": 0.0, "fusion_lat": 0.0, "type": "electric_scooter", "name": "1747d2e74a04a7105f9a941e0b2ff164", "is_disabled": 0, "rental_uris": {"ios": "https://dc.lft.to/lastmile_qr_scan", "android": "https://dc.lft.to/lastmile_qr_scan"}, "is_reserved": 0}, {"lon": -76.99460283333333, "bike_id": "5c4ff152cbe8a771cdd9a1abf537c2e2", "lat": 38.9406645, "fusion_lon": 0.0, "fusion_lat": 0.0, "type": "electric_scooter", "name": "5c4ff152cbe8a771cdd9a1abf537c2e2", "is_disabled": 0, "rental_uris": {"ios": "https://dc.lft.to/lastmile_qr_scan", "android": "https://dc.lft.to/lastmile_qr_scan"}, "is_reserved": 0}, {"lon": -76.97667266666667, "bike_id": "68a67ca6180c78a8f9847d2d289268df", "lat": 38.95246016666667, "fusion_lon": 0.0, "fusion_lat": 0.0, "type": "electric_bike", "name": "68a67ca6180c78a8f9847d2d289268df", "is_disabled": 0, "rental_uris": {"ios": "https://dc.lft.to/lastmile_qr_scan", "android": "https://dc.lft.to/lastmile_qr_scan"}, "is_reserved": 0}, {"lon": -76.983008, "bike_id": "079961dd354f80cc4d71b4598dbea8ad", "lat": 38.90524683333334, "fusion_lon": 0.0, "fusion_lat": 0.0, "type": "electric_scooter", "name": "079961dd354f80cc4d71b4598dbea8ad", "is_disabled": 0, "rental_uris": {"ios": "https://dc.lft.to/lastmile_qr_scan", "android": "https://dc.lft.to/lastmile_qr_scan"}, "is_reserved": 0}, {"lon": -77.07914266666667, "bike_id": "459f52d107c862068d80d189690eee65", "lat": 38.93091666666667, "fusion_lon": 0.0, "fusion_lat": 0.0, "type": "electric_scooter", "name": "459f52d107c862068d80d189690eee65", "is_disabled": 0, "rental_uris": {"ios": "https://dc.lft.to/lastmile_qr_scan", "android": "https://dc.lft.to/lastmile_qr_scan"}, "is_reserved": 0}, {"lon": -77.022909, "bike_id": "7f68305606a1d2e60f9a9cd2505e5c30", "lat": 38.878843333333336, "fusion_lon": 0.0, "fusion_lat": 0.0, "type": "electric_scooter", "name": "7f68305606a1d2e60f9a9cd2505e5c30", "is_disabled": 0, "rental_uris": {"ios": "https://dc.lft.to/lastmile_qr_scan", "android": "https://dc.lft.to/lastmile_qr_scan"}, "is_reserved": 0}, {"lon": -77.04344616666667, "bike_id": "2e0c1789d32366ef21244161f386946a", "lat": 38.903973, "fusion_lon": 0.0, "fusion_lat": 0.0, "type": "electric_scooter", "name": "2e0c1789d32366ef21244161f386946a", "is_disabled": 0, "rental_uris": {"ios": "https://dc.lft.to/lastmile_qr_scan", "android": "https://dc.lft.to/lastmile_qr_scan"}, "is_reserved": 0}, {"lon": -76.99778466666666, "bike_id": "8c34cc4b2b9aab90406f218954529db3", "lat": 38.910592, "fusion_lon": 0.0, "fusion_lat": 0.0, "type": "electric_scooter", "name": "8c34cc4b2b9aab90406f218954529db3", "is_disabled": 0, "rental_uris": {"ios": "https://dc.lft.to/lastmile_qr_scan", "android": "https://dc.lft.to/lastmile_qr_scan"}, "is_reserved": 0}, {"lon": -77.03500733333334, "bike_id": "b4bed53a72267365b682d2c659c9c41a", "lat": 38.924788, "fusion_lon": 0.0, "fusion_lat": 0.0, "type": "electric_scooter", "name": "b4bed53a72267365b682d2c659c9c41a", "is_disabled": 0, "rental_uris": {"ios": "https://dc.lft.to/lastmile_qr_scan", "android": "https://dc.lft.to/lastmile_qr_scan"}, "is_reserved": 0}, {"lon": -76.92914966666666, "bike_id": "af236ba3272596aa3c14e0cc284c2798", "lat": 38.892929333333335, "fusion_lon": 0.0, "fusion_lat": 0.0, "type": "electric_scooter", "name": "af236ba3272596aa3c14e0cc284c2798", "is_disabled": 0, "rental_uris": {"ios": "https://dc.lft.to/lastmile_qr_scan", "android": "https://dc.lft.to/lastmile_qr_scan"}, "is_reserved": 0}, {"lon": -77.03646833333333, "bike_id": "bb5a780c81cc63a54fe6a9cc95d59406", "lat": 38.90374516666667, "fusion_lon": 0.0, "fusion_lat": 0.0, "type": "electric_scooter", "name": "bb5a780c81cc63a54fe6a9cc95d59406", "is_disabled": 0, "rental_uris": {"ios": "https://dc.lft.to/lastmile_qr_scan", "android": "https://dc.lft.to/lastmile_qr_scan"}, "is_reserved": 0}, {"lon": -77.00133233333334, "bike_id": "b7b7504ef72488c5f19eac07cd361358", "lat": 38.88523133333333, "fusion_lon": 0.0, "fusion_lat": 0.0, "type": "electric_scooter", "name": "b7b7504ef72488c5f19eac07cd361358", "is_disabled": 0, "rental_uris": {"ios": "https://dc.lft.to/lastmile_qr_scan", "android": "https://dc.lft.to/lastmile_qr_scan"}, "is_reserved": 0}, {"lon": -77.077926, "bike_id": "c28bf1a4760a8e7843365f1fc5993b07", "lat": 38.9960255, "fusion_lon": 0.0, "fusion_lat": 0.0, "type": "electric_bike", "name": "c28bf1a4760a8e7843365f1fc5993b07", "is_disabled": 0, "rental_uris": {"ios": "https://dc.lft.to/lastmile_qr_scan", "android": "https://dc.lft.to/lastmile_qr_scan"}, "is_reserved": 0}, {"lon": -77.02292466666667, "bike_id": "1f929b8b657de486576b23699142f01f", "lat": 38.923238, "fusion_lon": 0.0, "fusion_lat": 0.0, "type": "electric_bike", "name": "1f929b8b657de486576b23699142f01f", "is_disabled": 0, "rental_uris": {"ios": "https://dc.lft.to/lastmile_qr_scan", "android": "https://dc.lft.to/lastmile_qr_scan"}, "is_reserved": 0}, {"lon": -77.051184, "bike_id": "fd61e04db7194c1e40ed4b0837cc4279", "lat": 38.92344716666667, "fusion_lon": 0.0, "fusion_lat": 0.0, "type": "electric_scooter", "name": "fd61e04db7194c1e40ed4b0837cc4279", "is_disabled": 0, "rental_uris": {"ios": "https://dc.lft.to/lastmile_qr_scan", "android": "https://dc.lft.to/lastmile_qr_scan"}, "is_reserved": 0}, {"lon": -77.00927866666666, "bike_id": "db70fa24493730b7d19d4b8c81b7f8d3", "lat": 38.91806016666666, "fusion_lon": 0.0, "fusion_lat": 0.0, "type": "electric_scooter", "name": "db70fa24493730b7d19d4b8c81b7f8d3", "is_disabled": 0, "rental_uris": {"ios": "https://dc.lft.to/lastmile_qr_scan", "android": "https://dc.lft.to/lastmile_qr_scan"}, "is_reserved": 0}, {"lon": -76.995519, "bike_id": "14dfb2be5e04e3e8e470f6daa7989bd8", "lat": 38.8621795, "fusion_lon": 0.0, "fusion_lat": 0.0, "type": "electric_scooter", "name": "14dfb2be5e04e3e8e470f6daa7989bd8", "is_disabled": 0, "rental_uris": {"ios": "https://dc.lft.to/lastmile_qr_scan", "android": "https://dc.lft.to/lastmile_qr_scan"}, "is_reserved": 0}, {"lon": -77.01197283333333, "bike_id": "24f0c9626576edf74ff2446fb59531d4", "lat": 38.89315916666666, "fusion_lon": 0.0, "fusion_lat": 0.0, "type": "electric_scooter", "name": "24f0c9626576edf74ff2446fb59531d4", "is_disabled": 0, "rental_uris": {"ios": "https://dc.lft.to/lastmile_qr_scan", "android": "https://dc.lft.to/lastmile_qr_scan"}, "is_reserved": 0}, {"lon": -77.02734283333334, "bike_id": "5cfcdcda8c22a89478b369ff166573ef", "lat": 38.902608, "fusion_lon": 0.0, "fusion_lat": 0.0, "type": "electric_scooter", "name": "5cfcdcda8c22a89478b369ff166573ef", "is_disabled": 0, "rental_uris": {"ios": "https://dc.lft.to/lastmile_qr_scan", "android": "https://dc.lft.to/lastmile_qr_scan"}, "is_reserved": 0}, {"lon": -77.06124916666667, "bike_id": "99547ad57c9d3a37bb57b67a9bb319e1", "lat": 38.943561833333334, "fusion_lon": 0.0, "fusion_lat": 0.0, "type": "electric_scooter", "name": "99547ad57c9d3a37bb57b67a9bb319e1", "is_disabled": 0, "rental_uris": {"ios": "https://dc.lft.to/lastmile_qr_scan", "android": "https://dc.lft.to/lastmile_qr_scan"}, "is_reserved": 0}, {"lon": -77.04212783333334, "bike_id": "95aa8d85a65c2157973da85aa476b94c", "lat": 38.892705666666664, "fusion_lon": 0.0, "fusion_lat": 0.0, "type": "electric_scooter", "name": "95aa8d85a65c2157973da85aa476b94c", "is_disabled": 0, "rental_uris": {"ios": "https://dc.lft.to/lastmile_qr_scan", "android": "https://dc.lft.to/lastmile_qr_scan"}, "is_reserved": 0}, {"lon": -77.02488583333333, "bike_id": "3299dd102d4104d7b9d063b94aad781b", "lat": 38.94185066666667, "fusion_lon": 0.0, "fusion_lat": 0.0, "type": "electric_scooter", "name": "3299dd102d4104d7b9d063b94aad781b", "is_disabled": 0, "rental_uris": {"ios": "https://dc.lft.to/lastmile_qr_scan", "android": "https://dc.lft.to/lastmile_qr_scan"}, "is_reserved": 0}, {"lon": -77.0417375, "bike_id": "1ec63039f973edd499184cea66ffd90c", "lat": 38.92034133333333, "fusion_lon": 0.0, "fusion_lat": 0.0, "type": "electric_scooter", "name": "1ec63039f973edd499184cea66ffd90c", "is_disabled": 0, "rental_uris": {"ios": "https://dc.lft.to/lastmile_qr_scan", "android": "https://dc.lft.to/lastmile_qr_scan"}, "is_reserved": 0}, {"lon": -77.02471083333333, "bike_id": "bf04b16556bc9ed9abd40812840e2db0", "lat": 38.91817266666666, "fusion_lon": 0.0, "fusion_lat": 0.0, "type": "electric_scooter", "name": "bf04b16556bc9ed9abd40812840e2db0", "is_disabled": 0, "rental_uris": {"ios": "https://dc.lft.to/lastmile_qr_scan", "android": "https://dc.lft.to/lastmile_qr_scan"}, "is_reserved": 0}, {"lon": -77.05435966666667, "bike_id": "242ec57e57542addaa6ad5ab97848993", "lat": 38.928651333333335, "fusion_lon": 0.0, "fusion_lat": 0.0, "type": "electric_scooter", "name": "242ec57e57542addaa6ad5ab97848993", "is_disabled": 0, "rental_uris": {"ios": "https://dc.lft.to/lastmile_qr_scan", "android": "https://dc.lft.to/lastmile_qr_scan"}, "is_reserved": 0}, {"lon": -77.04907, "bike_id": "ef4c75fc396031c4f6e3d6ae494ed41a", "lat": 38.903387, "fusion_lon": 0.0, "fusion_lat": 0.0, "type": "electric_scooter", "name": "ef4c75fc396031c4f6e3d6ae494ed41a", "is_disabled": 0, "rental_uris": {"ios": "https://dc.lft.to/lastmile_qr_scan", "android": "https://dc.lft.to/lastmile_qr_scan"}, "is_reserved": 0}, {"lon": -77.01660416666667, "bike_id": "6217301d783c65da222c733ca7301cc5", "lat": 38.92895016666667, "fusion_lon": 0.0, "fusion_lat": 0.0, "type": "electric_scooter", "name": "6217301d783c65da222c733ca7301cc5", "is_disabled": 0, "rental_uris": {"ios": "https://dc.lft.to/lastmile_qr_scan", "android": "https://dc.lft.to/lastmile_qr_scan"}, "is_reserved": 0}, {"lon": -76.99536466666666, "bike_id": "d164ed01cb98b3af8c12c06aa221c263", "lat": 38.92675583333333, "fusion_lon": 0.0, "fusion_lat": 0.0, "type": "electric_scooter", "name": "d164ed01cb98b3af8c12c06aa221c263", "is_disabled": 0, "rental_uris": {"ios": "https://dc.lft.to/lastmile_qr_scan", "android": "https://dc.lft.to/lastmile_qr_scan"}, "is_reserved": 0}, {"lon": -76.995451, "bike_id": "6226b4d72cd0750a288aeddcf2050ca7", "lat": 38.862575, "fusion_lon": 0.0, "fusion_lat": 0.0, "type": "electric_scooter", "name": "6226b4d72cd0750a288aeddcf2050ca7", "is_disabled": 0, "rental_uris": {"ios": "https://dc.lft.to/lastmile_qr_scan", "android": "https://dc.lft.to/lastmile_qr_scan"}, "is_reserved": 0}, {"lon": -77.023444, "bike_id": "d5c8cef1dd93b2ce8a5cc060545ae42b", "lat": 38.93538216666666, "fusion_lon": 0.0, "fusion_lat": 0.0, "type": "electric_scooter", "name": "d5c8cef1dd93b2ce8a5cc060545ae42b", "is_disabled": 0, "rental_uris": {"ios": "https://dc.lft.to/lastmile_qr_scan", "android": "https://dc.lft.to/lastmile_qr_scan"}, "is_reserved": 0}, {"lon": -77.02608083333334, "bike_id": "d520dda8110384edfd9dfd6dc7051a00", "lat": 38.89609316666667, "fusion_lon": 0.0, "fusion_lat": 0.0, "type": "electric_scooter", "name": "d520dda8110384edfd9dfd6dc7051a00", "is_disabled": 0, "rental_uris": {"ios": "https://dc.lft.to/lastmile_qr_scan", "android": "https://dc.lft.to/lastmile_qr_scan"}, "is_reserved": 0}, {"lon": -76.93129766666667, "bike_id": "c13aaf292c25ed33d7a046f13e9622c2", "lat": 38.876106666666665, "fusion_lon": 0.0, "fusion_lat": 0.0, "type": "electric_scooter", "name": "c13aaf292c25ed33d7a046f13e9622c2", "is_disabled": 0, "rental_uris": {"ios": "https://dc.lft.to/lastmile_qr_scan", "android": "https://dc.lft.to/lastmile_qr_scan"}, "is_reserved": 0}, {"lon": -77.01856783333334, "bike_id": "f31ccd5df90bdaf238b718c4c2252802", "lat": 38.91494766666667, "fusion_lon": 0.0, "fusion_lat": 0.0, "type": "electric_scooter", "name": "f31ccd5df90bdaf238b718c4c2252802", "is_disabled": 0, "rental_uris": {"ios": "https://dc.lft.to/lastmile_qr_scan", "android": "https://dc.lft.to/lastmile_qr_scan"}, "is_reserved": 0}, {"lon": -77.03162233333333, "bike_id": "3430eff4d7c58434f772f0db2baa7bb9", "lat": 38.89219633333333, "fusion_lon": 0.0, "fusion_lat": 0.0, "type": "electric_scooter", "name": "3430eff4d7c58434f772f0db2baa7bb9", "is_disabled": 0, "rental_uris": {"ios": "https://dc.lft.to/lastmile_qr_scan", "android": "https://dc.lft.to/lastmile_qr_scan"}, "is_reserved": 0}, {"lon": -77.05817633333334, "bike_id": "28b5d6e812825044769ac6ab7dfdb51f", "lat": 38.93522883333333, "fusion_lon": 0.0, "fusion_lat": 0.0, "type": "electric_bike", "name": "28b5d6e812825044769ac6ab7dfdb51f", "is_disabled": 0, "rental_uris": {"ios": "https://dc.lft.to/lastmile_qr_scan", "android": "https://dc.lft.to/lastmile_qr_scan"}, "is_reserved": 0}, {"lon": -77.02602316666666, "bike_id": "44f40dcfff55528c15d3d35e7df91f59", "lat": 38.982836666666664, "fusion_lon": 0.0, "fusion_lat": 0.0, "type": "electric_bike", "name": "44f40dcfff55528c15d3d35e7df91f59", "is_disabled": 0, "rental_uris": {"ios": "https://dc.lft.to/lastmile_qr_scan", "android": "https://dc.lft.to/lastmile_qr_scan"}, "is_reserved": 0}, {"lon": -77.0220705, "bike_id": "b2cbd2887fc9405e2ad169a8204c25a1", "lat": 38.914157833333334, "fusion_lon": 0.0, "fusion_lat": 0.0, "type": "electric_scooter", "name": "b2cbd2887fc9405e2ad169a8204c25a1", "is_disabled": 0, "rental_uris": {"ios": "https://dc.lft.to/lastmile_qr_scan", "android": "https://dc.lft.to/lastmile_qr_scan"}, "is_reserved": 0}, {"lon": -77.02205666666667, "bike_id": "46a83bdaa0a399f70d603533cc1560d9", "lat": 38.926177833333334, "fusion_lon": 0.0, "fusion_lat": 0.0, "type": "electric_scooter", "name": "46a83bdaa0a399f70d603533cc1560d9", "is_disabled": 0, "rental_uris": {"ios": "https://dc.lft.to/lastmile_qr_scan", "android": "https://dc.lft.to/lastmile_qr_scan"}, "is_reserved": 0}, {"lon": -76.97967733333333, "bike_id": "8fecfb88d5f05381d5788d108e4d1356", "lat": 38.95373333333333, "fusion_lon": 0.0, "fusion_lat": 0.0, "type": "electric_bike", "name": "8fecfb88d5f05381d5788d108e4d1356", "is_disabled": 0, "rental_uris": {"ios": "https://dc.lft.to/lastmile_qr_scan", "android": "https://dc.lft.to/lastmile_qr_scan"}, "is_reserved": 0}, {"lon": -77.07916633333333, "bike_id": "1b4b1031c380b21503788b4069f149bc", "lat": 38.948116, "fusion_lon": 0.0, "fusion_lat": 0.0, "type": "electric_scooter", "name": "1b4b1031c380b21503788b4069f149bc", "is_disabled": 0, "rental_uris": {"ios": "https://dc.lft.to/lastmile_qr_scan", "android": "https://dc.lft.to/lastmile_qr_scan"}, "is_reserved": 0}, {"lon": -77.02828866666667, "bike_id": "87089b27af94c86e828517382b97ee00", "lat": 38.9327915, "fusion_lon": 0.0, "fusion_lat": 0.0, "type": "electric_scooter", "name": "87089b27af94c86e828517382b97ee00", "is_disabled": 0, "rental_uris": {"ios": "https://dc.lft.to/lastmile_qr_scan", "android": "https://dc.lft.to/lastmile_qr_scan"}, "is_reserved": 0}, {"lon": -77.0439045, "bike_id": "c3fdedcedc0c6804cc4dec5fa140859b", "lat": 39.047178833333334, "fusion_lon": 0.0, "fusion_lat": 0.0, "type": "electric_bike", "name": "c3fdedcedc0c6804cc4dec5fa140859b", "is_disabled": 0, "rental_uris": {"ios": "https://dc.lft.to/lastmile_qr_scan", "android": "https://dc.lft.to/lastmile_qr_scan"}, "is_reserved": 0}, {"lon": -77.0210865, "bike_id": "755060eea6fff101548bbd816a48cedf", "lat": 38.90605383333333, "fusion_lon": 0.0, "fusion_lat": 0.0, "type": "electric_scooter", "name": "755060eea6fff101548bbd816a48cedf", "is_disabled": 0, "rental_uris": {"ios": "https://dc.lft.to/lastmile_qr_scan", "android": "https://dc.lft.to/lastmile_qr_scan"}, "is_reserved": 0}, {"lon": -77.043917, "bike_id": "91ac495a10ae53d8901f43a757fb4093", "lat": 38.92450316666667, "fusion_lon": 0.0, "fusion_lat": 0.0, "type": "electric_scooter", "name": "91ac495a10ae53d8901f43a757fb4093", "is_disabled": 0, "rental_uris": {"ios": "https://dc.lft.to/lastmile_qr_scan", "android": "https://dc.lft.to/lastmile_qr_scan"}, "is_reserved": 0}, {"lon": -77.05584983333334, "bike_id": "a80d4caaad148cecb26a79bbe91686d8", "lat": 38.92329383333333, "fusion_lon": 0.0, "fusion_lat": 0.0, "type": "electric_scooter", "name": "a80d4caaad148cecb26a79bbe91686d8", "is_disabled": 0, "rental_uris": {"ios": "https://dc.lft.to/lastmile_qr_scan", "android": "https://dc.lft.to/lastmile_qr_scan"}, "is_reserved": 0}, {"lon": -76.9892045, "bike_id": "68b0c3fa9f40c9c22c203d208e697a3b", "lat": 38.858086, "fusion_lon": 0.0, "fusion_lat": 0.0, "type": "electric_scooter", "name": "68b0c3fa9f40c9c22c203d208e697a3b", "is_disabled": 0, "rental_uris": {"ios": "https://dc.lft.to/lastmile_qr_scan", "android": "https://dc.lft.to/lastmile_qr_scan"}, "is_reserved": 0}, {"lon": -77.03348833333334, "bike_id": "0691f42a15650dd9fb9f590effab75ac", "lat": 38.899664, "fusion_lon": 0.0, "fusion_lat": 0.0, "type": "electric_scooter", "name": "0691f42a15650dd9fb9f590effab75ac", "is_disabled": 0, "rental_uris": {"ios": "https://dc.lft.to/lastmile_qr_scan", "android": "https://dc.lft.to/lastmile_qr_scan"}, "is_reserved": 0}, {"lon": -77.00634566666666, "bike_id": "78a41ec6ad3a3a5349e79e76ce8fb1d7", "lat": 38.9559945, "fusion_lon": 0.0, "fusion_lat": 0.0, "type": "electric_scooter", "name": "78a41ec6ad3a3a5349e79e76ce8fb1d7", "is_disabled": 0, "rental_uris": {"ios": "https://dc.lft.to/lastmile_qr_scan", "android": "https://dc.lft.to/lastmile_qr_scan"}, "is_reserved": 0}, {"lon": -77.01105166666666, "bike_id": "ae485796c905f99f2df323c0d95a4b0d", "lat": 38.903665833333335, "fusion_lon": 0.0, "fusion_lat": 0.0, "type": "electric_scooter", "name": "ae485796c905f99f2df323c0d95a4b0d", "is_disabled": 0, "rental_uris": {"ios": "https://dc.lft.to/lastmile_qr_scan", "android": "https://dc.lft.to/lastmile_qr_scan"}, "is_reserved": 0}, {"lon": -76.99608533333334, "bike_id": "1a1e506e17b784a31dd6c36af3edf66b", "lat": 38.92549866666667, "fusion_lon": 0.0, "fusion_lat": 0.0, "type": "electric_scooter", "name": "1a1e506e17b784a31dd6c36af3edf66b", "is_disabled": 0, "rental_uris": {"ios": "https://dc.lft.to/lastmile_qr_scan", "android": "https://dc.lft.to/lastmile_qr_scan"}, "is_reserved": 0}, {"lon": -77.02705933333333, "bike_id": "384a5e8872cc89b492d077029f5461b6", "lat": 38.911802333333334, "fusion_lon": 0.0, "fusion_lat": 0.0, "type": "electric_scooter", "name": "384a5e8872cc89b492d077029f5461b6", "is_disabled": 0, "rental_uris": {"ios": "https://dc.lft.to/lastmile_qr_scan", "android": "https://dc.lft.to/lastmile_qr_scan"}, "is_reserved": 0}, {"lon": -76.98463383333333, "bike_id": "eacd291fea6e342376e813c4ff1afd4a", "lat": 38.90973983333333, "fusion_lon": 0.0, "fusion_lat": 0.0, "type": "electric_bike", "name": "eacd291fea6e342376e813c4ff1afd4a", "is_disabled": 0, "rental_uris": {"ios": "https://dc.lft.to/lastmile_qr_scan", "android": "https://dc.lft.to/lastmile_qr_scan"}, "is_reserved": 0}, {"lon": -77.02374683333333, "bike_id": "dac0f19310e1a27cfd59413dbaeb7857", "lat": 38.92661983333333, "fusion_lon": 0.0, "fusion_lat": 0.0, "type": "electric_scooter", "name": "dac0f19310e1a27cfd59413dbaeb7857", "is_disabled": 0, "rental_uris": {"ios": "https://dc.lft.to/lastmile_qr_scan", "android": "https://dc.lft.to/lastmile_qr_scan"}, "is_reserved": 0}, {"lon": -77.03874516666667, "bike_id": "81b393eebbd7ac294e3ca4b34884fa56", "lat": 38.923170666666664, "fusion_lon": 0.0, "fusion_lat": 0.0, "type": "electric_scooter", "name": "81b393eebbd7ac294e3ca4b34884fa56", "is_disabled": 0, "rental_uris": {"ios": "https://dc.lft.to/lastmile_qr_scan", "android": "https://dc.lft.to/lastmile_qr_scan"}, "is_reserved": 0}, {"lon": -77.03347916666667, "bike_id": "f8ba7b869e47f0c2fc8a8f9921458019", "lat": 38.91705816666666, "fusion_lon": 0.0, "fusion_lat": 0.0, "type": "electric_scooter", "name": "f8ba7b869e47f0c2fc8a8f9921458019", "is_disabled": 0, "rental_uris": {"ios": "https://dc.lft.to/lastmile_qr_scan", "android": "https://dc.lft.to/lastmile_qr_scan"}, "is_reserved": 0}, {"lon": -77.0418445, "bike_id": "d62bb618f22ed1418a74965989607469", "lat": 38.906145, "fusion_lon": 0.0, "fusion_lat": 0.0, "type": "electric_scooter", "name": "d62bb618f22ed1418a74965989607469", "is_disabled": 0, "rental_uris": {"ios": "https://dc.lft.to/lastmile_qr_scan", "android": "https://dc.lft.to/lastmile_qr_scan"}, "is_reserved": 0}, {"lon": -77.01302333333334, "bike_id": "7222ff317a54ec31231a9ea49228445a", "lat": 38.92999783333333, "fusion_lon": 0.0, "fusion_lat": 0.0, "type": "electric_scooter", "name": "7222ff317a54ec31231a9ea49228445a", "is_disabled": 0, "rental_uris": {"ios": "https://dc.lft.to/lastmile_qr_scan", "android": "https://dc.lft.to/lastmile_qr_scan"}, "is_reserved": 0}, {"lon": -76.96390366666667, "bike_id": "982f4d2add6026ac771469f79b129bce", "lat": 38.95176466666667, "fusion_lon": 0.0, "fusion_lat": 0.0, "type": "electric_bike", "name": "982f4d2add6026ac771469f79b129bce", "is_disabled": 0, "rental_uris": {"ios": "https://dc.lft.to/lastmile_qr_scan", "android": "https://dc.lft.to/lastmile_qr_scan"}, "is_reserved": 0}, {"lon": -77.02537216666667, "bike_id": "63c85d6664834186136b768bd7d8a510", "lat": 38.92745266666667, "fusion_lon": 0.0, "fusion_lat": 0.0, "type": "electric_scooter", "name": "63c85d6664834186136b768bd7d8a510", "is_disabled": 0, "rental_uris": {"ios": "https://dc.lft.to/lastmile_qr_scan", "android": "https://dc.lft.to/lastmile_qr_scan"}, "is_reserved": 0}, {"lon": -77.0177345, "bike_id": "1559ead16140803b9ab0a061b7018e87", "lat": 38.921009, "fusion_lon": 0.0, "fusion_lat": 0.0, "type": "electric_scooter", "name": "1559ead16140803b9ab0a061b7018e87", "is_disabled": 0, "rental_uris": {"ios": "https://dc.lft.to/lastmile_qr_scan", "android": "https://dc.lft.to/lastmile_qr_scan"}, "is_reserved": 0}, {"lon": -76.9336785, "bike_id": "b511228154ae8708291285f85afcde9e", "lat": 38.8991555, "fusion_lon": 0.0, "fusion_lat": 0.0, "type": "electric_scooter", "name": "b511228154ae8708291285f85afcde9e", "is_disabled": 0, "rental_uris": {"ios": "https://dc.lft.to/lastmile_qr_scan", "android": "https://dc.lft.to/lastmile_qr_scan"}, "is_reserved": 0}, {"lon": -77.032528, "bike_id": "01e54203a7985fa2e41fdf06b680ee05", "lat": 38.90440983333333, "fusion_lon": 0.0, "fusion_lat": 0.0, "type": "electric_scooter", "name": "01e54203a7985fa2e41fdf06b680ee05", "is_disabled": 0, "rental_uris": {"ios": "https://dc.lft.to/lastmile_qr_scan", "android": "https://dc.lft.to/lastmile_qr_scan"}, "is_reserved": 0}, {"lon": -77.03616966666667, "bike_id": "b523e31f1f514bb1a5b3c132fe69bb67", "lat": 38.937393166666666, "fusion_lon": 0.0, "fusion_lat": 0.0, "type": "electric_scooter", "name": "b523e31f1f514bb1a5b3c132fe69bb67", "is_disabled": 0, "rental_uris": {"ios": "https://dc.lft.to/lastmile_qr_scan", "android": "https://dc.lft.to/lastmile_qr_scan"}, "is_reserved": 0}, {"lon": -77.007838, "bike_id": "7918aeebadec7dd3482eb2b2f59053a9", "lat": 38.89664583333333, "fusion_lon": 0.0, "fusion_lat": 0.0, "type": "electric_scooter", "name": "7918aeebadec7dd3482eb2b2f59053a9", "is_disabled": 0, "rental_uris": {"ios": "https://dc.lft.to/lastmile_qr_scan", "android": "https://dc.lft.to/lastmile_qr_scan"}, "is_reserved": 0}, {"lon": -77.0307185, "bike_id": "e217bac62356fa2565f5c7d725d824fa", "lat": 38.918177, "fusion_lon": 0.0, "fusion_lat": 0.0, "type": "electric_scooter", "name": "e217bac62356fa2565f5c7d725d824fa", "is_disabled": 0, "rental_uris": {"ios": "https://dc.lft.to/lastmile_qr_scan", "android": "https://dc.lft.to/lastmile_qr_scan"}, "is_reserved": 0}, {"lon": -77.01143183333333, "bike_id": "46a3336d71432cebf2f2fe366869aeb0", "lat": 38.90652566666667, "fusion_lon": 0.0, "fusion_lat": 0.0, "type": "electric_scooter", "name": "46a3336d71432cebf2f2fe366869aeb0", "is_disabled": 0, "rental_uris": {"ios": "https://dc.lft.to/lastmile_qr_scan", "android": "https://dc.lft.to/lastmile_qr_scan"}, "is_reserved": 0}, {"lon": -77.01887783333333, "bike_id": "3e8fb95c69bd3ac35931b4d89a05db5c", "lat": 38.9237375, "fusion_lon": 0.0, "fusion_lat": 0.0, "type": "electric_scooter", "name": "3e8fb95c69bd3ac35931b4d89a05db5c", "is_disabled": 0, "rental_uris": {"ios": "https://dc.lft.to/lastmile_qr_scan", "android": "https://dc.lft.to/lastmile_qr_scan"}, "is_reserved": 0}, {"lon": -76.94431683333333, "bike_id": "09dc9350e309102162993380f124eed7", "lat": 38.90041766666667, "fusion_lon": 0.0, "fusion_lat": 0.0, "type": "electric_scooter", "name": "09dc9350e309102162993380f124eed7", "is_disabled": 0, "rental_uris": {"ios": "https://dc.lft.to/lastmile_qr_scan", "android": "https://dc.lft.to/lastmile_qr_scan"}, "is_reserved": 0}, {"lon": -76.9859175, "bike_id": "2e2af68446b3b9d1e708d7b4a7acdc22", "lat": 38.9081525, "fusion_lon": 0.0, "fusion_lat": 0.0, "type": "electric_scooter", "name": "2e2af68446b3b9d1e708d7b4a7acdc22", "is_disabled": 0, "rental_uris": {"ios": "https://dc.lft.to/lastmile_qr_scan", "android": "https://dc.lft.to/lastmile_qr_scan"}, "is_reserved": 0}, {"lon": -77.001395, "bike_id": "0bb183e8376d8a119e727b2a4b7ec355", "lat": 38.92560066666667, "fusion_lon": 0.0, "fusion_lat": 0.0, "type": "electric_bike", "name": "0bb183e8376d8a119e727b2a4b7ec355", "is_disabled": 0, "rental_uris": {"ios": "https://dc.lft.to/lastmile_qr_scan", "android": "https://dc.lft.to/lastmile_qr_scan"}, "is_reserved": 0}, {"lon": -77.100864, "bike_id": "bd2ffcef6bf53adf282d19fc2aa8ea76", "lat": 38.95957116666666, "fusion_lon": 0.0, "fusion_lat": 0.0, "type": "electric_bike", "name": "bd2ffcef6bf53adf282d19fc2aa8ea76", "is_disabled": 0, "rental_uris": {"ios": "https://dc.lft.to/lastmile_qr_scan", "android": "https://dc.lft.to/lastmile_qr_scan"}, "is_reserved": 0}, {"lon": -77.0116295, "bike_id": "e04db7406a8fafb935f34462cf6ba92b", "lat": 38.872315666666665, "fusion_lon": 0.0, "fusion_lat": 0.0, "type": "electric_bike", "name": "e04db7406a8fafb935f34462cf6ba92b", "is_disabled": 0, "rental_uris": {"ios": "https://dc.lft.to/lastmile_qr_scan", "android": "https://dc.lft.to/lastmile_qr_scan"}, "is_reserved": 0}, {"lon": -77.01156433333334, "bike_id": "8218116df0b553b13e9902aeed12217b", "lat": 38.914065666666666, "fusion_lon": 0.0, "fusion_lat": 0.0, "type": "electric_scooter", "name": "8218116df0b553b13e9902aeed12217b", "is_disabled": 0, "rental_uris": {"ios": "https://dc.lft.to/lastmile_qr_scan", "android": "https://dc.lft.to/lastmile_qr_scan"}, "is_reserved": 0}, {"lon": -76.98778983333334, "bike_id": "553c75116338a8fa68d0d45b6c2bde4b", "lat": 38.90658833333333, "fusion_lon": 0.0, "fusion_lat": 0.0, "type": "electric_scooter", "name": "553c75116338a8fa68d0d45b6c2bde4b", "is_disabled": 0, "rental_uris": {"ios": "https://dc.lft.to/lastmile_qr_scan", "android": "https://dc.lft.to/lastmile_qr_scan"}, "is_reserved": 0}, {"lon": -76.99404266666667, "bike_id": "d5ce767be8f20b0afca8936199ef0d08", "lat": 38.831360833333335, "fusion_lon": 0.0, "fusion_lat": 0.0, "type": "electric_bike", "name": "d5ce767be8f20b0afca8936199ef0d08", "is_disabled": 0, "rental_uris": {"ios": "https://dc.lft.to/lastmile_qr_scan", "android": "https://dc.lft.to/lastmile_qr_scan"}, "is_reserved": 0}, {"lon": -77.027132, "bike_id": "0422a49d939ff509882c6a9478d99635", "lat": 38.9066825, "fusion_lon": 0.0, "fusion_lat": 0.0, "type": "electric_scooter", "name": "0422a49d939ff509882c6a9478d99635", "is_disabled": 0, "rental_uris": {"ios": "https://dc.lft.to/lastmile_qr_scan", "android": "https://dc.lft.to/lastmile_qr_scan"}, "is_reserved": 0}, {"lon": -76.98354916666666, "bike_id": "850f76c982d8630196f5ebe009e29b4f", "lat": 38.9149755, "fusion_lon": 0.0, "fusion_lat": 0.0, "type": "electric_scooter", "name": "850f76c982d8630196f5ebe009e29b4f", "is_disabled": 0, "rental_uris": {"ios": "https://dc.lft.to/lastmile_qr_scan", "android": "https://dc.lft.to/lastmile_qr_scan"}, "is_reserved": 0}, {"lon": -77.01253566666666, "bike_id": "9e5af9618c74682f52a7dac43ec7d14d", "lat": 38.9084475, "fusion_lon": 0.0, "fusion_lat": 0.0, "type": "electric_scooter", "name": "9e5af9618c74682f52a7dac43ec7d14d", "is_disabled": 0, "rental_uris": {"ios": "https://dc.lft.to/lastmile_qr_scan", "android": "https://dc.lft.to/lastmile_qr_scan"}, "is_reserved": 0}, {"lon": -77.03059433333334, "bike_id": "2776dab497270d408da7527219003b2d", "lat": 38.9081055, "fusion_lon": 0.0, "fusion_lat": 0.0, "type": "electric_scooter", "name": "2776dab497270d408da7527219003b2d", "is_disabled": 0, "rental_uris": {"ios": "https://dc.lft.to/lastmile_qr_scan", "android": "https://dc.lft.to/lastmile_qr_scan"}, "is_reserved": 0}, {"lon": -76.98497916666666, "bike_id": "8032a9220ab68776930eeb981b464f22", "lat": 38.920066166666665, "fusion_lon": 0.0, "fusion_lat": 0.0, "type": "electric_scooter", "name": "8032a9220ab68776930eeb981b464f22", "is_disabled": 0, "rental_uris": {"ios": "https://dc.lft.to/lastmile_qr_scan", "android": "https://dc.lft.to/lastmile_qr_scan"}, "is_reserved": 0}, {"lon": -77.03664833333333, "bike_id": "d5ace647ff288bfa93f1d711238d7b1a", "lat": 38.93637833333333, "fusion_lon": 0.0, "fusion_lat": 0.0, "type": "electric_bike", "name": "d5ace647ff288bfa93f1d711238d7b1a", "is_disabled": 0, "rental_uris": {"ios": "https://dc.lft.to/lastmile_qr_scan", "android": "https://dc.lft.to/lastmile_qr_scan"}, "is_reserved": 0}, {"lon": -77.0267345, "bike_id": "9620c6ae3eb39680f9cbc398d1b884b4", "lat": 38.98460016666667, "fusion_lon": 0.0, "fusion_lat": 0.0, "type": "electric_scooter", "name": "9620c6ae3eb39680f9cbc398d1b884b4", "is_disabled": 0, "rental_uris": {"ios": "https://dc.lft.to/lastmile_qr_scan", "android": "https://dc.lft.to/lastmile_qr_scan"}, "is_reserved": 0}, {"lon": -77.0325535, "bike_id": "9f71369153798377e86095afe544803a", "lat": 38.942778, "fusion_lon": 0.0, "fusion_lat": 0.0, "type": "electric_scooter", "name": "9f71369153798377e86095afe544803a", "is_disabled": 0, "rental_uris": {"ios": "https://dc.lft.to/lastmile_qr_scan", "android": "https://dc.lft.to/lastmile_qr_scan"}, "is_reserved": 0}, {"lon": -77.028171, "bike_id": "2a0a051e806b25754320f9d5748691c3", "lat": 38.881789833333336, "fusion_lon": 0.0, "fusion_lat": 0.0, "type": "electric_scooter", "name": "2a0a051e806b25754320f9d5748691c3", "is_disabled": 0, "rental_uris": {"ios": "https://dc.lft.to/lastmile_qr_scan", "android": "https://dc.lft.to/lastmile_qr_scan"}, "is_reserved": 0}, {"lon": -77.0121105, "bike_id": "8901e19f939f4e2b96692d768949e683", "lat": 38.91431, "fusion_lon": 0.0, "fusion_lat": 0.0, "type": "electric_scooter", "name": "8901e19f939f4e2b96692d768949e683", "is_disabled": 0, "rental_uris": {"ios": "https://dc.lft.to/lastmile_qr_scan", "android": "https://dc.lft.to/lastmile_qr_scan"}, "is_reserved": 0}, {"lon": -76.96380483333333, "bike_id": "c7e64a0b0c74198c1cbe9de0ce252e89", "lat": 38.95179, "fusion_lon": 0.0, "fusion_lat": 0.0, "type": "electric_bike", "name": "c7e64a0b0c74198c1cbe9de0ce252e89", "is_disabled": 0, "rental_uris": {"ios": "https://dc.lft.to/lastmile_qr_scan", "android": "https://dc.lft.to/lastmile_qr_scan"}, "is_reserved": 0}, {"lon": -77.029699, "bike_id": "2ce843a27e666b647985827a7e9f8eec", "lat": 38.92191233333333, "fusion_lon": 0.0, "fusion_lat": 0.0, "type": "electric_scooter", "name": "2ce843a27e666b647985827a7e9f8eec", "is_disabled": 0, "rental_uris": {"ios": "https://dc.lft.to/lastmile_qr_scan", "android": "https://dc.lft.to/lastmile_qr_scan"}, "is_reserved": 0}, {"lon": -77.03162816666666, "bike_id": "454bc98d38b2f82f2dd705e26172cc7b", "lat": 38.89221333333333, "fusion_lon": 0.0, "fusion_lat": 0.0, "type": "electric_scooter", "name": "454bc98d38b2f82f2dd705e26172cc7b", "is_disabled": 0, "rental_uris": {"ios": "https://dc.lft.to/lastmile_qr_scan", "android": "https://dc.lft.to/lastmile_qr_scan"}, "is_reserved": 0}, {"lon": -77.01991433333333, "bike_id": "cb57ddbc55e16f4b998e4dfab3275cfd", "lat": 38.904466, "fusion_lon": 0.0, "fusion_lat": 0.0, "type": "electric_scooter", "name": "cb57ddbc55e16f4b998e4dfab3275cfd", "is_disabled": 0, "rental_uris": {"ios": "https://dc.lft.to/lastmile_qr_scan", "android": "https://dc.lft.to/lastmile_qr_scan"}, "is_reserved": 0}, {"lon": -77.02431566666667, "bike_id": "f0fb9f3ed1fd98817cf934c9b3d7317b", "lat": 38.92495516666666, "fusion_lon": 0.0, "fusion_lat": 0.0, "type": "electric_scooter", "name": "f0fb9f3ed1fd98817cf934c9b3d7317b", "is_disabled": 0, "rental_uris": {"ios": "https://dc.lft.to/lastmile_qr_scan", "android": "https://dc.lft.to/lastmile_qr_scan"}, "is_reserved": 0}, {"lon": -77.034636, "bike_id": "61f6c17d2cc660b9fe5fd6bf84a6caff", "lat": 38.902728333333336, "fusion_lon": 0.0, "fusion_lat": 0.0, "type": "electric_scooter", "name": "61f6c17d2cc660b9fe5fd6bf84a6caff", "is_disabled": 0, "rental_uris": {"ios": "https://dc.lft.to/lastmile_qr_scan", "android": "https://dc.lft.to/lastmile_qr_scan"}, "is_reserved": 0}, {"lon": -76.98718833333334, "bike_id": "792e136b90372eaba24ca2384114d59d", "lat": 38.90027766666667, "fusion_lon": 0.0, "fusion_lat": 0.0, "type": "electric_scooter", "name": "792e136b90372eaba24ca2384114d59d", "is_disabled": 0, "rental_uris": {"ios": "https://dc.lft.to/lastmile_qr_scan", "android": "https://dc.lft.to/lastmile_qr_scan"}, "is_reserved": 0}, {"lon": -77.048001, "bike_id": "993e4e26b8acb9653df5d3129788af6d", "lat": 38.9164705, "fusion_lon": 0.0, "fusion_lat": 0.0, "type": "electric_scooter", "name": "993e4e26b8acb9653df5d3129788af6d", "is_disabled": 0, "rental_uris": {"ios": "https://dc.lft.to/lastmile_qr_scan", "android": "https://dc.lft.to/lastmile_qr_scan"}, "is_reserved": 0}, {"lon": -77.02289683333333, "bike_id": "5c87d95f61030f81da3ee39f01001d8f", "lat": 38.91105016666667, "fusion_lon": 0.0, "fusion_lat": 0.0, "type": "electric_scooter", "name": "5c87d95f61030f81da3ee39f01001d8f", "is_disabled": 0, "rental_uris": {"ios": "https://dc.lft.to/lastmile_qr_scan", "android": "https://dc.lft.to/lastmile_qr_scan"}, "is_reserved": 0}, {"lon": -76.995407, "bike_id": "0746f664c64dc985d77cf63f66ce9c37", "lat": 38.86258216666667, "fusion_lon": 0.0, "fusion_lat": 0.0, "type": "electric_scooter", "name": "0746f664c64dc985d77cf63f66ce9c37", "is_disabled": 0, "rental_uris": {"ios": "https://dc.lft.to/lastmile_qr_scan", "android": "https://dc.lft.to/lastmile_qr_scan"}, "is_reserved": 0}, {"lon": -76.96463666666666, "bike_id": "3f63d3d0177748acb9088e6b78b91f96", "lat": 38.934472666666665, "fusion_lon": 0.0, "fusion_lat": 0.0, "type": "electric_scooter", "name": "3f63d3d0177748acb9088e6b78b91f96", "is_disabled": 0, "rental_uris": {"ios": "https://dc.lft.to/lastmile_qr_scan", "android": "https://dc.lft.to/lastmile_qr_scan"}, "is_reserved": 0}, {"lon": -77.04486866666667, "bike_id": "1c91cc9a3371296ecc96a2f7efd6edef", "lat": 38.90727533333333, "fusion_lon": 0.0, "fusion_lat": 0.0, "type": "electric_scooter", "name": "1c91cc9a3371296ecc96a2f7efd6edef", "is_disabled": 0, "rental_uris": {"ios": "https://dc.lft.to/lastmile_qr_scan", "android": "https://dc.lft.to/lastmile_qr_scan"}, "is_reserved": 0}, {"lon": -77.0328515, "bike_id": "4c48dbc3d35384da893edc64578a24c4", "lat": 38.8840765, "fusion_lon": 0.0, "fusion_lat": 0.0, "type": "electric_scooter", "name": "4c48dbc3d35384da893edc64578a24c4", "is_disabled": 0, "rental_uris": {"ios": "https://dc.lft.to/lastmile_qr_scan", "android": "https://dc.lft.to/lastmile_qr_scan"}, "is_reserved": 0}, {"lon": -77.04328733333334, "bike_id": "eb33cca07d3c2e78973b2dda769504df", "lat": 38.918884166666665, "fusion_lon": 0.0, "fusion_lat": 0.0, "type": "electric_scooter", "name": "eb33cca07d3c2e78973b2dda769504df", "is_disabled": 0, "rental_uris": {"ios": "https://dc.lft.to/lastmile_qr_scan", "android": "https://dc.lft.to/lastmile_qr_scan"}, "is_reserved": 0}, {"lon": -77.026795, "bike_id": "e38f3c086ab12e3161eb6a64b6fd0fa7", "lat": 38.9848965, "fusion_lon": 0.0, "fusion_lat": 0.0, "type": "electric_scooter", "name": "e38f3c086ab12e3161eb6a64b6fd0fa7", "is_disabled": 0, "rental_uris": {"ios": "https://dc.lft.to/lastmile_qr_scan", "android": "https://dc.lft.to/lastmile_qr_scan"}, "is_reserved": 0}, {"lon": -77.04260766666667, "bike_id": "dc07ae552cfdf6f548bf78bdaf6ca52a", "lat": 38.917022833333334, "fusion_lon": 0.0, "fusion_lat": 0.0, "type": "electric_scooter", "name": "dc07ae552cfdf6f548bf78bdaf6ca52a", "is_disabled": 0, "rental_uris": {"ios": "https://dc.lft.to/lastmile_qr_scan", "android": "https://dc.lft.to/lastmile_qr_scan"}, "is_reserved": 0}, {"lon": -76.9853215, "bike_id": "341168ee942f9a7632fb721249053e50", "lat": 38.91021816666667, "fusion_lon": 0.0, "fusion_lat": 0.0, "type": "electric_scooter", "name": "341168ee942f9a7632fb721249053e50", "is_disabled": 0, "rental_uris": {"ios": "https://dc.lft.to/lastmile_qr_scan", "android": "https://dc.lft.to/lastmile_qr_scan"}, "is_reserved": 0}, {"lon": -77.02703016666666, "bike_id": "13feac0f64f10ddaaa074fa6d319a64e", "lat": 38.90671666666667, "fusion_lon": 0.0, "fusion_lat": 0.0, "type": "electric_scooter", "name": "13feac0f64f10ddaaa074fa6d319a64e", "is_disabled": 0, "rental_uris": {"ios": "https://dc.lft.to/lastmile_qr_scan", "android": "https://dc.lft.to/lastmile_qr_scan"}, "is_reserved": 0}, {"lon": -77.00223316666667, "bike_id": "e27f0c4b30b8ed690d03fad8a4e21aa3", "lat": 38.891985166666664, "fusion_lon": 0.0, "fusion_lat": 0.0, "type": "electric_scooter", "name": "e27f0c4b30b8ed690d03fad8a4e21aa3", "is_disabled": 0, "rental_uris": {"ios": "https://dc.lft.to/lastmile_qr_scan", "android": "https://dc.lft.to/lastmile_qr_scan"}, "is_reserved": 0}, {"lon": -77.01554233333333, "bike_id": "b5096a627f6e540089dec4eceb312931", "lat": 38.88334016666667, "fusion_lon": 0.0, "fusion_lat": 0.0, "type": "electric_scooter", "name": "b5096a627f6e540089dec4eceb312931", "is_disabled": 0, "rental_uris": {"ios": "https://dc.lft.to/lastmile_qr_scan", "android": "https://dc.lft.to/lastmile_qr_scan"}, "is_reserved": 0}, {"lon": -77.0269495, "bike_id": "9187606971ded6f7aaa0dec457e54a11", "lat": 38.94886416666667, "fusion_lon": 0.0, "fusion_lat": 0.0, "type": "electric_scooter", "name": "9187606971ded6f7aaa0dec457e54a11", "is_disabled": 0, "rental_uris": {"ios": "https://dc.lft.to/lastmile_qr_scan", "android": "https://dc.lft.to/lastmile_qr_scan"}, "is_reserved": 0}, {"lon": -77.014791, "bike_id": "11ce0b1bda1eeacae376daaa0ca0ce71", "lat": 38.926903, "fusion_lon": 0.0, "fusion_lat": 0.0, "type": "electric_scooter", "name": "11ce0b1bda1eeacae376daaa0ca0ce71", "is_disabled": 0, "rental_uris": {"ios": "https://dc.lft.to/lastmile_qr_scan", "android": "https://dc.lft.to/lastmile_qr_scan"}, "is_reserved": 0}, {"lon": -77.031584, "bike_id": "9bc928c4e3d7d60f36353935e5690752", "lat": 38.884146, "fusion_lon": 0.0, "fusion_lat": 0.0, "type": "electric_scooter", "name": "9bc928c4e3d7d60f36353935e5690752", "is_disabled": 0, "rental_uris": {"ios": "https://dc.lft.to/lastmile_qr_scan", "android": "https://dc.lft.to/lastmile_qr_scan"}, "is_reserved": 0}, {"lon": -77.044786, "bike_id": "2a5b17e370ef57e3f6eaaa81f6d0745c", "lat": 38.900569, "fusion_lon": 0.0, "fusion_lat": 0.0, "type": "electric_scooter", "name": "2a5b17e370ef57e3f6eaaa81f6d0745c", "is_disabled": 0, "rental_uris": {"ios": "https://dc.lft.to/lastmile_qr_scan", "android": "https://dc.lft.to/lastmile_qr_scan"}, "is_reserved": 0}, {"lon": -76.986172, "bike_id": "57f8787525ad664adaf01a2bd8036b4c", "lat": 38.905872333333335, "fusion_lon": 0.0, "fusion_lat": 0.0, "type": "electric_scooter", "name": "57f8787525ad664adaf01a2bd8036b4c", "is_disabled": 0, "rental_uris": {"ios": "https://dc.lft.to/lastmile_qr_scan", "android": "https://dc.lft.to/lastmile_qr_scan"}, "is_reserved": 0}, {"lon": -76.95014783333333, "bike_id": "66844f202b2deababb98b934c38f2061", "lat": 38.89395366666667, "fusion_lon": 0.0, "fusion_lat": 0.0, "type": "electric_scooter", "name": "66844f202b2deababb98b934c38f2061", "is_disabled": 0, "rental_uris": {"ios": "https://dc.lft.to/lastmile_qr_scan", "android": "https://dc.lft.to/lastmile_qr_scan"}, "is_reserved": 0}, {"lon": -77.03661416666667, "bike_id": "fbc2827f9323d919a902e87a74750fbb", "lat": 38.91135283333333, "fusion_lon": 0.0, "fusion_lat": 0.0, "type": "electric_scooter", "name": "fbc2827f9323d919a902e87a74750fbb", "is_disabled": 0, "rental_uris": {"ios": "https://dc.lft.to/lastmile_qr_scan", "android": "https://dc.lft.to/lastmile_qr_scan"}, "is_reserved": 0}, {"lon": -77.00136616666667, "bike_id": "814644b9f05406a1e02a7bbd7a843c84", "lat": 38.842771, "fusion_lon": 0.0, "fusion_lat": 0.0, "type": "electric_scooter", "name": "814644b9f05406a1e02a7bbd7a843c84", "is_disabled": 0, "rental_uris": {"ios": "https://dc.lft.to/lastmile_qr_scan", "android": "https://dc.lft.to/lastmile_qr_scan"}, "is_reserved": 0}, {"lon": -77.02723866666666, "bike_id": "e7f046f4fb1bfce73c11a64e49999729", "lat": 38.924726, "fusion_lon": 0.0, "fusion_lat": 0.0, "type": "electric_scooter", "name": "e7f046f4fb1bfce73c11a64e49999729", "is_disabled": 0, "rental_uris": {"ios": "https://dc.lft.to/lastmile_qr_scan", "android": "https://dc.lft.to/lastmile_qr_scan"}, "is_reserved": 0}, {"lon": -77.02965933333333, "bike_id": "74627771c1904570ba0bd5f169228008", "lat": 38.907409666666666, "fusion_lon": 0.0, "fusion_lat": 0.0, "type": "electric_scooter", "name": "74627771c1904570ba0bd5f169228008", "is_disabled": 0, "rental_uris": {"ios": "https://dc.lft.to/lastmile_qr_scan", "android": "https://dc.lft.to/lastmile_qr_scan"}, "is_reserved": 0}, {"lon": -76.918035, "bike_id": "c21fd0b8136eba99f7f340c8e5e77872", "lat": 38.999992666666664, "fusion_lon": 0.0, "fusion_lat": 0.0, "type": "electric_bike", "name": "c21fd0b8136eba99f7f340c8e5e77872", "is_disabled": 0, "rental_uris": {"ios": "https://dc.lft.to/lastmile_qr_scan", "android": "https://dc.lft.to/lastmile_qr_scan"}, "is_reserved": 0}, {"lon": -76.96057633333334, "bike_id": "159ecea4e817981f3614d6b6649b75e6", "lat": 38.8840635, "fusion_lon": 0.0, "fusion_lat": 0.0, "type": "electric_bike", "name": "159ecea4e817981f3614d6b6649b75e6", "is_disabled": 0, "rental_uris": {"ios": "https://dc.lft.to/lastmile_qr_scan", "android": "https://dc.lft.to/lastmile_qr_scan"}, "is_reserved": 0}, {"lon": -77.054309, "bike_id": "883929d304b3d9ae0b6e40b3269acf66", "lat": 38.9286685, "fusion_lon": 0.0, "fusion_lat": 0.0, "type": "electric_scooter", "name": "883929d304b3d9ae0b6e40b3269acf66", "is_disabled": 0, "rental_uris": {"ios": "https://dc.lft.to/lastmile_qr_scan", "android": "https://dc.lft.to/lastmile_qr_scan"}, "is_reserved": 0}, {"lon": -77.01435983333333, "bike_id": "2be14408de93bcc79b6a5b2330441a67", "lat": 38.8774825, "fusion_lon": 0.0, "fusion_lat": 0.0, "type": "electric_scooter", "name": "2be14408de93bcc79b6a5b2330441a67", "is_disabled": 0, "rental_uris": {"ios": "https://dc.lft.to/lastmile_qr_scan", "android": "https://dc.lft.to/lastmile_qr_scan"}, "is_reserved": 0}, {"lon": -77.0324025, "bike_id": "cce3e72a81b1538158fa913f6e34ffcc", "lat": 38.90983766666667, "fusion_lon": 0.0, "fusion_lat": 0.0, "type": "electric_scooter", "name": "cce3e72a81b1538158fa913f6e34ffcc", "is_disabled": 0, "rental_uris": {"ios": "https://dc.lft.to/lastmile_qr_scan", "android": "https://dc.lft.to/lastmile_qr_scan"}, "is_reserved": 0}, {"lon": -76.95403783333333, "bike_id": "48e0628870da6f08a9562662aa016c73", "lat": 38.884655333333335, "fusion_lon": 0.0, "fusion_lat": 0.0, "type": "electric_scooter", "name": "48e0628870da6f08a9562662aa016c73", "is_disabled": 0, "rental_uris": {"ios": "https://dc.lft.to/lastmile_qr_scan", "android": "https://dc.lft.to/lastmile_qr_scan"}, "is_reserved": 0}, {"lon": -77.03349666666666, "bike_id": "38ec9e9d9f3b31d389823b16afc92841", "lat": 38.907179666666664, "fusion_lon": 0.0, "fusion_lat": 0.0, "type": "electric_scooter", "name": "38ec9e9d9f3b31d389823b16afc92841", "is_disabled": 0, "rental_uris": {"ios": "https://dc.lft.to/lastmile_qr_scan", "android": "https://dc.lft.to/lastmile_qr_scan"}, "is_reserved": 0}, {"lon": -76.98709416666667, "bike_id": "66283f1b66625d0d89a5c130a914ea51", "lat": 38.86625166666666, "fusion_lon": 0.0, "fusion_lat": 0.0, "type": "electric_scooter", "name": "66283f1b66625d0d89a5c130a914ea51", "is_disabled": 0, "rental_uris": {"ios": "https://dc.lft.to/lastmile_qr_scan", "android": "https://dc.lft.to/lastmile_qr_scan"}, "is_reserved": 0}, {"lon": -77.02253083333333, "bike_id": "031b39eea72335496647755bdb6b1ac1", "lat": 38.8937895, "fusion_lon": 0.0, "fusion_lat": 0.0, "type": "electric_scooter", "name": "031b39eea72335496647755bdb6b1ac1", "is_disabled": 0, "rental_uris": {"ios": "https://dc.lft.to/lastmile_qr_scan", "android": "https://dc.lft.to/lastmile_qr_scan"}, "is_reserved": 0}, {"lon": -77.0336985, "bike_id": "c8387607441fb87280a3cc18a1a7eb89", "lat": 38.922442333333336, "fusion_lon": 0.0, "fusion_lat": 0.0, "type": "electric_scooter", "name": "c8387607441fb87280a3cc18a1a7eb89", "is_disabled": 0, "rental_uris": {"ios": "https://dc.lft.to/lastmile_qr_scan", "android": "https://dc.lft.to/lastmile_qr_scan"}, "is_reserved": 0}, {"lon": -76.99618816666667, "bike_id": "dc4fc3923e55c1d724c9d69fcbf04df0", "lat": 38.9000315, "fusion_lon": 0.0, "fusion_lat": 0.0, "type": "electric_scooter", "name": "dc4fc3923e55c1d724c9d69fcbf04df0", "is_disabled": 0, "rental_uris": {"ios": "https://dc.lft.to/lastmile_qr_scan", "android": "https://dc.lft.to/lastmile_qr_scan"}, "is_reserved": 0}, {"lon": -77.032221, "bike_id": "7b01cfd77c198e8875235ebf4fa04235", "lat": 38.91407616666667, "fusion_lon": 0.0, "fusion_lat": 0.0, "type": "electric_scooter", "name": "7b01cfd77c198e8875235ebf4fa04235", "is_disabled": 0, "rental_uris": {"ios": "https://dc.lft.to/lastmile_qr_scan", "android": "https://dc.lft.to/lastmile_qr_scan"}, "is_reserved": 0}, {"lon": -76.98717166666667, "bike_id": "11cc3a83e5c8cccf876bd52252983934", "lat": 38.86631466666667, "fusion_lon": 0.0, "fusion_lat": 0.0, "type": "electric_scooter", "name": "11cc3a83e5c8cccf876bd52252983934", "is_disabled": 0, "rental_uris": {"ios": "https://dc.lft.to/lastmile_qr_scan", "android": "https://dc.lft.to/lastmile_qr_scan"}, "is_reserved": 0}, {"lon": -77.07427133333333, "bike_id": "faa87b5469b3ea07bb17b6fb2a672006", "lat": 38.99945666666667, "fusion_lon": 0.0, "fusion_lat": 0.0, "type": "electric_bike", "name": "faa87b5469b3ea07bb17b6fb2a672006", "is_disabled": 0, "rental_uris": {"ios": "https://dc.lft.to/lastmile_qr_scan", "android": "https://dc.lft.to/lastmile_qr_scan"}, "is_reserved": 0}, {"lon": -77.02424366666666, "bike_id": "436234a99a6e0dad68fceab361640edd", "lat": 38.914072833333336, "fusion_lon": 0.0, "fusion_lat": 0.0, "type": "electric_scooter", "name": "436234a99a6e0dad68fceab361640edd", "is_disabled": 0, "rental_uris": {"ios": "https://dc.lft.to/lastmile_qr_scan", "android": "https://dc.lft.to/lastmile_qr_scan"}, "is_reserved": 0}, {"lon": -77.00736216666667, "bike_id": "29d687a8eb42ac61f228cff291b03011", "lat": 38.91625533333333, "fusion_lon": 0.0, "fusion_lat": 0.0, "type": "electric_scooter", "name": "29d687a8eb42ac61f228cff291b03011", "is_disabled": 0, "rental_uris": {"ios": "https://dc.lft.to/lastmile_qr_scan", "android": "https://dc.lft.to/lastmile_qr_scan"}, "is_reserved": 0}, {"lon": -77.014294, "bike_id": "1d344cea940dfceb98118d712ee0d1ce", "lat": 38.91462033333333, "fusion_lon": 0.0, "fusion_lat": 0.0, "type": "electric_scooter", "name": "1d344cea940dfceb98118d712ee0d1ce", "is_disabled": 0, "rental_uris": {"ios": "https://dc.lft.to/lastmile_qr_scan", "android": "https://dc.lft.to/lastmile_qr_scan"}, "is_reserved": 0}, {"lon": -77.032588, "bike_id": "3d7a0252b7c95e0006e80e8567593fb2", "lat": 38.935623, "fusion_lon": 0.0, "fusion_lat": 0.0, "type": "electric_scooter", "name": "3d7a0252b7c95e0006e80e8567593fb2", "is_disabled": 0, "rental_uris": {"ios": "https://dc.lft.to/lastmile_qr_scan", "android": "https://dc.lft.to/lastmile_qr_scan"}, "is_reserved": 0}, {"lon": -77.02413666666666, "bike_id": "66cecbbc1d50ea7cc1dc1fba9290e7c6", "lat": 38.937194833333336, "fusion_lon": 0.0, "fusion_lat": 0.0, "type": "electric_scooter", "name": "66cecbbc1d50ea7cc1dc1fba9290e7c6", "is_disabled": 0, "rental_uris": {"ios": "https://dc.lft.to/lastmile_qr_scan", "android": "https://dc.lft.to/lastmile_qr_scan"}, "is_reserved": 0}, {"lon": -77.041509, "bike_id": "65a369cd8b5447489a3f2d385cd342ab", "lat": 38.90562416666667, "fusion_lon": 0.0, "fusion_lat": 0.0, "type": "electric_scooter", "name": "65a369cd8b5447489a3f2d385cd342ab", "is_disabled": 0, "rental_uris": {"ios": "https://dc.lft.to/lastmile_qr_scan", "android": "https://dc.lft.to/lastmile_qr_scan"}, "is_reserved": 0}, {"lon": -77.02969016666667, "bike_id": "aa1a141c45bd26da132dd90bbb7caeed", "lat": 38.94047916666667, "fusion_lon": 0.0, "fusion_lat": 0.0, "type": "electric_scooter", "name": "aa1a141c45bd26da132dd90bbb7caeed", "is_disabled": 0, "rental_uris": {"ios": "https://dc.lft.to/lastmile_qr_scan", "android": "https://dc.lft.to/lastmile_qr_scan"}, "is_reserved": 0}, {"lon": -77.031753, "bike_id": "78ee6de7249a95a8f8e27ed128398e86", "lat": 38.912911333333334, "fusion_lon": 0.0, "fusion_lat": 0.0, "type": "electric_scooter", "name": "78ee6de7249a95a8f8e27ed128398e86", "is_disabled": 0, "rental_uris": {"ios": "https://dc.lft.to/lastmile_qr_scan", "android": "https://dc.lft.to/lastmile_qr_scan"}, "is_reserved": 0}, {"lon": -77.01986366666667, "bike_id": "89d2c0bf0dfd6f86b7e4c05c91cfbc43", "lat": 38.8952675, "fusion_lon": 0.0, "fusion_lat": 0.0, "type": "electric_scooter", "name": "89d2c0bf0dfd6f86b7e4c05c91cfbc43", "is_disabled": 0, "rental_uris": {"ios": "https://dc.lft.to/lastmile_qr_scan", "android": "https://dc.lft.to/lastmile_qr_scan"}, "is_reserved": 0}, {"lon": -76.98510633333333, "bike_id": "db25668ca1f263bc2ac14e20527f9914", "lat": 38.903435333333334, "fusion_lon": 0.0, "fusion_lat": 0.0, "type": "electric_scooter", "name": "db25668ca1f263bc2ac14e20527f9914", "is_disabled": 0, "rental_uris": {"ios": "https://dc.lft.to/lastmile_qr_scan", "android": "https://dc.lft.to/lastmile_qr_scan"}, "is_reserved": 0}, {"lon": -77.0240555, "bike_id": "5bd45359f82e4cf8ac3dc80ff5604b2e", "lat": 38.879623, "fusion_lon": 0.0, "fusion_lat": 0.0, "type": "electric_scooter", "name": "5bd45359f82e4cf8ac3dc80ff5604b2e", "is_disabled": 0, "rental_uris": {"ios": "https://dc.lft.to/lastmile_qr_scan", "android": "https://dc.lft.to/lastmile_qr_scan"}, "is_reserved": 0}, {"lon": -77.03454966666666, "bike_id": "2f50a21da9529c1623dd5acf6067c049", "lat": 38.9166655, "fusion_lon": 0.0, "fusion_lat": 0.0, "type": "electric_scooter", "name": "2f50a21da9529c1623dd5acf6067c049", "is_disabled": 0, "rental_uris": {"ios": "https://dc.lft.to/lastmile_qr_scan", "android": "https://dc.lft.to/lastmile_qr_scan"}, "is_reserved": 0}, {"lon": -76.945607, "bike_id": "239304b444192c8343a8898c817473ce", "lat": 38.93748266666667, "fusion_lon": 0.0, "fusion_lat": 0.0, "type": "electric_bike", "name": "239304b444192c8343a8898c817473ce", "is_disabled": 0, "rental_uris": {"ios": "https://dc.lft.to/lastmile_qr_scan", "android": "https://dc.lft.to/lastmile_qr_scan"}, "is_reserved": 0}, {"lon": -77.023188, "bike_id": "22e67cfdad7383375ea3ab591a857389", "lat": 38.95520666666667, "fusion_lon": 0.0, "fusion_lat": 0.0, "type": "electric_scooter", "name": "22e67cfdad7383375ea3ab591a857389", "is_disabled": 0, "rental_uris": {"ios": "https://dc.lft.to/lastmile_qr_scan", "android": "https://dc.lft.to/lastmile_qr_scan"}, "is_reserved": 0}, {"lon": -77.043187, "bike_id": "b07c615769dea65837de2a84e02f2a8d", "lat": 38.91881383333333, "fusion_lon": 0.0, "fusion_lat": 0.0, "type": "electric_scooter", "name": "b07c615769dea65837de2a84e02f2a8d", "is_disabled": 0, "rental_uris": {"ios": "https://dc.lft.to/lastmile_qr_scan", "android": "https://dc.lft.to/lastmile_qr_scan"}, "is_reserved": 0}, {"lon": -77.02251333333334, "bike_id": "68fd82df191fb26402b34a4fc6f3a2ea", "lat": 38.9156645, "fusion_lon": 0.0, "fusion_lat": 0.0, "type": "electric_scooter", "name": "68fd82df191fb26402b34a4fc6f3a2ea", "is_disabled": 0, "rental_uris": {"ios": "https://dc.lft.to/lastmile_qr_scan", "android": "https://dc.lft.to/lastmile_qr_scan"}, "is_reserved": 0}, {"lon": -77.02390483333333, "bike_id": "626834a186eef83d2539439b340018de", "lat": 38.9063535, "fusion_lon": 0.0, "fusion_lat": 0.0, "type": "electric_scooter", "name": "626834a186eef83d2539439b340018de", "is_disabled": 0, "rental_uris": {"ios": "https://dc.lft.to/lastmile_qr_scan", "android": "https://dc.lft.to/lastmile_qr_scan"}, "is_reserved": 0}, {"lon": -77.03278483333334, "bike_id": "b2ee1614dee8fe6c8037b56a1a6cacb5", "lat": 38.9364415, "fusion_lon": 0.0, "fusion_lat": 0.0, "type": "electric_scooter", "name": "b2ee1614dee8fe6c8037b56a1a6cacb5", "is_disabled": 0, "rental_uris": {"ios": "https://dc.lft.to/lastmile_qr_scan", "android": "https://dc.lft.to/lastmile_qr_scan"}, "is_reserved": 0}, {"lon": -77.04501833333333, "bike_id": "4c3becf72c2ddaec2df38434b2b618e1", "lat": 38.892530666666666, "fusion_lon": 0.0, "fusion_lat": 0.0, "type": "electric_scooter", "name": "4c3becf72c2ddaec2df38434b2b618e1", "is_disabled": 0, "rental_uris": {"ios": "https://dc.lft.to/lastmile_qr_scan", "android": "https://dc.lft.to/lastmile_qr_scan"}, "is_reserved": 0},