{"data": {"bikes": [{"fusion_lat": 0.0, "name": "79c0ef290f771108fc203f5745d335e0", "is_disabled": 0, "rental_uris": {"android": "https://dc.lft.to/lastmile_qr_scan", "ios": "https://dc.lft.to/lastmile_qr_scan"}, "fusion_lon": 0.0, "lat": 38.926768, "bike_id": "79c0ef290f771108fc203f5745d335e0", "type": "electric_scooter", "is_reserved": 0, "lon": -77.02250466666666}, {"fusion_lat": 0.0, "name": "f550e298be3e1d8d9ae2e02f4576fcaa", "is_disabled": 0, "rental_uris": {"android": "https://dc.lft.to/lastmile_qr_scan", "ios": "https://dc.lft.to/lastmile_qr_scan"}, "fusion_lon": 0.0, "lat": 38.91113383333333, "bike_id": "f550e298be3e1d8d9ae2e02f4576fcaa", "type": "electric_scooter", "is_reserved": 0, "lon": -76.997688}, {"fusion_lat": 0.0, "name": "5e6e4394dca178724a09a4bb1dd5e36a", "is_disabled": 0, "rental_uris": {"android": "https://dc.lft.to/lastmile_qr_scan", "ios": "https://dc.lft.to/lastmile_qr_scan"}, "fusion_lon": 0.0, "lat": 38.930583666666664, "bike_id": "5e6e4394dca178724a09a4bb1dd5e36a", "type": "electric_scooter", "is_reserved": 0, "lon": -77.039418}, {"fusion_lat": 0.0, "name": "592aed3e856797ea274f6ada1425a81d", "is_disabled": 0, "rental_uris": {"android": "https://dc.lft.to/lastmile_qr_scan", "ios": "https://dc.lft.to/lastmile_qr_scan"}, "fusion_lon": 0.0, "lat": 38.94978366666667, "bike_id": "592aed3e856797ea274f6ada1425a81d", "type": "electric_scooter", "is_reserved": 0, "lon": -77.02696616666667}, {"fusion_lat": 0.0, "name": "a1da90fee9073d56d9b69968df56f9e1", "is_disabled": 0, "rental_uris": {"android": "https://dc.lft.to/lastmile_qr_scan", "ios": "https://dc.lft.to/lastmile_qr_scan"}, "fusion_lon": 0.0, "lat": 38.91689, "bike_id": "a1da90fee9073d56d9b69968df56f9e1", "type": "electric_bike", "is_reserved": 0, "lon": -76.9823765}, {"fusion_lat": 0.0, "name": "d02142b6d6e55906dca0a0cd2e747f6c", "is_disabled": 0, "rental_uris": {"android": "https://dc.lft.to/lastmile_qr_scan", "ios": "https://dc.lft.to/lastmile_qr_scan"}, "fusion_lon": 0.0, "lat": 38.94978733333333, "bike_id": "d02142b6d6e55906dca0a0cd2e747f6c", "type": "electric_scooter", "is_reserved": 0, "lon": -77.026993}, {"fusion_lat": 0.0, "name": "125528c1fe58b7aecbc67b67af1831e6", "is_disabled": 0, "rental_uris": {"android": "https://dc.lft.to/lastmile_qr_scan", "ios": "https://dc.lft.to/lastmile_qr_scan"}, "fusion_lon": 0.0, "lat": 38.868482166666666, "bike_id": "125528c1fe58b7aecbc67b67af1831e6", "type": "electric_scooter", "is_reserved": 0, "lon": -76.98829083333334}, {"fusion_lat": 0.0, "name": "9816901ec65be487f440e3bc92169c5b", "is_disabled": 0, "rental_uris": {"android": "https://dc.lft.to/lastmile_qr_scan", "ios": "https://dc.lft.to/lastmile_qr_scan"}, "fusion_lon": 0.0, "lat": 38.92536666666667, "bike_id": "9816901ec65be487f440e3bc92169c5b", "type": "electric_scooter", "is_reserved": 0, "lon": -77.05117833333334}, {"fusion_lat": 0.0, "name": "fb86981146ff5989e8c56b8d4d70e645", "is_disabled": 0, "rental_uris": {"android": "https://dc.lft.to/lastmile_qr_scan", "ios": "https://dc.lft.to/lastmile_qr_scan"}, "fusion_lon": 0.0, "lat": 38.87563033333333, "bike_id": "fb86981146ff5989e8c56b8d4d70e645", "type": "electric_scooter", "is_reserved": 0, "lon": -77.00729583333333}, {"fusion_lat": 0.0, "name": "66de0665003fd9398380b4f007529d3e", "is_disabled": 0, "rental_uris": {"android": "https://dc.lft.to/lastmile_qr_scan", "ios": "https://dc.lft.to/lastmile_qr_scan"}, "fusion_lon": 0.0, "lat": 38.89359283333334, "bike_id": "66de0665003fd9398380b4f007529d3e", "type": "electric_scooter", "is_reserved": 0, "lon": -77.02255983333333}, {"fusion_lat": 0.0, "name": "678b741b17683fe8f8328e2dcd72b306", "is_disabled": 0, "rental_uris": {"android": "https://dc.lft.to/lastmile_qr_scan", "ios": "https://dc.lft.to/lastmile_qr_scan"}, "fusion_lon": 0.0, "lat": 38.89220866666667, "bike_id": "678b741b17683fe8f8328e2dcd72b306", "type": "electric_scooter", "is_reserved": 0, "lon": -77.04195916666667}, {"fusion_lat": 0.0, "name": "038c09e28180c7bd7fbb1801e486c41c", "is_disabled": 0, "rental_uris": {"android": "https://dc.lft.to/lastmile_qr_scan", "ios": "https://dc.lft.to/lastmile_qr_scan"}, "fusion_lon": 0.0, "lat": 38.943859833333335, "bike_id": "038c09e28180c7bd7fbb1801e486c41c", "type": "electric_scooter", "is_reserved": 0, "lon": -77.032128}, {"fusion_lat": 0.0, "name": "c09b4e911ab87f0996000c17e33406f1", "is_disabled": 0, "rental_uris": {"android": "https://dc.lft.to/lastmile_qr_scan", "ios": "https://dc.lft.to/lastmile_qr_scan"}, "fusion_lon": 0.0, "lat": 38.89517, "bike_id": "c09b4e911ab87f0996000c17e33406f1", "type": "electric_scooter", "is_reserved": 0, "lon": -76.98085266666666}, {"fusion_lat": 0.0, "name": "e9fdb1fcb4bcccf6a71e2a46c874736b", "is_disabled": 0, "rental_uris": {"android": "https://dc.lft.to/lastmile_qr_scan", "ios": "https://dc.lft.to/lastmile_qr_scan"}, "fusion_lon": 0.0, "lat": 38.945059, "bike_id": "e9fdb1fcb4bcccf6a71e2a46c874736b", "type": "electric_bike", "is_reserved": 0, "lon": -77.00676383333334}, {"fusion_lat": 0.0, "name": "1fb94a9265ae82150e2cd27179f66b4e", "is_disabled": 0, "rental_uris": {"android": "https://dc.lft.to/lastmile_qr_scan", "ios": "https://dc.lft.to/lastmile_qr_scan"}, "fusion_lon": 0.0, "lat": 38.95342, "bike_id": "1fb94a9265ae82150e2cd27179f66b4e", "type": "electric_scooter", "is_reserved": 0, "lon": -77.0794705}, {"fusion_lat": 0.0, "name": "ff3a9f4dff5374396527c55f0d71978a", "is_disabled": 0, "rental_uris": {"android": "https://dc.lft.to/lastmile_qr_scan", "ios": "https://dc.lft.to/lastmile_qr_scan"}, "fusion_lon": 0.0, "lat": 38.906464166666666, "bike_id": "ff3a9f4dff5374396527c55f0d71978a", "type": "electric_scooter", "is_reserved": 0, "lon": -77.02949083333333}, {"fusion_lat": 0.0, "name": "c7ea3f12d9acae492d70b697a3ce86ff", "is_disabled": 0, "rental_uris": {"android": "https://dc.lft.to/lastmile_qr_scan", "ios": "https://dc.lft.to/lastmile_qr_scan"}, "fusion_lon": 0.0, "lat": 38.9355085, "bike_id": "c7ea3f12d9acae492d70b697a3ce86ff", "type": "electric_scooter", "is_reserved": 0, "lon": -77.02221266666666}, {"fusion_lat": 0.0, "name": "68f1a13a9c0679e7a177c102d86330af", "is_disabled": 0, "rental_uris": {"android": "https://dc.lft.to/lastmile_qr_scan", "ios": "https://dc.lft.to/lastmile_qr_scan"}, "fusion_lon": 0.0, "lat": 38.959189333333335, "bike_id": "68f1a13a9c0679e7a177c102d86330af", "type": "electric_scooter", "is_reserved": 0, "lon": -77.0847595}, {"fusion_lat": 0.0, "name": "eb20b0bfb3a8df68c6e556f618d4ed27", "is_disabled": 0, "rental_uris": {"android": "https://dc.lft.to/lastmile_qr_scan", "ios": "https://dc.lft.to/lastmile_qr_scan"}, "fusion_lon": 0.0, "lat": 38.92155916666667, "bike_id": "eb20b0bfb3a8df68c6e556f618d4ed27", "type": "electric_scooter", "is_reserved": 0, "lon": -77.02096216666666}, {"fusion_lat": 0.0, "name": "9cd9687319c7fad947d13bbd1d54e4ef", "is_disabled": 0, "rental_uris": {"android": "https://dc.lft.to/lastmile_qr_scan", "ios": "https://dc.lft.to/lastmile_qr_scan"}, "fusion_lon": 0.0, "lat": 38.897011, "bike_id": "9cd9687319c7fad947d13bbd1d54e4ef", "type": "electric_scooter", "is_reserved": 0, "lon": -77.02414916666666}, {"fusion_lat": 0.0, "name": "f92d067f98c22573f593f6db005bee28", "is_disabled": 0, "rental_uris": {"android": "https://dc.lft.to/lastmile_qr_scan", "ios": "https://dc.lft.to/lastmile_qr_scan"}, "fusion_lon": 0.0, "lat": 39.014112833333336, "bike_id": "f92d067f98c22573f593f6db005bee28", "type": "electric_bike", "is_reserved": 0, "lon": -77.04495716666666}, {"fusion_lat": 0.0, "name": "749f4de824fca7b327a17bfe71ebfa62", "is_disabled": 0, "rental_uris": {"android": "https://dc.lft.to/lastmile_qr_scan", "ios": "https://dc.lft.to/lastmile_qr_scan"}, "fusion_lon": 0.0, "lat": 38.895615, "bike_id": "749f4de824fca7b327a17bfe71ebfa62", "type": "electric_scooter", "is_reserved": 0, "lon": -76.99431066666666}, {"fusion_lat": 0.0, "name": "f96f2371b6a6021287580be8ebba4ebc", "is_disabled": 0, "rental_uris": {"android": "https://dc.lft.to/lastmile_qr_scan", "ios": "https://dc.lft.to/lastmile_qr_scan"}, "fusion_lon": 0.0, "lat": 38.90811333333333, "bike_id": "f96f2371b6a6021287580be8ebba4ebc", "type": "electric_scooter", "is_reserved": 0, "lon": -77.04323633333334}, {"fusion_lat": 0.0, "name": "17aa819701d0924a10a892db4ee62f88", "is_disabled": 0, "rental_uris": {"android": "https://dc.lft.to/lastmile_qr_scan", "ios": "https://dc.lft.to/lastmile_qr_scan"}, "fusion_lon": 0.0, "lat": 38.9191555, "bike_id": "17aa819701d0924a10a892db4ee62f88", "type": "electric_bike", "is_reserved": 0, "lon": -77.03156433333334}, {"fusion_lat": 0.0, "name": "1e59cbad46bf73779aa0735d63e3c1cc", "is_disabled": 0, "rental_uris": {"android": "https://dc.lft.to/lastmile_qr_scan", "ios": "https://dc.lft.to/lastmile_qr_scan"}, "fusion_lon": 0.0, "lat": 38.917164666666665, "bike_id": "1e59cbad46bf73779aa0735d63e3c1cc", "type": "electric_scooter", "is_reserved": 0, "lon": -77.0279295}, {"fusion_lat": 0.0, "name": "b83c641b5784419d33cc030bb6a2d49b", "is_disabled": 0, "rental_uris": {"android": "https://dc.lft.to/lastmile_qr_scan", "ios": "https://dc.lft.to/lastmile_qr_scan"}, "fusion_lon": 0.0, "lat": 38.885086333333334, "bike_id": "b83c641b5784419d33cc030bb6a2d49b", "type": "electric_scooter", "is_reserved": 0, "lon": -76.99750316666666}, {"fusion_lat": 0.0, "name": "29a8d684055030a62bd0af016806b812", "is_disabled": 0, "rental_uris": {"android": "https://dc.lft.to/lastmile_qr_scan", "ios": "https://dc.lft.to/lastmile_qr_scan"}, "fusion_lon": 0.0, "lat": 38.88451283333333, "bike_id": "29a8d684055030a62bd0af016806b812", "type": "electric_scooter", "is_reserved": 0, "lon": -76.99841466666666}, {"fusion_lat": 0.0, "name": "4e40a5f572a9874db45edb3a5a4ed086", "is_disabled": 0, "rental_uris": {"android": "https://dc.lft.to/lastmile_qr_scan", "ios": "https://dc.lft.to/lastmile_qr_scan"}, "fusion_lon": 0.0, "lat": 38.92445166666667, "bike_id": "4e40a5f572a9874db45edb3a5a4ed086", "type": "electric_scooter", "is_reserved": 0, "lon": -77.03366766666667}, {"fusion_lat": 0.0, "name": "54cd766a27e1e4831f90e509828e4b92", "is_disabled": 0, "rental_uris": {"android": "https://dc.lft.to/lastmile_qr_scan", "ios": "https://dc.lft.to/lastmile_qr_scan"}, "fusion_lon": 0.0, "lat": 38.890321, "bike_id": "54cd766a27e1e4831f90e509828e4b92", "type": "electric_scooter", "is_reserved": 0, "lon": -76.93744466666666}, {"fusion_lat": 0.0, "name": "c1e3e737dd41a1a465568b8ec3ca3a78", "is_disabled": 0, "rental_uris": {"android": "https://dc.lft.to/lastmile_qr_scan", "ios": "https://dc.lft.to/lastmile_qr_scan"}, "fusion_lon": 0.0, "lat": 38.946750333333334, "bike_id": "c1e3e737dd41a1a465568b8ec3ca3a78", "type": "electric_scooter", "is_reserved": 0, "lon": -77.03098133333333}, {"fusion_lat": 0.0, "name": "1c4cee704dcb6d0f6ae244b02422765a", "is_disabled": 0, "rental_uris": {"android": "https://dc.lft.to/lastmile_qr_scan", "ios": "https://dc.lft.to/lastmile_qr_scan"}, "fusion_lon": 0.0, "lat": 38.93096533333333, "bike_id": "1c4cee704dcb6d0f6ae244b02422765a", "type": "electric_scooter", "is_reserved": 0, "lon": -77.02664066666667}, {"fusion_lat": 0.0, "name": "82a87f8ca08d1091d67e435496594e68", "is_disabled": 0, "rental_uris": {"android": "https://dc.lft.to/lastmile_qr_scan", "ios": "https://dc.lft.to/lastmile_qr_scan"}, "fusion_lon": 0.0, "lat": 38.90402, "bike_id": "82a87f8ca08d1091d67e435496594e68", "type": "electric_scooter", "is_reserved": 0, "lon": -77.03192416666667}, {"fusion_lat": 0.0, "name": "70554fa93c76f85d095f7be24bc6693b", "is_disabled": 0, "rental_uris": {"android": "https://dc.lft.to/lastmile_qr_scan", "ios": "https://dc.lft.to/lastmile_qr_scan"}, "fusion_lon": 0.0, "lat": 38.90796483333333, "bike_id": "70554fa93c76f85d095f7be24bc6693b", "type": "electric_scooter", "is_reserved": 0, "lon": -77.04357683333333}, {"fusion_lat": 0.0, "name": "ebb2d58b496ae6569a5178a9924d506d", "is_disabled": 0, "rental_uris": {"android": "https://dc.lft.to/lastmile_qr_scan", "ios": "https://dc.lft.to/lastmile_qr_scan"}, "fusion_lon": 0.0, "lat": 38.9358055, "bike_id": "ebb2d58b496ae6569a5178a9924d506d", "type": "electric_scooter", "is_reserved": 0, "lon": -77.02362166666667}, {"fusion_lat": 0.0, "name": "e314c6175751761ce8aa9ad8e27a4de6", "is_disabled": 0, "rental_uris": {"android": "https://dc.lft.to/lastmile_qr_scan", "ios": "https://dc.lft.to/lastmile_qr_scan"}, "fusion_lon": 0.0, "lat": 38.911036833333334, "bike_id": "e314c6175751761ce8aa9ad8e27a4de6", "type": "electric_scooter", "is_reserved": 0, "lon": -77.01153833333333}, {"fusion_lat": 0.0, "name": "f0c26584e12da6dcb5740b5d206c630c", "is_disabled": 0, "rental_uris": {"android": "https://dc.lft.to/lastmile_qr_scan", "ios": "https://dc.lft.to/lastmile_qr_scan"}, "fusion_lon": 0.0, "lat": 38.95704116666667, "bike_id": "f0c26584e12da6dcb5740b5d206c630c", "type": "electric_scooter", "is_reserved": 0, "lon": -77.024095}, {"fusion_lat": 0.0, "name": "a5d69273004ea72c250a73770efd0216", "is_disabled": 0, "rental_uris": {"android": "https://dc.lft.to/lastmile_qr_scan", "ios": "https://dc.lft.to/lastmile_qr_scan"}, "fusion_lon": 0.0, "lat": 38.92997316666667, "bike_id": "a5d69273004ea72c250a73770efd0216", "type": "electric_scooter", "is_reserved": 0, "lon": -77.03234916666666}, {"fusion_lat": 0.0, "name": "9918dade2779155b5433e05dfd53e2b8", "is_disabled": 0, "rental_uris": {"android": "https://dc.lft.to/lastmile_qr_scan", "ios": "https://dc.lft.to/lastmile_qr_scan"}, "fusion_lon": 0.0, "lat": 38.92061833333333, "bike_id": "9918dade2779155b5433e05dfd53e2b8", "type": "electric_scooter", "is_reserved": 0, "lon": -77.03199733333334}, {"fusion_lat": 0.0, "name": "b10b9b138acc1ff12b5e72670b7f4384", "is_disabled": 0, "rental_uris": {"android": "https://dc.lft.to/lastmile_qr_scan", "ios": "https://dc.lft.to/lastmile_qr_scan"}, "fusion_lon": 0.0, "lat": 38.931894166666666, "bike_id": "b10b9b138acc1ff12b5e72670b7f4384", "type": "electric_scooter", "is_reserved": 0, "lon": -77.0429865}, {"fusion_lat": 0.0, "name": "918fd8e6b3633498e48df78fafb47c6a", "is_disabled": 0, "rental_uris": {"android": "https://dc.lft.to/lastmile_qr_scan", "ios": "https://dc.lft.to/lastmile_qr_scan"}, "fusion_lon": 0.0, "lat": 38.90030616666667, "bike_id": "918fd8e6b3633498e48df78fafb47c6a", "type": "electric_scooter", "is_reserved": 0, "lon": -76.99135583333333}, {"fusion_lat": 0.0, "name": "1eab396c32d752ed483a3c596ca33487", "is_disabled": 0, "rental_uris": {"android": "https://dc.lft.to/lastmile_qr_scan", "ios": "https://dc.lft.to/lastmile_qr_scan"}, "fusion_lon": 0.0, "lat": 38.94702633333333, "bike_id": "1eab396c32d752ed483a3c596ca33487", "type": "electric_scooter", "is_reserved": 0, "lon": -77.01948183333333}, {"fusion_lat": 0.0, "name": "c41b4ce6169ce80c0d098c438bebe3e8", "is_disabled": 0, "rental_uris": {"android": "https://dc.lft.to/lastmile_qr_scan", "ios": "https://dc.lft.to/lastmile_qr_scan"}, "fusion_lon": 0.0, "lat": 38.892162, "bike_id": "c41b4ce6169ce80c0d098c438bebe3e8", "type": "electric_scooter", "is_reserved": 0, "lon": -77.045089}, {"fusion_lat": 0.0, "name": "e527d811f7aabfa30dd1c2a3bfc5f4a0", "is_disabled": 0, "rental_uris": {"android": "https://dc.lft.to/lastmile_qr_scan", "ios": "https://dc.lft.to/lastmile_qr_scan"}, "fusion_lon": 0.0, "lat": 38.919116833333334, "bike_id": "e527d811f7aabfa30dd1c2a3bfc5f4a0", "type": "electric_scooter", "is_reserved": 0, "lon": -77.026163}, {"fusion_lat": 0.0, "name": "6f0fff62fe6dc8c6e6d4f1d21ae3311f", "is_disabled": 0, "rental_uris": {"android": "https://dc.lft.to/lastmile_qr_scan", "ios": "https://dc.lft.to/lastmile_qr_scan"}, "fusion_lon": 0.0, "lat": 38.9138145, "bike_id": "6f0fff62fe6dc8c6e6d4f1d21ae3311f", "type": "electric_scooter", "is_reserved": 0, "lon": -77.0180185}, {"fusion_lat": 0.0, "name": "0353b6e1017806b1ecd2ae951e9911a0", "is_disabled": 0, "rental_uris": {"android": "https://dc.lft.to/lastmile_qr_scan", "ios": "https://dc.lft.to/lastmile_qr_scan"}, "fusion_lon": 0.0, "lat": 38.9069565, "bike_id": "0353b6e1017806b1ecd2ae951e9911a0", "type": "electric_scooter", "is_reserved": 0, "lon": -77.03732866666667}, {"fusion_lat": 0.0, "name": "b2364033c38b3c512afa1903af3a24e2", "is_disabled": 0, "rental_uris": {"android": "https://dc.lft.to/lastmile_qr_scan", "ios": "https://dc.lft.to/lastmile_qr_scan"}, "fusion_lon": 0.0, "lat": 38.929753833333336, "bike_id": "b2364033c38b3c512afa1903af3a24e2", "type": "electric_scooter", "is_reserved": 0, "lon": -77.04191933333334}, {"fusion_lat": 0.0, "name": "4406faedf2f26b8a34a437982803f1f7", "is_disabled": 0, "rental_uris": {"android": "https://dc.lft.to/lastmile_qr_scan", "ios": "https://dc.lft.to/lastmile_qr_scan"}, "fusion_lon": 0.0, "lat": 38.924655333333334, "bike_id": "4406faedf2f26b8a34a437982803f1f7", "type": "electric_scooter", "is_reserved": 0, "lon": -77.08026616666666}, {"fusion_lat": 0.0, "name": "5714e982734125a193d521918c75afd3", "is_disabled": 0, "rental_uris": {"android": "https://dc.lft.to/lastmile_qr_scan", "ios": "https://dc.lft.to/lastmile_qr_scan"}, "fusion_lon": 0.0, "lat": 38.9072695, "bike_id": "5714e982734125a193d521918c75afd3", "type": "electric_scooter", "is_reserved": 0, "lon": -77.01091733333334}, {"fusion_lat": 0.0, "name": "fb6af5cdf092b319c9d689f956629d92", "is_disabled": 0, "rental_uris": {"android": "https://dc.lft.to/lastmile_qr_scan", "ios": "https://dc.lft.to/lastmile_qr_scan"}, "fusion_lon": 0.0, "lat": 38.87928516666667, "bike_id": "fb6af5cdf092b319c9d689f956629d92", "type": "electric_scooter", "is_reserved": 0, "lon": -77.00409533333334}, {"fusion_lat": 0.0, "name": "a0892a441f7c33483e54a8a0c730fd7b", "is_disabled": 0, "rental_uris": {"android": "https://dc.lft.to/lastmile_qr_scan", "ios": "https://dc.lft.to/lastmile_qr_scan"}, "fusion_lon": 0.0, "lat": 38.89253733333334, "bike_id": "a0892a441f7c33483e54a8a0c730fd7b", "type": "electric_bike", "is_reserved": 0, "lon": -76.95117666666667}, {"fusion_lat": 0.0, "name": "412b6e36bfd0f83f7db0b696088c4346", "is_disabled": 0, "rental_uris": {"android": "https://dc.lft.to/lastmile_qr_scan", "ios": "https://dc.lft.to/lastmile_qr_scan"}, "fusion_lon": 0.0, "lat": 38.905273333333334, "bike_id": "412b6e36bfd0f83f7db0b696088c4346", "type": "electric_scooter", "is_reserved": 0, "lon": -77.061014}, {"fusion_lat": 0.0, "name": "a7795947f262c204ca375a6789955fa4", "is_disabled": 0, "rental_uris": {"android": "https://dc.lft.to/lastmile_qr_scan", "ios": "https://dc.lft.to/lastmile_qr_scan"}, "fusion_lon": 0.0, "lat": 38.8922015, "bike_id": "a7795947f262c204ca375a6789955fa4", "type": "electric_scooter", "is_reserved": 0, "lon": -77.045049}, {"fusion_lat": 0.0, "name": "44c1cdba7556898f943f625addc0d087", "is_disabled": 0, "rental_uris": {"android": "https://dc.lft.to/lastmile_qr_scan", "ios": "https://dc.lft.to/lastmile_qr_scan"}, "fusion_lon": 0.0, "lat": 38.9525245, "bike_id": "44c1cdba7556898f943f625addc0d087", "type": "electric_scooter", "is_reserved": 0, "lon": -77.02387283333333}, {"fusion_lat": 0.0, "name": "d658b7f93c442c7c7b908dc5aa6ac659", "is_disabled": 0, "rental_uris": {"android": "https://dc.lft.to/lastmile_qr_scan", "ios": "https://dc.lft.to/lastmile_qr_scan"}, "fusion_lon": 0.0, "lat": 38.8850785, "bike_id": "d658b7f93c442c7c7b908dc5aa6ac659", "type": "electric_scooter", "is_reserved": 0, "lon": -76.997513}, {"fusion_lat": 0.0, "name": "d2e90fe655204e22a0406e1b0cb8ebc9", "is_disabled": 0, "rental_uris": {"android": "https://dc.lft.to/lastmile_qr_scan", "ios": "https://dc.lft.to/lastmile_qr_scan"}, "fusion_lon": 0.0, "lat": 38.9267805, "bike_id": "d2e90fe655204e22a0406e1b0cb8ebc9", "type": "electric_scooter", "is_reserved": 0, "lon": -77.03097966666667}, {"fusion_lat": 0.0, "name": "cf93dd892d4d6deabfe877a984104686", "is_disabled": 0, "rental_uris": {"android": "https://dc.lft.to/lastmile_qr_scan", "ios": "https://dc.lft.to/lastmile_qr_scan"}, "fusion_lon": 0.0, "lat": 38.89178966666667, "bike_id": "cf93dd892d4d6deabfe877a984104686", "type": "electric_scooter", "is_reserved": 0, "lon": -77.02174}, {"fusion_lat": 0.0, "name": "2106be01dd9088d12db75c1f61e89c59", "is_disabled": 0, "rental_uris": {"android": "https://dc.lft.to/lastmile_qr_scan", "ios": "https://dc.lft.to/lastmile_qr_scan"}, "fusion_lon": 0.0, "lat": 38.931847, "bike_id": "2106be01dd9088d12db75c1f61e89c59", "type": "electric_scooter", "is_reserved": 0, "lon": -77.0196555}, {"fusion_lat": 0.0, "name": "4c8eb904a9f5f273ebd1c2b5e1cf746a", "is_disabled": 0, "rental_uris": {"android": "https://dc.lft.to/lastmile_qr_scan", "ios": "https://dc.lft.to/lastmile_qr_scan"}, "fusion_lon": 0.0, "lat": 38.92740383333334, "bike_id": "4c8eb904a9f5f273ebd1c2b5e1cf746a", "type": "electric_bike", "is_reserved": 0, "lon": -77.02497233333334}, {"fusion_lat": 0.0, "name": "84e890cdebe6c7b1e1a7049b6161cebe", "is_disabled": 0, "rental_uris": {"android": "https://dc.lft.to/lastmile_qr_scan", "ios": "https://dc.lft.to/lastmile_qr_scan"}, "fusion_lon": 0.0, "lat": 38.916201, "bike_id": "84e890cdebe6c7b1e1a7049b6161cebe", "type": "electric_scooter", "is_reserved": 0, "lon": -77.02298216666667}, {"fusion_lat": 0.0, "name": "b4d3b4edb1c9cbc54a0af7681c7c07ac", "is_disabled": 0, "rental_uris": {"android": "https://dc.lft.to/lastmile_qr_scan", "ios": "https://dc.lft.to/lastmile_qr_scan"}, "fusion_lon": 0.0, "lat": 38.953104, "bike_id": "b4d3b4edb1c9cbc54a0af7681c7c07ac", "type": "electric_scooter", "is_reserved": 0, "lon": -77.02249916666666}, {"fusion_lat": 0.0, "name": "3ab6d6d47055d24924ebb16c8a0f890b", "is_disabled": 0, "rental_uris": {"android": "https://dc.lft.to/lastmile_qr_scan", "ios": "https://dc.lft.to/lastmile_qr_scan"}, "fusion_lon": 0.0, "lat": 38.855079333333336, "bike_id": "3ab6d6d47055d24924ebb16c8a0f890b", "type": "electric_scooter", "is_reserved": 0, "lon": -76.96535633333333}, {"fusion_lat": 0.0, "name": "3eed076d54839c99bf568ce512d488a4", "is_disabled": 0, "rental_uris": {"android": "https://dc.lft.to/lastmile_qr_scan", "ios": "https://dc.lft.to/lastmile_qr_scan"}, "fusion_lon": 0.0, "lat": 38.93020933333333, "bike_id": "3eed076d54839c99bf568ce512d488a4", "type": "electric_scooter", "is_reserved": 0, "lon": -77.03793216666666}, {"fusion_lat": 0.0, "name": "a7901a6a66bc2da0b473d7525c3f1713", "is_disabled": 0, "rental_uris": {"android": "https://dc.lft.to/lastmile_qr_scan", "ios": "https://dc.lft.to/lastmile_qr_scan"}, "fusion_lon": 0.0, "lat": 38.91711133333333, "bike_id": "a7901a6a66bc2da0b473d7525c3f1713", "type": "electric_scooter", "is_reserved": 0, "lon": -77.03221483333333}, {"fusion_lat": 0.0, "name": "6fcfb4b34c4cbc049196186e7df53df5", "is_disabled": 0, "rental_uris": {"android": "https://dc.lft.to/lastmile_qr_scan", "ios": "https://dc.lft.to/lastmile_qr_scan"}, "fusion_lon": 0.0, "lat": 38.92412016666667, "bike_id": "6fcfb4b34c4cbc049196186e7df53df5", "type": "electric_bike", "is_reserved": 0, "lon": -77.05043716666667}, {"fusion_lat": 0.0, "name": "3e120f7efbe9308bb7333db53703032f", "is_disabled": 0, "rental_uris": {"android": "https://dc.lft.to/lastmile_qr_scan", "ios": "https://dc.lft.to/lastmile_qr_scan"}, "fusion_lon": 0.0, "lat": 38.88505416666667, "bike_id": "3e120f7efbe9308bb7333db53703032f", "type": "electric_scooter", "is_reserved": 0, "lon": -77.000622}, {"fusion_lat": 0.0, "name": "257b0fe77fda515378c2471f40e129d3", "is_disabled": 0, "rental_uris": {"android": "https://dc.lft.to/lastmile_qr_scan", "ios": "https://dc.lft.to/lastmile_qr_scan"}, "fusion_lon": 0.0, "lat": 38.93532316666667, "bike_id": "257b0fe77fda515378c2471f40e129d3", "type": "electric_scooter", "is_reserved": 0, "lon": -77.02353416666666}, {"fusion_lat": 0.0, "name": "c6d3df935b12dcf8170d29c6fb3f2c2f", "is_disabled": 0, "rental_uris": {"android": "https://dc.lft.to/lastmile_qr_scan", "ios": "https://dc.lft.to/lastmile_qr_scan"}, "fusion_lon": 0.0, "lat": 38.921155, "bike_id": "c6d3df935b12dcf8170d29c6fb3f2c2f", "type": "electric_scooter", "is_reserved": 0, "lon": -77.02092033333334}, {"fusion_lat": 0.0, "name": "c58a918fab384493360131c511effa25", "is_disabled": 0, "rental_uris": {"android": "https://dc.lft.to/lastmile_qr_scan", "ios": "https://dc.lft.to/lastmile_qr_scan"}, "fusion_lon": 0.0, "lat": 38.99225883333333, "bike_id": "c58a918fab384493360131c511effa25", "type": "electric_bike", "is_reserved": 0, "lon": -76.94415866666667}, {"fusion_lat": 0.0, "name": "0d0f2b099190738b7c225570e64b7358", "is_disabled": 0, "rental_uris": {"android": "https://dc.lft.to/lastmile_qr_scan", "ios": "https://dc.lft.to/lastmile_qr_scan"}, "fusion_lon": 0.0, "lat": 38.9124565, "bike_id": "0d0f2b099190738b7c225570e64b7358", "type": "electric_scooter", "is_reserved": 0, "lon": -77.00649516666667}, {"fusion_lat": 0.0, "name": "09cb0c44e3db15757643032838cb8b2a", "is_disabled": 0, "rental_uris": {"android": "https://dc.lft.to/lastmile_qr_scan", "ios": "https://dc.lft.to/lastmile_qr_scan"}, "fusion_lon": 0.0, "lat": 38.9056835, "bike_id": "09cb0c44e3db15757643032838cb8b2a", "type": "electric_scooter", "is_reserved": 0, "lon": -77.02100566666667}, {"fusion_lat": 0.0, "name": "90668a1b8b69c279328da397413e2997", "is_disabled": 0, "rental_uris": {"android": "https://dc.lft.to/lastmile_qr_scan", "ios": "https://dc.lft.to/lastmile_qr_scan"}, "fusion_lon": 0.0, "lat": 38.887455833333334, "bike_id": "90668a1b8b69c279328da397413e2997", "type": "electric_scooter", "is_reserved": 0, "lon": -77.0315985}, {"fusion_lat": 0.0, "name": "42fed69cf52fb46216a6382767aaeab2", "is_disabled": 0, "rental_uris": {"android": "https://dc.lft.to/lastmile_qr_scan", "ios": "https://dc.lft.to/lastmile_qr_scan"}, "fusion_lon": 0.0, "lat": 38.90937383333333, "bike_id": "42fed69cf52fb46216a6382767aaeab2", "type": "electric_scooter", "is_reserved": 0, "lon": -77.01844316666667}, {"fusion_lat": 0.0, "name": "45847333c2ed712e38c994af704fdc2f", "is_disabled": 0, "rental_uris": {"android": "https://dc.lft.to/lastmile_qr_scan", "ios": "https://dc.lft.to/lastmile_qr_scan"}, "fusion_lon": 0.0, "lat": 38.906834833333335, "bike_id": "45847333c2ed712e38c994af704fdc2f", "type": "electric_bike", "is_reserved": 0, "lon": -76.94493433333334}, {"fusion_lat": 0.0, "name": "b405ac4a30524461f3c2d59f2db15869", "is_disabled": 0, "rental_uris": {"android": "https://dc.lft.to/lastmile_qr_scan", "ios": "https://dc.lft.to/lastmile_qr_scan"}, "fusion_lon": 0.0, "lat": 38.86913833333333, "bike_id": "b405ac4a30524461f3c2d59f2db15869", "type": "electric_bike", "is_reserved": 0, "lon": -76.9750005}, {"fusion_lat": 0.0, "name": "89f5920cc5849c67b3de42c12a6e0b44", "is_disabled": 0, "rental_uris": {"android": "https://dc.lft.to/lastmile_qr_scan", "ios": "https://dc.lft.to/lastmile_qr_scan"}, "fusion_lon": 0.0, "lat": 38.90570966666667, "bike_id": "89f5920cc5849c67b3de42c12a6e0b44", "type": "electric_scooter", "is_reserved": 0, "lon": -77.02926033333334}, {"fusion_lat": 0.0, "name": "c1f9583993a1f2fd8afdf1526c64a7d9", "is_disabled": 0, "rental_uris": {"android": "https://dc.lft.to/lastmile_qr_scan", "ios": "https://dc.lft.to/lastmile_qr_scan"}, "fusion_lon": 0.0, "lat": 38.887646333333336, "bike_id": "c1f9583993a1f2fd8afdf1526c64a7d9", "type": "electric_scooter", "is_reserved": 0, "lon": -76.97743366666667}, {"fusion_lat": 0.0, "name": "249a99e377ad998b2abe64528f26918a", "is_disabled": 0, "rental_uris": {"android": "https://dc.lft.to/lastmile_qr_scan", "ios": "https://dc.lft.to/lastmile_qr_scan"}, "fusion_lon": 0.0, "lat": 38.918422, "bike_id": "249a99e377ad998b2abe64528f26918a", "type": "electric_scooter", "is_reserved": 0, "lon": -77.03178833333334}, {"fusion_lat": 0.0, "name": "01f7a767b8d8b59f224d175efed09d6a", "is_disabled": 0, "rental_uris": {"android": "https://dc.lft.to/lastmile_qr_scan", "ios": "https://dc.lft.to/lastmile_qr_scan"}, "fusion_lon": 0.0, "lat": 38.937656833333335, "bike_id": "01f7a767b8d8b59f224d175efed09d6a", "type": "electric_scooter", "is_reserved": 0, "lon": -77.03282733333333}, {"fusion_lat": 0.0, "name": "fc9d94e892e750ec5fc2a20e60f210a0", "is_disabled": 0, "rental_uris": {"android": "https://dc.lft.to/lastmile_qr_scan", "ios": "https://dc.lft.to/lastmile_qr_scan"}, "fusion_lon": 0.0, "lat": 38.897665833333335, "bike_id": "fc9d94e892e750ec5fc2a20e60f210a0", "type": "electric_scooter", "is_reserved": 0, "lon": -77.02506066666666}, {"fusion_lat": 0.0, "name": "14abe2122a7f886be03828f6e789365b", "is_disabled": 0, "rental_uris": {"android": "https://dc.lft.to/lastmile_qr_scan", "ios": "https://dc.lft.to/lastmile_qr_scan"}, "fusion_lon": 0.0, "lat": 38.901532, "bike_id": "14abe2122a7f886be03828f6e789365b", "type": "electric_scooter", "is_reserved": 0, "lon": -76.93065783333333}, {"fusion_lat": 0.0, "name": "23695ec4085cc940f104d39acd88cb79", "is_disabled": 0, "rental_uris": {"android": "https://dc.lft.to/lastmile_qr_scan", "ios": "https://dc.lft.to/lastmile_qr_scan"}, "fusion_lon": 0.0, "lat": 38.91698816666667, "bike_id": "23695ec4085cc940f104d39acd88cb79", "type": "electric_scooter", "is_reserved": 0, "lon": -77.02480866666667}, {"fusion_lat": 0.0, "name": "330b8aed493ae1d92ffd4fd369f63090", "is_disabled": 0, "rental_uris": {"android": "https://dc.lft.to/lastmile_qr_scan", "ios": "https://dc.lft.to/lastmile_qr_scan"}, "fusion_lon": 0.0, "lat": 38.9161555, "bike_id": "330b8aed493ae1d92ffd4fd369f63090", "type": "electric_scooter", "is_reserved": 0, "lon": -77.02310316666667}, {"fusion_lat": 0.0, "name": "3e38996280bde2346210fd6a692a4a0f", "is_disabled": 0, "rental_uris": {"android": "https://dc.lft.to/lastmile_qr_scan", "ios": "https://dc.lft.to/lastmile_qr_scan"}, "fusion_lon": 0.0, "lat": 38.85562766666666, "bike_id": "3e38996280bde2346210fd6a692a4a0f", "type": "electric_bike", "is_reserved": 0, "lon": -77.1131555}, {"fusion_lat": 0.0, "name": "7fb8242c33ec0c15761aa175984f64ed", "is_disabled": 0, "rental_uris": {"android": "https://dc.lft.to/lastmile_qr_scan", "ios": "https://dc.lft.to/lastmile_qr_scan"}, "fusion_lon": 0.0, "lat": 38.904505666666665, "bike_id": "7fb8242c33ec0c15761aa175984f64ed", "type": "electric_bike", "is_reserved": 0, "lon": -76.97425316666667}, {"fusion_lat": 0.0, "name": "c127685908942fe511bb43d8ed9dceef", "is_disabled": 0, "rental_uris": {"android": "https://dc.lft.to/lastmile_qr_scan", "ios": "https://dc.lft.to/lastmile_qr_scan"}, "fusion_lon": 0.0, "lat": 38.960696666666664, "bike_id": "c127685908942fe511bb43d8ed9dceef", "type": "electric_scooter", "is_reserved": 0, "lon": -77.00099766666666}, {"fusion_lat": 0.0, "name": "54c5f50a8b477d20d1bb7bd337032c6d", "is_disabled": 0, "rental_uris": {"android": "https://dc.lft.to/lastmile_qr_scan", "ios": "https://dc.lft.to/lastmile_qr_scan"}, "fusion_lon": 0.0, "lat": 38.90504266666667, "bike_id": "54c5f50a8b477d20d1bb7bd337032c6d", "type": "electric_scooter", "is_reserved": 0, "lon": -77.0295055}, {"fusion_lat": 0.0, "name": "5238ba9574840adfe841bf84028dcbdc", "is_disabled": 0, "rental_uris": {"android": "https://dc.lft.to/lastmile_qr_scan", "ios": "https://dc.lft.to/lastmile_qr_scan"}, "fusion_lon": 0.0, "lat": 38.91033266666667, "bike_id": "5238ba9574840adfe841bf84028dcbdc", "type": "electric_scooter", "is_reserved": 0, "lon": -77.0128485}, {"fusion_lat": 0.0, "name": "108481f2f580cc9f5f4d6a61f0fcce75", "is_disabled": 0, "rental_uris": {"android": "https://dc.lft.to/lastmile_qr_scan", "ios": "https://dc.lft.to/lastmile_qr_scan"}, "fusion_lon": 0.0, "lat": 38.89648183333333, "bike_id": "108481f2f580cc9f5f4d6a61f0fcce75", "type": "electric_scooter", "is_reserved": 0, "lon": -77.03209866666667}, {"fusion_lat": 0.0, "name": "5e1063e01949fddaf585d3d07f5e8ee8", "is_disabled": 0, "rental_uris": {"android": "https://dc.lft.to/lastmile_qr_scan", "ios": "https://dc.lft.to/lastmile_qr_scan"}, "fusion_lon": 0.0, "lat": 38.898394333333336, "bike_id": "5e1063e01949fddaf585d3d07f5e8ee8", "type": "electric_bike", "is_reserved": 0, "lon": -77.02469566666667}, {"fusion_lat": 0.0, "name": "c3e6cbedc0e8ed1d13c50e04cbce7a2e", "is_disabled": 0, "rental_uris": {"android": "https://dc.lft.to/lastmile_qr_scan", "ios": "https://dc.lft.to/lastmile_qr_scan"}, "fusion_lon": 0.0, "lat": 38.89219216666667, "bike_id": "c3e6cbedc0e8ed1d13c50e04cbce7a2e", "type": "electric_scooter", "is_reserved": 0, "lon": -77.043754}, {"fusion_lat": 0.0, "name": "fcd386a5c061bc455e68e4f599a3882c", "is_disabled": 0, "rental_uris": {"android": "https://dc.lft.to/lastmile_qr_scan", "ios": "https://dc.lft.to/lastmile_qr_scan"}, "fusion_lon": 0.0, "lat": 38.89724866666667, "bike_id": "fcd386a5c061bc455e68e4f599a3882c", "type": "electric_scooter", "is_reserved": 0, "lon": -76.94703516666667}, {"fusion_lat": 0.0, "name": "eeb466ba15dd46c4994a616f2719699c", "is_disabled": 0, "rental_uris": {"android": "https://dc.lft.to/lastmile_qr_scan", "ios": "https://dc.lft.to/lastmile_qr_scan"}, "fusion_lon": 0.0, "lat": 38.96665616666667, "bike_id": "eeb466ba15dd46c4994a616f2719699c", "type": "electric_scooter", "is_reserved": 0, "lon": -77.0254815}, {"fusion_lat": 0.0, "name": "e020d8f1d8cfbdf25c2d8f85d686e265", "is_disabled": 0, "rental_uris": {"android": "https://dc.lft.to/lastmile_qr_scan", "ios": "https://dc.lft.to/lastmile_qr_scan"}, "fusion_lon": 0.0, "lat": 38.92274466666667, "bike_id": "e020d8f1d8cfbdf25c2d8f85d686e265", "type": "electric_scooter", "is_reserved": 0, "lon": -77.03687233333333}, {"fusion_lat": 0.0, "name": "620f4dbff8b6297ef327460b26d8e61f", "is_disabled": 0, "rental_uris": {"android": "https://dc.lft.to/lastmile_qr_scan", "ios": "https://dc.lft.to/lastmile_qr_scan"}, "fusion_lon": 0.0, "lat": 38.912662, "bike_id": "620f4dbff8b6297ef327460b26d8e61f", "type": "electric_scooter", "is_reserved": 0, "lon": -77.044655}, {"fusion_lat": 0.0, "name": "d401e160f1b1887ec9105308ef5cd900", "is_disabled": 0, "rental_uris": {"android": "https://dc.lft.to/lastmile_qr_scan", "ios": "https://dc.lft.to/lastmile_qr_scan"}, "fusion_lon": 0.0, "lat": 38.9363665, "bike_id": "d401e160f1b1887ec9105308ef5cd900", "type": "electric_scooter", "is_reserved": 0, "lon": -77.036776}, {"fusion_lat": 0.0, "name": "b9293bdb222b4617699dc9318007e038", "is_disabled": 0, "rental_uris": {"android": "https://dc.lft.to/lastmile_qr_scan", "ios": "https://dc.lft.to/lastmile_qr_scan"}, "fusion_lon": 0.0, "lat": 38.91319716666667, "bike_id": "b9293bdb222b4617699dc9318007e038", "type": "electric_scooter", "is_reserved": 0, "lon": -77.03654883333333}, {"fusion_lat": 0.0, "name": "0b500f5c772109d0ac430ea5c79eb59a", "is_disabled": 0, "rental_uris": {"android": "https://dc.lft.to/lastmile_qr_scan", "ios": "https://dc.lft.to/lastmile_qr_scan"}, "fusion_lon": 0.0, "lat": 38.905883, "bike_id": "0b500f5c772109d0ac430ea5c79eb59a", "type": "electric_scooter", "is_reserved": 0, "lon": -77.00612433333333}, {"fusion_lat": 0.0, "name": "d70b84d74314674dd8aa73d69ea63022", "is_disabled": 0, "rental_uris": {"android": "https://dc.lft.to/lastmile_qr_scan", "ios": "https://dc.lft.to/lastmile_qr_scan"}, "fusion_lon": 0.0, "lat": 38.903968666666664, "bike_id": "d70b84d74314674dd8aa73d69ea63022", "type": "electric_scooter", "is_reserved": 0, "lon": -77.005775}, {"fusion_lat": 0.0, "name": "00004d19acc427073e2e52b498623ba7", "is_disabled": 0, "rental_uris": {"android": "https://dc.lft.to/lastmile_qr_scan", "ios": "https://dc.lft.to/lastmile_qr_scan"}, "fusion_lon": 0.0, "lat": 38.89730333333333, "bike_id": "00004d19acc427073e2e52b498623ba7", "type": "electric_scooter", "is_reserved": 0, "lon": -77.04542383333333}, {"fusion_lat": 0.0, "name": "990d887df79d6d722deb60cce87f88d9", "is_disabled": 0, "rental_uris": {"android": "https://dc.lft.to/lastmile_qr_scan", "ios": "https://dc.lft.to/lastmile_qr_scan"}, "fusion_lon": 0.0, "lat": 38.90009933333333, "bike_id": "990d887df79d6d722deb60cce87f88d9", "type": "electric_scooter", "is_reserved": 0, "lon": -77.0199735}, {"fusion_lat": 0.0, "name": "adc169a73b2f3850103ff8c14125aeba", "is_disabled": 0, "rental_uris": {"android": "https://dc.lft.to/lastmile_qr_scan", "ios": "https://dc.lft.to/lastmile_qr_scan"}, "fusion_lon": 0.0, "lat": 38.8806235, "bike_id": "adc169a73b2f3850103ff8c14125aeba", "type": "electric_scooter", "is_reserved": 0, "lon": -76.9849985}, {"fusion_lat": 0.0, "name": "9ba963fc6be9ceea214b31b2c6456ae9", "is_disabled": 0, "rental_uris": {"android": "https://dc.lft.to/lastmile_qr_scan", "ios": "https://dc.lft.to/lastmile_qr_scan"}, "fusion_lon": 0.0, "lat": 38.92622216666667, "bike_id": "9ba963fc6be9ceea214b31b2c6456ae9", "type": "electric_scooter", "is_reserved": 0, "lon": -77.04324333333334}, {"fusion_lat": 0.0, "name": "67d1251de195743a1c8032891c35b1c9", "is_disabled": 0, "rental_uris": {"android": "https://dc.lft.to/lastmile_qr_scan", "ios": "https://dc.lft.to/lastmile_qr_scan"}, "fusion_lon": 0.0, "lat": 38.93842, "bike_id": "67d1251de195743a1c8032891c35b1c9", "type": "electric_scooter", "is_reserved": 0, "lon": -77.06251366666666}, {"fusion_lat": 0.0, "name": "5cf7e97f19abf95612ea6ed0fc9dcbca", "is_disabled": 0, "rental_uris": {"android": "https://dc.lft.to/lastmile_qr_scan", "ios": "https://dc.lft.to/lastmile_qr_scan"}, "fusion_lon": 0.0, "lat": 38.8969725, "bike_id": "5cf7e97f19abf95612ea6ed0fc9dcbca", "type": "electric_scooter", "is_reserved": 0, "lon": -77.02394116666666}, {"fusion_lat": 0.0, "name": "04a2067bf49957da1231e12e81661735", "is_disabled": 0, "rental_uris": {"android": "https://dc.lft.to/lastmile_qr_scan", "ios": "https://dc.lft.to/lastmile_qr_scan"}, "fusion_lon": 0.0, "lat": 38.90025966666666, "bike_id": "04a2067bf49957da1231e12e81661735", "type": "electric_scooter", "is_reserved": 0, "lon": -77.0002885}, {"fusion_lat": 0.0, "name": "8e990b7d88792e5ca5f2d33046640d63", "is_disabled": 0, "rental_uris": {"android": "https://dc.lft.to/lastmile_qr_scan", "ios": "https://dc.lft.to/lastmile_qr_scan"}, "fusion_lon": 0.0, "lat": 38.92001783333333, "bike_id": "8e990b7d88792e5ca5f2d33046640d63", "type": "electric_scooter", "is_reserved": 0, "lon": -77.0713625}, {"fusion_lat": 0.0, "name": "ce77062c6b06fc0efdde9c9861bf393d", "is_disabled": 0, "rental_uris": {"android": "https://dc.lft.to/lastmile_qr_scan", "ios": "https://dc.lft.to/lastmile_qr_scan"}, "fusion_lon": 0.0, "lat": 38.91992966666667, "bike_id": "ce77062c6b06fc0efdde9c9861bf393d", "type": "electric_scooter", "is_reserved": 0, "lon": -77.0328455}, {"fusion_lat": 0.0, "name": "ee889a2295a9434f19ece13b9ecd7940", "is_disabled": 0, "rental_uris": {"android": "https://dc.lft.to/lastmile_qr_scan", "ios": "https://dc.lft.to/lastmile_qr_scan"}, "fusion_lon": 0.0, "lat": 38.9666845, "bike_id": "ee889a2295a9434f19ece13b9ecd7940", "type": "electric_bike", "is_reserved": 0, "lon": -76.9744335}, {"fusion_lat": 0.0, "name": "539e4e1f1a1b73f430ba3ca1cc5613f0", "is_disabled": 0, "rental_uris": {"android": "https://dc.lft.to/lastmile_qr_scan", "ios": "https://dc.lft.to/lastmile_qr_scan"}, "fusion_lon": 0.0, "lat": 38.929876666666665, "bike_id": "539e4e1f1a1b73f430ba3ca1cc5613f0", "type": "electric_scooter", "is_reserved": 0, "lon": -77.032341}, {"fusion_lat": 0.0, "name": "b1c3db7c06726efcbd79caf577ed4734", "is_disabled": 0, "rental_uris": {"android": "https://dc.lft.to/lastmile_qr_scan", "ios": "https://dc.lft.to/lastmile_qr_scan"}, "fusion_lon": 0.0, "lat": 38.91600866666667, "bike_id": "b1c3db7c06726efcbd79caf577ed4734", "type": "electric_scooter", "is_reserved": 0, "lon": -77.04908333333333}, {"fusion_lat": 0.0, "name": "68bb6a5e1d40035e656142a1bc1c38b3", "is_disabled": 0, "rental_uris": {"android": "https://dc.lft.to/lastmile_qr_scan", "ios": "https://dc.lft.to/lastmile_qr_scan"}, "fusion_lon": 0.0, "lat": 38.840851, "bike_id": "68bb6a5e1d40035e656142a1bc1c38b3", "type": "electric_bike", "is_reserved": 0, "lon": -76.97028916666666}, {"fusion_lat": 0.0, "name": "34b32b94f89f0811734d051781c77a0a", "is_disabled": 0, "rental_uris": {"android": "https://dc.lft.to/lastmile_qr_scan", "ios": "https://dc.lft.to/lastmile_qr_scan"}, "fusion_lon": 0.0, "lat": 38.9182995, "bike_id": "34b32b94f89f0811734d051781c77a0a", "type": "electric_scooter", "is_reserved": 0, "lon": -77.03172933333333}, {"fusion_lat": 0.0, "name": "a38951a75c80956a0f5b0616998e8dad", "is_disabled": 0, "rental_uris": {"android": "https://dc.lft.to/lastmile_qr_scan", "ios": "https://dc.lft.to/lastmile_qr_scan"}, "fusion_lon": 0.0, "lat": 38.931168166666666, "bike_id": "a38951a75c80956a0f5b0616998e8dad", "type": "electric_scooter", "is_reserved": 0, "lon": -77.02101133333333}, {"fusion_lat": 0.0, "name": "9abf4f9d7d37efb68dd5ca2c577b97da", "is_disabled": 0, "rental_uris": {"android": "https://dc.lft.to/lastmile_qr_scan", "ios": "https://dc.lft.to/lastmile_qr_scan"}, "fusion_lon": 0.0, "lat": 38.93250966666667, "bike_id": "9abf4f9d7d37efb68dd5ca2c577b97da", "type": "electric_scooter", "is_reserved": 0, "lon": -77.04005833333333}, {"fusion_lat": 0.0, "name": "fc3c0ca7ccae88b8dae7aa521f8f72cd", "is_disabled": 0, "rental_uris": {"android": "https://dc.lft.to/lastmile_qr_scan", "ios": "https://dc.lft.to/lastmile_qr_scan"}, "fusion_lon": 0.0, "lat": 38.9034605, "bike_id": "fc3c0ca7ccae88b8dae7aa521f8f72cd", "type": "electric_scooter", "is_reserved": 0, "lon": -77.03508566666666}, {"fusion_lat": 0.0, "name": "8a7e1cb71e895e7bcd8afeb6145c5b10", "is_disabled": 0, "rental_uris": {"android": "https://dc.lft.to/lastmile_qr_scan", "ios": "https://dc.lft.to/lastmile_qr_scan"}, "fusion_lon": 0.0, "lat": 38.914042333333335, "bike_id": "8a7e1cb71e895e7bcd8afeb6145c5b10", "type": "electric_scooter", "is_reserved": 0, "lon": -77.04565516666666}, {"fusion_lat": 0.0, "name": "e486f59b6ac3705769519c9c8d775a46", "is_disabled": 0, "rental_uris": {"android": "https://dc.lft.to/lastmile_qr_scan", "ios": "https://dc.lft.to/lastmile_qr_scan"}, "fusion_lon": 0.0, "lat": 38.922603, "bike_id": "e486f59b6ac3705769519c9c8d775a46", "type": "electric_scooter", "is_reserved": 0, "lon": -77.074849}, {"fusion_lat": 0.0, "name": "73f8bc22c661d748d5a2ba61fe298e7a", "is_disabled": 0, "rental_uris": {"android": "https://dc.lft.to/lastmile_qr_scan", "ios": "https://dc.lft.to/lastmile_qr_scan"}, "fusion_lon": 0.0, "lat": 38.94270733333333, "bike_id": "73f8bc22c661d748d5a2ba61fe298e7a", "type": "electric_bike", "is_reserved": 0, "lon": -76.99456816666667}, {"fusion_lat": 0.0, "name": "ac2ea0d873ec2dcaa6fb2f2b9d0b14c5", "is_disabled": 0, "rental_uris": {"android": "https://dc.lft.to/lastmile_qr_scan", "ios": "https://dc.lft.to/lastmile_qr_scan"}, "fusion_lon": 0.0, "lat": 38.9119365, "bike_id": "ac2ea0d873ec2dcaa6fb2f2b9d0b14c5", "type": "electric_scooter", "is_reserved": 0, "lon": -77.04544583333333}, {"fusion_lat": 0.0, "name": "f79ec418a7c7391aff1bbbdc19ded030", "is_disabled": 0, "rental_uris": {"android": "https://dc.lft.to/lastmile_qr_scan", "ios": "https://dc.lft.to/lastmile_qr_scan"}, "fusion_lon": 0.0, "lat": 38.89899883333333, "bike_id": "f79ec418a7c7391aff1bbbdc19ded030", "type": "electric_scooter", "is_reserved": 0, "lon": -77.01516933333333}, {"fusion_lat": 0.0, "name": "8fc610c2168975f4285c1ea6212d2f3d", "is_disabled": 0, "rental_uris": {"android": "https://dc.lft.to/lastmile_qr_scan", "ios": "https://dc.lft.to/lastmile_qr_scan"}, "fusion_lon": 0.0, "lat": 38.866215, "bike_id": "8fc610c2168975f4285c1ea6212d2f3d", "type": "electric_bike", "is_reserved": 0, "lon": -76.94573033333333}, {"fusion_lat": 0.0, "name": "c682de3b507147c4d79f52cf3fcce27d", "is_disabled": 0, "rental_uris": {"android": "https://dc.lft.to/lastmile_qr_scan", "ios": "https://dc.lft.to/lastmile_qr_scan"}, "fusion_lon": 0.0, "lat": 38.961331333333334, "bike_id": "c682de3b507147c4d79f52cf3fcce27d", "type": "electric_bike", "is_reserved": 0, "lon": -77.08494983333334}, {"fusion_lat": 0.0, "name": "cab1b5c37857304c182469688500bb4b", "is_disabled": 0, "rental_uris": {"android": "https://dc.lft.to/lastmile_qr_scan", "ios": "https://dc.lft.to/lastmile_qr_scan"}, "fusion_lon": 0.0, "lat": 38.91942066666667, "bike_id": "cab1b5c37857304c182469688500bb4b", "type": "electric_scooter", "is_reserved": 0, "lon": -77.025054}, {"fusion_lat": 0.0, "name": "5e84ce5e08e8af1185655fc4d0f4cbb3", "is_disabled": 0, "rental_uris": {"android": "https://dc.lft.to/lastmile_qr_scan", "ios": "https://dc.lft.to/lastmile_qr_scan"}, "fusion_lon": 0.0, "lat": 38.9037895, "bike_id": "5e84ce5e08e8af1185655fc4d0f4cbb3", "type": "electric_scooter", "is_reserved": 0, "lon": -77.04511533333333}, {"fusion_lat": 0.0, "name": "974f8f7487f729978fad5428f68aab2d", "is_disabled": 0, "rental_uris": {"android": "https://dc.lft.to/lastmile_qr_scan", "ios": "https://dc.lft.to/lastmile_qr_scan"}, "fusion_lon": 0.0, "lat": 38.91594533333333, "bike_id": "974f8f7487f729978fad5428f68aab2d", "type": "electric_scooter", "is_reserved": 0, "lon": -77.04343366666667}, {"fusion_lat": 0.0, "name": "f0daea5713fcb1c3b238be51cb448499", "is_disabled": 0, "rental_uris": {"android": "https://dc.lft.to/lastmile_qr_scan", "ios": "https://dc.lft.to/lastmile_qr_scan"}, "fusion_lon": 0.0, "lat": 38.88746183333333, "bike_id": "f0daea5713fcb1c3b238be51cb448499", "type": "electric_scooter", "is_reserved": 0, "lon": -77.025776}, {"fusion_lat": 0.0, "name": "d4698b1fd2fac4548421d389e473feb8", "is_disabled": 0, "rental_uris": {"android": "https://dc.lft.to/lastmile_qr_scan", "ios": "https://dc.lft.to/lastmile_qr_scan"}, "fusion_lon": 0.0, "lat": 38.91857266666667, "bike_id": "d4698b1fd2fac4548421d389e473feb8", "type": "electric_scooter", "is_reserved": 0, "lon": -76.96552833333334}, {"fusion_lat": 0.0, "name": "1f9cd9b9023df1d2b2d40d55c6f5ea8e", "is_disabled": 0, "rental_uris": {"android": "https://dc.lft.to/lastmile_qr_scan", "ios": "https://dc.lft.to/lastmile_qr_scan"}, "fusion_lon": 0.0, "lat": 38.92154933333333, "bike_id": "1f9cd9b9023df1d2b2d40d55c6f5ea8e", "type": "electric_scooter", "is_reserved": 0, "lon": -77.0434055}, {"fusion_lat": 0.0, "name": "0b002e752034efc62a03d8f4329afbba", "is_disabled": 0, "rental_uris": {"android": "https://dc.lft.to/lastmile_qr_scan", "ios": "https://dc.lft.to/lastmile_qr_scan"}, "fusion_lon": 0.0, "lat": 38.895362166666665, "bike_id": "0b002e752034efc62a03d8f4329afbba", "type": "electric_scooter", "is_reserved": 0, "lon": -77.01132033333333}, {"fusion_lat": 0.0, "name": "d9e4d655ac5e08e7a6f568b37c7cfcc5", "is_disabled": 0, "rental_uris": {"android": "https://dc.lft.to/lastmile_qr_scan", "ios": "https://dc.lft.to/lastmile_qr_scan"}, "fusion_lon": 0.0, "lat": 38.813311166666665, "bike_id": "d9e4d655ac5e08e7a6f568b37c7cfcc5", "type": "electric_bike", "is_reserved": 0, "lon": -77.05096716666667}, {"fusion_lat": 0.0, "name": "a51e13826ed67fa8fd264c7f824ea0b2", "is_disabled": 0, "rental_uris": {"android": "https://dc.lft.to/lastmile_qr_scan", "ios": "https://dc.lft.to/lastmile_qr_scan"}, "fusion_lon": 0.0, "lat": 38.9025915, "bike_id": "a51e13826ed67fa8fd264c7f824ea0b2", "type": "electric_scooter", "is_reserved": 0, "lon": -77.0383565}, {"fusion_lat": 0.0, "name": "1c02b7696ecdfb468b37413313621283", "is_disabled": 0, "rental_uris": {"android": "https://dc.lft.to/lastmile_qr_scan", "ios": "https://dc.lft.to/lastmile_qr_scan"}, "fusion_lon": 0.0, "lat": 38.900033666666666, "bike_id": "1c02b7696ecdfb468b37413313621283", "type": "electric_scooter", "is_reserved": 0, "lon": -77.02931583333333}, {"fusion_lat": 0.0, "name": "e9d61db0a64e4b8b47871c6bde2ff16f", "is_disabled": 0, "rental_uris": {"android": "https://dc.lft.to/lastmile_qr_scan", "ios": "https://dc.lft.to/lastmile_qr_scan"}, "fusion_lon": 0.0, "lat": 38.91039166666667, "bike_id": "e9d61db0a64e4b8b47871c6bde2ff16f", "type": "electric_scooter", "is_reserved": 0, "lon": -77.0128705}, {"fusion_lat": 0.0, "name": "30317c37f47d439de3d3db41a1afcbbb", "is_disabled": 0, "rental_uris": {"android": "https://dc.lft.to/lastmile_qr_scan", "ios": "https://dc.lft.to/lastmile_qr_scan"}, "fusion_lon": 0.0, "lat": 38.94184533333333, "bike_id": "30317c37f47d439de3d3db41a1afcbbb", "type": "electric_scooter", "is_reserved": 0, "lon": -77.02315216666666}, {"fusion_lat": 0.0, "name": "9dfdd7e7d195456a10ef308c2d3abe6e", "is_disabled": 0, "rental_uris": {"android": "https://dc.lft.to/lastmile_qr_scan", "ios": "https://dc.lft.to/lastmile_qr_scan"}, "fusion_lon": 0.0, "lat": 38.9163585, "bike_id": "9dfdd7e7d195456a10ef308c2d3abe6e", "type": "electric_bike", "is_reserved": 0, "lon": -77.04262033333333}, {"fusion_lat": 0.0, "name": "0ddd725bb2e6d9541bc1a1a52f5d6626", "is_disabled": 0, "rental_uris": {"android": "https://dc.lft.to/lastmile_qr_scan", "ios": "https://dc.lft.to/lastmile_qr_scan"}, "fusion_lon": 0.0, "lat": 38.91688583333333, "bike_id": "0ddd725bb2e6d9541bc1a1a52f5d6626", "type": "electric_scooter", "is_reserved": 0, "lon": -77.028819}, {"fusion_lat": 0.0, "name": "3aad24ad448889ba74e4e97d0e9d8dd1", "is_disabled": 0, "rental_uris": {"android": "https://dc.lft.to/lastmile_qr_scan", "ios": "https://dc.lft.to/lastmile_qr_scan"}, "fusion_lon": 0.0, "lat": 38.900294833333334, "bike_id": "3aad24ad448889ba74e4e97d0e9d8dd1", "type": "electric_scooter", "is_reserved": 0, "lon": -76.98851883333333}, {"fusion_lat": 0.0, "name": "0ee1bd8d277ccc4b9421a244f1542198", "is_disabled": 0, "rental_uris": {"android": "https://dc.lft.to/lastmile_qr_scan", "ios": "https://dc.lft.to/lastmile_qr_scan"}, "fusion_lon": 0.0, "lat": 38.904527333333334, "bike_id": "0ee1bd8d277ccc4b9421a244f1542198", "type": "electric_scooter", "is_reserved": 0, "lon": -77.03344933333334}, {"fusion_lat": 0.0, "name": "a27a484eb3d84851c528c4352b826df6", "is_disabled": 0, "rental_uris": {"android": "https://dc.lft.to/lastmile_qr_scan", "ios": "https://dc.lft.to/lastmile_qr_scan"}, "fusion_lon": 0.0, "lat": 38.87638666666667, "bike_id": "a27a484eb3d84851c528c4352b826df6", "type": "electric_scooter", "is_reserved": 0, "lon": -77.00762116666667}, {"fusion_lat": 0.0, "name": "85d56d4aa0a202e8235c9b1824ef3503", "is_disabled": 0, "rental_uris": {"android": "https://dc.lft.to/lastmile_qr_scan", "ios": "https://dc.lft.to/lastmile_qr_scan"}, "fusion_lon": 0.0, "lat": 38.9236475, "bike_id": "85d56d4aa0a202e8235c9b1824ef3503", "type": "electric_scooter", "is_reserved": 0, "lon": -77.02055733333333}, {"fusion_lat": 0.0, "name": "0fdd2467ef6a3d8828ca161ca6d0140b", "is_disabled": 0, "rental_uris": {"android": "https://dc.lft.to/lastmile_qr_scan", "ios": "https://dc.lft.to/lastmile_qr_scan"}, "fusion_lon": 0.0, "lat": 38.90211516666667, "bike_id": "0fdd2467ef6a3d8828ca161ca6d0140b", "type": "electric_scooter", "is_reserved": 0, "lon": -77.051047}, {"fusion_lat": 0.0, "name": "676e7cccf723a9511244e8aeac93885d", "is_disabled": 0, "rental_uris": {"android": "https://dc.lft.to/lastmile_qr_scan", "ios": "https://dc.lft.to/lastmile_qr_scan"}, "fusion_lon": 0.0, "lat": 38.932613, "bike_id": "676e7cccf723a9511244e8aeac93885d", "type": "electric_scooter", "is_reserved": 0, "lon": -77.0389105}, {"fusion_lat": 0.0, "name": "f26f3649e8be3376fab878a4527ab1bb", "is_disabled": 0, "rental_uris": {"android": "https://dc.lft.to/lastmile_qr_scan", "ios": "https://dc.lft.to/lastmile_qr_scan"}, "fusion_lon": 0.0, "lat": 38.907144, "bike_id": "f26f3649e8be3376fab878a4527ab1bb", "type": "electric_scooter", "is_reserved": 0, "lon": -77.02506916666667}, {"fusion_lat": 0.0, "name": "3a798625599e988f49716e6a506853bb", "is_disabled": 0, "rental_uris": {"android": "https://dc.lft.to/lastmile_qr_scan", "ios": "https://dc.lft.to/lastmile_qr_scan"}, "fusion_lon": 0.0, "lat": 38.91268266666667, "bike_id": "3a798625599e988f49716e6a506853bb", "type": "electric_scooter", "is_reserved": 0, "lon": -77.03381383333334}, {"fusion_lat": 0.0, "name": "84d13ed3ff42fc390ef0dc5c2a441939", "is_disabled": 0, "rental_uris": {"android": "https://dc.lft.to/lastmile_qr_scan", "ios": "https://dc.lft.to/lastmile_qr_scan"}, "fusion_lon": 0.0, "lat": 38.912608166666665, "bike_id": "84d13ed3ff42fc390ef0dc5c2a441939", "type": "electric_scooter", "is_reserved": 0, "lon": -77.04927316666667}, {"fusion_lat": 0.0, "name": "c54f00b8ab9b8c0632d696fd200defee", "is_disabled": 0, "rental_uris": {"android": "https://dc.lft.to/lastmile_qr_scan", "ios": "https://dc.lft.to/lastmile_qr_scan"}, "fusion_lon": 0.0, "lat": 38.89230216666667, "bike_id": "c54f00b8ab9b8c0632d696fd200defee", "type": "electric_scooter", "is_reserved": 0, "lon": -77.049999}, {"fusion_lat": 0.0, "name": "dc6a3e47300ad961db929dc361c95017", "is_disabled": 0, "rental_uris": {"android": "https://dc.lft.to/lastmile_qr_scan", "ios": "https://dc.lft.to/lastmile_qr_scan"}, "fusion_lon": 0.0, "lat": 38.913342, "bike_id": "dc6a3e47300ad961db929dc361c95017", "type": "electric_scooter", "is_reserved": 0, "lon": -77.04867733333333}, {"fusion_lat": 0.0, "name": "90d7f842b6486786cb49f62ddac00e64", "is_disabled": 0, "rental_uris": {"android": "https://dc.lft.to/lastmile_qr_scan", "ios": "https://dc.lft.to/lastmile_qr_scan"}, "fusion_lon": 0.0, "lat": 38.922955333333334, "bike_id": "90d7f842b6486786cb49f62ddac00e64", "type": "electric_scooter", "is_reserved": 0, "lon": -77.0425395}, {"fusion_lat": 0.0, "name": "19731e92b29d989a845c3bbf73dc6a87", "is_disabled": 0, "rental_uris": {"android": "https://dc.lft.to/lastmile_qr_scan", "ios": "https://dc.lft.to/lastmile_qr_scan"}, "fusion_lon": 0.0, "lat": 38.92369266666667, "bike_id": "19731e92b29d989a845c3bbf73dc6a87", "type": "electric_scooter", "is_reserved": 0, "lon": -77.0253845}, {"fusion_lat": 0.0, "name": "0078ef324e8c34ae6bf1ecc082f5b4ee", "is_disabled": 0, "rental_uris": {"android": "https://dc.lft.to/lastmile_qr_scan", "ios": "https://dc.lft.to/lastmile_qr_scan"}, "fusion_lon": 0.0, "lat": 38.92867283333333, "bike_id": "0078ef324e8c34ae6bf1ecc082f5b4ee", "type": "electric_scooter", "is_reserved": 0, "lon": -77.03479533333334}, {"fusion_lat": 0.0, "name": "dcd1c113fe7d2a7f07e85308822a7721", "is_disabled": 0, "rental_uris": {"android": "https://dc.lft.to/lastmile_qr_scan", "ios": "https://dc.lft.to/lastmile_qr_scan"}, "fusion_lon": 0.0, "lat": 38.914138666666666, "bike_id": "dcd1c113fe7d2a7f07e85308822a7721", "type": "electric_scooter", "is_reserved": 0, "lon": -77.03147616666666}, {"fusion_lat": 0.0, "name": "e29e8ea0de872b2e4989c3817a49fa48", "is_disabled": 0, "rental_uris": {"android": "https://dc.lft.to/lastmile_qr_scan", "ios": "https://dc.lft.to/lastmile_qr_scan"}, "fusion_lon": 0.0, "lat": 38.93872283333333, "bike_id": "e29e8ea0de872b2e4989c3817a49fa48", "type": "electric_scooter", "is_reserved": 0, "lon": -77.02455283333333}, {"fusion_lat": 0.0, "name": "8c898cff72b9ed1274b7d925ee91883f", "is_disabled": 0, "rental_uris": {"android": "https://dc.lft.to/lastmile_qr_scan", "ios": "https://dc.lft.to/lastmile_qr_scan"}, "fusion_lon": 0.0, "lat": 38.967507, "bike_id": "8c898cff72b9ed1274b7d925ee91883f", "type": "electric_bike", "is_reserved": 0, "lon": -77.03353983333334}, {"fusion_lat": 0.0, "name": "c985467ecd6a655ce8aed1a0435a811c", "is_disabled": 0, "rental_uris": {"android": "https://dc.lft.to/lastmile_qr_scan", "ios": "https://dc.lft.to/lastmile_qr_scan"}, "fusion_lon": 0.0, "lat": 38.915602, "bike_id": "c985467ecd6a655ce8aed1a0435a811c", "type": "electric_scooter", "is_reserved": 0, "lon": -77.031795}, {"fusion_lat": 0.0, "name": "d3659d4b619f056a8c9dff5c88e6bffb", "is_disabled": 0, "rental_uris": {"android": "https://dc.lft.to/lastmile_qr_scan", "ios": "https://dc.lft.to/lastmile_qr_scan"}, "fusion_lon": 0.0, "lat": 38.89342116666667, "bike_id": "d3659d4b619f056a8c9dff5c88e6bffb", "type": "electric_scooter", "is_reserved": 0, "lon": -76.99380966666666}, {"fusion_lat": 0.0, "name": "e3ce4d4cc33bda7d5d1ee3229bafad45", "is_disabled": 0, "rental_uris": {"android": "https://dc.lft.to/lastmile_qr_scan", "ios": "https://dc.lft.to/lastmile_qr_scan"}, "fusion_lon": 0.0, "lat": 38.849092666666664, "bike_id": "e3ce4d4cc33bda7d5d1ee3229bafad45", "type": "electric_bike", "is_reserved": 0, "lon": -77.09979366666667}, {"fusion_lat": 0.0, "name": "beaa36553f73552915fcc6be7d3debac", "is_disabled": 0, "rental_uris": {"android": "https://dc.lft.to/lastmile_qr_scan", "ios": "https://dc.lft.to/lastmile_qr_scan"}, "fusion_lon": 0.0, "lat": 38.8768975, "bike_id": "beaa36553f73552915fcc6be7d3debac", "type": "electric_scooter", "is_reserved": 0, "lon": -77.00733766666667}, {"fusion_lat": 0.0, "name": "d2d50aa67a0dc713313d246125401395", "is_disabled": 0, "rental_uris": {"android": "https://dc.lft.to/lastmile_qr_scan", "ios": "https://dc.lft.to/lastmile_qr_scan"}, "fusion_lon": 0.0, "lat": 38.8651705, "bike_id": "d2d50aa67a0dc713313d246125401395", "type": "electric_bike", "is_reserved": 0, "lon": -76.97334166666667}, {"fusion_lat": 0.0, "name": "8a071894579ade0a06a3b830b75a1579", "is_disabled": 0, "rental_uris": {"android": "https://dc.lft.to/lastmile_qr_scan", "ios": "https://dc.lft.to/lastmile_qr_scan"}, "fusion_lon": 0.0, "lat": 38.933627666666666, "bike_id": "8a071894579ade0a06a3b830b75a1579", "type": "electric_scooter", "is_reserved": 0, "lon": -77.032671}, {"fusion_lat": 0.0, "name": "cbbfa2deb99dac86105e034d90286804", "is_disabled": 0, "rental_uris": {"android": "https://dc.lft.to/lastmile_qr_scan", "ios": "https://dc.lft.to/lastmile_qr_scan"}, "fusion_lon": 0.0, "lat": 38.92653466666667, "bike_id": "cbbfa2deb99dac86105e034d90286804", "type": "electric_scooter", "is_reserved": 0, "lon": -77.03711766666666}, {"fusion_lat": 0.0, "name": "73760272ecf376f62b3856ca8b173afa", "is_disabled": 0, "rental_uris": {"android": "https://dc.lft.to/lastmile_qr_scan", "ios": "https://dc.lft.to/lastmile_qr_scan"}, "fusion_lon": 0.0, "lat": 38.903575833333335, "bike_id": "73760272ecf376f62b3856ca8b173afa", "type": "electric_scooter", "is_reserved": 0, "lon": -77.06268366666667}, {"fusion_lat": 0.0, "name": "39b8041df35efe96f7af7859a94f7b97", "is_disabled": 0, "rental_uris": {"android": "https://dc.lft.to/lastmile_qr_scan", "ios": "https://dc.lft.to/lastmile_qr_scan"}, "fusion_lon": 0.0, "lat": 38.88108733333333, "bike_id": "39b8041df35efe96f7af7859a94f7b97", "type": "electric_scooter", "is_reserved": 0, "lon": -77.01657083333333}, {"fusion_lat": 0.0, "name": "4923ad1867f249846166070cdbda175c", "is_disabled": 0, "rental_uris": {"android": "https://dc.lft.to/lastmile_qr_scan", "ios": "https://dc.lft.to/lastmile_qr_scan"}, "fusion_lon": 0.0, "lat": 38.900265166666664, "bike_id": "4923ad1867f249846166070cdbda175c", "type": "electric_scooter", "is_reserved": 0, "lon": -76.9884875}, {"fusion_lat": 0.0, "name": "52fef891b62176ed1d1a482e2cc15702", "is_disabled": 0, "rental_uris": {"android": "https://dc.lft.to/lastmile_qr_scan", "ios": "https://dc.lft.to/lastmile_qr_scan"}, "fusion_lon": 0.0, "lat": 38.920830333333335, "bike_id": "52fef891b62176ed1d1a482e2cc15702", "type": "electric_scooter", "is_reserved": 0, "lon": -77.00442616666666}, {"fusion_lat": 0.0, "name": "45e22fe0c30d67057d047a4a4efc4c64", "is_disabled": 0, "rental_uris": {"android": "https://dc.lft.to/lastmile_qr_scan", "ios": "https://dc.lft.to/lastmile_qr_scan"}, "fusion_lon": 0.0, "lat": 38.933819, "bike_id": "45e22fe0c30d67057d047a4a4efc4c64", "type": "electric_scooter", "is_reserved": 0, "lon": -77.03876966666667}, {"fusion_lat": 0.0, "name": "76feb203c4740cdf50a223a94915750f", "is_disabled": 0, "rental_uris": {"android": "https://dc.lft.to/lastmile_qr_scan", "ios": "https://dc.lft.to/lastmile_qr_scan"}, "fusion_lon": 0.0, "lat": 38.90038416666667, "bike_id": "76feb203c4740cdf50a223a94915750f", "type": "electric_scooter", "is_reserved": 0, "lon": -76.99737016666667}, {"fusion_lat": 0.0, "name": "af9de8fab0dc8c00909ebbff0676a210", "is_disabled": 0, "rental_uris": {"android": "https://dc.lft.to/lastmile_qr_scan", "ios": "https://dc.lft.to/lastmile_qr_scan"}, "fusion_lon": 0.0, "lat": 38.916207, "bike_id": "af9de8fab0dc8c00909ebbff0676a210", "type": "electric_scooter", "is_reserved": 0, "lon": -77.03638466666666}, {"fusion_lat": 0.0, "name": "06a51bc7529f164bd5027145862f380b", "is_disabled": 0, "rental_uris": {"android": "https://dc.lft.to/lastmile_qr_scan", "ios": "https://dc.lft.to/lastmile_qr_scan"}, "fusion_lon": 0.0, "lat": 38.903856, "bike_id": "06a51bc7529f164bd5027145862f380b", "type": "electric_scooter", "is_reserved": 0, "lon": -77.04611616666666}, {"fusion_lat": 0.0, "name": "1cda95c85220295c97d3d63a164a5790", "is_disabled": 0, "rental_uris": {"android": "https://dc.lft.to/lastmile_qr_scan", "ios": "https://dc.lft.to/lastmile_qr_scan"}, "fusion_lon": 0.0, "lat": 38.874788333333335, "bike_id": "1cda95c85220295c97d3d63a164a5790", "type": "electric_scooter", "is_reserved": 0, "lon": -77.00049916666667}, {"fusion_lat": 0.0, "name": "64a84aa5353f5c6da0160afb1c6c646d", "is_disabled": 0, "rental_uris": {"android": "https://dc.lft.to/lastmile_qr_scan", "ios": "https://dc.lft.to/lastmile_qr_scan"}, "fusion_lon": 0.0, "lat": 38.919664166666664, "bike_id": "64a84aa5353f5c6da0160afb1c6c646d", "type": "electric_scooter", "is_reserved": 0, "lon": -77.03199233333333}, {"fusion_lat": 0.0, "name": "ef1a0d0c09647fdc86d4d604a1537d69", "is_disabled": 0, "rental_uris": {"android": "https://dc.lft.to/lastmile_qr_scan", "ios": "https://dc.lft.to/lastmile_qr_scan"}, "fusion_lon": 0.0, "lat": 38.966281333333335, "bike_id": "ef1a0d0c09647fdc86d4d604a1537d69", "type": "electric_scooter", "is_reserved": 0, "lon": -77.01994716666667}, {"fusion_lat": 0.0, "name": "c4ce85cfa41bd4b1a7ecf45a2695064d", "is_disabled": 0, "rental_uris": {"android": "https://dc.lft.to/lastmile_qr_scan", "ios": "https://dc.lft.to/lastmile_qr_scan"}, "fusion_lon": 0.0, "lat": 38.89698633333333, "bike_id": "c4ce85cfa41bd4b1a7ecf45a2695064d", "type": "electric_scooter", "is_reserved": 0, "lon": -77.04341333333333}, {"fusion_lat": 0.0, "name": "44ce07ec5d687edda668c5fb49933aca", "is_disabled": 0, "rental_uris": {"android": "https://dc.lft.to/lastmile_qr_scan", "ios": "https://dc.lft.to/lastmile_qr_scan"}, "fusion_lon": 0.0, "lat": 38.94162733333334, "bike_id": "44ce07ec5d687edda668c5fb49933aca", "type": "electric_scooter", "is_reserved": 0, "lon": -77.02511833333334}, {"fusion_lat": 0.0, "name": "14b8b5048a626240e3e38de8309b8629", "is_disabled": 0, "rental_uris": {"android": "https://dc.lft.to/lastmile_qr_scan", "ios": "https://dc.lft.to/lastmile_qr_scan"}, "fusion_lon": 0.0, "lat": 38.908316166666665, "bike_id": "14b8b5048a626240e3e38de8309b8629", "type": "electric_scooter", "is_reserved": 0, "lon": -77.04329716666666}, {"fusion_lat": 0.0, "name": "95c467649458d2fe5265e21711c19fdf", "is_disabled": 0, "rental_uris": {"android": "https://dc.lft.to/lastmile_qr_scan", "ios": "https://dc.lft.to/lastmile_qr_scan"}, "fusion_lon": 0.0, "lat": 38.90297, "bike_id": "95c467649458d2fe5265e21711c19fdf", "type": "electric_scooter", "is_reserved": 0, "lon": -76.9925655}, {"fusion_lat": 0.0, "name": "8538685c716c17f274c3c823c7a023d3", "is_disabled": 0, "rental_uris": {"android": "https://dc.lft.to/lastmile_qr_scan", "ios": "https://dc.lft.to/lastmile_qr_scan"}, "fusion_lon": 0.0, "lat": 38.8994045, "bike_id": "8538685c716c17f274c3c823c7a023d3", "type": "electric_scooter", "is_reserved": 0, "lon": -77.053552}, {"fusion_lat": 0.0, "name": "61bf1da194f7bfd2f5d14531a5a799da", "is_disabled": 0, "rental_uris": {"android": "https://dc.lft.to/lastmile_qr_scan", "ios": "https://dc.lft.to/lastmile_qr_scan"}, "fusion_lon": 0.0, "lat": 38.880370166666665, "bike_id": "61bf1da194f7bfd2f5d14531a5a799da", "type": "electric_bike", "is_reserved": 0, "lon": -77.02517733333333}, {"fusion_lat": 0.0, "name": "9fb8c246d08c70a0e7e471cf44b29473", "is_disabled": 0, "rental_uris": {"android": "https://dc.lft.to/lastmile_qr_scan", "ios": "https://dc.lft.to/lastmile_qr_scan"}, "fusion_lon": 0.0, "lat": 38.888064166666666, "bike_id": "9fb8c246d08c70a0e7e471cf44b29473", "type": "electric_scooter", "is_reserved": 0, "lon": -76.98361933333334}, {"fusion_lat": 0.0, "name": "8d9537ca181e18b7e179bebb25e41360", "is_disabled": 0, "rental_uris": {"android": "https://dc.lft.to/lastmile_qr_scan", "ios": "https://dc.lft.to/lastmile_qr_scan"}, "fusion_lon": 0.0, "lat": 38.887425, "bike_id": "8d9537ca181e18b7e179bebb25e41360", "type": "electric_scooter", "is_reserved": 0, "lon": -76.98358083333333}, {"fusion_lat": 0.0, "name": "d3e19ab854ed0833e90cc37165f5dd08", "is_disabled": 0, "rental_uris": {"android": "https://dc.lft.to/lastmile_qr_scan", "ios": "https://dc.lft.to/lastmile_qr_scan"}, "fusion_lon": 0.0, "lat": 38.926858333333335, "bike_id": "d3e19ab854ed0833e90cc37165f5dd08", "type": "electric_scooter", "is_reserved": 0, "lon": -77.03144483333334}, {"fusion_lat": 0.0, "name": "dfd4e45add9c112a49de38738b7f5be8", "is_disabled": 0, "rental_uris": {"android": "https://dc.lft.to/lastmile_qr_scan", "ios": "https://dc.lft.to/lastmile_qr_scan"}, "fusion_lon": 0.0, "lat": 38.919554166666664, "bike_id": "dfd4e45add9c112a49de38738b7f5be8", "type": "electric_scooter", "is_reserved": 0, "lon": -77.02374483333334}, {"fusion_lat": 0.0, "name": "08a552be0376183053b98d6219adc33d", "is_disabled": 0, "rental_uris": {"android": "https://dc.lft.to/lastmile_qr_scan", "ios": "https://dc.lft.to/lastmile_qr_scan"}, "fusion_lon": 0.0, "lat": 38.90384066666667, "bike_id": "08a552be0376183053b98d6219adc33d", "type": "electric_scooter", "is_reserved": 0, "lon": -77.04509983333334}, {"fusion_lat": 0.0, "name": "7676eba5b051ec2e60aec7850cff92f1", "is_disabled": 0, "rental_uris": {"android": "https://dc.lft.to/lastmile_qr_scan", "ios": "https://dc.lft.to/lastmile_qr_scan"}, "fusion_lon": 0.0, "lat": 38.913454, "bike_id": "7676eba5b051ec2e60aec7850cff92f1", "type": "electric_bike", "is_reserved": 0, "lon": -76.98900483333334}, {"fusion_lat": 0.0, "name": "317c79afc9cfa8740bde731a840497c1", "is_disabled": 0, "rental_uris": {"android": "https://dc.lft.to/lastmile_qr_scan", "ios": "https://dc.lft.to/lastmile_qr_scan"}, "fusion_lon": 0.0, "lat": 38.84756766666667, "bike_id": "317c79afc9cfa8740bde731a840497c1", "type": "electric_scooter", "is_reserved": 0, "lon": -76.99500533333334}, {"fusion_lat": 0.0, "name": "db9d0a337c0237df4fe952f89574b947", "is_disabled": 0, "rental_uris": {"android": "https://dc.lft.to/lastmile_qr_scan", "ios": "https://dc.lft.to/lastmile_qr_scan"}, "fusion_lon": 0.0, "lat": 38.92346933333334, "bike_id": "db9d0a337c0237df4fe952f89574b947", "type": "electric_scooter", "is_reserved": 0, "lon": -76.99251566666666}, {"fusion_lat": 0.0, "name": "5ea3c01e5e1562504f4eda63e817b100", "is_disabled": 0, "rental_uris": {"android": "https://dc.lft.to/lastmile_qr_scan", "ios": "https://dc.lft.to/lastmile_qr_scan"}, "fusion_lon": 0.0, "lat": 38.899894333333336, "bike_id": "5ea3c01e5e1562504f4eda63e817b100", "type": "electric_scooter", "is_reserved": 0, "lon": -77.0317785}, {"fusion_lat": 0.0, "name": "ca375f63da63823fb9f577876674d39f", "is_disabled": 0, "rental_uris": {"android": "https://dc.lft.to/lastmile_qr_scan", "ios": "https://dc.lft.to/lastmile_qr_scan"}, "fusion_lon": 0.0, "lat": 38.94517966666667, "bike_id": "ca375f63da63823fb9f577876674d39f", "type": "electric_scooter", "is_reserved": 0, "lon": -77.03892616666667}, {"fusion_lat": 0.0, "name": "5272141e12a414064bd2bee72c128ee0", "is_disabled": 0, "rental_uris": {"android": "https://dc.lft.to/lastmile_qr_scan", "ios": "https://dc.lft.to/lastmile_qr_scan"}, "fusion_lon": 0.0, "lat": 38.93675283333334, "bike_id": "5272141e12a414064bd2bee72c128ee0", "type": "electric_scooter", "is_reserved": 0, "lon": -77.03657216666667}, {"fusion_lat": 0.0, "name": "9d820bc1fd28480fef2e9d7a4067ab01", "is_disabled": 0, "rental_uris": {"android": "https://dc.lft.to/lastmile_qr_scan", "ios": "https://dc.lft.to/lastmile_qr_scan"}, "fusion_lon": 0.0, "lat": 38.88986666666667, "bike_id": "9d820bc1fd28480fef2e9d7a4067ab01", "type": "electric_scooter", "is_reserved": 0, "lon": -76.929856}, {"fusion_lat": 0.0, "name": "b6ee04a5246c437a5ec47af014c94c5c", "is_disabled": 0, "rental_uris": {"android": "https://dc.lft.to/lastmile_qr_scan", "ios": "https://dc.lft.to/lastmile_qr_scan"}, "fusion_lon": 0.0, "lat": 38.93706483333333, "bike_id": "b6ee04a5246c437a5ec47af014c94c5c", "type": "electric_scooter", "is_reserved": 0, "lon": -77.06106183333333}, {"fusion_lat": 0.0, "name": "89b466e8877e286a22554500c610a128", "is_disabled": 0, "rental_uris": {"android": "https://dc.lft.to/lastmile_qr_scan", "ios": "https://dc.lft.to/lastmile_qr_scan"}, "fusion_lon": 0.0, "lat": 38.90325383333333, "bike_id": "89b466e8877e286a22554500c610a128", "type": "electric_scooter", "is_reserved": 0, "lon": -77.03209533333333}, {"fusion_lat": 0.0, "name": "34bd8b475e4eefbc8208582923b9e8ae", "is_disabled": 0, "rental_uris": {"android": "https://dc.lft.to/lastmile_qr_scan", "ios": "https://dc.lft.to/lastmile_qr_scan"}, "fusion_lon": 0.0, "lat": 38.93586666666667, "bike_id": "34bd8b475e4eefbc8208582923b9e8ae", "type": "electric_scooter", "is_reserved": 0, "lon": -77.02379466666666}, {"fusion_lat": 0.0, "name": "8df41ee4f38242d7aecf4c974bfa5347", "is_disabled": 0, "rental_uris": {"android": "https://dc.lft.to/lastmile_qr_scan", "ios": "https://dc.lft.to/lastmile_qr_scan"}, "fusion_lon": 0.0, "lat": 38.88752433333333, "bike_id": "8df41ee4f38242d7aecf4c974bfa5347", "type": "electric_scooter", "is_reserved": 0, "lon": -76.99785933333334}, {"fusion_lat": 0.0, "name": "7890124e5533c799650aa9fc5074284a", "is_disabled": 0, "rental_uris": {"android": "https://dc.lft.to/lastmile_qr_scan", "ios": "https://dc.lft.to/lastmile_qr_scan"}, "fusion_lon": 0.0, "lat": 38.901224, "bike_id": "7890124e5533c799650aa9fc5074284a", "type": "electric_scooter", "is_reserved": 0, "lon": -77.04014083333334}, {"fusion_lat": 0.0, "name": "50c7fa92e77b846770a8afbb96f20194", "is_disabled": 0, "rental_uris": {"android": "https://dc.lft.to/lastmile_qr_scan", "ios": "https://dc.lft.to/lastmile_qr_scan"}, "fusion_lon": 0.0, "lat": 38.91696316666667, "bike_id": "50c7fa92e77b846770a8afbb96f20194", "type": "electric_scooter", "is_reserved": 0, "lon": -77.02748966666667}, {"fusion_lat": 0.0, "name": "815b85f00d57c97adf0cec2ecdcd64f2", "is_disabled": 0, "rental_uris": {"android": "https://dc.lft.to/lastmile_qr_scan", "ios": "https://dc.lft.to/lastmile_qr_scan"}, "fusion_lon": 0.0, "lat": 38.921016333333334, "bike_id": "815b85f00d57c97adf0cec2ecdcd64f2", "type": "electric_scooter", "is_reserved": 0, "lon": -77.03152683333333}, {"fusion_lat": 0.0, "name": "c76299e23a7d56ce8677790441f13378", "is_disabled": 0, "rental_uris": {"android": "https://dc.lft.to/lastmile_qr_scan", "ios": "https://dc.lft.to/lastmile_qr_scan"}, "fusion_lon": 0.0, "lat": 38.905508166666664, "bike_id": "c76299e23a7d56ce8677790441f13378", "type": "electric_scooter", "is_reserved": 0, "lon": -77.04667466666666}, {"fusion_lat": 0.0, "name": "448cbde8b6e4c56756d5e8725c08317b", "is_disabled": 0, "rental_uris": {"android": "https://dc.lft.to/lastmile_qr_scan", "ios": "https://dc.lft.to/lastmile_qr_scan"}, "fusion_lon": 0.0, "lat": 38.8413485, "bike_id": "448cbde8b6e4c56756d5e8725c08317b", "type": "electric_bike", "is_reserved": 0, "lon": -76.94759916666666}, {"fusion_lat": 0.0, "name": "7988b3f7e172da42d20c14ca1b936364", "is_disabled": 0, "rental_uris": {"android": "https://dc.lft.to/lastmile_qr_scan", "ios": "https://dc.lft.to/lastmile_qr_scan"}, "fusion_lon": 0.0, "lat": 38.8845995, "bike_id": "7988b3f7e172da42d20c14ca1b936364", "type": "electric_scooter", "is_reserved": 0, "lon": -77.0250975}, {"fusion_lat": 0.0, "name": "848b6271e73a2136729bff5dc78624f4", "is_disabled": 0, "rental_uris": {"android": "https://dc.lft.to/lastmile_qr_scan", "ios": "https://dc.lft.to/lastmile_qr_scan"}, "fusion_lon": 0.0, "lat": 38.8872105, "bike_id": "848b6271e73a2136729bff5dc78624f4", "type": "electric_scooter", "is_reserved": 0, "lon": -76.9835655}, {"fusion_lat": 0.0, "name": "618f94cddeec0c297bfe28ee7960ea19", "is_disabled": 0, "rental_uris": {"android": "https://dc.lft.to/lastmile_qr_scan", "ios": "https://dc.lft.to/lastmile_qr_scan"}, "fusion_lon": 0.0, "lat": 38.925403, "bike_id": "618f94cddeec0c297bfe28ee7960ea19", "type": "electric_scooter", "is_reserved": 0, "lon": -77.05120966666667}, {"fusion_lat": 0.0, "name": "f236db0f2f905312c19e91979ed3ae81", "is_disabled": 0, "rental_uris": {"android": "https://dc.lft.to/lastmile_qr_scan", "ios": "https://dc.lft.to/lastmile_qr_scan"}, "fusion_lon": 0.0, "lat": 38.92251483333333, "bike_id": "f236db0f2f905312c19e91979ed3ae81", "type": "electric_scooter", "is_reserved": 0, "lon": -77.050817}, {"fusion_lat": 0.0, "name": "d2dd21512448fd11ffb719981c88e61a", "is_disabled": 0, "rental_uris": {"android": "https://dc.lft.to/lastmile_qr_scan", "ios": "https://dc.lft.to/lastmile_qr_scan"}, "fusion_lon": 0.0, "lat": 38.928995666666665, "bike_id": "d2dd21512448fd11ffb719981c88e61a", "type": "electric_scooter", "is_reserved": 0, "lon": -77.054583}, {"fusion_lat": 0.0, "name": "8c3f8c3a231f42c7f962c3b3755ee4ff", "is_disabled": 0, "rental_uris": {"android": "https://dc.lft.to/lastmile_qr_scan", "ios": "https://dc.lft.to/lastmile_qr_scan"}, "fusion_lon": 0.0, "lat": 38.917077, "bike_id": "8c3f8c3a231f42c7f962c3b3755ee4ff", "type": "electric_scooter", "is_reserved": 0, "lon": -77.02896116666666}, {"fusion_lat": 0.0, "name": "fec033bc132f6d519d0ef8a9ff9192c9", "is_disabled": 0, "rental_uris": {"android": "https://dc.lft.to/lastmile_qr_scan", "ios": "https://dc.lft.to/lastmile_qr_scan"}, "fusion_lon": 0.0, "lat": 38.88754333333333, "bike_id": "fec033bc132f6d519d0ef8a9ff9192c9", "type": "electric_scooter", "is_reserved": 0, "lon": -77.00257916666666}, {"fusion_lat": 0.0, "name": "510068691bb24bffbbaf2a1633d301fc", "is_disabled": 0, "rental_uris": {"android": "https://dc.lft.to/lastmile_qr_scan", "ios": "https://dc.lft.to/lastmile_qr_scan"}, "fusion_lon": 0.0, "lat": 38.876369, "bike_id": "510068691bb24bffbbaf2a1633d301fc", "type": "electric_scooter", "is_reserved": 0, "lon": -77.01647916666667}, {"fusion_lat": 0.0, "name": "732b52c96cb9e1a8b1d2963040ea99b8", "is_disabled": 0, "rental_uris": {"android": "https://dc.lft.to/lastmile_qr_scan", "ios": "https://dc.lft.to/lastmile_qr_scan"}, "fusion_lon": 0.0, "lat": 38.931913, "bike_id": "732b52c96cb9e1a8b1d2963040ea99b8", "type": "electric_scooter", "is_reserved": 0, "lon": -77.04297916666667}, {"fusion_lat": 0.0, "name": "9542056f2df5d44e69e9a0bf5001ae49", "is_disabled": 0, "rental_uris": {"android": "https://dc.lft.to/lastmile_qr_scan", "ios": "https://dc.lft.to/lastmile_qr_scan"}, "fusion_lon": 0.0, "lat": 38.905566666666665, "bike_id": "9542056f2df5d44e69e9a0bf5001ae49", "type": "electric_scooter", "is_reserved": 0, "lon": -77.06252033333334}, {"fusion_lat": 0.0, "name": "b9c660236d7bc09c9072459c67b6f3e5", "is_disabled": 0, "rental_uris": {"android": "https://dc.lft.to/lastmile_qr_scan", "ios": "https://dc.lft.to/lastmile_qr_scan"}, "fusion_lon": 0.0, "lat": 38.89977183333333, "bike_id": "b9c660236d7bc09c9072459c67b6f3e5", "type": "electric_scooter", "is_reserved": 0, "lon": -77.040562}, {"fusion_lat": 0.0, "name": "6ebde5d005bc9c92bb7c79bf3962d265", "is_disabled": 0, "rental_uris": {"android": "https://dc.lft.to/lastmile_qr_scan", "ios": "https://dc.lft.to/lastmile_qr_scan"}, "fusion_lon": 0.0, "lat": 38.909734666666665, "bike_id": "6ebde5d005bc9c92bb7c79bf3962d265", "type": "electric_scooter", "is_reserved": 0, "lon": -77.03435616666667}, {"fusion_lat": 0.0, "name": "c94ee0525d1873e7cb3e554cbb2a5a2e", "is_disabled": 0, "rental_uris": {"android": "https://dc.lft.to/lastmile_qr_scan", "ios": "https://dc.lft.to/lastmile_qr_scan"}, "fusion_lon": 0.0, "lat": 38.92934233333333, "bike_id": "c94ee0525d1873e7cb3e554cbb2a5a2e", "type": "electric_scooter", "is_reserved": 0, "lon": -77.02336133333333}, {"fusion_lat": 0.0, "name": "108ee9af60db2ffe767dd84be4575052", "is_disabled": 0, "rental_uris": {"android": "https://dc.lft.to/lastmile_qr_scan", "ios": "https://dc.lft.to/lastmile_qr_scan"}, "fusion_lon": 0.0, "lat": 38.9231355, "bike_id": "108ee9af60db2ffe767dd84be4575052", "type": "electric_scooter", "is_reserved": 0, "lon": -77.0437495}, {"fusion_lat": 0.0, "name": "2f44bcf0026baa2df799a27bd698d203", "is_disabled": 0, "rental_uris": {"android": "https://dc.lft.to/lastmile_qr_scan", "ios": "https://dc.lft.to/lastmile_qr_scan"}, "fusion_lon": 0.0, "lat": 38.89553383333333, "bike_id": "2f44bcf0026baa2df799a27bd698d203", "type": "electric_scooter", "is_reserved": 0, "lon": -76.99840466666667}, {"fusion_lat": 0.0, "name": "0e6f55df32dc43ade21c9f0462daad03", "is_disabled": 0, "rental_uris": {"android": "https://dc.lft.to/lastmile_qr_scan", "ios": "https://dc.lft.to/lastmile_qr_scan"}, "fusion_lon": 0.0, "lat": 38.911192666666665, "bike_id": "0e6f55df32dc43ade21c9f0462daad03", "type": "electric_scooter", "is_reserved": 0, "lon": -77.03259666666666}, {"fusion_lat": 0.0, "name": "82d663480c1337c9a10a087c74c16821", "is_disabled": 0, "rental_uris": {"android": "https://dc.lft.to/lastmile_qr_scan", "ios": "https://dc.lft.to/lastmile_qr_scan"}, "fusion_lon": 0.0, "lat": 38.91908766666667, "bike_id": "82d663480c1337c9a10a087c74c16821", "type": "electric_scooter", "is_reserved": 0, "lon": -77.0144695}, {"fusion_lat": 0.0, "name": "06659771cfe042a0b8b47f915dff6225", "is_disabled": 0, "rental_uris": {"android": "https://dc.lft.to/lastmile_qr_scan", "ios": "https://dc.lft.to/lastmile_qr_scan"}, "fusion_lon": 0.0, "lat": 38.845056, "bike_id": "06659771cfe042a0b8b47f915dff6225", "type": "electric_bike", "is_reserved": 0, "lon": -76.99353266666667}, {"fusion_lat": 0.0, "name": "bb6e3a7548cf3af2aaae77d53a31c48a", "is_disabled": 0, "rental_uris": {"android": "https://dc.lft.to/lastmile_qr_scan", "ios": "https://dc.lft.to/lastmile_qr_scan"}, "fusion_lon": 0.0, "lat": 38.9049575, "bike_id": "bb6e3a7548cf3af2aaae77d53a31c48a", "type": "electric_scooter", "is_reserved": 0, "lon": -77.0259625}, {"fusion_lat": 0.0, "name": "28188d72dcf63c9bbbaf5b4e6a7163c2", "is_disabled": 0, "rental_uris": {"android": "https://dc.lft.to/lastmile_qr_scan", "ios": "https://dc.lft.to/lastmile_qr_scan"}, "fusion_lon": 0.0, "lat": 38.93219, "bike_id": "28188d72dcf63c9bbbaf5b4e6a7163c2", "type": "electric_scooter", "is_reserved": 0, "lon": -77.0441355}, {"fusion_lat": 0.0, "name": "a5929e280dd7335291cb9281921df439", "is_disabled": 0, "rental_uris": {"android": "https://dc.lft.to/lastmile_qr_scan", "ios": "https://dc.lft.to/lastmile_qr_scan"}, "fusion_lon": 0.0, "lat": 38.91682566666667, "bike_id": "a5929e280dd7335291cb9281921df439", "type": "electric_scooter", "is_reserved": 0, "lon": -77.029452}, {"fusion_lat": 0.0, "name": "eea073111be0009e9a11a9dbf43c9ba3", "is_disabled": 0, "rental_uris": {"android": "https://dc.lft.to/lastmile_qr_scan", "ios": "https://dc.lft.to/lastmile_qr_scan"}, "fusion_lon": 0.0, "lat": 38.920740333333335, "bike_id": "eea073111be0009e9a11a9dbf43c9ba3", "type": "electric_scooter", "is_reserved": 0, "lon": -77.02305766666667}, {"fusion_lat": 0.0, "name": "c68ce76c88c64b07e3cdc47aae4d9524", "is_disabled": 0, "rental_uris": {"android": "https://dc.lft.to/lastmile_qr_scan", "ios": "https://dc.lft.to/lastmile_qr_scan"}, "fusion_lon": 0.0, "lat": 38.89993116666667, "bike_id": "c68ce76c88c64b07e3cdc47aae4d9524", "type": "electric_scooter", "is_reserved": 0, "lon": -77.05497366666667}, {"fusion_lat": 0.0, "name": "91d4cd2b0db3148220b50c2037207a8c", "is_disabled": 0, "rental_uris": {"android": "https://dc.lft.to/lastmile_qr_scan", "ios": "https://dc.lft.to/lastmile_qr_scan"}, "fusion_lon": 0.0, "lat": 38.891945166666666, "bike_id": "91d4cd2b0db3148220b50c2037207a8c", "type": "electric_scooter", "is_reserved": 0, "lon": -77.02229016666666}, {"fusion_lat": 0.0, "name": "cdf8c46b56d3ad8f4ce4ff22e78a3215", "is_disabled": 0, "rental_uris": {"android": "https://dc.lft.to/lastmile_qr_scan", "ios": "https://dc.lft.to/lastmile_qr_scan"}, "fusion_lon": 0.0, "lat": 38.91026516666667, "bike_id": "cdf8c46b56d3ad8f4ce4ff22e78a3215", "type": "electric_scooter", "is_reserved": 0, "lon": -77.033402}, {"fusion_lat": 0.0, "name": "0cef9dcaf4ccbd561d1553d4b81637fe", "is_disabled": 0, "rental_uris": {"android": "https://dc.lft.to/lastmile_qr_scan", "ios": "https://dc.lft.to/lastmile_qr_scan"}, "fusion_lon": 0.0, "lat": 39.036043166666666, "bike_id": "0cef9dcaf4ccbd561d1553d4b81637fe", "type": "electric_bike", "is_reserved": 0, "lon": -77.0554335}, {"fusion_lat": 0.0, "name": "9dfd0d290322205dcb7eb6cea215fe4f", "is_disabled": 0, "rental_uris": {"android": "https://dc.lft.to/lastmile_qr_scan", "ios": "https://dc.lft.to/lastmile_qr_scan"}, "fusion_lon": 0.0, "lat": 38.91633183333333, "bike_id": "9dfd0d290322205dcb7eb6cea215fe4f", "type": "electric_scooter", "is_reserved": 0, "lon": -77.047988}, {"fusion_lat": 0.0, "name": "f1eadfc36384636401f8f36d91dc0d26", "is_disabled": 0, "rental_uris": {"android": "https://dc.lft.to/lastmile_qr_scan", "ios": "https://dc.lft.to/lastmile_qr_scan"}, "fusion_lon": 0.0, "lat": 38.91040116666667, "bike_id": "f1eadfc36384636401f8f36d91dc0d26", "type": "electric_scooter", "is_reserved": 0, "lon": -77.038352}, {"fusion_lat": 0.0, "name": "802c47cf6445f1b95962ada0f384d236", "is_disabled": 0, "rental_uris": {"android": "https://dc.lft.to/lastmile_qr_scan", "ios": "https://dc.lft.to/lastmile_qr_scan"}, "fusion_lon": 0.0, "lat": 38.91483, "bike_id": "802c47cf6445f1b95962ada0f384d236", "type": "electric_scooter", "is_reserved": 0, "lon": -77.04282666666667}, {"fusion_lat": 0.0, "name": "c26ca82c07c2307b473732f1f45d9fd0", "is_disabled": 0, "rental_uris": {"android": "https://dc.lft.to/lastmile_qr_scan", "ios": "https://dc.lft.to/lastmile_qr_scan"}, "fusion_lon": 0.0, "lat": 38.9010285, "bike_id": "c26ca82c07c2307b473732f1f45d9fd0", "type": "electric_bike", "is_reserved": 0, "lon": -77.03930366666667}, {"fusion_lat": 0.0, "name": "4a4ebcd5610720537a63edb8f4f7c63b", "is_disabled": 0, "rental_uris": {"android": "https://dc.lft.to/lastmile_qr_scan", "ios": "https://dc.lft.to/lastmile_qr_scan"}, "fusion_lon": 0.0, "lat": 38.926485166666666, "bike_id": "4a4ebcd5610720537a63edb8f4f7c63b", "type": "electric_scooter", "is_reserved": 0, "lon": -77.03857016666667}, {"fusion_lat": 0.0, "name": "b94b4b11ccf00fbf1c573edc3fade765", "is_disabled": 0, "rental_uris": {"android": "https://dc.lft.to/lastmile_qr_scan", "ios": "https://dc.lft.to/lastmile_qr_scan"}, "fusion_lon": 0.0, "lat": 38.82785716666667, "bike_id": "b94b4b11ccf00fbf1c573edc3fade765", "type": "electric_bike", "is_reserved": 0, "lon": -77.12481133333333}, {"fusion_lat": 0.0, "name": "45f81407cf15495e4f58086ecbc3b6fd", "is_disabled": 0, "rental_uris": {"android": "https://dc.lft.to/lastmile_qr_scan", "ios": "https://dc.lft.to/lastmile_qr_scan"}, "fusion_lon": 0.0, "lat": 38.797609333333334, "bike_id": "45f81407cf15495e4f58086ecbc3b6fd", "type": "electric_bike", "is_reserved": 0, "lon": -77.04748883333333}, {"fusion_lat": 0.0, "name": "6d69b1ec37e0b511c8eb99221b4462ba", "is_disabled": 0, "rental_uris": {"android": "https://dc.lft.to/lastmile_qr_scan", "ios": "https://dc.lft.to/lastmile_qr_scan"}, "fusion_lon": 0.0, "lat": 38.90230433333333, "bike_id": "6d69b1ec37e0b511c8eb99221b4462ba", "type": "electric_scooter", "is_reserved": 0, "lon": -77.03473816666667}, {"fusion_lat": 0.0, "name": "46ec39309b05a123f42baa931651a9cd", "is_disabled": 0, "rental_uris": {"android": "https://dc.lft.to/lastmile_qr_scan", "ios": "https://dc.lft.to/lastmile_qr_scan"}, "fusion_lon": 0.0, "lat": 38.916334, "bike_id": "46ec39309b05a123f42baa931651a9cd", "type": "electric_scooter", "is_reserved": 0, "lon": -77.00099083333333}, {"fusion_lat": 0.0, "name": "28c07e643dc35a819fedda7b8140fbde", "is_disabled": 0, "rental_uris": {"android": "https://dc.lft.to/lastmile_qr_scan", "ios": "https://dc.lft.to/lastmile_qr_scan"}, "fusion_lon": 0.0, "lat": 38.892281833333335, "bike_id": "28c07e643dc35a819fedda7b8140fbde", "type": "electric_scooter", "is_reserved": 0, "lon": -77.00286466666667}, {"fusion_lat": 0.0, "name": "77533c9a4882acb13591c125fab018b6", "is_disabled": 0, "rental_uris": {"android": "https://dc.lft.to/lastmile_qr_scan", "ios": "https://dc.lft.to/lastmile_qr_scan"}, "fusion_lon": 0.0, "lat": 38.93072083333333, "bike_id": "77533c9a4882acb13591c125fab018b6", "type": "electric_scooter", "is_reserved": 0, "lon": -77.02179466666666}, {"fusion_lat": 0.0, "name": "34ac9ee0257d8466cb48f97550279505", "is_disabled": 0, "rental_uris": {"android": "https://dc.lft.to/lastmile_qr_scan", "ios": "https://dc.lft.to/lastmile_qr_scan"}, "fusion_lon": 0.0, "lat": 38.907638, "bike_id": "34ac9ee0257d8466cb48f97550279505", "type": "electric_scooter", "is_reserved": 0, "lon": -77.05650683333333}, {"fusion_lat": 0.0, "name": "9f809fb3c803b20dd96cad58d5f45448", "is_disabled": 0, "rental_uris": {"android": "https://dc.lft.to/lastmile_qr_scan", "ios": "https://dc.lft.to/lastmile_qr_scan"}, "fusion_lon": 0.0, "lat": 38.89731716666667, "bike_id": "9f809fb3c803b20dd96cad58d5f45448", "type": "electric_scooter", "is_reserved": 0, "lon": -77.046442}, {"fusion_lat": 0.0, "name": "828ee1c662d18ba0c2333726123cf61f", "is_disabled": 0, "rental_uris": {"android": "https://dc.lft.to/lastmile_qr_scan", "ios": "https://dc.lft.to/lastmile_qr_scan"}, "fusion_lon": 0.0, "lat": 38.93964183333333, "bike_id": "828ee1c662d18ba0c2333726123cf61f", "type": "electric_scooter", "is_reserved": 0, "lon": -77.032836}, {"fusion_lat": 0.0, "name": "c404fc03b4127758cd7816ecf6525731", "is_disabled": 0, "rental_uris": {"android": "https://dc.lft.to/lastmile_qr_scan", "ios": "https://dc.lft.to/lastmile_qr_scan"}, "fusion_lon": 0.0, "lat": 38.91113033333333, "bike_id": "c404fc03b4127758cd7816ecf6525731", "type": "electric_scooter", "is_reserved": 0, "lon": -77.08129066666666}, {"fusion_lat": 0.0, "name": "cc49144cf2d823b44401c3009fac1416", "is_disabled": 0, "rental_uris": {"android": "https://dc.lft.to/lastmile_qr_scan", "ios": "https://dc.lft.to/lastmile_qr_scan"}, "fusion_lon": 0.0, "lat": 38.921539833333334, "bike_id": "cc49144cf2d823b44401c3009fac1416", "type": "electric_scooter", "is_reserved": 0, "lon": -77.03367166666666}, {"fusion_lat": 0.0, "name": "47232ddae8649f0f7e5b7d3046f7f766", "is_disabled": 0, "rental_uris": {"android": "https://dc.lft.to/lastmile_qr_scan", "ios": "https://dc.lft.to/lastmile_qr_scan"}, "fusion_lon": 0.0, "lat": 38.914803166666665, "bike_id": "47232ddae8649f0f7e5b7d3046f7f766", "type": "electric_scooter", "is_reserved": 0, "lon": -77.040175}, {"fusion_lat": 0.0, "name": "7d5002c37d95707931afc83d6a88d759", "is_disabled": 0, "rental_uris": {"android": "https://dc.lft.to/lastmile_qr_scan", "ios": "https://dc.lft.to/lastmile_qr_scan"}, "fusion_lon": 0.0, "lat": 38.93775183333333, "bike_id": "7d5002c37d95707931afc83d6a88d759", "type": "electric_scooter", "is_reserved": 0, "lon": -77.03265066666667}, {"fusion_lat": 0.0, "name": "12f6b8ddca156f71597edf4573465b2c", "is_disabled": 0, "rental_uris": {"android": "https://dc.lft.to/lastmile_qr_scan", "ios": "https://dc.lft.to/lastmile_qr_scan"}, "fusion_lon": 0.0, "lat": 38.8970925, "bike_id": "12f6b8ddca156f71597edf4573465b2c", "type": "electric_scooter", "is_reserved": 0, "lon": -77.0228925}, {"fusion_lat": 0.0, "name": "cae1b3cba94c28e68cc865fdbf5633a8", "is_disabled": 0, "rental_uris": {"android": "https://dc.lft.to/lastmile_qr_scan", "ios": "https://dc.lft.to/lastmile_qr_scan"}, "fusion_lon": 0.0, "lat": 38.8832445, "bike_id": "cae1b3cba94c28e68cc865fdbf5633a8", "type": "electric_bike", "is_reserved": 0, "lon": -76.960573}, {"fusion_lat": 0.0, "name": "645f90c68d00003be3c5b27ce5da625f", "is_disabled": 0, "rental_uris": {"android": "https://dc.lft.to/lastmile_qr_scan", "ios": "https://dc.lft.to/lastmile_qr_scan"}, "fusion_lon": 0.0, "lat": 38.92821416666666, "bike_id": "645f90c68d00003be3c5b27ce5da625f", "type": "electric_scooter", "is_reserved": 0, "lon": -77.022583}, {"fusion_lat": 0.0, "name": "7ab1108ba27b0947ef1679562a8a7097", "is_disabled": 0, "rental_uris": {"android": "https://dc.lft.to/lastmile_qr_scan", "ios": "https://dc.lft.to/lastmile_qr_scan"}, "fusion_lon": 0.0, "lat": 38.9222425, "bike_id": "7ab1108ba27b0947ef1679562a8a7097", "type": "electric_scooter", "is_reserved": 0, "lon": -77.0236475}, {"fusion_lat": 0.0, "name": "71212a8628907d6b8d56f438581d3de4", "is_disabled": 0, "rental_uris": {"android": "https://dc.lft.to/lastmile_qr_scan", "ios": "https://dc.lft.to/lastmile_qr_scan"}, "fusion_lon": 0.0, "lat": 38.917046666666664, "bike_id": "71212a8628907d6b8d56f438581d3de4", "type": "electric_scooter", "is_reserved": 0, "lon": -77.0404025}, {"fusion_lat": 0.0, "name": "90f5ebdfc1f6917b9745ad7d665be346", "is_disabled": 0, "rental_uris": {"android": "https://dc.lft.to/lastmile_qr_scan", "ios": "https://dc.lft.to/lastmile_qr_scan"}, "fusion_lon": 0.0, "lat": 38.91914966666667, "bike_id": "90f5ebdfc1f6917b9745ad7d665be346", "type": "electric_scooter", "is_reserved": 0, "lon": -77.03259233333333}, {"fusion_lat": 0.0, "name": "6005ce80a098ba90d392fef93ed2f034", "is_disabled": 0, "rental_uris": {"android": "https://dc.lft.to/lastmile_qr_scan", "ios": "https://dc.lft.to/lastmile_qr_scan"}, "fusion_lon": 0.0, "lat": 38.931164333333335, "bike_id": "6005ce80a098ba90d392fef93ed2f034", "type": "electric_scooter", "is_reserved": 0, "lon": -77.03636916666666}, {"fusion_lat": 0.0, "name": "332d5c268d19e8ccc7fa31fce26f0a90", "is_disabled": 0, "rental_uris": {"android": "https://dc.lft.to/lastmile_qr_scan", "ios": "https://dc.lft.to/lastmile_qr_scan"}, "fusion_lon": 0.0, "lat": 38.89466, "bike_id": "332d5c268d19e8ccc7fa31fce26f0a90", "type": "electric_scooter", "is_reserved": 0, "lon": -77.01036616666667}, {"fusion_lat": 0.0, "name": "f9bf83e9d35161ba32cf1e3c545bde48", "is_disabled": 0, "rental_uris": {"android": "https://dc.lft.to/lastmile_qr_scan", "ios": "https://dc.lft.to/lastmile_qr_scan"}, "fusion_lon": 0.0, "lat": 38.914492333333335, "bike_id": "f9bf83e9d35161ba32cf1e3c545bde48", "type": "electric_scooter", "is_reserved": 0, "lon": -77.01279933333333}, {"fusion_lat": 0.0, "name": "e131c5bfbe141f0874da75204c170227", "is_disabled": 0, "rental_uris": {"android": "https://dc.lft.to/lastmile_qr_scan", "ios": "https://dc.lft.to/lastmile_qr_scan"}, "fusion_lon": 0.0, "lat": 38.93523283333333, "bike_id": "e131c5bfbe141f0874da75204c170227", "type": "electric_scooter", "is_reserved": 0, "lon": -77.03081816666666}, {"fusion_lat": 0.0, "name": "77c37010a9ef2ac87f8750ccf2e05128", "is_disabled": 0, "rental_uris": {"android": "https://dc.lft.to/lastmile_qr_scan", "ios": "https://dc.lft.to/lastmile_qr_scan"}, "fusion_lon": 0.0, "lat": 38.935755, "bike_id": "77c37010a9ef2ac87f8750ccf2e05128", "type": "electric_scooter", "is_reserved": 0, "lon": -77.01925833333334}, {"fusion_lat": 0.0, "name": "07e80ad86ad7ab391141f99ba2a54e43", "is_disabled": 0, "rental_uris": {"android": "https://dc.lft.to/lastmile_qr_scan", "ios": "https://dc.lft.to/lastmile_qr_scan"}, "fusion_lon": 0.0, "lat": 38.9289855, "bike_id": "07e80ad86ad7ab391141f99ba2a54e43", "type": "electric_scooter", "is_reserved": 0, "lon": -77.037404}, {"fusion_lat": 0.0, "name": "7f2a32443d8cd2b361b7fd320527915b", "is_disabled": 0, "rental_uris": {"android": "https://dc.lft.to/lastmile_qr_scan", "ios": "https://dc.lft.to/lastmile_qr_scan"}, "fusion_lon": 0.0, "lat": 38.892993, "bike_id": "7f2a32443d8cd2b361b7fd320527915b", "type": "electric_scooter", "is_reserved": 0, "lon": -77.04660916666667}, {"fusion_lat": 0.0, "name": "fa97873ebd40139eecbe2458310b4627", "is_disabled": 0, "rental_uris": {"android": "https://dc.lft.to/lastmile_qr_scan", "ios": "https://dc.lft.to/lastmile_qr_scan"}, "fusion_lon": 0.0, "lat": 38.927921166666664, "bike_id": "fa97873ebd40139eecbe2458310b4627", "type": "electric_scooter", "is_reserved": 0, "lon": -77.02723633333333}, {"fusion_lat": 0.0, "name": "6d94f3ff87764c515235f354c7558aee", "is_disabled": 0, "rental_uris": {"android": "https://dc.lft.to/lastmile_qr_scan", "ios": "https://dc.lft.to/lastmile_qr_scan"}, "fusion_lon": 0.0, "lat": 38.92259166666667, "bike_id": "6d94f3ff87764c515235f354c7558aee", "type": "electric_scooter", "is_reserved": 0, "lon": -77.03663483333334}, {"fusion_lat": 0.0, "name": "790fb13199d6ff500f0c2f29342c4419", "is_disabled": 0, "rental_uris": {"android": "https://dc.lft.to/lastmile_qr_scan", "ios": "https://dc.lft.to/lastmile_qr_scan"}, "fusion_lon": 0.0, "lat": 38.9133155, "bike_id": "790fb13199d6ff500f0c2f29342c4419", "type": "electric_scooter", "is_reserved": 0, "lon": -77.04287766666667}, {"fusion_lat": 0.0, "name": "4a887aed4de8cd58fd179594163697fb", "is_disabled": 0, "rental_uris": {"android": "https://dc.lft.to/lastmile_qr_scan", "ios": "https://dc.lft.to/lastmile_qr_scan"}, "fusion_lon": 0.0, "lat": 38.90777533333333, "bike_id": "4a887aed4de8cd58fd179594163697fb", "type": "electric_scooter", "is_reserved": 0, "lon": -77.0185895}, {"fusion_lat": 0.0, "name": "8608f7d3cc5cebc84b6b6f5532d3ebe1", "is_disabled": 0, "rental_uris": {"android": "https://dc.lft.to/lastmile_qr_scan", "ios": "https://dc.lft.to/lastmile_qr_scan"}, "fusion_lon": 0.0, "lat": 38.95880616666667, "bike_id": "8608f7d3cc5cebc84b6b6f5532d3ebe1", "type": "electric_scooter", "is_reserved": 0, "lon": -77.011664}, {"fusion_lat": 0.0, "name": "6be072de93c5bc15a8e68bd09c9792f2", "is_disabled": 0, "rental_uris": {"android": "https://dc.lft.to/lastmile_qr_scan", "ios": "https://dc.lft.to/lastmile_qr_scan"}, "fusion_lon": 0.0, "lat": 38.91175716666667, "bike_id": "6be072de93c5bc15a8e68bd09c9792f2", "type": "electric_scooter", "is_reserved": 0, "lon": -77.03810266666666}, {"fusion_lat": 0.0, "name": "c122d949aa6e8329d03f7f5edc099b34", "is_disabled": 0, "rental_uris": {"android": "https://dc.lft.to/lastmile_qr_scan", "ios": "https://dc.lft.to/lastmile_qr_scan"}, "fusion_lon": 0.0, "lat": 38.9171675, "bike_id": "c122d949aa6e8329d03f7f5edc099b34", "type": "electric_scooter", "is_reserved": 0, "lon": -77.03041966666666}, {"fusion_lat": 0.0, "name": "1d601f3272e4d5ab170a0128ed9c4f19", "is_disabled": 0, "rental_uris": {"android": "https://dc.lft.to/lastmile_qr_scan", "ios": "https://dc.lft.to/lastmile_qr_scan"}, "fusion_lon": 0.0, "lat": 38.87657, "bike_id": "1d601f3272e4d5ab170a0128ed9c4f19", "type": "electric_scooter", "is_reserved": 0, "lon": -77.0090445}, {"fusion_lat": 0.0, "name": "343987e3844a504e40e18329cd6674da", "is_disabled": 0, "rental_uris": {"android": "https://dc.lft.to/lastmile_qr_scan", "ios": "https://dc.lft.to/lastmile_qr_scan"}, "fusion_lon": 0.0, "lat": 38.91474683333333, "bike_id": "343987e3844a504e40e18329cd6674da", "type": "electric_scooter", "is_reserved": 0, "lon": -77.031906}, {"fusion_lat": 0.0, "name": "5570bf7257b44bce6c9b6beacb7cc4a7", "is_disabled": 0, "rental_uris": {"android": "https://dc.lft.to/lastmile_qr_scan", "ios": "https://dc.lft.to/lastmile_qr_scan"}, "fusion_lon": 0.0, "lat": 38.887462, "bike_id": "5570bf7257b44bce6c9b6beacb7cc4a7", "type": "electric_scooter", "is_reserved": 0, "lon": -77.03159816666667}, {"fusion_lat": 0.0, "name": "ff7f8473f796814d1ee4fe41306c7ed0", "is_disabled": 0, "rental_uris": {"android": "https://dc.lft.to/lastmile_qr_scan", "ios": "https://dc.lft.to/lastmile_qr_scan"}, "fusion_lon": 0.0, "lat": 38.91992033333333, "bike_id": "ff7f8473f796814d1ee4fe41306c7ed0", "type": "electric_scooter", "is_reserved": 0, "lon": -77.03279933333333}, {"fusion_lat": 0.0, "name": "e0b3c0189784ac832a0455f3666fd192", "is_disabled": 0, "rental_uris": {"android": "https://dc.lft.to/lastmile_qr_scan", "ios": "https://dc.lft.to/lastmile_qr_scan"}, "fusion_lon": 0.0, "lat": 38.8044225, "bike_id": "e0b3c0189784ac832a0455f3666fd192", "type": "electric_bike", "is_reserved": 0, "lon": -77.1322825}, {"fusion_lat": 0.0, "name": "156791ece9064045d83eb1d0bcf3a065", "is_disabled": 0, "rental_uris": {"android": "https://dc.lft.to/lastmile_qr_scan", "ios": "https://dc.lft.to/lastmile_qr_scan"}, "fusion_lon": 0.0, "lat": 38.90729533333333, "bike_id": "156791ece9064045d83eb1d0bcf3a065", "type": "electric_scooter", "is_reserved": 0, "lon": -77.03445916666666}, {"fusion_lat": 0.0, "name": "fb06a8ba56fc4b3da227bbe82756710f", "is_disabled": 0, "rental_uris": {"android": "https://dc.lft.to/lastmile_qr_scan", "ios": "https://dc.lft.to/lastmile_qr_scan"}, "fusion_lon": 0.0, "lat": 38.909568166666666, "bike_id": "fb06a8ba56fc4b3da227bbe82756710f", "type": "electric_scooter", "is_reserved": 0, "lon": -77.048625}, {"fusion_lat": 0.0, "name": "31e243d2d6fa2a329d05ea8a1e32b91b", "is_disabled": 0, "rental_uris": {"android": "https://dc.lft.to/lastmile_qr_scan", "ios": "https://dc.lft.to/lastmile_qr_scan"}, "fusion_lon": 0.0, "lat": 38.92383816666667, "bike_id": "31e243d2d6fa2a329d05ea8a1e32b91b", "type": "electric_scooter", "is_reserved": 0, "lon": -77.04026533333334}, {"fusion_lat": 0.0, "name": "1a14362d15a0a3c95eb02e26a2a5972b", "is_disabled": 0, "rental_uris": {"android": "https://dc.lft.to/lastmile_qr_scan", "ios": "https://dc.lft.to/lastmile_qr_scan"}, "fusion_lon": 0.0, "lat": 38.887374, "bike_id": "1a14362d15a0a3c95eb02e26a2a5972b", "type": "electric_scooter", "is_reserved": 0, "lon": -77.01748483333333}, {"fusion_lat": 0.0, "name": "c51746fa841d810280f1c4c47b99c4fa", "is_disabled": 0, "rental_uris": {"android": "https://dc.lft.to/lastmile_qr_scan", "ios": "https://dc.lft.to/lastmile_qr_scan"}, "fusion_lon": 0.0, "lat": 38.910560333333336, "bike_id": "c51746fa841d810280f1c4c47b99c4fa", "type": "electric_scooter", "is_reserved": 0, "lon": -77.0219575}, {"fusion_lat": 0.0, "name": "869c5b96b9adba151550943a1d2706cb", "is_disabled": 0, "rental_uris": {"android": "https://dc.lft.to/lastmile_qr_scan", "ios": "https://dc.lft.to/lastmile_qr_scan"}, "fusion_lon": 0.0, "lat": 38.89330016666667, "bike_id": "869c5b96b9adba151550943a1d2706cb", "type": "electric_scooter", "is_reserved": 0, "lon": -76.93927266666667}, {"fusion_lat": 0.0, "name": "80e4181d44c1af33c816dc3a7b77e2a2", "is_disabled": 0, "rental_uris": {"android": "https://dc.lft.to/lastmile_qr_scan", "ios": "https://dc.lft.to/lastmile_qr_scan"}, "fusion_lon": 0.0, "lat": 38.907017833333335, "bike_id": "80e4181d44c1af33c816dc3a7b77e2a2", "type": "electric_scooter", "is_reserved": 0, "lon": -77.06528066666667}, {"fusion_lat": 0.0, "name": "756f230b54da5b390503d51c8213cf54", "is_disabled": 0, "rental_uris": {"android": "https://dc.lft.to/lastmile_qr_scan", "ios": "https://dc.lft.to/lastmile_qr_scan"}, "fusion_lon": 0.0, "lat": 38.91813766666667, "bike_id": "756f230b54da5b390503d51c8213cf54", "type": "electric_scooter", "is_reserved": 0, "lon": -77.0261335}, {"fusion_lat": 0.0, "name": "ce801b01b12b234b1dac9f3700923212", "is_disabled": 0, "rental_uris": {"android": "https://dc.lft.to/lastmile_qr_scan", "ios": "https://dc.lft.to/lastmile_qr_scan"}, "fusion_lon": 0.0, "lat": 38.89850783333333, "bike_id": "ce801b01b12b234b1dac9f3700923212", "type": "electric_scooter", "is_reserved": 0, "lon": -76.99268533333333}, {"fusion_lat": 0.0, "name": "255b60a409b8756831e1df49e7510f25", "is_disabled": 0, "rental_uris": {"android": "https://dc.lft.to/lastmile_qr_scan", "ios": "https://dc.lft.to/lastmile_qr_scan"}, "fusion_lon": 0.0, "lat": 38.8922335, "bike_id": "255b60a409b8756831e1df49e7510f25", "type": "electric_scooter", "is_reserved": 0, "lon": -77.0314355}, {"fusion_lat": 0.0, "name": "e44b9777b439de8698a662b2667af9c6", "is_disabled": 0, "rental_uris": {"android": "https://dc.lft.to/lastmile_qr_scan", "ios": "https://dc.lft.to/lastmile_qr_scan"}, "fusion_lon": 0.0, "lat": 38.92498583333333, "bike_id": "e44b9777b439de8698a662b2667af9c6", "type": "electric_scooter", "is_reserved": 0, "lon": -77.03797666666667}, {"fusion_lat": 0.0, "name": "198173546a13a754e477d5bc7619a4cf", "is_disabled": 0, "rental_uris": {"android": "https://dc.lft.to/lastmile_qr_scan", "ios": "https://dc.lft.to/lastmile_qr_scan"}, "fusion_lon": 0.0, "lat": 38.905437166666665, "bike_id": "198173546a13a754e477d5bc7619a4cf", "type": "electric_scooter", "is_reserved": 0, "lon": -77.051565}, {"fusion_lat": 0.0, "name": "2af272b40e2be7f592a2c49da8f796cb", "is_disabled": 0, "rental_uris": {"android": "https://dc.lft.to/lastmile_qr_scan", "ios": "https://dc.lft.to/lastmile_qr_scan"}, "fusion_lon": 0.0, "lat": 38.93540433333333, "bike_id": "2af272b40e2be7f592a2c49da8f796cb", "type": "electric_scooter", "is_reserved": 0, "lon": -77.03091466666666}, {"fusion_lat": 0.0, "name": "9551892d683f0fc5066e5257941dce78", "is_disabled": 0, "rental_uris": {"android": "https://dc.lft.to/lastmile_qr_scan", "ios": "https://dc.lft.to/lastmile_qr_scan"}, "fusion_lon": 0.0, "lat": 38.89756916666666, "bike_id": "9551892d683f0fc5066e5257941dce78", "type": "electric_scooter", "is_reserved": 0, "lon": -77.02741566666667}, {"fusion_lat": 0.0, "name": "f300465151838b686f02149df491f3cf", "is_disabled": 0, "rental_uris": {"android": "https://dc.lft.to/lastmile_qr_scan", "ios": "https://dc.lft.to/lastmile_qr_scan"}, "fusion_lon": 0.0, "lat": 38.888899, "bike_id": "f300465151838b686f02149df491f3cf", "type": "electric_bike", "is_reserved": 0, "lon": -77.115242},