{"data": {"bikes": [{"lon": -77.000797, "fusion_lon": 0.0, "bike_id": "27c007ecfaba14d1b60fbba0edd523c9", "type": "electric_scooter", "name": "27c007ecfaba14d1b60fbba0edd523c9", "rental_uris": {"android": "https://dc.lft.to/lastmile_qr_scan", "ios": "https://dc.lft.to/lastmile_qr_scan"}, "is_disabled": 0, "fusion_lat": 0.0, "lat": 38.89992133333333, "is_reserved": 0}, {"lon": -77.04180033333333, "fusion_lon": 0.0, "bike_id": "d0b2f2c4826ba4609c1097d8736400c3", "type": "electric_scooter", "name": "d0b2f2c4826ba4609c1097d8736400c3", "rental_uris": {"android": "https://dc.lft.to/lastmile_qr_scan", "ios": "https://dc.lft.to/lastmile_qr_scan"}, "is_disabled": 0, "fusion_lat": 0.0, "lat": 38.9064205, "is_reserved": 0}, {"lon": -77.02710483333334, "fusion_lon": 0.0, "bike_id": "ffe32927a0a147ed369c7bf25cdfbc20", "type": "electric_scooter", "name": "ffe32927a0a147ed369c7bf25cdfbc20", "rental_uris": {"android": "https://dc.lft.to/lastmile_qr_scan", "ios": "https://dc.lft.to/lastmile_qr_scan"}, "is_disabled": 0, "fusion_lat": 0.0, "lat": 38.918560666666664, "is_reserved": 0}, {"lon": -77.02116916666667, "fusion_lon": 0.0, "bike_id": "9a0f56dbe1d5f122c9f71a9b9cc1bec9", "type": "electric_scooter", "name": "9a0f56dbe1d5f122c9f71a9b9cc1bec9", "rental_uris": {"android": "https://dc.lft.to/lastmile_qr_scan", "ios": "https://dc.lft.to/lastmile_qr_scan"}, "is_disabled": 0, "fusion_lat": 0.0, "lat": 38.914144, "is_reserved": 0}, {"lon": -77.069614, "fusion_lon": 0.0, "bike_id": "6fb19b04989b50fa0f4aff8d16ff1a4c", "type": "electric_bike", "name": "6fb19b04989b50fa0f4aff8d16ff1a4c", "rental_uris": {"android": "https://dc.lft.to/lastmile_qr_scan", "ios": "https://dc.lft.to/lastmile_qr_scan"}, "is_disabled": 0, "fusion_lat": 0.0, "lat": 38.905151000000004, "is_reserved": 0}, {"lon": -76.97369833333333, "fusion_lon": 0.0, "bike_id": "482da5963056465c4ff6f9a899a4f20c", "type": "electric_scooter", "name": "482da5963056465c4ff6f9a899a4f20c", "rental_uris": {"android": "https://dc.lft.to/lastmile_qr_scan", "ios": "https://dc.lft.to/lastmile_qr_scan"}, "is_disabled": 0, "fusion_lat": 0.0, "lat": 38.915576333333334, "is_reserved": 0}, {"lon": -77.02721633333333, "fusion_lon": 0.0, "bike_id": "6bddf4cc8ed49c65907364fd399c0e83", "type": "electric_scooter", "name": "6bddf4cc8ed49c65907364fd399c0e83", "rental_uris": {"android": "https://dc.lft.to/lastmile_qr_scan", "ios": "https://dc.lft.to/lastmile_qr_scan"}, "is_disabled": 0, "fusion_lat": 0.0, "lat": 38.92788916666667, "is_reserved": 0}, {"lon": -77.054922, "fusion_lon": 0.0, "bike_id": "f8ff2d496f45213a71ff0e4376b6ec1c", "type": "electric_scooter", "name": "f8ff2d496f45213a71ff0e4376b6ec1c", "rental_uris": {"android": "https://dc.lft.to/lastmile_qr_scan", "ios": "https://dc.lft.to/lastmile_qr_scan"}, "is_disabled": 0, "fusion_lat": 0.0, "lat": 38.90854866666667, "is_reserved": 0}, {"lon": -77.01382783333334, "fusion_lon": 0.0, "bike_id": "692afaeecc1344683fb7d72323e39e23", "type": "electric_scooter", "name": "692afaeecc1344683fb7d72323e39e23", "rental_uris": {"android": "https://dc.lft.to/lastmile_qr_scan", "ios": "https://dc.lft.to/lastmile_qr_scan"}, "is_disabled": 0, "fusion_lat": 0.0, "lat": 38.886375, "is_reserved": 0}, {"lon": -77.0075775, "fusion_lon": 0.0, "bike_id": "0ba53c5cba81f4430264a3846ffc2962", "type": "electric_scooter", "name": "0ba53c5cba81f4430264a3846ffc2962", "rental_uris": {"android": "https://dc.lft.to/lastmile_qr_scan", "ios": "https://dc.lft.to/lastmile_qr_scan"}, "is_disabled": 0, "fusion_lat": 0.0, "lat": 38.89591016666667, "is_reserved": 0}, {"lon": -77.03198216666667, "fusion_lon": 0.0, "bike_id": "7792f79eb70817517c0acf3a67b51968", "type": "electric_scooter", "name": "7792f79eb70817517c0acf3a67b51968", "rental_uris": {"android": "https://dc.lft.to/lastmile_qr_scan", "ios": "https://dc.lft.to/lastmile_qr_scan"}, "is_disabled": 0, "fusion_lat": 0.0, "lat": 38.913193166666666, "is_reserved": 0}, {"lon": -76.98573966666666, "fusion_lon": 0.0, "bike_id": "4d169fd3e7295782d102f3cddf618214", "type": "electric_scooter", "name": "4d169fd3e7295782d102f3cddf618214", "rental_uris": {"android": "https://dc.lft.to/lastmile_qr_scan", "ios": "https://dc.lft.to/lastmile_qr_scan"}, "is_disabled": 0, "fusion_lat": 0.0, "lat": 38.86675983333333, "is_reserved": 0}, {"lon": -77.03994816666666, "fusion_lon": 0.0, "bike_id": "5ee4d762fec5ab5d095f2819e8aafbb9", "type": "electric_scooter", "name": "5ee4d762fec5ab5d095f2819e8aafbb9", "rental_uris": {"android": "https://dc.lft.to/lastmile_qr_scan", "ios": "https://dc.lft.to/lastmile_qr_scan"}, "is_disabled": 0, "fusion_lat": 0.0, "lat": 38.924556333333335, "is_reserved": 0}, {"lon": -76.98718083333333, "fusion_lon": 0.0, "bike_id": "79cb36cf05d42498a7c505a32bef2f08", "type": "electric_scooter", "name": "79cb36cf05d42498a7c505a32bef2f08", "rental_uris": {"android": "https://dc.lft.to/lastmile_qr_scan", "ios": "https://dc.lft.to/lastmile_qr_scan"}, "is_disabled": 0, "fusion_lat": 0.0, "lat": 38.86622533333333, "is_reserved": 0}, {"lon": -77.1043315, "fusion_lon": 0.0, "bike_id": "63962c7ae87b4988d474b1a6012c21de", "type": "electric_bike", "name": "63962c7ae87b4988d474b1a6012c21de", "rental_uris": {"android": "https://dc.lft.to/lastmile_qr_scan", "ios": "https://dc.lft.to/lastmile_qr_scan"}, "is_disabled": 0, "fusion_lat": 0.0, "lat": 38.89670233333333, "is_reserved": 0}, {"lon": -77.00680883333334, "fusion_lon": 0.0, "bike_id": "95c11935fc476f0ca531880027e8bb7b", "type": "electric_scooter", "name": "95c11935fc476f0ca531880027e8bb7b", "rental_uris": {"android": "https://dc.lft.to/lastmile_qr_scan", "ios": "https://dc.lft.to/lastmile_qr_scan"}, "is_disabled": 0, "fusion_lat": 0.0, "lat": 38.9001445, "is_reserved": 0}, {"lon": -76.9425545, "fusion_lon": 0.0, "bike_id": "670094dcb24516b5d95904807e6c57e9", "type": "electric_bike", "name": "670094dcb24516b5d95904807e6c57e9", "rental_uris": {"android": "https://dc.lft.to/lastmile_qr_scan", "ios": "https://dc.lft.to/lastmile_qr_scan"}, "is_disabled": 0, "fusion_lat": 0.0, "lat": 38.897330333333336, "is_reserved": 0}, {"lon": -77.0387885, "fusion_lon": 0.0, "bike_id": "333fd46320b86fad79a49e951e18ed2a", "type": "electric_scooter", "name": "333fd46320b86fad79a49e951e18ed2a", "rental_uris": {"android": "https://dc.lft.to/lastmile_qr_scan", "ios": "https://dc.lft.to/lastmile_qr_scan"}, "is_disabled": 0, "fusion_lat": 0.0, "lat": 38.916987, "is_reserved": 0}, {"lon": -77.0452905, "fusion_lon": 0.0, "bike_id": "c6105b317c92eeb5cf0ea0a52bc718c7", "type": "electric_scooter", "name": "c6105b317c92eeb5cf0ea0a52bc718c7", "rental_uris": {"android": "https://dc.lft.to/lastmile_qr_scan", "ios": "https://dc.lft.to/lastmile_qr_scan"}, "is_disabled": 0, "fusion_lat": 0.0, "lat": 38.894718166666664, "is_reserved": 0}, {"lon": -77.05153466666667, "fusion_lon": 0.0, "bike_id": "d55e01504a08bcdc962484dd5236882b", "type": "electric_scooter", "name": "d55e01504a08bcdc962484dd5236882b", "rental_uris": {"android": "https://dc.lft.to/lastmile_qr_scan", "ios": "https://dc.lft.to/lastmile_qr_scan"}, "is_disabled": 0, "fusion_lat": 0.0, "lat": 38.923801, "is_reserved": 0}, {"lon": -77.00387516666666, "fusion_lon": 0.0, "bike_id": "bc5053dcce25ad8e2a59799a4eb08ebb", "type": "electric_scooter", "name": "bc5053dcce25ad8e2a59799a4eb08ebb", "rental_uris": {"android": "https://dc.lft.to/lastmile_qr_scan", "ios": "https://dc.lft.to/lastmile_qr_scan"}, "is_disabled": 0, "fusion_lat": 0.0, "lat": 38.8484845, "is_reserved": 0}, {"lon": -77.03149533333334, "fusion_lon": 0.0, "bike_id": "a05f6d490ee9124c6b379c6a316272d3", "type": "electric_scooter", "name": "a05f6d490ee9124c6b379c6a316272d3", "rental_uris": {"android": "https://dc.lft.to/lastmile_qr_scan", "ios": "https://dc.lft.to/lastmile_qr_scan"}, "is_disabled": 0, "fusion_lat": 0.0, "lat": 38.912657, "is_reserved": 0}, {"lon": -77.02528233333334, "fusion_lon": 0.0, "bike_id": "dbcb11a6012b92261186130ffa50f601", "type": "electric_scooter", "name": "dbcb11a6012b92261186130ffa50f601", "rental_uris": {"android": "https://dc.lft.to/lastmile_qr_scan", "ios": "https://dc.lft.to/lastmile_qr_scan"}, "is_disabled": 0, "fusion_lat": 0.0, "lat": 38.90650616666667, "is_reserved": 0}, {"lon": -77.05590216666667, "fusion_lon": 0.0, "bike_id": "3dd5fe93435a9cf2e18cb8698ec51fcc", "type": "electric_bike", "name": "3dd5fe93435a9cf2e18cb8698ec51fcc", "rental_uris": {"android": "https://dc.lft.to/lastmile_qr_scan", "ios": "https://dc.lft.to/lastmile_qr_scan"}, "is_disabled": 0, "fusion_lat": 0.0, "lat": 38.93698633333333, "is_reserved": 0}, {"lon": -77.0384675, "fusion_lon": 0.0, "bike_id": "61ef27dd2d29959bca5da32a93dc206d", "type": "electric_scooter", "name": "61ef27dd2d29959bca5da32a93dc206d", "rental_uris": {"android": "https://dc.lft.to/lastmile_qr_scan", "ios": "https://dc.lft.to/lastmile_qr_scan"}, "is_disabled": 0, "fusion_lat": 0.0, "lat": 38.9032195, "is_reserved": 0}, {"lon": -77.02288033333333, "fusion_lon": 0.0, "bike_id": "10e14a5e58ba8ab878bacb1ecd750fac", "type": "electric_scooter", "name": "10e14a5e58ba8ab878bacb1ecd750fac", "rental_uris": {"android": "https://dc.lft.to/lastmile_qr_scan", "ios": "https://dc.lft.to/lastmile_qr_scan"}, "is_disabled": 0, "fusion_lat": 0.0, "lat": 38.916839333333336, "is_reserved": 0}, {"lon": -77.03542083333333, "fusion_lon": 0.0, "bike_id": "ce5e46db92341d2c061affdcd0b3804e", "type": "electric_scooter", "name": "ce5e46db92341d2c061affdcd0b3804e", "rental_uris": {"android": "https://dc.lft.to/lastmile_qr_scan", "ios": "https://dc.lft.to/lastmile_qr_scan"}, "is_disabled": 0, "fusion_lat": 0.0, "lat": 38.92315133333334, "is_reserved": 0}, {"lon": -77.03252583333334, "fusion_lon": 0.0, "bike_id": "956c3dad0fb39c518524270bed314e2b", "type": "electric_scooter", "name": "956c3dad0fb39c518524270bed314e2b", "rental_uris": {"android": "https://dc.lft.to/lastmile_qr_scan", "ios": "https://dc.lft.to/lastmile_qr_scan"}, "is_disabled": 0, "fusion_lat": 0.0, "lat": 38.897032, "is_reserved": 0}, {"lon": -77.0341195, "fusion_lon": 0.0, "bike_id": "e87f291ff0b4e7ecac2ac883523f5363", "type": "electric_scooter", "name": "e87f291ff0b4e7ecac2ac883523f5363", "rental_uris": {"android": "https://dc.lft.to/lastmile_qr_scan", "ios": "https://dc.lft.to/lastmile_qr_scan"}, "is_disabled": 0, "fusion_lat": 0.0, "lat": 38.9231805, "is_reserved": 0}, {"lon": -76.9835375, "fusion_lon": 0.0, "bike_id": "06968913e3498f8079c73aeb599c1796", "type": "electric_bike", "name": "06968913e3498f8079c73aeb599c1796", "rental_uris": {"android": "https://dc.lft.to/lastmile_qr_scan", "ios": "https://dc.lft.to/lastmile_qr_scan"}, "is_disabled": 0, "fusion_lat": 0.0, "lat": 38.862594666666666, "is_reserved": 0}, {"lon": -76.9601905, "fusion_lon": 0.0, "bike_id": "d624a64c7377aed25890c5fd31f4a156", "type": "electric_scooter", "name": "d624a64c7377aed25890c5fd31f4a156", "rental_uris": {"android": "https://dc.lft.to/lastmile_qr_scan", "ios": "https://dc.lft.to/lastmile_qr_scan"}, "is_disabled": 0, "fusion_lat": 0.0, "lat": 38.86929116666667, "is_reserved": 0}, {"lon": -77.03424683333333, "fusion_lon": 0.0, "bike_id": "39490aaea43c1f44f624a07cdc0dd315", "type": "electric_scooter", "name": "39490aaea43c1f44f624a07cdc0dd315", "rental_uris": {"android": "https://dc.lft.to/lastmile_qr_scan", "ios": "https://dc.lft.to/lastmile_qr_scan"}, "is_disabled": 0, "fusion_lat": 0.0, "lat": 38.927344166666664, "is_reserved": 0}, {"lon": -77.03440966666666, "fusion_lon": 0.0, "bike_id": "6f045e34e0e75f27d9573ae4d19d1cc4", "type": "electric_scooter", "name": "6f045e34e0e75f27d9573ae4d19d1cc4", "rental_uris": {"android": "https://dc.lft.to/lastmile_qr_scan", "ios": "https://dc.lft.to/lastmile_qr_scan"}, "is_disabled": 0, "fusion_lat": 0.0, "lat": 38.917955666666664, "is_reserved": 0}, {"lon": -77.02174666666667, "fusion_lon": 0.0, "bike_id": "5fb7f8d8b010f8133f7204c7d2864ebe", "type": "electric_scooter", "name": "5fb7f8d8b010f8133f7204c7d2864ebe", "rental_uris": {"android": "https://dc.lft.to/lastmile_qr_scan", "ios": "https://dc.lft.to/lastmile_qr_scan"}, "is_disabled": 0, "fusion_lat": 0.0, "lat": 38.90835583333333, "is_reserved": 0}, {"lon": -77.0271535, "fusion_lon": 0.0, "bike_id": "aa63758de88c591a747f732583085ba8", "type": "electric_scooter", "name": "aa63758de88c591a747f732583085ba8", "rental_uris": {"android": "https://dc.lft.to/lastmile_qr_scan", "ios": "https://dc.lft.to/lastmile_qr_scan"}, "is_disabled": 0, "fusion_lat": 0.0, "lat": 38.91718983333333, "is_reserved": 0}, {"lon": -76.90420283333333, "fusion_lon": 0.0, "bike_id": "f2257b6ef0dd2e78dd4019136b924f8b", "type": "electric_bike", "name": "f2257b6ef0dd2e78dd4019136b924f8b", "rental_uris": {"android": "https://dc.lft.to/lastmile_qr_scan", "ios": "https://dc.lft.to/lastmile_qr_scan"}, "is_disabled": 0, "fusion_lat": 0.0, "lat": 38.94051066666667, "is_reserved": 0}, {"lon": -77.00806716666666, "fusion_lon": 0.0, "bike_id": "5852b84c3f3c96e3aedf34000fa1d3ae", "type": "electric_scooter", "name": "5852b84c3f3c96e3aedf34000fa1d3ae", "rental_uris": {"android": "https://dc.lft.to/lastmile_qr_scan", "ios": "https://dc.lft.to/lastmile_qr_scan"}, "is_disabled": 0, "fusion_lat": 0.0, "lat": 38.83159466666667, "is_reserved": 0}, {"lon": -77.05119833333333, "fusion_lon": 0.0, "bike_id": "30ae90610ec2c1cd52e2bdb47325eff3", "type": "electric_scooter", "name": "30ae90610ec2c1cd52e2bdb47325eff3", "rental_uris": {"android": "https://dc.lft.to/lastmile_qr_scan", "ios": "https://dc.lft.to/lastmile_qr_scan"}, "is_disabled": 0, "fusion_lat": 0.0, "lat": 38.92355333333333, "is_reserved": 0}, {"lon": -77.04835233333333, "fusion_lon": 0.0, "bike_id": "8a332e3a0d9513d47b3a65843d1c687c", "type": "electric_scooter", "name": "8a332e3a0d9513d47b3a65843d1c687c", "rental_uris": {"android": "https://dc.lft.to/lastmile_qr_scan", "ios": "https://dc.lft.to/lastmile_qr_scan"}, "is_disabled": 0, "fusion_lat": 0.0, "lat": 38.918451166666664, "is_reserved": 0}, {"lon": -77.08628083333333, "fusion_lon": 0.0, "bike_id": "65594fc131cbf3c654c2af1983d22f3e", "type": "electric_bike", "name": "65594fc131cbf3c654c2af1983d22f3e", "rental_uris": {"android": "https://dc.lft.to/lastmile_qr_scan", "ios": "https://dc.lft.to/lastmile_qr_scan"}, "is_disabled": 0, "fusion_lat": 0.0, "lat": 38.8097605, "is_reserved": 0}, {"lon": -77.0228435, "fusion_lon": 0.0, "bike_id": "ec74caf9d41044f7ab810265505e95cd", "type": "electric_scooter", "name": "ec74caf9d41044f7ab810265505e95cd", "rental_uris": {"android": "https://dc.lft.to/lastmile_qr_scan", "ios": "https://dc.lft.to/lastmile_qr_scan"}, "is_disabled": 0, "fusion_lat": 0.0, "lat": 38.909590666666666, "is_reserved": 0}, {"lon": -77.033025, "fusion_lon": 0.0, "bike_id": "dfd147e6b8d47927521dc351b24abf2f", "type": "electric_scooter", "name": "dfd147e6b8d47927521dc351b24abf2f", "rental_uris": {"android": "https://dc.lft.to/lastmile_qr_scan", "ios": "https://dc.lft.to/lastmile_qr_scan"}, "is_disabled": 0, "fusion_lat": 0.0, "lat": 38.92451366666667, "is_reserved": 0}, {"lon": -77.02829716666666, "fusion_lon": 0.0, "bike_id": "bbdbcb8d2172e2a10cf9bcc226d15421", "type": "electric_scooter", "name": "bbdbcb8d2172e2a10cf9bcc226d15421", "rental_uris": {"android": "https://dc.lft.to/lastmile_qr_scan", "ios": "https://dc.lft.to/lastmile_qr_scan"}, "is_disabled": 0, "fusion_lat": 0.0, "lat": 38.92229, "is_reserved": 0}, {"lon": -77.03080866666667, "fusion_lon": 0.0, "bike_id": "26ad14101e9ece91ceba916a044dc821", "type": "electric_scooter", "name": "26ad14101e9ece91ceba916a044dc821", "rental_uris": {"android": "https://dc.lft.to/lastmile_qr_scan", "ios": "https://dc.lft.to/lastmile_qr_scan"}, "is_disabled": 0, "fusion_lat": 0.0, "lat": 38.9351935, "is_reserved": 0}, {"lon": -77.02158283333333, "fusion_lon": 0.0, "bike_id": "0187059f51de33ee2e379b3a43395bee", "type": "electric_scooter", "name": "0187059f51de33ee2e379b3a43395bee", "rental_uris": {"android": "https://dc.lft.to/lastmile_qr_scan", "ios": "https://dc.lft.to/lastmile_qr_scan"}, "is_disabled": 0, "fusion_lat": 0.0, "lat": 38.9245595, "is_reserved": 0}, {"lon": -77.02213033333334, "fusion_lon": 0.0, "bike_id": "ed8df21220f85853f62ae5312c7306fe", "type": "electric_scooter", "name": "ed8df21220f85853f62ae5312c7306fe", "rental_uris": {"android": "https://dc.lft.to/lastmile_qr_scan", "ios": "https://dc.lft.to/lastmile_qr_scan"}, "is_disabled": 0, "fusion_lat": 0.0, "lat": 38.909660833333334, "is_reserved": 0}, {"lon": -77.0396505, "fusion_lon": 0.0, "bike_id": "90f92d4da08b1944837ffe88b5a5c4cd", "type": "electric_scooter", "name": "90f92d4da08b1944837ffe88b5a5c4cd", "rental_uris": {"android": "https://dc.lft.to/lastmile_qr_scan", "ios": "https://dc.lft.to/lastmile_qr_scan"}, "is_disabled": 0, "fusion_lat": 0.0, "lat": 38.926083, "is_reserved": 0}, {"lon": -77.03535816666667, "fusion_lon": 0.0, "bike_id": "0db055d3813d7ce98bbec27043c8af75", "type": "electric_scooter", "name": "0db055d3813d7ce98bbec27043c8af75", "rental_uris": {"android": "https://dc.lft.to/lastmile_qr_scan", "ios": "https://dc.lft.to/lastmile_qr_scan"}, "is_disabled": 0, "fusion_lat": 0.0, "lat": 38.925665333333335, "is_reserved": 0}, {"lon": -77.0509585, "fusion_lon": 0.0, "bike_id": "bc9c9d6f19a554064002352ecb43b811", "type": "electric_scooter", "name": "bc9c9d6f19a554064002352ecb43b811", "rental_uris": {"android": "https://dc.lft.to/lastmile_qr_scan", "ios": "https://dc.lft.to/lastmile_qr_scan"}, "is_disabled": 0, "fusion_lat": 0.0, "lat": 38.899755, "is_reserved": 0}, {"lon": -76.943185, "fusion_lon": 0.0, "bike_id": "2c6bfdceba8249a4336ce0be383b68a2", "type": "electric_bike", "name": "2c6bfdceba8249a4336ce0be383b68a2", "rental_uris": {"android": "https://dc.lft.to/lastmile_qr_scan", "ios": "https://dc.lft.to/lastmile_qr_scan"}, "is_disabled": 0, "fusion_lat": 0.0, "lat": 38.9382675, "is_reserved": 0}, {"lon": -77.02219783333334, "fusion_lon": 0.0, "bike_id": "3eaa80b5a8fdcff6e02444423250b057", "type": "electric_scooter", "name": "3eaa80b5a8fdcff6e02444423250b057", "rental_uris": {"android": "https://dc.lft.to/lastmile_qr_scan", "ios": "https://dc.lft.to/lastmile_qr_scan"}, "is_disabled": 0, "fusion_lat": 0.0, "lat": 38.89218, "is_reserved": 0}, {"lon": -77.03292083333334, "fusion_lon": 0.0, "bike_id": "94c4220698d03492dea441c98fb14f4e", "type": "electric_scooter", "name": "94c4220698d03492dea441c98fb14f4e", "rental_uris": {"android": "https://dc.lft.to/lastmile_qr_scan", "ios": "https://dc.lft.to/lastmile_qr_scan"}, "is_disabled": 0, "fusion_lat": 0.0, "lat": 38.899061, "is_reserved": 0}, {"lon": -77.0283095, "fusion_lon": 0.0, "bike_id": "6c035e48cea33d83e082e6a06844f1b9", "type": "electric_scooter", "name": "6c035e48cea33d83e082e6a06844f1b9", "rental_uris": {"android": "https://dc.lft.to/lastmile_qr_scan", "ios": "https://dc.lft.to/lastmile_qr_scan"}, "is_disabled": 0, "fusion_lat": 0.0, "lat": 38.88653816666667, "is_reserved": 0}, {"lon": -77.03451633333333, "fusion_lon": 0.0, "bike_id": "7998a5ccb360bb98ee12c917958eb082", "type": "electric_scooter", "name": "7998a5ccb360bb98ee12c917958eb082", "rental_uris": {"android": "https://dc.lft.to/lastmile_qr_scan", "ios": "https://dc.lft.to/lastmile_qr_scan"}, "is_disabled": 0, "fusion_lat": 0.0, "lat": 38.91792483333333, "is_reserved": 0}, {"lon": -77.02281816666667, "fusion_lon": 0.0, "bike_id": "38a9128f7ea23c385f52968382fd15de", "type": "electric_scooter", "name": "38a9128f7ea23c385f52968382fd15de", "rental_uris": {"android": "https://dc.lft.to/lastmile_qr_scan", "ios": "https://dc.lft.to/lastmile_qr_scan"}, "is_disabled": 0, "fusion_lat": 0.0, "lat": 38.915613666666665, "is_reserved": 0}, {"lon": -77.04215733333334, "fusion_lon": 0.0, "bike_id": "f3b6dbc36516b46f2818d0becb984036", "type": "electric_scooter", "name": "f3b6dbc36516b46f2818d0becb984036", "rental_uris": {"android": "https://dc.lft.to/lastmile_qr_scan", "ios": "https://dc.lft.to/lastmile_qr_scan"}, "is_disabled": 0, "fusion_lat": 0.0, "lat": 38.92309133333333, "is_reserved": 0}, {"lon": -77.03816666666667, "fusion_lon": 0.0, "bike_id": "1313caa43a2e81021dff02be52c82909", "type": "electric_bike", "name": "1313caa43a2e81021dff02be52c82909", "rental_uris": {"android": "https://dc.lft.to/lastmile_qr_scan", "ios": "https://dc.lft.to/lastmile_qr_scan"}, "is_disabled": 0, "fusion_lat": 0.0, "lat": 38.99666916666666, "is_reserved": 0}, {"lon": -77.02695866666667, "fusion_lon": 0.0, "bike_id": "e572017a0aabdfc81293b0cbb9463c47", "type": "electric_scooter", "name": "e572017a0aabdfc81293b0cbb9463c47", "rental_uris": {"android": "https://dc.lft.to/lastmile_qr_scan", "ios": "https://dc.lft.to/lastmile_qr_scan"}, "is_disabled": 0, "fusion_lat": 0.0, "lat": 38.92273516666667, "is_reserved": 0}, {"lon": -77.02337216666666, "fusion_lon": 0.0, "bike_id": "819b2a1635c662fb4f3f94aa5e43dbf0", "type": "electric_scooter", "name": "819b2a1635c662fb4f3f94aa5e43dbf0", "rental_uris": {"android": "https://dc.lft.to/lastmile_qr_scan", "ios": "https://dc.lft.to/lastmile_qr_scan"}, "is_disabled": 0, "fusion_lat": 0.0, "lat": 38.9222925, "is_reserved": 0}, {"lon": -76.98573366666666, "fusion_lon": 0.0, "bike_id": "fb66e1ab66c96feb92ea01472b91a240", "type": "electric_scooter", "name": "fb66e1ab66c96feb92ea01472b91a240", "rental_uris": {"android": "https://dc.lft.to/lastmile_qr_scan", "ios": "https://dc.lft.to/lastmile_qr_scan"}, "is_disabled": 0, "fusion_lat": 0.0, "lat": 38.899984, "is_reserved": 0}, {"lon": -76.97999316666667, "fusion_lon": 0.0, "bike_id": "650784bcbdb48527d480861ce07c865c", "type": "electric_scooter", "name": "650784bcbdb48527d480861ce07c865c", "rental_uris": {"android": "https://dc.lft.to/lastmile_qr_scan", "ios": "https://dc.lft.to/lastmile_qr_scan"}, "is_disabled": 0, "fusion_lat": 0.0, "lat": 38.906765, "is_reserved": 0}, {"lon": -77.029383, "fusion_lon": 0.0, "bike_id": "2c6cdb82df970af8ccc23d58b0cf8667", "type": "electric_scooter", "name": "2c6cdb82df970af8ccc23d58b0cf8667", "rental_uris": {"android": "https://dc.lft.to/lastmile_qr_scan", "ios": "https://dc.lft.to/lastmile_qr_scan"}, "is_disabled": 0, "fusion_lat": 0.0, "lat": 38.920621833333335, "is_reserved": 0}, {"lon": -77.0011855, "fusion_lon": 0.0, "bike_id": "4449ea6f737311aba6a2ede85c3ec770", "type": "electric_scooter", "name": "4449ea6f737311aba6a2ede85c3ec770", "rental_uris": {"android": "https://dc.lft.to/lastmile_qr_scan", "ios": "https://dc.lft.to/lastmile_qr_scan"}, "is_disabled": 0, "fusion_lat": 0.0, "lat": 38.87372666666667, "is_reserved": 0}, {"lon": -76.95624483333333, "fusion_lon": 0.0, "bike_id": "479abd6be4924cdc8d2f839b27831d39", "type": "electric_bike", "name": "479abd6be4924cdc8d2f839b27831d39", "rental_uris": {"android": "https://dc.lft.to/lastmile_qr_scan", "ios": "https://dc.lft.to/lastmile_qr_scan"}, "is_disabled": 0, "fusion_lat": 0.0, "lat": 38.885245, "is_reserved": 0}, {"lon": -77.0013825, "fusion_lon": 0.0, "bike_id": "cdf18849d41287baed1b68fe206cfe64", "type": "electric_scooter", "name": "cdf18849d41287baed1b68fe206cfe64", "rental_uris": {"android": "https://dc.lft.to/lastmile_qr_scan", "ios": "https://dc.lft.to/lastmile_qr_scan"}, "is_disabled": 0, "fusion_lat": 0.0, "lat": 38.905113, "is_reserved": 0}, {"lon": -77.00211266666666, "fusion_lon": 0.0, "bike_id": "e79dd2be8e1e8cb17bd887daa0945ff0", "type": "electric_scooter", "name": "e79dd2be8e1e8cb17bd887daa0945ff0", "rental_uris": {"android": "https://dc.lft.to/lastmile_qr_scan", "ios": "https://dc.lft.to/lastmile_qr_scan"}, "is_disabled": 0, "fusion_lat": 0.0, "lat": 38.91459733333333, "is_reserved": 0}, {"lon": -77.06094733333333, "fusion_lon": 0.0, "bike_id": "971a8650e0918ca1db75d5a3dce806fa", "type": "electric_scooter", "name": "971a8650e0918ca1db75d5a3dce806fa", "rental_uris": {"android": "https://dc.lft.to/lastmile_qr_scan", "ios": "https://dc.lft.to/lastmile_qr_scan"}, "is_disabled": 0, "fusion_lat": 0.0, "lat": 38.9052205, "is_reserved": 0}, {"lon": -77.02363333333334, "fusion_lon": 0.0, "bike_id": "82ee5fc0c0c6fc19e52e8dbf817627f1", "type": "electric_scooter", "name": "82ee5fc0c0c6fc19e52e8dbf817627f1", "rental_uris": {"android": "https://dc.lft.to/lastmile_qr_scan", "ios": "https://dc.lft.to/lastmile_qr_scan"}, "is_disabled": 0, "fusion_lat": 0.0, "lat": 38.92909266666667, "is_reserved": 0}, {"lon": -77.01657066666667, "fusion_lon": 0.0, "bike_id": "46822f296c81b4617cdc451464360e6c", "type": "electric_scooter", "name": "46822f296c81b4617cdc451464360e6c", "rental_uris": {"android": "https://dc.lft.to/lastmile_qr_scan", "ios": "https://dc.lft.to/lastmile_qr_scan"}, "is_disabled": 0, "fusion_lat": 0.0, "lat": 38.881164166666665, "is_reserved": 0}, {"lon": -77.04336633333334, "fusion_lon": 0.0, "bike_id": "c82d8b8326e7e3d380caef6db69cbef1", "type": "electric_scooter", "name": "c82d8b8326e7e3d380caef6db69cbef1", "rental_uris": {"android": "https://dc.lft.to/lastmile_qr_scan", "ios": "https://dc.lft.to/lastmile_qr_scan"}, "is_disabled": 0, "fusion_lat": 0.0, "lat": 38.9003265, "is_reserved": 0}, {"lon": -77.02207583333333, "fusion_lon": 0.0, "bike_id": "899f28eb7f8c11e10e4531d7d5fe79b9", "type": "electric_scooter", "name": "899f28eb7f8c11e10e4531d7d5fe79b9", "rental_uris": {"android": "https://dc.lft.to/lastmile_qr_scan", "ios": "https://dc.lft.to/lastmile_qr_scan"}, "is_disabled": 0, "fusion_lat": 0.0, "lat": 38.92463133333333, "is_reserved": 0}, {"lon": -77.04418366666667, "fusion_lon": 0.0, "bike_id": "2e725d810bf8007957b2c14ab87cad2b", "type": "electric_scooter", "name": "2e725d810bf8007957b2c14ab87cad2b", "rental_uris": {"android": "https://dc.lft.to/lastmile_qr_scan", "ios": "https://dc.lft.to/lastmile_qr_scan"}, "is_disabled": 0, "fusion_lat": 0.0, "lat": 38.8940445, "is_reserved": 0}, {"lon": -77.01387833333334, "fusion_lon": 0.0, "bike_id": "2dd67d53a3d2e1aefe45e4da52b4e6bf", "type": "electric_scooter", "name": "2dd67d53a3d2e1aefe45e4da52b4e6bf", "rental_uris": {"android": "https://dc.lft.to/lastmile_qr_scan", "ios": "https://dc.lft.to/lastmile_qr_scan"}, "is_disabled": 0, "fusion_lat": 0.0, "lat": 38.892204666666665, "is_reserved": 0}, {"lon": -76.9683615, "fusion_lon": 0.0, "bike_id": "74bffd22d81f905c7035d19981b65857", "type": "electric_scooter", "name": "74bffd22d81f905c7035d19981b65857", "rental_uris": {"android": "https://dc.lft.to/lastmile_qr_scan", "ios": "https://dc.lft.to/lastmile_qr_scan"}, "is_disabled": 0, "fusion_lat": 0.0, "lat": 38.873336, "is_reserved": 0}, {"lon": -77.02101916666666, "fusion_lon": 0.0, "bike_id": "38b58e08a8bd07c0ff6c5c432346593e", "type": "electric_scooter", "name": "38b58e08a8bd07c0ff6c5c432346593e", "rental_uris": {"android": "https://dc.lft.to/lastmile_qr_scan", "ios": "https://dc.lft.to/lastmile_qr_scan"}, "is_disabled": 0, "fusion_lat": 0.0, "lat": 38.930085166666665, "is_reserved": 0}, {"lon": -77.035097, "fusion_lon": 0.0, "bike_id": "b22350b40a6ea215ed219a688f889a07", "type": "electric_scooter", "name": "b22350b40a6ea215ed219a688f889a07", "rental_uris": {"android": "https://dc.lft.to/lastmile_qr_scan", "ios": "https://dc.lft.to/lastmile_qr_scan"}, "is_disabled": 0, "fusion_lat": 0.0, "lat": 38.92139733333333, "is_reserved": 0}, {"lon": -77.02309016666666, "fusion_lon": 0.0, "bike_id": "32cd7f058a05c0640796257a36437ca7", "type": "electric_scooter", "name": "32cd7f058a05c0640796257a36437ca7", "rental_uris": {"android": "https://dc.lft.to/lastmile_qr_scan", "ios": "https://dc.lft.to/lastmile_qr_scan"}, "is_disabled": 0, "fusion_lat": 0.0, "lat": 38.920906333333335, "is_reserved": 0}, {"lon": -77.00404366666666, "fusion_lon": 0.0, "bike_id": "d717c3025f21bf7166be5a4b768a61d3", "type": "electric_scooter", "name": "d717c3025f21bf7166be5a4b768a61d3", "rental_uris": {"android": "https://dc.lft.to/lastmile_qr_scan", "ios": "https://dc.lft.to/lastmile_qr_scan"}, "is_disabled": 0, "fusion_lat": 0.0, "lat": 38.921307, "is_reserved": 0}, {"lon": -77.03998516666667, "fusion_lon": 0.0, "bike_id": "d7b6cbbc837170a08c2d5dda1ff1adba", "type": "electric_scooter", "name": "d7b6cbbc837170a08c2d5dda1ff1adba", "rental_uris": {"android": "https://dc.lft.to/lastmile_qr_scan", "ios": "https://dc.lft.to/lastmile_qr_scan"}, "is_disabled": 0, "fusion_lat": 0.0, "lat": 38.90327533333333, "is_reserved": 0}, {"lon": -77.04082033333333, "fusion_lon": 0.0, "bike_id": "0f056549f251b21cdf281afdc314b3de", "type": "electric_scooter", "name": "0f056549f251b21cdf281afdc314b3de", "rental_uris": {"android": "https://dc.lft.to/lastmile_qr_scan", "ios": "https://dc.lft.to/lastmile_qr_scan"}, "is_disabled": 0, "fusion_lat": 0.0, "lat": 38.914871833333336, "is_reserved": 0}, {"lon": -77.00714366666666, "fusion_lon": 0.0, "bike_id": "2e76f6d7f85527019949c7d6c88766ad", "type": "electric_scooter", "name": "2e76f6d7f85527019949c7d6c88766ad", "rental_uris": {"android": "https://dc.lft.to/lastmile_qr_scan", "ios": "https://dc.lft.to/lastmile_qr_scan"}, "is_disabled": 0, "fusion_lat": 0.0, "lat": 38.925365, "is_reserved": 0}, {"lon": -77.08862016666667, "fusion_lon": 0.0, "bike_id": "46f2e7d02dae8c6e957981b5328ff011", "type": "electric_scooter", "name": "46f2e7d02dae8c6e957981b5328ff011", "rental_uris": {"android": "https://dc.lft.to/lastmile_qr_scan", "ios": "https://dc.lft.to/lastmile_qr_scan"}, "is_disabled": 0, "fusion_lat": 0.0, "lat": 38.916372, "is_reserved": 0}, {"lon": -77.02213966666666, "fusion_lon": 0.0, "bike_id": "8a3b0aa2c5bda81b3493fbbd0657cfe5", "type": "electric_scooter", "name": "8a3b0aa2c5bda81b3493fbbd0657cfe5", "rental_uris": {"android": "https://dc.lft.to/lastmile_qr_scan", "ios": "https://dc.lft.to/lastmile_qr_scan"}, "is_disabled": 0, "fusion_lat": 0.0, "lat": 38.896225333333334, "is_reserved": 0}, {"lon": -76.98146183333333, "fusion_lon": 0.0, "bike_id": "6b502a93aaa61cda91bedc1fc0ef1cae", "type": "electric_scooter", "name": "6b502a93aaa61cda91bedc1fc0ef1cae", "rental_uris": {"android": "https://dc.lft.to/lastmile_qr_scan", "ios": "https://dc.lft.to/lastmile_qr_scan"}, "is_disabled": 0, "fusion_lat": 0.0, "lat": 38.89742016666667, "is_reserved": 0}, {"lon": -76.9949955, "fusion_lon": 0.0, "bike_id": "987e2e64a794f69decfb03fdeb0991fd", "type": "electric_scooter", "name": "987e2e64a794f69decfb03fdeb0991fd", "rental_uris": {"android": "https://dc.lft.to/lastmile_qr_scan", "ios": "https://dc.lft.to/lastmile_qr_scan"}, "is_disabled": 0, "fusion_lat": 0.0, "lat": 38.90979316666667, "is_reserved": 0}, {"lon": -77.03638316666667, "fusion_lon": 0.0, "bike_id": "c64b2c52f1c86e1c0f60bbbf1ac96f0f", "type": "electric_scooter", "name": "c64b2c52f1c86e1c0f60bbbf1ac96f0f", "rental_uris": {"android": "https://dc.lft.to/lastmile_qr_scan", "ios": "https://dc.lft.to/lastmile_qr_scan"}, "is_disabled": 0, "fusion_lat": 0.0, "lat": 38.92413333333333, "is_reserved": 0}, {"lon": -76.98083533333333, "fusion_lon": 0.0, "bike_id": "c8ab7cd75774a30227bc5ebed8f01e1f", "type": "electric_scooter", "name": "c8ab7cd75774a30227bc5ebed8f01e1f", "rental_uris": {"android": "https://dc.lft.to/lastmile_qr_scan", "ios": "https://dc.lft.to/lastmile_qr_scan"}, "is_disabled": 0, "fusion_lat": 0.0, "lat": 38.9224525, "is_reserved": 0}, {"lon": -77.0234615, "fusion_lon": 0.0, "bike_id": "febfdebcf9b3d752f6d1fd6f1923ef0c", "type": "electric_scooter", "name": "febfdebcf9b3d752f6d1fd6f1923ef0c", "rental_uris": {"android": "https://dc.lft.to/lastmile_qr_scan", "ios": "https://dc.lft.to/lastmile_qr_scan"}, "is_disabled": 0, "fusion_lat": 0.0, "lat": 38.89394083333333, "is_reserved": 0}, {"lon": -77.03256783333333, "fusion_lon": 0.0, "bike_id": "8be03f086f3e5dbf44ceb6a1e65db2c9", "type": "electric_scooter", "name": "8be03f086f3e5dbf44ceb6a1e65db2c9", "rental_uris": {"android": "https://dc.lft.to/lastmile_qr_scan", "ios": "https://dc.lft.to/lastmile_qr_scan"}, "is_disabled": 0, "fusion_lat": 0.0, "lat": 38.901494666666665, "is_reserved": 0}, {"lon": -77.01193783333333, "fusion_lon": 0.0, "bike_id": "d25e2fc4569d4508ae901a85e72889c5", "type": "electric_bike", "name": "d25e2fc4569d4508ae901a85e72889c5", "rental_uris": {"android": "https://dc.lft.to/lastmile_qr_scan", "ios": "https://dc.lft.to/lastmile_qr_scan"}, "is_disabled": 0, "fusion_lat": 0.0, "lat": 38.91695416666666, "is_reserved": 0}, {"lon": -77.0448845, "fusion_lon": 0.0, "bike_id": "d18cfdc5a8e6029508f73dd74328b1d3", "type": "electric_scooter", "name": "d18cfdc5a8e6029508f73dd74328b1d3", "rental_uris": {"android": "https://dc.lft.to/lastmile_qr_scan", "ios": "https://dc.lft.to/lastmile_qr_scan"}, "is_disabled": 0, "fusion_lat": 0.0, "lat": 38.89725033333333, "is_reserved": 0}, {"lon": -76.93369866666667, "fusion_lon": 0.0, "bike_id": "1a67867ae7fe5c35a0bdd0822e45e4f0", "type": "electric_scooter", "name": "1a67867ae7fe5c35a0bdd0822e45e4f0", "rental_uris": {"android": "https://dc.lft.to/lastmile_qr_scan", "ios": "https://dc.lft.to/lastmile_qr_scan"}, "is_disabled": 0, "fusion_lat": 0.0, "lat": 38.899070333333334, "is_reserved": 0}, {"lon": -77.0217975, "fusion_lon": 0.0, "bike_id": "d74f49fb142d4f11d63092290156ccf0", "type": "electric_scooter", "name": "d74f49fb142d4f11d63092290156ccf0", "rental_uris": {"android": "https://dc.lft.to/lastmile_qr_scan", "ios": "https://dc.lft.to/lastmile_qr_scan"}, "is_disabled": 0, "fusion_lat": 0.0, "lat": 38.928574, "is_reserved": 0}, {"lon": -77.0338235, "fusion_lon": 0.0, "bike_id": "708d513f0bde803428f7c4f393c98d00", "type": "electric_scooter", "name": "708d513f0bde803428f7c4f393c98d00", "rental_uris": {"android": "https://dc.lft.to/lastmile_qr_scan", "ios": "https://dc.lft.to/lastmile_qr_scan"}, "is_disabled": 0, "fusion_lat": 0.0, "lat": 38.9215645, "is_reserved": 0}, {"lon": -77.03184466666667, "fusion_lon": 0.0, "bike_id": "13d023c04ff42e0b9d77abdeb4aa79cc", "type": "electric_scooter", "name": "13d023c04ff42e0b9d77abdeb4aa79cc", "rental_uris": {"android": "https://dc.lft.to/lastmile_qr_scan", "ios": "https://dc.lft.to/lastmile_qr_scan"}, "is_disabled": 0, "fusion_lat": 0.0, "lat": 38.920153, "is_reserved": 0}, {"lon": -77.0336505, "fusion_lon": 0.0, "bike_id": "98061e24b0a31a620583233d35d00738", "type": "electric_scooter", "name": "98061e24b0a31a620583233d35d00738", "rental_uris": {"android": "https://dc.lft.to/lastmile_qr_scan", "ios": "https://dc.lft.to/lastmile_qr_scan"}, "is_disabled": 0, "fusion_lat": 0.0, "lat": 38.9192275, "is_reserved": 0}, {"lon": -77.012239, "fusion_lon": 0.0, "bike_id": "9392f108f619b559344c4b93f96889bf", "type": "electric_scooter", "name": "9392f108f619b559344c4b93f96889bf", "rental_uris": {"android": "https://dc.lft.to/lastmile_qr_scan", "ios": "https://dc.lft.to/lastmile_qr_scan"}, "is_disabled": 0, "fusion_lat": 0.0, "lat": 38.91751816666667, "is_reserved": 0}, {"lon": -76.98006216666667, "fusion_lon": 0.0, "bike_id": "1164205e90d3c432812297075424928e", "type": "electric_scooter", "name": "1164205e90d3c432812297075424928e", "rental_uris": {"android": "https://dc.lft.to/lastmile_qr_scan", "ios": "https://dc.lft.to/lastmile_qr_scan"}, "is_disabled": 0, "fusion_lat": 0.0, "lat": 38.90433866666667, "is_reserved": 0}, {"lon": -77.0195395, "fusion_lon": 0.0, "bike_id": "8c7dbfb4ffbc1e980e389ed093080e83", "type": "electric_scooter", "name": "8c7dbfb4ffbc1e980e389ed093080e83", "rental_uris": {"android": "https://dc.lft.to/lastmile_qr_scan", "ios": "https://dc.lft.to/lastmile_qr_scan"}, "is_disabled": 0, "fusion_lat": 0.0, "lat": 38.922573, "is_reserved": 0}, {"lon": -77.044645, "fusion_lon": 0.0, "bike_id": "b2f568a91ed153e36b8af3eb098f4f11", "type": "electric_scooter", "name": "b2f568a91ed153e36b8af3eb098f4f11", "rental_uris": {"android": "https://dc.lft.to/lastmile_qr_scan", "ios": "https://dc.lft.to/lastmile_qr_scan"}, "is_disabled": 0, "fusion_lat": 0.0, "lat": 38.897276, "is_reserved": 0}, {"lon": -77.026591, "fusion_lon": 0.0, "bike_id": "698c5b10da4be91967b1b71523339a4c", "type": "electric_scooter", "name": "698c5b10da4be91967b1b71523339a4c", "rental_uris": {"android": "https://dc.lft.to/lastmile_qr_scan", "ios": "https://dc.lft.to/lastmile_qr_scan"}, "is_disabled": 0, "fusion_lat": 0.0, "lat": 38.91698566666667, "is_reserved": 0}, {"lon": -77.0238675, "fusion_lon": 0.0, "bike_id": "9f8b1988657e5dccb5f0ccea0ee198be", "type": "electric_scooter", "name": "9f8b1988657e5dccb5f0ccea0ee198be", "rental_uris": {"android": "https://dc.lft.to/lastmile_qr_scan", "ios": "https://dc.lft.to/lastmile_qr_scan"}, "is_disabled": 0, "fusion_lat": 0.0, "lat": 38.89738933333334, "is_reserved": 0}, {"lon": -77.04938066666666, "fusion_lon": 0.0, "bike_id": "ba8832d713c3d3a0ceb93e73b7b9b9f6", "type": "electric_scooter", "name": "ba8832d713c3d3a0ceb93e73b7b9b9f6", "rental_uris": {"android": "https://dc.lft.to/lastmile_qr_scan", "ios": "https://dc.lft.to/lastmile_qr_scan"}, "is_disabled": 0, "fusion_lat": 0.0, "lat": 38.9006625, "is_reserved": 0}, {"lon": -77.02760166666667, "fusion_lon": 0.0, "bike_id": "b35b162fee60e6dafa0ff4feece8889f", "type": "electric_scooter", "name": "b35b162fee60e6dafa0ff4feece8889f", "rental_uris": {"android": "https://dc.lft.to/lastmile_qr_scan", "ios": "https://dc.lft.to/lastmile_qr_scan"}, "is_disabled": 0, "fusion_lat": 0.0, "lat": 38.9169825, "is_reserved": 0}, {"lon": -77.04030116666667, "fusion_lon": 0.0, "bike_id": "4a531a20b917fd1551bf0ed4c8d3da86", "type": "electric_scooter", "name": "4a531a20b917fd1551bf0ed4c8d3da86", "rental_uris": {"android": "https://dc.lft.to/lastmile_qr_scan", "ios": "https://dc.lft.to/lastmile_qr_scan"}, "is_disabled": 0, "fusion_lat": 0.0, "lat": 38.924082166666665, "is_reserved": 0}, {"lon": -77.00629116666667, "fusion_lon": 0.0, "bike_id": "079422723b115febcce2ef640f4e555e", "type": "electric_scooter", "name": "079422723b115febcce2ef640f4e555e", "rental_uris": {"android": "https://dc.lft.to/lastmile_qr_scan", "ios": "https://dc.lft.to/lastmile_qr_scan"}, "is_disabled": 0, "fusion_lat": 0.0, "lat": 38.871735, "is_reserved": 0}, {"lon": -77.02653616666667, "fusion_lon": 0.0, "bike_id": "2329410b4dda4399ca4d55ac7e8fca73", "type": "electric_scooter", "name": "2329410b4dda4399ca4d55ac7e8fca73", "rental_uris": {"android": "https://dc.lft.to/lastmile_qr_scan", "ios": "https://dc.lft.to/lastmile_qr_scan"}, "is_disabled": 0, "fusion_lat": 0.0, "lat": 38.938634, "is_reserved": 0}, {"lon": -77.00543283333333, "fusion_lon": 0.0, "bike_id": "6d57bc2687bf1ea3e15fee0da61c234f", "type": "electric_scooter", "name": "6d57bc2687bf1ea3e15fee0da61c234f", "rental_uris": {"android": "https://dc.lft.to/lastmile_qr_scan", "ios": "https://dc.lft.to/lastmile_qr_scan"}, "is_disabled": 0, "fusion_lat": 0.0, "lat": 38.90554783333333, "is_reserved": 0}, {"lon": -77.0281165, "fusion_lon": 0.0, "bike_id": "c1ee600d6257b7434e421943d7f69e38", "type": "electric_scooter", "name": "c1ee600d6257b7434e421943d7f69e38", "rental_uris": {"android": "https://dc.lft.to/lastmile_qr_scan", "ios": "https://dc.lft.to/lastmile_qr_scan"}, "is_disabled": 0, "fusion_lat": 0.0, "lat": 38.91649016666667, "is_reserved": 0}, {"lon": -77.03293283333333, "fusion_lon": 0.0, "bike_id": "9f5b77176dc6b822093b173c10a39685", "type": "electric_scooter", "name": "9f5b77176dc6b822093b173c10a39685", "rental_uris": {"android": "https://dc.lft.to/lastmile_qr_scan", "ios": "https://dc.lft.to/lastmile_qr_scan"}, "is_disabled": 0, "fusion_lat": 0.0, "lat": 38.909552833333336, "is_reserved": 0}, {"lon": -77.00709133333334, "fusion_lon": 0.0, "bike_id": "de6829a372d53534624b34207ce0c309", "type": "electric_scooter", "name": "de6829a372d53534624b34207ce0c309", "rental_uris": {"android": "https://dc.lft.to/lastmile_qr_scan", "ios": "https://dc.lft.to/lastmile_qr_scan"}, "is_disabled": 0, "fusion_lat": 0.0, "lat": 38.87738266666667, "is_reserved": 0}, {"lon": -76.97617983333333, "fusion_lon": 0.0, "bike_id": "3b4835eb379395ae880faa0aa0865708", "type": "electric_scooter", "name": "3b4835eb379395ae880faa0aa0865708", "rental_uris": {"android": "https://dc.lft.to/lastmile_qr_scan", "ios": "https://dc.lft.to/lastmile_qr_scan"}, "is_disabled": 0, "fusion_lat": 0.0, "lat": 38.8927685, "is_reserved": 0}, {"lon": -77.05177933333333, "fusion_lon": 0.0, "bike_id": "9e215bb80a32c89a4fd25e9f94a2542e", "type": "electric_scooter", "name": "9e215bb80a32c89a4fd25e9f94a2542e", "rental_uris": {"android": "https://dc.lft.to/lastmile_qr_scan", "ios": "https://dc.lft.to/lastmile_qr_scan"}, "is_disabled": 0, "fusion_lat": 0.0, "lat": 38.92368966666667, "is_reserved": 0}, {"lon": -77.0746395, "fusion_lon": 0.0, "bike_id": "c1b90091928e8f8353cb3c72039c4838", "type": "electric_scooter", "name": "c1b90091928e8f8353cb3c72039c4838", "rental_uris": {"android": "https://dc.lft.to/lastmile_qr_scan", "ios": "https://dc.lft.to/lastmile_qr_scan"}, "is_disabled": 0, "fusion_lat": 0.0, "lat": 38.935595666666664, "is_reserved": 0}, {"lon": -77.00746, "fusion_lon": 0.0, "bike_id": "008fbe9ccde94e7571771c84a8326959", "type": "electric_scooter", "name": "008fbe9ccde94e7571771c84a8326959", "rental_uris": {"android": "https://dc.lft.to/lastmile_qr_scan", "ios": "https://dc.lft.to/lastmile_qr_scan"}, "is_disabled": 0, "fusion_lat": 0.0, "lat": 38.87690883333333, "is_reserved": 0}, {"lon": -77.040329, "fusion_lon": 0.0, "bike_id": "54b1024662abae0174b0ed6be3aabaab", "type": "electric_scooter", "name": "54b1024662abae0174b0ed6be3aabaab", "rental_uris": {"android": "https://dc.lft.to/lastmile_qr_scan", "ios": "https://dc.lft.to/lastmile_qr_scan"}, "is_disabled": 0, "fusion_lat": 0.0, "lat": 38.90618466666667, "is_reserved": 0}, {"lon": -76.95196583333333, "fusion_lon": 0.0, "bike_id": "8f1a27c4e1527d894b54e27c1245cee5", "type": "electric_scooter", "name": "8f1a27c4e1527d894b54e27c1245cee5", "rental_uris": {"android": "https://dc.lft.to/lastmile_qr_scan", "ios": "https://dc.lft.to/lastmile_qr_scan"}, "is_disabled": 0, "fusion_lat": 0.0, "lat": 38.891303, "is_reserved": 0}, {"lon": -77.03716166666666, "fusion_lon": 0.0, "bike_id": "554d4d77c0720d058dd57df156a6dcc1", "type": "electric_scooter", "name": "554d4d77c0720d058dd57df156a6dcc1", "rental_uris": {"android": "https://dc.lft.to/lastmile_qr_scan", "ios": "https://dc.lft.to/lastmile_qr_scan"}, "is_disabled": 0, "fusion_lat": 0.0, "lat": 38.90362566666667, "is_reserved": 0}, {"lon": -77.04289083333333, "fusion_lon": 0.0, "bike_id": "8c48c77e6be6666914cd4b64cd1ad8d2", "type": "electric_scooter", "name": "8c48c77e6be6666914cd4b64cd1ad8d2", "rental_uris": {"android": "https://dc.lft.to/lastmile_qr_scan", "ios": "https://dc.lft.to/lastmile_qr_scan"}, "is_disabled": 0, "fusion_lat": 0.0, "lat": 38.906533333333336, "is_reserved": 0}, {"lon": -77.0337205, "fusion_lon": 0.0, "bike_id": "53c5924e4ac4b83085b9eb0857507835", "type": "electric_scooter", "name": "53c5924e4ac4b83085b9eb0857507835", "rental_uris": {"android": "https://dc.lft.to/lastmile_qr_scan", "ios": "https://dc.lft.to/lastmile_qr_scan"}, "is_disabled": 0, "fusion_lat": 0.0, "lat": 38.921490166666665, "is_reserved": 0}, {"lon": -77.0007255, "fusion_lon": 0.0, "bike_id": "5a1029b8fea3113c2d068182a74c5b4a", "type": "electric_scooter", "name": "5a1029b8fea3113c2d068182a74c5b4a", "rental_uris": {"android": "https://dc.lft.to/lastmile_qr_scan", "ios": "https://dc.lft.to/lastmile_qr_scan"}, "is_disabled": 0, "fusion_lat": 0.0, "lat": 38.876793666666664, "is_reserved": 0}, {"lon": -76.97978333333333, "fusion_lon": 0.0, "bike_id": "e9bb638586aecbd37f9e8c1c1ae1614c", "type": "electric_scooter", "name": "e9bb638586aecbd37f9e8c1c1ae1614c", "rental_uris": {"android": "https://dc.lft.to/lastmile_qr_scan", "ios": "https://dc.lft.to/lastmile_qr_scan"}, "is_disabled": 0, "fusion_lat": 0.0, "lat": 38.89736833333333, "is_reserved": 0}, {"lon": -77.01599383333334, "fusion_lon": 0.0, "bike_id": "3c343312dbe112632f584eec684ef068", "type": "electric_scooter", "name": "3c343312dbe112632f584eec684ef068", "rental_uris": {"android": "https://dc.lft.to/lastmile_qr_scan", "ios": "https://dc.lft.to/lastmile_qr_scan"}, "is_disabled": 0, "fusion_lat": 0.0, "lat": 38.916886833333336, "is_reserved": 0}, {"lon": -77.05068866666667, "fusion_lon": 0.0, "bike_id": "0078c3a7a265b3d016f23c1cfb3fe905", "type": "electric_scooter", "name": "0078c3a7a265b3d016f23c1cfb3fe905", "rental_uris": {"android": "https://dc.lft.to/lastmile_qr_scan", "ios": "https://dc.lft.to/lastmile_qr_scan"}, "is_disabled": 0, "fusion_lat": 0.0, "lat": 38.92537016666667, "is_reserved": 0}, {"lon": -77.02142866666667, "fusion_lon": 0.0, "bike_id": "6c7102a4dad6b16c4587523d8be55359", "type": "electric_scooter", "name": "6c7102a4dad6b16c4587523d8be55359", "rental_uris": {"android": "https://dc.lft.to/lastmile_qr_scan", "ios": "https://dc.lft.to/lastmile_qr_scan"}, "is_disabled": 0, "fusion_lat": 0.0, "lat": 38.91550083333333, "is_reserved": 0}, {"lon": -76.98600283333333, "fusion_lon": 0.0, "bike_id": "060eb74585c286fd81e42b2674f16088", "type": "electric_scooter", "name": "060eb74585c286fd81e42b2674f16088", "rental_uris": {"android": "https://dc.lft.to/lastmile_qr_scan", "ios": "https://dc.lft.to/lastmile_qr_scan"}, "is_disabled": 0, "fusion_lat": 0.0, "lat": 38.903756333333334, "is_reserved": 0}, {"lon": -77.0435615, "fusion_lon": 0.0, "bike_id": "8b2fca64afba53cb6025e19e25046668", "type": "electric_scooter", "name": "8b2fca64afba53cb6025e19e25046668", "rental_uris": {"android": "https://dc.lft.to/lastmile_qr_scan", "ios": "https://dc.lft.to/lastmile_qr_scan"}, "is_disabled": 0, "fusion_lat": 0.0, "lat": 38.90599433333333, "is_reserved": 0}, {"lon": -77.03828516666667, "fusion_lon": 0.0, "bike_id": "3bc822b7069a102c62c767850bfd0c7e", "type": "electric_scooter", "name": "3bc822b7069a102c62c767850bfd0c7e", "rental_uris": {"android": "https://dc.lft.to/lastmile_qr_scan", "ios": "https://dc.lft.to/lastmile_qr_scan"}, "is_disabled": 0, "fusion_lat": 0.0, "lat": 38.9026225, "is_reserved": 0}, {"lon": -76.98571266666667, "fusion_lon": 0.0, "bike_id": "c8e0e664ae081145fdffd09b3017be56", "type": "electric_scooter", "name": "c8e0e664ae081145fdffd09b3017be56", "rental_uris": {"android": "https://dc.lft.to/lastmile_qr_scan", "ios": "https://dc.lft.to/lastmile_qr_scan"}, "is_disabled": 0, "fusion_lat": 0.0, "lat": 38.866812833333334, "is_reserved": 0}, {"lon": -77.02188066666666, "fusion_lon": 0.0, "bike_id": "03553907416bd783844118ec4659db4a", "type": "electric_scooter", "name": "03553907416bd783844118ec4659db4a", "rental_uris": {"android": "https://dc.lft.to/lastmile_qr_scan", "ios": "https://dc.lft.to/lastmile_qr_scan"}, "is_disabled": 0, "fusion_lat": 0.0, "lat": 38.9098095, "is_reserved": 0}, {"lon": -77.04179033333334, "fusion_lon": 0.0, "bike_id": "31d8b824b63bc06de97a65c80569c246", "type": "electric_scooter", "name": "31d8b824b63bc06de97a65c80569c246", "rental_uris": {"android": "https://dc.lft.to/lastmile_qr_scan", "ios": "https://dc.lft.to/lastmile_qr_scan"}, "is_disabled": 0, "fusion_lat": 0.0, "lat": 38.91858633333333, "is_reserved": 0}, {"lon": -77.13465983333333, "fusion_lon": 0.0, "bike_id": "f6d8b3da02784747c24838915ed27e08", "type": "electric_bike", "name": "f6d8b3da02784747c24838915ed27e08", "rental_uris": {"android": "https://dc.lft.to/lastmile_qr_scan", "ios": "https://dc.lft.to/lastmile_qr_scan"}, "is_disabled": 0, "fusion_lat": 0.0, "lat": 38.8535105, "is_reserved": 0}, {"lon": -77.07269166666667, "fusion_lon": 0.0, "bike_id": "9c509c4b3ab32b24106d5ab8c14da3e9", "type": "electric_scooter", "name": "9c509c4b3ab32b24106d5ab8c14da3e9", "rental_uris": {"android": "https://dc.lft.to/lastmile_qr_scan", "ios": "https://dc.lft.to/lastmile_qr_scan"}, "is_disabled": 0, "fusion_lat": 0.0, "lat": 38.93481416666667, "is_reserved": 0}, {"lon": -77.01312316666667, "fusion_lon": 0.0, "bike_id": "77d3dc5ecce50df8798d07b2b8fe0aac", "type": "electric_scooter", "name": "77d3dc5ecce50df8798d07b2b8fe0aac", "rental_uris": {"android": "https://dc.lft.to/lastmile_qr_scan", "ios": "https://dc.lft.to/lastmile_qr_scan"}, "is_disabled": 0, "fusion_lat": 0.0, "lat": 38.901375, "is_reserved": 0}, {"lon": -77.02711566666666, "fusion_lon": 0.0, "bike_id": "f550a3cb17dfda6e01f801bb321b081d", "type": "electric_scooter", "name": "f550a3cb17dfda6e01f801bb321b081d", "rental_uris": {"android": "https://dc.lft.to/lastmile_qr_scan", "ios": "https://dc.lft.to/lastmile_qr_scan"}, "is_disabled": 0, "fusion_lat": 0.0, "lat": 38.9171665, "is_reserved": 0}, {"lon": -77.0418295, "fusion_lon": 0.0, "bike_id": "45583b38ce07d249ee6fb563985098dd", "type": "electric_scooter", "name": "45583b38ce07d249ee6fb563985098dd", "rental_uris": {"android": "https://dc.lft.to/lastmile_qr_scan", "ios": "https://dc.lft.to/lastmile_qr_scan"}, "is_disabled": 0, "fusion_lat": 0.0, "lat": 38.905354, "is_reserved": 0}, {"lon": -77.023855, "fusion_lon": 0.0, "bike_id": "04932ef7a9e44a71a380eb9215778952", "type": "electric_bike", "name": "04932ef7a9e44a71a380eb9215778952", "rental_uris": {"android": "https://dc.lft.to/lastmile_qr_scan", "ios": "https://dc.lft.to/lastmile_qr_scan"}, "is_disabled": 0, "fusion_lat": 0.0, "lat": 38.9896865, "is_reserved": 0}, {"lon": -77.046794, "fusion_lon": 0.0, "bike_id": "9b730070e421554248798078faaec32e", "type": "electric_scooter", "name": "9b730070e421554248798078faaec32e", "rental_uris": {"android": "https://dc.lft.to/lastmile_qr_scan", "ios": "https://dc.lft.to/lastmile_qr_scan"}, "is_disabled": 0, "fusion_lat": 0.0, "lat": 38.901411833333334, "is_reserved": 0}, {"lon": -77.11085616666666, "fusion_lon": 0.0, "bike_id": "6c1dbeba0ca1229e7f01b3ecff8625ec", "type": "electric_bike", "name": "6c1dbeba0ca1229e7f01b3ecff8625ec", "rental_uris": {"android": "https://dc.lft.to/lastmile_qr_scan", "ios": "https://dc.lft.to/lastmile_qr_scan"}, "is_disabled": 0, "fusion_lat": 0.0, "lat": 39.012161, "is_reserved": 0}, {"lon": -77.00677116666667, "fusion_lon": 0.0, "bike_id": "1d1af0b5f8a2d67db7a618f6e7c718be", "type": "electric_scooter", "name": "1d1af0b5f8a2d67db7a618f6e7c718be", "rental_uris": {"android": "https://dc.lft.to/lastmile_qr_scan", "ios": "https://dc.lft.to/lastmile_qr_scan"}, "is_disabled": 0, "fusion_lat": 0.0, "lat": 38.871665166666666, "is_reserved": 0}, {"lon": -77.02826466666667, "fusion_lon": 0.0, "bike_id": "6934dca8104605f2e2f5f661704e92de", "type": "electric_scooter", "name": "6934dca8104605f2e2f5f661704e92de", "rental_uris": {"android": "https://dc.lft.to/lastmile_qr_scan", "ios": "https://dc.lft.to/lastmile_qr_scan"}, "is_disabled": 0, "fusion_lat": 0.0, "lat": 38.932064833333335, "is_reserved": 0}, {"lon": -76.97953183333334, "fusion_lon": 0.0, "bike_id": "59da03b24fc2c76e28b557c4c54144f5", "type": "electric_scooter", "name": "59da03b24fc2c76e28b557c4c54144f5", "rental_uris": {"android": "https://dc.lft.to/lastmile_qr_scan", "ios": "https://dc.lft.to/lastmile_qr_scan"}, "is_disabled": 0, "fusion_lat": 0.0, "lat": 38.90500633333333, "is_reserved": 0}, {"lon": -77.036791, "fusion_lon": 0.0, "bike_id": "47892affd29cec89281c45830e85e1f5", "type": "electric_scooter", "name": "47892affd29cec89281c45830e85e1f5", "rental_uris": {"android": "https://dc.lft.to/lastmile_qr_scan", "ios": "https://dc.lft.to/lastmile_qr_scan"}, "is_disabled": 0, "fusion_lat": 0.0, "lat": 38.922625833333335, "is_reserved": 0}, {"lon": -77.026965, "fusion_lon": 0.0, "bike_id": "266e28abcfe4243816b1d56e9b8441de", "type": "electric_scooter", "name": "266e28abcfe4243816b1d56e9b8441de", "rental_uris": {"android": "https://dc.lft.to/lastmile_qr_scan", "ios": "https://dc.lft.to/lastmile_qr_scan"}, "is_disabled": 0, "fusion_lat": 0.0, "lat": 38.899896, "is_reserved": 0}, {"lon": -77.04343883333334, "fusion_lon": 0.0, "bike_id": "6d95af8d1d3a7dcc2c83b746c25452fc", "type": "electric_scooter", "name": "6d95af8d1d3a7dcc2c83b746c25452fc", "rental_uris": {"android": "https://dc.lft.to/lastmile_qr_scan", "ios": "https://dc.lft.to/lastmile_qr_scan"}, "is_disabled": 0, "fusion_lat": 0.0, "lat": 38.90866283333333, "is_reserved": 0}, {"lon": -76.99501366666667, "fusion_lon": 0.0, "bike_id": "8a5c98dc3ded5ae0958258bd0899d322", "type": "electric_scooter", "name": "8a5c98dc3ded5ae0958258bd0899d322", "rental_uris": {"android": "https://dc.lft.to/lastmile_qr_scan", "ios": "https://dc.lft.to/lastmile_qr_scan"}, "is_disabled": 0, "fusion_lat": 0.0, "lat": 38.86241283333333, "is_reserved": 0}, {"lon": -77.0253345, "fusion_lon": 0.0, "bike_id": "b37ed0aa57836752f6e08afb7b7ef02b", "type": "electric_scooter", "name": "b37ed0aa57836752f6e08afb7b7ef02b", "rental_uris": {"android": "https://dc.lft.to/lastmile_qr_scan", "ios": "https://dc.lft.to/lastmile_qr_scan"}, "is_disabled": 0, "fusion_lat": 0.0, "lat": 38.9454955, "is_reserved": 0}, {"lon": -77.02079483333333, "fusion_lon": 0.0, "bike_id": "3a2a21befed9666d442a4e25fa3a2d00", "type": "electric_scooter", "name": "3a2a21befed9666d442a4e25fa3a2d00", "rental_uris": {"android": "https://dc.lft.to/lastmile_qr_scan", "ios": "https://dc.lft.to/lastmile_qr_scan"}, "is_disabled": 0, "fusion_lat": 0.0, "lat": 38.92777866666667, "is_reserved": 0}, {"lon": -77.0323595, "fusion_lon": 0.0, "bike_id": "ee8d8e5639c6f7422eefa76b0c39d8be", "type": "electric_scooter", "name": "ee8d8e5639c6f7422eefa76b0c39d8be", "rental_uris": {"android": "https://dc.lft.to/lastmile_qr_scan", "ios": "https://dc.lft.to/lastmile_qr_scan"}, "is_disabled": 0, "fusion_lat": 0.0, "lat": 38.920580333333334, "is_reserved": 0}, {"lon": -77.04351966666667, "fusion_lon": 0.0, "bike_id": "a9f8af60c87e8289a537192e32e59269", "type": "electric_scooter", "name": "a9f8af60c87e8289a537192e32e59269", "rental_uris": {"android": "https://dc.lft.to/lastmile_qr_scan", "ios": "https://dc.lft.to/lastmile_qr_scan"}, "is_disabled": 0, "fusion_lat": 0.0, "lat": 38.908417166666666, "is_reserved": 0}, {"lon": -77.037921, "fusion_lon": 0.0, "bike_id": "73b489b89e0a701d082c1717ae801e67", "type": "electric_scooter", "name": "73b489b89e0a701d082c1717ae801e67", "rental_uris": {"android": "https://dc.lft.to/lastmile_qr_scan", "ios": "https://dc.lft.to/lastmile_qr_scan"}, "is_disabled": 0, "fusion_lat": 0.0, "lat": 38.92184566666667, "is_reserved": 0}, {"lon": -76.94047716666667, "fusion_lon": 0.0, "bike_id": "766286a9553e3e31e8632dbe589c76bd", "type": "electric_bike", "name": "766286a9553e3e31e8632dbe589c76bd", "rental_uris": {"android": "https://dc.lft.to/lastmile_qr_scan", "ios": "https://dc.lft.to/lastmile_qr_scan"}, "is_disabled": 0, "fusion_lat": 0.0, "lat": 38.978564666666664, "is_reserved": 0}, {"lon": -77.02705816666666, "fusion_lon": 0.0, "bike_id": "dfe85f00839e951c3dddcc8ba2d5eff5", "type": "electric_scooter", "name": "dfe85f00839e951c3dddcc8ba2d5eff5", "rental_uris": {"android": "https://dc.lft.to/lastmile_qr_scan", "ios": "https://dc.lft.to/lastmile_qr_scan"}, "is_disabled": 0, "fusion_lat": 0.0, "lat": 38.90479966666667, "is_reserved": 0}, {"lon": -77.02408716666666, "fusion_lon": 0.0, "bike_id": "2667e28a4c30e4bb7707e2cde07db118", "type": "electric_scooter", "name": "2667e28a4c30e4bb7707e2cde07db118", "rental_uris": {"android": "https://dc.lft.to/lastmile_qr_scan", "ios": "https://dc.lft.to/lastmile_qr_scan"}, "is_disabled": 0, "fusion_lat": 0.0, "lat": 38.9154245, "is_reserved": 0}, {"lon": -77.03969633333334, "fusion_lon": 0.0, "bike_id": "05dc5b50866a6818a51b830aec5bf0bc", "type": "electric_scooter", "name": "05dc5b50866a6818a51b830aec5bf0bc", "rental_uris": {"android": "https://dc.lft.to/lastmile_qr_scan", "ios": "https://dc.lft.to/lastmile_qr_scan"}, "is_disabled": 0, "fusion_lat": 0.0, "lat": 38.924533, "is_reserved": 0}, {"lon": -76.98713216666667, "fusion_lon": 0.0, "bike_id": "31be06735c17004f52b548ecee1c8589", "type": "electric_scooter", "name": "31be06735c17004f52b548ecee1c8589", "rental_uris": {"android": "https://dc.lft.to/lastmile_qr_scan", "ios": "https://dc.lft.to/lastmile_qr_scan"}, "is_disabled": 0, "fusion_lat": 0.0, "lat": 38.8669765, "is_reserved": 0}, {"lon": -76.94638533333334, "fusion_lon": 0.0, "bike_id": "0aad4fda539b964965cae5ee1fcd33e5", "type": "electric_scooter", "name": "0aad4fda539b964965cae5ee1fcd33e5", "rental_uris": {"android": "https://dc.lft.to/lastmile_qr_scan", "ios": "https://dc.lft.to/lastmile_qr_scan"}, "is_disabled": 0, "fusion_lat": 0.0, "lat": 38.898677666666664, "is_reserved": 0}, {"lon": -77.03070366666667, "fusion_lon": 0.0, "bike_id": "f80f3a2b3e6314d267619fc7f68f31f9", "type": "electric_scooter", "name": "f80f3a2b3e6314d267619fc7f68f31f9", "rental_uris": {"android": "https://dc.lft.to/lastmile_qr_scan", "ios": "https://dc.lft.to/lastmile_qr_scan"}, "is_disabled": 0, "fusion_lat": 0.0, "lat": 38.90254616666667, "is_reserved": 0}, {"lon": -77.04168516666667, "fusion_lon": 0.0, "bike_id": "ccb728ff718f3930fc7a96303bced5f6", "type": "electric_scooter", "name": "ccb728ff718f3930fc7a96303bced5f6", "rental_uris": {"android": "https://dc.lft.to/lastmile_qr_scan", "ios": "https://dc.lft.to/lastmile_qr_scan"}, "is_disabled": 0, "fusion_lat": 0.0, "lat": 38.90145233333333, "is_reserved": 0}, {"lon": -77.04940733333333, "fusion_lon": 0.0, "bike_id": "99fae16f327d6662d377445af2c39459", "type": "electric_scooter", "name": "99fae16f327d6662d377445af2c39459", "rental_uris": {"android": "https://dc.lft.to/lastmile_qr_scan", "ios": "https://dc.lft.to/lastmile_qr_scan"}, "is_disabled": 0, "fusion_lat": 0.0, "lat": 38.888234833333335, "is_reserved": 0}, {"lon": -77.02806, "fusion_lon": 0.0, "bike_id": "583e4712c6ebf0c46f45fbb15f5a2315", "type": "electric_scooter", "name": "583e4712c6ebf0c46f45fbb15f5a2315", "rental_uris": {"android": "https://dc.lft.to/lastmile_qr_scan", "ios": "https://dc.lft.to/lastmile_qr_scan"}, "is_disabled": 0, "fusion_lat": 0.0, "lat": 38.93074, "is_reserved": 0}, {"lon": -77.03318283333333, "fusion_lon": 0.0, "bike_id": "146577f7e4989553639c025c3c59e534", "type": "electric_scooter", "name": "146577f7e4989553639c025c3c59e534", "rental_uris": {"android": "https://dc.lft.to/lastmile_qr_scan", "ios": "https://dc.lft.to/lastmile_qr_scan"}, "is_disabled": 0, "fusion_lat": 0.0, "lat": 38.8981675, "is_reserved": 0}, {"lon": -77.03778733333333, "fusion_lon": 0.0, "bike_id": "3f9a75686ff6ad1f69015be48eaf9f23", "type": "electric_scooter", "name": "3f9a75686ff6ad1f69015be48eaf9f23", "rental_uris": {"android": "https://dc.lft.to/lastmile_qr_scan", "ios": "https://dc.lft.to/lastmile_qr_scan"}, "is_disabled": 0, "fusion_lat": 0.0, "lat": 38.9262575, "is_reserved": 0}, {"lon": -77.005503, "fusion_lon": 0.0, "bike_id": "495796724912d793601f75a4fff015a1", "type": "electric_scooter", "name": "495796724912d793601f75a4fff015a1", "rental_uris": {"android": "https://dc.lft.to/lastmile_qr_scan", "ios": "https://dc.lft.to/lastmile_qr_scan"}, "is_disabled": 0, "fusion_lat": 0.0, "lat": 38.879139333333335, "is_reserved": 0}, {"lon": -77.04256266666667, "fusion_lon": 0.0, "bike_id": "290c5a60deb106dca345f081753761df", "type": "electric_scooter", "name": "290c5a60deb106dca345f081753761df", "rental_uris": {"android": "https://dc.lft.to/lastmile_qr_scan", "ios": "https://dc.lft.to/lastmile_qr_scan"}, "is_disabled": 0, "fusion_lat": 0.0, "lat": 38.909863, "is_reserved": 0}, {"lon": -77.07133216666666, "fusion_lon": 0.0, "bike_id": "aae9eb63416f8ed9ab04b96503677fa2", "type": "electric_scooter", "name": "aae9eb63416f8ed9ab04b96503677fa2", "rental_uris": {"android": "https://dc.lft.to/lastmile_qr_scan", "ios": "https://dc.lft.to/lastmile_qr_scan"}, "is_disabled": 0, "fusion_lat": 0.0, "lat": 38.9067085, "is_reserved": 0}, {"lon": -76.971695, "fusion_lon": 0.0, "bike_id": "9081f48150d9ba830877faca42c894c9", "type": "electric_scooter", "name": "9081f48150d9ba830877faca42c894c9", "rental_uris": {"android": "https://dc.lft.to/lastmile_qr_scan", "ios": "https://dc.lft.to/lastmile_qr_scan"}, "is_disabled": 0, "fusion_lat": 0.0, "lat": 38.878154, "is_reserved": 0}, {"lon": -76.99375733333333, "fusion_lon": 0.0, "bike_id": "25423173995825c2dc20dffe76030b68", "type": "electric_bike", "name": "25423173995825c2dc20dffe76030b68", "rental_uris": {"android": "https://dc.lft.to/lastmile_qr_scan", "ios": "https://dc.lft.to/lastmile_qr_scan"}, "is_disabled": 0, "fusion_lat": 0.0, "lat": 38.99092016666667, "is_reserved": 0}, {"lon": -77.04504233333333, "fusion_lon": 0.0, "bike_id": "b9b10ce81b34f0f780e3c62310c21be4", "type": "electric_scooter", "name": "b9b10ce81b34f0f780e3c62310c21be4", "rental_uris": {"android": "https://dc.lft.to/lastmile_qr_scan", "ios": "https://dc.lft.to/lastmile_qr_scan"}, "is_disabled": 0, "fusion_lat": 0.0, "lat": 38.89294616666667, "is_reserved": 0}, {"lon": -76.98172516666666, "fusion_lon": 0.0, "bike_id": "7982f64c426ac94b9de1c5e6eeb20738", "type": "electric_scooter", "name": "7982f64c426ac94b9de1c5e6eeb20738", "rental_uris": {"android": "https://dc.lft.to/lastmile_qr_scan", "ios": "https://dc.lft.to/lastmile_qr_scan"}, "is_disabled": 0, "fusion_lat": 0.0, "lat": 38.91676666666667, "is_reserved": 0}, {"lon": -77.03177566666666, "fusion_lon": 0.0, "bike_id": "269ff88751d86e40d9c797e7f884479c", "type": "electric_scooter", "name": "269ff88751d86e40d9c797e7f884479c", "rental_uris": {"android": "https://dc.lft.to/lastmile_qr_scan", "ios": "https://dc.lft.to/lastmile_qr_scan"}, "is_disabled": 0, "fusion_lat": 0.0, "lat": 38.901096, "is_reserved": 0}, {"lon": -77.03185716666667, "fusion_lon": 0.0, "bike_id": "705f20facff4ef986057edbe2c683c1a", "type": "electric_scooter", "name": "705f20facff4ef986057edbe2c683c1a", "rental_uris": {"android": "https://dc.lft.to/lastmile_qr_scan", "ios": "https://dc.lft.to/lastmile_qr_scan"}, "is_disabled": 0, "fusion_lat": 0.0, "lat": 38.915766166666664, "is_reserved": 0}, {"lon": -77.02486566666667, "fusion_lon": 0.0, "bike_id": "8d205d3e986f610106c130678209784e", "type": "electric_scooter", "name": "8d205d3e986f610106c130678209784e", "rental_uris": {"android": "https://dc.lft.to/lastmile_qr_scan", "ios": "https://dc.lft.to/lastmile_qr_scan"}, "is_disabled": 0, "fusion_lat": 0.0, "lat": 38.919448833333334, "is_reserved": 0}, {"lon": -76.98061716666666, "fusion_lon": 0.0, "bike_id": "b5e55c0633a43c5310a12a9db750117a", "type": "electric_bike", "name": "b5e55c0633a43c5310a12a9db750117a", "rental_uris": {"android": "https://dc.lft.to/lastmile_qr_scan", "ios": "https://dc.lft.to/lastmile_qr_scan"}, "is_disabled": 0, "fusion_lat": 0.0, "lat": 38.901151166666665, "is_reserved": 0}, {"lon": -77.04174816666666, "fusion_lon": 0.0, "bike_id": "44231386911988daafd1775c4dfe9753", "type": "electric_scooter", "name": "44231386911988daafd1775c4dfe9753", "rental_uris": {"android": "https://dc.lft.to/lastmile_qr_scan", "ios": "https://dc.lft.to/lastmile_qr_scan"}, "is_disabled": 0, "fusion_lat": 0.0, "lat": 38.91899083333333, "is_reserved": 0}, {"lon": -77.04171816666667, "fusion_lon": 0.0, "bike_id": "cc33af93de421c4ff987aef038100754", "type": "electric_scooter", "name": "cc33af93de421c4ff987aef038100754", "rental_uris": {"android": "https://dc.lft.to/lastmile_qr_scan", "ios": "https://dc.lft.to/lastmile_qr_scan"}, "is_disabled": 0, "fusion_lat": 0.0, "lat": 38.9166135, "is_reserved": 0}, {"lon": -76.95418216666667, "fusion_lon": 0.0, "bike_id": "7e0e66d81180bcc4830572fdc8931aee", "type": "electric_bike", "name": "7e0e66d81180bcc4830572fdc8931aee", "rental_uris": {"android": "https://dc.lft.to/lastmile_qr_scan", "ios": "https://dc.lft.to/lastmile_qr_scan"}, "is_disabled": 0, "fusion_lat": 0.0, "lat": 38.884169666666665, "is_reserved": 0}, {"lon": -77.02964716666666, "fusion_lon": 0.0, "bike_id": "c63215ef5a4ececb9a539d83eb202534", "type": "electric_scooter", "name": "c63215ef5a4ececb9a539d83eb202534", "rental_uris": {"android": "https://dc.lft.to/lastmile_qr_scan", "ios": "https://dc.lft.to/lastmile_qr_scan"}, "is_disabled": 0, "fusion_lat": 0.0, "lat": 38.916606, "is_reserved": 0}, {"lon": -77.06186333333333, "fusion_lon": 0.0, "bike_id": "709f51cb6476638c58f22b14127e6708", "type": "electric_scooter", "name": "709f51cb6476638c58f22b14127e6708", "rental_uris": {"android": "https://dc.lft.to/lastmile_qr_scan", "ios": "https://dc.lft.to/lastmile_qr_scan"}, "is_disabled": 0, "fusion_lat": 0.0, "lat": 38.903330833333335, "is_reserved": 0}, {"lon": -77.0263995, "fusion_lon": 0.0, "bike_id": "9fae254ecdeb5e9707b350e671cb60d1", "type": "electric_scooter", "name": "9fae254ecdeb5e9707b350e671cb60d1", "rental_uris": {"android": "https://dc.lft.to/lastmile_qr_scan", "ios": "https://dc.lft.to/lastmile_qr_scan"}, "is_disabled": 0, "fusion_lat": 0.0, "lat": 38.89851816666667, "is_reserved": 0}, {"lon": -77.0208195, "fusion_lon": 0.0, "bike_id": "5f3705e9b5280f5f338853ade5b2505c", "type": "electric_scooter", "name": "5f3705e9b5280f5f338853ade5b2505c", "rental_uris": {"android": "https://dc.lft.to/lastmile_qr_scan", "ios": "https://dc.lft.to/lastmile_qr_scan"}, "is_disabled": 0, "fusion_lat": 0.0, "lat": 38.91566433333333, "is_reserved": 0}, {"lon": -77.058494, "fusion_lon": 0.0, "bike_id": "ed3f21f94f5182e44d9a806400cb0e7c", "type": "electric_scooter", "name": "ed3f21f94f5182e44d9a806400cb0e7c", "rental_uris": {"android": "https://dc.lft.to/lastmile_qr_scan", "ios": "https://dc.lft.to/lastmile_qr_scan"}, "is_disabled": 0, "fusion_lat": 0.0, "lat": 38.9304365, "is_reserved": 0}, {"lon": -77.032572, "fusion_lon": 0.0, "bike_id": "3a174d1790a9a800d6d249b5ff721a2d", "type": "electric_scooter", "name": "3a174d1790a9a800d6d249b5ff721a2d", "rental_uris": {"android": "https://dc.lft.to/lastmile_qr_scan", "ios": "https://dc.lft.to/lastmile_qr_scan"}, "is_disabled": 0, "fusion_lat": 0.0, "lat": 38.90956516666667, "is_reserved": 0}, {"lon": -76.99786133333333, "fusion_lon": 0.0, "bike_id": "e31acbe7f868edd7866171faa9f57816", "type": "electric_scooter", "name": "e31acbe7f868edd7866171faa9f57816", "rental_uris": {"android": "https://dc.lft.to/lastmile_qr_scan", "ios": "https://dc.lft.to/lastmile_qr_scan"}, "is_disabled": 0, "fusion_lat": 0.0, "lat": 38.908691833333336, "is_reserved": 0}, {"lon": -77.00870433333333, "fusion_lon": 0.0, "bike_id": "e37db2598dd39be3f6171b7fbaba6647", "type": "electric_scooter", "name": "e37db2598dd39be3f6171b7fbaba6647", "rental_uris": {"android": "https://dc.lft.to/lastmile_qr_scan", "ios": "https://dc.lft.to/lastmile_qr_scan"}, "is_disabled": 0, "fusion_lat": 0.0, "lat": 38.87942916666667, "is_reserved": 0}, {"lon": -77.005964, "fusion_lon": 0.0, "bike_id": "836cd1529fb75f3954920878e288ad39", "type": "electric_scooter", "name": "836cd1529fb75f3954920878e288ad39", "rental_uris": {"android": "https://dc.lft.to/lastmile_qr_scan", "ios": "https://dc.lft.to/lastmile_qr_scan"}, "is_disabled": 0, "fusion_lat": 0.0, "lat": 38.90623933333333, "is_reserved": 0}, {"lon": -77.02099883333334, "fusion_lon": 0.0, "bike_id": "b724b0b5492ffe16cd3fdf9a06109f1d", "type": "electric_scooter", "name": "b724b0b5492ffe16cd3fdf9a06109f1d", "rental_uris": {"android": "https://dc.lft.to/lastmile_qr_scan", "ios": "https://dc.lft.to/lastmile_qr_scan"}, "is_disabled": 0, "fusion_lat": 0.0, "lat": 38.885031833333336, "is_reserved": 0}, {"lon": -76.99513266666666, "fusion_lon": 0.0, "bike_id": "6138c85874d3fa64273d47ee8737cd5e", "type": "electric_scooter", "name": "6138c85874d3fa64273d47ee8737cd5e", "rental_uris": {"android": "https://dc.lft.to/lastmile_qr_scan", "ios": "https://dc.lft.to/lastmile_qr_scan"}, "is_disabled": 0, "fusion_lat": 0.0, "lat": 38.933810666666666, "is_reserved": 0}, {"lon": -76.98426516666666, "fusion_lon": 0.0, "bike_id": "038baf9022bf521bd6167953cd38698e", "type": "electric_bike", "name": "038baf9022bf521bd6167953cd38698e", "rental_uris": {"android": "https://dc.lft.to/lastmile_qr_scan", "ios": "https://dc.lft.to/lastmile_qr_scan"}, "is_disabled": 0, "fusion_lat": 0.0, "lat": 38.92641166666667, "is_reserved": 0}, {"lon": -77.02206916666667, "fusion_lon": 0.0, "bike_id": "2b3195915ae288a35d2f48602071cda7", "type": "electric_scooter", "name": "2b3195915ae288a35d2f48602071cda7", "rental_uris": {"android": "https://dc.lft.to/lastmile_qr_scan", "ios": "https://dc.lft.to/lastmile_qr_scan"}, "is_disabled": 0, "fusion_lat": 0.0, "lat": 38.9268285, "is_reserved": 0}, {"lon": -77.03974916666667, "fusion_lon": 0.0, "bike_id": "9c549cedeb70fdf3c3ca9a5acb831875", "type": "electric_scooter", "name": "9c549cedeb70fdf3c3ca9a5acb831875", "rental_uris": {"android": "https://dc.lft.to/lastmile_qr_scan", "ios": "https://dc.lft.to/lastmile_qr_scan"}, "is_disabled": 0, "fusion_lat": 0.0, "lat": 38.9055405, "is_reserved": 0}, {"lon": -76.95505316666667, "fusion_lon": 0.0, "bike_id": "a6d8f378880e86bda8d615f16f84fd40", "type": "electric_bike", "name": "a6d8f378880e86bda8d615f16f84fd40", "rental_uris": {"android": "https://dc.lft.to/lastmile_qr_scan", "ios": "https://dc.lft.to/lastmile_qr_scan"}, "is_disabled": 0, "fusion_lat": 0.0, "lat": 38.9392315, "is_reserved": 0}, {"lon": -76.974113, "fusion_lon": 0.0, "bike_id": "154d60b4e66e4b8201a589564e67d4fa", "type": "electric_bike", "name": "154d60b4e66e4b8201a589564e67d4fa", "rental_uris": {"android": "https://dc.lft.to/lastmile_qr_scan", "ios": "https://dc.lft.to/lastmile_qr_scan"}, "is_disabled": 0, "fusion_lat": 0.0, "lat": 38.9020735, "is_reserved": 0}, {"lon": -77.04275466666667, "fusion_lon": 0.0, "bike_id": "156ef2b632541d0383e72673569fabdb", "type": "electric_scooter", "name": "156ef2b632541d0383e72673569fabdb", "rental_uris": {"android": "https://dc.lft.to/lastmile_qr_scan", "ios": "https://dc.lft.to/lastmile_qr_scan"}, "is_disabled": 0, "fusion_lat": 0.0, "lat": 38.908489833333334, "is_reserved": 0}, {"lon": -77.02411933333333, "fusion_lon": 0.0, "bike_id": "847076e1cc85f6115caaa9736abbd3d8", "type": "electric_scooter", "name": "847076e1cc85f6115caaa9736abbd3d8", "rental_uris": {"android": "https://dc.lft.to/lastmile_qr_scan", "ios": "https://dc.lft.to/lastmile_qr_scan"}, "is_disabled": 0, "fusion_lat": 0.0, "lat": 38.87983933333334, "is_reserved": 0}, {"lon": -77.02389666666667, "fusion_lon": 0.0, "bike_id": "77be00b1f69f2863bd08bbc7920f23e2", "type": "electric_scooter", "name": "77be00b1f69f2863bd08bbc7920f23e2", "rental_uris": {"android": "https://dc.lft.to/lastmile_qr_scan", "ios": "https://dc.lft.to/lastmile_qr_scan"}, "is_disabled": 0, "fusion_lat": 0.0, "lat": 38.919121, "is_reserved": 0}, {"lon": -77.02224666666666, "fusion_lon": 0.0, "bike_id": "38cc5f7bcd6c683e8e9bd647f36582b7", "type": "electric_scooter", "name": "38cc5f7bcd6c683e8e9bd647f36582b7", "rental_uris": {"android": "https://dc.lft.to/lastmile_qr_scan", "ios": "https://dc.lft.to/lastmile_qr_scan"}, "is_disabled": 0, "fusion_lat": 0.0, "lat": 38.912693, "is_reserved": 0}, {"lon": -77.06520816666666, "fusion_lon": 0.0, "bike_id": "bbd220ce998f99f69204117bc22d84f6", "type": "electric_scooter", "name": "bbd220ce998f99f69204117bc22d84f6", "rental_uris": {"android": "https://dc.lft.to/lastmile_qr_scan", "ios": "https://dc.lft.to/lastmile_qr_scan"}, "is_disabled": 0, "fusion_lat": 0.0, "lat": 38.903877, "is_reserved": 0}, {"lon": -77.12527733333333, "fusion_lon": 0.0, "bike_id": "e0f89ab6d7b7e15ceeedaad366334dc3", "type": "electric_bike", "name": "e0f89ab6d7b7e15ceeedaad366334dc3", "rental_uris": {"android": "https://dc.lft.to/lastmile_qr_scan", "ios": "https://dc.lft.to/lastmile_qr_scan"}, "is_disabled": 0, "fusion_lat": 0.0, "lat": 39.056296, "is_reserved": 0}, {"lon": -77.05720466666666, "fusion_lon": 0.0, "bike_id": "dc9b6b88a9d2d95649869f6e8e1513e0", "type": "electric_scooter", "name": "dc9b6b88a9d2d95649869f6e8e1513e0", "rental_uris": {"android": "https://dc.lft.to/lastmile_qr_scan", "ios": "https://dc.lft.to/lastmile_qr_scan"}, "is_disabled": 0, "fusion_lat": 0.0, "lat": 38.933690166666665, "is_reserved": 0}, {"lon": -76.946397, "fusion_lon": 0.0, "bike_id": "27cfb828255c78b6b3cca9683eafd0d6", "type": "electric_scooter", "name": "27cfb828255c78b6b3cca9683eafd0d6", "rental_uris": {"android": "https://dc.lft.to/lastmile_qr_scan", "ios": "https://dc.lft.to/lastmile_qr_scan"}, "is_disabled": 0, "fusion_lat": 0.0, "lat": 38.898610833333336, "is_reserved": 0}, {"lon": -76.97173483333333, "fusion_lon": 0.0, "bike_id": "05eee152ba36c1b27f6509978dc678eb", "type": "electric_scooter", "name": "05eee152ba36c1b27f6509978dc678eb", "rental_uris": {"android": "https://dc.lft.to/lastmile_qr_scan", "ios": "https://dc.lft.to/lastmile_qr_scan"}, "is_disabled": 0, "fusion_lat": 0.0, "lat": 38.861296333333335, "is_reserved": 0}, {"lon": -77.02415383333333, "fusion_lon": 0.0, "bike_id": "4c83c10217cf67796ffbe3a53f0f53cb", "type": "electric_scooter", "name": "4c83c10217cf67796ffbe3a53f0f53cb", "rental_uris": {"android": "https://dc.lft.to/lastmile_qr_scan", "ios": "https://dc.lft.to/lastmile_qr_scan"}, "is_disabled": 0, "fusion_lat": 0.0, "lat": 38.915477, "is_reserved": 0}, {"lon": -77.02491216666667, "fusion_lon": 0.0, "bike_id": "71590bfb34f3c6cf67201af943f6a02e", "type": "electric_scooter", "name": "71590bfb34f3c6cf67201af943f6a02e", "rental_uris": {"android": "https://dc.lft.to/lastmile_qr_scan", "ios": "https://dc.lft.to/lastmile_qr_scan"}, "is_disabled": 0, "fusion_lat": 0.0, "lat": 38.919486166666665, "is_reserved": 0}, {"lon": -77.03242683333333, "fusion_lon": 0.0, "bike_id": "edcd01d9d33c871a05602e3cdc1c7981", "type": "electric_scooter", "name": "edcd01d9d33c871a05602e3cdc1c7981", "rental_uris": {"android": "https://dc.lft.to/lastmile_qr_scan", "ios": "https://dc.lft.to/lastmile_qr_scan"}, "is_disabled": 0, "fusion_lat": 0.0, "lat": 38.905457, "is_reserved": 0}, {"lon": -77.04198116666667, "fusion_lon": 0.0, "bike_id": "09f35c69f6d8dc16cafd7034a1ce9b57", "type": "electric_scooter", "name": "09f35c69f6d8dc16cafd7034a1ce9b57", "rental_uris": {"android": "https://dc.lft.to/lastmile_qr_scan", "ios": "https://dc.lft.to/lastmile_qr_scan"}, "is_disabled": 0, "fusion_lat": 0.0, "lat": 38.9209835, "is_reserved": 0}, {"lon": -77.02157633333333, "fusion_lon": 0.0, "bike_id": "e98b2dd10e7c8837de5bc26399086343", "type": "electric_scooter", "name": "e98b2dd10e7c8837de5bc26399086343", "rental_uris": {"android": "https://dc.lft.to/lastmile_qr_scan", "ios": "https://dc.lft.to/lastmile_qr_scan"}, "is_disabled": 0, "fusion_lat": 0.0, "lat": 38.914012666666665, "is_reserved": 0}, {"lon": -77.04653433333333, "fusion_lon": 0.0, "bike_id": "f9d4cf2022d71568efe066940f5c56f8", "type": "electric_scooter", "name": "f9d4cf2022d71568efe066940f5c56f8", "rental_uris": {"android": "https://dc.lft.to/lastmile_qr_scan", "ios": "https://dc.lft.to/lastmile_qr_scan"}, "is_disabled": 0, "fusion_lat": 0.0, "lat": 38.902264333333335, "is_reserved": 0}, {"lon": -77.02215083333333, "fusion_lon": 0.0, "bike_id": "9be9105d6ced8f034d040ba58b58fd4e", "type": "electric_scooter", "name": "9be9105d6ced8f034d040ba58b58fd4e", "rental_uris": {"android": "https://dc.lft.to/lastmile_qr_scan", "ios": "https://dc.lft.to/lastmile_qr_scan"}, "is_disabled": 0, "fusion_lat": 0.0, "lat": 38.91241333333333, "is_reserved": 0}, {"lon": -77.02456583333333, "fusion_lon": 0.0, "bike_id": "13171d27cd41186c5c6d1989f5e1db45", "type": "electric_scooter", "name": "13171d27cd41186c5c6d1989f5e1db45", "rental_uris": {"android": "https://dc.lft.to/lastmile_qr_scan", "ios": "https://dc.lft.to/lastmile_qr_scan"}, "is_disabled": 0, "fusion_lat": 0.0, "lat": 38.908619333333334, "is_reserved": 0}, {"lon": -77.01105233333334, "fusion_lon": 0.0, "bike_id": "3e5cee00f12902e47930408c1f5b5a18", "type": "electric_scooter", "name": "3e5cee00f12902e47930408c1f5b5a18", "rental_uris": {"android": "https://dc.lft.to/lastmile_qr_scan", "ios": "https://dc.lft.to/lastmile_qr_scan"}, "is_disabled": 0, "fusion_lat": 0.0, "lat": 38.903283333333334, "is_reserved": 0}, {"lon": -77.06060566666666, "fusion_lon": 0.0, "bike_id": "f80e95c17f0ee7b203a842ffc84d9156", "type": "electric_scooter", "name": "f80e95c17f0ee7b203a842ffc84d9156", "rental_uris": {"android": "https://dc.lft.to/lastmile_qr_scan", "ios": "https://dc.lft.to/lastmile_qr_scan"}, "is_disabled": 0, "fusion_lat": 0.0, "lat": 38.94333666666667, "is_reserved": 0}, {"lon": -77.02322516666666, "fusion_lon": 0.0, "bike_id": "0886ad4fe25310186031eb286bc1ee3b", "type": "electric_scooter", "name": "0886ad4fe25310186031eb286bc1ee3b", "rental_uris": {"android": "https://dc.lft.to/lastmile_qr_scan", "ios": "https://dc.lft.to/lastmile_qr_scan"}, "is_disabled": 0, "fusion_lat": 0.0, "lat": 38.92939883333333, "is_reserved": 0}, {"lon": -77.07162283333334, "fusion_lon": 0.0, "bike_id": "f6399163de6d46a8c728e4ee5a776d98", "type": "electric_scooter", "name": "f6399163de6d46a8c728e4ee5a776d98", "rental_uris": {"android": "https://dc.lft.to/lastmile_qr_scan", "ios": "https://dc.lft.to/lastmile_qr_scan"}, "is_disabled": 0, "fusion_lat": 0.0, "lat": 38.938222, "is_reserved": 0}, {"lon": -77.01750483333333, "fusion_lon": 0.0, "bike_id": "8b2fee7fd0c5cb2d055f1e71801d4974", "type": "electric_scooter", "name": "8b2fee7fd0c5cb2d055f1e71801d4974", "rental_uris": {"android": "https://dc.lft.to/lastmile_qr_scan", "ios": "https://dc.lft.to/lastmile_qr_scan"}, "is_disabled": 0, "fusion_lat": 0.0, "lat": 38.904712833333335, "is_reserved": 0}, {"lon": -76.938743, "fusion_lon": 0.0, "bike_id": "b657aece5321ae690e33572ef1bfcb56", "type": "electric_bike", "name": "b657aece5321ae690e33572ef1bfcb56", "rental_uris": {"android": "https://dc.lft.to/lastmile_qr_scan", "ios": "https://dc.lft.to/lastmile_qr_scan"}, "is_disabled": 0, "fusion_lat": 0.0, "lat": 38.95634116666667, "is_reserved": 0}, {"lon": -77.04558733333333, "fusion_lon": 0.0, "bike_id": "fb48d811b792d7d3960fd56f74ee2870", "type": "electric_scooter", "name": "fb48d811b792d7d3960fd56f74ee2870", "rental_uris": {"android": "https://dc.lft.to/lastmile_qr_scan", "ios": "https://dc.lft.to/lastmile_qr_scan"}, "is_disabled": 0, "fusion_lat": 0.0, "lat": 38.91464233333333, "is_reserved": 0}, {"lon": -77.0239455, "fusion_lon": 0.0, "bike_id": "78c0e9512821c7150a1f281b52bc742e", "type": "electric_scooter", "name": "78c0e9512821c7150a1f281b52bc742e", "rental_uris": {"android": "https://dc.lft.to/lastmile_qr_scan", "ios": "https://dc.lft.to/lastmile_qr_scan"}, "is_disabled": 0, "fusion_lat": 0.0, "lat": 38.906956, "is_reserved": 0}, {"lon": -76.98715766666666, "fusion_lon": 0.0, "bike_id": "f8d3f3bb113fd24cfb38d191e446e0a2", "type": "electric_scooter", "name": "f8d3f3bb113fd24cfb38d191e446e0a2", "rental_uris": {"android": "https://dc.lft.to/lastmile_qr_scan", "ios": "https://dc.lft.to/lastmile_qr_scan"}, "is_disabled": 0, "fusion_lat": 0.0, "lat": 38.866942333333334, "is_reserved": 0}, {"lon": -77.0124045, "fusion_lon": 0.0, "bike_id": "499359c0884c48edea766117bbf32f12", "type": "electric_scooter", "name": "499359c0884c48edea766117bbf32f12", "rental_uris": {"android": "https://dc.lft.to/lastmile_qr_scan", "ios": "https://dc.lft.to/lastmile_qr_scan"}, "is_disabled": 0, "fusion_lat": 0.0, "lat": 38.907167, "is_reserved": 0}, {"lon": -77.03658966666667, "fusion_lon": 0.0, "bike_id": "06ddf700df412603aca23051c052ad63", "type": "electric_scooter", "name": "06ddf700df412603aca23051c052ad63", "rental_uris": {"android": "https://dc.lft.to/lastmile_qr_scan", "ios": "https://dc.lft.to/lastmile_qr_scan"}, "is_disabled": 0, "fusion_lat": 0.0, "lat": 38.917934333333335, "is_reserved": 0}, {"lon": -77.00378616666667, "fusion_lon": 0.0, "bike_id": "d3ee4afa37c0593b27e3fd8cd85367f1", "type": "electric_scooter", "name": "d3ee4afa37c0593b27e3fd8cd85367f1", "rental_uris": {"android": "https://dc.lft.to/lastmile_qr_scan", "ios": "https://dc.lft.to/lastmile_qr_scan"}, "is_disabled": 0, "fusion_lat": 0.0, "lat": 38.908559, "is_reserved": 0}, {"lon": -77.04195933333334, "fusion_lon": 0.0, "bike_id": "0dfc66ff26528ce599d6d4daa0d5c3e1", "type": "electric_bike", "name": "0dfc66ff26528ce599d6d4daa0d5c3e1", "rental_uris": {"android": "https://dc.lft.to/lastmile_qr_scan", "ios": "https://dc.lft.to/lastmile_qr_scan"}, "is_disabled": 0, "fusion_lat": 0.0, "lat": 38.922093833333335, "is_reserved": 0}, {"lon": -76.98880466666667, "fusion_lon": 0.0, "bike_id": "b5af7d009de3e61f3e9f337ecefe4e42", "type": "electric_scooter", "name": "b5af7d009de3e61f3e9f337ecefe4e42", "rental_uris": {"android": "https://dc.lft.to/lastmile_qr_scan", "ios": "https://dc.lft.to/lastmile_qr_scan"}, "is_disabled": 0, "fusion_lat": 0.0, "lat": 38.8665765, "is_reserved": 0}, {"lon": -76.9969715, "fusion_lon": 0.0, "bike_id": "ab1c2e080ba5267514e1fec2fe31b68b", "type": "electric_scooter", "name": "ab1c2e080ba5267514e1fec2fe31b68b", "rental_uris": {"android": "https://dc.lft.to/lastmile_qr_scan", "ios": "https://dc.lft.to/lastmile_qr_scan"}, "is_disabled": 0, "fusion_lat": 0.0, "lat": 38.92199566666667, "is_reserved": 0}, {"lon": -76.97825866666666, "fusion_lon": 0.0, "bike_id": "7a4523d2ffe6910aa8b58a5de2710d60", "type": "electric_scooter", "name": "7a4523d2ffe6910aa8b58a5de2710d60", "rental_uris": {"android": "https://dc.lft.to/lastmile_qr_scan", "ios": "https://dc.lft.to/lastmile_qr_scan"}, "is_disabled": 0, "fusion_lat": 0.0, "lat": 38.89840866666667, "is_reserved": 0}, {"lon": -77.02964266666666, "fusion_lon": 0.0, "bike_id": "5970b9036efecf9968317c1ac50643c5", "type": "electric_scooter", "name": "5970b9036efecf9968317c1ac50643c5", "rental_uris": {"android": "https://dc.lft.to/lastmile_qr_scan", "ios": "https://dc.lft.to/lastmile_qr_scan"}, "is_disabled": 0, "fusion_lat": 0.0, "lat": 38.9209525, "is_reserved": 0}, {"lon": -77.033175, "fusion_lon": 0.0, "bike_id": "db87b7d4dfe2da393191aa563089e26f", "type": "electric_scooter", "name": "db87b7d4dfe2da393191aa563089e26f", "rental_uris": {"android": "https://dc.lft.to/lastmile_qr_scan", "ios": "https://dc.lft.to/lastmile_qr_scan"}, "is_disabled": 0, "fusion_lat": 0.0, "lat": 38.89812833333333, "is_reserved": 0}, {"lon": -77.04108583333333, "fusion_lon": 0.0, "bike_id": "6bfd227a337aa1349727b1c98d3c3a88", "type": "electric_scooter", "name": "6bfd227a337aa1349727b1c98d3c3a88", "rental_uris": {"android": "https://dc.lft.to/lastmile_qr_scan", "ios": "https://dc.lft.to/lastmile_qr_scan"}, "is_disabled": 0, "fusion_lat": 0.0, "lat": 38.910399166666664, "is_reserved": 0}, {"lon": -76.9817965, "fusion_lon": 0.0, "bike_id": "c12b6bffcd674315070bafc71c80e2ad", "type": "electric_scooter", "name": "c12b6bffcd674315070bafc71c80e2ad", "rental_uris": {"android": "https://dc.lft.to/lastmile_qr_scan", "ios": "https://dc.lft.to/lastmile_qr_scan"}, "is_disabled": 0, "fusion_lat": 0.0, "lat": 38.8696525, "is_reserved": 0}, {"lon": -77.03047733333334, "fusion_lon": 0.0, "bike_id": "91f5499acb0212c03c4e535ab3b425fc", "type": "electric_scooter", "name": "91f5499acb0212c03c4e535ab3b425fc", "rental_uris": {"android": "https://dc.lft.to/lastmile_qr_scan", "ios": "https://dc.lft.to/lastmile_qr_scan"}, "is_disabled": 0, "fusion_lat": 0.0, "lat": 38.9236485, "is_reserved": 0}, {"lon": -77.02815166666667, "fusion_lon": 0.0, "bike_id": "a59163f954dc50e2feb7e3893a4276d4", "type": "electric_scooter", "name": "a59163f954dc50e2feb7e3893a4276d4", "rental_uris": {"android": "https://dc.lft.to/lastmile_qr_scan", "ios": "https://dc.lft.to/lastmile_qr_scan"}, "is_disabled": 0, "fusion_lat": 0.0, "lat": 38.932076, "is_reserved": 0}, {"lon": -77.01545183333333, "fusion_lon": 0.0, "bike_id": "edd73b170b287ef944e0d26daaae90d4", "type": "electric_scooter", "name": "edd73b170b287ef944e0d26daaae90d4", "rental_uris": {"android": "https://dc.lft.to/lastmile_qr_scan", "ios": "https://dc.lft.to/lastmile_qr_scan"}, "is_disabled": 0, "fusion_lat": 0.0, "lat": 38.9412175, "is_reserved": 0}, {"lon": -77.04502916666667, "fusion_lon": 0.0, "bike_id": "6dfd34f64d669d52294a8d1ab0051e43", "type": "electric_scooter", "name": "6dfd34f64d669d52294a8d1ab0051e43", "rental_uris": {"android": "https://dc.lft.to/lastmile_qr_scan", "ios": "https://dc.lft.to/lastmile_qr_scan"}, "is_disabled": 0, "fusion_lat": 0.0, "lat": 38.91930383333333, "is_reserved": 0}, {"lon": -77.01148516666667, "fusion_lon": 0.0, "bike_id": "186ace152fe9b56477abbd7963515dc9", "type": "electric_scooter", "name": "186ace152fe9b56477abbd7963515dc9", "rental_uris": {"android": "https://dc.lft.to/lastmile_qr_scan", "ios": "https://dc.lft.to/lastmile_qr_scan"}, "is_disabled": 0, "fusion_lat": 0.0, "lat": 38.8963515, "is_reserved": 0}, {"lon": -77.03936316666666, "fusion_lon": 0.0, "bike_id": "23d7c77ba5872ce4f007daf9c27541f9", "type": "electric_scooter", "name": "23d7c77ba5872ce4f007daf9c27541f9", "rental_uris": {"android": "https://dc.lft.to/lastmile_qr_scan", "ios": "https://dc.lft.to/lastmile_qr_scan"}, "is_disabled": 0, "fusion_lat": 0.0, "lat": 38.89853166666666, "is_reserved": 0}, {"lon": -77.019974, "fusion_lon": 0.0, "bike_id": "394d42826732eaa982db0307ae2e868f", "type": "electric_scooter", "name": "394d42826732eaa982db0307ae2e868f", "rental_uris": {"android": "https://dc.lft.to/lastmile_qr_scan", "ios": "https://dc.lft.to/lastmile_qr_scan"}, "is_disabled": 0, "fusion_lat": 0.0, "lat": 38.905010833333336, "is_reserved": 0}, {"lon": -77.22891366666667, "fusion_lon": 0.0, "bike_id": "bdb3da26a1c2c64db6ab26830d0b4475", "type": "electric_bike", "name": "bdb3da26a1c2c64db6ab26830d0b4475", "rental_uris": {"android": "https://dc.lft.to/lastmile_qr_scan", "ios": "https://dc.lft.to/lastmile_qr_scan"}, "is_disabled": 0, "fusion_lat": 0.0, "lat": 38.90956633333333, "is_reserved": 0}, {"lon": -77.00712383333334, "fusion_lon": 0.0, "bike_id": "1b9b280bbe65ebc1f64b854646491016", "type": "electric_scooter", "name": "1b9b280bbe65ebc1f64b854646491016", "rental_uris": {"android": "https://dc.lft.to/lastmile_qr_scan", "ios": "https://dc.lft.to/lastmile_qr_scan"}, "is_disabled": 0, "fusion_lat": 0.0, "lat": 38.88491283333333, "is_reserved": 0}, {"lon": -77.02182666666667, "fusion_lon": 0.0, "bike_id": "f0c2d3a21032bd197fc85e9453386ea4", "type": "electric_scooter", "name": "f0c2d3a21032bd197fc85e9453386ea4", "rental_uris": {"android": "https://dc.lft.to/lastmile_qr_scan", "ios": "https://dc.lft.to/lastmile_qr_scan"}, "is_disabled": 0, "fusion_lat": 0.0, "lat": 38.919709833333336, "is_reserved": 0}, {"lon": -77.05057333333333, "fusion_lon": 0.0, "bike_id": "045b30ac9e34b546138b59c24dc9f8fa", "type": "electric_scooter", "name": "045b30ac9e34b546138b59c24dc9f8fa", "rental_uris": {"android": "https://dc.lft.to/lastmile_qr_scan", "ios": "https://dc.lft.to/lastmile_qr_scan"}, "is_disabled": 0, "fusion_lat": 0.0, "lat": 38.9054385, "is_reserved": 0}, {"lon": -77.027171, "fusion_lon": 0.0, "bike_id": "cdee4241aaf10cd84a8620ec7fe9116e", "type": "electric_scooter", "name": "cdee4241aaf10cd84a8620ec7fe9116e", "rental_uris": {"android": "https://dc.lft.to/lastmile_qr_scan", "ios": "https://dc.lft.to/lastmile_qr_scan"}, "is_disabled": 0, "fusion_lat": 0.0, "lat": 38.924570833333334, "is_reserved": 0}, {"lon": -77.20138216666666, "fusion_lon": 0.0, "bike_id": "95d8f260723d4ce0fd94becfaf9cc2be", "type": "electric_bike", "name": "95d8f260723d4ce0fd94becfaf9cc2be", "rental_uris": {"android": "https://dc.lft.to/lastmile_qr_scan", "ios": "https://dc.lft.to/lastmile_qr_scan"}, "is_disabled": 0, "fusion_lat": 0.0, "lat": 38.9221805, "is_reserved": 0}, {"lon": -77.038434, "fusion_lon": 0.0, "bike_id": "c40d99d74067c40e9c28a23cdfbb6c0b", "type": "electric_scooter", "name": "c40d99d74067c40e9c28a23cdfbb6c0b", "rental_uris": {"android": "https://dc.lft.to/lastmile_qr_scan", "ios": "https://dc.lft.to/lastmile_qr_scan"}, "is_disabled": 0, "fusion_lat": 0.0, "lat": 38.92172083333333, "is_reserved": 0}, {"lon": -76.94639166666667, "fusion_lon": 0.0, "bike_id": "61ed87be251bc2796fa1607a43a2f19a", "type": "electric_scooter", "name": "61ed87be251bc2796fa1607a43a2f19a", "rental_uris": {"android": "https://dc.lft.to/lastmile_qr_scan", "ios": "https://dc.lft.to/lastmile_qr_scan"}, "is_disabled": 0, "fusion_lat": 0.0, "lat": 38.898710333333334, "is_reserved": 0}, {"lon": -77.04503666666666, "fusion_lon": 0.0, "bike_id": "3285730c833b6525cdc0db1f5bf28800", "type": "electric_scooter", "name": "3285730c833b6525cdc0db1f5bf28800", "rental_uris": {"android": "https://dc.lft.to/lastmile_qr_scan", "ios": "https://dc.lft.to/lastmile_qr_scan"}, "is_disabled": 0, "fusion_lat": 0.0, "lat": 38.911834, "is_reserved": 0}, {"lon": -77.02233883333334, "fusion_lon": 0.0, "bike_id": "25e290236a3638794066be43d145a638", "type": "electric_scooter", "name": "25e290236a3638794066be43d145a638", "rental_uris": {"android": "https://dc.lft.to/lastmile_qr_scan", "ios": "https://dc.lft.to/lastmile_qr_scan"}, "is_disabled": 0, "fusion_lat": 0.0, "lat": 38.93473933333333, "is_reserved": 0}, {"lon": -77.0409435, "fusion_lon": 0.0, "bike_id": "7964c216d57f7c7bd399f1973e515e8f", "type": "electric_scooter", "name": "7964c216d57f7c7bd399f1973e515e8f", "rental_uris": {"android": "https://dc.lft.to/lastmile_qr_scan", "ios": "https://dc.lft.to/lastmile_qr_scan"}, "is_disabled": 0, "fusion_lat": 0.0, "lat": 38.90384183333333, "is_reserved": 0}, {"lon": -77.02190466666667, "fusion_lon": 0.0, "bike_id": "1d6ba9f60c67e702c294fb5da0433c55", "type": "electric_scooter", "name": "1d6ba9f60c67e702c294fb5da0433c55", "rental_uris": {"android": "https://dc.lft.to/lastmile_qr_scan", "ios": "https://dc.lft.to/lastmile_qr_scan"}, "is_disabled": 0, "fusion_lat": 0.0, "lat": 38.9149275, "is_reserved": 0}, {"lon": -77.03286683333333, "fusion_lon": 0.0, "bike_id": "921344d0069806d6efffe28dc09c0c7f", "type": "electric_scooter", "name": "921344d0069806d6efffe28dc09c0c7f", "rental_uris": {"android": "https://dc.lft.to/lastmile_qr_scan", "ios": "https://dc.lft.to/lastmile_qr_scan"}, "is_disabled": 0, "fusion_lat": 0.0, "lat": 38.92269133333333, "is_reserved": 0}, {"lon": -77.031545, "fusion_lon": 0.0, "bike_id": "a88840550d2f6459b07e9cf15abf2198", "type": "electric_bike", "name": "a88840550d2f6459b07e9cf15abf2198", "rental_uris": {"android": "https://dc.lft.to/lastmile_qr_scan", "ios": "https://dc.lft.to/lastmile_qr_scan"}, "is_disabled": 0, "fusion_lat": 0.0, "lat": 38.9644115, "is_reserved": 0}, {"lon": -76.95258433333333, "fusion_lon": 0.0, "bike_id": "ab12e54b1f12e9c10fc990850dd84ced", "type": "electric_bike", "name": "ab12e54b1f12e9c10fc990850dd84ced", "rental_uris": {"android": "https://dc.lft.to/lastmile_qr_scan", "ios": "https://dc.lft.to/lastmile_qr_scan"}, "is_disabled": 0, "fusion_lat": 0.0, "lat": 38.906922333333334, "is_reserved": 0}, {"lon": -77.046752, "fusion_lon": 0.0, "bike_id": "b09713454a3745e1e356d73cd7bbbb29", "type": "electric_scooter", "name": "b09713454a3745e1e356d73cd7bbbb29", "rental_uris": {"android": "https://dc.lft.to/lastmile_qr_scan", "ios": "https://dc.lft.to/lastmile_qr_scan"}, "is_disabled": 0, "fusion_lat": 0.0, "lat": 38.89324516666667, "is_reserved": 0}, {"lon": -76.97094166666666, "fusion_lon": 0.0, "bike_id": "01d6dcc2ca0a6e8c94f954e519b468fc", "type": "electric_scooter", "name": "01d6dcc2ca0a6e8c94f954e519b468fc", "rental_uris": {"android": "https://dc.lft.to/lastmile_qr_scan", "ios": "https://dc.lft.to/lastmile_qr_scan"}, "is_disabled": 0, "fusion_lat": 0.0, "lat": 38.870626333333334, "is_reserved": 0}, {"lon": -77.023909, "fusion_lon": 0.0, "bike_id": "2e16e64404f6115adc1bb5f03c645e55", "type": "electric_scooter", "name": "2e16e64404f6115adc1bb5f03c645e55", "rental_uris": {"android": "https://dc.lft.to/lastmile_qr_scan", "ios": "https://dc.lft.to/lastmile_qr_scan"}, "is_disabled": 0, "fusion_lat": 0.0, "lat": 38.906962, "is_reserved": 0}, {"lon": -77.04218333333333, "fusion_lon": 0.0, "bike_id": "c38229f8b931726e3b299673eda04265", "type": "electric_scooter", "name": "c38229f8b931726e3b299673eda04265", "rental_uris": {"android": "https://dc.lft.to/lastmile_qr_scan", "ios": "https://dc.lft.to/lastmile_qr_scan"}, "is_disabled": 0, "fusion_lat": 0.0, "lat": 38.922468333333335, "is_reserved": 0}, {"lon": -77.04536766666666, "fusion_lon": 0.0, "bike_id": "3de0c87f775ee5f869ea523b51b1bb1a", "type": "electric_scooter", "name": "3de0c87f775ee5f869ea523b51b1bb1a", "rental_uris": {"android": "https://dc.lft.to/lastmile_qr_scan", "ios": "https://dc.lft.to/lastmile_qr_scan"}, "is_disabled": 0, "fusion_lat": 0.0, "lat": 38.934550333333334, "is_reserved": 0}, {"lon": -77.04358, "fusion_lon": 0.0, "bike_id": "4057e7c61bc6017eab07488b33319b69", "type": "electric_scooter", "name": "4057e7c61bc6017eab07488b33319b69", "rental_uris": {"android": "https://dc.lft.to/lastmile_qr_scan", "ios": "https://dc.lft.to/lastmile_qr_scan"}, "is_disabled": 0, "fusion_lat": 0.0, "lat": 38.92137616666667, "is_reserved": 0}, {"lon": -77.0228715, "fusion_lon": 0.0, "bike_id": "5b8d99ba5ed7388c9c3ccebb82bf3a06", "type": "electric_scooter", "name": "5b8d99ba5ed7388c9c3ccebb82bf3a06", "rental_uris": {"android": "https://dc.lft.to/lastmile_qr_scan", "ios": "https://dc.lft.to/lastmile_qr_scan"}, "is_disabled": 0, "fusion_lat": 0.0, "lat": 38.916853833333334, "is_reserved": 0}, {"lon": -77.04352883333334, "fusion_lon": 0.0, "bike_id": "56eda580dced874297a2ec504ded7dfc", "type": "electric_scooter", "name": "56eda580dced874297a2ec504ded7dfc", "rental_uris": {"android": "https://dc.lft.to/lastmile_qr_scan", "ios": "https://dc.lft.to/lastmile_qr_scan"}, "is_disabled": 0, "fusion_lat": 0.0, "lat": 38.92142466666667, "is_reserved": 0}, {"lon": -76.9476835, "fusion_lon": 0.0, "bike_id": "0c4a7747041d2bb39ba0997e9ad74375", "type": "electric_scooter", "name": "0c4a7747041d2bb39ba0997e9ad74375", "rental_uris": {"android": "https://dc.lft.to/lastmile_qr_scan", "ios": "https://dc.lft.to/lastmile_qr_scan"}, "is_disabled": 0, "fusion_lat": 0.0, "lat": 38.896250333333334, "is_reserved": 0}, {"lon": -76.9722705, "fusion_lon": 0.0, "bike_id": "f0b5994f85cee3b6ad60214c0e2d13a2", "type": "electric_bike", "name": "f0b5994f85cee3b6ad60214c0e2d13a2", "rental_uris": {"android": "https://dc.lft.to/lastmile_qr_scan", "ios": "https://dc.lft.to/lastmile_qr_scan"}, "is_disabled": 0, "fusion_lat": 0.0, "lat": 38.90032583333333, "is_reserved": 0}, {"lon": -77.03854566666666, "fusion_lon": 0.0, "bike_id": "b4208741bba444ede6e9c34c37380fdb", "type": "electric_scooter", "name": "b4208741bba444ede6e9c34c37380fdb", "rental_uris": {"android": "https://dc.lft.to/lastmile_qr_scan", "ios": "https://dc.lft.to/lastmile_qr_scan"}, "is_disabled": 0, "fusion_lat": 0.0, "lat": 38.910735333333335, "is_reserved": 0}, {"lon": -77.02780566666667, "fusion_lon": 0.0, "bike_id": "046c695892fcac4e2ee682f3a7ec046e", "type": "electric_scooter", "name": "046c695892fcac4e2ee682f3a7ec046e", "rental_uris": {"android": "https://dc.lft.to/lastmile_qr_scan", "ios": "https://dc.lft.to/lastmile_qr_scan"}, "is_disabled": 0, "fusion_lat": 0.0, "lat": 38.89603866666667, "is_reserved": 0}, {"lon": -76.9825815, "fusion_lon": 0.0, "bike_id": "07f9836407830e80f7248820209408f1", "type": "electric_bike", "name": "07f9836407830e80f7248820209408f1", "rental_uris": {"android": "https://dc.lft.to/lastmile_qr_scan", "ios": "https://dc.lft.to/lastmile_qr_scan"}, "is_disabled": 0, "fusion_lat": 0.0, "lat": 38.953263666666665, "is_reserved": 0}, {"lon": -76.99789, "fusion_lon": 0.0, "bike_id": "5c46d5dbd28850e3d19e3af6193a3ea1", "type": "electric_scooter", "name": "5c46d5dbd28850e3d19e3af6193a3ea1", "rental_uris": {"android": "https://dc.lft.to/lastmile_qr_scan", "ios": "https://dc.lft.to/lastmile_qr_scan"}, "is_disabled": 0, "fusion_lat": 0.0, "lat": 38.885966, "is_reserved": 0}, {"lon": -77.04197083333334, "fusion_lon": 0.0, "bike_id": "affc9b7535e56c0939cce91f043072c3", "type": "electric_scooter", "name": "affc9b7535e56c0939cce91f043072c3", "rental_uris": {"android": "https://dc.lft.to/lastmile_qr_scan", "ios": "https://dc.lft.to/lastmile_qr_scan"}, "is_disabled": 0, "fusion_lat": 0.0, "lat": 38.903784, "is_reserved": 0}, {"lon": -77.041959, "fusion_lon": 0.0, "bike_id": "55c081340b11cb7aff3e70bb1cae3934", "type": "electric_scooter", "name": "55c081340b11cb7aff3e70bb1cae3934", "rental_uris": {"android": "https://dc.lft.to/lastmile_qr_scan", "ios": "https://dc.lft.to/lastmile_qr_scan"}, "is_disabled": 0, "fusion_lat": 0.0, "lat": 38.9205385, "is_reserved": 0}, {"lon": -77.03836216666667, "fusion_lon": 0.0, "bike_id": "341dd4400f95b523e4b267390ba83ea9", "type": "electric_scooter", "name": "341dd4400f95b523e4b267390ba83ea9", "rental_uris": {"android": "https://dc.lft.to/lastmile_qr_scan", "ios": "https://dc.lft.to/lastmile_qr_scan"}, "is_disabled": 0, "fusion_lat": 0.0, "lat": 38.911867, "is_reserved": 0}, {"lon": -77.022024, "fusion_lon": 0.0, "bike_id": "7d1a685e998d16d34149143af36fcf0d", "type": "electric_scooter", "name": "7d1a685e998d16d34149143af36fcf0d", "rental_uris": {"android": "https://dc.lft.to/lastmile_qr_scan", "ios": "https://dc.lft.to/lastmile_qr_scan"}, "is_disabled": 0, "fusion_lat": 0.0, "lat": 38.94794383333333, "is_reserved": 0}, {"lon": -77.0200475, "fusion_lon": 0.0, "bike_id": "7ba4bf109861c28bf889b4767f47d7e4", "type": "electric_scooter", "name": "7ba4bf109861c28bf889b4767f47d7e4", "rental_uris": {"android": "https://dc.lft.to/lastmile_qr_scan", "ios": "https://dc.lft.to/lastmile_qr_scan"}, "is_disabled": 0, "fusion_lat": 0.0, "lat": 38.895384666666665, "is_reserved": 0}, {"lon": -77.04186083333333, "fusion_lon": 0.0, "bike_id": "cd8cad9d939e6485ab1d2195e45372cc", "type": "electric_scooter", "name": "cd8cad9d939e6485ab1d2195e45372cc", "rental_uris": {"android": "https://dc.lft.to/lastmile_qr_scan", "ios": "https://dc.lft.to/lastmile_qr_scan"}, "is_disabled": 0, "fusion_lat": 0.0, "lat": 38.918363666666664, "is_reserved": 0}, {"lon": -77.04370583333333, "fusion_lon": 0.0, "bike_id": "41192910fb756f8a1f9917373939e6f7", "type": "electric_scooter", "name": "41192910fb756f8a1f9917373939e6f7", "rental_uris": {"android": "https://dc.lft.to/lastmile_qr_scan", "ios": "https://dc.lft.to/lastmile_qr_scan"}, "is_disabled": 0, "fusion_lat": 0.0, "lat": 38.8922275, "is_reserved": 0}, {"lon": -77.04364366666667, "fusion_lon": 0.0, "bike_id": "0881f71e82849b4a4e6b1617a0beba43", "type": "electric_scooter", "name": "0881f71e82849b4a4e6b1617a0beba43", "rental_uris": {"android": "https://dc.lft.to/lastmile_qr_scan", "ios": "https://dc.lft.to/lastmile_qr_scan"}, "is_disabled": 0, "fusion_lat": 0.0, "lat": 38.904216166666664, "is_reserved": 0}, {"lon": -77.039036, "fusion_lon": 0.0, "bike_id": "23cc3d12e358c67e65106e51f02ea492", "type": "electric_scooter", "name": "23cc3d12e358c67e65106e51f02ea492", "rental_uris": {"android": "https://dc.lft.to/lastmile_qr_scan", "ios": "https://dc.lft.to/lastmile_qr_scan"}, "is_disabled": 0, "fusion_lat": 0.0, "lat": 38.92257566666667, "is_reserved": 0}, {"lon": -77.05026483333333, "fusion_lon": 0.0, "bike_id": "873eb549d43e876d4e5f9afa2f96eb7f", "type": "electric_scooter", "name": "873eb549d43e876d4e5f9afa2f96eb7f", "rental_uris": {"android": "https://dc.lft.to/lastmile_qr_scan", "ios": "https://dc.lft.to/lastmile_qr_scan"}, "is_disabled": 0, "fusion_lat": 0.0, "lat": 38.89244333333333, "is_reserved": 0}, {"lon": -77.02964583333333, "fusion_lon": 0.0, "bike_id": "e748612fcbe9a442ad4d47dae83ba10d", "type": "electric_scooter", "name": "e748612fcbe9a442ad4d47dae83ba10d", "rental_uris": {"android": "https://dc.lft.to/lastmile_qr_scan", "ios": "https://dc.lft.to/lastmile_qr_scan"}, "is_disabled": 0, "fusion_lat": 0.0, "lat": 38.93558683333333, "is_reserved": 0}, {"lon": -77.03662883333334, "fusion_lon": 0.0, "bike_id": "dc065507bb5b026c8fe4833bb0c17961", "type": "electric_scooter", "name": "dc065507bb5b026c8fe4833bb0c17961", "rental_uris": {"android": "https://dc.lft.to/lastmile_qr_scan", "ios": "https://dc.lft.to/lastmile_qr_scan"}, "is_disabled": 0, "fusion_lat": 0.0, "lat": 38.92690233333333, "is_reserved": 0}, {"lon": -76.99564033333333, "fusion_lon": 0.0, "bike_id": "044b3ec5026169d4625bd6ccef551b5a", "type": "electric_scooter", "name": "044b3ec5026169d4625bd6ccef551b5a", "rental_uris": {"android": "https://dc.lft.to/lastmile_qr_scan", "ios": "https://dc.lft.to/lastmile_qr_scan"}, "is_disabled": 0, "fusion_lat": 0.0, "lat": 38.927345833333334, "is_reserved": 0}, {"lon": -76.99804366666666, "fusion_lon": 0.0, "bike_id": "59100774e05cbe10146c7b2a09a0a9d9", "type": "electric_scooter", "name": "59100774e05cbe10146c7b2a09a0a9d9", "rental_uris": {"android": "https://dc.lft.to/lastmile_qr_scan", "ios": "https://dc.lft.to/lastmile_qr_scan"}, "is_disabled": 0, "fusion_lat": 0.0, "lat": 38.9013775, "is_reserved": 0}, {"lon": -77.07061916666666, "fusion_lon": 0.0, "bike_id": "fdf9de97e69c1654773ca968766c6e99", "type": "electric_scooter", "name": "fdf9de97e69c1654773ca968766c6e99", "rental_uris": {"android": "https://dc.lft.to/lastmile_qr_scan", "ios": "https://dc.lft.to/lastmile_qr_scan"}, "is_disabled": 0, "fusion_lat": 0.0, "lat": 38.90105616666666, "is_reserved": 0}, {"lon": -76.986712, "fusion_lon": 0.0, "bike_id": "cab117af088030ce29fc70ac609688fe", "type": "electric_scooter", "name": "cab117af088030ce29fc70ac609688fe", "rental_uris": {"android": "https://dc.lft.to/lastmile_qr_scan", "ios": "https://dc.lft.to/lastmile_qr_scan"}, "is_disabled": 0, "fusion_lat": 0.0, "lat": 38.90675016666667, "is_reserved": 0},