{"data": {"bikes": [{"lon": -77.09453666666667, "rental_uris": {"android": "https://dc.lft.to/lastmile_qr_scan", "ios": "https://dc.lft.to/lastmile_qr_scan"}, "fusion_lon": 0.0, "is_reserved": 0, "is_disabled": 0, "fusion_lat": 0.0, "type": "electric_bike", "name": "147a29fec5ef62473c70a52621847652", "lat": 38.807552333333334, "bike_id": "147a29fec5ef62473c70a52621847652"}, {"lon": -77.05531066666667, "rental_uris": {"android": "https://dc.lft.to/lastmile_qr_scan", "ios": "https://dc.lft.to/lastmile_qr_scan"}, "fusion_lon": 0.0, "is_reserved": 0, "is_disabled": 0, "fusion_lat": 0.0, "type": "electric_bike", "name": "c09ed37f5d2a74478fd659711f31b810", "lat": 39.0361315, "bike_id": "c09ed37f5d2a74478fd659711f31b810"}, {"lon": -77.0651655, "rental_uris": {"android": "https://dc.lft.to/lastmile_qr_scan", "ios": "https://dc.lft.to/lastmile_qr_scan"}, "fusion_lon": 0.0, "is_reserved": 0, "is_disabled": 0, "fusion_lat": 0.0, "type": "electric_scooter", "name": "8717d73927ab6405745fc9bda2f37f0c", "lat": 38.905316666666664, "bike_id": "8717d73927ab6405745fc9bda2f37f0c"}, {"lon": -77.03625983333333, "rental_uris": {"android": "https://dc.lft.to/lastmile_qr_scan", "ios": "https://dc.lft.to/lastmile_qr_scan"}, "fusion_lon": 0.0, "is_reserved": 0, "is_disabled": 0, "fusion_lat": 0.0, "type": "electric_scooter", "name": "781c85462b080c717b4412274f3d2e03", "lat": 38.9393475, "bike_id": "781c85462b080c717b4412274f3d2e03"}, {"lon": -77.02082633333333, "rental_uris": {"android": "https://dc.lft.to/lastmile_qr_scan", "ios": "https://dc.lft.to/lastmile_qr_scan"}, "fusion_lon": 0.0, "is_reserved": 0, "is_disabled": 0, "fusion_lat": 0.0, "type": "electric_scooter", "name": "8c4f1ec9a335f5427dc2293cb7ae9085", "lat": 38.92121516666667, "bike_id": "8c4f1ec9a335f5427dc2293cb7ae9085"}, {"lon": -77.05555733333334, "rental_uris": {"android": "https://dc.lft.to/lastmile_qr_scan", "ios": "https://dc.lft.to/lastmile_qr_scan"}, "fusion_lon": 0.0, "is_reserved": 0, "is_disabled": 0, "fusion_lat": 0.0, "type": "electric_scooter", "name": "26f656a2853e2cb3afac87f7606800a0", "lat": 38.925338333333336, "bike_id": "26f656a2853e2cb3afac87f7606800a0"}, {"lon": -77.01538566666666, "rental_uris": {"android": "https://dc.lft.to/lastmile_qr_scan", "ios": "https://dc.lft.to/lastmile_qr_scan"}, "fusion_lon": 0.0, "is_reserved": 0, "is_disabled": 0, "fusion_lat": 0.0, "type": "electric_scooter", "name": "7daa5275534917b56ca6875c0bc405c1", "lat": 38.88730233333333, "bike_id": "7daa5275534917b56ca6875c0bc405c1"}, {"lon": -77.03277933333334, "rental_uris": {"android": "https://dc.lft.to/lastmile_qr_scan", "ios": "https://dc.lft.to/lastmile_qr_scan"}, "fusion_lon": 0.0, "is_reserved": 0, "is_disabled": 0, "fusion_lat": 0.0, "type": "electric_scooter", "name": "de6121d468bd9edb4b19644fba00f7fd", "lat": 38.939656666666664, "bike_id": "de6121d468bd9edb4b19644fba00f7fd"}, {"lon": -77.0206515, "rental_uris": {"android": "https://dc.lft.to/lastmile_qr_scan", "ios": "https://dc.lft.to/lastmile_qr_scan"}, "fusion_lon": 0.0, "is_reserved": 0, "is_disabled": 0, "fusion_lat": 0.0, "type": "electric_scooter", "name": "d4f3e736c46321d5d3971139dffe1321", "lat": 38.927665833333336, "bike_id": "d4f3e736c46321d5d3971139dffe1321"}, {"lon": -77.03162033333334, "rental_uris": {"android": "https://dc.lft.to/lastmile_qr_scan", "ios": "https://dc.lft.to/lastmile_qr_scan"}, "fusion_lon": 0.0, "is_reserved": 0, "is_disabled": 0, "fusion_lat": 0.0, "type": "electric_scooter", "name": "077d03b95bf3e5ded714669431e26721", "lat": 38.892206333333334, "bike_id": "077d03b95bf3e5ded714669431e26721"}, {"lon": -77.08840616666667, "rental_uris": {"android": "https://dc.lft.to/lastmile_qr_scan", "ios": "https://dc.lft.to/lastmile_qr_scan"}, "fusion_lon": 0.0, "is_reserved": 0, "is_disabled": 0, "fusion_lat": 0.0, "type": "electric_scooter", "name": "1f6bcd96db3a68f5881af282ea447543", "lat": 38.933531, "bike_id": "1f6bcd96db3a68f5881af282ea447543"}, {"lon": -77.01398933333333, "rental_uris": {"android": "https://dc.lft.to/lastmile_qr_scan", "ios": "https://dc.lft.to/lastmile_qr_scan"}, "fusion_lon": 0.0, "is_reserved": 0, "is_disabled": 0, "fusion_lat": 0.0, "type": "electric_scooter", "name": "bc438c06c76eeafbc53d841220468bf1", "lat": 38.892218166666666, "bike_id": "bc438c06c76eeafbc53d841220468bf1"}, {"lon": -77.03410866666667, "rental_uris": {"android": "https://dc.lft.to/lastmile_qr_scan", "ios": "https://dc.lft.to/lastmile_qr_scan"}, "fusion_lon": 0.0, "is_reserved": 0, "is_disabled": 0, "fusion_lat": 0.0, "type": "electric_scooter", "name": "145135996b4eada1f29c10a6e3a73a81", "lat": 38.903837833333334, "bike_id": "145135996b4eada1f29c10a6e3a73a81"}, {"lon": -77.04207616666666, "rental_uris": {"android": "https://dc.lft.to/lastmile_qr_scan", "ios": "https://dc.lft.to/lastmile_qr_scan"}, "fusion_lon": 0.0, "is_reserved": 0, "is_disabled": 0, "fusion_lat": 0.0, "type": "electric_scooter", "name": "7e9dad7bdceb649e66553a0374252a21", "lat": 38.900123, "bike_id": "7e9dad7bdceb649e66553a0374252a21"}, {"lon": -77.014937, "rental_uris": {"android": "https://dc.lft.to/lastmile_qr_scan", "ios": "https://dc.lft.to/lastmile_qr_scan"}, "fusion_lon": 0.0, "is_reserved": 0, "is_disabled": 0, "fusion_lat": 0.0, "type": "electric_scooter", "name": "16e2d295d7429f0eb2cd6292bda9528a", "lat": 38.95768, "bike_id": "16e2d295d7429f0eb2cd6292bda9528a"}, {"lon": -77.06750666666667, "rental_uris": {"android": "https://dc.lft.to/lastmile_qr_scan", "ios": "https://dc.lft.to/lastmile_qr_scan"}, "fusion_lon": 0.0, "is_reserved": 0, "is_disabled": 0, "fusion_lat": 0.0, "type": "electric_scooter", "name": "4310f6e5983b82b3bbf39f3e15a61f67", "lat": 38.905149333333334, "bike_id": "4310f6e5983b82b3bbf39f3e15a61f67"}, {"lon": -77.03203883333333, "rental_uris": {"android": "https://dc.lft.to/lastmile_qr_scan", "ios": "https://dc.lft.to/lastmile_qr_scan"}, "fusion_lon": 0.0, "is_reserved": 0, "is_disabled": 0, "fusion_lat": 0.0, "type": "electric_scooter", "name": "7867ffa0c64f22c94f6f7b24dc332c54", "lat": 38.917776333333336, "bike_id": "7867ffa0c64f22c94f6f7b24dc332c54"}, {"lon": -77.03858116666666, "rental_uris": {"android": "https://dc.lft.to/lastmile_qr_scan", "ios": "https://dc.lft.to/lastmile_qr_scan"}, "fusion_lon": 0.0, "is_reserved": 0, "is_disabled": 0, "fusion_lat": 0.0, "type": "electric_scooter", "name": "af6160d21181f46eb223c6ec678436a2", "lat": 38.92444283333333, "bike_id": "af6160d21181f46eb223c6ec678436a2"}, {"lon": -77.033993, "rental_uris": {"android": "https://dc.lft.to/lastmile_qr_scan", "ios": "https://dc.lft.to/lastmile_qr_scan"}, "fusion_lon": 0.0, "is_reserved": 0, "is_disabled": 0, "fusion_lat": 0.0, "type": "electric_scooter", "name": "8c054ab27dda4257c63caf30d05f8d50", "lat": 38.902736166666664, "bike_id": "8c054ab27dda4257c63caf30d05f8d50"}, {"lon": -77.06937616666667, "rental_uris": {"android": "https://dc.lft.to/lastmile_qr_scan", "ios": "https://dc.lft.to/lastmile_qr_scan"}, "fusion_lon": 0.0, "is_reserved": 0, "is_disabled": 0, "fusion_lat": 0.0, "type": "electric_scooter", "name": "58c6ef1c471761eb53c37a83dc572197", "lat": 38.9174585, "bike_id": "58c6ef1c471761eb53c37a83dc572197"}, {"lon": -77.05924016666667, "rental_uris": {"android": "https://dc.lft.to/lastmile_qr_scan", "ios": "https://dc.lft.to/lastmile_qr_scan"}, "fusion_lon": 0.0, "is_reserved": 0, "is_disabled": 0, "fusion_lat": 0.0, "type": "electric_scooter", "name": "1436e712c93c958b64c8c5dc3a58c0cf", "lat": 38.9430055, "bike_id": "1436e712c93c958b64c8c5dc3a58c0cf"}, {"lon": -77.0439845, "rental_uris": {"android": "https://dc.lft.to/lastmile_qr_scan", "ios": "https://dc.lft.to/lastmile_qr_scan"}, "fusion_lon": 0.0, "is_reserved": 0, "is_disabled": 0, "fusion_lat": 0.0, "type": "electric_bike", "name": "498b863c69794e192c1f325d39f9644f", "lat": 38.90035683333333, "bike_id": "498b863c69794e192c1f325d39f9644f"}, {"lon": -77.0487645, "rental_uris": {"android": "https://dc.lft.to/lastmile_qr_scan", "ios": "https://dc.lft.to/lastmile_qr_scan"}, "fusion_lon": 0.0, "is_reserved": 0, "is_disabled": 0, "fusion_lat": 0.0, "type": "electric_scooter", "name": "f4a5bc0e63e422b3e7db2ba351a15743", "lat": 38.91624266666667, "bike_id": "f4a5bc0e63e422b3e7db2ba351a15743"}, {"lon": -77.04027483333333, "rental_uris": {"android": "https://dc.lft.to/lastmile_qr_scan", "ios": "https://dc.lft.to/lastmile_qr_scan"}, "fusion_lon": 0.0, "is_reserved": 0, "is_disabled": 0, "fusion_lat": 0.0, "type": "electric_scooter", "name": "187fa003871114ce70616878173ae31d", "lat": 38.90621566666667, "bike_id": "187fa003871114ce70616878173ae31d"}, {"lon": -77.04307166666666, "rental_uris": {"android": "https://dc.lft.to/lastmile_qr_scan", "ios": "https://dc.lft.to/lastmile_qr_scan"}, "fusion_lon": 0.0, "is_reserved": 0, "is_disabled": 0, "fusion_lat": 0.0, "type": "electric_scooter", "name": "59336e7981e8aa6d6e0b85dc979a946e", "lat": 38.90578516666667, "bike_id": "59336e7981e8aa6d6e0b85dc979a946e"}, {"lon": -76.998843, "rental_uris": {"android": "https://dc.lft.to/lastmile_qr_scan", "ios": "https://dc.lft.to/lastmile_qr_scan"}, "fusion_lon": 0.0, "is_reserved": 0, "is_disabled": 0, "fusion_lat": 0.0, "type": "electric_scooter", "name": "ca9de2180a9e0d5b4ef1db0ee3867903", "lat": 38.8792665, "bike_id": "ca9de2180a9e0d5b4ef1db0ee3867903"}, {"lon": -77.04269466666666, "rental_uris": {"android": "https://dc.lft.to/lastmile_qr_scan", "ios": "https://dc.lft.to/lastmile_qr_scan"}, "fusion_lon": 0.0, "is_reserved": 0, "is_disabled": 0, "fusion_lat": 0.0, "type": "electric_scooter", "name": "6681cbc2d180686c7f22180058affe46", "lat": 38.9224255, "bike_id": "6681cbc2d180686c7f22180058affe46"}, {"lon": -77.02402883333333, "rental_uris": {"android": "https://dc.lft.to/lastmile_qr_scan", "ios": "https://dc.lft.to/lastmile_qr_scan"}, "fusion_lon": 0.0, "is_reserved": 0, "is_disabled": 0, "fusion_lat": 0.0, "type": "electric_scooter", "name": "b7c3d51b715991cc48aebcdeec134911", "lat": 38.901891666666664, "bike_id": "b7c3d51b715991cc48aebcdeec134911"}, {"lon": -77.01947666666666, "rental_uris": {"android": "https://dc.lft.to/lastmile_qr_scan", "ios": "https://dc.lft.to/lastmile_qr_scan"}, "fusion_lon": 0.0, "is_reserved": 0, "is_disabled": 0, "fusion_lat": 0.0, "type": "electric_scooter", "name": "b5ff096339ca8ab0d05930a583937692", "lat": 38.92250583333333, "bike_id": "b5ff096339ca8ab0d05930a583937692"}, {"lon": -77.03004133333333, "rental_uris": {"android": "https://dc.lft.to/lastmile_qr_scan", "ios": "https://dc.lft.to/lastmile_qr_scan"}, "fusion_lon": 0.0, "is_reserved": 0, "is_disabled": 0, "fusion_lat": 0.0, "type": "electric_scooter", "name": "5b76bfd8c6cdefa364097487b003d258", "lat": 38.91660366666667, "bike_id": "5b76bfd8c6cdefa364097487b003d258"}, {"lon": -77.04555433333333, "rental_uris": {"android": "https://dc.lft.to/lastmile_qr_scan", "ios": "https://dc.lft.to/lastmile_qr_scan"}, "fusion_lon": 0.0, "is_reserved": 0, "is_disabled": 0, "fusion_lat": 0.0, "type": "electric_scooter", "name": "0acb0674d28e5784eed03ed8ab47a744", "lat": 38.89610866666666, "bike_id": "0acb0674d28e5784eed03ed8ab47a744"}, {"lon": -77.057576, "rental_uris": {"android": "https://dc.lft.to/lastmile_qr_scan", "ios": "https://dc.lft.to/lastmile_qr_scan"}, "fusion_lon": 0.0, "is_reserved": 0, "is_disabled": 0, "fusion_lat": 0.0, "type": "electric_scooter", "name": "1c62c3a8d16ee7304d137dfc07f788fa", "lat": 38.933761833333335, "bike_id": "1c62c3a8d16ee7304d137dfc07f788fa"}, {"lon": -76.99653116666667, "rental_uris": {"android": "https://dc.lft.to/lastmile_qr_scan", "ios": "https://dc.lft.to/lastmile_qr_scan"}, "fusion_lon": 0.0, "is_reserved": 0, "is_disabled": 0, "fusion_lat": 0.0, "type": "electric_scooter", "name": "977af27960968517a013155919fe362f", "lat": 38.85985316666667, "bike_id": "977af27960968517a013155919fe362f"}, {"lon": -77.002966, "rental_uris": {"android": "https://dc.lft.to/lastmile_qr_scan", "ios": "https://dc.lft.to/lastmile_qr_scan"}, "fusion_lon": 0.0, "is_reserved": 0, "is_disabled": 0, "fusion_lat": 0.0, "type": "electric_scooter", "name": "1ee2b1185302900ff392293868396737", "lat": 38.876529833333336, "bike_id": "1ee2b1185302900ff392293868396737"}, {"lon": -77.0334435, "rental_uris": {"android": "https://dc.lft.to/lastmile_qr_scan", "ios": "https://dc.lft.to/lastmile_qr_scan"}, "fusion_lon": 0.0, "is_reserved": 0, "is_disabled": 0, "fusion_lat": 0.0, "type": "electric_scooter", "name": "ff83804c984babe1b64caeb48a6196ca", "lat": 38.89804083333333, "bike_id": "ff83804c984babe1b64caeb48a6196ca"}, {"lon": -77.03806083333333, "rental_uris": {"android": "https://dc.lft.to/lastmile_qr_scan", "ios": "https://dc.lft.to/lastmile_qr_scan"}, "fusion_lon": 0.0, "is_reserved": 0, "is_disabled": 0, "fusion_lat": 0.0, "type": "electric_scooter", "name": "65efc5d21a0684aa35b55c3751fe1a0a", "lat": 38.9231365, "bike_id": "65efc5d21a0684aa35b55c3751fe1a0a"}, {"lon": -77.0394185, "rental_uris": {"android": "https://dc.lft.to/lastmile_qr_scan", "ios": "https://dc.lft.to/lastmile_qr_scan"}, "fusion_lon": 0.0, "is_reserved": 0, "is_disabled": 0, "fusion_lat": 0.0, "type": "electric_scooter", "name": "d95199938fc22b9f36772fb75859c1a7", "lat": 38.901491166666666, "bike_id": "d95199938fc22b9f36772fb75859c1a7"}, {"lon": -77.001673, "rental_uris": {"android": "https://dc.lft.to/lastmile_qr_scan", "ios": "https://dc.lft.to/lastmile_qr_scan"}, "fusion_lon": 0.0, "is_reserved": 0, "is_disabled": 0, "fusion_lat": 0.0, "type": "electric_scooter", "name": "f15ccfc3b8825fdb74068708800f766f", "lat": 38.958368166666666, "bike_id": "f15ccfc3b8825fdb74068708800f766f"}, {"lon": -77.043412, "rental_uris": {"android": "https://dc.lft.to/lastmile_qr_scan", "ios": "https://dc.lft.to/lastmile_qr_scan"}, "fusion_lon": 0.0, "is_reserved": 0, "is_disabled": 0, "fusion_lat": 0.0, "type": "electric_scooter", "name": "b0be52c4ff9e26e1b2faa79cce8abebe", "lat": 38.90136666666667, "bike_id": "b0be52c4ff9e26e1b2faa79cce8abebe"}, {"lon": -77.0399915, "rental_uris": {"android": "https://dc.lft.to/lastmile_qr_scan", "ios": "https://dc.lft.to/lastmile_qr_scan"}, "fusion_lon": 0.0, "is_reserved": 0, "is_disabled": 0, "fusion_lat": 0.0, "type": "electric_scooter", "name": "625cf336e81191f0e33f69d5a875927f", "lat": 38.934314, "bike_id": "625cf336e81191f0e33f69d5a875927f"}, {"lon": -77.03217033333334, "rental_uris": {"android": "https://dc.lft.to/lastmile_qr_scan", "ios": "https://dc.lft.to/lastmile_qr_scan"}, "fusion_lon": 0.0, "is_reserved": 0, "is_disabled": 0, "fusion_lat": 0.0, "type": "electric_scooter", "name": "fc32ef3738f369a60efec01b7a18c72c", "lat": 38.90346866666667, "bike_id": "fc32ef3738f369a60efec01b7a18c72c"}, {"lon": -76.95433183333333, "rental_uris": {"android": "https://dc.lft.to/lastmile_qr_scan", "ios": "https://dc.lft.to/lastmile_qr_scan"}, "fusion_lon": 0.0, "is_reserved": 0, "is_disabled": 0, "fusion_lat": 0.0, "type": "electric_scooter", "name": "cf448321e6e3901412837a3eaa53b1a9", "lat": 38.889967666666664, "bike_id": "cf448321e6e3901412837a3eaa53b1a9"}, {"lon": -77.0329245, "rental_uris": {"android": "https://dc.lft.to/lastmile_qr_scan", "ios": "https://dc.lft.to/lastmile_qr_scan"}, "fusion_lon": 0.0, "is_reserved": 0, "is_disabled": 0, "fusion_lat": 0.0, "type": "electric_scooter", "name": "f5cfb33f6dbc91187224b30ac7369803", "lat": 38.89902133333333, "bike_id": "f5cfb33f6dbc91187224b30ac7369803"}, {"lon": -77.0346065, "rental_uris": {"android": "https://dc.lft.to/lastmile_qr_scan", "ios": "https://dc.lft.to/lastmile_qr_scan"}, "fusion_lon": 0.0, "is_reserved": 0, "is_disabled": 0, "fusion_lat": 0.0, "type": "electric_scooter", "name": "a2db5830fd7ac3628310bd272e5051f1", "lat": 38.90859616666667, "bike_id": "a2db5830fd7ac3628310bd272e5051f1"}, {"lon": -77.03012516666666, "rental_uris": {"android": "https://dc.lft.to/lastmile_qr_scan", "ios": "https://dc.lft.to/lastmile_qr_scan"}, "fusion_lon": 0.0, "is_reserved": 0, "is_disabled": 0, "fusion_lat": 0.0, "type": "electric_bike", "name": "16e434ab0ae022566bef88df8f2b3023", "lat": 38.8956875, "bike_id": "16e434ab0ae022566bef88df8f2b3023"}, {"lon": -77.013565, "rental_uris": {"android": "https://dc.lft.to/lastmile_qr_scan", "ios": "https://dc.lft.to/lastmile_qr_scan"}, "fusion_lon": 0.0, "is_reserved": 0, "is_disabled": 0, "fusion_lat": 0.0, "type": "electric_scooter", "name": "9d30d8f484cbd764b4f4ede73152bc59", "lat": 38.942154333333335, "bike_id": "9d30d8f484cbd764b4f4ede73152bc59"}, {"lon": -77.02815816666667, "rental_uris": {"android": "https://dc.lft.to/lastmile_qr_scan", "ios": "https://dc.lft.to/lastmile_qr_scan"}, "fusion_lon": 0.0, "is_reserved": 0, "is_disabled": 0, "fusion_lat": 0.0, "type": "electric_scooter", "name": "4e3ff161a107474e5b4058442cbd49ca", "lat": 38.898014333333336, "bike_id": "4e3ff161a107474e5b4058442cbd49ca"}, {"lon": -77.03297266666667, "rental_uris": {"android": "https://dc.lft.to/lastmile_qr_scan", "ios": "https://dc.lft.to/lastmile_qr_scan"}, "fusion_lon": 0.0, "is_reserved": 0, "is_disabled": 0, "fusion_lat": 0.0, "type": "electric_scooter", "name": "8e589c384d22eb94db91d2a0eace98ec", "lat": 38.92755, "bike_id": "8e589c384d22eb94db91d2a0eace98ec"}, {"lon": -77.00829083333333, "rental_uris": {"android": "https://dc.lft.to/lastmile_qr_scan", "ios": "https://dc.lft.to/lastmile_qr_scan"}, "fusion_lon": 0.0, "is_reserved": 0, "is_disabled": 0, "fusion_lat": 0.0, "type": "electric_scooter", "name": "333cde330c0527d5a05c69ccb68c2d28", "lat": 38.879157, "bike_id": "333cde330c0527d5a05c69ccb68c2d28"}, {"lon": -77.041525, "rental_uris": {"android": "https://dc.lft.to/lastmile_qr_scan", "ios": "https://dc.lft.to/lastmile_qr_scan"}, "fusion_lon": 0.0, "is_reserved": 0, "is_disabled": 0, "fusion_lat": 0.0, "type": "electric_scooter", "name": "8c293bd4861158c2b33abd06438216c6", "lat": 38.90516083333333, "bike_id": "8c293bd4861158c2b33abd06438216c6"}, {"lon": -77.00590166666667, "rental_uris": {"android": "https://dc.lft.to/lastmile_qr_scan", "ios": "https://dc.lft.to/lastmile_qr_scan"}, "fusion_lon": 0.0, "is_reserved": 0, "is_disabled": 0, "fusion_lat": 0.0, "type": "electric_scooter", "name": "788aa0314ce55dd639ced7f71da57803", "lat": 38.90482133333333, "bike_id": "788aa0314ce55dd639ced7f71da57803"}, {"lon": -76.98673416666666, "rental_uris": {"android": "https://dc.lft.to/lastmile_qr_scan", "ios": "https://dc.lft.to/lastmile_qr_scan"}, "fusion_lon": 0.0, "is_reserved": 0, "is_disabled": 0, "fusion_lat": 0.0, "type": "electric_bike", "name": "8380867f3dd8a37f72c6cac019bbeb57", "lat": 38.835142166666664, "bike_id": "8380867f3dd8a37f72c6cac019bbeb57"}, {"lon": -77.02236183333333, "rental_uris": {"android": "https://dc.lft.to/lastmile_qr_scan", "ios": "https://dc.lft.to/lastmile_qr_scan"}, "fusion_lon": 0.0, "is_reserved": 0, "is_disabled": 0, "fusion_lat": 0.0, "type": "electric_scooter", "name": "df89cbd1230854a33d78131c792e2ccd", "lat": 38.887683, "bike_id": "df89cbd1230854a33d78131c792e2ccd"}, {"lon": -77.03204333333333, "rental_uris": {"android": "https://dc.lft.to/lastmile_qr_scan", "ios": "https://dc.lft.to/lastmile_qr_scan"}, "fusion_lon": 0.0, "is_reserved": 0, "is_disabled": 0, "fusion_lat": 0.0, "type": "electric_scooter", "name": "f42685b5d9e0d8d839da8f1e5c1b487e", "lat": 38.916778666666666, "bike_id": "f42685b5d9e0d8d839da8f1e5c1b487e"}, {"lon": -76.99379316666666, "rental_uris": {"android": "https://dc.lft.to/lastmile_qr_scan", "ios": "https://dc.lft.to/lastmile_qr_scan"}, "fusion_lon": 0.0, "is_reserved": 0, "is_disabled": 0, "fusion_lat": 0.0, "type": "electric_scooter", "name": "ab484549661e58c529a02e1d65faa698", "lat": 38.8933905, "bike_id": "ab484549661e58c529a02e1d65faa698"}, {"lon": -77.0452785, "rental_uris": {"android": "https://dc.lft.to/lastmile_qr_scan", "ios": "https://dc.lft.to/lastmile_qr_scan"}, "fusion_lon": 0.0, "is_reserved": 0, "is_disabled": 0, "fusion_lat": 0.0, "type": "electric_scooter", "name": "938b29a1f34eae213f752b3126b860e9", "lat": 38.8996365, "bike_id": "938b29a1f34eae213f752b3126b860e9"}, {"lon": -77.0231975, "rental_uris": {"android": "https://dc.lft.to/lastmile_qr_scan", "ios": "https://dc.lft.to/lastmile_qr_scan"}, "fusion_lon": 0.0, "is_reserved": 0, "is_disabled": 0, "fusion_lat": 0.0, "type": "electric_scooter", "name": "490ab94a12bcbc80771573a64e51906d", "lat": 38.920737333333335, "bike_id": "490ab94a12bcbc80771573a64e51906d"}, {"lon": -77.00400633333334, "rental_uris": {"android": "https://dc.lft.to/lastmile_qr_scan", "ios": "https://dc.lft.to/lastmile_qr_scan"}, "fusion_lon": 0.0, "is_reserved": 0, "is_disabled": 0, "fusion_lat": 0.0, "type": "electric_scooter", "name": "52246925e4af67a1f14e08ffaffae139", "lat": 38.905600166666666, "bike_id": "52246925e4af67a1f14e08ffaffae139"}, {"lon": -77.038282, "rental_uris": {"android": "https://dc.lft.to/lastmile_qr_scan", "ios": "https://dc.lft.to/lastmile_qr_scan"}, "fusion_lon": 0.0, "is_reserved": 0, "is_disabled": 0, "fusion_lat": 0.0, "type": "electric_scooter", "name": "121be5af58bbe902133f37ba73349913", "lat": 38.907760833333334, "bike_id": "121be5af58bbe902133f37ba73349913"}, {"lon": -77.03302466666666, "rental_uris": {"android": "https://dc.lft.to/lastmile_qr_scan", "ios": "https://dc.lft.to/lastmile_qr_scan"}, "fusion_lon": 0.0, "is_reserved": 0, "is_disabled": 0, "fusion_lat": 0.0, "type": "electric_bike", "name": "dd9042420d5cbe958ace7894fcf041b2", "lat": 38.926285166666666, "bike_id": "dd9042420d5cbe958ace7894fcf041b2"}, {"lon": -77.05562733333333, "rental_uris": {"android": "https://dc.lft.to/lastmile_qr_scan", "ios": "https://dc.lft.to/lastmile_qr_scan"}, "fusion_lon": 0.0, "is_reserved": 0, "is_disabled": 0, "fusion_lat": 0.0, "type": "electric_scooter", "name": "f400176d63ca073ba24525146609d5fd", "lat": 38.93030816666667, "bike_id": "f400176d63ca073ba24525146609d5fd"}, {"lon": -76.99118033333333, "rental_uris": {"android": "https://dc.lft.to/lastmile_qr_scan", "ios": "https://dc.lft.to/lastmile_qr_scan"}, "fusion_lon": 0.0, "is_reserved": 0, "is_disabled": 0, "fusion_lat": 0.0, "type": "electric_scooter", "name": "af7493f6262e72d7adc7bfca032dc880", "lat": 38.9202285, "bike_id": "af7493f6262e72d7adc7bfca032dc880"}, {"lon": -77.00676833333333, "rental_uris": {"android": "https://dc.lft.to/lastmile_qr_scan", "ios": "https://dc.lft.to/lastmile_qr_scan"}, "fusion_lon": 0.0, "is_reserved": 0, "is_disabled": 0, "fusion_lat": 0.0, "type": "electric_scooter", "name": "1ceaaddc28b50581e6cbe44355e26a15", "lat": 38.877372333333334, "bike_id": "1ceaaddc28b50581e6cbe44355e26a15"}, {"lon": -77.04744833333334, "rental_uris": {"android": "https://dc.lft.to/lastmile_qr_scan", "ios": "https://dc.lft.to/lastmile_qr_scan"}, "fusion_lon": 0.0, "is_reserved": 0, "is_disabled": 0, "fusion_lat": 0.0, "type": "electric_scooter", "name": "9c1fee20c5de0dea866b0e805673440b", "lat": 38.9053935, "bike_id": "9c1fee20c5de0dea866b0e805673440b"}, {"lon": -77.0415345, "rental_uris": {"android": "https://dc.lft.to/lastmile_qr_scan", "ios": "https://dc.lft.to/lastmile_qr_scan"}, "fusion_lon": 0.0, "is_reserved": 0, "is_disabled": 0, "fusion_lat": 0.0, "type": "electric_scooter", "name": "77f64a3880c4f581b09da4fdc0903986", "lat": 38.90374816666667, "bike_id": "77f64a3880c4f581b09da4fdc0903986"}, {"lon": -77.0286185, "rental_uris": {"android": "https://dc.lft.to/lastmile_qr_scan", "ios": "https://dc.lft.to/lastmile_qr_scan"}, "fusion_lon": 0.0, "is_reserved": 0, "is_disabled": 0, "fusion_lat": 0.0, "type": "electric_scooter", "name": "a770933c5dbc6a67319ee3084805a3f9", "lat": 38.88744116666667, "bike_id": "a770933c5dbc6a67319ee3084805a3f9"}, {"lon": -77.00759216666667, "rental_uris": {"android": "https://dc.lft.to/lastmile_qr_scan", "ios": "https://dc.lft.to/lastmile_qr_scan"}, "fusion_lon": 0.0, "is_reserved": 0, "is_disabled": 0, "fusion_lat": 0.0, "type": "electric_bike", "name": "e3119f10fccff02ce1ea6602389f2f08", "lat": 38.89821833333333, "bike_id": "e3119f10fccff02ce1ea6602389f2f08"}, {"lon": -77.0429105, "rental_uris": {"android": "https://dc.lft.to/lastmile_qr_scan", "ios": "https://dc.lft.to/lastmile_qr_scan"}, "fusion_lon": 0.0, "is_reserved": 0, "is_disabled": 0, "fusion_lat": 0.0, "type": "electric_scooter", "name": "7771f4e61ba69e1ec1a1df4d45780454", "lat": 38.9227135, "bike_id": "7771f4e61ba69e1ec1a1df4d45780454"}, {"lon": -77.032446, "rental_uris": {"android": "https://dc.lft.to/lastmile_qr_scan", "ios": "https://dc.lft.to/lastmile_qr_scan"}, "fusion_lon": 0.0, "is_reserved": 0, "is_disabled": 0, "fusion_lat": 0.0, "type": "electric_scooter", "name": "98710de3287e69e1e780eda23d74562c", "lat": 38.917113, "bike_id": "98710de3287e69e1e780eda23d74562c"}, {"lon": -77.024041, "rental_uris": {"android": "https://dc.lft.to/lastmile_qr_scan", "ios": "https://dc.lft.to/lastmile_qr_scan"}, "fusion_lon": 0.0, "is_reserved": 0, "is_disabled": 0, "fusion_lat": 0.0, "type": "electric_scooter", "name": "a8855256715307dfac6dc8bdc6d23ced", "lat": 38.900551666666665, "bike_id": "a8855256715307dfac6dc8bdc6d23ced"}, {"lon": -77.02785766666666, "rental_uris": {"android": "https://dc.lft.to/lastmile_qr_scan", "ios": "https://dc.lft.to/lastmile_qr_scan"}, "fusion_lon": 0.0, "is_reserved": 0, "is_disabled": 0, "fusion_lat": 0.0, "type": "electric_scooter", "name": "df991422b07727612ecd26849d6231e5", "lat": 38.917015166666665, "bike_id": "df991422b07727612ecd26849d6231e5"}, {"lon": -76.99410516666667, "rental_uris": {"android": "https://dc.lft.to/lastmile_qr_scan", "ios": "https://dc.lft.to/lastmile_qr_scan"}, "fusion_lon": 0.0, "is_reserved": 0, "is_disabled": 0, "fusion_lat": 0.0, "type": "electric_scooter", "name": "9fa1d7451d3f3b62d0a3fca443cb3899", "lat": 38.877855833333335, "bike_id": "9fa1d7451d3f3b62d0a3fca443cb3899"}, {"lon": -77.039416, "rental_uris": {"android": "https://dc.lft.to/lastmile_qr_scan", "ios": "https://dc.lft.to/lastmile_qr_scan"}, "fusion_lon": 0.0, "is_reserved": 0, "is_disabled": 0, "fusion_lat": 0.0, "type": "electric_scooter", "name": "fb4d9460386cbea947a04c84b263a384", "lat": 38.916057, "bike_id": "fb4d9460386cbea947a04c84b263a384"}, {"lon": -77.0517665, "rental_uris": {"android": "https://dc.lft.to/lastmile_qr_scan", "ios": "https://dc.lft.to/lastmile_qr_scan"}, "fusion_lon": 0.0, "is_reserved": 0, "is_disabled": 0, "fusion_lat": 0.0, "type": "electric_scooter", "name": "6c9c2a0ec809b0d5fb1bed2e0881af24", "lat": 38.924244, "bike_id": "6c9c2a0ec809b0d5fb1bed2e0881af24"}, {"lon": -77.044946, "rental_uris": {"android": "https://dc.lft.to/lastmile_qr_scan", "ios": "https://dc.lft.to/lastmile_qr_scan"}, "fusion_lon": 0.0, "is_reserved": 0, "is_disabled": 0, "fusion_lat": 0.0, "type": "electric_scooter", "name": "f4dec292a0e7f4120da66cc0437d54d6", "lat": 38.90371666666667, "bike_id": "f4dec292a0e7f4120da66cc0437d54d6"}, {"lon": -77.03066316666667, "rental_uris": {"android": "https://dc.lft.to/lastmile_qr_scan", "ios": "https://dc.lft.to/lastmile_qr_scan"}, "fusion_lon": 0.0, "is_reserved": 0, "is_disabled": 0, "fusion_lat": 0.0, "type": "electric_scooter", "name": "99069f97453a2f8b2f074e27741fd5ef", "lat": 38.919225, "bike_id": "99069f97453a2f8b2f074e27741fd5ef"}, {"lon": -77.07342883333334, "rental_uris": {"android": "https://dc.lft.to/lastmile_qr_scan", "ios": "https://dc.lft.to/lastmile_qr_scan"}, "fusion_lon": 0.0, "is_reserved": 0, "is_disabled": 0, "fusion_lat": 0.0, "type": "electric_scooter", "name": "c06f011d2a13031759c83f775cf92b00", "lat": 38.92251666666667, "bike_id": "c06f011d2a13031759c83f775cf92b00"}, {"lon": -77.03285466666667, "rental_uris": {"android": "https://dc.lft.to/lastmile_qr_scan", "ios": "https://dc.lft.to/lastmile_qr_scan"}, "fusion_lon": 0.0, "is_reserved": 0, "is_disabled": 0, "fusion_lat": 0.0, "type": "electric_bike", "name": "8a1db894113e30e9cccbba97fb48a6ce", "lat": 38.956540333333336, "bike_id": "8a1db894113e30e9cccbba97fb48a6ce"}, {"lon": -77.2394755, "rental_uris": {"android": "https://dc.lft.to/lastmile_qr_scan", "ios": "https://dc.lft.to/lastmile_qr_scan"}, "fusion_lon": 0.0, "is_reserved": 0, "is_disabled": 0, "fusion_lat": 0.0, "type": "electric_bike", "name": "6273771e4a4d5978eb05ff1b0dd557b9", "lat": 38.924814166666664, "bike_id": "6273771e4a4d5978eb05ff1b0dd557b9"}, {"lon": -76.9829715, "rental_uris": {"android": "https://dc.lft.to/lastmile_qr_scan", "ios": "https://dc.lft.to/lastmile_qr_scan"}, "fusion_lon": 0.0, "is_reserved": 0, "is_disabled": 0, "fusion_lat": 0.0, "type": "electric_scooter", "name": "276fc2b153b5acbb71e37f6234bef03b", "lat": 38.88766483333333, "bike_id": "276fc2b153b5acbb71e37f6234bef03b"}, {"lon": -77.044933, "rental_uris": {"android": "https://dc.lft.to/lastmile_qr_scan", "ios": "https://dc.lft.to/lastmile_qr_scan"}, "fusion_lon": 0.0, "is_reserved": 0, "is_disabled": 0, "fusion_lat": 0.0, "type": "electric_scooter", "name": "0fd7e6c66dabeac78d63cee7f9f1fc3e", "lat": 38.898418, "bike_id": "0fd7e6c66dabeac78d63cee7f9f1fc3e"}, {"lon": -77.04188666666667, "rental_uris": {"android": "https://dc.lft.to/lastmile_qr_scan", "ios": "https://dc.lft.to/lastmile_qr_scan"}, "fusion_lon": 0.0, "is_reserved": 0, "is_disabled": 0, "fusion_lat": 0.0, "type": "electric_scooter", "name": "a687cf5a54f4cafffe6d99a41af66713", "lat": 38.89809233333333, "bike_id": "a687cf5a54f4cafffe6d99a41af66713"}, {"lon": -77.03262833333334, "rental_uris": {"android": "https://dc.lft.to/lastmile_qr_scan", "ios": "https://dc.lft.to/lastmile_qr_scan"}, "fusion_lon": 0.0, "is_reserved": 0, "is_disabled": 0, "fusion_lat": 0.0, "type": "electric_scooter", "name": "a8cbec5701b16d2d41d5c3c777b8c122", "lat": 38.9297985, "bike_id": "a8cbec5701b16d2d41d5c3c777b8c122"}, {"lon": -76.97429166666667, "rental_uris": {"android": "https://dc.lft.to/lastmile_qr_scan", "ios": "https://dc.lft.to/lastmile_qr_scan"}, "fusion_lon": 0.0, "is_reserved": 0, "is_disabled": 0, "fusion_lat": 0.0, "type": "electric_scooter", "name": "1ff44e73a202bd7163179a927f5f7f14", "lat": 38.90210716666667, "bike_id": "1ff44e73a202bd7163179a927f5f7f14"}, {"lon": -77.035858, "rental_uris": {"android": "https://dc.lft.to/lastmile_qr_scan", "ios": "https://dc.lft.to/lastmile_qr_scan"}, "fusion_lon": 0.0, "is_reserved": 0, "is_disabled": 0, "fusion_lat": 0.0, "type": "electric_scooter", "name": "a92249186b0cd41adc5e81038a20047e", "lat": 38.90743583333333, "bike_id": "a92249186b0cd41adc5e81038a20047e"}, {"lon": -77.02897116666666, "rental_uris": {"android": "https://dc.lft.to/lastmile_qr_scan", "ios": "https://dc.lft.to/lastmile_qr_scan"}, "fusion_lon": 0.0, "is_reserved": 0, "is_disabled": 0, "fusion_lat": 0.0, "type": "electric_scooter", "name": "8e45347a7e532176bbbc77577e69eb3b", "lat": 38.90455816666667, "bike_id": "8e45347a7e532176bbbc77577e69eb3b"}, {"lon": -77.01476316666667, "rental_uris": {"android": "https://dc.lft.to/lastmile_qr_scan", "ios": "https://dc.lft.to/lastmile_qr_scan"}, "fusion_lon": 0.0, "is_reserved": 0, "is_disabled": 0, "fusion_lat": 0.0, "type": "electric_scooter", "name": "f8ca749bfa95c2dd47c0ff346fb3a105", "lat": 38.915969833333335, "bike_id": "f8ca749bfa95c2dd47c0ff346fb3a105"}, {"lon": -77.02239166666666, "rental_uris": {"android": "https://dc.lft.to/lastmile_qr_scan", "ios": "https://dc.lft.to/lastmile_qr_scan"}, "fusion_lon": 0.0, "is_reserved": 0, "is_disabled": 0, "fusion_lat": 0.0, "type": "electric_bike", "name": "66be7375e711d3e9c9ad2c77d18c7273", "lat": 38.96449, "bike_id": "66be7375e711d3e9c9ad2c77d18c7273"}, {"lon": -77.03163033333334, "rental_uris": {"android": "https://dc.lft.to/lastmile_qr_scan", "ios": "https://dc.lft.to/lastmile_qr_scan"}, "fusion_lon": 0.0, "is_reserved": 0, "is_disabled": 0, "fusion_lat": 0.0, "type": "electric_scooter", "name": "3a9b005ef67f37af6e58ed83301e70c0", "lat": 38.91414066666667, "bike_id": "3a9b005ef67f37af6e58ed83301e70c0"}, {"lon": -77.06373416666666, "rental_uris": {"android": "https://dc.lft.to/lastmile_qr_scan", "ios": "https://dc.lft.to/lastmile_qr_scan"}, "fusion_lon": 0.0, "is_reserved": 0, "is_disabled": 0, "fusion_lat": 0.0, "type": "electric_scooter", "name": "f5557ef33bd6b2da03451769bcc6b3b7", "lat": 38.908213, "bike_id": "f5557ef33bd6b2da03451769bcc6b3b7"}, {"lon": -77.01091566666666, "rental_uris": {"android": "https://dc.lft.to/lastmile_qr_scan", "ios": "https://dc.lft.to/lastmile_qr_scan"}, "fusion_lon": 0.0, "is_reserved": 0, "is_disabled": 0, "fusion_lat": 0.0, "type": "electric_bike", "name": "42e1eebf723db5ceda81c8365a7316eb", "lat": 38.873008166666665, "bike_id": "42e1eebf723db5ceda81c8365a7316eb"}, {"lon": -77.00053716666666, "rental_uris": {"android": "https://dc.lft.to/lastmile_qr_scan", "ios": "https://dc.lft.to/lastmile_qr_scan"}, "fusion_lon": 0.0, "is_reserved": 0, "is_disabled": 0, "fusion_lat": 0.0, "type": "electric_scooter", "name": "a1377e0e0f1c978f48ba3a3ebd4407b8", "lat": 38.87692916666666, "bike_id": "a1377e0e0f1c978f48ba3a3ebd4407b8"}, {"lon": -77.02412333333334, "rental_uris": {"android": "https://dc.lft.to/lastmile_qr_scan", "ios": "https://dc.lft.to/lastmile_qr_scan"}, "fusion_lon": 0.0, "is_reserved": 0, "is_disabled": 0, "fusion_lat": 0.0, "type": "electric_scooter", "name": "74a5fde723b9d0a2b5d97db56f2bb2a2", "lat": 38.920735, "bike_id": "74a5fde723b9d0a2b5d97db56f2bb2a2"}, {"lon": -77.007375, "rental_uris": {"android": "https://dc.lft.to/lastmile_qr_scan", "ios": "https://dc.lft.to/lastmile_qr_scan"}, "fusion_lon": 0.0, "is_reserved": 0, "is_disabled": 0, "fusion_lat": 0.0, "type": "electric_scooter", "name": "5a0d3661c8942c2857bb807ea72d6406", "lat": 38.878556833333334, "bike_id": "5a0d3661c8942c2857bb807ea72d6406"}, {"lon": -77.01219566666667, "rental_uris": {"android": "https://dc.lft.to/lastmile_qr_scan", "ios": "https://dc.lft.to/lastmile_qr_scan"}, "fusion_lon": 0.0, "is_reserved": 0, "is_disabled": 0, "fusion_lat": 0.0, "type": "electric_scooter", "name": "d370498c39c9dea63edd41c14b6b58e1", "lat": 38.920364666666664, "bike_id": "d370498c39c9dea63edd41c14b6b58e1"}, {"lon": -77.06523616666666, "rental_uris": {"android": "https://dc.lft.to/lastmile_qr_scan", "ios": "https://dc.lft.to/lastmile_qr_scan"}, "fusion_lon": 0.0, "is_reserved": 0, "is_disabled": 0, "fusion_lat": 0.0, "type": "electric_scooter", "name": "ae45f59be0f828467dec9d26c96feac3", "lat": 38.92420166666667, "bike_id": "ae45f59be0f828467dec9d26c96feac3"}, {"lon": -77.039954, "rental_uris": {"android": "https://dc.lft.to/lastmile_qr_scan", "ios": "https://dc.lft.to/lastmile_qr_scan"}, "fusion_lon": 0.0, "is_reserved": 0, "is_disabled": 0, "fusion_lat": 0.0, "type": "electric_scooter", "name": "7a55ae48693a6a6048b6bc42133b4d58", "lat": 38.9343485, "bike_id": "7a55ae48693a6a6048b6bc42133b4d58"}, {"lon": -77.07164566666667, "rental_uris": {"android": "https://dc.lft.to/lastmile_qr_scan", "ios": "https://dc.lft.to/lastmile_qr_scan"}, "fusion_lon": 0.0, "is_reserved": 0, "is_disabled": 0, "fusion_lat": 0.0, "type": "electric_bike", "name": "20424bfd45b218d9bafc9a9622080103", "lat": 38.9079615, "bike_id": "20424bfd45b218d9bafc9a9622080103"}, {"lon": -77.07163466666667, "rental_uris": {"android": "https://dc.lft.to/lastmile_qr_scan", "ios": "https://dc.lft.to/lastmile_qr_scan"}, "fusion_lon": 0.0, "is_reserved": 0, "is_disabled": 0, "fusion_lat": 0.0, "type": "electric_scooter", "name": "61522c9198b77efd39c557aaea6f2559", "lat": 38.908743, "bike_id": "61522c9198b77efd39c557aaea6f2559"}, {"lon": -77.0201995, "rental_uris": {"android": "https://dc.lft.to/lastmile_qr_scan", "ios": "https://dc.lft.to/lastmile_qr_scan"}, "fusion_lon": 0.0, "is_reserved": 0, "is_disabled": 0, "fusion_lat": 0.0, "type": "electric_scooter", "name": "2f6bfde61ff404e46c51a854e58de128", "lat": 38.9217405, "bike_id": "2f6bfde61ff404e46c51a854e58de128"}, {"lon": -77.0504495, "rental_uris": {"android": "https://dc.lft.to/lastmile_qr_scan", "ios": "https://dc.lft.to/lastmile_qr_scan"}, "fusion_lon": 0.0, "is_reserved": 0, "is_disabled": 0, "fusion_lat": 0.0, "type": "electric_scooter", "name": "715ab55a1f7ab69241dc8f3844bcc15d", "lat": 38.92364533333333, "bike_id": "715ab55a1f7ab69241dc8f3844bcc15d"}, {"lon": -77.01399666666667, "rental_uris": {"android": "https://dc.lft.to/lastmile_qr_scan", "ios": "https://dc.lft.to/lastmile_qr_scan"}, "fusion_lon": 0.0, "is_reserved": 0, "is_disabled": 0, "fusion_lat": 0.0, "type": "electric_scooter", "name": "76812e82804bedacd75f7c2aefa6a16e", "lat": 38.974692, "bike_id": "76812e82804bedacd75f7c2aefa6a16e"}, {"lon": -76.99158866666667, "rental_uris": {"android": "https://dc.lft.to/lastmile_qr_scan", "ios": "https://dc.lft.to/lastmile_qr_scan"}, "fusion_lon": 0.0, "is_reserved": 0, "is_disabled": 0, "fusion_lat": 0.0, "type": "electric_scooter", "name": "b96d2d4c636a91a50897a6d3ebb0f59d", "lat": 38.897775333333335, "bike_id": "b96d2d4c636a91a50897a6d3ebb0f59d"}, {"lon": -76.91715416666666, "rental_uris": {"android": "https://dc.lft.to/lastmile_qr_scan", "ios": "https://dc.lft.to/lastmile_qr_scan"}, "fusion_lon": 0.0, "is_reserved": 0, "is_disabled": 0, "fusion_lat": 0.0, "type": "electric_bike", "name": "c5244b83bd06691e31e1302a262c3bf3", "lat": 38.880294166666665, "bike_id": "c5244b83bd06691e31e1302a262c3bf3"}, {"lon": -77.02178566666667, "rental_uris": {"android": "https://dc.lft.to/lastmile_qr_scan", "ios": "https://dc.lft.to/lastmile_qr_scan"}, "fusion_lon": 0.0, "is_reserved": 0, "is_disabled": 0, "fusion_lat": 0.0, "type": "electric_scooter", "name": "86e8cda8489ab45b096a2802b1bee221", "lat": 38.8923395, "bike_id": "86e8cda8489ab45b096a2802b1bee221"}, {"lon": -77.03205883333334, "rental_uris": {"android": "https://dc.lft.to/lastmile_qr_scan", "ios": "https://dc.lft.to/lastmile_qr_scan"}, "fusion_lon": 0.0, "is_reserved": 0, "is_disabled": 0, "fusion_lat": 0.0, "type": "electric_scooter", "name": "41b39dba8f8b5cae331368557a37c535", "lat": 38.925819833333335, "bike_id": "41b39dba8f8b5cae331368557a37c535"}, {"lon": -77.067348, "rental_uris": {"android": "https://dc.lft.to/lastmile_qr_scan", "ios": "https://dc.lft.to/lastmile_qr_scan"}, "fusion_lon": 0.0, "is_reserved": 0, "is_disabled": 0, "fusion_lat": 0.0, "type": "electric_scooter", "name": "1734993c945d6e4ea5330d1d4aa03d74", "lat": 38.90513933333333, "bike_id": "1734993c945d6e4ea5330d1d4aa03d74"}, {"lon": -76.93188316666667, "rental_uris": {"android": "https://dc.lft.to/lastmile_qr_scan", "ios": "https://dc.lft.to/lastmile_qr_scan"}, "fusion_lon": 0.0, "is_reserved": 0, "is_disabled": 0, "fusion_lat": 0.0, "type": "electric_bike", "name": "5af6929cfc2ec057c6b80c7178628654", "lat": 38.898538, "bike_id": "5af6929cfc2ec057c6b80c7178628654"}, {"lon": -77.04480233333334, "rental_uris": {"android": "https://dc.lft.to/lastmile_qr_scan", "ios": "https://dc.lft.to/lastmile_qr_scan"}, "fusion_lon": 0.0, "is_reserved": 0, "is_disabled": 0, "fusion_lat": 0.0, "type": "electric_scooter", "name": "b272020a2f8983be682bf74f65950671", "lat": 38.91089683333333, "bike_id": "b272020a2f8983be682bf74f65950671"}, {"lon": -77.04309766666667, "rental_uris": {"android": "https://dc.lft.to/lastmile_qr_scan", "ios": "https://dc.lft.to/lastmile_qr_scan"}, "fusion_lon": 0.0, "is_reserved": 0, "is_disabled": 0, "fusion_lat": 0.0, "type": "electric_scooter", "name": "cd1111845d8678658595f29e39c3ece2", "lat": 38.9058, "bike_id": "cd1111845d8678658595f29e39c3ece2"}, {"lon": -77.0164135, "rental_uris": {"android": "https://dc.lft.to/lastmile_qr_scan", "ios": "https://dc.lft.to/lastmile_qr_scan"}, "fusion_lon": 0.0, "is_reserved": 0, "is_disabled": 0, "fusion_lat": 0.0, "type": "electric_bike", "name": "a7ea29f7ea1fa7504e8d67fe8f8d7cb4", "lat": 38.78457016666667, "bike_id": "a7ea29f7ea1fa7504e8d67fe8f8d7cb4"}, {"lon": -76.99556083333333, "rental_uris": {"android": "https://dc.lft.to/lastmile_qr_scan", "ios": "https://dc.lft.to/lastmile_qr_scan"}, "fusion_lon": 0.0, "is_reserved": 0, "is_disabled": 0, "fusion_lat": 0.0, "type": "electric_scooter", "name": "6abaed792d4d972c0e171a193bf790ef", "lat": 38.92740916666666, "bike_id": "6abaed792d4d972c0e171a193bf790ef"}, {"lon": -77.0433215, "rental_uris": {"android": "https://dc.lft.to/lastmile_qr_scan", "ios": "https://dc.lft.to/lastmile_qr_scan"}, "fusion_lon": 0.0, "is_reserved": 0, "is_disabled": 0, "fusion_lat": 0.0, "type": "electric_scooter", "name": "125a0bb922d99b6bc4fe9ae15e39aefd", "lat": 38.903313, "bike_id": "125a0bb922d99b6bc4fe9ae15e39aefd"}, {"lon": -76.9615775, "rental_uris": {"android": "https://dc.lft.to/lastmile_qr_scan", "ios": "https://dc.lft.to/lastmile_qr_scan"}, "fusion_lon": 0.0, "is_reserved": 0, "is_disabled": 0, "fusion_lat": 0.0, "type": "electric_bike", "name": "740fdbf5e0653c4a8490dd91260f1e41", "lat": 38.95569916666667, "bike_id": "740fdbf5e0653c4a8490dd91260f1e41"}, {"lon": -76.9950665, "rental_uris": {"android": "https://dc.lft.to/lastmile_qr_scan", "ios": "https://dc.lft.to/lastmile_qr_scan"}, "fusion_lon": 0.0, "is_reserved": 0, "is_disabled": 0, "fusion_lat": 0.0, "type": "electric_scooter", "name": "7a32888e9238d8494c274412df295056", "lat": 38.88367266666667, "bike_id": "7a32888e9238d8494c274412df295056"}, {"lon": -76.9861825, "rental_uris": {"android": "https://dc.lft.to/lastmile_qr_scan", "ios": "https://dc.lft.to/lastmile_qr_scan"}, "fusion_lon": 0.0, "is_reserved": 0, "is_disabled": 0, "fusion_lat": 0.0, "type": "electric_scooter", "name": "30c04410966bbba9609c3d47327b912c", "lat": 38.90998533333333, "bike_id": "30c04410966bbba9609c3d47327b912c"}, {"lon": -77.00339066666666, "rental_uris": {"android": "https://dc.lft.to/lastmile_qr_scan", "ios": "https://dc.lft.to/lastmile_qr_scan"}, "fusion_lon": 0.0, "is_reserved": 0, "is_disabled": 0, "fusion_lat": 0.0, "type": "electric_scooter", "name": "fefd076d0c524af5cf4f363877371211", "lat": 38.8918485, "bike_id": "fefd076d0c524af5cf4f363877371211"}, {"lon": -77.05881466666666, "rental_uris": {"android": "https://dc.lft.to/lastmile_qr_scan", "ios": "https://dc.lft.to/lastmile_qr_scan"}, "fusion_lon": 0.0, "is_reserved": 0, "is_disabled": 0, "fusion_lat": 0.0, "type": "electric_scooter", "name": "3ed55665c58c1045e97d138d5d1589b6", "lat": 38.918317, "bike_id": "3ed55665c58c1045e97d138d5d1589b6"}, {"lon": -77.02832283333333, "rental_uris": {"android": "https://dc.lft.to/lastmile_qr_scan", "ios": "https://dc.lft.to/lastmile_qr_scan"}, "fusion_lon": 0.0, "is_reserved": 0, "is_disabled": 0, "fusion_lat": 0.0, "type": "electric_scooter", "name": "e7b7a26db31b48c4392f50fda184a6e7", "lat": 38.95630533333333, "bike_id": "e7b7a26db31b48c4392f50fda184a6e7"}, {"lon": -77.01869483333333, "rental_uris": {"android": "https://dc.lft.to/lastmile_qr_scan", "ios": "https://dc.lft.to/lastmile_qr_scan"}, "fusion_lon": 0.0, "is_reserved": 0, "is_disabled": 0, "fusion_lat": 0.0, "type": "electric_scooter", "name": "f329264755981396ac758f5fe5127663", "lat": 38.908663833333335, "bike_id": "f329264755981396ac758f5fe5127663"}, {"lon": -77.06980383333334, "rental_uris": {"android": "https://dc.lft.to/lastmile_qr_scan", "ios": "https://dc.lft.to/lastmile_qr_scan"}, "fusion_lon": 0.0, "is_reserved": 0, "is_disabled": 0, "fusion_lat": 0.0, "type": "electric_bike", "name": "c1464fc3a44101160291d91a7c4354ac", "lat": 38.955289666666665, "bike_id": "c1464fc3a44101160291d91a7c4354ac"}, {"lon": -77.06045416666667, "rental_uris": {"android": "https://dc.lft.to/lastmile_qr_scan", "ios": "https://dc.lft.to/lastmile_qr_scan"}, "fusion_lon": 0.0, "is_reserved": 0, "is_disabled": 0, "fusion_lat": 0.0, "type": "electric_scooter", "name": "2e1011ffbbb8db45f7a1633d12fb611f", "lat": 38.93914433333333, "bike_id": "2e1011ffbbb8db45f7a1633d12fb611f"}, {"lon": -77.11755533333333, "rental_uris": {"android": "https://dc.lft.to/lastmile_qr_scan", "ios": "https://dc.lft.to/lastmile_qr_scan"}, "fusion_lon": 0.0, "is_reserved": 0, "is_disabled": 0, "fusion_lat": 0.0, "type": "electric_bike", "name": "6dea8cca28c8d2ababd123b96267a0ef", "lat": 38.81253983333333, "bike_id": "6dea8cca28c8d2ababd123b96267a0ef"}, {"lon": -77.03428516666666, "rental_uris": {"android": "https://dc.lft.to/lastmile_qr_scan", "ios": "https://dc.lft.to/lastmile_qr_scan"}, "fusion_lon": 0.0, "is_reserved": 0, "is_disabled": 0, "fusion_lat": 0.0, "type": "electric_scooter", "name": "97539e7409472d7766107bb19742a42b", "lat": 38.902537833333334, "bike_id": "97539e7409472d7766107bb19742a42b"}, {"lon": -77.03738366666667, "rental_uris": {"android": "https://dc.lft.to/lastmile_qr_scan", "ios": "https://dc.lft.to/lastmile_qr_scan"}, "fusion_lon": 0.0, "is_reserved": 0, "is_disabled": 0, "fusion_lat": 0.0, "type": "electric_scooter", "name": "bc66951fd0322142716b1f1725e227a1", "lat": 38.90764216666667, "bike_id": "bc66951fd0322142716b1f1725e227a1"}, {"lon": -77.00689083333333, "rental_uris": {"android": "https://dc.lft.to/lastmile_qr_scan", "ios": "https://dc.lft.to/lastmile_qr_scan"}, "fusion_lon": 0.0, "is_reserved": 0, "is_disabled": 0, "fusion_lat": 0.0, "type": "electric_scooter", "name": "035e8adc807dfc36788b9cdab02834a3", "lat": 38.87146383333334, "bike_id": "035e8adc807dfc36788b9cdab02834a3"}, {"lon": -76.97004516666667, "rental_uris": {"android": "https://dc.lft.to/lastmile_qr_scan", "ios": "https://dc.lft.to/lastmile_qr_scan"}, "fusion_lon": 0.0, "is_reserved": 0, "is_disabled": 0, "fusion_lat": 0.0, "type": "electric_bike", "name": "f596b1bff49e74c1e63ab79037c741dd", "lat": 38.86369233333333, "bike_id": "f596b1bff49e74c1e63ab79037c741dd"}, {"lon": -77.04248183333333, "rental_uris": {"android": "https://dc.lft.to/lastmile_qr_scan", "ios": "https://dc.lft.to/lastmile_qr_scan"}, "fusion_lon": 0.0, "is_reserved": 0, "is_disabled": 0, "fusion_lat": 0.0, "type": "electric_scooter", "name": "755afd800dc14a8f6ffa0e47dd78a98a", "lat": 38.924326666666666, "bike_id": "755afd800dc14a8f6ffa0e47dd78a98a"}, {"lon": -77.04403916666666, "rental_uris": {"android": "https://dc.lft.to/lastmile_qr_scan", "ios": "https://dc.lft.to/lastmile_qr_scan"}, "fusion_lon": 0.0, "is_reserved": 0, "is_disabled": 0, "fusion_lat": 0.0, "type": "electric_scooter", "name": "0d7ebca4cda88412bcf13660f30bf2d0", "lat": 38.920153166666665, "bike_id": "0d7ebca4cda88412bcf13660f30bf2d0"}, {"lon": -77.12975966666667, "rental_uris": {"android": "https://dc.lft.to/lastmile_qr_scan", "ios": "https://dc.lft.to/lastmile_qr_scan"}, "fusion_lon": 0.0, "is_reserved": 0, "is_disabled": 0, "fusion_lat": 0.0, "type": "electric_bike", "name": "41b83281f4ee75f7e7748f75c0076fac", "lat": 38.799861666666665, "bike_id": "41b83281f4ee75f7e7748f75c0076fac"}, {"lon": -77.0418905, "rental_uris": {"android": "https://dc.lft.to/lastmile_qr_scan", "ios": "https://dc.lft.to/lastmile_qr_scan"}, "fusion_lon": 0.0, "is_reserved": 0, "is_disabled": 0, "fusion_lat": 0.0, "type": "electric_scooter", "name": "d57db20f4cc62804fbfea7b9e3c35051", "lat": 38.926264, "bike_id": "d57db20f4cc62804fbfea7b9e3c35051"}, {"lon": -77.0280425, "rental_uris": {"android": "https://dc.lft.to/lastmile_qr_scan", "ios": "https://dc.lft.to/lastmile_qr_scan"}, "fusion_lon": 0.0, "is_reserved": 0, "is_disabled": 0, "fusion_lat": 0.0, "type": "electric_scooter", "name": "d63eb693b7145a372ce13e7873609326", "lat": 38.91428416666667, "bike_id": "d63eb693b7145a372ce13e7873609326"}, {"lon": -77.04873416666666, "rental_uris": {"android": "https://dc.lft.to/lastmile_qr_scan", "ios": "https://dc.lft.to/lastmile_qr_scan"}, "fusion_lon": 0.0, "is_reserved": 0, "is_disabled": 0, "fusion_lat": 0.0, "type": "electric_scooter", "name": "fbe2ae86195ac66a78c389f9c06d0536", "lat": 38.898932, "bike_id": "fbe2ae86195ac66a78c389f9c06d0536"}, {"lon": -77.024014, "rental_uris": {"android": "https://dc.lft.to/lastmile_qr_scan", "ios": "https://dc.lft.to/lastmile_qr_scan"}, "fusion_lon": 0.0, "is_reserved": 0, "is_disabled": 0, "fusion_lat": 0.0, "type": "electric_scooter", "name": "62ba5c40bbb3b15cf56829b14f2c3682", "lat": 38.95708483333333, "bike_id": "62ba5c40bbb3b15cf56829b14f2c3682"}, {"lon": -77.115215, "rental_uris": {"android": "https://dc.lft.to/lastmile_qr_scan", "ios": "https://dc.lft.to/lastmile_qr_scan"}, "fusion_lon": 0.0, "is_reserved": 0, "is_disabled": 0, "fusion_lat": 0.0, "type": "electric_bike", "name": "0ff618e15220345108f6a350c5704bbe", "lat": 39.07066733333333, "bike_id": "0ff618e15220345108f6a350c5704bbe"}, {"lon": -77.07010866666667, "rental_uris": {"android": "https://dc.lft.to/lastmile_qr_scan", "ios": "https://dc.lft.to/lastmile_qr_scan"}, "fusion_lon": 0.0, "is_reserved": 0, "is_disabled": 0, "fusion_lat": 0.0, "type": "electric_bike", "name": "8f29a83192724802341e8e7581f7417c", "lat": 38.84110866666666, "bike_id": "8f29a83192724802341e8e7581f7417c"}, {"lon": -76.96975233333333, "rental_uris": {"android": "https://dc.lft.to/lastmile_qr_scan", "ios": "https://dc.lft.to/lastmile_qr_scan"}, "fusion_lon": 0.0, "is_reserved": 0, "is_disabled": 0, "fusion_lat": 0.0, "type": "electric_scooter", "name": "e6064eeea3e7d419f415f6eebc157a0d", "lat": 38.87393816666667, "bike_id": "e6064eeea3e7d419f415f6eebc157a0d"}, {"lon": -76.96503933333334, "rental_uris": {"android": "https://dc.lft.to/lastmile_qr_scan", "ios": "https://dc.lft.to/lastmile_qr_scan"}, "fusion_lon": 0.0, "is_reserved": 0, "is_disabled": 0, "fusion_lat": 0.0, "type": "electric_scooter", "name": "c061185ff49d2d93e39497f0faff28a5", "lat": 38.876447666666664, "bike_id": "c061185ff49d2d93e39497f0faff28a5"}, {"lon": -77.04331833333333, "rental_uris": {"android": "https://dc.lft.to/lastmile_qr_scan", "ios": "https://dc.lft.to/lastmile_qr_scan"}, "fusion_lon": 0.0, "is_reserved": 0, "is_disabled": 0, "fusion_lat": 0.0, "type": "electric_scooter", "name": "da08cd8fe03a9f03753ef3754b9e8094", "lat": 38.892228333333335, "bike_id": "da08cd8fe03a9f03753ef3754b9e8094"}, {"lon": -76.97330666666667, "rental_uris": {"android": "https://dc.lft.to/lastmile_qr_scan", "ios": "https://dc.lft.to/lastmile_qr_scan"}, "fusion_lon": 0.0, "is_reserved": 0, "is_disabled": 0, "fusion_lat": 0.0, "type": "electric_scooter", "name": "c2a5054932b16a5dd4de3e9abc5f34e9", "lat": 38.904093333333336, "bike_id": "c2a5054932b16a5dd4de3e9abc5f34e9"}, {"lon": -77.01757983333333, "rental_uris": {"android": "https://dc.lft.to/lastmile_qr_scan", "ios": "https://dc.lft.to/lastmile_qr_scan"}, "fusion_lon": 0.0, "is_reserved": 0, "is_disabled": 0, "fusion_lat": 0.0, "type": "electric_scooter", "name": "5fbe0faab76980b633d2c724c5e98934", "lat": 38.9389465, "bike_id": "5fbe0faab76980b633d2c724c5e98934"}, {"lon": -77.03823183333333, "rental_uris": {"android": "https://dc.lft.to/lastmile_qr_scan", "ios": "https://dc.lft.to/lastmile_qr_scan"}, "fusion_lon": 0.0, "is_reserved": 0, "is_disabled": 0, "fusion_lat": 0.0, "type": "electric_scooter", "name": "3048cd84e4bd2d17934fbb9c4a8ea9bf", "lat": 38.9253945, "bike_id": "3048cd84e4bd2d17934fbb9c4a8ea9bf"}, {"lon": -76.9955365, "rental_uris": {"android": "https://dc.lft.to/lastmile_qr_scan", "ios": "https://dc.lft.to/lastmile_qr_scan"}, "fusion_lon": 0.0, "is_reserved": 0, "is_disabled": 0, "fusion_lat": 0.0, "type": "electric_scooter", "name": "1003e464f023bc34fc0652ec0541b09c", "lat": 38.86231933333333, "bike_id": "1003e464f023bc34fc0652ec0541b09c"}, {"lon": -77.04495783333333, "rental_uris": {"android": "https://dc.lft.to/lastmile_qr_scan", "ios": "https://dc.lft.to/lastmile_qr_scan"}, "fusion_lon": 0.0, "is_reserved": 0, "is_disabled": 0, "fusion_lat": 0.0, "type": "electric_scooter", "name": "39a56c27fb5d956d90619cf8c4b4a059", "lat": 38.8994555, "bike_id": "39a56c27fb5d956d90619cf8c4b4a059"}, {"lon": -77.05339, "rental_uris": {"android": "https://dc.lft.to/lastmile_qr_scan", "ios": "https://dc.lft.to/lastmile_qr_scan"}, "fusion_lon": 0.0, "is_reserved": 0, "is_disabled": 0, "fusion_lat": 0.0, "type": "electric_scooter", "name": "423fc2f8094637fb3a31f57e09059a50", "lat": 38.898801, "bike_id": "423fc2f8094637fb3a31f57e09059a50"}, {"lon": -77.039919, "rental_uris": {"android": "https://dc.lft.to/lastmile_qr_scan", "ios": "https://dc.lft.to/lastmile_qr_scan"}, "fusion_lon": 0.0, "is_reserved": 0, "is_disabled": 0, "fusion_lat": 0.0, "type": "electric_scooter", "name": "437d245766ea3c8da0035ce762a9005e", "lat": 38.924619666666665, "bike_id": "437d245766ea3c8da0035ce762a9005e"}, {"lon": -77.06349416666667, "rental_uris": {"android": "https://dc.lft.to/lastmile_qr_scan", "ios": "https://dc.lft.to/lastmile_qr_scan"}, "fusion_lon": 0.0, "is_reserved": 0, "is_disabled": 0, "fusion_lat": 0.0, "type": "electric_scooter", "name": "6df9164969bb51b7b3255595b3de59a7", "lat": 38.944548833333336, "bike_id": "6df9164969bb51b7b3255595b3de59a7"}, {"lon": -77.02469083333334, "rental_uris": {"android": "https://dc.lft.to/lastmile_qr_scan", "ios": "https://dc.lft.to/lastmile_qr_scan"}, "fusion_lon": 0.0, "is_reserved": 0, "is_disabled": 0, "fusion_lat": 0.0, "type": "electric_scooter", "name": "d74897ecb7aa99c7b980c393c98e7ca2", "lat": 38.91665733333333, "bike_id": "d74897ecb7aa99c7b980c393c98e7ca2"}, {"lon": -77.07661033333333, "rental_uris": {"android": "https://dc.lft.to/lastmile_qr_scan", "ios": "https://dc.lft.to/lastmile_qr_scan"}, "fusion_lon": 0.0, "is_reserved": 0, "is_disabled": 0, "fusion_lat": 0.0, "type": "electric_bike", "name": "3cbb6dbc9bbd5b7db0df6f3205fe7a5f", "lat": 38.809789, "bike_id": "3cbb6dbc9bbd5b7db0df6f3205fe7a5f"}, {"lon": -77.00332433333334, "rental_uris": {"android": "https://dc.lft.to/lastmile_qr_scan", "ios": "https://dc.lft.to/lastmile_qr_scan"}, "fusion_lon": 0.0, "is_reserved": 0, "is_disabled": 0, "fusion_lat": 0.0, "type": "electric_scooter", "name": "b19efd025a159ae155f06535f4e93b63", "lat": 38.893657833333336, "bike_id": "b19efd025a159ae155f06535f4e93b63"}, {"lon": -77.03214333333334, "rental_uris": {"android": "https://dc.lft.to/lastmile_qr_scan", "ios": "https://dc.lft.to/lastmile_qr_scan"}, "fusion_lon": 0.0, "is_reserved": 0, "is_disabled": 0, "fusion_lat": 0.0, "type": "electric_scooter", "name": "d16e6e761fd1e469db861470abd363eb", "lat": 38.900363, "bike_id": "d16e6e761fd1e469db861470abd363eb"}, {"lon": -76.98220733333333, "rental_uris": {"android": "https://dc.lft.to/lastmile_qr_scan", "ios": "https://dc.lft.to/lastmile_qr_scan"}, "fusion_lon": 0.0, "is_reserved": 0, "is_disabled": 0, "fusion_lat": 0.0, "type": "electric_scooter", "name": "4d58418983e15b8f7ddb03e0bb38eded", "lat": 38.89552233333333, "bike_id": "4d58418983e15b8f7ddb03e0bb38eded"}, {"lon": -77.01955666666667, "rental_uris": {"android": "https://dc.lft.to/lastmile_qr_scan", "ios": "https://dc.lft.to/lastmile_qr_scan"}, "fusion_lon": 0.0, "is_reserved": 0, "is_disabled": 0, "fusion_lat": 0.0, "type": "electric_scooter", "name": "6a39a5d1018a63b335c916fe6c8147db", "lat": 38.92326283333333, "bike_id": "6a39a5d1018a63b335c916fe6c8147db"}, {"lon": -77.043652, "rental_uris": {"android": "https://dc.lft.to/lastmile_qr_scan", "ios": "https://dc.lft.to/lastmile_qr_scan"}, "fusion_lon": 0.0, "is_reserved": 0, "is_disabled": 0, "fusion_lat": 0.0, "type": "electric_scooter", "name": "dcbd176ee06b8573f84e6893a5c30fb6", "lat": 38.903847666666664, "bike_id": "dcbd176ee06b8573f84e6893a5c30fb6"}, {"lon": -76.98850466666667, "rental_uris": {"android": "https://dc.lft.to/lastmile_qr_scan", "ios": "https://dc.lft.to/lastmile_qr_scan"}, "fusion_lon": 0.0, "is_reserved": 0, "is_disabled": 0, "fusion_lat": 0.0, "type": "electric_scooter", "name": "fb3eb2f9125b49649cb4c0e77fdae805", "lat": 38.900280333333335, "bike_id": "fb3eb2f9125b49649cb4c0e77fdae805"}, {"lon": -77.02878, "rental_uris": {"android": "https://dc.lft.to/lastmile_qr_scan", "ios": "https://dc.lft.to/lastmile_qr_scan"}, "fusion_lon": 0.0, "is_reserved": 0, "is_disabled": 0, "fusion_lat": 0.0, "type": "electric_scooter", "name": "0d41c989211ee91ed7bfdbdf890d1794", "lat": 38.91269716666667, "bike_id": "0d41c989211ee91ed7bfdbdf890d1794"}, {"lon": -77.043387, "rental_uris": {"android": "https://dc.lft.to/lastmile_qr_scan", "ios": "https://dc.lft.to/lastmile_qr_scan"}, "fusion_lon": 0.0, "is_reserved": 0, "is_disabled": 0, "fusion_lat": 0.0, "type": "electric_scooter", "name": "f43174f446bb3620e24029c1635b1edd", "lat": 38.9037395, "bike_id": "f43174f446bb3620e24029c1635b1edd"}, {"lon": -76.97220516666667, "rental_uris": {"android": "https://dc.lft.to/lastmile_qr_scan", "ios": "https://dc.lft.to/lastmile_qr_scan"}, "fusion_lon": 0.0, "is_reserved": 0, "is_disabled": 0, "fusion_lat": 0.0, "type": "electric_bike", "name": "97450543cc239414380a6505e4ecd474", "lat": 38.900428166666664, "bike_id": "97450543cc239414380a6505e4ecd474"}, {"lon": -77.01404083333334, "rental_uris": {"android": "https://dc.lft.to/lastmile_qr_scan", "ios": "https://dc.lft.to/lastmile_qr_scan"}, "fusion_lon": 0.0, "is_reserved": 0, "is_disabled": 0, "fusion_lat": 0.0, "type": "electric_scooter", "name": "a01e5eacc94a2a4fa6c4ae9f8117ed8d", "lat": 38.887472333333335, "bike_id": "a01e5eacc94a2a4fa6c4ae9f8117ed8d"}, {"lon": -76.98067616666667, "rental_uris": {"android": "https://dc.lft.to/lastmile_qr_scan", "ios": "https://dc.lft.to/lastmile_qr_scan"}, "fusion_lon": 0.0, "is_reserved": 0, "is_disabled": 0, "fusion_lat": 0.0, "type": "electric_scooter", "name": "118152db6460040660125b14acd202b0", "lat": 38.88016233333333, "bike_id": "118152db6460040660125b14acd202b0"}, {"lon": -77.03541533333333, "rental_uris": {"android": "https://dc.lft.to/lastmile_qr_scan", "ios": "https://dc.lft.to/lastmile_qr_scan"}, "fusion_lon": 0.0, "is_reserved": 0, "is_disabled": 0, "fusion_lat": 0.0, "type": "electric_scooter", "name": "44d8d20059c4ec2fbf8214d4f79115e1", "lat": 38.907338, "bike_id": "44d8d20059c4ec2fbf8214d4f79115e1"}, {"lon": -77.03454233333333, "rental_uris": {"android": "https://dc.lft.to/lastmile_qr_scan", "ios": "https://dc.lft.to/lastmile_qr_scan"}, "fusion_lon": 0.0, "is_reserved": 0, "is_disabled": 0, "fusion_lat": 0.0, "type": "electric_scooter", "name": "8cffd927db87db732832398d6aba44e6", "lat": 38.90274083333333, "bike_id": "8cffd927db87db732832398d6aba44e6"}, {"lon": -77.03242933333334, "rental_uris": {"android": "https://dc.lft.to/lastmile_qr_scan", "ios": "https://dc.lft.to/lastmile_qr_scan"}, "fusion_lon": 0.0, "is_reserved": 0, "is_disabled": 0, "fusion_lat": 0.0, "type": "electric_scooter", "name": "507d7e0ec261df7518a6fd6753e08265", "lat": 38.927585666666666, "bike_id": "507d7e0ec261df7518a6fd6753e08265"}, {"lon": -77.03811533333334, "rental_uris": {"android": "https://dc.lft.to/lastmile_qr_scan", "ios": "https://dc.lft.to/lastmile_qr_scan"}, "fusion_lon": 0.0, "is_reserved": 0, "is_disabled": 0, "fusion_lat": 0.0, "type": "electric_scooter", "name": "56372315c2954e267893585db6b7b113", "lat": 38.90675383333333, "bike_id": "56372315c2954e267893585db6b7b113"}, {"lon": -77.03289316666667, "rental_uris": {"android": "https://dc.lft.to/lastmile_qr_scan", "ios": "https://dc.lft.to/lastmile_qr_scan"}, "fusion_lon": 0.0, "is_reserved": 0, "is_disabled": 0, "fusion_lat": 0.0, "type": "electric_scooter", "name": "8a3c90511bc43eafcaa5b7743f51c519", "lat": 38.92749083333333, "bike_id": "8a3c90511bc43eafcaa5b7743f51c519"}, {"lon": -77.02938966666666, "rental_uris": {"android": "https://dc.lft.to/lastmile_qr_scan", "ios": "https://dc.lft.to/lastmile_qr_scan"}, "fusion_lon": 0.0, "is_reserved": 0, "is_disabled": 0, "fusion_lat": 0.0, "type": "electric_scooter", "name": "d0cde4e9a42c5666e4f5eb2d7478421b", "lat": 38.902423, "bike_id": "d0cde4e9a42c5666e4f5eb2d7478421b"}, {"lon": -77.0769945, "rental_uris": {"android": "https://dc.lft.to/lastmile_qr_scan", "ios": "https://dc.lft.to/lastmile_qr_scan"}, "fusion_lon": 0.0, "is_reserved": 0, "is_disabled": 0, "fusion_lat": 0.0, "type": "electric_scooter", "name": "1b55de74b7d5ffdab15acc63fbf34d6a", "lat": 38.9315635, "bike_id": "1b55de74b7d5ffdab15acc63fbf34d6a"}, {"lon": -77.001968, "rental_uris": {"android": "https://dc.lft.to/lastmile_qr_scan", "ios": "https://dc.lft.to/lastmile_qr_scan"}, "fusion_lon": 0.0, "is_reserved": 0, "is_disabled": 0, "fusion_lat": 0.0, "type": "electric_scooter", "name": "3920806697c06afedf3d34299dc761f6", "lat": 38.874040666666666, "bike_id": "3920806697c06afedf3d34299dc761f6"}, {"lon": -77.02800566666667, "rental_uris": {"android": "https://dc.lft.to/lastmile_qr_scan", "ios": "https://dc.lft.to/lastmile_qr_scan"}, "fusion_lon": 0.0, "is_reserved": 0, "is_disabled": 0, "fusion_lat": 0.0, "type": "electric_scooter", "name": "274a856e1d197109e9a6686564baac30", "lat": 38.89232466666667, "bike_id": "274a856e1d197109e9a6686564baac30"}, {"lon": -77.051716, "rental_uris": {"android": "https://dc.lft.to/lastmile_qr_scan", "ios": "https://dc.lft.to/lastmile_qr_scan"}, "fusion_lon": 0.0, "is_reserved": 0, "is_disabled": 0, "fusion_lat": 0.0, "type": "electric_scooter", "name": "b76931c9a0bacaf315db4be6b263a794", "lat": 38.92347633333333, "bike_id": "b76931c9a0bacaf315db4be6b263a794"}, {"lon": -77.02715066666667, "rental_uris": {"android": "https://dc.lft.to/lastmile_qr_scan", "ios": "https://dc.lft.to/lastmile_qr_scan"}, "fusion_lon": 0.0, "is_reserved": 0, "is_disabled": 0, "fusion_lat": 0.0, "type": "electric_scooter", "name": "7e623463d4ccc0d27461c2100a07b889", "lat": 38.89677783333333, "bike_id": "7e623463d4ccc0d27461c2100a07b889"}, {"lon": -77.01818466666667, "rental_uris": {"android": "https://dc.lft.to/lastmile_qr_scan", "ios": "https://dc.lft.to/lastmile_qr_scan"}, "fusion_lon": 0.0, "is_reserved": 0, "is_disabled": 0, "fusion_lat": 0.0, "type": "electric_scooter", "name": "031a7fa4eef290d5e92abfb0586af05f", "lat": 38.9007815, "bike_id": "031a7fa4eef290d5e92abfb0586af05f"}, {"lon": -77.0415225, "rental_uris": {"android": "https://dc.lft.to/lastmile_qr_scan", "ios": "https://dc.lft.to/lastmile_qr_scan"}, "fusion_lon": 0.0, "is_reserved": 0, "is_disabled": 0, "fusion_lat": 0.0, "type": "electric_scooter", "name": "28981a73971cd81d70c7535f20072b75", "lat": 38.892375666666666, "bike_id": "28981a73971cd81d70c7535f20072b75"}, {"lon": -77.012203, "rental_uris": {"android": "https://dc.lft.to/lastmile_qr_scan", "ios": "https://dc.lft.to/lastmile_qr_scan"}, "fusion_lon": 0.0, "is_reserved": 0, "is_disabled": 0, "fusion_lat": 0.0, "type": "electric_scooter", "name": "19c7dd23aed45c41937c4a0c1e7e3512", "lat": 38.915316, "bike_id": "19c7dd23aed45c41937c4a0c1e7e3512"}, {"lon": -77.019514, "rental_uris": {"android": "https://dc.lft.to/lastmile_qr_scan", "ios": "https://dc.lft.to/lastmile_qr_scan"}, "fusion_lon": 0.0, "is_reserved": 0, "is_disabled": 0, "fusion_lat": 0.0, "type": "electric_scooter", "name": "44a8d3c4c033721c84330857c882a8c0", "lat": 38.92247, "bike_id": "44a8d3c4c033721c84330857c882a8c0"}, {"lon": -77.026901, "rental_uris": {"android": "https://dc.lft.to/lastmile_qr_scan", "ios": "https://dc.lft.to/lastmile_qr_scan"}, "fusion_lon": 0.0, "is_reserved": 0, "is_disabled": 0, "fusion_lat": 0.0, "type": "electric_scooter", "name": "fc047bbc4274aa5843a62e0c3216e916", "lat": 38.9094525, "bike_id": "fc047bbc4274aa5843a62e0c3216e916"}, {"lon": -77.06670983333333, "rental_uris": {"android": "https://dc.lft.to/lastmile_qr_scan", "ios": "https://dc.lft.to/lastmile_qr_scan"}, "fusion_lon": 0.0, "is_reserved": 0, "is_disabled": 0, "fusion_lat": 0.0, "type": "electric_scooter", "name": "ef3c7601a253f27fc20b58f6e30e1b48", "lat": 38.9037045, "bike_id": "ef3c7601a253f27fc20b58f6e30e1b48"}, {"lon": -77.0196375, "rental_uris": {"android": "https://dc.lft.to/lastmile_qr_scan", "ios": "https://dc.lft.to/lastmile_qr_scan"}, "fusion_lon": 0.0, "is_reserved": 0, "is_disabled": 0, "fusion_lat": 0.0, "type": "electric_scooter", "name": "fd3f758605abb61bbeb7defecc90953b", "lat": 38.92191733333333, "bike_id": "fd3f758605abb61bbeb7defecc90953b"}, {"lon": -76.99795066666667, "rental_uris": {"android": "https://dc.lft.to/lastmile_qr_scan", "ios": "https://dc.lft.to/lastmile_qr_scan"}, "fusion_lon": 0.0, "is_reserved": 0, "is_disabled": 0, "fusion_lat": 0.0, "type": "electric_scooter", "name": "f1d2bafb6728283c50bd8afe846c4af9", "lat": 38.8856135, "bike_id": "f1d2bafb6728283c50bd8afe846c4af9"}, {"lon": -77.04669883333334, "rental_uris": {"android": "https://dc.lft.to/lastmile_qr_scan", "ios": "https://dc.lft.to/lastmile_qr_scan"}, "fusion_lon": 0.0, "is_reserved": 0, "is_disabled": 0, "fusion_lat": 0.0, "type": "electric_scooter", "name": "2641444ccfaf964e2cf2c94f8b2befda", "lat": 38.89564816666667, "bike_id": "2641444ccfaf964e2cf2c94f8b2befda"}, {"lon": -77.02174433333333, "rental_uris": {"android": "https://dc.lft.to/lastmile_qr_scan", "ios": "https://dc.lft.to/lastmile_qr_scan"}, "fusion_lon": 0.0, "is_reserved": 0, "is_disabled": 0, "fusion_lat": 0.0, "type": "electric_scooter", "name": "b6aa02789ba08b67b6334e1ec6e81bb1", "lat": 38.88737733333333, "bike_id": "b6aa02789ba08b67b6334e1ec6e81bb1"}, {"lon": -77.04399766666667, "rental_uris": {"android": "https://dc.lft.to/lastmile_qr_scan", "ios": "https://dc.lft.to/lastmile_qr_scan"}, "fusion_lon": 0.0, "is_reserved": 0, "is_disabled": 0, "fusion_lat": 0.0, "type": "electric_scooter", "name": "06cce1d9cf705fe0f51ad9763706a1cc", "lat": 38.92225583333333, "bike_id": "06cce1d9cf705fe0f51ad9763706a1cc"}, {"lon": -77.0672935, "rental_uris": {"android": "https://dc.lft.to/lastmile_qr_scan", "ios": "https://dc.lft.to/lastmile_qr_scan"}, "fusion_lon": 0.0, "is_reserved": 0, "is_disabled": 0, "fusion_lat": 0.0, "type": "electric_scooter", "name": "df6f4d30562e1874136be897376187d6", "lat": 38.909718, "bike_id": "df6f4d30562e1874136be897376187d6"}, {"lon": -77.03302133333334, "rental_uris": {"android": "https://dc.lft.to/lastmile_qr_scan", "ios": "https://dc.lft.to/lastmile_qr_scan"}, "fusion_lon": 0.0, "is_reserved": 0, "is_disabled": 0, "fusion_lat": 0.0, "type": "electric_scooter", "name": "cc4a8bae4fcda34e138ff1f0898682b2", "lat": 38.8991205, "bike_id": "cc4a8bae4fcda34e138ff1f0898682b2"}, {"lon": -77.04544, "rental_uris": {"android": "https://dc.lft.to/lastmile_qr_scan", "ios": "https://dc.lft.to/lastmile_qr_scan"}, "fusion_lon": 0.0, "is_reserved": 0, "is_disabled": 0, "fusion_lat": 0.0, "type": "electric_scooter", "name": "7c9878aea065eae11a18393e0c5983b8", "lat": 38.911942833333335, "bike_id": "7c9878aea065eae11a18393e0c5983b8"}, {"lon": -77.04149183333334, "rental_uris": {"android": "https://dc.lft.to/lastmile_qr_scan", "ios": "https://dc.lft.to/lastmile_qr_scan"}, "fusion_lon": 0.0, "is_reserved": 0, "is_disabled": 0, "fusion_lat": 0.0, "type": "electric_scooter", "name": "a7fb6922895a9e1f4de97cef614bab3d", "lat": 38.907562666666664, "bike_id": "a7fb6922895a9e1f4de97cef614bab3d"}, {"lon": -77.0312205, "rental_uris": {"android": "https://dc.lft.to/lastmile_qr_scan", "ios": "https://dc.lft.to/lastmile_qr_scan"}, "fusion_lon": 0.0, "is_reserved": 0, "is_disabled": 0, "fusion_lat": 0.0, "type": "electric_scooter", "name": "33455288f2775235fe345926476a13ab", "lat": 38.8972545, "bike_id": "33455288f2775235fe345926476a13ab"}, {"lon": -77.043361, "rental_uris": {"android": "https://dc.lft.to/lastmile_qr_scan", "ios": "https://dc.lft.to/lastmile_qr_scan"}, "fusion_lon": 0.0, "is_reserved": 0, "is_disabled": 0, "fusion_lat": 0.0, "type": "electric_scooter", "name": "fbfc05683984f1ab8cdf8293c13f3921", "lat": 38.905540333333335, "bike_id": "fbfc05683984f1ab8cdf8293c13f3921"}, {"lon": -77.03283716666667, "rental_uris": {"android": "https://dc.lft.to/lastmile_qr_scan", "ios": "https://dc.lft.to/lastmile_qr_scan"}, "fusion_lon": 0.0, "is_reserved": 0, "is_disabled": 0, "fusion_lat": 0.0, "type": "electric_scooter", "name": "69cce90cf3e4e251da257ebdd185ff19", "lat": 38.937764666666666, "bike_id": "69cce90cf3e4e251da257ebdd185ff19"}, {"lon": -76.98648283333333, "rental_uris": {"android": "https://dc.lft.to/lastmile_qr_scan", "ios": "https://dc.lft.to/lastmile_qr_scan"}, "fusion_lon": 0.0, "is_reserved": 0, "is_disabled": 0, "fusion_lat": 0.0, "type": "electric_scooter", "name": "b023be939542a0563b474643fbf2d779", "lat": 38.8975875, "bike_id": "b023be939542a0563b474643fbf2d779"}, {"lon": -77.02475816666667, "rental_uris": {"android": "https://dc.lft.to/lastmile_qr_scan", "ios": "https://dc.lft.to/lastmile_qr_scan"}, "fusion_lon": 0.0, "is_reserved": 0, "is_disabled": 0, "fusion_lat": 0.0, "type": "electric_scooter", "name": "d999abb87b83f9f430cf8ad1f482544a", "lat": 38.94196816666667, "bike_id": "d999abb87b83f9f430cf8ad1f482544a"}, {"lon": -77.01940683333333, "rental_uris": {"android": "https://dc.lft.to/lastmile_qr_scan", "ios": "https://dc.lft.to/lastmile_qr_scan"}, "fusion_lon": 0.0, "is_reserved": 0, "is_disabled": 0, "fusion_lat": 0.0, "type": "electric_scooter", "name": "d86d8ad7cae026841ebaacb247918138", "lat": 38.922628, "bike_id": "d86d8ad7cae026841ebaacb247918138"}, {"lon": -77.03176483333333, "rental_uris": {"android": "https://dc.lft.to/lastmile_qr_scan", "ios": "https://dc.lft.to/lastmile_qr_scan"}, "fusion_lon": 0.0, "is_reserved": 0, "is_disabled": 0, "fusion_lat": 0.0, "type": "electric_scooter", "name": "8dcb5d839a91ded47c430d837d30c776", "lat": 38.914214333333334, "bike_id": "8dcb5d839a91ded47c430d837d30c776"}, {"lon": -77.02703733333334, "rental_uris": {"android": "https://dc.lft.to/lastmile_qr_scan", "ios": "https://dc.lft.to/lastmile_qr_scan"}, "fusion_lon": 0.0, "is_reserved": 0, "is_disabled": 0, "fusion_lat": 0.0, "type": "electric_scooter", "name": "a9be11513fd34975ae08d958d7251431", "lat": 38.9066975, "bike_id": "a9be11513fd34975ae08d958d7251431"}, {"lon": -77.028225, "rental_uris": {"android": "https://dc.lft.to/lastmile_qr_scan", "ios": "https://dc.lft.to/lastmile_qr_scan"}, "fusion_lon": 0.0, "is_reserved": 0, "is_disabled": 0, "fusion_lat": 0.0, "type": "electric_scooter", "name": "e6e07a1704b7be5e4d6cf9a97167d1c5", "lat": 38.886618166666665, "bike_id": "e6e07a1704b7be5e4d6cf9a97167d1c5"}, {"lon": -77.0260065, "rental_uris": {"android": "https://dc.lft.to/lastmile_qr_scan", "ios": "https://dc.lft.to/lastmile_qr_scan"}, "fusion_lon": 0.0, "is_reserved": 0, "is_disabled": 0, "fusion_lat": 0.0, "type": "electric_scooter", "name": "a5c84cb49150e022a746bc3e6de1c637", "lat": 38.905973333333336, "bike_id": "a5c84cb49150e022a746bc3e6de1c637"}, {"lon": -77.02777283333333, "rental_uris": {"android": "https://dc.lft.to/lastmile_qr_scan", "ios": "https://dc.lft.to/lastmile_qr_scan"}, "fusion_lon": 0.0, "is_reserved": 0, "is_disabled": 0, "fusion_lat": 0.0, "type": "electric_scooter", "name": "bebc7c5fe73a61841a56085717f6e502", "lat": 38.8922185, "bike_id": "bebc7c5fe73a61841a56085717f6e502"}, {"lon": -77.02553933333333, "rental_uris": {"android": "https://dc.lft.to/lastmile_qr_scan", "ios": "https://dc.lft.to/lastmile_qr_scan"}, "fusion_lon": 0.0, "is_reserved": 0, "is_disabled": 0, "fusion_lat": 0.0, "type": "electric_scooter", "name": "96620ed3da6219366f1fcb61060cdd59", "lat": 38.9017065, "bike_id": "96620ed3da6219366f1fcb61060cdd59"}, {"lon": -77.02982416666667, "rental_uris": {"android": "https://dc.lft.to/lastmile_qr_scan", "ios": "https://dc.lft.to/lastmile_qr_scan"}, "fusion_lon": 0.0, "is_reserved": 0, "is_disabled": 0, "fusion_lat": 0.0, "type": "electric_scooter", "name": "77e2bb8d695977d789749c6b6a0e1a23", "lat": 38.9224385, "bike_id": "77e2bb8d695977d789749c6b6a0e1a23"}, {"lon": -77.02369066666667, "rental_uris": {"android": "https://dc.lft.to/lastmile_qr_scan", "ios": "https://dc.lft.to/lastmile_qr_scan"}, "fusion_lon": 0.0, "is_reserved": 0, "is_disabled": 0, "fusion_lat": 0.0, "type": "electric_scooter", "name": "2d85101cbbffef8fe3ae5871eb5c2301", "lat": 38.901956166666665, "bike_id": "2d85101cbbffef8fe3ae5871eb5c2301"}, {"lon": -77.03662566666667, "rental_uris": {"android": "https://dc.lft.to/lastmile_qr_scan", "ios": "https://dc.lft.to/lastmile_qr_scan"}, "fusion_lon": 0.0, "is_reserved": 0, "is_disabled": 0, "fusion_lat": 0.0, "type": "electric_scooter", "name": "c813054902d22176ed5aa3ef6dbceb4c", "lat": 38.932096, "bike_id": "c813054902d22176ed5aa3ef6dbceb4c"}, {"lon": -77.012396, "rental_uris": {"android": "https://dc.lft.to/lastmile_qr_scan", "ios": "https://dc.lft.to/lastmile_qr_scan"}, "fusion_lon": 0.0, "is_reserved": 0, "is_disabled": 0, "fusion_lat": 0.0, "type": "electric_scooter", "name": "cc1c3985623904c6bdaa2c828f90fe6c", "lat": 38.898504333333335, "bike_id": "cc1c3985623904c6bdaa2c828f90fe6c"}, {"lon": -77.05051033333334, "rental_uris": {"android": "https://dc.lft.to/lastmile_qr_scan", "ios": "https://dc.lft.to/lastmile_qr_scan"}, "fusion_lon": 0.0, "is_reserved": 0, "is_disabled": 0, "fusion_lat": 0.0, "type": "electric_scooter", "name": "acf06ec43743123530e69738b3c1eb10", "lat": 38.90624533333333, "bike_id": "acf06ec43743123530e69738b3c1eb10"}, {"lon": -77.03830066666667, "rental_uris": {"android": "https://dc.lft.to/lastmile_qr_scan", "ios": "https://dc.lft.to/lastmile_qr_scan"}, "fusion_lon": 0.0, "is_reserved": 0, "is_disabled": 0, "fusion_lat": 0.0, "type": "electric_scooter", "name": "3c6b3f9611cd215b3cb8f73d03feacdd", "lat": 38.94503533333334, "bike_id": "3c6b3f9611cd215b3cb8f73d03feacdd"}, {"lon": -77.04348933333333, "rental_uris": {"android": "https://dc.lft.to/lastmile_qr_scan", "ios": "https://dc.lft.to/lastmile_qr_scan"}, "fusion_lon": 0.0, "is_reserved": 0, "is_disabled": 0, "fusion_lat": 0.0, "type": "electric_scooter", "name": "7f0562b2f6d25d99d4290bb23acf5c44", "lat": 38.907934166666664, "bike_id": "7f0562b2f6d25d99d4290bb23acf5c44"}, {"lon": -77.023671, "rental_uris": {"android": "https://dc.lft.to/lastmile_qr_scan", "ios": "https://dc.lft.to/lastmile_qr_scan"}, "fusion_lon": 0.0, "is_reserved": 0, "is_disabled": 0, "fusion_lat": 0.0, "type": "electric_scooter", "name": "1db3bb83f81b3ee166f7b759de75251c", "lat": 38.892222833333335, "bike_id": "1db3bb83f81b3ee166f7b759de75251c"}, {"lon": -77.02784983333333, "rental_uris": {"android": "https://dc.lft.to/lastmile_qr_scan", "ios": "https://dc.lft.to/lastmile_qr_scan"}, "fusion_lon": 0.0, "is_reserved": 0, "is_disabled": 0, "fusion_lat": 0.0, "type": "electric_scooter", "name": "dbe3ff3fb8be9363b71891639370488e", "lat": 38.973543666666664, "bike_id": "dbe3ff3fb8be9363b71891639370488e"}, {"lon": -77.006997, "rental_uris": {"android": "https://dc.lft.to/lastmile_qr_scan", "ios": "https://dc.lft.to/lastmile_qr_scan"}, "fusion_lon": 0.0, "is_reserved": 0, "is_disabled": 0, "fusion_lat": 0.0, "type": "electric_scooter", "name": "b582b482e6a7cfe5e07d371eef209fce", "lat": 38.905726666666666, "bike_id": "b582b482e6a7cfe5e07d371eef209fce"}, {"lon": -76.98730283333333, "rental_uris": {"android": "https://dc.lft.to/lastmile_qr_scan", "ios": "https://dc.lft.to/lastmile_qr_scan"}, "fusion_lon": 0.0, "is_reserved": 0, "is_disabled": 0, "fusion_lat": 0.0, "type": "electric_scooter", "name": "56f0338c27d22e0265052d3ee023466f", "lat": 38.90359216666667, "bike_id": "56f0338c27d22e0265052d3ee023466f"}, {"lon": -77.01976033333334, "rental_uris": {"android": "https://dc.lft.to/lastmile_qr_scan", "ios": "https://dc.lft.to/lastmile_qr_scan"}, "fusion_lon": 0.0, "is_reserved": 0, "is_disabled": 0, "fusion_lat": 0.0, "type": "electric_scooter", "name": "a4e03512dbc9e826788127c30636ca09", "lat": 38.91900183333333, "bike_id": "a4e03512dbc9e826788127c30636ca09"}, {"lon": -77.03841866666667, "rental_uris": {"android": "https://dc.lft.to/lastmile_qr_scan", "ios": "https://dc.lft.to/lastmile_qr_scan"}, "fusion_lon": 0.0, "is_reserved": 0, "is_disabled": 0, "fusion_lat": 0.0, "type": "electric_scooter", "name": "10248bd612e0664fc1b58e94c27cb551", "lat": 38.90285683333333, "bike_id": "10248bd612e0664fc1b58e94c27cb551"}, {"lon": -77.06981666666667, "rental_uris": {"android": "https://dc.lft.to/lastmile_qr_scan", "ios": "https://dc.lft.to/lastmile_qr_scan"}, "fusion_lon": 0.0, "is_reserved": 0, "is_disabled": 0, "fusion_lat": 0.0, "type": "electric_scooter", "name": "6c03b87903df10a8e1d4fe315b19db4c", "lat": 38.95528266666667, "bike_id": "6c03b87903df10a8e1d4fe315b19db4c"}, {"lon": -77.021546, "rental_uris": {"android": "https://dc.lft.to/lastmile_qr_scan", "ios": "https://dc.lft.to/lastmile_qr_scan"}, "fusion_lon": 0.0, "is_reserved": 0, "is_disabled": 0, "fusion_lat": 0.0, "type": "electric_scooter", "name": "fb9aaf95277ffae8cf8785ac831827ea", "lat": 38.9246005, "bike_id": "fb9aaf95277ffae8cf8785ac831827ea"}, {"lon": -77.011889, "rental_uris": {"android": "https://dc.lft.to/lastmile_qr_scan", "ios": "https://dc.lft.to/lastmile_qr_scan"}, "fusion_lon": 0.0, "is_reserved": 0, "is_disabled": 0, "fusion_lat": 0.0, "type": "electric_scooter", "name": "b35ccf5c7d8ad5b54dca8ec895d3e4bf", "lat": 38.89794216666667, "bike_id": "b35ccf5c7d8ad5b54dca8ec895d3e4bf"}, {"lon": -77.03940633333333, "rental_uris": {"android": "https://dc.lft.to/lastmile_qr_scan", "ios": "https://dc.lft.to/lastmile_qr_scan"}, "fusion_lon": 0.0, "is_reserved": 0, "is_disabled": 0, "fusion_lat": 0.0, "type": "electric_scooter", "name": "919e9701b3952d592c239865b1a1c982", "lat": 38.90150883333333, "bike_id": "919e9701b3952d592c239865b1a1c982"}, {"lon": -77.03318383333334, "rental_uris": {"android": "https://dc.lft.to/lastmile_qr_scan", "ios": "https://dc.lft.to/lastmile_qr_scan"}, "fusion_lon": 0.0, "is_reserved": 0, "is_disabled": 0, "fusion_lat": 0.0, "type": "electric_scooter", "name": "5a0bd186fbc29a0d4fdc1ef64f533bb8", "lat": 38.89905516666666, "bike_id": "5a0bd186fbc29a0d4fdc1ef64f533bb8"}, {"lon": -76.9338515, "rental_uris": {"android": "https://dc.lft.to/lastmile_qr_scan", "ios": "https://dc.lft.to/lastmile_qr_scan"}, "fusion_lon": 0.0, "is_reserved": 0, "is_disabled": 0, "fusion_lat": 0.0, "type": "electric_scooter", "name": "17322c59d57a9791694feed34ba8b73b", "lat": 38.899118333333334, "bike_id": "17322c59d57a9791694feed34ba8b73b"}, {"lon": -77.06911516666666, "rental_uris": {"android": "https://dc.lft.to/lastmile_qr_scan", "ios": "https://dc.lft.to/lastmile_qr_scan"}, "fusion_lon": 0.0, "is_reserved": 0, "is_disabled": 0, "fusion_lat": 0.0, "type": "electric_bike", "name": "0927883240598477dc1814458849db54", "lat": 38.806767, "bike_id": "0927883240598477dc1814458849db54"}, {"lon": -77.02935633333334, "rental_uris": {"android": "https://dc.lft.to/lastmile_qr_scan", "ios": "https://dc.lft.to/lastmile_qr_scan"}, "fusion_lon": 0.0, "is_reserved": 0, "is_disabled": 0, "fusion_lat": 0.0, "type": "electric_scooter", "name": "8c1d7b60dc04de632e162d879fa4585a", "lat": 38.9428395, "bike_id": "8c1d7b60dc04de632e162d879fa4585a"}, {"lon": -77.03234616666667, "rental_uris": {"android": "https://dc.lft.to/lastmile_qr_scan", "ios": "https://dc.lft.to/lastmile_qr_scan"}, "fusion_lon": 0.0, "is_reserved": 0, "is_disabled": 0, "fusion_lat": 0.0, "type": "electric_scooter", "name": "f8a3d866cb81f6fcc7cb1d34863ce883", "lat": 38.9615615, "bike_id": "f8a3d866cb81f6fcc7cb1d34863ce883"}, {"lon": -77.02180666666666, "rental_uris": {"android": "https://dc.lft.to/lastmile_qr_scan", "ios": "https://dc.lft.to/lastmile_qr_scan"}, "fusion_lon": 0.0, "is_reserved": 0, "is_disabled": 0, "fusion_lat": 0.0, "type": "electric_scooter", "name": "e18ee9c7e298e1461ce99f7827518292", "lat": 38.939503, "bike_id": "e18ee9c7e298e1461ce99f7827518292"}, {"lon": -76.98437116666666, "rental_uris": {"android": "https://dc.lft.to/lastmile_qr_scan", "ios": "https://dc.lft.to/lastmile_qr_scan"}, "fusion_lon": 0.0, "is_reserved": 0, "is_disabled": 0, "fusion_lat": 0.0, "type": "electric_bike", "name": "624d7d6ae7d027273f08ef360713175e", "lat": 38.85515983333333, "bike_id": "624d7d6ae7d027273f08ef360713175e"}, {"lon": -77.0103115, "rental_uris": {"android": "https://dc.lft.to/lastmile_qr_scan", "ios": "https://dc.lft.to/lastmile_qr_scan"}, "fusion_lon": 0.0, "is_reserved": 0, "is_disabled": 0, "fusion_lat": 0.0, "type": "electric_scooter", "name": "0b1cf490676a2fbc1132f93d288b76b3", "lat": 38.920288666666664, "bike_id": "0b1cf490676a2fbc1132f93d288b76b3"}, {"lon": -77.04050883333333, "rental_uris": {"android": "https://dc.lft.to/lastmile_qr_scan", "ios": "https://dc.lft.to/lastmile_qr_scan"}, "fusion_lon": 0.0, "is_reserved": 0, "is_disabled": 0, "fusion_lat": 0.0, "type": "electric_scooter", "name": "c891ff5e285e04de751af86ebd14ca71", "lat": 38.908758666666664, "bike_id": "c891ff5e285e04de751af86ebd14ca71"}, {"lon": -77.03798116666667, "rental_uris": {"android": "https://dc.lft.to/lastmile_qr_scan", "ios": "https://dc.lft.to/lastmile_qr_scan"}, "fusion_lon": 0.0, "is_reserved": 0, "is_disabled": 0, "fusion_lat": 0.0, "type": "electric_scooter", "name": "f1d4fc8df480d4644ef555549c4eabd4", "lat": 38.9180785, "bike_id": "f1d4fc8df480d4644ef555549c4eabd4"}, {"lon": -76.99053433333333, "rental_uris": {"android": "https://dc.lft.to/lastmile_qr_scan", "ios": "https://dc.lft.to/lastmile_qr_scan"}, "fusion_lon": 0.0, "is_reserved": 0, "is_disabled": 0, "fusion_lat": 0.0, "type": "electric_bike", "name": "d2e3e66e23fa5179e9731fd93f992ade", "lat": 38.93692083333333, "bike_id": "d2e3e66e23fa5179e9731fd93f992ade"}, {"lon": -77.02157683333333, "rental_uris": {"android": "https://dc.lft.to/lastmile_qr_scan", "ios": "https://dc.lft.to/lastmile_qr_scan"}, "fusion_lon": 0.0, "is_reserved": 0, "is_disabled": 0, "fusion_lat": 0.0, "type": "electric_scooter", "name": "7b1fb4d077a52ad56111ac81c252ec22", "lat": 38.926120166666664, "bike_id": "7b1fb4d077a52ad56111ac81c252ec22"}, {"lon": -77.0223705, "rental_uris": {"android": "https://dc.lft.to/lastmile_qr_scan", "ios": "https://dc.lft.to/lastmile_qr_scan"}, "fusion_lon": 0.0, "is_reserved": 0, "is_disabled": 0, "fusion_lat": 0.0, "type": "electric_scooter", "name": "1e5629146a86cf5468d8c6087cd311fa", "lat": 38.92470183333333, "bike_id": "1e5629146a86cf5468d8c6087cd311fa"}, {"lon": -76.9805935, "rental_uris": {"android": "https://dc.lft.to/lastmile_qr_scan", "ios": "https://dc.lft.to/lastmile_qr_scan"}, "fusion_lon": 0.0, "is_reserved": 0, "is_disabled": 0, "fusion_lat": 0.0, "type": "electric_scooter", "name": "7dd46f8840e4e7498f0745f70b1f7d05", "lat": 38.88499983333333, "bike_id": "7dd46f8840e4e7498f0745f70b1f7d05"}, {"lon": -77.06020233333334, "rental_uris": {"android": "https://dc.lft.to/lastmile_qr_scan", "ios": "https://dc.lft.to/lastmile_qr_scan"}, "fusion_lon": 0.0, "is_reserved": 0, "is_disabled": 0, "fusion_lat": 0.0, "type": "electric_scooter", "name": "8373bcdef74a315d78223d38c91a947c", "lat": 38.904393, "bike_id": "8373bcdef74a315d78223d38c91a947c"}, {"lon": -77.02803, "rental_uris": {"android": "https://dc.lft.to/lastmile_qr_scan", "ios": "https://dc.lft.to/lastmile_qr_scan"}, "fusion_lon": 0.0, "is_reserved": 0, "is_disabled": 0, "fusion_lat": 0.0, "type": "electric_scooter", "name": "e52823767a512c689161bc3c23527163", "lat": 38.902696666666664, "bike_id": "e52823767a512c689161bc3c23527163"}, {"lon": -77.01077333333333, "rental_uris": {"android": "https://dc.lft.to/lastmile_qr_scan", "ios": "https://dc.lft.to/lastmile_qr_scan"}, "fusion_lon": 0.0, "is_reserved": 0, "is_disabled": 0, "fusion_lat": 0.0, "type": "electric_scooter", "name": "0a8c047354ae72966a9900e06861279e", "lat": 38.914106333333336, "bike_id": "0a8c047354ae72966a9900e06861279e"}, {"lon": -77.0778535, "rental_uris": {"android": "https://dc.lft.to/lastmile_qr_scan", "ios": "https://dc.lft.to/lastmile_qr_scan"}, "fusion_lon": 0.0, "is_reserved": 0, "is_disabled": 0, "fusion_lat": 0.0, "type": "electric_bike", "name": "07d1355b8bc4abed09c9ae8ae7cfc63f", "lat": 38.99597333333333, "bike_id": "07d1355b8bc4abed09c9ae8ae7cfc63f"}, {"lon": -77.03172833333333, "rental_uris": {"android": "https://dc.lft.to/lastmile_qr_scan", "ios": "https://dc.lft.to/lastmile_qr_scan"}, "fusion_lon": 0.0, "is_reserved": 0, "is_disabled": 0, "fusion_lat": 0.0, "type": "electric_scooter", "name": "79c3feef159478d12feab289937fb142", "lat": 38.900809333333335, "bike_id": "79c3feef159478d12feab289937fb142"}, {"lon": -77.03189116666667, "rental_uris": {"android": "https://dc.lft.to/lastmile_qr_scan", "ios": "https://dc.lft.to/lastmile_qr_scan"}, "fusion_lon": 0.0, "is_reserved": 0, "is_disabled": 0, "fusion_lat": 0.0, "type": "electric_scooter", "name": "7919302a7fb9a709b98efdc22dfb1121", "lat": 38.90531766666667, "bike_id": "7919302a7fb9a709b98efdc22dfb1121"}, {"lon": -77.0112975, "rental_uris": {"android": "https://dc.lft.to/lastmile_qr_scan", "ios": "https://dc.lft.to/lastmile_qr_scan"}, "fusion_lon": 0.0, "is_reserved": 0, "is_disabled": 0, "fusion_lat": 0.0, "type": "electric_scooter", "name": "37fd04a590d45dab8a3e1240a51b248b", "lat": 38.885209333333336, "bike_id": "37fd04a590d45dab8a3e1240a51b248b"}, {"lon": -77.0451025, "rental_uris": {"android": "https://dc.lft.to/lastmile_qr_scan", "ios": "https://dc.lft.to/lastmile_qr_scan"}, "fusion_lon": 0.0, "is_reserved": 0, "is_disabled": 0, "fusion_lat": 0.0, "type": "electric_scooter", "name": "4cae883c40056a26a71734a6c326b6a0", "lat": 38.909012, "bike_id": "4cae883c40056a26a71734a6c326b6a0"}, {"lon": -77.01695316666667, "rental_uris": {"android": "https://dc.lft.to/lastmile_qr_scan", "ios": "https://dc.lft.to/lastmile_qr_scan"}, "fusion_lon": 0.0, "is_reserved": 0, "is_disabled": 0, "fusion_lat": 0.0, "type": "electric_scooter", "name": "74e10ccfab3340f061296082f6db3767", "lat": 38.90763966666667, "bike_id": "74e10ccfab3340f061296082f6db3767"}, {"lon": -77.02828566666666, "rental_uris": {"android": "https://dc.lft.to/lastmile_qr_scan", "ios": "https://dc.lft.to/lastmile_qr_scan"}, "fusion_lon": 0.0, "is_reserved": 0, "is_disabled": 0, "fusion_lat": 0.0, "type": "electric_scooter", "name": "b881b4ec870c645c5213b6b2edbda4c9", "lat": 38.88659883333333, "bike_id": "b881b4ec870c645c5213b6b2edbda4c9"}, {"lon": -77.02784966666667, "rental_uris": {"android": "https://dc.lft.to/lastmile_qr_scan", "ios": "https://dc.lft.to/lastmile_qr_scan"}, "fusion_lon": 0.0, "is_reserved": 0, "is_disabled": 0, "fusion_lat": 0.0, "type": "electric_scooter", "name": "59e42fc5767b3ad16565e50b930dc086", "lat": 38.89245733333333, "bike_id": "59e42fc5767b3ad16565e50b930dc086"}, {"lon": -77.02776166666666, "rental_uris": {"android": "https://dc.lft.to/lastmile_qr_scan", "ios": "https://dc.lft.to/lastmile_qr_scan"}, "fusion_lon": 0.0, "is_reserved": 0, "is_disabled": 0, "fusion_lat": 0.0, "type": "electric_scooter", "name": "c78dca7781bc41c7af25418a24699789", "lat": 38.892207166666665, "bike_id": "c78dca7781bc41c7af25418a24699789"}, {"lon": -77.03906916666666, "rental_uris": {"android": "https://dc.lft.to/lastmile_qr_scan", "ios": "https://dc.lft.to/lastmile_qr_scan"}, "fusion_lon": 0.0, "is_reserved": 0, "is_disabled": 0, "fusion_lat": 0.0, "type": "electric_scooter", "name": "052417eefda01716033b6199b6e2d5a8", "lat": 38.944035666666664, "bike_id": "052417eefda01716033b6199b6e2d5a8"}, {"lon": -77.00299616666666, "rental_uris": {"android": "https://dc.lft.to/lastmile_qr_scan", "ios": "https://dc.lft.to/lastmile_qr_scan"}, "fusion_lon": 0.0, "is_reserved": 0, "is_disabled": 0, "fusion_lat": 0.0, "type": "electric_scooter", "name": "fe67e149858e8d6831416da736788084", "lat": 38.87650716666667, "bike_id": "fe67e149858e8d6831416da736788084"}, {"lon": -77.02833833333334, "rental_uris": {"android": "https://dc.lft.to/lastmile_qr_scan", "ios": "https://dc.lft.to/lastmile_qr_scan"}, "fusion_lon": 0.0, "is_reserved": 0, "is_disabled": 0, "fusion_lat": 0.0, "type": "electric_scooter", "name": "9ea1e8e3419d971bc760914d170ca9cd", "lat": 38.88768433333333, "bike_id": "9ea1e8e3419d971bc760914d170ca9cd"}, {"lon": -77.0063845, "rental_uris": {"android": "https://dc.lft.to/lastmile_qr_scan", "ios": "https://dc.lft.to/lastmile_qr_scan"}, "fusion_lon": 0.0, "is_reserved": 0, "is_disabled": 0, "fusion_lat": 0.0, "type": "electric_scooter", "name": "a2f63675c41c001f613f8ab88bfda374", "lat": 38.8718665, "bike_id": "a2f63675c41c001f613f8ab88bfda374"}, {"lon": -77.044677, "rental_uris": {"android": "https://dc.lft.to/lastmile_qr_scan", "ios": "https://dc.lft.to/lastmile_qr_scan"}, "fusion_lon": 0.0, "is_reserved": 0, "is_disabled": 0, "fusion_lat": 0.0, "type": "electric_scooter", "name": "0af1b397e25efc8b66b60963f298f6f6", "lat": 38.8921815, "bike_id": "0af1b397e25efc8b66b60963f298f6f6"}, {"lon": -77.02968183333333, "rental_uris": {"android": "https://dc.lft.to/lastmile_qr_scan", "ios": "https://dc.lft.to/lastmile_qr_scan"}, "fusion_lon": 0.0, "is_reserved": 0, "is_disabled": 0, "fusion_lat": 0.0, "type": "electric_scooter", "name": "6ed71578a6356e785acd23b36f132378", "lat": 38.91296716666667, "bike_id": "6ed71578a6356e785acd23b36f132378"}, {"lon": -77.04350183333334, "rental_uris": {"android": "https://dc.lft.to/lastmile_qr_scan", "ios": "https://dc.lft.to/lastmile_qr_scan"}, "fusion_lon": 0.0, "is_reserved": 0, "is_disabled": 0, "fusion_lat": 0.0, "type": "electric_scooter", "name": "42c8d2654023b96af57b4232c49c4ada", "lat": 38.89754283333333, "bike_id": "42c8d2654023b96af57b4232c49c4ada"}, {"lon": -77.03172716666667, "rental_uris": {"android": "https://dc.lft.to/lastmile_qr_scan", "ios": "https://dc.lft.to/lastmile_qr_scan"}, "fusion_lon": 0.0, "is_reserved": 0, "is_disabled": 0, "fusion_lat": 0.0, "type": "electric_scooter", "name": "862cff463264fd66742f6307abe9017a", "lat": 38.887354, "bike_id": "862cff463264fd66742f6307abe9017a"}, {"lon": -77.00371333333334, "rental_uris": {"android": "https://dc.lft.to/lastmile_qr_scan", "ios": "https://dc.lft.to/lastmile_qr_scan"}, "fusion_lon": 0.0, "is_reserved": 0, "is_disabled": 0, "fusion_lat": 0.0, "type": "electric_scooter", "name": "c223fd5fb6f1d5c81d56f0f3d49a53e9", "lat": 38.907637, "bike_id": "c223fd5fb6f1d5c81d56f0f3d49a53e9"}, {"lon": -76.98355766666667, "rental_uris": {"android": "https://dc.lft.to/lastmile_qr_scan", "ios": "https://dc.lft.to/lastmile_qr_scan"}, "fusion_lon": 0.0, "is_reserved": 0, "is_disabled": 0, "fusion_lat": 0.0, "type": "electric_scooter", "name": "bf521d4db5e756efaac04847487c20c5", "lat": 38.887452833333334, "bike_id": "bf521d4db5e756efaac04847487c20c5"}, {"lon": -77.02830216666666, "rental_uris": {"android": "https://dc.lft.to/lastmile_qr_scan", "ios": "https://dc.lft.to/lastmile_qr_scan"}, "fusion_lon": 0.0, "is_reserved": 0, "is_disabled": 0, "fusion_lat": 0.0, "type": "electric_scooter", "name": "f6c08e8add9a462721682f9635ebaf32", "lat": 38.886629666666664, "bike_id": "f6c08e8add9a462721682f9635ebaf32"}, {"lon": -77.021733, "rental_uris": {"android": "https://dc.lft.to/lastmile_qr_scan", "ios": "https://dc.lft.to/lastmile_qr_scan"}, "fusion_lon": 0.0, "is_reserved": 0, "is_disabled": 0, "fusion_lat": 0.0, "type": "electric_scooter", "name": "a788146a693bff4fcc2bef7d0cd68b3a", "lat": 38.92632233333333, "bike_id": "a788146a693bff4fcc2bef7d0cd68b3a"}, {"lon": -77.075224, "rental_uris": {"android": "https://dc.lft.to/lastmile_qr_scan", "ios": "https://dc.lft.to/lastmile_qr_scan"}, "fusion_lon": 0.0, "is_reserved": 0, "is_disabled": 0, "fusion_lat": 0.0, "type": "electric_bike", "name": "3d1a1761ee8e63e89d01c19c193a3f61", "lat": 38.842844, "bike_id": "3d1a1761ee8e63e89d01c19c193a3f61"}, {"lon": -77.04894233333333, "rental_uris": {"android": "https://dc.lft.to/lastmile_qr_scan", "ios": "https://dc.lft.to/lastmile_qr_scan"}, "fusion_lon": 0.0, "is_reserved": 0, "is_disabled": 0, "fusion_lat": 0.0, "type": "electric_bike", "name": "12cd0ee2b2251ec57c5a67a7cd4eb139", "lat": 38.91597683333333, "bike_id": "12cd0ee2b2251ec57c5a67a7cd4eb139"}, {"lon": -77.039358, "rental_uris": {"android": "https://dc.lft.to/lastmile_qr_scan", "ios": "https://dc.lft.to/lastmile_qr_scan"}, "fusion_lon": 0.0, "is_reserved": 0, "is_disabled": 0, "fusion_lat": 0.0, "type": "electric_scooter", "name": "1dfaada7d1edc1af2c5051a4adb5629c", "lat": 38.90162266666667, "bike_id": "1dfaada7d1edc1af2c5051a4adb5629c"}, {"lon": -76.9951485, "rental_uris": {"android": "https://dc.lft.to/lastmile_qr_scan", "ios": "https://dc.lft.to/lastmile_qr_scan"}, "fusion_lon": 0.0, "is_reserved": 0, "is_disabled": 0, "fusion_lat": 0.0, "type": "electric_scooter", "name": "73f4cd0452eaeb168bf8f5ca5b568be5", "lat": 38.89173266666667, "bike_id": "73f4cd0452eaeb168bf8f5ca5b568be5"}, {"lon": -77.04439466666666, "rental_uris": {"android": "https://dc.lft.to/lastmile_qr_scan", "ios": "https://dc.lft.to/lastmile_qr_scan"}, "fusion_lon": 0.0, "is_reserved": 0, "is_disabled": 0, "fusion_lat": 0.0, "type": "electric_scooter", "name": "1e941f6c0e204a75c7029e90ed52752d", "lat": 38.90978633333334, "bike_id": "1e941f6c0e204a75c7029e90ed52752d"}, {"lon": -77.04279533333333, "rental_uris": {"android": "https://dc.lft.to/lastmile_qr_scan", "ios": "https://dc.lft.to/lastmile_qr_scan"}, "fusion_lon": 0.0, "is_reserved": 0, "is_disabled": 0, "fusion_lat": 0.0, "type": "electric_scooter", "name": "eaf7f2512e3aae3ae4c07759a47c6e5f", "lat": 38.934244666666665, "bike_id": "eaf7f2512e3aae3ae4c07759a47c6e5f"}, {"lon": -77.01374583333333, "rental_uris": {"android": "https://dc.lft.to/lastmile_qr_scan", "ios": "https://dc.lft.to/lastmile_qr_scan"}, "fusion_lon": 0.0, "is_reserved": 0, "is_disabled": 0, "fusion_lat": 0.0, "type": "electric_scooter", "name": "9d8d2a5e122918c82484e4717aee4b70", "lat": 38.928866, "bike_id": "9d8d2a5e122918c82484e4717aee4b70"}, {"lon": -77.03284533333333, "rental_uris": {"android": "https://dc.lft.to/lastmile_qr_scan", "ios": "https://dc.lft.to/lastmile_qr_scan"}, "fusion_lon": 0.0, "is_reserved": 0, "is_disabled": 0, "fusion_lat": 0.0, "type": "electric_scooter", "name": "41fd1b6b990c055e8ed622e0fa91b432", "lat": 38.93799666666666, "bike_id": "41fd1b6b990c055e8ed622e0fa91b432"}, {"lon": -77.0415155, "rental_uris": {"android": "https://dc.lft.to/lastmile_qr_scan", "ios": "https://dc.lft.to/lastmile_qr_scan"}, "fusion_lon": 0.0, "is_reserved": 0, "is_disabled": 0, "fusion_lat": 0.0, "type": "electric_scooter", "name": "10af26f4334bfa7ef86c1dc02a71045c", "lat": 38.92351333333333, "bike_id": "10af26f4334bfa7ef86c1dc02a71045c"}, {"lon": -77.04586016666667, "rental_uris": {"android": "https://dc.lft.to/lastmile_qr_scan", "ios": "https://dc.lft.to/lastmile_qr_scan"}, "fusion_lon": 0.0, "is_reserved": 0, "is_disabled": 0, "fusion_lat": 0.0, "type": "electric_scooter", "name": "79847fad134125289866649c7d5933db", "lat": 38.90233583333333, "bike_id": "79847fad134125289866649c7d5933db"}, {"lon": -77.01901733333334, "rental_uris": {"android": "https://dc.lft.to/lastmile_qr_scan", "ios": "https://dc.lft.to/lastmile_qr_scan"}, "fusion_lon": 0.0, "is_reserved": 0, "is_disabled": 0, "fusion_lat": 0.0, "type": "electric_scooter", "name": "c578dd333a49561b2a182446dbe7d7e3", "lat": 38.91918883333334, "bike_id": "c578dd333a49561b2a182446dbe7d7e3"}, {"lon": -77.0003265, "rental_uris": {"android": "https://dc.lft.to/lastmile_qr_scan", "ios": "https://dc.lft.to/lastmile_qr_scan"}, "fusion_lon": 0.0, "is_reserved": 0, "is_disabled": 0, "fusion_lat": 0.0, "type": "electric_scooter", "name": "f46056de33bb675e3c12b7a375a4e116", "lat": 38.8748695, "bike_id": "f46056de33bb675e3c12b7a375a4e116"}, {"lon": -77.04702666666667, "rental_uris": {"android": "https://dc.lft.to/lastmile_qr_scan", "ios": "https://dc.lft.to/lastmile_qr_scan"}, "fusion_lon": 0.0, "is_reserved": 0, "is_disabled": 0, "fusion_lat": 0.0, "type": "electric_scooter", "name": "dd748ec104f8d149519b25b67e2de8cd", "lat": 38.921401333333336, "bike_id": "dd748ec104f8d149519b25b67e2de8cd"}, {"lon": -77.04490133333333, "rental_uris": {"android": "https://dc.lft.to/lastmile_qr_scan", "ios": "https://dc.lft.to/lastmile_qr_scan"}, "fusion_lon": 0.0, "is_reserved": 0, "is_disabled": 0, "fusion_lat": 0.0, "type": "electric_scooter", "name": "310a97f091b22cf26cdc495e272218e0", "lat": 38.89950066666667, "bike_id": "310a97f091b22cf26cdc495e272218e0"}, {"lon": -77.01824133333334, "rental_uris": {"android": "https://dc.lft.to/lastmile_qr_scan", "ios": "https://dc.lft.to/lastmile_qr_scan"}, "fusion_lon": 0.0, "is_reserved": 0, "is_disabled": 0, "fusion_lat": 0.0, "type": "electric_scooter", "name": "f2a683cf71132900623391233865f80f", "lat": 38.9223845, "bike_id": "f2a683cf71132900623391233865f80f"}, {"lon": -77.03276566666666, "rental_uris": {"android": "https://dc.lft.to/lastmile_qr_scan", "ios": "https://dc.lft.to/lastmile_qr_scan"}, "fusion_lon": 0.0, "is_reserved": 0, "is_disabled": 0, "fusion_lat": 0.0, "type": "electric_scooter", "name": "931f193ac26c69fc773f5f43e65f265c", "lat": 38.937590666666665, "bike_id": "931f193ac26c69fc773f5f43e65f265c"}, {"lon": -77.044903, "rental_uris": {"android": "https://dc.lft.to/lastmile_qr_scan", "ios": "https://dc.lft.to/lastmile_qr_scan"}, "fusion_lon": 0.0, "is_reserved": 0, "is_disabled": 0, "fusion_lat": 0.0, "type": "electric_scooter", "name": "2bcb5035ce65be8189b693a0a4f31836", "lat": 38.903682333333336, "bike_id": "2bcb5035ce65be8189b693a0a4f31836"}, {"lon": -77.07249933333334, "rental_uris": {"android": "https://dc.lft.to/lastmile_qr_scan", "ios": "https://dc.lft.to/lastmile_qr_scan"}, "fusion_lon": 0.0, "is_reserved": 0, "is_disabled": 0, "fusion_lat": 0.0, "type": "electric_scooter", "name": "e3d479edb5e3a12f969c49dcb861a71b", "lat": 38.90783233333333, "bike_id": "e3d479edb5e3a12f969c49dcb861a71b"}, {"lon": -77.03462333333333, "rental_uris": {"android": "https://dc.lft.to/lastmile_qr_scan", "ios": "https://dc.lft.to/lastmile_qr_scan"}, "fusion_lon": 0.0, "is_reserved": 0, "is_disabled": 0, "fusion_lat": 0.0, "type": "electric_scooter", "name": "1e3ef18b8ad8ac1c64118d18c45500a4", "lat": 38.90707466666667, "bike_id": "1e3ef18b8ad8ac1c64118d18c45500a4"}, {"lon": -77.0418985, "rental_uris": {"android": "https://dc.lft.to/lastmile_qr_scan", "ios": "https://dc.lft.to/lastmile_qr_scan"}, "fusion_lon": 0.0, "is_reserved": 0, "is_disabled": 0, "fusion_lat": 0.0, "type": "electric_scooter", "name": "232e773767ec4c02ec97bd99623b694b", "lat": 38.92214083333333, "bike_id": "232e773767ec4c02ec97bd99623b694b"}, {"lon": -76.9766495, "rental_uris": {"android": "https://dc.lft.to/lastmile_qr_scan", "ios": "https://dc.lft.to/lastmile_qr_scan"}, "fusion_lon": 0.0, "is_reserved": 0, "is_disabled": 0, "fusion_lat": 0.0, "type": "electric_scooter", "name": "b1e674f59a63969afc11d46372d22109", "lat": 38.84051766666666, "bike_id": "b1e674f59a63969afc11d46372d22109"}, {"lon": -77.02115466666666, "rental_uris": {"android": "https://dc.lft.to/lastmile_qr_scan", "ios": "https://dc.lft.to/lastmile_qr_scan"}, "fusion_lon": 0.0, "is_reserved": 0, "is_disabled": 0, "fusion_lat": 0.0, "type": "electric_scooter", "name": "7eb7b3e793324f66161a02edccfc1b4d", "lat": 38.9267145, "bike_id": "7eb7b3e793324f66161a02edccfc1b4d"}, {"lon": -77.04314866666667, "rental_uris": {"android": "https://dc.lft.to/lastmile_qr_scan", "ios": "https://dc.lft.to/lastmile_qr_scan"}, "fusion_lon": 0.0, "is_reserved": 0, "is_disabled": 0, "fusion_lat": 0.0, "type": "electric_scooter", "name": "8de539987d8b0fd9b33e14323f450ec7", "lat": 38.9068685, "bike_id": "8de539987d8b0fd9b33e14323f450ec7"}, {"lon": -77.071587, "rental_uris": {"android": "https://dc.lft.to/lastmile_qr_scan", "ios": "https://dc.lft.to/lastmile_qr_scan"}, "fusion_lon": 0.0, "is_reserved": 0, "is_disabled": 0, "fusion_lat": 0.0, "type": "electric_bike", "name": "8569e31871960f8d0c704de08a986e0a", "lat": 38.907755, "bike_id": "8569e31871960f8d0c704de08a986e0a"}, {"lon": -77.00852966666666, "rental_uris": {"android": "https://dc.lft.to/lastmile_qr_scan", "ios": "https://dc.lft.to/lastmile_qr_scan"}, "fusion_lon": 0.0, "is_reserved": 0, "is_disabled": 0, "fusion_lat": 0.0, "type": "electric_scooter", "name": "4f79f9f6005fa7f2261ce05eaeb7be5b", "lat": 38.90646983333333, "bike_id": "4f79f9f6005fa7f2261ce05eaeb7be5b"}, {"lon": -77.04483483333334, "rental_uris": {"android": "https://dc.lft.to/lastmile_qr_scan", "ios": "https://dc.lft.to/lastmile_qr_scan"}, "fusion_lon": 0.0, "is_reserved": 0, "is_disabled": 0, "fusion_lat": 0.0, "type": "electric_bike", "name": "dd94f7dc8de36960eea00111c0bb20b5", "lat": 38.897157, "bike_id": "dd94f7dc8de36960eea00111c0bb20b5"}, {"lon": -77.01145633333333, "rental_uris": {"android": "https://dc.lft.to/lastmile_qr_scan", "ios": "https://dc.lft.to/lastmile_qr_scan"}, "fusion_lon": 0.0, "is_reserved": 0, "is_disabled": 0, "fusion_lat": 0.0, "type": "electric_scooter", "name": "ef8fcce02676c2a3d2c08869eff78c2d", "lat": 38.88331433333333, "bike_id": "ef8fcce02676c2a3d2c08869eff78c2d"}, {"lon": -77.03907566666666, "rental_uris": {"android": "https://dc.lft.to/lastmile_qr_scan", "ios": "https://dc.lft.to/lastmile_qr_scan"}, "fusion_lon": 0.0, "is_reserved": 0, "is_disabled": 0, "fusion_lat": 0.0, "type": "electric_scooter", "name": "b68ef2b7eb768eb1e68a2e7d1135794a", "lat": 38.916932833333334, "bike_id": "b68ef2b7eb768eb1e68a2e7d1135794a"}, {"lon": -77.03276633333333, "rental_uris": {"android": "https://dc.lft.to/lastmile_qr_scan", "ios": "https://dc.lft.to/lastmile_qr_scan"}, "fusion_lon": 0.0, "is_reserved": 0, "is_disabled": 0, "fusion_lat": 0.0, "type": "electric_bike", "name": "57df4b752db6455c26c91b6312edd98f", "lat": 38.961260833333334, "bike_id": "57df4b752db6455c26c91b6312edd98f"},