{"data": {"bikes": [{"is_disabled": 0, "lat": 38.956536166666666, "bike_id": "e24ef7d7501d5a744f68b8925f5e298b", "fusion_lon": 0.0, "is_reserved": 0, "type": "electric_scooter", "name": "e24ef7d7501d5a744f68b8925f5e298b", "lon": -77.01964, "rental_uris": {"android": "https://dc.lft.to/lastmile_qr_scan", "ios": "https://dc.lft.to/lastmile_qr_scan"}, "fusion_lat": 0.0}, {"is_disabled": 0, "lat": 38.9110045, "bike_id": "dd554feb75edb72cee62d50e7abd3d36", "fusion_lon": 0.0, "is_reserved": 0, "type": "electric_scooter", "name": "dd554feb75edb72cee62d50e7abd3d36", "lon": -77.02228983333333, "rental_uris": {"android": "https://dc.lft.to/lastmile_qr_scan", "ios": "https://dc.lft.to/lastmile_qr_scan"}, "fusion_lat": 0.0}, {"is_disabled": 0, "lat": 38.919104833333336, "bike_id": "ca8671798e59a4c9b631c93b6f7d347d", "fusion_lon": 0.0, "is_reserved": 0, "type": "electric_scooter", "name": "ca8671798e59a4c9b631c93b6f7d347d", "lon": -77.03190783333334, "rental_uris": {"android": "https://dc.lft.to/lastmile_qr_scan", "ios": "https://dc.lft.to/lastmile_qr_scan"}, "fusion_lat": 0.0}, {"is_disabled": 0, "lat": 38.894717, "bike_id": "54b8bbd7103a0f9fbf78a5a030fa0e8e", "fusion_lon": 0.0, "is_reserved": 0, "type": "electric_scooter", "name": "54b8bbd7103a0f9fbf78a5a030fa0e8e", "lon": -77.012944, "rental_uris": {"android": "https://dc.lft.to/lastmile_qr_scan", "ios": "https://dc.lft.to/lastmile_qr_scan"}, "fusion_lat": 0.0}, {"is_disabled": 0, "lat": 38.9934635, "bike_id": "af8698e9e9a76f3e731ff0bbeb283a4f", "fusion_lon": 0.0, "is_reserved": 0, "type": "electric_bike", "name": "af8698e9e9a76f3e731ff0bbeb283a4f", "lon": -77.11579266666666, "rental_uris": {"android": "https://dc.lft.to/lastmile_qr_scan", "ios": "https://dc.lft.to/lastmile_qr_scan"}, "fusion_lat": 0.0}, {"is_disabled": 0, "lat": 38.921197, "bike_id": "34aede87f59fa80b1bb0e5dc459cc9e5", "fusion_lon": 0.0, "is_reserved": 0, "type": "electric_scooter", "name": "34aede87f59fa80b1bb0e5dc459cc9e5", "lon": -77.04416383333333, "rental_uris": {"android": "https://dc.lft.to/lastmile_qr_scan", "ios": "https://dc.lft.to/lastmile_qr_scan"}, "fusion_lat": 0.0}, {"is_disabled": 0, "lat": 38.89221466666667, "bike_id": "0224c1b970d4dcb1c7de8393da7e6545", "fusion_lon": 0.0, "is_reserved": 0, "type": "electric_scooter", "name": "0224c1b970d4dcb1c7de8393da7e6545", "lon": -77.01372816666667, "rental_uris": {"android": "https://dc.lft.to/lastmile_qr_scan", "ios": "https://dc.lft.to/lastmile_qr_scan"}, "fusion_lat": 0.0}, {"is_disabled": 0, "lat": 38.90551966666666, "bike_id": "c2b29d359822a69de86235902a3cc44c", "fusion_lon": 0.0, "is_reserved": 0, "type": "electric_scooter", "name": "c2b29d359822a69de86235902a3cc44c", "lon": -77.0447635, "rental_uris": {"android": "https://dc.lft.to/lastmile_qr_scan", "ios": "https://dc.lft.to/lastmile_qr_scan"}, "fusion_lat": 0.0}, {"is_disabled": 0, "lat": 38.88860866666667, "bike_id": "07a0453ae1638ebf175720e7fdae32c1", "fusion_lon": 0.0, "is_reserved": 0, "type": "electric_scooter", "name": "07a0453ae1638ebf175720e7fdae32c1", "lon": -76.9802085, "rental_uris": {"android": "https://dc.lft.to/lastmile_qr_scan", "ios": "https://dc.lft.to/lastmile_qr_scan"}, "fusion_lat": 0.0}, {"is_disabled": 0, "lat": 38.9188905, "bike_id": "e3b40e7fe3335702fa8015dd84e5d177", "fusion_lon": 0.0, "is_reserved": 0, "type": "electric_scooter", "name": "e3b40e7fe3335702fa8015dd84e5d177", "lon": -77.041579, "rental_uris": {"android": "https://dc.lft.to/lastmile_qr_scan", "ios": "https://dc.lft.to/lastmile_qr_scan"}, "fusion_lat": 0.0}, {"is_disabled": 0, "lat": 38.968189, "bike_id": "c3e1fb2fccaf6a71325163aeb0ac8c93", "fusion_lon": 0.0, "is_reserved": 0, "type": "electric_scooter", "name": "c3e1fb2fccaf6a71325163aeb0ac8c93", "lon": -77.00894783333334, "rental_uris": {"android": "https://dc.lft.to/lastmile_qr_scan", "ios": "https://dc.lft.to/lastmile_qr_scan"}, "fusion_lat": 0.0}, {"is_disabled": 0, "lat": 38.9050825, "bike_id": "25e17e04187ce0e6b2360070e2ccc3dc", "fusion_lon": 0.0, "is_reserved": 0, "type": "electric_scooter", "name": "25e17e04187ce0e6b2360070e2ccc3dc", "lon": -77.044911, "rental_uris": {"android": "https://dc.lft.to/lastmile_qr_scan", "ios": "https://dc.lft.to/lastmile_qr_scan"}, "fusion_lat": 0.0}, {"is_disabled": 0, "lat": 38.909091833333335, "bike_id": "8ccd54cee868f657f8233ffb76b6f71a", "fusion_lon": 0.0, "is_reserved": 0, "type": "electric_scooter", "name": "8ccd54cee868f657f8233ffb76b6f71a", "lon": -77.04389666666667, "rental_uris": {"android": "https://dc.lft.to/lastmile_qr_scan", "ios": "https://dc.lft.to/lastmile_qr_scan"}, "fusion_lat": 0.0}, {"is_disabled": 0, "lat": 38.867177166666664, "bike_id": "9ac908ce0974a69db428c8de11528a23", "fusion_lon": 0.0, "is_reserved": 0, "type": "electric_scooter", "name": "9ac908ce0974a69db428c8de11528a23", "lon": -76.9872565, "rental_uris": {"android": "https://dc.lft.to/lastmile_qr_scan", "ios": "https://dc.lft.to/lastmile_qr_scan"}, "fusion_lat": 0.0}, {"is_disabled": 0, "lat": 38.8922315, "bike_id": "133130ee4600cca9471c7b914614379b", "fusion_lon": 0.0, "is_reserved": 0, "type": "electric_scooter", "name": "133130ee4600cca9471c7b914614379b", "lon": -77.02658416666667, "rental_uris": {"android": "https://dc.lft.to/lastmile_qr_scan", "ios": "https://dc.lft.to/lastmile_qr_scan"}, "fusion_lat": 0.0}, {"is_disabled": 0, "lat": 38.870389, "bike_id": "1752d69c071bf3cc1bacc0ec2a247373", "fusion_lon": 0.0, "is_reserved": 0, "type": "electric_bike", "name": "1752d69c071bf3cc1bacc0ec2a247373", "lon": -76.97905583333333, "rental_uris": {"android": "https://dc.lft.to/lastmile_qr_scan", "ios": "https://dc.lft.to/lastmile_qr_scan"}, "fusion_lat": 0.0}, {"is_disabled": 0, "lat": 38.8951385, "bike_id": "e18b79dda0a42e807a254e3a1dd80d45", "fusion_lon": 0.0, "is_reserved": 0, "type": "electric_scooter", "name": "e18b79dda0a42e807a254e3a1dd80d45", "lon": -76.9488735, "rental_uris": {"android": "https://dc.lft.to/lastmile_qr_scan", "ios": "https://dc.lft.to/lastmile_qr_scan"}, "fusion_lat": 0.0}, {"is_disabled": 0, "lat": 38.90012766666667, "bike_id": "256ff8562e73ed5f9c44b3b3a4bdfe2f", "fusion_lon": 0.0, "is_reserved": 0, "type": "electric_scooter", "name": "256ff8562e73ed5f9c44b3b3a4bdfe2f", "lon": -76.99841933333333, "rental_uris": {"android": "https://dc.lft.to/lastmile_qr_scan", "ios": "https://dc.lft.to/lastmile_qr_scan"}, "fusion_lat": 0.0}, {"is_disabled": 0, "lat": 38.9736855, "bike_id": "94c0f0c47de792d0e87a9d50c5ba0eca", "fusion_lon": 0.0, "is_reserved": 0, "type": "electric_scooter", "name": "94c0f0c47de792d0e87a9d50c5ba0eca", "lon": -77.01852566666666, "rental_uris": {"android": "https://dc.lft.to/lastmile_qr_scan", "ios": "https://dc.lft.to/lastmile_qr_scan"}, "fusion_lat": 0.0}, {"is_disabled": 0, "lat": 38.917534333333336, "bike_id": "b99cb741e536cb8eb95e59a59f18f552", "fusion_lon": 0.0, "is_reserved": 0, "type": "electric_scooter", "name": "b99cb741e536cb8eb95e59a59f18f552", "lon": -77.02397733333333, "rental_uris": {"android": "https://dc.lft.to/lastmile_qr_scan", "ios": "https://dc.lft.to/lastmile_qr_scan"}, "fusion_lat": 0.0}, {"is_disabled": 0, "lat": 38.954799, "bike_id": "9409b9e02ae9178bc60c6fe94819c3a2", "fusion_lon": 0.0, "is_reserved": 0, "type": "electric_bike", "name": "9409b9e02ae9178bc60c6fe94819c3a2", "lon": -76.9886315, "rental_uris": {"android": "https://dc.lft.to/lastmile_qr_scan", "ios": "https://dc.lft.to/lastmile_qr_scan"}, "fusion_lat": 0.0}, {"is_disabled": 0, "lat": 38.91675983333333, "bike_id": "142c1654d8d22a015eec4c0a14a2ba8d", "fusion_lon": 0.0, "is_reserved": 0, "type": "electric_scooter", "name": "142c1654d8d22a015eec4c0a14a2ba8d", "lon": -77.03686733333333, "rental_uris": {"android": "https://dc.lft.to/lastmile_qr_scan", "ios": "https://dc.lft.to/lastmile_qr_scan"}, "fusion_lat": 0.0}, {"is_disabled": 0, "lat": 38.877655, "bike_id": "96bebf78290d44ed2ac19ac4b8e15cdf", "fusion_lon": 0.0, "is_reserved": 0, "type": "electric_bike", "name": "96bebf78290d44ed2ac19ac4b8e15cdf", "lon": -77.01050433333333, "rental_uris": {"android": "https://dc.lft.to/lastmile_qr_scan", "ios": "https://dc.lft.to/lastmile_qr_scan"}, "fusion_lat": 0.0}, {"is_disabled": 0, "lat": 38.884065166666666, "bike_id": "5fba439e4fe5381cb13c371fb108a862", "fusion_lon": 0.0, "is_reserved": 0, "type": "electric_bike", "name": "5fba439e4fe5381cb13c371fb108a862", "lon": -76.96059716666667, "rental_uris": {"android": "https://dc.lft.to/lastmile_qr_scan", "ios": "https://dc.lft.to/lastmile_qr_scan"}, "fusion_lat": 0.0}, {"is_disabled": 0, "lat": 38.93639116666667, "bike_id": "f0d4543c0288881224c8c78f9584603e", "fusion_lon": 0.0, "is_reserved": 0, "type": "electric_scooter", "name": "f0d4543c0288881224c8c78f9584603e", "lon": -77.0333915, "rental_uris": {"android": "https://dc.lft.to/lastmile_qr_scan", "ios": "https://dc.lft.to/lastmile_qr_scan"}, "fusion_lat": 0.0}, {"is_disabled": 0, "lat": 38.898242833333335, "bike_id": "e84bd7543ae1bbcf7cf0bd78079df648", "fusion_lon": 0.0, "is_reserved": 0, "type": "electric_scooter", "name": "e84bd7543ae1bbcf7cf0bd78079df648", "lon": -76.98659416666666, "rental_uris": {"android": "https://dc.lft.to/lastmile_qr_scan", "ios": "https://dc.lft.to/lastmile_qr_scan"}, "fusion_lat": 0.0}, {"is_disabled": 0, "lat": 38.9103745, "bike_id": "184476827a7cc8eb1b7b35a40d195f34", "fusion_lon": 0.0, "is_reserved": 0, "type": "electric_scooter", "name": "184476827a7cc8eb1b7b35a40d195f34", "lon": -77.0319925, "rental_uris": {"android": "https://dc.lft.to/lastmile_qr_scan", "ios": "https://dc.lft.to/lastmile_qr_scan"}, "fusion_lat": 0.0}, {"is_disabled": 0, "lat": 38.87142866666667, "bike_id": "29f9c1e466b8f1e3425f41b962ae79c2", "fusion_lon": 0.0, "is_reserved": 0, "type": "electric_scooter", "name": "29f9c1e466b8f1e3425f41b962ae79c2", "lon": -76.993344, "rental_uris": {"android": "https://dc.lft.to/lastmile_qr_scan", "ios": "https://dc.lft.to/lastmile_qr_scan"}, "fusion_lat": 0.0}, {"is_disabled": 0, "lat": 38.86214116666667, "bike_id": "d90015f1cce6a36b285315f8689d50fa", "fusion_lon": 0.0, "is_reserved": 0, "type": "electric_scooter", "name": "d90015f1cce6a36b285315f8689d50fa", "lon": -76.99474383333333, "rental_uris": {"android": "https://dc.lft.to/lastmile_qr_scan", "ios": "https://dc.lft.to/lastmile_qr_scan"}, "fusion_lat": 0.0}, {"is_disabled": 0, "lat": 38.86483066666667, "bike_id": "4f31faeeb9da3d311c9f07b38a682fee", "fusion_lon": 0.0, "is_reserved": 0, "type": "electric_bike", "name": "4f31faeeb9da3d311c9f07b38a682fee", "lon": -76.94508366666666, "rental_uris": {"android": "https://dc.lft.to/lastmile_qr_scan", "ios": "https://dc.lft.to/lastmile_qr_scan"}, "fusion_lat": 0.0}, {"is_disabled": 0, "lat": 38.90507266666667, "bike_id": "6456970c1b2692b76b0c090bb0fd3428", "fusion_lon": 0.0, "is_reserved": 0, "type": "electric_scooter", "name": "6456970c1b2692b76b0c090bb0fd3428", "lon": -77.0012455, "rental_uris": {"android": "https://dc.lft.to/lastmile_qr_scan", "ios": "https://dc.lft.to/lastmile_qr_scan"}, "fusion_lat": 0.0}, {"is_disabled": 0, "lat": 38.92596783333333, "bike_id": "03dd8d233518def9fe8b9a225efcb874", "fusion_lon": 0.0, "is_reserved": 0, "type": "electric_scooter", "name": "03dd8d233518def9fe8b9a225efcb874", "lon": -77.03547066666667, "rental_uris": {"android": "https://dc.lft.to/lastmile_qr_scan", "ios": "https://dc.lft.to/lastmile_qr_scan"}, "fusion_lat": 0.0}, {"is_disabled": 0, "lat": 38.946000833333336, "bike_id": "dce813532e429e6dc533095e894eff13", "fusion_lon": 0.0, "is_reserved": 0, "type": "electric_scooter", "name": "dce813532e429e6dc533095e894eff13", "lon": -76.99013683333334, "rental_uris": {"android": "https://dc.lft.to/lastmile_qr_scan", "ios": "https://dc.lft.to/lastmile_qr_scan"}, "fusion_lat": 0.0}, {"is_disabled": 0, "lat": 39.06292766666667, "bike_id": "a274cf14d591bfbcade19b62bd8fe066", "fusion_lon": 0.0, "is_reserved": 0, "type": "electric_bike", "name": "a274cf14d591bfbcade19b62bd8fe066", "lon": -77.04979383333334, "rental_uris": {"android": "https://dc.lft.to/lastmile_qr_scan", "ios": "https://dc.lft.to/lastmile_qr_scan"}, "fusion_lat": 0.0}, {"is_disabled": 0, "lat": 38.896125, "bike_id": "a0c3094777a6da5eda8ffbd66538debc", "fusion_lon": 0.0, "is_reserved": 0, "type": "electric_scooter", "name": "a0c3094777a6da5eda8ffbd66538debc", "lon": -77.04597583333333, "rental_uris": {"android": "https://dc.lft.to/lastmile_qr_scan", "ios": "https://dc.lft.to/lastmile_qr_scan"}, "fusion_lat": 0.0}, {"is_disabled": 0, "lat": 38.90409833333333, "bike_id": "a4aff4ff13c9d5b81938d9275e62d2ca", "fusion_lon": 0.0, "is_reserved": 0, "type": "electric_scooter", "name": "a4aff4ff13c9d5b81938d9275e62d2ca", "lon": -77.04523433333334, "rental_uris": {"android": "https://dc.lft.to/lastmile_qr_scan", "ios": "https://dc.lft.to/lastmile_qr_scan"}, "fusion_lat": 0.0}, {"is_disabled": 0, "lat": 38.878598, "bike_id": "2ef8277cceeca6df4a4fa77da4c8cd20", "fusion_lon": 0.0, "is_reserved": 0, "type": "electric_scooter", "name": "2ef8277cceeca6df4a4fa77da4c8cd20", "lon": -76.9376665, "rental_uris": {"android": "https://dc.lft.to/lastmile_qr_scan", "ios": "https://dc.lft.to/lastmile_qr_scan"}, "fusion_lat": 0.0}, {"is_disabled": 0, "lat": 38.915625, "bike_id": "26dfdbccb09d54693b23f187e589136e", "fusion_lon": 0.0, "is_reserved": 0, "type": "electric_scooter", "name": "26dfdbccb09d54693b23f187e589136e", "lon": -77.03013283333334, "rental_uris": {"android": "https://dc.lft.to/lastmile_qr_scan", "ios": "https://dc.lft.to/lastmile_qr_scan"}, "fusion_lat": 0.0}, {"is_disabled": 0, "lat": 38.898241, "bike_id": "5f8dd2d330810bf1c30f5d7bec09e6a8", "fusion_lon": 0.0, "is_reserved": 0, "type": "electric_scooter", "name": "5f8dd2d330810bf1c30f5d7bec09e6a8", "lon": -77.03044616666666, "rental_uris": {"android": "https://dc.lft.to/lastmile_qr_scan", "ios": "https://dc.lft.to/lastmile_qr_scan"}, "fusion_lat": 0.0}, {"is_disabled": 0, "lat": 38.908739833333335, "bike_id": "816ca185a632c0297196880c72107957", "fusion_lon": 0.0, "is_reserved": 0, "type": "electric_scooter", "name": "816ca185a632c0297196880c72107957", "lon": -77.023185, "rental_uris": {"android": "https://dc.lft.to/lastmile_qr_scan", "ios": "https://dc.lft.to/lastmile_qr_scan"}, "fusion_lat": 0.0}, {"is_disabled": 0, "lat": 38.8941165, "bike_id": "9afed68b362829365b39451f891471b6", "fusion_lon": 0.0, "is_reserved": 0, "type": "electric_scooter", "name": "9afed68b362829365b39451f891471b6", "lon": -76.99857966666667, "rental_uris": {"android": "https://dc.lft.to/lastmile_qr_scan", "ios": "https://dc.lft.to/lastmile_qr_scan"}, "fusion_lat": 0.0}, {"is_disabled": 0, "lat": 38.9204135, "bike_id": "1e9df2dfc94f487ff4faecb932e60eea", "fusion_lon": 0.0, "is_reserved": 0, "type": "electric_scooter", "name": "1e9df2dfc94f487ff4faecb932e60eea", "lon": -77.02439933333333, "rental_uris": {"android": "https://dc.lft.to/lastmile_qr_scan", "ios": "https://dc.lft.to/lastmile_qr_scan"}, "fusion_lat": 0.0}, {"is_disabled": 0, "lat": 38.916704, "bike_id": "0e3fc6d4baad260d451f065f8147a951", "fusion_lon": 0.0, "is_reserved": 0, "type": "electric_scooter", "name": "0e3fc6d4baad260d451f065f8147a951", "lon": -77.03690666666667, "rental_uris": {"android": "https://dc.lft.to/lastmile_qr_scan", "ios": "https://dc.lft.to/lastmile_qr_scan"}, "fusion_lat": 0.0}, {"is_disabled": 0, "lat": 38.89552166666667, "bike_id": "c1db1fef2219fae4bda19bcbbadfa488", "fusion_lon": 0.0, "is_reserved": 0, "type": "electric_scooter", "name": "c1db1fef2219fae4bda19bcbbadfa488", "lon": -76.94877216666667, "rental_uris": {"android": "https://dc.lft.to/lastmile_qr_scan", "ios": "https://dc.lft.to/lastmile_qr_scan"}, "fusion_lat": 0.0}, {"is_disabled": 0, "lat": 38.904621, "bike_id": "f38305e976590e21fff1dce10079d998", "fusion_lon": 0.0, "is_reserved": 0, "type": "electric_scooter", "name": "f38305e976590e21fff1dce10079d998", "lon": -76.98245266666666, "rental_uris": {"android": "https://dc.lft.to/lastmile_qr_scan", "ios": "https://dc.lft.to/lastmile_qr_scan"}, "fusion_lat": 0.0}, {"is_disabled": 0, "lat": 38.95405516666667, "bike_id": "438b067b5aae77cb24868ddcc8668294", "fusion_lon": 0.0, "is_reserved": 0, "type": "electric_scooter", "name": "438b067b5aae77cb24868ddcc8668294", "lon": -77.02696066666667, "rental_uris": {"android": "https://dc.lft.to/lastmile_qr_scan", "ios": "https://dc.lft.to/lastmile_qr_scan"}, "fusion_lat": 0.0}, {"is_disabled": 0, "lat": 38.89813, "bike_id": "79637714cfa87924365034458fb55a21", "fusion_lon": 0.0, "is_reserved": 0, "type": "electric_scooter", "name": "79637714cfa87924365034458fb55a21", "lon": -77.02680333333333, "rental_uris": {"android": "https://dc.lft.to/lastmile_qr_scan", "ios": "https://dc.lft.to/lastmile_qr_scan"}, "fusion_lat": 0.0}, {"is_disabled": 0, "lat": 38.896736, "bike_id": "9e518edaf046fda84dd00beaa7d11720", "fusion_lon": 0.0, "is_reserved": 0, "type": "electric_scooter", "name": "9e518edaf046fda84dd00beaa7d11720", "lon": -77.0507735, "rental_uris": {"android": "https://dc.lft.to/lastmile_qr_scan", "ios": "https://dc.lft.to/lastmile_qr_scan"}, "fusion_lat": 0.0}, {"is_disabled": 0, "lat": 38.898453833333335, "bike_id": "1326d7fddc7109dce599704162ce7c99", "fusion_lon": 0.0, "is_reserved": 0, "type": "electric_scooter", "name": "1326d7fddc7109dce599704162ce7c99", "lon": -76.9463385, "rental_uris": {"android": "https://dc.lft.to/lastmile_qr_scan", "ios": "https://dc.lft.to/lastmile_qr_scan"}, "fusion_lat": 0.0}, {"is_disabled": 0, "lat": 38.884919333333336, "bike_id": "8428359f2c926babedbf763bd2960cf5", "fusion_lon": 0.0, "is_reserved": 0, "type": "electric_scooter", "name": "8428359f2c926babedbf763bd2960cf5", "lon": -77.007278, "rental_uris": {"android": "https://dc.lft.to/lastmile_qr_scan", "ios": "https://dc.lft.to/lastmile_qr_scan"}, "fusion_lat": 0.0}, {"is_disabled": 0, "lat": 38.90672, "bike_id": "52f2e128a6ae2430275e3cc96127cb5c", "fusion_lon": 0.0, "is_reserved": 0, "type": "electric_scooter", "name": "52f2e128a6ae2430275e3cc96127cb5c", "lon": -77.050053, "rental_uris": {"android": "https://dc.lft.to/lastmile_qr_scan", "ios": "https://dc.lft.to/lastmile_qr_scan"}, "fusion_lat": 0.0}, {"is_disabled": 0, "lat": 38.89448466666666, "bike_id": "0857c33c0a5ed3ad045aa1709133b4fd", "fusion_lon": 0.0, "is_reserved": 0, "type": "electric_scooter", "name": "0857c33c0a5ed3ad045aa1709133b4fd", "lon": -77.02426233333334, "rental_uris": {"android": "https://dc.lft.to/lastmile_qr_scan", "ios": "https://dc.lft.to/lastmile_qr_scan"}, "fusion_lat": 0.0}, {"is_disabled": 0, "lat": 38.91417716666667, "bike_id": "51fc1973dd27741b3bfef26b0eb13f2d", "fusion_lon": 0.0, "is_reserved": 0, "type": "electric_scooter", "name": "51fc1973dd27741b3bfef26b0eb13f2d", "lon": -77.024023, "rental_uris": {"android": "https://dc.lft.to/lastmile_qr_scan", "ios": "https://dc.lft.to/lastmile_qr_scan"}, "fusion_lat": 0.0}, {"is_disabled": 0, "lat": 38.916369333333336, "bike_id": "d9947a22d08d2692e485e0b9dc7c3e85", "fusion_lon": 0.0, "is_reserved": 0, "type": "electric_scooter", "name": "d9947a22d08d2692e485e0b9dc7c3e85", "lon": -77.03202816666666, "rental_uris": {"android": "https://dc.lft.to/lastmile_qr_scan", "ios": "https://dc.lft.to/lastmile_qr_scan"}, "fusion_lat": 0.0}, {"is_disabled": 0, "lat": 38.931754833333336, "bike_id": "aeec4bfd97bb2227f70374cbd8b82a24", "fusion_lon": 0.0, "is_reserved": 0, "type": "electric_scooter", "name": "aeec4bfd97bb2227f70374cbd8b82a24", "lon": -77.070745, "rental_uris": {"android": "https://dc.lft.to/lastmile_qr_scan", "ios": "https://dc.lft.to/lastmile_qr_scan"}, "fusion_lat": 0.0}, {"is_disabled": 0, "lat": 38.899825666666665, "bike_id": "87776017d3a525f45c6b7a4e92f09749", "fusion_lon": 0.0, "is_reserved": 0, "type": "electric_scooter", "name": "87776017d3a525f45c6b7a4e92f09749", "lon": -77.02164216666667, "rental_uris": {"android": "https://dc.lft.to/lastmile_qr_scan", "ios": "https://dc.lft.to/lastmile_qr_scan"}, "fusion_lat": 0.0}, {"is_disabled": 0, "lat": 38.91707683333333, "bike_id": "40e58c03d2e5eeeca9031db12207504a", "fusion_lon": 0.0, "is_reserved": 0, "type": "electric_scooter", "name": "40e58c03d2e5eeeca9031db12207504a", "lon": -77.03876766666667, "rental_uris": {"android": "https://dc.lft.to/lastmile_qr_scan", "ios": "https://dc.lft.to/lastmile_qr_scan"}, "fusion_lat": 0.0}, {"is_disabled": 0, "lat": 38.906641666666665, "bike_id": "1378f4fb1f79cafa3b64fa0ea475c665", "fusion_lon": 0.0, "is_reserved": 0, "type": "electric_scooter", "name": "1378f4fb1f79cafa3b64fa0ea475c665", "lon": -77.02696666666667, "rental_uris": {"android": "https://dc.lft.to/lastmile_qr_scan", "ios": "https://dc.lft.to/lastmile_qr_scan"}, "fusion_lat": 0.0}, {"is_disabled": 0, "lat": 38.890455, "bike_id": "15486acc218ae573993eb6b522fd2377", "fusion_lon": 0.0, "is_reserved": 0, "type": "electric_scooter", "name": "15486acc218ae573993eb6b522fd2377", "lon": -76.937532, "rental_uris": {"android": "https://dc.lft.to/lastmile_qr_scan", "ios": "https://dc.lft.to/lastmile_qr_scan"}, "fusion_lat": 0.0}, {"is_disabled": 0, "lat": 38.914109833333335, "bike_id": "d9f58228f08a6d4d91a00ff0806ead88", "fusion_lon": 0.0, "is_reserved": 0, "type": "electric_scooter", "name": "d9f58228f08a6d4d91a00ff0806ead88", "lon": -77.00972366666667, "rental_uris": {"android": "https://dc.lft.to/lastmile_qr_scan", "ios": "https://dc.lft.to/lastmile_qr_scan"}, "fusion_lat": 0.0}, {"is_disabled": 0, "lat": 38.9090135, "bike_id": "f72c478f961172c86fcd83ad842a4d67", "fusion_lon": 0.0, "is_reserved": 0, "type": "electric_scooter", "name": "f72c478f961172c86fcd83ad842a4d67", "lon": -77.04387233333334, "rental_uris": {"android": "https://dc.lft.to/lastmile_qr_scan", "ios": "https://dc.lft.to/lastmile_qr_scan"}, "fusion_lat": 0.0}, {"is_disabled": 0, "lat": 38.927051666666664, "bike_id": "53d9410372c48b1a9c0cc715049be08a", "fusion_lon": 0.0, "is_reserved": 0, "type": "electric_scooter", "name": "53d9410372c48b1a9c0cc715049be08a", "lon": -77.02306416666667, "rental_uris": {"android": "https://dc.lft.to/lastmile_qr_scan", "ios": "https://dc.lft.to/lastmile_qr_scan"}, "fusion_lat": 0.0}, {"is_disabled": 0, "lat": 38.8924775, "bike_id": "442022992dde3a15e7644992fba2a26a", "fusion_lon": 0.0, "is_reserved": 0, "type": "electric_scooter", "name": "442022992dde3a15e7644992fba2a26a", "lon": -77.03956183333334, "rental_uris": {"android": "https://dc.lft.to/lastmile_qr_scan", "ios": "https://dc.lft.to/lastmile_qr_scan"}, "fusion_lat": 0.0}, {"is_disabled": 0, "lat": 38.91485433333333, "bike_id": "c1d77c657ee4f463614f9e3504a08a8b", "fusion_lon": 0.0, "is_reserved": 0, "type": "electric_scooter", "name": "c1d77c657ee4f463614f9e3504a08a8b", "lon": -76.98355866666667, "rental_uris": {"android": "https://dc.lft.to/lastmile_qr_scan", "ios": "https://dc.lft.to/lastmile_qr_scan"}, "fusion_lat": 0.0}, {"is_disabled": 0, "lat": 38.92493566666667, "bike_id": "49e65d140868796fbfac875f92575131", "fusion_lon": 0.0, "is_reserved": 0, "type": "electric_scooter", "name": "49e65d140868796fbfac875f92575131", "lon": -77.03495433333333, "rental_uris": {"android": "https://dc.lft.to/lastmile_qr_scan", "ios": "https://dc.lft.to/lastmile_qr_scan"}, "fusion_lat": 0.0}, {"is_disabled": 0, "lat": 38.91703733333333, "bike_id": "41ea977c153c212f280601a10aaa00f8", "fusion_lon": 0.0, "is_reserved": 0, "type": "electric_scooter", "name": "41ea977c153c212f280601a10aaa00f8", "lon": -77.03725933333334, "rental_uris": {"android": "https://dc.lft.to/lastmile_qr_scan", "ios": "https://dc.lft.to/lastmile_qr_scan"}, "fusion_lat": 0.0}, {"is_disabled": 0, "lat": 38.918058333333335, "bike_id": "0201a886ff37fa92c57be43b3dac79ab", "fusion_lon": 0.0, "is_reserved": 0, "type": "electric_scooter", "name": "0201a886ff37fa92c57be43b3dac79ab", "lon": -77.03438283333334, "rental_uris": {"android": "https://dc.lft.to/lastmile_qr_scan", "ios": "https://dc.lft.to/lastmile_qr_scan"}, "fusion_lat": 0.0}, {"is_disabled": 0, "lat": 38.930608, "bike_id": "87fbaccc194e009a147405b89c9d1575", "fusion_lon": 0.0, "is_reserved": 0, "type": "electric_scooter", "name": "87fbaccc194e009a147405b89c9d1575", "lon": -77.03667, "rental_uris": {"android": "https://dc.lft.to/lastmile_qr_scan", "ios": "https://dc.lft.to/lastmile_qr_scan"}, "fusion_lat": 0.0}, {"is_disabled": 0, "lat": 38.886172333333334, "bike_id": "6cb24f090bb667334a5ff413cda4a656", "fusion_lon": 0.0, "is_reserved": 0, "type": "electric_scooter", "name": "6cb24f090bb667334a5ff413cda4a656", "lon": -77.0158665, "rental_uris": {"android": "https://dc.lft.to/lastmile_qr_scan", "ios": "https://dc.lft.to/lastmile_qr_scan"}, "fusion_lat": 0.0}, {"is_disabled": 0, "lat": 39.02394483333333, "bike_id": "ff51200b950cf7d8b257dfd472ca4005", "fusion_lon": 0.0, "is_reserved": 0, "type": "electric_bike", "name": "ff51200b950cf7d8b257dfd472ca4005", "lon": -77.04692033333333, "rental_uris": {"android": "https://dc.lft.to/lastmile_qr_scan", "ios": "https://dc.lft.to/lastmile_qr_scan"}, "fusion_lat": 0.0}, {"is_disabled": 0, "lat": 38.85513816666667, "bike_id": "e01894808c8d65211f30e75dc2f69925", "fusion_lon": 0.0, "is_reserved": 0, "type": "electric_bike", "name": "e01894808c8d65211f30e75dc2f69925", "lon": -77.11150316666667, "rental_uris": {"android": "https://dc.lft.to/lastmile_qr_scan", "ios": "https://dc.lft.to/lastmile_qr_scan"}, "fusion_lat": 0.0}, {"is_disabled": 0, "lat": 38.887497, "bike_id": "2f4cb6936f0d2ecc2f10b7ee5330e22d", "fusion_lon": 0.0, "is_reserved": 0, "type": "electric_scooter", "name": "2f4cb6936f0d2ecc2f10b7ee5330e22d", "lon": -77.02863916666666, "rental_uris": {"android": "https://dc.lft.to/lastmile_qr_scan", "ios": "https://dc.lft.to/lastmile_qr_scan"}, "fusion_lat": 0.0}, {"is_disabled": 0, "lat": 38.893510166666665, "bike_id": "8f394ac8eec86b5ed55a94a94be6a998", "fusion_lon": 0.0, "is_reserved": 0, "type": "electric_bike", "name": "8f394ac8eec86b5ed55a94a94be6a998", "lon": -77.18743066666667, "rental_uris": {"android": "https://dc.lft.to/lastmile_qr_scan", "ios": "https://dc.lft.to/lastmile_qr_scan"}, "fusion_lat": 0.0}, {"is_disabled": 0, "lat": 38.90456566666667, "bike_id": "a99d1b82c37d5b481593cda16c4cd089", "fusion_lon": 0.0, "is_reserved": 0, "type": "electric_scooter", "name": "a99d1b82c37d5b481593cda16c4cd089", "lon": -77.0532215, "rental_uris": {"android": "https://dc.lft.to/lastmile_qr_scan", "ios": "https://dc.lft.to/lastmile_qr_scan"}, "fusion_lat": 0.0}, {"is_disabled": 0, "lat": 38.927474833333335, "bike_id": "a63448d90d5496af0eba4474c6e466c4", "fusion_lon": 0.0, "is_reserved": 0, "type": "electric_scooter", "name": "a63448d90d5496af0eba4474c6e466c4", "lon": -77.06463466666666, "rental_uris": {"android": "https://dc.lft.to/lastmile_qr_scan", "ios": "https://dc.lft.to/lastmile_qr_scan"}, "fusion_lat": 0.0}, {"is_disabled": 0, "lat": 38.86576566666667, "bike_id": "b0c34ff394417969a4cf91f7814a72a2", "fusion_lon": 0.0, "is_reserved": 0, "type": "electric_scooter", "name": "b0c34ff394417969a4cf91f7814a72a2", "lon": -76.97341233333333, "rental_uris": {"android": "https://dc.lft.to/lastmile_qr_scan", "ios": "https://dc.lft.to/lastmile_qr_scan"}, "fusion_lat": 0.0}, {"is_disabled": 0, "lat": 38.88648633333333, "bike_id": "c6d91756988cc3699b8cddb3afcb248b", "fusion_lon": 0.0, "is_reserved": 0, "type": "electric_scooter", "name": "c6d91756988cc3699b8cddb3afcb248b", "lon": -76.982312, "rental_uris": {"android": "https://dc.lft.to/lastmile_qr_scan", "ios": "https://dc.lft.to/lastmile_qr_scan"}, "fusion_lat": 0.0}, {"is_disabled": 0, "lat": 38.9043655, "bike_id": "30da2142b412fc334bfac8a0c195ea4b", "fusion_lon": 0.0, "is_reserved": 0, "type": "electric_scooter", "name": "30da2142b412fc334bfac8a0c195ea4b", "lon": -77.0628775, "rental_uris": {"android": "https://dc.lft.to/lastmile_qr_scan", "ios": "https://dc.lft.to/lastmile_qr_scan"}, "fusion_lat": 0.0}, {"is_disabled": 0, "lat": 38.917463166666664, "bike_id": "38b65b3ce67b3c33c35f0a50e580dc33", "fusion_lon": 0.0, "is_reserved": 0, "type": "electric_scooter", "name": "38b65b3ce67b3c33c35f0a50e580dc33", "lon": -77.03193783333333, "rental_uris": {"android": "https://dc.lft.to/lastmile_qr_scan", "ios": "https://dc.lft.to/lastmile_qr_scan"}, "fusion_lat": 0.0}, {"is_disabled": 0, "lat": 38.87181833333333, "bike_id": "7e7b73a94791b99b38d26733c869fa14", "fusion_lon": 0.0, "is_reserved": 0, "type": "electric_scooter", "name": "7e7b73a94791b99b38d26733c869fa14", "lon": -77.012212, "rental_uris": {"android": "https://dc.lft.to/lastmile_qr_scan", "ios": "https://dc.lft.to/lastmile_qr_scan"}, "fusion_lat": 0.0}, {"is_disabled": 0, "lat": 38.912642, "bike_id": "19eeeb191198aa55fff755f5b96a0a95", "fusion_lon": 0.0, "is_reserved": 0, "type": "electric_scooter", "name": "19eeeb191198aa55fff755f5b96a0a95", "lon": -77.04548383333334, "rental_uris": {"android": "https://dc.lft.to/lastmile_qr_scan", "ios": "https://dc.lft.to/lastmile_qr_scan"}, "fusion_lat": 0.0}, {"is_disabled": 0, "lat": 38.9207035, "bike_id": "e1beed657d12a0179bf49ca4a6a808ab", "fusion_lon": 0.0, "is_reserved": 0, "type": "electric_scooter", "name": "e1beed657d12a0179bf49ca4a6a808ab", "lon": -77.04355083333333, "rental_uris": {"android": "https://dc.lft.to/lastmile_qr_scan", "ios": "https://dc.lft.to/lastmile_qr_scan"}, "fusion_lat": 0.0}, {"is_disabled": 0, "lat": 38.87652466666667, "bike_id": "404f1e6e13a28c336bab630992abd79f", "fusion_lon": 0.0, "is_reserved": 0, "type": "electric_scooter", "name": "404f1e6e13a28c336bab630992abd79f", "lon": -77.00046983333333, "rental_uris": {"android": "https://dc.lft.to/lastmile_qr_scan", "ios": "https://dc.lft.to/lastmile_qr_scan"}, "fusion_lat": 0.0}, {"is_disabled": 0, "lat": 38.862241, "bike_id": "c3dc009c6d0e4130a012bbb3ca714594", "fusion_lon": 0.0, "is_reserved": 0, "type": "electric_scooter", "name": "c3dc009c6d0e4130a012bbb3ca714594", "lon": -76.994669, "rental_uris": {"android": "https://dc.lft.to/lastmile_qr_scan", "ios": "https://dc.lft.to/lastmile_qr_scan"}, "fusion_lat": 0.0}, {"is_disabled": 0, "lat": 38.92907616666667, "bike_id": "0cde8d2a1bc773ed9d8d8476ab730bcd", "fusion_lon": 0.0, "is_reserved": 0, "type": "electric_scooter", "name": "0cde8d2a1bc773ed9d8d8476ab730bcd", "lon": -77.06494583333334, "rental_uris": {"android": "https://dc.lft.to/lastmile_qr_scan", "ios": "https://dc.lft.to/lastmile_qr_scan"}, "fusion_lat": 0.0}, {"is_disabled": 0, "lat": 38.917565, "bike_id": "5f5cad026a217231571d1bbb58645e44", "fusion_lon": 0.0, "is_reserved": 0, "type": "electric_scooter", "name": "5f5cad026a217231571d1bbb58645e44", "lon": -77.0240175, "rental_uris": {"android": "https://dc.lft.to/lastmile_qr_scan", "ios": "https://dc.lft.to/lastmile_qr_scan"}, "fusion_lat": 0.0}, {"is_disabled": 0, "lat": 38.88970716666667, "bike_id": "8b36b7e25bf7bdd7d14cb314a3fa061c", "fusion_lon": 0.0, "is_reserved": 0, "type": "electric_scooter", "name": "8b36b7e25bf7bdd7d14cb314a3fa061c", "lon": -77.000758, "rental_uris": {"android": "https://dc.lft.to/lastmile_qr_scan", "ios": "https://dc.lft.to/lastmile_qr_scan"}, "fusion_lat": 0.0}, {"is_disabled": 0, "lat": 38.900283, "bike_id": "73eb9ce722cfd012fd68c622fa178f82", "fusion_lon": 0.0, "is_reserved": 0, "type": "electric_scooter", "name": "73eb9ce722cfd012fd68c622fa178f82", "lon": -77.04056033333333, "rental_uris": {"android": "https://dc.lft.to/lastmile_qr_scan", "ios": "https://dc.lft.to/lastmile_qr_scan"}, "fusion_lat": 0.0}, {"is_disabled": 0, "lat": 38.984297, "bike_id": "08483cb646f49e5993d503e7437c1cb4", "fusion_lon": 0.0, "is_reserved": 0, "type": "electric_scooter", "name": "08483cb646f49e5993d503e7437c1cb4", "lon": -77.02672633333333, "rental_uris": {"android": "https://dc.lft.to/lastmile_qr_scan", "ios": "https://dc.lft.to/lastmile_qr_scan"}, "fusion_lat": 0.0}, {"is_disabled": 0, "lat": 38.91836716666667, "bike_id": "f120924d1a2dd3a968d948d3f3d1e249", "fusion_lon": 0.0, "is_reserved": 0, "type": "electric_scooter", "name": "f120924d1a2dd3a968d948d3f3d1e249", "lon": -77.012088, "rental_uris": {"android": "https://dc.lft.to/lastmile_qr_scan", "ios": "https://dc.lft.to/lastmile_qr_scan"}, "fusion_lat": 0.0}, {"is_disabled": 0, "lat": 38.892289166666664, "bike_id": "6239f9acf3f8264726f75cc9b83be364", "fusion_lon": 0.0, "is_reserved": 0, "type": "electric_scooter", "name": "6239f9acf3f8264726f75cc9b83be364", "lon": -77.02595316666667, "rental_uris": {"android": "https://dc.lft.to/lastmile_qr_scan", "ios": "https://dc.lft.to/lastmile_qr_scan"}, "fusion_lat": 0.0}, {"is_disabled": 0, "lat": 38.913418666666665, "bike_id": "2e811c7318cf97689a01eb99e6a1dbb9", "fusion_lon": 0.0, "is_reserved": 0, "type": "electric_scooter", "name": "2e811c7318cf97689a01eb99e6a1dbb9", "lon": -77.04236466666667, "rental_uris": {"android": "https://dc.lft.to/lastmile_qr_scan", "ios": "https://dc.lft.to/lastmile_qr_scan"}, "fusion_lat": 0.0}, {"is_disabled": 0, "lat": 38.917130666666665, "bike_id": "ec9d6710bdfc769aed42b7f3675e5f32", "fusion_lon": 0.0, "is_reserved": 0, "type": "electric_scooter", "name": "ec9d6710bdfc769aed42b7f3675e5f32", "lon": -77.00888083333334, "rental_uris": {"android": "https://dc.lft.to/lastmile_qr_scan", "ios": "https://dc.lft.to/lastmile_qr_scan"}, "fusion_lat": 0.0}, {"is_disabled": 0, "lat": 38.85523716666667, "bike_id": "8013418d7423e8f344a8306ded5a8b11", "fusion_lon": 0.0, "is_reserved": 0, "type": "electric_bike", "name": "8013418d7423e8f344a8306ded5a8b11", "lon": -76.9843785, "rental_uris": {"android": "https://dc.lft.to/lastmile_qr_scan", "ios": "https://dc.lft.to/lastmile_qr_scan"}, "fusion_lat": 0.0}, {"is_disabled": 0, "lat": 38.86210483333333, "bike_id": "c678daa27c462dcea88dfd59ac846267", "fusion_lon": 0.0, "is_reserved": 0, "type": "electric_scooter", "name": "c678daa27c462dcea88dfd59ac846267", "lon": -76.9912905, "rental_uris": {"android": "https://dc.lft.to/lastmile_qr_scan", "ios": "https://dc.lft.to/lastmile_qr_scan"}, "fusion_lat": 0.0}, {"is_disabled": 0, "lat": 38.904007, "bike_id": "3d99bd7f3fbd508958dc2f80603f7b36", "fusion_lon": 0.0, "is_reserved": 0, "type": "electric_scooter", "name": "3d99bd7f3fbd508958dc2f80603f7b36", "lon": -77.04514966666666, "rental_uris": {"android": "https://dc.lft.to/lastmile_qr_scan", "ios": "https://dc.lft.to/lastmile_qr_scan"}, "fusion_lat": 0.0}, {"is_disabled": 0, "lat": 38.924573333333335, "bike_id": "cc16464707ea5980dd4945be328fce07", "fusion_lon": 0.0, "is_reserved": 0, "type": "electric_scooter", "name": "cc16464707ea5980dd4945be328fce07", "lon": -77.0411735, "rental_uris": {"android": "https://dc.lft.to/lastmile_qr_scan", "ios": "https://dc.lft.to/lastmile_qr_scan"}, "fusion_lat": 0.0}, {"is_disabled": 0, "lat": 38.928952, "bike_id": "6f5ce2135d63c0bab427941747140a00", "fusion_lon": 0.0, "is_reserved": 0, "type": "electric_scooter", "name": "6f5ce2135d63c0bab427941747140a00", "lon": -77.01611116666666, "rental_uris": {"android": "https://dc.lft.to/lastmile_qr_scan", "ios": "https://dc.lft.to/lastmile_qr_scan"}, "fusion_lat": 0.0}, {"is_disabled": 0, "lat": 38.864866666666664, "bike_id": "edae281b2cd509da9040bf28a8a86a5a", "fusion_lon": 0.0, "is_reserved": 0, "type": "electric_scooter", "name": "edae281b2cd509da9040bf28a8a86a5a", "lon": -77.01246316666666, "rental_uris": {"android": "https://dc.lft.to/lastmile_qr_scan", "ios": "https://dc.lft.to/lastmile_qr_scan"}, "fusion_lat": 0.0}, {"is_disabled": 0, "lat": 38.8626035, "bike_id": "29bfcbb8526a985c4ff59ea37a71900d", "fusion_lon": 0.0, "is_reserved": 0, "type": "electric_scooter", "name": "29bfcbb8526a985c4ff59ea37a71900d", "lon": -76.99549433333334, "rental_uris": {"android": "https://dc.lft.to/lastmile_qr_scan", "ios": "https://dc.lft.to/lastmile_qr_scan"}, "fusion_lat": 0.0}, {"is_disabled": 0, "lat": 38.955430666666665, "bike_id": "609f6b3c0ebe4fa5b22befb0f7791e50", "fusion_lon": 0.0, "is_reserved": 0, "type": "electric_bike", "name": "609f6b3c0ebe4fa5b22befb0f7791e50", "lon": -76.96855216666667, "rental_uris": {"android": "https://dc.lft.to/lastmile_qr_scan", "ios": "https://dc.lft.to/lastmile_qr_scan"}, "fusion_lat": 0.0}, {"is_disabled": 0, "lat": 38.89818233333333, "bike_id": "24eabb5fe66bc0647dbd8d539abda3ba", "fusion_lon": 0.0, "is_reserved": 0, "type": "electric_scooter", "name": "24eabb5fe66bc0647dbd8d539abda3ba", "lon": -77.02661, "rental_uris": {"android": "https://dc.lft.to/lastmile_qr_scan", "ios": "https://dc.lft.to/lastmile_qr_scan"}, "fusion_lat": 0.0}, {"is_disabled": 0, "lat": 38.91553183333333, "bike_id": "e2ad83b5e321a1da0c0f0cf236df3250", "fusion_lon": 0.0, "is_reserved": 0, "type": "electric_scooter", "name": "e2ad83b5e321a1da0c0f0cf236df3250", "lon": -77.03856916666666, "rental_uris": {"android": "https://dc.lft.to/lastmile_qr_scan", "ios": "https://dc.lft.to/lastmile_qr_scan"}, "fusion_lat": 0.0}, {"is_disabled": 0, "lat": 38.9125635, "bike_id": "2699e031b75cbfa629cdd46f978d1969", "fusion_lon": 0.0, "is_reserved": 0, "type": "electric_scooter", "name": "2699e031b75cbfa629cdd46f978d1969", "lon": -77.0317815, "rental_uris": {"android": "https://dc.lft.to/lastmile_qr_scan", "ios": "https://dc.lft.to/lastmile_qr_scan"}, "fusion_lat": 0.0}, {"is_disabled": 0, "lat": 38.876121833333336, "bike_id": "595c199e02448dc95ad4b4f7a56be8de", "fusion_lon": 0.0, "is_reserved": 0, "type": "electric_scooter", "name": "595c199e02448dc95ad4b4f7a56be8de", "lon": -76.93131083333333, "rental_uris": {"android": "https://dc.lft.to/lastmile_qr_scan", "ios": "https://dc.lft.to/lastmile_qr_scan"}, "fusion_lat": 0.0}, {"is_disabled": 0, "lat": 38.92472683333333, "bike_id": "561a4fa88defa566c865811afbaaf44e", "fusion_lon": 0.0, "is_reserved": 0, "type": "electric_scooter", "name": "561a4fa88defa566c865811afbaaf44e", "lon": -77.02111816666667, "rental_uris": {"android": "https://dc.lft.to/lastmile_qr_scan", "ios": "https://dc.lft.to/lastmile_qr_scan"}, "fusion_lat": 0.0}, {"is_disabled": 0, "lat": 38.926123, "bike_id": "c04a1ce62ead0910c5ea90ffff5346fb", "fusion_lon": 0.0, "is_reserved": 0, "type": "electric_scooter", "name": "c04a1ce62ead0910c5ea90ffff5346fb", "lon": -77.02168133333333, "rental_uris": {"android": "https://dc.lft.to/lastmile_qr_scan", "ios": "https://dc.lft.to/lastmile_qr_scan"}, "fusion_lat": 0.0}, {"is_disabled": 0, "lat": 38.91971483333333, "bike_id": "d1de88d028075d424681b0face013757", "fusion_lon": 0.0, "is_reserved": 0, "type": "electric_scooter", "name": "d1de88d028075d424681b0face013757", "lon": -77.0235455, "rental_uris": {"android": "https://dc.lft.to/lastmile_qr_scan", "ios": "https://dc.lft.to/lastmile_qr_scan"}, "fusion_lat": 0.0}, {"is_disabled": 0, "lat": 38.90099416666666, "bike_id": "bfe790d80b7d218c4675d6562602fbe0", "fusion_lon": 0.0, "is_reserved": 0, "type": "electric_scooter", "name": "bfe790d80b7d218c4675d6562602fbe0", "lon": -77.04865566666666, "rental_uris": {"android": "https://dc.lft.to/lastmile_qr_scan", "ios": "https://dc.lft.to/lastmile_qr_scan"}, "fusion_lat": 0.0}, {"is_disabled": 0, "lat": 38.90254783333334, "bike_id": "abc14d595b7f4000d1a6f95d17434b5f", "fusion_lon": 0.0, "is_reserved": 0, "type": "electric_scooter", "name": "abc14d595b7f4000d1a6f95d17434b5f", "lon": -77.02812316666666, "rental_uris": {"android": "https://dc.lft.to/lastmile_qr_scan", "ios": "https://dc.lft.to/lastmile_qr_scan"}, "fusion_lat": 0.0}, {"is_disabled": 0, "lat": 38.912738833333336, "bike_id": "dd2e46d756826c0b0f8a75c267b34dee", "fusion_lon": 0.0, "is_reserved": 0, "type": "electric_scooter", "name": "dd2e46d756826c0b0f8a75c267b34dee", "lon": -77.01982566666666, "rental_uris": {"android": "https://dc.lft.to/lastmile_qr_scan", "ios": "https://dc.lft.to/lastmile_qr_scan"}, "fusion_lat": 0.0}, {"is_disabled": 0, "lat": 38.92668916666667, "bike_id": "0b35a76acf4e541bfde1d3fe6deeed49", "fusion_lon": 0.0, "is_reserved": 0, "type": "electric_scooter", "name": "0b35a76acf4e541bfde1d3fe6deeed49", "lon": -76.9955355, "rental_uris": {"android": "https://dc.lft.to/lastmile_qr_scan", "ios": "https://dc.lft.to/lastmile_qr_scan"}, "fusion_lat": 0.0}, {"is_disabled": 0, "lat": 38.90566883333334, "bike_id": "b945d980a4b5f2e0b8616b971524a699", "fusion_lon": 0.0, "is_reserved": 0, "type": "electric_scooter", "name": "b945d980a4b5f2e0b8616b971524a699", "lon": -77.0196735, "rental_uris": {"android": "https://dc.lft.to/lastmile_qr_scan", "ios": "https://dc.lft.to/lastmile_qr_scan"}, "fusion_lat": 0.0}, {"is_disabled": 0, "lat": 38.90734583333333, "bike_id": "d24673c31f1a04b63f72b2cbc24d9a8c", "fusion_lon": 0.0, "is_reserved": 0, "type": "electric_scooter", "name": "d24673c31f1a04b63f72b2cbc24d9a8c", "lon": -77.03873266666666, "rental_uris": {"android": "https://dc.lft.to/lastmile_qr_scan", "ios": "https://dc.lft.to/lastmile_qr_scan"}, "fusion_lat": 0.0}, {"is_disabled": 0, "lat": 38.898649, "bike_id": "5fb39c87c74eb693b1a4b053136a5737", "fusion_lon": 0.0, "is_reserved": 0, "type": "electric_scooter", "name": "5fb39c87c74eb693b1a4b053136a5737", "lon": -77.0035525, "rental_uris": {"android": "https://dc.lft.to/lastmile_qr_scan", "ios": "https://dc.lft.to/lastmile_qr_scan"}, "fusion_lat": 0.0}, {"is_disabled": 0, "lat": 38.930794, "bike_id": "bb3349b6620011640c1291df470c9f05", "fusion_lon": 0.0, "is_reserved": 0, "type": "electric_scooter", "name": "bb3349b6620011640c1291df470c9f05", "lon": -77.03429583333333, "rental_uris": {"android": "https://dc.lft.to/lastmile_qr_scan", "ios": "https://dc.lft.to/lastmile_qr_scan"}, "fusion_lat": 0.0}, {"is_disabled": 0, "lat": 38.936096166666665, "bike_id": "0fb698916aee71e568fed94489f7e497", "fusion_lon": 0.0, "is_reserved": 0, "type": "electric_scooter", "name": "0fb698916aee71e568fed94489f7e497", "lon": -77.05588416666667, "rental_uris": {"android": "https://dc.lft.to/lastmile_qr_scan", "ios": "https://dc.lft.to/lastmile_qr_scan"}, "fusion_lat": 0.0}, {"is_disabled": 0, "lat": 38.92404483333333, "bike_id": "92fc00cb39f68f62e297c9c7eb3eccbb", "fusion_lon": 0.0, "is_reserved": 0, "type": "electric_scooter", "name": "92fc00cb39f68f62e297c9c7eb3eccbb", "lon": -77.0448395, "rental_uris": {"android": "https://dc.lft.to/lastmile_qr_scan", "ios": "https://dc.lft.to/lastmile_qr_scan"}, "fusion_lat": 0.0}, {"is_disabled": 0, "lat": 38.830444666666665, "bike_id": "4f9b5dfa82c63a63d483eb753fe3411e", "fusion_lon": 0.0, "is_reserved": 0, "type": "electric_scooter", "name": "4f9b5dfa82c63a63d483eb753fe3411e", "lon": -77.01242516666667, "rental_uris": {"android": "https://dc.lft.to/lastmile_qr_scan", "ios": "https://dc.lft.to/lastmile_qr_scan"}, "fusion_lat": 0.0}, {"is_disabled": 0, "lat": 38.91548183333333, "bike_id": "bc80ac0c4dec47f2d427c4186856a4af", "fusion_lon": 0.0, "is_reserved": 0, "type": "electric_scooter", "name": "bc80ac0c4dec47f2d427c4186856a4af", "lon": -77.04479183333333, "rental_uris": {"android": "https://dc.lft.to/lastmile_qr_scan", "ios": "https://dc.lft.to/lastmile_qr_scan"}, "fusion_lat": 0.0}, {"is_disabled": 0, "lat": 38.892427, "bike_id": "73f577b949cb826754f2cf4b7d85cc6b", "fusion_lon": 0.0, "is_reserved": 0, "type": "electric_scooter", "name": "73f577b949cb826754f2cf4b7d85cc6b", "lon": -77.03956283333333, "rental_uris": {"android": "https://dc.lft.to/lastmile_qr_scan", "ios": "https://dc.lft.to/lastmile_qr_scan"}, "fusion_lat": 0.0}, {"is_disabled": 0, "lat": 38.9205885, "bike_id": "7f528dc7d0f87367f6a4abec0143c136", "fusion_lon": 0.0, "is_reserved": 0, "type": "electric_scooter", "name": "7f528dc7d0f87367f6a4abec0143c136", "lon": -77.03483233333333, "rental_uris": {"android": "https://dc.lft.to/lastmile_qr_scan", "ios": "https://dc.lft.to/lastmile_qr_scan"}, "fusion_lat": 0.0}, {"is_disabled": 0, "lat": 38.916038, "bike_id": "1846dd38e94cd76afbead07f4fa54655", "fusion_lon": 0.0, "is_reserved": 0, "type": "electric_scooter", "name": "1846dd38e94cd76afbead07f4fa54655", "lon": -77.04605033333333, "rental_uris": {"android": "https://dc.lft.to/lastmile_qr_scan", "ios": "https://dc.lft.to/lastmile_qr_scan"}, "fusion_lat": 0.0}, {"is_disabled": 0, "lat": 38.895735333333334, "bike_id": "e804cbbe015a6ec521c8205497c607c6", "fusion_lon": 0.0, "is_reserved": 0, "type": "electric_scooter", "name": "e804cbbe015a6ec521c8205497c607c6", "lon": -77.0441655, "rental_uris": {"android": "https://dc.lft.to/lastmile_qr_scan", "ios": "https://dc.lft.to/lastmile_qr_scan"}, "fusion_lat": 0.0}, {"is_disabled": 0, "lat": 38.90250283333334, "bike_id": "bb9e9951215361d08e2b45d89af178f3", "fusion_lon": 0.0, "is_reserved": 0, "type": "electric_scooter", "name": "bb9e9951215361d08e2b45d89af178f3", "lon": -77.04840833333333, "rental_uris": {"android": "https://dc.lft.to/lastmile_qr_scan", "ios": "https://dc.lft.to/lastmile_qr_scan"}, "fusion_lat": 0.0}, {"is_disabled": 0, "lat": 38.9038505, "bike_id": "5341847cff82e9ffc6ab8078a6d90cb4", "fusion_lon": 0.0, "is_reserved": 0, "type": "electric_scooter", "name": "5341847cff82e9ffc6ab8078a6d90cb4", "lon": -77.03855166666666, "rental_uris": {"android": "https://dc.lft.to/lastmile_qr_scan", "ios": "https://dc.lft.to/lastmile_qr_scan"}, "fusion_lat": 0.0}, {"is_disabled": 0, "lat": 38.900742, "bike_id": "02892102179b8b9c9ed7725bab86e51e", "fusion_lon": 0.0, "is_reserved": 0, "type": "electric_scooter", "name": "02892102179b8b9c9ed7725bab86e51e", "lon": -77.048934, "rental_uris": {"android": "https://dc.lft.to/lastmile_qr_scan", "ios": "https://dc.lft.to/lastmile_qr_scan"}, "fusion_lat": 0.0}, {"is_disabled": 0, "lat": 38.88370166666667, "bike_id": "901ec1aa55ce846049d220905fd67f04", "fusion_lon": 0.0, "is_reserved": 0, "type": "electric_scooter", "name": "901ec1aa55ce846049d220905fd67f04", "lon": -76.99531866666666, "rental_uris": {"android": "https://dc.lft.to/lastmile_qr_scan", "ios": "https://dc.lft.to/lastmile_qr_scan"}, "fusion_lat": 0.0}, {"is_disabled": 0, "lat": 38.933444, "bike_id": "34a9895a27111dddf0275cc1e3b56aeb", "fusion_lon": 0.0, "is_reserved": 0, "type": "electric_scooter", "name": "34a9895a27111dddf0275cc1e3b56aeb", "lon": -77.028553, "rental_uris": {"android": "https://dc.lft.to/lastmile_qr_scan", "ios": "https://dc.lft.to/lastmile_qr_scan"}, "fusion_lat": 0.0}, {"is_disabled": 0, "lat": 38.91274416666667, "bike_id": "e2d15f93531b109ba668acc22e1c180d", "fusion_lon": 0.0, "is_reserved": 0, "type": "electric_scooter", "name": "e2d15f93531b109ba668acc22e1c180d", "lon": -77.022476, "rental_uris": {"android": "https://dc.lft.to/lastmile_qr_scan", "ios": "https://dc.lft.to/lastmile_qr_scan"}, "fusion_lat": 0.0}, {"is_disabled": 0, "lat": 38.90360866666666, "bike_id": "e75fd63a1abe4150808620a570d867fe", "fusion_lon": 0.0, "is_reserved": 0, "type": "electric_scooter", "name": "e75fd63a1abe4150808620a570d867fe", "lon": -77.01113983333333, "rental_uris": {"android": "https://dc.lft.to/lastmile_qr_scan", "ios": "https://dc.lft.to/lastmile_qr_scan"}, "fusion_lat": 0.0}, {"is_disabled": 0, "lat": 38.93002833333333, "bike_id": "7b4f27a14701a001f503e8595b594e83", "fusion_lon": 0.0, "is_reserved": 0, "type": "electric_scooter", "name": "7b4f27a14701a001f503e8595b594e83", "lon": -77.01300933333333, "rental_uris": {"android": "https://dc.lft.to/lastmile_qr_scan", "ios": "https://dc.lft.to/lastmile_qr_scan"}, "fusion_lat": 0.0}, {"is_disabled": 0, "lat": 38.9041745, "bike_id": "519e1deb43cf65fa1c7df24c57117a0a", "fusion_lon": 0.0, "is_reserved": 0, "type": "electric_scooter", "name": "519e1deb43cf65fa1c7df24c57117a0a", "lon": -77.046475, "rental_uris": {"android": "https://dc.lft.to/lastmile_qr_scan", "ios": "https://dc.lft.to/lastmile_qr_scan"}, "fusion_lat": 0.0}, {"is_disabled": 0, "lat": 38.8977165, "bike_id": "932eb309cde2e06021204b5499de1d0a", "fusion_lon": 0.0, "is_reserved": 0, "type": "electric_scooter", "name": "932eb309cde2e06021204b5499de1d0a", "lon": -77.03212216666667, "rental_uris": {"android": "https://dc.lft.to/lastmile_qr_scan", "ios": "https://dc.lft.to/lastmile_qr_scan"}, "fusion_lat": 0.0}, {"is_disabled": 0, "lat": 38.955986833333334, "bike_id": "1a94c237267634e81f9b30e5010f3655", "fusion_lon": 0.0, "is_reserved": 0, "type": "electric_scooter", "name": "1a94c237267634e81f9b30e5010f3655", "lon": -77.00634333333333, "rental_uris": {"android": "https://dc.lft.to/lastmile_qr_scan", "ios": "https://dc.lft.to/lastmile_qr_scan"}, "fusion_lat": 0.0}, {"is_disabled": 0, "lat": 38.917834166666665, "bike_id": "ba783babcb106e48d7dbbf5f69d677b4", "fusion_lon": 0.0, "is_reserved": 0, "type": "electric_scooter", "name": "ba783babcb106e48d7dbbf5f69d677b4", "lon": -77.02320833333333, "rental_uris": {"android": "https://dc.lft.to/lastmile_qr_scan", "ios": "https://dc.lft.to/lastmile_qr_scan"}, "fusion_lat": 0.0}, {"is_disabled": 0, "lat": 38.89722966666667, "bike_id": "61cbc58e2941409790e37ff2c1a1d81f", "fusion_lon": 0.0, "is_reserved": 0, "type": "electric_scooter", "name": "61cbc58e2941409790e37ff2c1a1d81f", "lon": -77.02780733333333, "rental_uris": {"android": "https://dc.lft.to/lastmile_qr_scan", "ios": "https://dc.lft.to/lastmile_qr_scan"}, "fusion_lat": 0.0}, {"is_disabled": 0, "lat": 38.91420766666667, "bike_id": "3f85909fc78ead5066474f682198f617", "fusion_lon": 0.0, "is_reserved": 0, "type": "electric_scooter", "name": "3f85909fc78ead5066474f682198f617", "lon": -77.02402916666666, "rental_uris": {"android": "https://dc.lft.to/lastmile_qr_scan", "ios": "https://dc.lft.to/lastmile_qr_scan"}, "fusion_lat": 0.0}, {"is_disabled": 0, "lat": 38.921360166666666, "bike_id": "ccd4c8186158eae435ba2599d4be8b37", "fusion_lon": 0.0, "is_reserved": 0, "type": "electric_scooter", "name": "ccd4c8186158eae435ba2599d4be8b37", "lon": -77.00404533333334, "rental_uris": {"android": "https://dc.lft.to/lastmile_qr_scan", "ios": "https://dc.lft.to/lastmile_qr_scan"}, "fusion_lat": 0.0}, {"is_disabled": 0, "lat": 38.949153333333335, "bike_id": "c0a3942e50ed02b14e39f7438f29cf62", "fusion_lon": 0.0, "is_reserved": 0, "type": "electric_bike", "name": "c0a3942e50ed02b14e39f7438f29cf62", "lon": -76.97705433333333, "rental_uris": {"android": "https://dc.lft.to/lastmile_qr_scan", "ios": "https://dc.lft.to/lastmile_qr_scan"}, "fusion_lat": 0.0}, {"is_disabled": 0, "lat": 38.8785375, "bike_id": "42cff6c5e1cc8b1013408e7d3dfbef92", "fusion_lon": 0.0, "is_reserved": 0, "type": "electric_scooter", "name": "42cff6c5e1cc8b1013408e7d3dfbef92", "lon": -77.01749183333334, "rental_uris": {"android": "https://dc.lft.to/lastmile_qr_scan", "ios": "https://dc.lft.to/lastmile_qr_scan"}, "fusion_lat": 0.0}, {"is_disabled": 0, "lat": 38.887569, "bike_id": "6c4f31f01b6a10d3035339d261692e12", "fusion_lon": 0.0, "is_reserved": 0, "type": "electric_scooter", "name": "6c4f31f01b6a10d3035339d261692e12", "lon": -77.0316415, "rental_uris": {"android": "https://dc.lft.to/lastmile_qr_scan", "ios": "https://dc.lft.to/lastmile_qr_scan"}, "fusion_lat": 0.0}, {"is_disabled": 0, "lat": 38.907247166666664, "bike_id": "36ae21411eb4eadf6851fcecb3d18a5e", "fusion_lon": 0.0, "is_reserved": 0, "type": "electric_scooter", "name": "36ae21411eb4eadf6851fcecb3d18a5e", "lon": -77.0501585, "rental_uris": {"android": "https://dc.lft.to/lastmile_qr_scan", "ios": "https://dc.lft.to/lastmile_qr_scan"}, "fusion_lat": 0.0}, {"is_disabled": 0, "lat": 38.939545, "bike_id": "92bf489919836b11d2b821b7d7c28b3f", "fusion_lon": 0.0, "is_reserved": 0, "type": "electric_bike", "name": "92bf489919836b11d2b821b7d7c28b3f", "lon": -77.36086566666667, "rental_uris": {"android": "https://dc.lft.to/lastmile_qr_scan", "ios": "https://dc.lft.to/lastmile_qr_scan"}, "fusion_lat": 0.0}, {"is_disabled": 0, "lat": 38.88519866666667, "bike_id": "a96ad2795ae6ca4d413e5b784284d2cb", "fusion_lon": 0.0, "is_reserved": 0, "type": "electric_scooter", "name": "a96ad2795ae6ca4d413e5b784284d2cb", "lon": -77.00601533333334, "rental_uris": {"android": "https://dc.lft.to/lastmile_qr_scan", "ios": "https://dc.lft.to/lastmile_qr_scan"}, "fusion_lat": 0.0}, {"is_disabled": 0, "lat": 38.91662866666667, "bike_id": "e33df1bfc880528bf2ca493d56abeea1", "fusion_lon": 0.0, "is_reserved": 0, "type": "electric_scooter", "name": "e33df1bfc880528bf2ca493d56abeea1", "lon": -77.041818, "rental_uris": {"android": "https://dc.lft.to/lastmile_qr_scan", "ios": "https://dc.lft.to/lastmile_qr_scan"}, "fusion_lat": 0.0}, {"is_disabled": 0, "lat": 38.902696, "bike_id": "c202af8d273a70986b182c389844343b", "fusion_lon": 0.0, "is_reserved": 0, "type": "electric_scooter", "name": "c202af8d273a70986b182c389844343b", "lon": -77.03865233333333, "rental_uris": {"android": "https://dc.lft.to/lastmile_qr_scan", "ios": "https://dc.lft.to/lastmile_qr_scan"}, "fusion_lat": 0.0}, {"is_disabled": 0, "lat": 38.903802, "bike_id": "a2dabb2cef32a7f00ea75c9f14e3c274", "fusion_lon": 0.0, "is_reserved": 0, "type": "electric_scooter", "name": "a2dabb2cef32a7f00ea75c9f14e3c274", "lon": -77.0364695, "rental_uris": {"android": "https://dc.lft.to/lastmile_qr_scan", "ios": "https://dc.lft.to/lastmile_qr_scan"}, "fusion_lat": 0.0}, {"is_disabled": 0, "lat": 38.962259333333336, "bike_id": "fa7a0250704357330e37262dc4f8ccd8", "fusion_lon": 0.0, "is_reserved": 0, "type": "electric_bike", "name": "fa7a0250704357330e37262dc4f8ccd8", "lon": -77.02629516666667, "rental_uris": {"android": "https://dc.lft.to/lastmile_qr_scan", "ios": "https://dc.lft.to/lastmile_qr_scan"}, "fusion_lat": 0.0}, {"is_disabled": 0, "lat": 38.9382795, "bike_id": "69c678b1fafaf08e3b99c9191656b518", "fusion_lon": 0.0, "is_reserved": 0, "type": "electric_scooter", "name": "69c678b1fafaf08e3b99c9191656b518", "lon": -76.98613816666666, "rental_uris": {"android": "https://dc.lft.to/lastmile_qr_scan", "ios": "https://dc.lft.to/lastmile_qr_scan"}, "fusion_lat": 0.0}, {"is_disabled": 0, "lat": 38.9062905, "bike_id": "41c3118b706ad6f2d8bff997b33ca87c", "fusion_lon": 0.0, "is_reserved": 0, "type": "electric_scooter", "name": "41c3118b706ad6f2d8bff997b33ca87c", "lon": -77.024984, "rental_uris": {"android": "https://dc.lft.to/lastmile_qr_scan", "ios": "https://dc.lft.to/lastmile_qr_scan"}, "fusion_lat": 0.0}, {"is_disabled": 0, "lat": 38.89040816666667, "bike_id": "d8411900c7822825c389f2ae776ddbe2", "fusion_lon": 0.0, "is_reserved": 0, "type": "electric_scooter", "name": "d8411900c7822825c389f2ae776ddbe2", "lon": -76.9514635, "rental_uris": {"android": "https://dc.lft.to/lastmile_qr_scan", "ios": "https://dc.lft.to/lastmile_qr_scan"}, "fusion_lat": 0.0}, {"is_disabled": 0, "lat": 38.899486333333336, "bike_id": "75d71131bcedbfc74b23f177b8ea152d", "fusion_lon": 0.0, "is_reserved": 0, "type": "electric_scooter", "name": "75d71131bcedbfc74b23f177b8ea152d", "lon": -77.04323366666667, "rental_uris": {"android": "https://dc.lft.to/lastmile_qr_scan", "ios": "https://dc.lft.to/lastmile_qr_scan"}, "fusion_lat": 0.0}, {"is_disabled": 0, "lat": 38.8810425, "bike_id": "031dcab646ff060482f219fbd927a952", "fusion_lon": 0.0, "is_reserved": 0, "type": "electric_scooter", "name": "031dcab646ff060482f219fbd927a952", "lon": -76.994976, "rental_uris": {"android": "https://dc.lft.to/lastmile_qr_scan", "ios": "https://dc.lft.to/lastmile_qr_scan"}, "fusion_lat": 0.0}, {"is_disabled": 0, "lat": 38.91064033333333, "bike_id": "19a48c129fdd450bc048324e74146d4c", "fusion_lon": 0.0, "is_reserved": 0, "type": "electric_scooter", "name": "19a48c129fdd450bc048324e74146d4c", "lon": -77.054792, "rental_uris": {"android": "https://dc.lft.to/lastmile_qr_scan", "ios": "https://dc.lft.to/lastmile_qr_scan"}, "fusion_lat": 0.0}, {"is_disabled": 0, "lat": 38.96227183333333, "bike_id": "a7f3eb0e414c32230a57a983c3290118", "fusion_lon": 0.0, "is_reserved": 0, "type": "electric_bike", "name": "a7f3eb0e414c32230a57a983c3290118", "lon": -77.02631466666666, "rental_uris": {"android": "https://dc.lft.to/lastmile_qr_scan", "ios": "https://dc.lft.to/lastmile_qr_scan"}, "fusion_lat": 0.0}, {"is_disabled": 0, "lat": 38.9497045, "bike_id": "ce95d2aa0343e429b6f057fd8b6f3fb4", "fusion_lon": 0.0, "is_reserved": 0, "type": "electric_scooter", "name": "ce95d2aa0343e429b6f057fd8b6f3fb4", "lon": -77.06656516666666, "rental_uris": {"android": "https://dc.lft.to/lastmile_qr_scan", "ios": "https://dc.lft.to/lastmile_qr_scan"}, "fusion_lat": 0.0}, {"is_disabled": 0, "lat": 38.9167945, "bike_id": "493a9e2065014f5eabc15bb0404f51ec", "fusion_lon": 0.0, "is_reserved": 0, "type": "electric_scooter", "name": "493a9e2065014f5eabc15bb0404f51ec", "lon": -77.02959533333333, "rental_uris": {"android": "https://dc.lft.to/lastmile_qr_scan", "ios": "https://dc.lft.to/lastmile_qr_scan"}, "fusion_lat": 0.0}, {"is_disabled": 0, "lat": 38.91711133333333, "bike_id": "24bd2e35fd543cbc367ab37806c34c49", "fusion_lon": 0.0, "is_reserved": 0, "type": "electric_scooter", "name": "24bd2e35fd543cbc367ab37806c34c49", "lon": -77.024179, "rental_uris": {"android": "https://dc.lft.to/lastmile_qr_scan", "ios": "https://dc.lft.to/lastmile_qr_scan"}, "fusion_lat": 0.0}, {"is_disabled": 0, "lat": 38.89275133333334, "bike_id": "e5a4e3012826fd6ec8b76d28010ad60c", "fusion_lon": 0.0, "is_reserved": 0, "type": "electric_bike", "name": "e5a4e3012826fd6ec8b76d28010ad60c", "lon": -77.001957, "rental_uris": {"android": "https://dc.lft.to/lastmile_qr_scan", "ios": "https://dc.lft.to/lastmile_qr_scan"}, "fusion_lat": 0.0}, {"is_disabled": 0, "lat": 38.871113333333334, "bike_id": "e0a77e812b81149a9fbb78d6da1ffef6", "fusion_lon": 0.0, "is_reserved": 0, "type": "electric_scooter", "name": "e0a77e812b81149a9fbb78d6da1ffef6", "lon": -76.965994, "rental_uris": {"android": "https://dc.lft.to/lastmile_qr_scan", "ios": "https://dc.lft.to/lastmile_qr_scan"}, "fusion_lat": 0.0}, {"is_disabled": 0, "lat": 38.938639333333334, "bike_id": "eaa7e61c9997f589d3c8e30570dd5f8c", "fusion_lon": 0.0, "is_reserved": 0, "type": "electric_scooter", "name": "eaa7e61c9997f589d3c8e30570dd5f8c", "lon": -77.0249425, "rental_uris": {"android": "https://dc.lft.to/lastmile_qr_scan", "ios": "https://dc.lft.to/lastmile_qr_scan"}, "fusion_lat": 0.0}, {"is_disabled": 0, "lat": 38.9543105, "bike_id": "5c4768256d3b217f14fecae16daac788", "fusion_lon": 0.0, "is_reserved": 0, "type": "electric_scooter", "name": "5c4768256d3b217f14fecae16daac788", "lon": -77.02766933333334, "rental_uris": {"android": "https://dc.lft.to/lastmile_qr_scan", "ios": "https://dc.lft.to/lastmile_qr_scan"}, "fusion_lat": 0.0}, {"is_disabled": 0, "lat": 38.92427433333334, "bike_id": "7240699bbfb929142a76173c402c6505", "fusion_lon": 0.0, "is_reserved": 0, "type": "electric_scooter", "name": "7240699bbfb929142a76173c402c6505", "lon": -77.019575, "rental_uris": {"android": "https://dc.lft.to/lastmile_qr_scan", "ios": "https://dc.lft.to/lastmile_qr_scan"}, "fusion_lat": 0.0}, {"is_disabled": 0, "lat": 38.921519833333335, "bike_id": "178576dc6aa8b48a3bee6a1d5af321b9", "fusion_lon": 0.0, "is_reserved": 0, "type": "electric_scooter", "name": "178576dc6aa8b48a3bee6a1d5af321b9", "lon": -77.03869183333333, "rental_uris": {"android": "https://dc.lft.to/lastmile_qr_scan", "ios": "https://dc.lft.to/lastmile_qr_scan"}, "fusion_lat": 0.0}, {"is_disabled": 0, "lat": 38.896264333333335, "bike_id": "c98e2d4a68739e10828ab44319e356fe", "fusion_lon": 0.0, "is_reserved": 0, "type": "electric_scooter", "name": "c98e2d4a68739e10828ab44319e356fe", "lon": -77.02389516666666, "rental_uris": {"android": "https://dc.lft.to/lastmile_qr_scan", "ios": "https://dc.lft.to/lastmile_qr_scan"}, "fusion_lat": 0.0}, {"is_disabled": 0, "lat": 38.930644666666666, "bike_id": "525d3262b564aaa995c154ba4b664163", "fusion_lon": 0.0, "is_reserved": 0, "type": "electric_scooter", "name": "525d3262b564aaa995c154ba4b664163", "lon": -77.07276283333333, "rental_uris": {"android": "https://dc.lft.to/lastmile_qr_scan", "ios": "https://dc.lft.to/lastmile_qr_scan"}, "fusion_lat": 0.0}, {"is_disabled": 0, "lat": 38.917267333333335, "bike_id": "3679fc36113f6e6254c08d486451f9e5", "fusion_lon": 0.0, "is_reserved": 0, "type": "electric_scooter", "name": "3679fc36113f6e6254c08d486451f9e5", "lon": -77.0361835, "rental_uris": {"android": "https://dc.lft.to/lastmile_qr_scan", "ios": "https://dc.lft.to/lastmile_qr_scan"}, "fusion_lat": 0.0}, {"is_disabled": 0, "lat": 38.91820283333333, "bike_id": "2ed66d75b958f6fcb0c89284f1bab7d7", "fusion_lon": 0.0, "is_reserved": 0, "type": "electric_scooter", "name": "2ed66d75b958f6fcb0c89284f1bab7d7", "lon": -77.04000116666667, "rental_uris": {"android": "https://dc.lft.to/lastmile_qr_scan", "ios": "https://dc.lft.to/lastmile_qr_scan"}, "fusion_lat": 0.0}, {"is_disabled": 0, "lat": 38.86458833333333, "bike_id": "0f030021034a6ef9ed706a780181b8b3", "fusion_lon": 0.0, "is_reserved": 0, "type": "electric_scooter", "name": "0f030021034a6ef9ed706a780181b8b3", "lon": -76.97640783333334, "rental_uris": {"android": "https://dc.lft.to/lastmile_qr_scan", "ios": "https://dc.lft.to/lastmile_qr_scan"}, "fusion_lat": 0.0}, {"is_disabled": 0, "lat": 38.907604666666664, "bike_id": "22af2daa44c1646f17bc2adb4b1d7a8d", "fusion_lon": 0.0, "is_reserved": 0, "type": "electric_scooter", "name": "22af2daa44c1646f17bc2adb4b1d7a8d", "lon": -76.99913133333334, "rental_uris": {"android": "https://dc.lft.to/lastmile_qr_scan", "ios": "https://dc.lft.to/lastmile_qr_scan"}, "fusion_lat": 0.0}, {"is_disabled": 0, "lat": 38.924142833333335, "bike_id": "3b3895366dc3700a07a61622b111bdac", "fusion_lon": 0.0, "is_reserved": 0, "type": "electric_scooter", "name": "3b3895366dc3700a07a61622b111bdac", "lon": -77.02008966666666, "rental_uris": {"android": "https://dc.lft.to/lastmile_qr_scan", "ios": "https://dc.lft.to/lastmile_qr_scan"}, "fusion_lat": 0.0}, {"is_disabled": 0, "lat": 38.8960765, "bike_id": "ff06ef2ce4a502c35680e9f742065474", "fusion_lon": 0.0, "is_reserved": 0, "type": "electric_scooter", "name": "ff06ef2ce4a502c35680e9f742065474", "lon": -77.00926483333333, "rental_uris": {"android": "https://dc.lft.to/lastmile_qr_scan", "ios": "https://dc.lft.to/lastmile_qr_scan"}, "fusion_lat": 0.0}, {"is_disabled": 0, "lat": 38.840914, "bike_id": "d872dd7ea1788d5f263fa70a1b56eaa2", "fusion_lon": 0.0, "is_reserved": 0, "type": "electric_bike", "name": "d872dd7ea1788d5f263fa70a1b56eaa2", "lon": -77.076903, "rental_uris": {"android": "https://dc.lft.to/lastmile_qr_scan", "ios": "https://dc.lft.to/lastmile_qr_scan"}, "fusion_lat": 0.0}, {"is_disabled": 0, "lat": 38.907598, "bike_id": "56926f141522c1173f6dd80a302e2c34", "fusion_lon": 0.0, "is_reserved": 0, "type": "electric_scooter", "name": "56926f141522c1173f6dd80a302e2c34", "lon": -77.04320866666667, "rental_uris": {"android": "https://dc.lft.to/lastmile_qr_scan", "ios": "https://dc.lft.to/lastmile_qr_scan"}, "fusion_lat": 0.0}, {"is_disabled": 0, "lat": 38.903580166666664, "bike_id": "b4704614017f82b24a7876bd94a579dd", "fusion_lon": 0.0, "is_reserved": 0, "type": "electric_scooter", "name": "b4704614017f82b24a7876bd94a579dd", "lon": -77.04351266666667, "rental_uris": {"android": "https://dc.lft.to/lastmile_qr_scan", "ios": "https://dc.lft.to/lastmile_qr_scan"}, "fusion_lat": 0.0}, {"is_disabled": 0, "lat": 38.91801383333333, "bike_id": "f3e7d322816e92c84b21be56ec9fd582", "fusion_lon": 0.0, "is_reserved": 0, "type": "electric_scooter", "name": "f3e7d322816e92c84b21be56ec9fd582", "lon": -77.03174283333334, "rental_uris": {"android": "https://dc.lft.to/lastmile_qr_scan", "ios": "https://dc.lft.to/lastmile_qr_scan"}, "fusion_lat": 0.0}, {"is_disabled": 0, "lat": 38.9204095, "bike_id": "8b5f174ab9e1c6eba31293bcbea8e407", "fusion_lon": 0.0, "is_reserved": 0, "type": "electric_scooter", "name": "8b5f174ab9e1c6eba31293bcbea8e407", "lon": -77.0300495, "rental_uris": {"android": "https://dc.lft.to/lastmile_qr_scan", "ios": "https://dc.lft.to/lastmile_qr_scan"}, "fusion_lat": 0.0}, {"is_disabled": 0, "lat": 38.878359333333336, "bike_id": "881888d0846b8a64205415edadc455a1", "fusion_lon": 0.0, "is_reserved": 0, "type": "electric_scooter", "name": "881888d0846b8a64205415edadc455a1", "lon": -76.9950385, "rental_uris": {"android": "https://dc.lft.to/lastmile_qr_scan", "ios": "https://dc.lft.to/lastmile_qr_scan"}, "fusion_lat": 0.0}, {"is_disabled": 0, "lat": 38.912819166666665, "bike_id": "061a9debae7660735bcec1c221ba3288", "fusion_lon": 0.0, "is_reserved": 0, "type": "electric_scooter", "name": "061a9debae7660735bcec1c221ba3288", "lon": -77.01756483333334, "rental_uris": {"android": "https://dc.lft.to/lastmile_qr_scan", "ios": "https://dc.lft.to/lastmile_qr_scan"}, "fusion_lat": 0.0}, {"is_disabled": 0, "lat": 38.91555283333334, "bike_id": "0542e41e97d541e46961c929e03aacd3", "fusion_lon": 0.0, "is_reserved": 0, "type": "electric_scooter", "name": "0542e41e97d541e46961c929e03aacd3", "lon": -77.05324866666666, "rental_uris": {"android": "https://dc.lft.to/lastmile_qr_scan", "ios": "https://dc.lft.to/lastmile_qr_scan"}, "fusion_lat": 0.0}, {"is_disabled": 0, "lat": 38.892206333333334, "bike_id": "5304071e82f9c032b72b5e4e912211d6", "fusion_lon": 0.0, "is_reserved": 0, "type": "electric_scooter", "name": "5304071e82f9c032b72b5e4e912211d6", "lon": -77.0432855, "rental_uris": {"android": "https://dc.lft.to/lastmile_qr_scan", "ios": "https://dc.lft.to/lastmile_qr_scan"}, "fusion_lat": 0.0}, {"is_disabled": 0, "lat": 38.884355666666664, "bike_id": "e2b55480ad1bd952c0a9d4a85f68d57f", "fusion_lon": 0.0, "is_reserved": 0, "type": "electric_scooter", "name": "e2b55480ad1bd952c0a9d4a85f68d57f", "lon": -76.95757633333334, "rental_uris": {"android": "https://dc.lft.to/lastmile_qr_scan", "ios": "https://dc.lft.to/lastmile_qr_scan"}, "fusion_lat": 0.0}, {"is_disabled": 0, "lat": 38.91692416666667, "bike_id": "02686f7b8a40b585b2606bcd0eaf7d18", "fusion_lon": 0.0, "is_reserved": 0, "type": "electric_scooter", "name": "02686f7b8a40b585b2606bcd0eaf7d18", "lon": -77.02714666666667, "rental_uris": {"android": "https://dc.lft.to/lastmile_qr_scan", "ios": "https://dc.lft.to/lastmile_qr_scan"}, "fusion_lat": 0.0}, {"is_disabled": 0, "lat": 38.80570266666667, "bike_id": "6ba60d155b86c4cf1f39bf8fa16b7a9e", "fusion_lon": 0.0, "is_reserved": 0, "type": "electric_bike", "name": "6ba60d155b86c4cf1f39bf8fa16b7a9e", "lon": -77.1324645, "rental_uris": {"android": "https://dc.lft.to/lastmile_qr_scan", "ios": "https://dc.lft.to/lastmile_qr_scan"}, "fusion_lat": 0.0}, {"is_disabled": 0, "lat": 38.9072855, "bike_id": "7f419a88d91877177970ac370574ccd2", "fusion_lon": 0.0, "is_reserved": 0, "type": "electric_scooter", "name": "7f419a88d91877177970ac370574ccd2", "lon": -77.026696, "rental_uris": {"android": "https://dc.lft.to/lastmile_qr_scan", "ios": "https://dc.lft.to/lastmile_qr_scan"}, "fusion_lat": 0.0}, {"is_disabled": 0, "lat": 38.95421616666667, "bike_id": "edf857016caf585125225b54e93e01c5", "fusion_lon": 0.0, "is_reserved": 0, "type": "electric_scooter", "name": "edf857016caf585125225b54e93e01c5", "lon": -77.02767733333333, "rental_uris": {"android": "https://dc.lft.to/lastmile_qr_scan", "ios": "https://dc.lft.to/lastmile_qr_scan"}, "fusion_lat": 0.0}, {"is_disabled": 0, "lat": 38.86243666666667, "bike_id": "4c3777c9ba623db20a1553aa70b38493", "fusion_lon": 0.0, "is_reserved": 0, "type": "electric_scooter", "name": "4c3777c9ba623db20a1553aa70b38493", "lon": -76.98676316666666, "rental_uris": {"android": "https://dc.lft.to/lastmile_qr_scan", "ios": "https://dc.lft.to/lastmile_qr_scan"}, "fusion_lat": 0.0}, {"is_disabled": 0, "lat": 38.9234955, "bike_id": "d4c1153100eada3a640a92db94378186", "fusion_lon": 0.0, "is_reserved": 0, "type": "electric_scooter", "name": "d4c1153100eada3a640a92db94378186", "lon": -77.05347366666666, "rental_uris": {"android": "https://dc.lft.to/lastmile_qr_scan", "ios": "https://dc.lft.to/lastmile_qr_scan"}, "fusion_lat": 0.0}, {"is_disabled": 0, "lat": 38.9237815, "bike_id": "830aef548d61469a2c55294db24baddf", "fusion_lon": 0.0, "is_reserved": 0, "type": "electric_scooter", "name": "830aef548d61469a2c55294db24baddf", "lon": -77.050581, "rental_uris": {"android": "https://dc.lft.to/lastmile_qr_scan", "ios": "https://dc.lft.to/lastmile_qr_scan"}, "fusion_lat": 0.0}, {"is_disabled": 0, "lat": 38.900180666666664, "bike_id": "5c2a46ad65307427329ca240932092e1", "fusion_lon": 0.0, "is_reserved": 0, "type": "electric_scooter", "name": "5c2a46ad65307427329ca240932092e1", "lon": -77.01105883333334, "rental_uris": {"android": "https://dc.lft.to/lastmile_qr_scan", "ios": "https://dc.lft.to/lastmile_qr_scan"}, "fusion_lat": 0.0}, {"is_disabled": 0, "lat": 38.93538233333334, "bike_id": "c2113e4679bfba1b0f2598083909fbf8", "fusion_lon": 0.0, "is_reserved": 0, "type": "electric_scooter", "name": "c2113e4679bfba1b0f2598083909fbf8", "lon": -77.02289833333333, "rental_uris": {"android": "https://dc.lft.to/lastmile_qr_scan", "ios": "https://dc.lft.to/lastmile_qr_scan"}, "fusion_lat": 0.0}, {"is_disabled": 0, "lat": 38.90755333333333, "bike_id": "b5d732b319096d1a2432b397b0f020a0", "fusion_lon": 0.0, "is_reserved": 0, "type": "electric_scooter", "name": "b5d732b319096d1a2432b397b0f020a0", "lon": -77.00011416666666, "rental_uris": {"android": "https://dc.lft.to/lastmile_qr_scan", "ios": "https://dc.lft.to/lastmile_qr_scan"}, "fusion_lat": 0.0}, {"is_disabled": 0, "lat": 38.906055, "bike_id": "61a327599365b318ed4608e918a85f44", "fusion_lon": 0.0, "is_reserved": 0, "type": "electric_scooter", "name": "61a327599365b318ed4608e918a85f44", "lon": -77.031631, "rental_uris": {"android": "https://dc.lft.to/lastmile_qr_scan", "ios": "https://dc.lft.to/lastmile_qr_scan"}, "fusion_lat": 0.0}, {"is_disabled": 0, "lat": 38.9070555, "bike_id": "834783be733b0d7974569bb087d36bd9", "fusion_lon": 0.0, "is_reserved": 0, "type": "electric_scooter", "name": "834783be733b0d7974569bb087d36bd9", "lon": -77.035546, "rental_uris": {"android": "https://dc.lft.to/lastmile_qr_scan", "ios": "https://dc.lft.to/lastmile_qr_scan"}, "fusion_lat": 0.0}, {"is_disabled": 0, "lat": 38.909561333333336, "bike_id": "5ea9f785f66c88897e47365ac122ca81", "fusion_lon": 0.0, "is_reserved": 0, "type": "electric_scooter", "name": "5ea9f785f66c88897e47365ac122ca81", "lon": -77.033392, "rental_uris": {"android": "https://dc.lft.to/lastmile_qr_scan", "ios": "https://dc.lft.to/lastmile_qr_scan"}, "fusion_lat": 0.0}, {"is_disabled": 0, "lat": 38.92526066666667, "bike_id": "ad2d061e42626caf053429dc288d9cfd", "fusion_lon": 0.0, "is_reserved": 0, "type": "electric_scooter", "name": "ad2d061e42626caf053429dc288d9cfd", "lon": -77.0225955, "rental_uris": {"android": "https://dc.lft.to/lastmile_qr_scan", "ios": "https://dc.lft.to/lastmile_qr_scan"}, "fusion_lat": 0.0}, {"is_disabled": 0, "lat": 38.90783416666667, "bike_id": "3d78076f486ddd0c4c8dffe37a75cae2", "fusion_lon": 0.0, "is_reserved": 0, "type": "electric_scooter", "name": "3d78076f486ddd0c4c8dffe37a75cae2", "lon": -77.03996566666666, "rental_uris": {"android": "https://dc.lft.to/lastmile_qr_scan", "ios": "https://dc.lft.to/lastmile_qr_scan"}, "fusion_lat": 0.0}, {"is_disabled": 0, "lat": 38.89680166666667, "bike_id": "6b484e40dbfa6c4941bb1a350fee7ba3", "fusion_lon": 0.0, "is_reserved": 0, "type": "electric_scooter", "name": "6b484e40dbfa6c4941bb1a350fee7ba3", "lon": -76.9361465, "rental_uris": {"android": "https://dc.lft.to/lastmile_qr_scan", "ios": "https://dc.lft.to/lastmile_qr_scan"}, "fusion_lat": 0.0}, {"is_disabled": 0, "lat": 38.92888083333333, "bike_id": "d826bfceb98e27612159310e662f1b6a", "fusion_lon": 0.0, "is_reserved": 0, "type": "electric_scooter", "name": "d826bfceb98e27612159310e662f1b6a", "lon": -77.01382633333333, "rental_uris": {"android": "https://dc.lft.to/lastmile_qr_scan", "ios": "https://dc.lft.to/lastmile_qr_scan"}, "fusion_lat": 0.0}, {"is_disabled": 0, "lat": 38.9316985, "bike_id": "2cc924796cc510405f34a7609b427b44", "fusion_lon": 0.0, "is_reserved": 0, "type": "electric_scooter", "name": "2cc924796cc510405f34a7609b427b44", "lon": -77.02350266666667, "rental_uris": {"android": "https://dc.lft.to/lastmile_qr_scan", "ios": "https://dc.lft.to/lastmile_qr_scan"}, "fusion_lat": 0.0}, {"is_disabled": 0, "lat": 38.90382666666667, "bike_id": "7e147e4b669f412a389795eef0b9b131", "fusion_lon": 0.0, "is_reserved": 0, "type": "electric_scooter", "name": "7e147e4b669f412a389795eef0b9b131", "lon": -76.97616266666667, "rental_uris": {"android": "https://dc.lft.to/lastmile_qr_scan", "ios": "https://dc.lft.to/lastmile_qr_scan"}, "fusion_lat": 0.0}, {"is_disabled": 0, "lat": 38.92069566666667, "bike_id": "b6380ab23fb4827e0d8f384527f2849f", "fusion_lon": 0.0, "is_reserved": 0, "type": "electric_scooter", "name": "b6380ab23fb4827e0d8f384527f2849f", "lon": -77.03200216666667, "rental_uris": {"android": "https://dc.lft.to/lastmile_qr_scan", "ios": "https://dc.lft.to/lastmile_qr_scan"}, "fusion_lat": 0.0}, {"is_disabled": 0, "lat": 38.909691333333335, "bike_id": "5f5340f23f264b6a42530d5e38ef91f2", "fusion_lon": 0.0, "is_reserved": 0, "type": "electric_scooter", "name": "5f5340f23f264b6a42530d5e38ef91f2", "lon": -77.035717, "rental_uris": {"android": "https://dc.lft.to/lastmile_qr_scan", "ios": "https://dc.lft.to/lastmile_qr_scan"}, "fusion_lat": 0.0}, {"is_disabled": 0, "lat": 38.90501283333333, "bike_id": "407e6f9d3e2503feeb4bc4ae67410db2", "fusion_lon": 0.0, "is_reserved": 0, "type": "electric_scooter", "name": "407e6f9d3e2503feeb4bc4ae67410db2", "lon": -77.03430433333334, "rental_uris": {"android": "https://dc.lft.to/lastmile_qr_scan", "ios": "https://dc.lft.to/lastmile_qr_scan"}, "fusion_lat": 0.0}, {"is_disabled": 0, "lat": 38.90767983333333, "bike_id": "99d53c6d8b89bcb3ebb3b2a466b488ec", "fusion_lon": 0.0, "is_reserved": 0, "type": "electric_scooter", "name": "99d53c6d8b89bcb3ebb3b2a466b488ec", "lon": -77.05958333333334, "rental_uris": {"android": "https://dc.lft.to/lastmile_qr_scan", "ios": "https://dc.lft.to/lastmile_qr_scan"}, "fusion_lat": 0.0}, {"is_disabled": 0, "lat": 38.91107566666667, "bike_id": "89223763eed524c6742196216585edf8", "fusion_lon": 0.0, "is_reserved": 0, "type": "electric_scooter", "name": "89223763eed524c6742196216585edf8", "lon": -77.04821783333334, "rental_uris": {"android": "https://dc.lft.to/lastmile_qr_scan", "ios": "https://dc.lft.to/lastmile_qr_scan"}, "fusion_lat": 0.0}, {"is_disabled": 0, "lat": 38.896252, "bike_id": "53e21a9beeceebfd8a5091d9cd4c7ce9", "fusion_lon": 0.0, "is_reserved": 0, "type": "electric_scooter", "name": "53e21a9beeceebfd8a5091d9cd4c7ce9", "lon": -77.02394, "rental_uris": {"android": "https://dc.lft.to/lastmile_qr_scan", "ios": "https://dc.lft.to/lastmile_qr_scan"}, "fusion_lat": 0.0}, {"is_disabled": 0, "lat": 38.90939, "bike_id": "e74164b7b89d313ac23225f0fe2a5db0", "fusion_lon": 0.0, "is_reserved": 0, "type": "electric_scooter", "name": "e74164b7b89d313ac23225f0fe2a5db0", "lon": -76.99890366666666, "rental_uris": {"android": "https://dc.lft.to/lastmile_qr_scan", "ios": "https://dc.lft.to/lastmile_qr_scan"}, "fusion_lat": 0.0}, {"is_disabled": 0, "lat": 38.805664166666666, "bike_id": "7e84984fba08bc30b04d9191f0b01572", "fusion_lon": 0.0, "is_reserved": 0, "type": "electric_bike", "name": "7e84984fba08bc30b04d9191f0b01572", "lon": -77.0683405, "rental_uris": {"android": "https://dc.lft.to/lastmile_qr_scan", "ios": "https://dc.lft.to/lastmile_qr_scan"}, "fusion_lat": 0.0}, {"is_disabled": 0, "lat": 38.904726, "bike_id": "bc3b0a43dacf2cd2e352b230f0948eb9", "fusion_lon": 0.0, "is_reserved": 0, "type": "electric_scooter", "name": "bc3b0a43dacf2cd2e352b230f0948eb9", "lon": -77.0485885, "rental_uris": {"android": "https://dc.lft.to/lastmile_qr_scan", "ios": "https://dc.lft.to/lastmile_qr_scan"}, "fusion_lat": 0.0}, {"is_disabled": 0, "lat": 38.862466166666664, "bike_id": "476ae607a4ab812fb181ba1864350bac", "fusion_lon": 0.0, "is_reserved": 0, "type": "electric_bike", "name": "476ae607a4ab812fb181ba1864350bac", "lon": -76.99086966666667, "rental_uris": {"android": "https://dc.lft.to/lastmile_qr_scan", "ios": "https://dc.lft.to/lastmile_qr_scan"}, "fusion_lat": 0.0}, {"is_disabled": 0, "lat": 38.954227333333336, "bike_id": "d786a940be01a9926590709428db4e4e", "fusion_lon": 0.0, "is_reserved": 0, "type": "electric_scooter", "name": "d786a940be01a9926590709428db4e4e", "lon": -77.02769033333334, "rental_uris": {"android": "https://dc.lft.to/lastmile_qr_scan", "ios": "https://dc.lft.to/lastmile_qr_scan"}, "fusion_lat": 0.0}, {"is_disabled": 0, "lat": 38.907070166666664, "bike_id": "895a7ed45ce86a4f77e6e73e99a85a1a", "fusion_lon": 0.0, "is_reserved": 0, "type": "electric_scooter", "name": "895a7ed45ce86a4f77e6e73e99a85a1a", "lon": -76.98082166666667, "rental_uris": {"android": "https://dc.lft.to/lastmile_qr_scan", "ios": "https://dc.lft.to/lastmile_qr_scan"}, "fusion_lat": 0.0}, {"is_disabled": 0, "lat": 38.95638816666667, "bike_id": "2c70d330db6f3eb897e814d0af27ef92", "fusion_lon": 0.0, "is_reserved": 0, "type": "electric_scooter", "name": "2c70d330db6f3eb897e814d0af27ef92", "lon": -77.03306316666666, "rental_uris": {"android": "https://dc.lft.to/lastmile_qr_scan", "ios": "https://dc.lft.to/lastmile_qr_scan"}, "fusion_lat": 0.0}, {"is_disabled": 0, "lat": 38.89625083333333, "bike_id": "783b1e0511b578288023a9077ad8f88d", "fusion_lon": 0.0, "is_reserved": 0, "type": "electric_scooter", "name": "783b1e0511b578288023a9077ad8f88d", "lon": -77.02928333333334, "rental_uris": {"android": "https://dc.lft.to/lastmile_qr_scan", "ios": "https://dc.lft.to/lastmile_qr_scan"}, "fusion_lat": 0.0}, {"is_disabled": 0, "lat": 38.943055333333334, "bike_id": "9d77dc0638245707d7d63cfb95ec7810", "fusion_lon": 0.0, "is_reserved": 0, "type": "electric_scooter", "name": "9d77dc0638245707d7d63cfb95ec7810", "lon": -77.058702, "rental_uris": {"android": "https://dc.lft.to/lastmile_qr_scan", "ios": "https://dc.lft.to/lastmile_qr_scan"}, "fusion_lat": 0.0}, {"is_disabled": 0, "lat": 38.9027855, "bike_id": "a1e901b1187f0f87fe64c4f75bd3af02", "fusion_lon": 0.0, "is_reserved": 0, "type": "electric_scooter", "name": "a1e901b1187f0f87fe64c4f75bd3af02", "lon": -77.0601325, "rental_uris": {"android": "https://dc.lft.to/lastmile_qr_scan", "ios": "https://dc.lft.to/lastmile_qr_scan"}, "fusion_lat": 0.0}, {"is_disabled": 0, "lat": 38.91695, "bike_id": "69ef174d66b579775649bbd82217c1bf", "fusion_lon": 0.0, "is_reserved": 0, "type": "electric_scooter", "name": "69ef174d66b579775649bbd82217c1bf", "lon": -77.0260185, "rental_uris": {"android": "https://dc.lft.to/lastmile_qr_scan", "ios": "https://dc.lft.to/lastmile_qr_scan"}, "fusion_lat": 0.0}, {"is_disabled": 0, "lat": 38.937208, "bike_id": "9381ab7b4a269e53b3a1d4f74c7dbea8", "fusion_lon": 0.0, "is_reserved": 0, "type": "electric_scooter", "name": "9381ab7b4a269e53b3a1d4f74c7dbea8", "lon": -77.03262883333333, "rental_uris": {"android": "https://dc.lft.to/lastmile_qr_scan", "ios": "https://dc.lft.to/lastmile_qr_scan"}, "fusion_lat": 0.0}, {"is_disabled": 0, "lat": 38.90586166666667, "bike_id": "763a8d08245672d03452fe8413764b53", "fusion_lon": 0.0, "is_reserved": 0, "type": "electric_scooter", "name": "763a8d08245672d03452fe8413764b53", "lon": -77.044479, "rental_uris": {"android": "https://dc.lft.to/lastmile_qr_scan", "ios": "https://dc.lft.to/lastmile_qr_scan"}, "fusion_lat": 0.0}, {"is_disabled": 0, "lat": 38.892231333333335, "bike_id": "ef9bc301693f550e74dbaaf07e66457b", "fusion_lon": 0.0, "is_reserved": 0, "type": "electric_scooter", "name": "ef9bc301693f550e74dbaaf07e66457b", "lon": -77.02654016666666, "rental_uris": {"android": "https://dc.lft.to/lastmile_qr_scan", "ios": "https://dc.lft.to/lastmile_qr_scan"}, "fusion_lat": 0.0}, {"is_disabled": 0, "lat": 38.92302566666667, "bike_id": "29976aa5212aa3c976333a70758fe5ca", "fusion_lon": 0.0, "is_reserved": 0, "type": "electric_bike", "name": "29976aa5212aa3c976333a70758fe5ca", "lon": -76.99371583333334, "rental_uris": {"android": "https://dc.lft.to/lastmile_qr_scan", "ios": "https://dc.lft.to/lastmile_qr_scan"}, "fusion_lat": 0.0}, {"is_disabled": 0, "lat": 38.90715383333333, "bike_id": "422bdbe57238468abf7743de9f630b01", "fusion_lon": 0.0, "is_reserved": 0, "type": "electric_scooter", "name": "422bdbe57238468abf7743de9f630b01", "lon": -77.0342645, "rental_uris": {"android": "https://dc.lft.to/lastmile_qr_scan", "ios": "https://dc.lft.to/lastmile_qr_scan"}, "fusion_lat": 0.0}, {"is_disabled": 0, "lat": 38.91834683333333, "bike_id": "19a58beba06595d7271ed3eb41e8bd27", "fusion_lon": 0.0, "is_reserved": 0, "type": "electric_scooter", "name": "19a58beba06595d7271ed3eb41e8bd27", "lon": -77.01211183333334, "rental_uris": {"android": "https://dc.lft.to/lastmile_qr_scan", "ios": "https://dc.lft.to/lastmile_qr_scan"}, "fusion_lat": 0.0}, {"is_disabled": 0, "lat": 38.903582666666665, "bike_id": "f9c5be4eb91f8eb505ffd956339e6eff", "fusion_lon": 0.0, "is_reserved": 0, "type": "electric_scooter", "name": "f9c5be4eb91f8eb505ffd956339e6eff", "lon": -77.03856683333333, "rental_uris": {"android": "https://dc.lft.to/lastmile_qr_scan", "ios": "https://dc.lft.to/lastmile_qr_scan"}, "fusion_lat": 0.0}, {"is_disabled": 0, "lat": 38.877648, "bike_id": "2a8d8ff89514c7a93eba00fecb348455", "fusion_lon": 0.0, "is_reserved": 0, "type": "electric_scooter", "name": "2a8d8ff89514c7a93eba00fecb348455", "lon": -76.9623915, "rental_uris": {"android": "https://dc.lft.to/lastmile_qr_scan", "ios": "https://dc.lft.to/lastmile_qr_scan"}, "fusion_lat": 0.0}, {"is_disabled": 0, "lat": 38.941855, "bike_id": "c2df80f18b5ee8acb356e0eb4f8f1399", "fusion_lon": 0.0, "is_reserved": 0, "type": "electric_scooter", "name": "c2df80f18b5ee8acb356e0eb4f8f1399", "lon": -77.0249225, "rental_uris": {"android": "https://dc.lft.to/lastmile_qr_scan", "ios": "https://dc.lft.to/lastmile_qr_scan"}, "fusion_lat": 0.0}, {"is_disabled": 0, "lat": 38.9287585, "bike_id": "e6ab320215287c5d7a53d74abdff1c7a", "fusion_lon": 0.0, "is_reserved": 0, "type": "electric_scooter", "name": "e6ab320215287c5d7a53d74abdff1c7a", "lon": -77.01231166666666, "rental_uris": {"android": "https://dc.lft.to/lastmile_qr_scan", "ios": "https://dc.lft.to/lastmile_qr_scan"}, "fusion_lat": 0.0}, {"is_disabled": 0, "lat": 38.96168983333333, "bike_id": "85498ed5048520d69bcbc76eee2b8f02", "fusion_lon": 0.0, "is_reserved": 0, "type": "electric_bike", "name": "85498ed5048520d69bcbc76eee2b8f02", "lon": -77.08772833333333, "rental_uris": {"android": "https://dc.lft.to/lastmile_qr_scan", "ios": "https://dc.lft.to/lastmile_qr_scan"}, "fusion_lat": 0.0}, {"is_disabled": 0, "lat": 38.933985166666666, "bike_id": "ef322a97931a7dd2d776096f0708d045", "fusion_lon": 0.0, "is_reserved": 0, "type": "electric_scooter", "name": "ef322a97931a7dd2d776096f0708d045", "lon": -77.045535, "rental_uris": {"android": "https://dc.lft.to/lastmile_qr_scan", "ios": "https://dc.lft.to/lastmile_qr_scan"}, "fusion_lat": 0.0}, {"is_disabled": 0, "lat": 38.917577, "bike_id": "5b70cdb71458c43ad876e6b43725ac8d", "fusion_lon": 0.0, "is_reserved": 0, "type": "electric_scooter", "name": "5b70cdb71458c43ad876e6b43725ac8d", "lon": -77.03939966666667, "rental_uris": {"android": "https://dc.lft.to/lastmile_qr_scan", "ios": "https://dc.lft.to/lastmile_qr_scan"}, "fusion_lat": 0.0}, {"is_disabled": 0, "lat": 38.922073166666664, "bike_id": "d132563f93b9e0b85fa91d57776312c3", "fusion_lon": 0.0, "is_reserved": 0, "type": "electric_scooter", "name": "d132563f93b9e0b85fa91d57776312c3", "lon": -77.03776766666667, "rental_uris": {"android": "https://dc.lft.to/lastmile_qr_scan", "ios": "https://dc.lft.to/lastmile_qr_scan"}, "fusion_lat": 0.0}, {"is_disabled": 0, "lat": 38.915723166666666, "bike_id": "d214140e41514c9fed01030d1604d7d7", "fusion_lon": 0.0, "is_reserved": 0, "type": "electric_scooter", "name": "d214140e41514c9fed01030d1604d7d7", "lon": -77.022931, "rental_uris": {"android": "https://dc.lft.to/lastmile_qr_scan", "ios": "https://dc.lft.to/lastmile_qr_scan"}, "fusion_lat": 0.0}, {"is_disabled": 0, "lat": 38.90526033333333, "bike_id": "bac519e5ecc0131c9d997d731f38fe0c", "fusion_lon": 0.0, "is_reserved": 0, "type": "electric_scooter", "name": "bac519e5ecc0131c9d997d731f38fe0c", "lon": -77.064498, "rental_uris": {"android": "https://dc.lft.to/lastmile_qr_scan", "ios": "https://dc.lft.to/lastmile_qr_scan"}, "fusion_lat": 0.0}, {"is_disabled": 0, "lat": 38.91573366666667, "bike_id": "2fa68fcbc143051bc8f6e85390d73598", "fusion_lon": 0.0, "is_reserved": 0, "type": "electric_scooter", "name": "2fa68fcbc143051bc8f6e85390d73598", "lon": -77.03175166666666, "rental_uris": {"android": "https://dc.lft.to/lastmile_qr_scan", "ios": "https://dc.lft.to/lastmile_qr_scan"}, "fusion_lat": 0.0}, {"is_disabled": 0, "lat": 38.895209333333334, "bike_id": "bdc02b65433b3144dffdd607a8273eba", "fusion_lon": 0.0, "is_reserved": 0, "type": "electric_scooter", "name": "bdc02b65433b3144dffdd607a8273eba", "lon": -77.00343333333333, "rental_uris": {"android": "https://dc.lft.to/lastmile_qr_scan", "ios": "https://dc.lft.to/lastmile_qr_scan"}, "fusion_lat": 0.0}, {"is_disabled": 0, "lat": 38.91770616666667, "bike_id": "ad0f1510ad9433353c1fea5022b7a139", "fusion_lon": 0.0, "is_reserved": 0, "type": "electric_scooter", "name": "ad0f1510ad9433353c1fea5022b7a139", "lon": -77.01075583333333, "rental_uris": {"android": "https://dc.lft.to/lastmile_qr_scan", "ios": "https://dc.lft.to/lastmile_qr_scan"}, "fusion_lat": 0.0}, {"is_disabled": 0, "lat": 38.895473, "bike_id": "0e12b0df662c6776c2e568ab4a304049", "fusion_lon": 0.0, "is_reserved": 0, "type": "electric_scooter", "name": "0e12b0df662c6776c2e568ab4a304049", "lon": -76.9487365, "rental_uris": {"android": "https://dc.lft.to/lastmile_qr_scan", "ios": "https://dc.lft.to/lastmile_qr_scan"}, "fusion_lat": 0.0}, {"is_disabled": 0, "lat": 38.905485666666664, "bike_id": "4bc950b330640cdfa0d08ac27243b106", "fusion_lon": 0.0, "is_reserved": 0, "type": "electric_scooter", "name": "4bc950b330640cdfa0d08ac27243b106", "lon": -77.04745733333333, "rental_uris": {"android": "https://dc.lft.to/lastmile_qr_scan", "ios": "https://dc.lft.to/lastmile_qr_scan"}, "fusion_lat": 0.0}, {"is_disabled": 0, "lat": 38.971894, "bike_id": "76f25700c0f57fd378ff26b13c5f0e6f", "fusion_lon": 0.0, "is_reserved": 0, "type": "electric_bike", "name": "76f25700c0f57fd378ff26b13c5f0e6f", "lon": -76.99376916666667, "rental_uris": {"android": "https://dc.lft.to/lastmile_qr_scan", "ios": "https://dc.lft.to/lastmile_qr_scan"}, "fusion_lat": 0.0}, {"is_disabled": 0, "lat": 38.9002845, "bike_id": "c4d224841a479dd01157320b56fa9192", "fusion_lon": 0.0, "is_reserved": 0, "type": "electric_scooter", "name": "c4d224841a479dd01157320b56fa9192", "lon": -76.99639666666667, "rental_uris": {"android": "https://dc.lft.to/lastmile_qr_scan", "ios": "https://dc.lft.to/lastmile_qr_scan"}, "fusion_lat": 0.0}, {"is_disabled": 0, "lat": 38.97366433333333, "bike_id": "db659589d1c5f058759eb869b283ee15", "fusion_lon": 0.0, "is_reserved": 0, "type": "electric_scooter", "name": "db659589d1c5f058759eb869b283ee15", "lon": -77.01865616666667, "rental_uris": {"android": "https://dc.lft.to/lastmile_qr_scan", "ios": "https://dc.lft.to/lastmile_qr_scan"}, "fusion_lat": 0.0}, {"is_disabled": 0, "lat": 38.933413333333334, "bike_id": "e71f42eb9235333079127668e2d01112", "fusion_lon": 0.0, "is_reserved": 0, "type": "electric_scooter", "name": "e71f42eb9235333079127668e2d01112", "lon": -77.07313116666667, "rental_uris": {"android": "https://dc.lft.to/lastmile_qr_scan", "ios": "https://dc.lft.to/lastmile_qr_scan"}, "fusion_lat": 0.0}, {"is_disabled": 0, "lat": 38.936061333333335, "bike_id": "531a298db296ce50ba80778c53aafcca", "fusion_lon": 0.0, "is_reserved": 0, "type": "electric_scooter", "name": "531a298db296ce50ba80778c53aafcca", "lon": -77.03160633333333, "rental_uris": {"android": "https://dc.lft.to/lastmile_qr_scan", "ios": "https://dc.lft.to/lastmile_qr_scan"}, "fusion_lat": 0.0}, {"is_disabled": 0, "lat": 38.905772, "bike_id": "d471d720df3fd6babcd8d78e470009d9", "fusion_lon": 0.0, "is_reserved": 0, "type": "electric_scooter", "name": "d471d720df3fd6babcd8d78e470009d9", "lon": -77.06280066666666, "rental_uris": {"android": "https://dc.lft.to/lastmile_qr_scan", "ios": "https://dc.lft.to/lastmile_qr_scan"}, "fusion_lat": 0.0}, {"is_disabled": 0, "lat": 38.9209685, "bike_id": "d3d8c3eba627965f0080de92f0a3b515", "fusion_lon": 0.0, "is_reserved": 0, "type": "electric_bike", "name": "d3d8c3eba627965f0080de92f0a3b515", "lon": -77.063315, "rental_uris": {"android": "https://dc.lft.to/lastmile_qr_scan", "ios": "https://dc.lft.to/lastmile_qr_scan"}, "fusion_lat": 0.0}, {"is_disabled": 0, "lat": 38.9083995, "bike_id": "9a699ec3dcfe8db5f411e01a4752ec29", "fusion_lon": 0.0, "is_reserved": 0, "type": "electric_scooter", "name": "9a699ec3dcfe8db5f411e01a4752ec29", "lon": -77.03209016666666, "rental_uris": {"android": "https://dc.lft.to/lastmile_qr_scan", "ios": "https://dc.lft.to/lastmile_qr_scan"}, "fusion_lat": 0.0}, {"is_disabled": 0, "lat": 38.919749833333334, "bike_id": "b5b2c00c758a6190196be233e5843fe4", "fusion_lon": 0.0, "is_reserved": 0, "type": "electric_scooter", "name": "b5b2c00c758a6190196be233e5843fe4", "lon": -77.04198233333334, "rental_uris": {"android": "https://dc.lft.to/lastmile_qr_scan", "ios": "https://dc.lft.to/lastmile_qr_scan"}, "fusion_lat": 0.0}, {"is_disabled": 0, "lat": 38.941397333333335, "bike_id": "6921bc304e61886f1a9e3f7c7eec6cfb", "fusion_lon": 0.0, "is_reserved": 0, "type": "electric_scooter", "name": "6921bc304e61886f1a9e3f7c7eec6cfb", "lon": -77.02550366666667, "rental_uris": {"android": "https://dc.lft.to/lastmile_qr_scan", "ios": "https://dc.lft.to/lastmile_qr_scan"}, "fusion_lat": 0.0}, {"is_disabled": 0, "lat": 38.900191166666666, "bike_id": "f947a1745e31fdb571883f1fa5d4b5a5", "fusion_lon": 0.0, "is_reserved": 0, "type": "electric_scooter", "name": "f947a1745e31fdb571883f1fa5d4b5a5", "lon": -76.9975935, "rental_uris": {"android": "https://dc.lft.to/lastmile_qr_scan", "ios": "https://dc.lft.to/lastmile_qr_scan"}, "fusion_lat": 0.0}, {"is_disabled": 0, "lat": 38.842995333333334, "bike_id": "bb5f57def4fc6fe6f96ed58c1f84d63a", "fusion_lon": 0.0, "is_reserved": 0, "type": "electric_scooter", "name": "bb5f57def4fc6fe6f96ed58c1f84d63a", "lon": -76.99937516666667, "rental_uris": {"android": "https://dc.lft.to/lastmile_qr_scan", "ios": "https://dc.lft.to/lastmile_qr_scan"}, "fusion_lat": 0.0}, {"is_disabled": 0, "lat": 38.91564266666666, "bike_id": "5c0a574cb9968464082e40c49fcd772d", "fusion_lon": 0.0, "is_reserved": 0, "type": "electric_scooter", "name": "5c0a574cb9968464082e40c49fcd772d", "lon": -77.03236116666666, "rental_uris": {"android": "https://dc.lft.to/lastmile_qr_scan", "ios": "https://dc.lft.to/lastmile_qr_scan"}, "fusion_lat": 0.0}, {"is_disabled": 0, "lat": 38.89306633333333, "bike_id": "7ea2a3a49d5a79a44bc5cee074ebe41c", "fusion_lon": 0.0, "is_reserved": 0, "type": "electric_scooter", "name": "7ea2a3a49d5a79a44bc5cee074ebe41c", "lon": -77.0001185, "rental_uris": {"android": "https://dc.lft.to/lastmile_qr_scan", "ios": "https://dc.lft.to/lastmile_qr_scan"}, "fusion_lat": 0.0}, {"is_disabled": 0, "lat": 38.904042833333335, "bike_id": "1409709b9f1acfa802526ed251d9f358", "fusion_lon": 0.0, "is_reserved": 0, "type": "electric_scooter", "name": "1409709b9f1acfa802526ed251d9f358", "lon": -76.97424416666667, "rental_uris": {"android": "https://dc.lft.to/lastmile_qr_scan", "ios": "https://dc.lft.to/lastmile_qr_scan"}, "fusion_lat": 0.0}, {"is_disabled": 0, "lat": 38.84433083333333, "bike_id": "51eccc6bc1f8c0163301b92ea8a64597", "fusion_lon": 0.0, "is_reserved": 0, "type": "electric_scooter", "name": "51eccc6bc1f8c0163301b92ea8a64597", "lon": -76.99779383333333, "rental_uris": {"android": "https://dc.lft.to/lastmile_qr_scan", "ios": "https://dc.lft.to/lastmile_qr_scan"}, "fusion_lat": 0.0}, {"is_disabled": 0, "lat": 38.914178, "bike_id": "936e5dee1cbf29622057948c503fbd6c", "fusion_lon": 0.0, "is_reserved": 0, "type": "electric_bike", "name": "936e5dee1cbf29622057948c503fbd6c", "lon": -77.021692, "rental_uris": {"android": "https://dc.lft.to/lastmile_qr_scan", "ios": "https://dc.lft.to/lastmile_qr_scan"}, "fusion_lat": 0.0}, {"is_disabled": 0, "lat": 38.893240166666665, "bike_id": "669d01db4e401615d78a5d6d115d8f3c", "fusion_lon": 0.0, "is_reserved": 0, "type": "electric_scooter", "name": "669d01db4e401615d78a5d6d115d8f3c", "lon": -76.9438035, "rental_uris": {"android": "https://dc.lft.to/lastmile_qr_scan", "ios": "https://dc.lft.to/lastmile_qr_scan"}, "fusion_lat": 0.0}, {"is_disabled": 0, "lat": 38.93710466666667, "bike_id": "20ce742dd6e2aff2db7b40827bdfe355", "fusion_lon": 0.0, "is_reserved": 0, "type": "electric_scooter", "name": "20ce742dd6e2aff2db7b40827bdfe355", "lon": -77.02421833333334, "rental_uris": {"android": "https://dc.lft.to/lastmile_qr_scan", "ios": "https://dc.lft.to/lastmile_qr_scan"}, "fusion_lat": 0.0}, {"is_disabled": 0, "lat": 38.862628, "bike_id": "28182ad35359189784cd161c6600e4f6", "fusion_lon": 0.0, "is_reserved": 0, "type": "electric_bike", "name": "28182ad35359189784cd161c6600e4f6", "lon": -77.090675, "rental_uris": {"android": "https://dc.lft.to/lastmile_qr_scan", "ios": "https://dc.lft.to/lastmile_qr_scan"}, "fusion_lat": 0.0}, {"is_disabled": 0, "lat": 38.91922666666667, "bike_id": "54daa6c13bf3a16b11edf0071f695750", "fusion_lon": 0.0, "is_reserved": 0, "type": "electric_scooter", "name": "54daa6c13bf3a16b11edf0071f695750", "lon": -77.03182066666666, "rental_uris": {"android": "https://dc.lft.to/lastmile_qr_scan", "ios": "https://dc.lft.to/lastmile_qr_scan"}, "fusion_lat": 0.0}, {"is_disabled": 0, "lat": 38.899136, "bike_id": "4d9f0c0643049616656f72de73336ab1", "fusion_lon": 0.0, "is_reserved": 0, "type": "electric_scooter", "name": "4d9f0c0643049616656f72de73336ab1", "lon": -77.03376766666666, "rental_uris": {"android": "https://dc.lft.to/lastmile_qr_scan", "ios": "https://dc.lft.to/lastmile_qr_scan"}, "fusion_lat": 0.0}, {"is_disabled": 0, "lat": 38.918724, "bike_id": "8513183b5ef828f1af9906aad931e975", "fusion_lon": 0.0, "is_reserved": 0, "type": "electric_scooter", "name": "8513183b5ef828f1af9906aad931e975", "lon": -77.03467516666667, "rental_uris": {"android": "https://dc.lft.to/lastmile_qr_scan", "ios": "https://dc.lft.to/lastmile_qr_scan"}, "fusion_lat": 0.0}, {"is_disabled": 0, "lat": 38.84368883333333, "bike_id": "696801cbd928e59937c2cb93ff516491", "fusion_lon": 0.0, "is_reserved": 0, "type": "electric_bike", "name": "696801cbd928e59937c2cb93ff516491", "lon": -76.97828816666667, "rental_uris": {"android": "https://dc.lft.to/lastmile_qr_scan", "ios": "https://dc.lft.to/lastmile_qr_scan"}, "fusion_lat": 0.0}, {"is_disabled": 0, "lat": 38.901167, "bike_id": "0fcbac9a9442ca2180afca09d848d93c", "fusion_lon": 0.0, "is_reserved": 0, "type": "electric_scooter", "name": "0fcbac9a9442ca2180afca09d848d93c", "lon": -76.98626383333334, "rental_uris": {"android": "https://dc.lft.to/lastmile_qr_scan", "ios": "https://dc.lft.to/lastmile_qr_scan"}, "fusion_lat": 0.0}, {"is_disabled": 0, "lat": 38.90730216666667, "bike_id": "136d15e578f28fc9750fd87021ac5e78", "fusion_lon": 0.0, "is_reserved": 0, "type": "electric_scooter", "name": "136d15e578f28fc9750fd87021ac5e78", "lon": -77.043561, "rental_uris": {"android": "https://dc.lft.to/lastmile_qr_scan", "ios": "https://dc.lft.to/lastmile_qr_scan"}, "fusion_lat": 0.0}, {"is_disabled": 0, "lat": 38.9167735, "bike_id": "a6d6b0ab02565d4e414b754594dfaa26", "fusion_lon": 0.0, "is_reserved": 0, "type": "electric_scooter", "name": "a6d6b0ab02565d4e414b754594dfaa26", "lon": -77.0229885, "rental_uris": {"android": "https://dc.lft.to/lastmile_qr_scan", "ios": "https://dc.lft.to/lastmile_qr_scan"}, "fusion_lat": 0.0}, {"is_disabled": 0, "lat": 38.910349333333336, "bike_id": "600b83015ec05c48e6c10aa8f17ffdd8", "fusion_lon": 0.0, "is_reserved": 0, "type": "electric_scooter", "name": "600b83015ec05c48e6c10aa8f17ffdd8", "lon": -76.9855765, "rental_uris": {"android": "https://dc.lft.to/lastmile_qr_scan", "ios": "https://dc.lft.to/lastmile_qr_scan"}, "fusion_lat": 0.0}, {"is_disabled": 0, "lat": 38.901672, "bike_id": "776d3df80d6d743b7534872595f718bf", "fusion_lon": 0.0, "is_reserved": 0, "type": "electric_scooter", "name": "776d3df80d6d743b7534872595f718bf", "lon": -76.93021483333334, "rental_uris": {"android": "https://dc.lft.to/lastmile_qr_scan", "ios": "https://dc.lft.to/lastmile_qr_scan"}, "fusion_lat": 0.0}, {"is_disabled": 0, "lat": 38.89711766666667, "bike_id": "74207ae4c578ff7f3d10a08d9a7c5441", "fusion_lon": 0.0, "is_reserved": 0, "type": "electric_scooter", "name": "74207ae4c578ff7f3d10a08d9a7c5441", "lon": -77.03933366666666, "rental_uris": {"android": "https://dc.lft.to/lastmile_qr_scan", "ios": "https://dc.lft.to/lastmile_qr_scan"}, "fusion_lat": 0.0}, {"is_disabled": 0, "lat": 38.92380566666667, "bike_id": "af9d74055f86361657c98e1750f7c501", "fusion_lon": 0.0, "is_reserved": 0, "type": "electric_scooter", "name": "af9d74055f86361657c98e1750f7c501", "lon": -77.0504575, "rental_uris": {"android": "https://dc.lft.to/lastmile_qr_scan", "ios": "https://dc.lft.to/lastmile_qr_scan"}, "fusion_lat": 0.0}, {"is_disabled": 0, "lat": 38.955546166666664, "bike_id": "ced302ddad1a6ef9c25ff49839d6455f", "fusion_lon": 0.0, "is_reserved": 0, "type": "electric_bike", "name": "ced302ddad1a6ef9c25ff49839d6455f", "lon": -76.935479, "rental_uris": {"android": "https://dc.lft.to/lastmile_qr_scan", "ios": "https://dc.lft.to/lastmile_qr_scan"}, "fusion_lat": 0.0}, {"is_disabled": 0, "lat": 38.90808583333333, "bike_id": "daa650da786ab9b7b8733c362b772a78", "fusion_lon": 0.0, "is_reserved": 0, "type": "electric_scooter", "name": "daa650da786ab9b7b8733c362b772a78", "lon": -77.03456583333333, "rental_uris": {"android": "https://dc.lft.to/lastmile_qr_scan", "ios": "https://dc.lft.to/lastmile_qr_scan"}, "fusion_lat": 0.0}, {"is_disabled": 0, "lat": 38.92075916666667, "bike_id": "6ecd16aabbfd790159e8908fd177d3f6", "fusion_lon": 0.0, "is_reserved": 0, "type": "electric_scooter", "name": "6ecd16aabbfd790159e8908fd177d3f6", "lon": -77.03808683333334, "rental_uris": {"android": "https://dc.lft.to/lastmile_qr_scan", "ios": "https://dc.lft.to/lastmile_qr_scan"}, "fusion_lat": 0.0}, {"is_disabled": 0, "lat": 38.8664985, "bike_id": "9d35e74b77e572b10735976fdf7a24cf", "fusion_lon": 0.0, "is_reserved": 0, "type": "electric_scooter", "name": "9d35e74b77e572b10735976fdf7a24cf", "lon": -76.98506883333333, "rental_uris": {"android": "https://dc.lft.to/lastmile_qr_scan", "ios": "https://dc.lft.to/lastmile_qr_scan"}, "fusion_lat": 0.0}, {"is_disabled": 0, "lat": 38.89837033333333, "bike_id": "57b47646a13b4608861575de4d239397", "fusion_lon": 0.0, "is_reserved": 0, "type": "electric_scooter", "name": "57b47646a13b4608861575de4d239397", "lon": -77.0435425, "rental_uris": {"android": "https://dc.lft.to/lastmile_qr_scan", "ios": "https://dc.lft.to/lastmile_qr_scan"}, "fusion_lat": 0.0}, {"is_disabled": 0, "lat": 38.86654033333333, "bike_id": "8302196718a0beb653f2bfe479c87acf", "fusion_lon": 0.0, "is_reserved": 0, "type": "electric_scooter", "name": "8302196718a0beb653f2bfe479c87acf", "lon": -76.98511783333333, "rental_uris": {"android": "https://dc.lft.to/lastmile_qr_scan", "ios": "https://dc.lft.to/lastmile_qr_scan"}, "fusion_lat": 0.0}, {"is_disabled": 0, "lat": 38.91331233333333, "bike_id": "fe1d5fe6d5be193dcf97bbd01bd55db3", "fusion_lon": 0.0, "is_reserved": 0, "type": "electric_scooter", "name": "fe1d5fe6d5be193dcf97bbd01bd55db3", "lon": -77.04817833333334, "rental_uris": {"android": "https://dc.lft.to/lastmile_qr_scan", "ios": "https://dc.lft.to/lastmile_qr_scan"}, "fusion_lat": 0.0}, {"is_disabled": 0, "lat": 38.9169305, "bike_id": "0b1e3c0a356885ab3972a1d605ae303f", "fusion_lon": 0.0, "is_reserved": 0, "type": "electric_scooter", "name": "0b1e3c0a356885ab3972a1d605ae303f", "lon": -77.02597883333334, "rental_uris": {"android": "https://dc.lft.to/lastmile_qr_scan", "ios": "https://dc.lft.to/lastmile_qr_scan"}, "fusion_lat": 0.0}, {"is_disabled": 0, "lat": 38.9027205, "bike_id": "cfe93d2bfcaf3756ea95235c8fac8660", "fusion_lon": 0.0, "is_reserved": 0, "type": "electric_scooter", "name": "cfe93d2bfcaf3756ea95235c8fac8660", "lon": -77.0384255, "rental_uris": {"android": "https://dc.lft.to/lastmile_qr_scan", "ios": "https://dc.lft.to/lastmile_qr_scan"}, "fusion_lat": 0.0}, {"is_disabled": 0, "lat": 38.905856666666665, "bike_id": "cd2a0d93ea2a66c21775faacab0035cf", "fusion_lon": 0.0, "is_reserved": 0, "type": "electric_scooter", "name": "cd2a0d93ea2a66c21775faacab0035cf", "lon": -77.00713416666666, "rental_uris": {"android": "https://dc.lft.to/lastmile_qr_scan", "ios": "https://dc.lft.to/lastmile_qr_scan"}, "fusion_lat": 0.0}, {"is_disabled": 0, "lat": 38.9177315, "bike_id": "a2ed831e9120672cb1c715ef9ddacaf7", "fusion_lon": 0.0, "is_reserved": 0, "type": "electric_scooter", "name": "a2ed831e9120672cb1c715ef9ddacaf7", "lon": -77.03203666666667, "rental_uris": {"android": "https://dc.lft.to/lastmile_qr_scan", "ios": "https://dc.lft.to/lastmile_qr_scan"}, "fusion_lat": 0.0},