{"data": {"bikes": [{"lat": 38.871465666666666, "is_disabled": 0, "type": "electric_bike", "lon": -76.93669166666666, "bike_id": "c9136ed542fd68f47e01d7c8035214c0", "fusion_lat": 0.0, "name": "c9136ed542fd68f47e01d7c8035214c0", "is_reserved": 0, "rental_uris": {"android": "https://dc.lft.to/lastmile_qr_scan", "ios": "https://dc.lft.to/lastmile_qr_scan"}, "fusion_lon": 0.0}, {"lat": 38.90289833333333, "is_disabled": 0, "type": "electric_scooter", "lon": -77.0365425, "bike_id": "85cd09bc2b978decf3e80174b67e40ff", "fusion_lat": 0.0, "name": "85cd09bc2b978decf3e80174b67e40ff", "is_reserved": 0, "rental_uris": {"android": "https://dc.lft.to/lastmile_qr_scan", "ios": "https://dc.lft.to/lastmile_qr_scan"}, "fusion_lon": 0.0}, {"lat": 38.9001225, "is_disabled": 0, "type": "electric_scooter", "lon": -77.033077, "bike_id": "1cb01bc3598ef24b57bf55cf5d51d87b", "fusion_lat": 0.0, "name": "1cb01bc3598ef24b57bf55cf5d51d87b", "is_reserved": 0, "rental_uris": {"android": "https://dc.lft.to/lastmile_qr_scan", "ios": "https://dc.lft.to/lastmile_qr_scan"}, "fusion_lon": 0.0}, {"lat": 38.94137216666667, "is_disabled": 0, "type": "electric_scooter", "lon": -77.07617, "bike_id": "6ba03f23fdbdeace8123f6e5307e4d47", "fusion_lat": 0.0, "name": "6ba03f23fdbdeace8123f6e5307e4d47", "is_reserved": 0, "rental_uris": {"android": "https://dc.lft.to/lastmile_qr_scan", "ios": "https://dc.lft.to/lastmile_qr_scan"}, "fusion_lon": 0.0}, {"lat": 38.916383, "is_disabled": 0, "type": "electric_scooter", "lon": -77.02699016666666, "bike_id": "9fe15e796100e4788e1e74119a43dc48", "fusion_lat": 0.0, "name": "9fe15e796100e4788e1e74119a43dc48", "is_reserved": 0, "rental_uris": {"android": "https://dc.lft.to/lastmile_qr_scan", "ios": "https://dc.lft.to/lastmile_qr_scan"}, "fusion_lon": 0.0}, {"lat": 38.90947383333334, "is_disabled": 0, "type": "electric_scooter", "lon": -77.04657966666667, "bike_id": "fa7b6be7fd83962595c4be95769f35c5", "fusion_lat": 0.0, "name": "fa7b6be7fd83962595c4be95769f35c5", "is_reserved": 0, "rental_uris": {"android": "https://dc.lft.to/lastmile_qr_scan", "ios": "https://dc.lft.to/lastmile_qr_scan"}, "fusion_lon": 0.0}, {"lat": 38.900286, "is_disabled": 0, "type": "electric_scooter", "lon": -77.03332833333333, "bike_id": "ff4812ccafb89f957c7ef21d58e74fdf", "fusion_lat": 0.0, "name": "ff4812ccafb89f957c7ef21d58e74fdf", "is_reserved": 0, "rental_uris": {"android": "https://dc.lft.to/lastmile_qr_scan", "ios": "https://dc.lft.to/lastmile_qr_scan"}, "fusion_lon": 0.0}, {"lat": 38.90281433333333, "is_disabled": 0, "type": "electric_scooter", "lon": -77.0116435, "bike_id": "a81fc542b075605689ff7f3fae65f8c3", "fusion_lat": 0.0, "name": "a81fc542b075605689ff7f3fae65f8c3", "is_reserved": 0, "rental_uris": {"android": "https://dc.lft.to/lastmile_qr_scan", "ios": "https://dc.lft.to/lastmile_qr_scan"}, "fusion_lon": 0.0}, {"lat": 38.93581566666667, "is_disabled": 0, "type": "electric_bike", "lon": -77.10686783333334, "bike_id": "895210ac8e1313c15a7782d36d38a209", "fusion_lat": 0.0, "name": "895210ac8e1313c15a7782d36d38a209", "is_reserved": 0, "rental_uris": {"android": "https://dc.lft.to/lastmile_qr_scan", "ios": "https://dc.lft.to/lastmile_qr_scan"}, "fusion_lon": 0.0}, {"lat": 38.86361316666667, "is_disabled": 0, "type": "electric_scooter", "lon": -76.9903595, "bike_id": "12d4a621da1facad1c95f28565187bd7", "fusion_lat": 0.0, "name": "12d4a621da1facad1c95f28565187bd7", "is_reserved": 0, "rental_uris": {"android": "https://dc.lft.to/lastmile_qr_scan", "ios": "https://dc.lft.to/lastmile_qr_scan"}, "fusion_lon": 0.0}, {"lat": 38.89527616666667, "is_disabled": 0, "type": "electric_scooter", "lon": -77.0006645, "bike_id": "66727be2412e87bedb78cc7c86ca0a41", "fusion_lat": 0.0, "name": "66727be2412e87bedb78cc7c86ca0a41", "is_reserved": 0, "rental_uris": {"android": "https://dc.lft.to/lastmile_qr_scan", "ios": "https://dc.lft.to/lastmile_qr_scan"}, "fusion_lon": 0.0}, {"lat": 38.945023666666664, "is_disabled": 0, "type": "electric_bike", "lon": -77.00678, "bike_id": "80f47fabaf2f7a13c0b30d2118ad6a09", "fusion_lat": 0.0, "name": "80f47fabaf2f7a13c0b30d2118ad6a09", "is_reserved": 0, "rental_uris": {"android": "https://dc.lft.to/lastmile_qr_scan", "ios": "https://dc.lft.to/lastmile_qr_scan"}, "fusion_lon": 0.0}, {"lat": 38.948369166666666, "is_disabled": 0, "type": "electric_scooter", "lon": -77.02578, "bike_id": "d5387898ecc96892d94ccb3ae5726fd2", "fusion_lat": 0.0, "name": "d5387898ecc96892d94ccb3ae5726fd2", "is_reserved": 0, "rental_uris": {"android": "https://dc.lft.to/lastmile_qr_scan", "ios": "https://dc.lft.to/lastmile_qr_scan"}, "fusion_lon": 0.0}, {"lat": 38.950572, "is_disabled": 0, "type": "electric_scooter", "lon": -77.00720816666667, "bike_id": "6f3b4bf303e541403253b211531e0ff6", "fusion_lat": 0.0, "name": "6f3b4bf303e541403253b211531e0ff6", "is_reserved": 0, "rental_uris": {"android": "https://dc.lft.to/lastmile_qr_scan", "ios": "https://dc.lft.to/lastmile_qr_scan"}, "fusion_lon": 0.0}, {"lat": 38.9100285, "is_disabled": 0, "type": "electric_scooter", "lon": -77.04005266666667, "bike_id": "441dbfbb101b404d27e209b3098abd89", "fusion_lat": 0.0, "name": "441dbfbb101b404d27e209b3098abd89", "is_reserved": 0, "rental_uris": {"android": "https://dc.lft.to/lastmile_qr_scan", "ios": "https://dc.lft.to/lastmile_qr_scan"}, "fusion_lon": 0.0}, {"lat": 38.92782316666667, "is_disabled": 0, "type": "electric_scooter", "lon": -77.02690033333333, "bike_id": "62a43a889ea51e8bfa609c1336716f5b", "fusion_lat": 0.0, "name": "62a43a889ea51e8bfa609c1336716f5b", "is_reserved": 0, "rental_uris": {"android": "https://dc.lft.to/lastmile_qr_scan", "ios": "https://dc.lft.to/lastmile_qr_scan"}, "fusion_lon": 0.0}, {"lat": 38.896438833333335, "is_disabled": 0, "type": "electric_scooter", "lon": -77.00911266666667, "bike_id": "8c2dc503a37679cc85b33af8c4f5f87b", "fusion_lat": 0.0, "name": "8c2dc503a37679cc85b33af8c4f5f87b", "is_reserved": 0, "rental_uris": {"android": "https://dc.lft.to/lastmile_qr_scan", "ios": "https://dc.lft.to/lastmile_qr_scan"}, "fusion_lon": 0.0}, {"lat": 38.908678, "is_disabled": 0, "type": "electric_scooter", "lon": -77.03856483333334, "bike_id": "58ffbee9c1a40c39b8bdf038a04bf3a4", "fusion_lat": 0.0, "name": "58ffbee9c1a40c39b8bdf038a04bf3a4", "is_reserved": 0, "rental_uris": {"android": "https://dc.lft.to/lastmile_qr_scan", "ios": "https://dc.lft.to/lastmile_qr_scan"}, "fusion_lon": 0.0}, {"lat": 38.9662455, "is_disabled": 0, "type": "electric_bike", "lon": -76.97667733333333, "bike_id": "9f5cbe4dfb20880e4fd38b9dad6bb867", "fusion_lat": 0.0, "name": "9f5cbe4dfb20880e4fd38b9dad6bb867", "is_reserved": 0, "rental_uris": {"android": "https://dc.lft.to/lastmile_qr_scan", "ios": "https://dc.lft.to/lastmile_qr_scan"}, "fusion_lon": 0.0}, {"lat": 38.903065833333336, "is_disabled": 0, "type": "electric_scooter", "lon": -77.05317016666666, "bike_id": "d4883fd909513b518706ad14d85e5fd7", "fusion_lat": 0.0, "name": "d4883fd909513b518706ad14d85e5fd7", "is_reserved": 0, "rental_uris": {"android": "https://dc.lft.to/lastmile_qr_scan", "ios": "https://dc.lft.to/lastmile_qr_scan"}, "fusion_lon": 0.0}, {"lat": 38.8975925, "is_disabled": 0, "type": "electric_scooter", "lon": -77.0466215, "bike_id": "65e716e94caa9f78e983eda023974223", "fusion_lat": 0.0, "name": "65e716e94caa9f78e983eda023974223", "is_reserved": 0, "rental_uris": {"android": "https://dc.lft.to/lastmile_qr_scan", "ios": "https://dc.lft.to/lastmile_qr_scan"}, "fusion_lon": 0.0}, {"lat": 38.92743566666667, "is_disabled": 0, "type": "electric_scooter", "lon": -77.02416383333333, "bike_id": "c104d7afaf2c5cefd211490df94e2cb3", "fusion_lat": 0.0, "name": "c104d7afaf2c5cefd211490df94e2cb3", "is_reserved": 0, "rental_uris": {"android": "https://dc.lft.to/lastmile_qr_scan", "ios": "https://dc.lft.to/lastmile_qr_scan"}, "fusion_lon": 0.0}, {"lat": 38.901507, "is_disabled": 0, "type": "electric_scooter", "lon": -77.00069316666666, "bike_id": "220706788a846e34b6e0befe34b4a96f", "fusion_lat": 0.0, "name": "220706788a846e34b6e0befe34b4a96f", "is_reserved": 0, "rental_uris": {"android": "https://dc.lft.to/lastmile_qr_scan", "ios": "https://dc.lft.to/lastmile_qr_scan"}, "fusion_lon": 0.0}, {"lat": 38.923604833333336, "is_disabled": 0, "type": "electric_scooter", "lon": -77.04147783333333, "bike_id": "8dfd608090f146a16434d43a1e222830", "fusion_lat": 0.0, "name": "8dfd608090f146a16434d43a1e222830", "is_reserved": 0, "rental_uris": {"android": "https://dc.lft.to/lastmile_qr_scan", "ios": "https://dc.lft.to/lastmile_qr_scan"}, "fusion_lon": 0.0}, {"lat": 38.95732066666667, "is_disabled": 0, "type": "electric_scooter", "lon": -77.02401966666666, "bike_id": "39baed0c88528af486c8d4bbedbdbf18", "fusion_lat": 0.0, "name": "39baed0c88528af486c8d4bbedbdbf18", "is_reserved": 0, "rental_uris": {"android": "https://dc.lft.to/lastmile_qr_scan", "ios": "https://dc.lft.to/lastmile_qr_scan"}, "fusion_lon": 0.0}, {"lat": 38.92743983333333, "is_disabled": 0, "type": "electric_bike", "lon": -77.0342335, "bike_id": "4820b8baeea439847be6a4e23e9bb19f", "fusion_lat": 0.0, "name": "4820b8baeea439847be6a4e23e9bb19f", "is_reserved": 0, "rental_uris": {"android": "https://dc.lft.to/lastmile_qr_scan", "ios": "https://dc.lft.to/lastmile_qr_scan"}, "fusion_lon": 0.0}, {"lat": 38.946327333333336, "is_disabled": 0, "type": "electric_scooter", "lon": -77.02524533333333, "bike_id": "016a807c9c3227d60a0a8fea3f6af7af", "fusion_lat": 0.0, "name": "016a807c9c3227d60a0a8fea3f6af7af", "is_reserved": 0, "rental_uris": {"android": "https://dc.lft.to/lastmile_qr_scan", "ios": "https://dc.lft.to/lastmile_qr_scan"}, "fusion_lon": 0.0}, {"lat": 38.922974333333336, "is_disabled": 0, "type": "electric_scooter", "lon": -77.04265933333333, "bike_id": "092d45fcc67d3ca5d1cc04f20aa2bf19", "fusion_lat": 0.0, "name": "092d45fcc67d3ca5d1cc04f20aa2bf19", "is_reserved": 0, "rental_uris": {"android": "https://dc.lft.to/lastmile_qr_scan", "ios": "https://dc.lft.to/lastmile_qr_scan"}, "fusion_lon": 0.0}, {"lat": 38.87732866666666, "is_disabled": 0, "type": "electric_bike", "lon": -76.9810925, "bike_id": "97f79d7cec348e2a2dd87305c5ec1bc7", "fusion_lat": 0.0, "name": "97f79d7cec348e2a2dd87305c5ec1bc7", "is_reserved": 0, "rental_uris": {"android": "https://dc.lft.to/lastmile_qr_scan", "ios": "https://dc.lft.to/lastmile_qr_scan"}, "fusion_lon": 0.0}, {"lat": 38.900168, "is_disabled": 0, "type": "electric_scooter", "lon": -77.012008, "bike_id": "acb31f63900dcac8e59908d3d9b1f179", "fusion_lat": 0.0, "name": "acb31f63900dcac8e59908d3d9b1f179", "is_reserved": 0, "rental_uris": {"android": "https://dc.lft.to/lastmile_qr_scan", "ios": "https://dc.lft.to/lastmile_qr_scan"}, "fusion_lon": 0.0}, {"lat": 38.89743, "is_disabled": 0, "type": "electric_scooter", "lon": -77.00075883333334, "bike_id": "ba2d8918075828b351810270ddfffc12", "fusion_lat": 0.0, "name": "ba2d8918075828b351810270ddfffc12", "is_reserved": 0, "rental_uris": {"android": "https://dc.lft.to/lastmile_qr_scan", "ios": "https://dc.lft.to/lastmile_qr_scan"}, "fusion_lon": 0.0}, {"lat": 38.93315833333333, "is_disabled": 0, "type": "electric_scooter", "lon": -77.04521816666667, "bike_id": "0de7b16b2d973321923d7389ca242b96", "fusion_lat": 0.0, "name": "0de7b16b2d973321923d7389ca242b96", "is_reserved": 0, "rental_uris": {"android": "https://dc.lft.to/lastmile_qr_scan", "ios": "https://dc.lft.to/lastmile_qr_scan"}, "fusion_lon": 0.0}, {"lat": 38.832314333333336, "is_disabled": 0, "type": "electric_bike", "lon": -77.04971833333333, "bike_id": "3149072f3d952e6662322ab98583de9c", "fusion_lat": 0.0, "name": "3149072f3d952e6662322ab98583de9c", "is_reserved": 0, "rental_uris": {"android": "https://dc.lft.to/lastmile_qr_scan", "ios": "https://dc.lft.to/lastmile_qr_scan"}, "fusion_lon": 0.0}, {"lat": 38.9097205, "is_disabled": 0, "type": "electric_scooter", "lon": -77.039455, "bike_id": "035cb420b0126b369b5ba6b47a2bd5b7", "fusion_lat": 0.0, "name": "035cb420b0126b369b5ba6b47a2bd5b7", "is_reserved": 0, "rental_uris": {"android": "https://dc.lft.to/lastmile_qr_scan", "ios": "https://dc.lft.to/lastmile_qr_scan"}, "fusion_lon": 0.0}, {"lat": 38.872907166666664, "is_disabled": 0, "type": "electric_scooter", "lon": -77.00983716666667, "bike_id": "c02099cd514b62aea8fe88af4f616eb4", "fusion_lat": 0.0, "name": "c02099cd514b62aea8fe88af4f616eb4", "is_reserved": 0, "rental_uris": {"android": "https://dc.lft.to/lastmile_qr_scan", "ios": "https://dc.lft.to/lastmile_qr_scan"}, "fusion_lon": 0.0}, {"lat": 38.87862616666666, "is_disabled": 0, "type": "electric_scooter", "lon": -77.0073015, "bike_id": "b7e4737df842ee41c376471b70691d25", "fusion_lat": 0.0, "name": "b7e4737df842ee41c376471b70691d25", "is_reserved": 0, "rental_uris": {"android": "https://dc.lft.to/lastmile_qr_scan", "ios": "https://dc.lft.to/lastmile_qr_scan"}, "fusion_lon": 0.0}, {"lat": 38.898891666666664, "is_disabled": 0, "type": "electric_scooter", "lon": -77.02046333333334, "bike_id": "73fa7d0da8f824677be0639b28b57337", "fusion_lat": 0.0, "name": "73fa7d0da8f824677be0639b28b57337", "is_reserved": 0, "rental_uris": {"android": "https://dc.lft.to/lastmile_qr_scan", "ios": "https://dc.lft.to/lastmile_qr_scan"}, "fusion_lon": 0.0}, {"lat": 38.916731166666665, "is_disabled": 0, "type": "electric_scooter", "lon": -77.02395266666667, "bike_id": "317644bacb74dd2c0ccdeff63fd4ad6e", "fusion_lat": 0.0, "name": "317644bacb74dd2c0ccdeff63fd4ad6e", "is_reserved": 0, "rental_uris": {"android": "https://dc.lft.to/lastmile_qr_scan", "ios": "https://dc.lft.to/lastmile_qr_scan"}, "fusion_lon": 0.0}, {"lat": 38.920677, "is_disabled": 0, "type": "electric_scooter", "lon": -77.04801216666667, "bike_id": "ad4eee481ff14169138c89ded79d0ca7", "fusion_lat": 0.0, "name": "ad4eee481ff14169138c89ded79d0ca7", "is_reserved": 0, "rental_uris": {"android": "https://dc.lft.to/lastmile_qr_scan", "ios": "https://dc.lft.to/lastmile_qr_scan"}, "fusion_lon": 0.0}, {"lat": 38.866762, "is_disabled": 0, "type": "electric_scooter", "lon": -76.98540366666667, "bike_id": "f2da407f21a49227d320e6f1d7d2786e", "fusion_lat": 0.0, "name": "f2da407f21a49227d320e6f1d7d2786e", "is_reserved": 0, "rental_uris": {"android": "https://dc.lft.to/lastmile_qr_scan", "ios": "https://dc.lft.to/lastmile_qr_scan"}, "fusion_lon": 0.0}, {"lat": 38.91763, "is_disabled": 0, "type": "electric_scooter", "lon": -77.02813133333333, "bike_id": "3df856af1dfd66037adbf174e769cfa9", "fusion_lat": 0.0, "name": "3df856af1dfd66037adbf174e769cfa9", "is_reserved": 0, "rental_uris": {"android": "https://dc.lft.to/lastmile_qr_scan", "ios": "https://dc.lft.to/lastmile_qr_scan"}, "fusion_lon": 0.0}, {"lat": 38.9205025, "is_disabled": 0, "type": "electric_scooter", "lon": -77.02361683333334, "bike_id": "065e16779c08a1d6766a6209d886aa63", "fusion_lat": 0.0, "name": "065e16779c08a1d6766a6209d886aa63", "is_reserved": 0, "rental_uris": {"android": "https://dc.lft.to/lastmile_qr_scan", "ios": "https://dc.lft.to/lastmile_qr_scan"}, "fusion_lon": 0.0}, {"lat": 38.862572, "is_disabled": 0, "type": "electric_scooter", "lon": -76.99516416666667, "bike_id": "41ee4df4800047d51be9d2e9e775c007", "fusion_lat": 0.0, "name": "41ee4df4800047d51be9d2e9e775c007", "is_reserved": 0, "rental_uris": {"android": "https://dc.lft.to/lastmile_qr_scan", "ios": "https://dc.lft.to/lastmile_qr_scan"}, "fusion_lon": 0.0}, {"lat": 38.938612166666665, "is_disabled": 0, "type": "electric_scooter", "lon": -77.02323433333333, "bike_id": "e2ebbccba5e86a979b7b36de193ed300", "fusion_lat": 0.0, "name": "e2ebbccba5e86a979b7b36de193ed300", "is_reserved": 0, "rental_uris": {"android": "https://dc.lft.to/lastmile_qr_scan", "ios": "https://dc.lft.to/lastmile_qr_scan"}, "fusion_lon": 0.0}, {"lat": 38.93462533333334, "is_disabled": 0, "type": "electric_scooter", "lon": -77.02836466666666, "bike_id": "231f313beeb4810100577f5d1a63519b", "fusion_lat": 0.0, "name": "231f313beeb4810100577f5d1a63519b", "is_reserved": 0, "rental_uris": {"android": "https://dc.lft.to/lastmile_qr_scan", "ios": "https://dc.lft.to/lastmile_qr_scan"}, "fusion_lon": 0.0}, {"lat": 38.93358766666667, "is_disabled": 0, "type": "electric_scooter", "lon": -77.02492516666666, "bike_id": "f3b84dee63f78c82277a1c4d2761ffc9", "fusion_lat": 0.0, "name": "f3b84dee63f78c82277a1c4d2761ffc9", "is_reserved": 0, "rental_uris": {"android": "https://dc.lft.to/lastmile_qr_scan", "ios": "https://dc.lft.to/lastmile_qr_scan"}, "fusion_lon": 0.0}, {"lat": 38.95405783333333, "is_disabled": 0, "type": "electric_scooter", "lon": -77.0274665, "bike_id": "785ae0916018a2805f7ae1ebc204f8bb", "fusion_lat": 0.0, "name": "785ae0916018a2805f7ae1ebc204f8bb", "is_reserved": 0, "rental_uris": {"android": "https://dc.lft.to/lastmile_qr_scan", "ios": "https://dc.lft.to/lastmile_qr_scan"}, "fusion_lon": 0.0}, {"lat": 38.892421166666665, "is_disabled": 0, "type": "electric_scooter", "lon": -77.05031066666666, "bike_id": "d83e9fcc5ed14a7fc8c1fb2fa5f1f687", "fusion_lat": 0.0, "name": "d83e9fcc5ed14a7fc8c1fb2fa5f1f687", "is_reserved": 0, "rental_uris": {"android": "https://dc.lft.to/lastmile_qr_scan", "ios": "https://dc.lft.to/lastmile_qr_scan"}, "fusion_lon": 0.0}, {"lat": 38.80270383333333, "is_disabled": 0, "type": "electric_bike", "lon": -77.08111833333334, "bike_id": "2d9bc131d4d78b76c564cef4b7b18dd8", "fusion_lat": 0.0, "name": "2d9bc131d4d78b76c564cef4b7b18dd8", "is_reserved": 0, "rental_uris": {"android": "https://dc.lft.to/lastmile_qr_scan", "ios": "https://dc.lft.to/lastmile_qr_scan"}, "fusion_lon": 0.0}, {"lat": 38.859712333333334, "is_disabled": 0, "type": "electric_bike", "lon": -77.05674183333333, "bike_id": "0bd14377a732cca9ca6439c2d802d223", "fusion_lat": 0.0, "name": "0bd14377a732cca9ca6439c2d802d223", "is_reserved": 0, "rental_uris": {"android": "https://dc.lft.to/lastmile_qr_scan", "ios": "https://dc.lft.to/lastmile_qr_scan"}, "fusion_lon": 0.0}, {"lat": 38.949163666666664, "is_disabled": 0, "type": "electric_scooter", "lon": -77.00868116666666, "bike_id": "06f2edeaaf0c092f4c5c0ebc5a0c74ec", "fusion_lat": 0.0, "name": "06f2edeaaf0c092f4c5c0ebc5a0c74ec", "is_reserved": 0, "rental_uris": {"android": "https://dc.lft.to/lastmile_qr_scan", "ios": "https://dc.lft.to/lastmile_qr_scan"}, "fusion_lon": 0.0}, {"lat": 38.918182333333334, "is_disabled": 0, "type": "electric_scooter", "lon": -77.01390716666667, "bike_id": "864c5de03046a87fda982115b94e305e", "fusion_lat": 0.0, "name": "864c5de03046a87fda982115b94e305e", "is_reserved": 0, "rental_uris": {"android": "https://dc.lft.to/lastmile_qr_scan", "ios": "https://dc.lft.to/lastmile_qr_scan"}, "fusion_lon": 0.0}, {"lat": 38.906330833333335, "is_disabled": 0, "type": "electric_scooter", "lon": -77.03412133333333, "bike_id": "a3a6aa9a69d49affed0aa86aa9e4c091", "fusion_lat": 0.0, "name": "a3a6aa9a69d49affed0aa86aa9e4c091", "is_reserved": 0, "rental_uris": {"android": "https://dc.lft.to/lastmile_qr_scan", "ios": "https://dc.lft.to/lastmile_qr_scan"}, "fusion_lon": 0.0}, {"lat": 38.911183666666666, "is_disabled": 0, "type": "electric_scooter", "lon": -77.03829416666666, "bike_id": "fbbffc6cc747e1b9e5af91d6b46e34cd", "fusion_lat": 0.0, "name": "fbbffc6cc747e1b9e5af91d6b46e34cd", "is_reserved": 0, "rental_uris": {"android": "https://dc.lft.to/lastmile_qr_scan", "ios": "https://dc.lft.to/lastmile_qr_scan"}, "fusion_lon": 0.0}, {"lat": 38.91467, "is_disabled": 0, "type": "electric_scooter", "lon": -77.02804233333333, "bike_id": "4a9b1818258783446c098d4f1c328fca", "fusion_lat": 0.0, "name": "4a9b1818258783446c098d4f1c328fca", "is_reserved": 0, "rental_uris": {"android": "https://dc.lft.to/lastmile_qr_scan", "ios": "https://dc.lft.to/lastmile_qr_scan"}, "fusion_lon": 0.0}, {"lat": 38.90128883333333, "is_disabled": 0, "type": "electric_scooter", "lon": -77.0292075, "bike_id": "37c004d3cb09cb70da685790caa7cb28", "fusion_lat": 0.0, "name": "37c004d3cb09cb70da685790caa7cb28", "is_reserved": 0, "rental_uris": {"android": "https://dc.lft.to/lastmile_qr_scan", "ios": "https://dc.lft.to/lastmile_qr_scan"}, "fusion_lon": 0.0}, {"lat": 38.8567915, "is_disabled": 0, "type": "electric_scooter", "lon": -76.98169983333334, "bike_id": "91081a0cc6c0c3dfa9d1fdd987f53739", "fusion_lat": 0.0, "name": "91081a0cc6c0c3dfa9d1fdd987f53739", "is_reserved": 0, "rental_uris": {"android": "https://dc.lft.to/lastmile_qr_scan", "ios": "https://dc.lft.to/lastmile_qr_scan"}, "fusion_lon": 0.0}, {"lat": 38.926568, "is_disabled": 0, "type": "electric_scooter", "lon": -76.9974695, "bike_id": "f88a2b6a38be0fdc87cf4ffefb485424", "fusion_lat": 0.0, "name": "f88a2b6a38be0fdc87cf4ffefb485424", "is_reserved": 0, "rental_uris": {"android": "https://dc.lft.to/lastmile_qr_scan", "ios": "https://dc.lft.to/lastmile_qr_scan"}, "fusion_lon": 0.0}, {"lat": 38.8848905, "is_disabled": 0, "type": "electric_scooter", "lon": -77.03476183333333, "bike_id": "a61b91014249bf339c5ed13714fc9a0d", "fusion_lat": 0.0, "name": "a61b91014249bf339c5ed13714fc9a0d", "is_reserved": 0, "rental_uris": {"android": "https://dc.lft.to/lastmile_qr_scan", "ios": "https://dc.lft.to/lastmile_qr_scan"}, "fusion_lon": 0.0}, {"lat": 38.842742333333334, "is_disabled": 0, "type": "electric_bike", "lon": -76.9884205, "bike_id": "fb2854f80c981e593215fa67ff000a18", "fusion_lat": 0.0, "name": "fb2854f80c981e593215fa67ff000a18", "is_reserved": 0, "rental_uris": {"android": "https://dc.lft.to/lastmile_qr_scan", "ios": "https://dc.lft.to/lastmile_qr_scan"}, "fusion_lon": 0.0}, {"lat": 38.8962315, "is_disabled": 0, "type": "electric_scooter", "lon": -77.021412, "bike_id": "f4e8031e6fdbea9f400c31fead24ad71", "fusion_lat": 0.0, "name": "f4e8031e6fdbea9f400c31fead24ad71", "is_reserved": 0, "rental_uris": {"android": "https://dc.lft.to/lastmile_qr_scan", "ios": "https://dc.lft.to/lastmile_qr_scan"}, "fusion_lon": 0.0}, {"lat": 38.98279266666667, "is_disabled": 0, "type": "electric_bike", "lon": -77.02539633333333, "bike_id": "cb324e4b2a3b5258a6e7ab90481a6aa5", "fusion_lat": 0.0, "name": "cb324e4b2a3b5258a6e7ab90481a6aa5", "is_reserved": 0, "rental_uris": {"android": "https://dc.lft.to/lastmile_qr_scan", "ios": "https://dc.lft.to/lastmile_qr_scan"}, "fusion_lon": 0.0}, {"lat": 38.86509733333333, "is_disabled": 0, "type": "electric_scooter", "lon": -76.99006033333333, "bike_id": "05d3fa558019ce1760ab78e431d9eb49", "fusion_lat": 0.0, "name": "05d3fa558019ce1760ab78e431d9eb49", "is_reserved": 0, "rental_uris": {"android": "https://dc.lft.to/lastmile_qr_scan", "ios": "https://dc.lft.to/lastmile_qr_scan"}, "fusion_lon": 0.0}, {"lat": 38.837314166666665, "is_disabled": 0, "type": "electric_bike", "lon": -76.99759916666666, "bike_id": "c69e34a5361b8a5e33e868e7a2666781", "fusion_lat": 0.0, "name": "c69e34a5361b8a5e33e868e7a2666781", "is_reserved": 0, "rental_uris": {"android": "https://dc.lft.to/lastmile_qr_scan", "ios": "https://dc.lft.to/lastmile_qr_scan"}, "fusion_lon": 0.0}, {"lat": 38.922538833333334, "is_disabled": 0, "type": "electric_scooter", "lon": -77.04253183333333, "bike_id": "e92e9a116019e9a6c1d3bca02a438a9c", "fusion_lat": 0.0, "name": "e92e9a116019e9a6c1d3bca02a438a9c", "is_reserved": 0, "rental_uris": {"android": "https://dc.lft.to/lastmile_qr_scan", "ios": "https://dc.lft.to/lastmile_qr_scan"}, "fusion_lon": 0.0}, {"lat": 38.934124, "is_disabled": 0, "type": "electric_scooter", "lon": -77.02472116666667, "bike_id": "422efd443584af781a6aa7bfae23fe0f", "fusion_lat": 0.0, "name": "422efd443584af781a6aa7bfae23fe0f", "is_reserved": 0, "rental_uris": {"android": "https://dc.lft.to/lastmile_qr_scan", "ios": "https://dc.lft.to/lastmile_qr_scan"}, "fusion_lon": 0.0}, {"lat": 38.9166065, "is_disabled": 0, "type": "electric_scooter", "lon": -77.04729866666666, "bike_id": "7f8c2648f4522765ef813b7b3263eafe", "fusion_lat": 0.0, "name": "7f8c2648f4522765ef813b7b3263eafe", "is_reserved": 0, "rental_uris": {"android": "https://dc.lft.to/lastmile_qr_scan", "ios": "https://dc.lft.to/lastmile_qr_scan"}, "fusion_lon": 0.0}, {"lat": 38.895453, "is_disabled": 0, "type": "electric_scooter", "lon": -77.00440816666666, "bike_id": "2b731d1e2a2c40b987bbeaa839d762fd", "fusion_lat": 0.0, "name": "2b731d1e2a2c40b987bbeaa839d762fd", "is_reserved": 0, "rental_uris": {"android": "https://dc.lft.to/lastmile_qr_scan", "ios": "https://dc.lft.to/lastmile_qr_scan"}, "fusion_lon": 0.0}, {"lat": 38.80227933333333, "is_disabled": 0, "type": "electric_bike", "lon": -77.079188, "bike_id": "ee39c1b81da57b5c8ccb56227ca671c0", "fusion_lat": 0.0, "name": "ee39c1b81da57b5c8ccb56227ca671c0", "is_reserved": 0, "rental_uris": {"android": "https://dc.lft.to/lastmile_qr_scan", "ios": "https://dc.lft.to/lastmile_qr_scan"}, "fusion_lon": 0.0}, {"lat": 38.927949166666664, "is_disabled": 0, "type": "electric_scooter", "lon": -77.026041, "bike_id": "962ee8f1846b2256ee83a1a254259e28", "fusion_lat": 0.0, "name": "962ee8f1846b2256ee83a1a254259e28", "is_reserved": 0, "rental_uris": {"android": "https://dc.lft.to/lastmile_qr_scan", "ios": "https://dc.lft.to/lastmile_qr_scan"}, "fusion_lon": 0.0}, {"lat": 38.897335, "is_disabled": 0, "type": "electric_scooter", "lon": -77.02230433333334, "bike_id": "c4c270799712926b983e8c5ed17b9d6a", "fusion_lat": 0.0, "name": "c4c270799712926b983e8c5ed17b9d6a", "is_reserved": 0, "rental_uris": {"android": "https://dc.lft.to/lastmile_qr_scan", "ios": "https://dc.lft.to/lastmile_qr_scan"}, "fusion_lon": 0.0}, {"lat": 38.932844833333334, "is_disabled": 0, "type": "electric_scooter", "lon": -77.0266365, "bike_id": "6c7572edbd51d7f786edc8da959d6302", "fusion_lat": 0.0, "name": "6c7572edbd51d7f786edc8da959d6302", "is_reserved": 0, "rental_uris": {"android": "https://dc.lft.to/lastmile_qr_scan", "ios": "https://dc.lft.to/lastmile_qr_scan"}, "fusion_lon": 0.0}, {"lat": 38.899565, "is_disabled": 0, "type": "electric_scooter", "lon": -77.05200483333333, "bike_id": "a3e90b736e23418c6a7885da8cd55c76", "fusion_lat": 0.0, "name": "a3e90b736e23418c6a7885da8cd55c76", "is_reserved": 0, "rental_uris": {"android": "https://dc.lft.to/lastmile_qr_scan", "ios": "https://dc.lft.to/lastmile_qr_scan"}, "fusion_lon": 0.0}, {"lat": 38.921127166666665, "is_disabled": 0, "type": "electric_scooter", "lon": -77.04683783333333, "bike_id": "93d67906f526d1eea12e42a8cf7598b8", "fusion_lat": 0.0, "name": "93d67906f526d1eea12e42a8cf7598b8", "is_reserved": 0, "rental_uris": {"android": "https://dc.lft.to/lastmile_qr_scan", "ios": "https://dc.lft.to/lastmile_qr_scan"}, "fusion_lon": 0.0}, {"lat": 38.919758, "is_disabled": 0, "type": "electric_scooter", "lon": -77.03334383333333, "bike_id": "2a04eee0327fa3af581acfc909572662", "fusion_lat": 0.0, "name": "2a04eee0327fa3af581acfc909572662", "is_reserved": 0, "rental_uris": {"android": "https://dc.lft.to/lastmile_qr_scan", "ios": "https://dc.lft.to/lastmile_qr_scan"}, "fusion_lon": 0.0}, {"lat": 38.863687166666665, "is_disabled": 0, "type": "electric_scooter", "lon": -76.990309, "bike_id": "002137740f7994e2c52d28b610586f06", "fusion_lat": 0.0, "name": "002137740f7994e2c52d28b610586f06", "is_reserved": 0, "rental_uris": {"android": "https://dc.lft.to/lastmile_qr_scan", "ios": "https://dc.lft.to/lastmile_qr_scan"}, "fusion_lon": 0.0}, {"lat": 38.9338445, "is_disabled": 0, "type": "electric_scooter", "lon": -76.995154, "bike_id": "702f6d68ac7494dca073fff4a58478d1", "fusion_lat": 0.0, "name": "702f6d68ac7494dca073fff4a58478d1", "is_reserved": 0, "rental_uris": {"android": "https://dc.lft.to/lastmile_qr_scan", "ios": "https://dc.lft.to/lastmile_qr_scan"}, "fusion_lon": 0.0}, {"lat": 38.8853355, "is_disabled": 0, "type": "electric_scooter", "lon": -76.982684, "bike_id": "8f3078c5010281edec6b54d0ed2d1735", "fusion_lat": 0.0, "name": "8f3078c5010281edec6b54d0ed2d1735", "is_reserved": 0, "rental_uris": {"android": "https://dc.lft.to/lastmile_qr_scan", "ios": "https://dc.lft.to/lastmile_qr_scan"}, "fusion_lon": 0.0}, {"lat": 38.919077, "is_disabled": 0, "type": "electric_scooter", "lon": -77.044696, "bike_id": "891f43b1147316ab44fcf05febedce69", "fusion_lat": 0.0, "name": "891f43b1147316ab44fcf05febedce69", "is_reserved": 0, "rental_uris": {"android": "https://dc.lft.to/lastmile_qr_scan", "ios": "https://dc.lft.to/lastmile_qr_scan"}, "fusion_lon": 0.0}, {"lat": 38.920295, "is_disabled": 0, "type": "electric_scooter", "lon": -77.01326233333333, "bike_id": "754dd5019ce73a09e58735de1f4c3395", "fusion_lat": 0.0, "name": "754dd5019ce73a09e58735de1f4c3395", "is_reserved": 0, "rental_uris": {"android": "https://dc.lft.to/lastmile_qr_scan", "ios": "https://dc.lft.to/lastmile_qr_scan"}, "fusion_lon": 0.0}, {"lat": 38.9261875, "is_disabled": 0, "type": "electric_scooter", "lon": -77.041936, "bike_id": "3355fa2e762923bdad4d2c1f088d645c", "fusion_lat": 0.0, "name": "3355fa2e762923bdad4d2c1f088d645c", "is_reserved": 0, "rental_uris": {"android": "https://dc.lft.to/lastmile_qr_scan", "ios": "https://dc.lft.to/lastmile_qr_scan"}, "fusion_lon": 0.0}, {"lat": 38.906931666666665, "is_disabled": 0, "type": "electric_scooter", "lon": -77.0293605, "bike_id": "03a0168e006b6c17e7d436848def50a2", "fusion_lat": 0.0, "name": "03a0168e006b6c17e7d436848def50a2", "is_reserved": 0, "rental_uris": {"android": "https://dc.lft.to/lastmile_qr_scan", "ios": "https://dc.lft.to/lastmile_qr_scan"}, "fusion_lon": 0.0}, {"lat": 38.8965725, "is_disabled": 0, "type": "electric_scooter", "lon": -77.02405966666667, "bike_id": "618bb122976e6abde3d15e5bd3939189", "fusion_lat": 0.0, "name": "618bb122976e6abde3d15e5bd3939189", "is_reserved": 0, "rental_uris": {"android": "https://dc.lft.to/lastmile_qr_scan", "ios": "https://dc.lft.to/lastmile_qr_scan"}, "fusion_lon": 0.0}, {"lat": 38.907402833333336, "is_disabled": 0, "type": "electric_scooter", "lon": -77.009304, "bike_id": "001c985e066e696536ef06278524c6c7", "fusion_lat": 0.0, "name": "001c985e066e696536ef06278524c6c7", "is_reserved": 0, "rental_uris": {"android": "https://dc.lft.to/lastmile_qr_scan", "ios": "https://dc.lft.to/lastmile_qr_scan"}, "fusion_lon": 0.0}, {"lat": 38.9119655, "is_disabled": 0, "type": "electric_scooter", "lon": -77.02347533333334, "bike_id": "b928580a2505566430c397440bc21f6a", "fusion_lat": 0.0, "name": "b928580a2505566430c397440bc21f6a", "is_reserved": 0, "rental_uris": {"android": "https://dc.lft.to/lastmile_qr_scan", "ios": "https://dc.lft.to/lastmile_qr_scan"}, "fusion_lon": 0.0}, {"lat": 38.90163783333333, "is_disabled": 0, "type": "electric_scooter", "lon": -77.02498633333333, "bike_id": "37b8b82e32405767aee121b9f7c5d5e1", "fusion_lat": 0.0, "name": "37b8b82e32405767aee121b9f7c5d5e1", "is_reserved": 0, "rental_uris": {"android": "https://dc.lft.to/lastmile_qr_scan", "ios": "https://dc.lft.to/lastmile_qr_scan"}, "fusion_lon": 0.0}, {"lat": 38.90849133333333, "is_disabled": 0, "type": "electric_scooter", "lon": -77.03436766666667, "bike_id": "23373fdab53c3cb5faaf60c282436bed", "fusion_lat": 0.0, "name": "23373fdab53c3cb5faaf60c282436bed", "is_reserved": 0, "rental_uris": {"android": "https://dc.lft.to/lastmile_qr_scan", "ios": "https://dc.lft.to/lastmile_qr_scan"}, "fusion_lon": 0.0}, {"lat": 38.89499583333333, "is_disabled": 0, "type": "electric_scooter", "lon": -77.00216016666667, "bike_id": "d732fa3e78419bf37fd17afafd37a316", "fusion_lat": 0.0, "name": "d732fa3e78419bf37fd17afafd37a316", "is_reserved": 0, "rental_uris": {"android": "https://dc.lft.to/lastmile_qr_scan", "ios": "https://dc.lft.to/lastmile_qr_scan"}, "fusion_lon": 0.0}, {"lat": 38.94976033333333, "is_disabled": 0, "type": "electric_scooter", "lon": -77.06761783333333, "bike_id": "2e662dd9467b05e27ce8e00efe93edff", "fusion_lat": 0.0, "name": "2e662dd9467b05e27ce8e00efe93edff", "is_reserved": 0, "rental_uris": {"android": "https://dc.lft.to/lastmile_qr_scan", "ios": "https://dc.lft.to/lastmile_qr_scan"}, "fusion_lon": 0.0}, {"lat": 38.90623316666667, "is_disabled": 0, "type": "electric_scooter", "lon": -76.98702066666667, "bike_id": "a3c189b5bf194ee982b3500548a70b69", "fusion_lat": 0.0, "name": "a3c189b5bf194ee982b3500548a70b69", "is_reserved": 0, "rental_uris": {"android": "https://dc.lft.to/lastmile_qr_scan", "ios": "https://dc.lft.to/lastmile_qr_scan"}, "fusion_lon": 0.0}, {"lat": 38.90381516666667, "is_disabled": 0, "type": "electric_scooter", "lon": -77.01756466666667, "bike_id": "2cf0a8cfad23fb42452c00c68cd63654", "fusion_lat": 0.0, "name": "2cf0a8cfad23fb42452c00c68cd63654", "is_reserved": 0, "rental_uris": {"android": "https://dc.lft.to/lastmile_qr_scan", "ios": "https://dc.lft.to/lastmile_qr_scan"}, "fusion_lon": 0.0}, {"lat": 38.93642783333333, "is_disabled": 0, "type": "electric_scooter", "lon": -77.03659033333334, "bike_id": "633c1c37abec12025b9a46c3dcded2f4", "fusion_lat": 0.0, "name": "633c1c37abec12025b9a46c3dcded2f4", "is_reserved": 0, "rental_uris": {"android": "https://dc.lft.to/lastmile_qr_scan", "ios": "https://dc.lft.to/lastmile_qr_scan"}, "fusion_lon": 0.0}, {"lat": 38.951591, "is_disabled": 0, "type": "electric_scooter", "lon": -77.0677415, "bike_id": "1bbb8e6330883964d2a440f256c477c5", "fusion_lat": 0.0, "name": "1bbb8e6330883964d2a440f256c477c5", "is_reserved": 0, "rental_uris": {"android": "https://dc.lft.to/lastmile_qr_scan", "ios": "https://dc.lft.to/lastmile_qr_scan"}, "fusion_lon": 0.0}, {"lat": 38.91316716666667, "is_disabled": 0, "type": "electric_scooter", "lon": -76.98641133333334, "bike_id": "e2e16e87defa522552de8a7bbe3c0252", "fusion_lat": 0.0, "name": "e2e16e87defa522552de8a7bbe3c0252", "is_reserved": 0, "rental_uris": {"android": "https://dc.lft.to/lastmile_qr_scan", "ios": "https://dc.lft.to/lastmile_qr_scan"}, "fusion_lon": 0.0}, {"lat": 38.99818483333333, "is_disabled": 0, "type": "electric_bike", "lon": -76.88376333333333, "bike_id": "4d8dfede9f8bf6bca33e19ff1bf238b8", "fusion_lat": 0.0, "name": "4d8dfede9f8bf6bca33e19ff1bf238b8", "is_reserved": 0, "rental_uris": {"android": "https://dc.lft.to/lastmile_qr_scan", "ios": "https://dc.lft.to/lastmile_qr_scan"}, "fusion_lon": 0.0}, {"lat": 38.90141533333333, "is_disabled": 0, "type": "electric_scooter", "lon": -77.0289725, "bike_id": "e0cc9d0f8135fd95d520850c4ab59e3d", "fusion_lat": 0.0, "name": "e0cc9d0f8135fd95d520850c4ab59e3d", "is_reserved": 0, "rental_uris": {"android": "https://dc.lft.to/lastmile_qr_scan", "ios": "https://dc.lft.to/lastmile_qr_scan"}, "fusion_lon": 0.0}, {"lat": 39.03047683333333, "is_disabled": 0, "type": "electric_bike", "lon": -77.09486366666667, "bike_id": "4664c07ff3aeebc942a539da851a1a32", "fusion_lat": 0.0, "name": "4664c07ff3aeebc942a539da851a1a32", "is_reserved": 0, "rental_uris": {"android": "https://dc.lft.to/lastmile_qr_scan", "ios": "https://dc.lft.to/lastmile_qr_scan"}, "fusion_lon": 0.0}, {"lat": 38.9020785, "is_disabled": 0, "type": "electric_scooter", "lon": -77.02381583333333, "bike_id": "968eabe3aaeb04cae988585ec5422d79", "fusion_lat": 0.0, "name": "968eabe3aaeb04cae988585ec5422d79", "is_reserved": 0, "rental_uris": {"android": "https://dc.lft.to/lastmile_qr_scan", "ios": "https://dc.lft.to/lastmile_qr_scan"}, "fusion_lon": 0.0}, {"lat": 39.02438516666667, "is_disabled": 0, "type": "electric_bike", "lon": -77.1309815, "bike_id": "e7b0be1052f27fabcdd49e12f30e7b24", "fusion_lat": 0.0, "name": "e7b0be1052f27fabcdd49e12f30e7b24", "is_reserved": 0, "rental_uris": {"android": "https://dc.lft.to/lastmile_qr_scan", "ios": "https://dc.lft.to/lastmile_qr_scan"}, "fusion_lon": 0.0}, {"lat": 38.900786, "is_disabled": 0, "type": "electric_scooter", "lon": -77.0505235, "bike_id": "08b0ff51db475a63f7438ded39ed9821", "fusion_lat": 0.0, "name": "08b0ff51db475a63f7438ded39ed9821", "is_reserved": 0, "rental_uris": {"android": "https://dc.lft.to/lastmile_qr_scan", "ios": "https://dc.lft.to/lastmile_qr_scan"}, "fusion_lon": 0.0}, {"lat": 38.91196516666667, "is_disabled": 0, "type": "electric_scooter", "lon": -77.0447415, "bike_id": "f50a3d28dbadce781c88951c25311b5f", "fusion_lat": 0.0, "name": "f50a3d28dbadce781c88951c25311b5f", "is_reserved": 0, "rental_uris": {"android": "https://dc.lft.to/lastmile_qr_scan", "ios": "https://dc.lft.to/lastmile_qr_scan"}, "fusion_lon": 0.0}, {"lat": 38.915672666666666, "is_disabled": 0, "type": "electric_scooter", "lon": -77.00979816666667, "bike_id": "ad0d440e8e469af0e34bc5a33e3d647c", "fusion_lat": 0.0, "name": "ad0d440e8e469af0e34bc5a33e3d647c", "is_reserved": 0, "rental_uris": {"android": "https://dc.lft.to/lastmile_qr_scan", "ios": "https://dc.lft.to/lastmile_qr_scan"}, "fusion_lon": 0.0}, {"lat": 38.866196333333335, "is_disabled": 0, "type": "electric_scooter", "lon": -76.98661783333333, "bike_id": "532c58e35449432fd876a3c3a500806b", "fusion_lat": 0.0, "name": "532c58e35449432fd876a3c3a500806b", "is_reserved": 0, "rental_uris": {"android": "https://dc.lft.to/lastmile_qr_scan", "ios": "https://dc.lft.to/lastmile_qr_scan"}, "fusion_lon": 0.0}, {"lat": 38.908799, "is_disabled": 0, "type": "electric_scooter", "lon": -77.03664883333333, "bike_id": "12684d5dd0c8cbb8e4271d2190a66e95", "fusion_lat": 0.0, "name": "12684d5dd0c8cbb8e4271d2190a66e95", "is_reserved": 0, "rental_uris": {"android": "https://dc.lft.to/lastmile_qr_scan", "ios": "https://dc.lft.to/lastmile_qr_scan"}, "fusion_lon": 0.0}, {"lat": 38.950798166666665, "is_disabled": 0, "type": "electric_bike", "lon": -77.01204066666666, "bike_id": "a76f646c5b4c41cdbdcf937a4fb35032", "fusion_lat": 0.0, "name": "a76f646c5b4c41cdbdcf937a4fb35032", "is_reserved": 0, "rental_uris": {"android": "https://dc.lft.to/lastmile_qr_scan", "ios": "https://dc.lft.to/lastmile_qr_scan"}, "fusion_lon": 0.0}, {"lat": 38.91499733333333, "is_disabled": 0, "type": "electric_scooter", "lon": -76.98377816666667, "bike_id": "6d6ff8c825163b7aa973fa18a4965983", "fusion_lat": 0.0, "name": "6d6ff8c825163b7aa973fa18a4965983", "is_reserved": 0, "rental_uris": {"android": "https://dc.lft.to/lastmile_qr_scan", "ios": "https://dc.lft.to/lastmile_qr_scan"}, "fusion_lon": 0.0}, {"lat": 38.90146283333333, "is_disabled": 0, "type": "electric_scooter", "lon": -77.05103633333333, "bike_id": "664ff55a0ca306b932a9cac01e1d8142", "fusion_lat": 0.0, "name": "664ff55a0ca306b932a9cac01e1d8142", "is_reserved": 0, "rental_uris": {"android": "https://dc.lft.to/lastmile_qr_scan", "ios": "https://dc.lft.to/lastmile_qr_scan"}, "fusion_lon": 0.0}, {"lat": 38.89422616666667, "is_disabled": 0, "type": "electric_scooter", "lon": -77.0209065, "bike_id": "f16051747d376bf3905893bd8bab7f03", "fusion_lat": 0.0, "name": "f16051747d376bf3905893bd8bab7f03", "is_reserved": 0, "rental_uris": {"android": "https://dc.lft.to/lastmile_qr_scan", "ios": "https://dc.lft.to/lastmile_qr_scan"}, "fusion_lon": 0.0}, {"lat": 38.89675616666667, "is_disabled": 0, "type": "electric_bike", "lon": -77.00519016666667, "bike_id": "5120e3d00acb1cdfb6a64a96d1255e71", "fusion_lat": 0.0, "name": "5120e3d00acb1cdfb6a64a96d1255e71", "is_reserved": 0, "rental_uris": {"android": "https://dc.lft.to/lastmile_qr_scan", "ios": "https://dc.lft.to/lastmile_qr_scan"}, "fusion_lon": 0.0}, {"lat": 38.935818, "is_disabled": 0, "type": "electric_scooter", "lon": -77.0375625, "bike_id": "52880de661c7fa078f1b859077da45d5", "fusion_lat": 0.0, "name": "52880de661c7fa078f1b859077da45d5", "is_reserved": 0, "rental_uris": {"android": "https://dc.lft.to/lastmile_qr_scan", "ios": "https://dc.lft.to/lastmile_qr_scan"}, "fusion_lon": 0.0}, {"lat": 38.8876775, "is_disabled": 0, "type": "electric_scooter", "lon": -76.98352466666667, "bike_id": "7b060dd1dc76eb5e2c297af60d8f7fd6", "fusion_lat": 0.0, "name": "7b060dd1dc76eb5e2c297af60d8f7fd6", "is_reserved": 0, "rental_uris": {"android": "https://dc.lft.to/lastmile_qr_scan", "ios": "https://dc.lft.to/lastmile_qr_scan"}, "fusion_lon": 0.0}, {"lat": 38.907264, "is_disabled": 0, "type": "electric_scooter", "lon": -77.041623, "bike_id": "37655274c96b3e8e02292690aec6f4b9", "fusion_lat": 0.0, "name": "37655274c96b3e8e02292690aec6f4b9", "is_reserved": 0, "rental_uris": {"android": "https://dc.lft.to/lastmile_qr_scan", "ios": "https://dc.lft.to/lastmile_qr_scan"}, "fusion_lon": 0.0}, {"lat": 38.88280616666667, "is_disabled": 0, "type": "electric_bike", "lon": -76.93241916666666, "bike_id": "f477908f630c678f4c0f014dc66473ac", "fusion_lat": 0.0, "name": "f477908f630c678f4c0f014dc66473ac", "is_reserved": 0, "rental_uris": {"android": "https://dc.lft.to/lastmile_qr_scan", "ios": "https://dc.lft.to/lastmile_qr_scan"}, "fusion_lon": 0.0}, {"lat": 38.903358833333336, "is_disabled": 0, "type": "electric_scooter", "lon": -76.97059116666667, "bike_id": "4389ccd41ede8363e5c453311b8aaff6", "fusion_lat": 0.0, "name": "4389ccd41ede8363e5c453311b8aaff6", "is_reserved": 0, "rental_uris": {"android": "https://dc.lft.to/lastmile_qr_scan", "ios": "https://dc.lft.to/lastmile_qr_scan"}, "fusion_lon": 0.0}, {"lat": 38.95736016666667, "is_disabled": 0, "type": "electric_scooter", "lon": -77.02380333333333, "bike_id": "1b3595f46e02f7c375afda00536654e3", "fusion_lat": 0.0, "name": "1b3595f46e02f7c375afda00536654e3", "is_reserved": 0, "rental_uris": {"android": "https://dc.lft.to/lastmile_qr_scan", "ios": "https://dc.lft.to/lastmile_qr_scan"}, "fusion_lon": 0.0}, {"lat": 38.931996833333336, "is_disabled": 0, "type": "electric_scooter", "lon": -77.02353333333333, "bike_id": "f907be1967343350220dab9184d42e21", "fusion_lat": 0.0, "name": "f907be1967343350220dab9184d42e21", "is_reserved": 0, "rental_uris": {"android": "https://dc.lft.to/lastmile_qr_scan", "ios": "https://dc.lft.to/lastmile_qr_scan"}, "fusion_lon": 0.0}, {"lat": 38.886937333333336, "is_disabled": 0, "type": "electric_scooter", "lon": -77.0176295, "bike_id": "c782ef25cbecaf0ceb746f36bd1c0af3", "fusion_lat": 0.0, "name": "c782ef25cbecaf0ceb746f36bd1c0af3", "is_reserved": 0, "rental_uris": {"android": "https://dc.lft.to/lastmile_qr_scan", "ios": "https://dc.lft.to/lastmile_qr_scan"}, "fusion_lon": 0.0}, {"lat": 38.89497716666666, "is_disabled": 0, "type": "electric_scooter", "lon": -77.002127, "bike_id": "eabf3cab82135984ccfe95dd2f8e0b65", "fusion_lat": 0.0, "name": "eabf3cab82135984ccfe95dd2f8e0b65", "is_reserved": 0, "rental_uris": {"android": "https://dc.lft.to/lastmile_qr_scan", "ios": "https://dc.lft.to/lastmile_qr_scan"}, "fusion_lon": 0.0}, {"lat": 38.898391833333335, "is_disabled": 0, "type": "electric_scooter", "lon": -76.99504516666667, "bike_id": "95963f7bd2d05e2852a5666547e60f1f", "fusion_lat": 0.0, "name": "95963f7bd2d05e2852a5666547e60f1f", "is_reserved": 0, "rental_uris": {"android": "https://dc.lft.to/lastmile_qr_scan", "ios": "https://dc.lft.to/lastmile_qr_scan"}, "fusion_lon": 0.0}, {"lat": 38.922496333333335, "is_disabled": 0, "type": "electric_scooter", "lon": -77.0434445, "bike_id": "9f4520afd6122b8af3f16392edbc2992", "fusion_lat": 0.0, "name": "9f4520afd6122b8af3f16392edbc2992", "is_reserved": 0, "rental_uris": {"android": "https://dc.lft.to/lastmile_qr_scan", "ios": "https://dc.lft.to/lastmile_qr_scan"}, "fusion_lon": 0.0}, {"lat": 38.9086385, "is_disabled": 0, "type": "electric_scooter", "lon": -77.003702, "bike_id": "fefb0d30d3a518afed6213189a522cbc", "fusion_lat": 0.0, "name": "fefb0d30d3a518afed6213189a522cbc", "is_reserved": 0, "rental_uris": {"android": "https://dc.lft.to/lastmile_qr_scan", "ios": "https://dc.lft.to/lastmile_qr_scan"}, "fusion_lon": 0.0}, {"lat": 38.903974166666664, "is_disabled": 0, "type": "electric_scooter", "lon": -76.98462683333334, "bike_id": "b9302715bcaf5f869dfcf5b17b3b37bb", "fusion_lat": 0.0, "name": "b9302715bcaf5f869dfcf5b17b3b37bb", "is_reserved": 0, "rental_uris": {"android": "https://dc.lft.to/lastmile_qr_scan", "ios": "https://dc.lft.to/lastmile_qr_scan"}, "fusion_lon": 0.0}, {"lat": 38.92679033333334, "is_disabled": 0, "type": "electric_scooter", "lon": -77.00742783333334, "bike_id": "5d8442e0a405330274d2e774a8940426", "fusion_lat": 0.0, "name": "5d8442e0a405330274d2e774a8940426", "is_reserved": 0, "rental_uris": {"android": "https://dc.lft.to/lastmile_qr_scan", "ios": "https://dc.lft.to/lastmile_qr_scan"}, "fusion_lon": 0.0}, {"lat": 38.9024215, "is_disabled": 0, "type": "electric_scooter", "lon": -77.02814266666667, "bike_id": "11dc1d9a9ff7b85c3a29930a35be58d3", "fusion_lat": 0.0, "name": "11dc1d9a9ff7b85c3a29930a35be58d3", "is_reserved": 0, "rental_uris": {"android": "https://dc.lft.to/lastmile_qr_scan", "ios": "https://dc.lft.to/lastmile_qr_scan"}, "fusion_lon": 0.0}, {"lat": 38.893526, "is_disabled": 0, "type": "electric_scooter", "lon": -77.03989033333333, "bike_id": "dead282bb8a58c27e6c523365af118cc", "fusion_lat": 0.0, "name": "dead282bb8a58c27e6c523365af118cc", "is_reserved": 0, "rental_uris": {"android": "https://dc.lft.to/lastmile_qr_scan", "ios": "https://dc.lft.to/lastmile_qr_scan"}, "fusion_lon": 0.0}, {"lat": 38.916744333333334, "is_disabled": 0, "type": "electric_scooter", "lon": -77.02391533333333, "bike_id": "77ee51c0da41a78379972a4b6aa10d18", "fusion_lat": 0.0, "name": "77ee51c0da41a78379972a4b6aa10d18", "is_reserved": 0, "rental_uris": {"android": "https://dc.lft.to/lastmile_qr_scan", "ios": "https://dc.lft.to/lastmile_qr_scan"}, "fusion_lon": 0.0}, {"lat": 38.9134005, "is_disabled": 0, "type": "electric_scooter", "lon": -77.01265283333333, "bike_id": "92b80bc92642c31f187b00650fd75897", "fusion_lat": 0.0, "name": "92b80bc92642c31f187b00650fd75897", "is_reserved": 0, "rental_uris": {"android": "https://dc.lft.to/lastmile_qr_scan", "ios": "https://dc.lft.to/lastmile_qr_scan"}, "fusion_lon": 0.0}, {"lat": 38.96224133333333, "is_disabled": 0, "type": "electric_bike", "lon": -77.026257, "bike_id": "6aae430f78f8b9e7d447282418e42133", "fusion_lat": 0.0, "name": "6aae430f78f8b9e7d447282418e42133", "is_reserved": 0, "rental_uris": {"android": "https://dc.lft.to/lastmile_qr_scan", "ios": "https://dc.lft.to/lastmile_qr_scan"}, "fusion_lon": 0.0}, {"lat": 38.8922295, "is_disabled": 0, "type": "electric_bike", "lon": -77.10781233333333, "bike_id": "c335dc3b3c6ad460fb0944c78b4bfce1", "fusion_lat": 0.0, "name": "c335dc3b3c6ad460fb0944c78b4bfce1", "is_reserved": 0, "rental_uris": {"android": "https://dc.lft.to/lastmile_qr_scan", "ios": "https://dc.lft.to/lastmile_qr_scan"}, "fusion_lon": 0.0}, {"lat": 38.87631366666667, "is_disabled": 0, "type": "electric_scooter", "lon": -76.96525183333333, "bike_id": "670e83560e15b80ffdfa917126acad71", "fusion_lat": 0.0, "name": "670e83560e15b80ffdfa917126acad71", "is_reserved": 0, "rental_uris": {"android": "https://dc.lft.to/lastmile_qr_scan", "ios": "https://dc.lft.to/lastmile_qr_scan"}, "fusion_lon": 0.0}, {"lat": 38.907265333333335, "is_disabled": 0, "type": "electric_scooter", "lon": -77.04779116666667, "bike_id": "4d877f276c6091befec1cf64cdef7d5b", "fusion_lat": 0.0, "name": "4d877f276c6091befec1cf64cdef7d5b", "is_reserved": 0, "rental_uris": {"android": "https://dc.lft.to/lastmile_qr_scan", "ios": "https://dc.lft.to/lastmile_qr_scan"}, "fusion_lon": 0.0}, {"lat": 38.911143833333334, "is_disabled": 0, "type": "electric_scooter", "lon": -77.04219033333334, "bike_id": "f6bbd1999d84c045080e4cbf75947663", "fusion_lat": 0.0, "name": "f6bbd1999d84c045080e4cbf75947663", "is_reserved": 0, "rental_uris": {"android": "https://dc.lft.to/lastmile_qr_scan", "ios": "https://dc.lft.to/lastmile_qr_scan"}, "fusion_lon": 0.0}, {"lat": 38.92248166666667, "is_disabled": 0, "type": "electric_scooter", "lon": -77.03086433333333, "bike_id": "51b85230cf0e08ab6f04b87a0c902058", "fusion_lat": 0.0, "name": "51b85230cf0e08ab6f04b87a0c902058", "is_reserved": 0, "rental_uris": {"android": "https://dc.lft.to/lastmile_qr_scan", "ios": "https://dc.lft.to/lastmile_qr_scan"}, "fusion_lon": 0.0}, {"lat": 38.94174266666667, "is_disabled": 0, "type": "electric_scooter", "lon": -77.03286716666666, "bike_id": "f4afdec433cfc9f1a9b157658f731969", "fusion_lat": 0.0, "name": "f4afdec433cfc9f1a9b157658f731969", "is_reserved": 0, "rental_uris": {"android": "https://dc.lft.to/lastmile_qr_scan", "ios": "https://dc.lft.to/lastmile_qr_scan"}, "fusion_lon": 0.0}, {"lat": 38.91950666666666, "is_disabled": 0, "type": "electric_scooter", "lon": -77.04882133333334, "bike_id": "e1c2f0df8d20d306ef8e6edbf8ca6dbe", "fusion_lat": 0.0, "name": "e1c2f0df8d20d306ef8e6edbf8ca6dbe", "is_reserved": 0, "rental_uris": {"android": "https://dc.lft.to/lastmile_qr_scan", "ios": "https://dc.lft.to/lastmile_qr_scan"}, "fusion_lon": 0.0}, {"lat": 38.873429, "is_disabled": 0, "type": "electric_scooter", "lon": -76.99167866666667, "bike_id": "45d5eb894b695ffd5220f3ccd95c5603", "fusion_lat": 0.0, "name": "45d5eb894b695ffd5220f3ccd95c5603", "is_reserved": 0, "rental_uris": {"android": "https://dc.lft.to/lastmile_qr_scan", "ios": "https://dc.lft.to/lastmile_qr_scan"}, "fusion_lon": 0.0}, {"lat": 38.90122433333333, "is_disabled": 0, "type": "electric_scooter", "lon": -77.03303966666667, "bike_id": "2ef30b1ca79b8c1d650d0604ae4dd0d2", "fusion_lat": 0.0, "name": "2ef30b1ca79b8c1d650d0604ae4dd0d2", "is_reserved": 0, "rental_uris": {"android": "https://dc.lft.to/lastmile_qr_scan", "ios": "https://dc.lft.to/lastmile_qr_scan"}, "fusion_lon": 0.0}, {"lat": 38.9023895, "is_disabled": 0, "type": "electric_scooter", "lon": -77.02618366666667, "bike_id": "3332209d89f4aa1fd02e695b1dcdc07e", "fusion_lat": 0.0, "name": "3332209d89f4aa1fd02e695b1dcdc07e", "is_reserved": 0, "rental_uris": {"android": "https://dc.lft.to/lastmile_qr_scan", "ios": "https://dc.lft.to/lastmile_qr_scan"}, "fusion_lon": 0.0}, {"lat": 38.900666, "is_disabled": 0, "type": "electric_scooter", "lon": -77.04403816666667, "bike_id": "19e4b6b9079ad3a8b0bec02b9f2f23d9", "fusion_lat": 0.0, "name": "19e4b6b9079ad3a8b0bec02b9f2f23d9", "is_reserved": 0, "rental_uris": {"android": "https://dc.lft.to/lastmile_qr_scan", "ios": "https://dc.lft.to/lastmile_qr_scan"}, "fusion_lon": 0.0}, {"lat": 38.92037333333333, "is_disabled": 0, "type": "electric_scooter", "lon": -77.04182733333333, "bike_id": "bab0238291ae9fbb85340ccaf17f6428", "fusion_lat": 0.0, "name": "bab0238291ae9fbb85340ccaf17f6428", "is_reserved": 0, "rental_uris": {"android": "https://dc.lft.to/lastmile_qr_scan", "ios": "https://dc.lft.to/lastmile_qr_scan"}, "fusion_lon": 0.0}, {"lat": 38.87915016666667, "is_disabled": 0, "type": "electric_scooter", "lon": -77.00880733333334, "bike_id": "399fa7f55184a71901d4f963a90d0039", "fusion_lat": 0.0, "name": "399fa7f55184a71901d4f963a90d0039", "is_reserved": 0, "rental_uris": {"android": "https://dc.lft.to/lastmile_qr_scan", "ios": "https://dc.lft.to/lastmile_qr_scan"}, "fusion_lon": 0.0}, {"lat": 38.9182265, "is_disabled": 0, "type": "electric_scooter", "lon": -77.01218933333334, "bike_id": "884e9ae28735ec51b77d6fc2d8f6eea3", "fusion_lat": 0.0, "name": "884e9ae28735ec51b77d6fc2d8f6eea3", "is_reserved": 0, "rental_uris": {"android": "https://dc.lft.to/lastmile_qr_scan", "ios": "https://dc.lft.to/lastmile_qr_scan"}, "fusion_lon": 0.0}, {"lat": 38.884449833333335, "is_disabled": 0, "type": "electric_scooter", "lon": -77.01752066666667, "bike_id": "2a5d8f09f69c582da23292f7a2658965", "fusion_lat": 0.0, "name": "2a5d8f09f69c582da23292f7a2658965", "is_reserved": 0, "rental_uris": {"android": "https://dc.lft.to/lastmile_qr_scan", "ios": "https://dc.lft.to/lastmile_qr_scan"}, "fusion_lon": 0.0}, {"lat": 38.870651, "is_disabled": 0, "type": "electric_scooter", "lon": -77.0084325, "bike_id": "e0460839e66fc5ccf92b08dfe8a978e3", "fusion_lat": 0.0, "name": "e0460839e66fc5ccf92b08dfe8a978e3", "is_reserved": 0, "rental_uris": {"android": "https://dc.lft.to/lastmile_qr_scan", "ios": "https://dc.lft.to/lastmile_qr_scan"}, "fusion_lon": 0.0}, {"lat": 38.92053766666667, "is_disabled": 0, "type": "electric_scooter", "lon": -77.02436066666667, "bike_id": "5751498f0c18884bb9448bf1e6f0eb8c", "fusion_lat": 0.0, "name": "5751498f0c18884bb9448bf1e6f0eb8c", "is_reserved": 0, "rental_uris": {"android": "https://dc.lft.to/lastmile_qr_scan", "ios": "https://dc.lft.to/lastmile_qr_scan"}, "fusion_lon": 0.0}, {"lat": 38.90260033333333, "is_disabled": 0, "type": "electric_scooter", "lon": -77.00331733333333, "bike_id": "2d301176137fe611b1ad573f41c22a05", "fusion_lat": 0.0, "name": "2d301176137fe611b1ad573f41c22a05", "is_reserved": 0, "rental_uris": {"android": "https://dc.lft.to/lastmile_qr_scan", "ios": "https://dc.lft.to/lastmile_qr_scan"}, "fusion_lon": 0.0}, {"lat": 38.900024, "is_disabled": 0, "type": "electric_scooter", "lon": -77.0217185, "bike_id": "dbba2ab895362c1658160e8b7823b48e", "fusion_lat": 0.0, "name": "dbba2ab895362c1658160e8b7823b48e", "is_reserved": 0, "rental_uris": {"android": "https://dc.lft.to/lastmile_qr_scan", "ios": "https://dc.lft.to/lastmile_qr_scan"}, "fusion_lon": 0.0}, {"lat": 38.89502483333333, "is_disabled": 0, "type": "electric_scooter", "lon": -77.00324283333333, "bike_id": "30335bc9fa0cecb852bfbf90c290cb35", "fusion_lat": 0.0, "name": "30335bc9fa0cecb852bfbf90c290cb35", "is_reserved": 0, "rental_uris": {"android": "https://dc.lft.to/lastmile_qr_scan", "ios": "https://dc.lft.to/lastmile_qr_scan"}, "fusion_lon": 0.0}, {"lat": 38.89492583333333, "is_disabled": 0, "type": "electric_scooter", "lon": -77.00255833333334, "bike_id": "5849ba7856e1de6742f9329e0f55c537", "fusion_lat": 0.0, "name": "5849ba7856e1de6742f9329e0f55c537", "is_reserved": 0, "rental_uris": {"android": "https://dc.lft.to/lastmile_qr_scan", "ios": "https://dc.lft.to/lastmile_qr_scan"}, "fusion_lon": 0.0}, {"lat": 38.896662666666664, "is_disabled": 0, "type": "electric_scooter", "lon": -77.04658366666666, "bike_id": "b277a8433bf4596e716e43d0a01c5294", "fusion_lat": 0.0, "name": "b277a8433bf4596e716e43d0a01c5294", "is_reserved": 0, "rental_uris": {"android": "https://dc.lft.to/lastmile_qr_scan", "ios": "https://dc.lft.to/lastmile_qr_scan"}, "fusion_lon": 0.0}, {"lat": 38.915655, "is_disabled": 0, "type": "electric_scooter", "lon": -77.05024133333333, "bike_id": "acb0af4fef7d79f608acf057aef31664", "fusion_lat": 0.0, "name": "acb0af4fef7d79f608acf057aef31664", "is_reserved": 0, "rental_uris": {"android": "https://dc.lft.to/lastmile_qr_scan", "ios": "https://dc.lft.to/lastmile_qr_scan"}, "fusion_lon": 0.0}, {"lat": 38.926649, "is_disabled": 0, "type": "electric_scooter", "lon": -77.01510083333334, "bike_id": "a0110170071f27f4af440ecd87720d0a", "fusion_lat": 0.0, "name": "a0110170071f27f4af440ecd87720d0a", "is_reserved": 0, "rental_uris": {"android": "https://dc.lft.to/lastmile_qr_scan", "ios": "https://dc.lft.to/lastmile_qr_scan"}, "fusion_lon": 0.0}, {"lat": 38.893550166666664, "is_disabled": 0, "type": "electric_scooter", "lon": -76.9847595, "bike_id": "f902f889e952359671a643660409e1d5", "fusion_lat": 0.0, "name": "f902f889e952359671a643660409e1d5", "is_reserved": 0, "rental_uris": {"android": "https://dc.lft.to/lastmile_qr_scan", "ios": "https://dc.lft.to/lastmile_qr_scan"}, "fusion_lon": 0.0}, {"lat": 38.906600166666664, "is_disabled": 0, "type": "electric_scooter", "lon": -77.03862616666666, "bike_id": "30a98748492b11c685909dac9e70b9ce", "fusion_lat": 0.0, "name": "30a98748492b11c685909dac9e70b9ce", "is_reserved": 0, "rental_uris": {"android": "https://dc.lft.to/lastmile_qr_scan", "ios": "https://dc.lft.to/lastmile_qr_scan"}, "fusion_lon": 0.0}, {"lat": 38.91056233333333, "is_disabled": 0, "type": "electric_scooter", "lon": -77.04568383333333, "bike_id": "6f99403f6a175909c787610e031aa857", "fusion_lat": 0.0, "name": "6f99403f6a175909c787610e031aa857", "is_reserved": 0, "rental_uris": {"android": "https://dc.lft.to/lastmile_qr_scan", "ios": "https://dc.lft.to/lastmile_qr_scan"}, "fusion_lon": 0.0}, {"lat": 38.89509316666667, "is_disabled": 0, "type": "electric_scooter", "lon": -77.0161945, "bike_id": "5419831d5d7e7bb04c604a081ed31e3d", "fusion_lat": 0.0, "name": "5419831d5d7e7bb04c604a081ed31e3d", "is_reserved": 0, "rental_uris": {"android": "https://dc.lft.to/lastmile_qr_scan", "ios": "https://dc.lft.to/lastmile_qr_scan"}, "fusion_lon": 0.0}, {"lat": 38.921094333333336, "is_disabled": 0, "type": "electric_scooter", "lon": -77.041897, "bike_id": "37cd146479714b7930f11d3fbdfa2a09", "fusion_lat": 0.0, "name": "37cd146479714b7930f11d3fbdfa2a09", "is_reserved": 0, "rental_uris": {"android": "https://dc.lft.to/lastmile_qr_scan", "ios": "https://dc.lft.to/lastmile_qr_scan"}, "fusion_lon": 0.0}, {"lat": 38.92172716666666, "is_disabled": 0, "type": "electric_scooter", "lon": -77.04007416666667, "bike_id": "0e0f2456ada2aa9d734bb1c2ab94c73c", "fusion_lat": 0.0, "name": "0e0f2456ada2aa9d734bb1c2ab94c73c", "is_reserved": 0, "rental_uris": {"android": "https://dc.lft.to/lastmile_qr_scan", "ios": "https://dc.lft.to/lastmile_qr_scan"}, "fusion_lon": 0.0}, {"lat": 38.924860833333334, "is_disabled": 0, "type": "electric_scooter", "lon": -77.03488183333333, "bike_id": "f68519069729f5d4cb5602227eb525a9", "fusion_lat": 0.0, "name": "f68519069729f5d4cb5602227eb525a9", "is_reserved": 0, "rental_uris": {"android": "https://dc.lft.to/lastmile_qr_scan", "ios": "https://dc.lft.to/lastmile_qr_scan"}, "fusion_lon": 0.0}, {"lat": 38.902648, "is_disabled": 0, "type": "electric_scooter", "lon": -77.0201385, "bike_id": "f379403e7cf62fbe9066561b1a871b34", "fusion_lat": 0.0, "name": "f379403e7cf62fbe9066561b1a871b34", "is_reserved": 0, "rental_uris": {"android": "https://dc.lft.to/lastmile_qr_scan", "ios": "https://dc.lft.to/lastmile_qr_scan"}, "fusion_lon": 0.0}, {"lat": 38.965646166666666, "is_disabled": 0, "type": "electric_scooter", "lon": -77.016332, "bike_id": "50f98bd4aab7a7725a46c28cb15ea52d", "fusion_lat": 0.0, "name": "50f98bd4aab7a7725a46c28cb15ea52d", "is_reserved": 0, "rental_uris": {"android": "https://dc.lft.to/lastmile_qr_scan", "ios": "https://dc.lft.to/lastmile_qr_scan"}, "fusion_lon": 0.0}, {"lat": 38.8863645, "is_disabled": 0, "type": "electric_scooter", "lon": -76.95489733333334, "bike_id": "a5b5c4802cb677e49dd4d7962dd640e9", "fusion_lat": 0.0, "name": "a5b5c4802cb677e49dd4d7962dd640e9", "is_reserved": 0, "rental_uris": {"android": "https://dc.lft.to/lastmile_qr_scan", "ios": "https://dc.lft.to/lastmile_qr_scan"}, "fusion_lon": 0.0}, {"lat": 38.902708, "is_disabled": 0, "type": "electric_scooter", "lon": -77.033779, "bike_id": "722d3f5a402f0a2bb7c350c3568d4ee8", "fusion_lat": 0.0, "name": "722d3f5a402f0a2bb7c350c3568d4ee8", "is_reserved": 0, "rental_uris": {"android": "https://dc.lft.to/lastmile_qr_scan", "ios": "https://dc.lft.to/lastmile_qr_scan"}, "fusion_lon": 0.0}, {"lat": 38.94308916666667, "is_disabled": 0, "type": "electric_scooter", "lon": -77.06135766666667, "bike_id": "d4366b3c53eb0afc62dda8590d75f6c0", "fusion_lat": 0.0, "name": "d4366b3c53eb0afc62dda8590d75f6c0", "is_reserved": 0, "rental_uris": {"android": "https://dc.lft.to/lastmile_qr_scan", "ios": "https://dc.lft.to/lastmile_qr_scan"}, "fusion_lon": 0.0}, {"lat": 38.905158166666666, "is_disabled": 0, "type": "electric_scooter", "lon": -77.04890333333333, "bike_id": "551ee7e3c361e6c7b1fe22683cb471fe", "fusion_lat": 0.0, "name": "551ee7e3c361e6c7b1fe22683cb471fe", "is_reserved": 0, "rental_uris": {"android": "https://dc.lft.to/lastmile_qr_scan", "ios": "https://dc.lft.to/lastmile_qr_scan"}, "fusion_lon": 0.0}, {"lat": 38.90016816666667, "is_disabled": 0, "type": "electric_scooter", "lon": -77.01201383333333, "bike_id": "647bec2ca452257489eaf7a3660c8816", "fusion_lat": 0.0, "name": "647bec2ca452257489eaf7a3660c8816", "is_reserved": 0, "rental_uris": {"android": "https://dc.lft.to/lastmile_qr_scan", "ios": "https://dc.lft.to/lastmile_qr_scan"}, "fusion_lon": 0.0}, {"lat": 38.900733, "is_disabled": 0, "type": "electric_scooter", "lon": -77.0507215, "bike_id": "233c82ebd7561d6933ee405a9d2d7160", "fusion_lat": 0.0, "name": "233c82ebd7561d6933ee405a9d2d7160", "is_reserved": 0, "rental_uris": {"android": "https://dc.lft.to/lastmile_qr_scan", "ios": "https://dc.lft.to/lastmile_qr_scan"}, "fusion_lon": 0.0}, {"lat": 38.88477316666667, "is_disabled": 0, "type": "electric_scooter", "lon": -77.0241485, "bike_id": "9e676c9d98c27f77c4d0b537987ce162", "fusion_lat": 0.0, "name": "9e676c9d98c27f77c4d0b537987ce162", "is_reserved": 0, "rental_uris": {"android": "https://dc.lft.to/lastmile_qr_scan", "ios": "https://dc.lft.to/lastmile_qr_scan"}, "fusion_lon": 0.0}, {"lat": 38.949262833333336, "is_disabled": 0, "type": "electric_bike", "lon": -77.0079715, "bike_id": "43f2b3bdc7ca50126b525f3828019b02", "fusion_lat": 0.0, "name": "43f2b3bdc7ca50126b525f3828019b02", "is_reserved": 0, "rental_uris": {"android": "https://dc.lft.to/lastmile_qr_scan", "ios": "https://dc.lft.to/lastmile_qr_scan"}, "fusion_lon": 0.0}, {"lat": 38.865086166666664, "is_disabled": 0, "type": "electric_scooter", "lon": -76.9900545, "bike_id": "02271d52f0902e1c35567d248e564b0d", "fusion_lat": 0.0, "name": "02271d52f0902e1c35567d248e564b0d", "is_reserved": 0, "rental_uris": {"android": "https://dc.lft.to/lastmile_qr_scan", "ios": "https://dc.lft.to/lastmile_qr_scan"}, "fusion_lon": 0.0}, {"lat": 38.881238, "is_disabled": 0, "type": "electric_scooter", "lon": -77.01627333333333, "bike_id": "79af6a1207c0fc69f42fb8cddb97d1ef", "fusion_lat": 0.0, "name": "79af6a1207c0fc69f42fb8cddb97d1ef", "is_reserved": 0, "rental_uris": {"android": "https://dc.lft.to/lastmile_qr_scan", "ios": "https://dc.lft.to/lastmile_qr_scan"}, "fusion_lon": 0.0}, {"lat": 38.86720616666667, "is_disabled": 0, "type": "electric_scooter", "lon": -76.98728266666667, "bike_id": "285790347132c17be03f67d656c49ae3", "fusion_lat": 0.0, "name": "285790347132c17be03f67d656c49ae3", "is_reserved": 0, "rental_uris": {"android": "https://dc.lft.to/lastmile_qr_scan", "ios": "https://dc.lft.to/lastmile_qr_scan"}, "fusion_lon": 0.0}, {"lat": 38.92510733333334, "is_disabled": 0, "type": "electric_scooter", "lon": -76.9822885, "bike_id": "258c2d7e9fc1b516ce8685a55605b1df", "fusion_lat": 0.0, "name": "258c2d7e9fc1b516ce8685a55605b1df", "is_reserved": 0, "rental_uris": {"android": "https://dc.lft.to/lastmile_qr_scan", "ios": "https://dc.lft.to/lastmile_qr_scan"}, "fusion_lon": 0.0}, {"lat": 38.96136533333333, "is_disabled": 0, "type": "electric_scooter", "lon": -77.022351, "bike_id": "37c2fa97d17a213321115347e27f7227", "fusion_lat": 0.0, "name": "37c2fa97d17a213321115347e27f7227", "is_reserved": 0, "rental_uris": {"android": "https://dc.lft.to/lastmile_qr_scan", "ios": "https://dc.lft.to/lastmile_qr_scan"}, "fusion_lon": 0.0}, {"lat": 38.871485166666666, "is_disabled": 0, "type": "electric_bike", "lon": -76.937025, "bike_id": "5208f152ec8481a77d793ac4646d5fe6", "fusion_lat": 0.0, "name": "5208f152ec8481a77d793ac4646d5fe6", "is_reserved": 0, "rental_uris": {"android": "https://dc.lft.to/lastmile_qr_scan", "ios": "https://dc.lft.to/lastmile_qr_scan"}, "fusion_lon": 0.0}, {"lat": 38.9297575, "is_disabled": 0, "type": "electric_scooter", "lon": -77.013015, "bike_id": "4d272508fb5df6b5f960486cd8a340e9", "fusion_lat": 0.0, "name": "4d272508fb5df6b5f960486cd8a340e9", "is_reserved": 0, "rental_uris": {"android": "https://dc.lft.to/lastmile_qr_scan", "ios": "https://dc.lft.to/lastmile_qr_scan"}, "fusion_lon": 0.0}, {"lat": 38.9073675, "is_disabled": 0, "type": "electric_scooter", "lon": -77.03445933333333, "bike_id": "a374e7a21a05f1b1948646df7224ccf9", "fusion_lat": 0.0, "name": "a374e7a21a05f1b1948646df7224ccf9", "is_reserved": 0, "rental_uris": {"android": "https://dc.lft.to/lastmile_qr_scan", "ios": "https://dc.lft.to/lastmile_qr_scan"}, "fusion_lon": 0.0}, {"lat": 38.9237435, "is_disabled": 0, "type": "electric_scooter", "lon": -77.03171433333333, "bike_id": "c9824578a849db6847b172a3b518fe54", "fusion_lat": 0.0, "name": "c9824578a849db6847b172a3b518fe54", "is_reserved": 0, "rental_uris": {"android": "https://dc.lft.to/lastmile_qr_scan", "ios": "https://dc.lft.to/lastmile_qr_scan"}, "fusion_lon": 0.0}, {"lat": 38.857058, "is_disabled": 0, "type": "electric_bike", "lon": -76.97123716666667, "bike_id": "11df617d23d65a996ac3f58f2dab30a8", "fusion_lat": 0.0, "name": "11df617d23d65a996ac3f58f2dab30a8", "is_reserved": 0, "rental_uris": {"android": "https://dc.lft.to/lastmile_qr_scan", "ios": "https://dc.lft.to/lastmile_qr_scan"}, "fusion_lon": 0.0}, {"lat": 38.906642166666664, "is_disabled": 0, "type": "electric_scooter", "lon": -77.03862416666666, "bike_id": "dff35a73b5f68c263057bb10ee076e61", "fusion_lat": 0.0, "name": "dff35a73b5f68c263057bb10ee076e61", "is_reserved": 0, "rental_uris": {"android": "https://dc.lft.to/lastmile_qr_scan", "ios": "https://dc.lft.to/lastmile_qr_scan"}, "fusion_lon": 0.0}, {"lat": 38.9098045, "is_disabled": 0, "type": "electric_scooter", "lon": -77.03440316666666, "bike_id": "9d2133dc936911b390947dc75659f9e2", "fusion_lat": 0.0, "name": "9d2133dc936911b390947dc75659f9e2", "is_reserved": 0, "rental_uris": {"android": "https://dc.lft.to/lastmile_qr_scan", "ios": "https://dc.lft.to/lastmile_qr_scan"}, "fusion_lon": 0.0}, {"lat": 38.8974265, "is_disabled": 0, "type": "electric_scooter", "lon": -77.0475955, "bike_id": "a579e4bc43b2003b080e23c119666f4b", "fusion_lat": 0.0, "name": "a579e4bc43b2003b080e23c119666f4b", "is_reserved": 0, "rental_uris": {"android": "https://dc.lft.to/lastmile_qr_scan", "ios": "https://dc.lft.to/lastmile_qr_scan"}, "fusion_lon": 0.0}, {"lat": 38.91023466666667, "is_disabled": 0, "type": "electric_scooter", "lon": -77.04868633333334, "bike_id": "a8c76f831166b07f4ba6fa32d64d959b", "fusion_lat": 0.0, "name": "a8c76f831166b07f4ba6fa32d64d959b", "is_reserved": 0, "rental_uris": {"android": "https://dc.lft.to/lastmile_qr_scan", "ios": "https://dc.lft.to/lastmile_qr_scan"}, "fusion_lon": 0.0}, {"lat": 38.9050635, "is_disabled": 0, "type": "electric_scooter", "lon": -77.02940816666667, "bike_id": "2cf228f31c9b5cb02088bb9dfeede5d0", "fusion_lat": 0.0, "name": "2cf228f31c9b5cb02088bb9dfeede5d0", "is_reserved": 0, "rental_uris": {"android": "https://dc.lft.to/lastmile_qr_scan", "ios": "https://dc.lft.to/lastmile_qr_scan"}, "fusion_lon": 0.0}, {"lat": 38.92405, "is_disabled": 0, "type": "electric_scooter", "lon": -77.02744933333334, "bike_id": "16e217d8ca8f491fb1ba2f8fa315285f", "fusion_lat": 0.0, "name": "16e217d8ca8f491fb1ba2f8fa315285f", "is_reserved": 0, "rental_uris": {"android": "https://dc.lft.to/lastmile_qr_scan", "ios": "https://dc.lft.to/lastmile_qr_scan"}, "fusion_lon": 0.0}, {"lat": 38.876308333333334, "is_disabled": 0, "type": "electric_scooter", "lon": -76.96525983333333, "bike_id": "13d9007b59443a6f3c8be14f05ae92a4", "fusion_lat": 0.0, "name": "13d9007b59443a6f3c8be14f05ae92a4", "is_reserved": 0, "rental_uris": {"android": "https://dc.lft.to/lastmile_qr_scan", "ios": "https://dc.lft.to/lastmile_qr_scan"}, "fusion_lon": 0.0}, {"lat": 38.906081666666665, "is_disabled": 0, "type": "electric_scooter", "lon": -76.98983016666666, "bike_id": "14bd62970d903ba97cae530da0a7a59a", "fusion_lat": 0.0, "name": "14bd62970d903ba97cae530da0a7a59a", "is_reserved": 0, "rental_uris": {"android": "https://dc.lft.to/lastmile_qr_scan", "ios": "https://dc.lft.to/lastmile_qr_scan"}, "fusion_lon": 0.0}, {"lat": 38.869978, "is_disabled": 0, "type": "electric_bike", "lon": -77.06570283333333, "bike_id": "40f1828e2738b7b94455c7147718588c", "fusion_lat": 0.0, "name": "40f1828e2738b7b94455c7147718588c", "is_reserved": 0, "rental_uris": {"android": "https://dc.lft.to/lastmile_qr_scan", "ios": "https://dc.lft.to/lastmile_qr_scan"}, "fusion_lon": 0.0}, {"lat": 38.93446683333333, "is_disabled": 0, "type": "electric_scooter", "lon": -77.03086033333334, "bike_id": "c179b0e0084f1eaf24ece711a74c2539", "fusion_lat": 0.0, "name": "c179b0e0084f1eaf24ece711a74c2539", "is_reserved": 0, "rental_uris": {"android": "https://dc.lft.to/lastmile_qr_scan", "ios": "https://dc.lft.to/lastmile_qr_scan"}, "fusion_lon": 0.0}, {"lat": 38.90378366666667, "is_disabled": 0, "type": "electric_scooter", "lon": -77.04229633333334, "bike_id": "2f41ccfdc77741bfd2296628269ca29f", "fusion_lat": 0.0, "name": "2f41ccfdc77741bfd2296628269ca29f", "is_reserved": 0, "rental_uris": {"android": "https://dc.lft.to/lastmile_qr_scan", "ios": "https://dc.lft.to/lastmile_qr_scan"}, "fusion_lon": 0.0}, {"lat": 38.900324833333336, "is_disabled": 0, "type": "electric_scooter", "lon": -76.98376083333333, "bike_id": "4a9bdd9a82aefaf6bc7ad0aaff4435a9", "fusion_lat": 0.0, "name": "4a9bdd9a82aefaf6bc7ad0aaff4435a9", "is_reserved": 0, "rental_uris": {"android": "https://dc.lft.to/lastmile_qr_scan", "ios": "https://dc.lft.to/lastmile_qr_scan"}, "fusion_lon": 0.0}, {"lat": 38.859323333333336, "is_disabled": 0, "type": "electric_scooter", "lon": -76.9972075, "bike_id": "dbf9cf63a8b02455d38222887e80a344", "fusion_lat": 0.0, "name": "dbf9cf63a8b02455d38222887e80a344", "is_reserved": 0, "rental_uris": {"android": "https://dc.lft.to/lastmile_qr_scan", "ios": "https://dc.lft.to/lastmile_qr_scan"}, "fusion_lon": 0.0}, {"lat": 38.86518516666667, "is_disabled": 0, "type": "electric_scooter", "lon": -76.990326, "bike_id": "3d5833a3752943577e51c94c917e79ca", "fusion_lat": 0.0, "name": "3d5833a3752943577e51c94c917e79ca", "is_reserved": 0, "rental_uris": {"android": "https://dc.lft.to/lastmile_qr_scan", "ios": "https://dc.lft.to/lastmile_qr_scan"}, "fusion_lon": 0.0}, {"lat": 38.83421583333333, "is_disabled": 0, "type": "electric_bike", "lon": -77.10375, "bike_id": "c6fa6b3ab1991d0e471181a527177e3b", "fusion_lat": 0.0, "name": "c6fa6b3ab1991d0e471181a527177e3b", "is_reserved": 0, "rental_uris": {"android": "https://dc.lft.to/lastmile_qr_scan", "ios": "https://dc.lft.to/lastmile_qr_scan"}, "fusion_lon": 0.0}, {"lat": 38.844672333333335, "is_disabled": 0, "type": "electric_bike", "lon": -76.98756616666667, "bike_id": "d2b1dc767afee31c5f049107674b3518", "fusion_lat": 0.0, "name": "d2b1dc767afee31c5f049107674b3518", "is_reserved": 0, "rental_uris": {"android": "https://dc.lft.to/lastmile_qr_scan", "ios": "https://dc.lft.to/lastmile_qr_scan"}, "fusion_lon": 0.0}, {"lat": 38.917542, "is_disabled": 0, "type": "electric_scooter", "lon": -77.02310066666666, "bike_id": "bcc1b8c5f5fa0a3ea36ef1930c886bdc", "fusion_lat": 0.0, "name": "bcc1b8c5f5fa0a3ea36ef1930c886bdc", "is_reserved": 0, "rental_uris": {"android": "https://dc.lft.to/lastmile_qr_scan", "ios": "https://dc.lft.to/lastmile_qr_scan"}, "fusion_lon": 0.0}, {"lat": 38.89045083333333, "is_disabled": 0, "type": "electric_scooter", "lon": -76.951424, "bike_id": "5a03afd74c4e54eaf4a7894da298eda9", "fusion_lat": 0.0, "name": "5a03afd74c4e54eaf4a7894da298eda9", "is_reserved": 0, "rental_uris": {"android": "https://dc.lft.to/lastmile_qr_scan", "ios": "https://dc.lft.to/lastmile_qr_scan"}, "fusion_lon": 0.0}, {"lat": 38.906568666666665, "is_disabled": 0, "type": "electric_scooter", "lon": -77.0258965, "bike_id": "4d7bb5fb0897d744b6431878d2ec7ac7", "fusion_lat": 0.0, "name": "4d7bb5fb0897d744b6431878d2ec7ac7", "is_reserved": 0, "rental_uris": {"android": "https://dc.lft.to/lastmile_qr_scan", "ios": "https://dc.lft.to/lastmile_qr_scan"}, "fusion_lon": 0.0}, {"lat": 38.917437666666665, "is_disabled": 0, "type": "electric_scooter", "lon": -77.00756566666666, "bike_id": "b08c08baeb61336393ae84c4e27c16ae", "fusion_lat": 0.0, "name": "b08c08baeb61336393ae84c4e27c16ae", "is_reserved": 0, "rental_uris": {"android": "https://dc.lft.to/lastmile_qr_scan", "ios": "https://dc.lft.to/lastmile_qr_scan"}, "fusion_lon": 0.0}, {"lat": 38.93175433333333, "is_disabled": 0, "type": "electric_scooter", "lon": -77.028128, "bike_id": "e5bcdab6c311b5e70a51975437f489b8", "fusion_lat": 0.0, "name": "e5bcdab6c311b5e70a51975437f489b8", "is_reserved": 0, "rental_uris": {"android": "https://dc.lft.to/lastmile_qr_scan", "ios": "https://dc.lft.to/lastmile_qr_scan"}, "fusion_lon": 0.0}, {"lat": 38.905935, "is_disabled": 0, "type": "electric_scooter", "lon": -77.0295125, "bike_id": "3d5c88171a4474ee42db6638fe35ff35", "fusion_lat": 0.0, "name": "3d5c88171a4474ee42db6638fe35ff35", "is_reserved": 0, "rental_uris": {"android": "https://dc.lft.to/lastmile_qr_scan", "ios": "https://dc.lft.to/lastmile_qr_scan"}, "fusion_lon": 0.0}, {"lat": 38.90375316666667, "is_disabled": 0, "type": "electric_scooter", "lon": -77.04341616666666, "bike_id": "3853d874d7537dad77220a8f87278580", "fusion_lat": 0.0, "name": "3853d874d7537dad77220a8f87278580", "is_reserved": 0, "rental_uris": {"android": "https://dc.lft.to/lastmile_qr_scan", "ios": "https://dc.lft.to/lastmile_qr_scan"}, "fusion_lon": 0.0}, {"lat": 38.897198833333334, "is_disabled": 0, "type": "electric_scooter", "lon": -77.0079885, "bike_id": "14454b76c3695b046c41b4fce38622ed", "fusion_lat": 0.0, "name": "14454b76c3695b046c41b4fce38622ed", "is_reserved": 0, "rental_uris": {"android": "https://dc.lft.to/lastmile_qr_scan", "ios": "https://dc.lft.to/lastmile_qr_scan"}, "fusion_lon": 0.0}, {"lat": 38.91047116666667, "is_disabled": 0, "type": "electric_scooter", "lon": -77.01512366666667, "bike_id": "7f10000409cdf4c786f78c84da4a6360", "fusion_lat": 0.0, "name": "7f10000409cdf4c786f78c84da4a6360", "is_reserved": 0, "rental_uris": {"android": "https://dc.lft.to/lastmile_qr_scan", "ios": "https://dc.lft.to/lastmile_qr_scan"}, "fusion_lon": 0.0}, {"lat": 38.869058833333334, "is_disabled": 0, "type": "electric_bike", "lon": -77.131881, "bike_id": "72ae1f58154199003a556713cce4fec8", "fusion_lat": 0.0, "name": "72ae1f58154199003a556713cce4fec8", "is_reserved": 0, "rental_uris": {"android": "https://dc.lft.to/lastmile_qr_scan", "ios": "https://dc.lft.to/lastmile_qr_scan"}, "fusion_lon": 0.0}, {"lat": 38.90764133333333, "is_disabled": 0, "type": "electric_scooter", "lon": -77.042537, "bike_id": "7a412c1265e5042d60e8d63ab338e330", "fusion_lat": 0.0, "name": "7a412c1265e5042d60e8d63ab338e330", "is_reserved": 0, "rental_uris": {"android": "https://dc.lft.to/lastmile_qr_scan", "ios": "https://dc.lft.to/lastmile_qr_scan"}, "fusion_lon": 0.0}, {"lat": 38.9341575, "is_disabled": 0, "type": "electric_scooter", "lon": -77.05784233333334, "bike_id": "156d50dfe47ff45eeee4cd7021b57a0d", "fusion_lat": 0.0, "name": "156d50dfe47ff45eeee4cd7021b57a0d", "is_reserved": 0, "rental_uris": {"android": "https://dc.lft.to/lastmile_qr_scan", "ios": "https://dc.lft.to/lastmile_qr_scan"}, "fusion_lon": 0.0}, {"lat": 38.90551966666666, "is_disabled": 0, "type": "electric_scooter", "lon": -77.03402916666667, "bike_id": "854204ceb399bb73db1ddbfea3ea51b9", "fusion_lat": 0.0, "name": "854204ceb399bb73db1ddbfea3ea51b9", "is_reserved": 0, "rental_uris": {"android": "https://dc.lft.to/lastmile_qr_scan", "ios": "https://dc.lft.to/lastmile_qr_scan"}, "fusion_lon": 0.0}, {"lat": 38.910595666666666, "is_disabled": 0, "type": "electric_scooter", "lon": -77.02652333333333, "bike_id": "64063244b799fc121cd13bb595805ca7", "fusion_lat": 0.0, "name": "64063244b799fc121cd13bb595805ca7", "is_reserved": 0, "rental_uris": {"android": "https://dc.lft.to/lastmile_qr_scan", "ios": "https://dc.lft.to/lastmile_qr_scan"}, "fusion_lon": 0.0}, {"lat": 38.95406116666667, "is_disabled": 0, "type": "electric_scooter", "lon": -77.03629716666667, "bike_id": "d34ed5924e784478bd3b41310f6c472b", "fusion_lat": 0.0, "name": "d34ed5924e784478bd3b41310f6c472b", "is_reserved": 0, "rental_uris": {"android": "https://dc.lft.to/lastmile_qr_scan", "ios": "https://dc.lft.to/lastmile_qr_scan"}, "fusion_lon": 0.0}, {"lat": 38.92203116666666, "is_disabled": 0, "type": "electric_scooter", "lon": -77.040064, "bike_id": "8d38b871e4a62ddc27249c349f2ef4ab", "fusion_lat": 0.0, "name": "8d38b871e4a62ddc27249c349f2ef4ab", "is_reserved": 0, "rental_uris": {"android": "https://dc.lft.to/lastmile_qr_scan", "ios": "https://dc.lft.to/lastmile_qr_scan"}, "fusion_lon": 0.0}, {"lat": 38.840347, "is_disabled": 0, "type": "electric_bike", "lon": -76.97627866666667, "bike_id": "a0cbf0bd6d36461a54a2e888293b9b54", "fusion_lat": 0.0, "name": "a0cbf0bd6d36461a54a2e888293b9b54", "is_reserved": 0, "rental_uris": {"android": "https://dc.lft.to/lastmile_qr_scan", "ios": "https://dc.lft.to/lastmile_qr_scan"}, "fusion_lon": 0.0}, {"lat": 38.886016, "is_disabled": 0, "type": "electric_scooter", "lon": -77.022056, "bike_id": "93c941edf4e4a75f8a9f92cf051ff683", "fusion_lat": 0.0, "name": "93c941edf4e4a75f8a9f92cf051ff683", "is_reserved": 0, "rental_uris": {"android": "https://dc.lft.to/lastmile_qr_scan", "ios": "https://dc.lft.to/lastmile_qr_scan"}, "fusion_lon": 0.0}, {"lat": 38.916098833333336, "is_disabled": 0, "type": "electric_scooter", "lon": -77.02127433333334, "bike_id": "a8e91ec84f644331793d862ddc9a60f3", "fusion_lat": 0.0, "name": "a8e91ec84f644331793d862ddc9a60f3", "is_reserved": 0, "rental_uris": {"android": "https://dc.lft.to/lastmile_qr_scan", "ios": "https://dc.lft.to/lastmile_qr_scan"}, "fusion_lon": 0.0}, {"lat": 38.9153785, "is_disabled": 0, "type": "electric_scooter", "lon": -77.03201316666667, "bike_id": "833aa8b8275fe412324cc184cd49c4f4", "fusion_lat": 0.0, "name": "833aa8b8275fe412324cc184cd49c4f4", "is_reserved": 0, "rental_uris": {"android": "https://dc.lft.to/lastmile_qr_scan", "ios": "https://dc.lft.to/lastmile_qr_scan"}, "fusion_lon": 0.0}, {"lat": 38.89713783333333, "is_disabled": 0, "type": "electric_scooter", "lon": -77.00839333333333, "bike_id": "d3a5352f353a81add9b000c13b6477b3", "fusion_lat": 0.0, "name": "d3a5352f353a81add9b000c13b6477b3", "is_reserved": 0, "rental_uris": {"android": "https://dc.lft.to/lastmile_qr_scan", "ios": "https://dc.lft.to/lastmile_qr_scan"}, "fusion_lon": 0.0}, {"lat": 38.917432833333336, "is_disabled": 0, "type": "electric_scooter", "lon": -77.025234, "bike_id": "fea97131c6bd4c88eddd5b28ee56abab", "fusion_lat": 0.0, "name": "fea97131c6bd4c88eddd5b28ee56abab", "is_reserved": 0, "rental_uris": {"android": "https://dc.lft.to/lastmile_qr_scan", "ios": "https://dc.lft.to/lastmile_qr_scan"}, "fusion_lon": 0.0}, {"lat": 38.92152033333333, "is_disabled": 0, "type": "electric_scooter", "lon": -77.0386985, "bike_id": "0420a45b2925eb00f2da865160f5dce1", "fusion_lat": 0.0, "name": "0420a45b2925eb00f2da865160f5dce1", "is_reserved": 0, "rental_uris": {"android": "https://dc.lft.to/lastmile_qr_scan", "ios": "https://dc.lft.to/lastmile_qr_scan"}, "fusion_lon": 0.0}, {"lat": 38.927791166666665, "is_disabled": 0, "type": "electric_scooter", "lon": -77.052504, "bike_id": "aa4d68a0ae8d745ff50412f63798a5bf", "fusion_lat": 0.0, "name": "aa4d68a0ae8d745ff50412f63798a5bf", "is_reserved": 0, "rental_uris": {"android": "https://dc.lft.to/lastmile_qr_scan", "ios": "https://dc.lft.to/lastmile_qr_scan"}, "fusion_lon": 0.0}, {"lat": 38.89611983333333, "is_disabled": 0, "type": "electric_scooter", "lon": -77.00919466666667, "bike_id": "ed15b95eececd524c5ca000166cfa375", "fusion_lat": 0.0, "name": "ed15b95eececd524c5ca000166cfa375", "is_reserved": 0, "rental_uris": {"android": "https://dc.lft.to/lastmile_qr_scan", "ios": "https://dc.lft.to/lastmile_qr_scan"}, "fusion_lon": 0.0}, {"lat": 38.937066, "is_disabled": 0, "type": "electric_scooter", "lon": -77.061048, "bike_id": "a27d416fcbd25353cb9f1df71dd15d22", "fusion_lat": 0.0, "name": "a27d416fcbd25353cb9f1df71dd15d22", "is_reserved": 0, "rental_uris": {"android": "https://dc.lft.to/lastmile_qr_scan", "ios": "https://dc.lft.to/lastmile_qr_scan"}, "fusion_lon": 0.0}, {"lat": 38.898517166666664, "is_disabled": 0, "type": "electric_bike", "lon": -76.9319185, "bike_id": "cbf62cd1847d21179522f263da013385", "fusion_lat": 0.0, "name": "cbf62cd1847d21179522f263da013385", "is_reserved": 0, "rental_uris": {"android": "https://dc.lft.to/lastmile_qr_scan", "ios": "https://dc.lft.to/lastmile_qr_scan"}, "fusion_lon": 0.0}, {"lat": 38.9152315, "is_disabled": 0, "type": "electric_scooter", "lon": -77.03838916666666, "bike_id": "a91929537c161f4670c64686e6035b4c", "fusion_lat": 0.0, "name": "a91929537c161f4670c64686e6035b4c", "is_reserved": 0, "rental_uris": {"android": "https://dc.lft.to/lastmile_qr_scan", "ios": "https://dc.lft.to/lastmile_qr_scan"}, "fusion_lon": 0.0}, {"lat": 38.933871333333336, "is_disabled": 0, "type": "electric_scooter", "lon": -76.99512966666667, "bike_id": "0f67f351975da27c2872ca455e44712c", "fusion_lat": 0.0, "name": "0f67f351975da27c2872ca455e44712c", "is_reserved": 0, "rental_uris": {"android": "https://dc.lft.to/lastmile_qr_scan", "ios": "https://dc.lft.to/lastmile_qr_scan"}, "fusion_lon": 0.0}, {"lat": 38.935675833333335, "is_disabled": 0, "type": "electric_scooter", "lon": -77.0327135, "bike_id": "21e8412ab6ab2ae437f8e3edce9c5ab6", "fusion_lat": 0.0, "name": "21e8412ab6ab2ae437f8e3edce9c5ab6", "is_reserved": 0, "rental_uris": {"android": "https://dc.lft.to/lastmile_qr_scan", "ios": "https://dc.lft.to/lastmile_qr_scan"}, "fusion_lon": 0.0}, {"lat": 38.910519, "is_disabled": 0, "type": "electric_scooter", "lon": -77.04366916666666, "bike_id": "e7c9a656db37b311414e4b3f24e2f84a", "fusion_lat": 0.0, "name": "e7c9a656db37b311414e4b3f24e2f84a", "is_reserved": 0, "rental_uris": {"android": "https://dc.lft.to/lastmile_qr_scan", "ios": "https://dc.lft.to/lastmile_qr_scan"}, "fusion_lon": 0.0}, {"lat": 38.90562533333333, "is_disabled": 0, "type": "electric_scooter", "lon": -77.036224, "bike_id": "9e651919543bc7ad51f5198947817bc9", "fusion_lat": 0.0, "name": "9e651919543bc7ad51f5198947817bc9", "is_reserved": 0, "rental_uris": {"android": "https://dc.lft.to/lastmile_qr_scan", "ios": "https://dc.lft.to/lastmile_qr_scan"}, "fusion_lon": 0.0}, {"lat": 38.928129, "is_disabled": 0, "type": "electric_scooter", "lon": -77.02623083333333, "bike_id": "675ec67711350db34eab8e7a3537d679", "fusion_lat": 0.0, "name": "675ec67711350db34eab8e7a3537d679", "is_reserved": 0, "rental_uris": {"android": "https://dc.lft.to/lastmile_qr_scan", "ios": "https://dc.lft.to/lastmile_qr_scan"}, "fusion_lon": 0.0}, {"lat": 38.9018855, "is_disabled": 0, "type": "electric_scooter", "lon": -77.02411433333333, "bike_id": "2d792c4dae8ce63eef02d9ede7f8e7d3", "fusion_lat": 0.0, "name": "2d792c4dae8ce63eef02d9ede7f8e7d3", "is_reserved": 0, "rental_uris": {"android": "https://dc.lft.to/lastmile_qr_scan", "ios": "https://dc.lft.to/lastmile_qr_scan"}, "fusion_lon": 0.0}, {"lat": 38.94071616666667, "is_disabled": 0, "type": "electric_scooter", "lon": -76.994662, "bike_id": "2496aefa4044f939820cbde65b8cb47d", "fusion_lat": 0.0, "name": "2496aefa4044f939820cbde65b8cb47d", "is_reserved": 0, "rental_uris": {"android": "https://dc.lft.to/lastmile_qr_scan", "ios": "https://dc.lft.to/lastmile_qr_scan"}, "fusion_lon": 0.0}, {"lat": 38.931446, "is_disabled": 0, "type": "electric_scooter", "lon": -77.021358, "bike_id": "7e5e87921f252f73b53b3e860725e67f", "fusion_lat": 0.0, "name": "7e5e87921f252f73b53b3e860725e67f", "is_reserved": 0, "rental_uris": {"android": "https://dc.lft.to/lastmile_qr_scan", "ios": "https://dc.lft.to/lastmile_qr_scan"}, "fusion_lon": 0.0}, {"lat": 38.850307666666666, "is_disabled": 0, "type": "electric_bike", "lon": -77.09805266666666, "bike_id": "71ef02afbe0c7140c264d487cb418331", "fusion_lat": 0.0, "name": "71ef02afbe0c7140c264d487cb418331", "is_reserved": 0, "rental_uris": {"android": "https://dc.lft.to/lastmile_qr_scan", "ios": "https://dc.lft.to/lastmile_qr_scan"}, "fusion_lon": 0.0}, {"lat": 38.9026715, "is_disabled": 0, "type": "electric_scooter", "lon": -77.02010166666666, "bike_id": "94b19f098fc5506db705c9c643368949", "fusion_lat": 0.0, "name": "94b19f098fc5506db705c9c643368949", "is_reserved": 0, "rental_uris": {"android": "https://dc.lft.to/lastmile_qr_scan", "ios": "https://dc.lft.to/lastmile_qr_scan"}, "fusion_lon": 0.0}, {"lat": 38.897717, "is_disabled": 0, "type": "electric_scooter", "lon": -77.05013033333333, "bike_id": "31a3fdfa5fd0506aaa24eb372d672cc2", "fusion_lat": 0.0, "name": "31a3fdfa5fd0506aaa24eb372d672cc2", "is_reserved": 0, "rental_uris": {"android": "https://dc.lft.to/lastmile_qr_scan", "ios": "https://dc.lft.to/lastmile_qr_scan"}, "fusion_lon": 0.0}, {"lat": 38.8847835, "is_disabled": 0, "type": "electric_scooter", "lon": -76.94531666666667, "bike_id": "eba7b63bffe692aab252d9aeef8c06ca", "fusion_lat": 0.0, "name": "eba7b63bffe692aab252d9aeef8c06ca", "is_reserved": 0, "rental_uris": {"android": "https://dc.lft.to/lastmile_qr_scan", "ios": "https://dc.lft.to/lastmile_qr_scan"}, "fusion_lon": 0.0}, {"lat": 38.93081566666667, "is_disabled": 0, "type": "electric_scooter", "lon": -77.07763383333334, "bike_id": "f010d2885c22fcca2d88ae811d8919dc", "fusion_lat": 0.0, "name": "f010d2885c22fcca2d88ae811d8919dc", "is_reserved": 0, "rental_uris": {"android": "https://dc.lft.to/lastmile_qr_scan", "ios": "https://dc.lft.to/lastmile_qr_scan"}, "fusion_lon": 0.0}, {"lat": 38.91778133333333, "is_disabled": 0, "type": "electric_scooter", "lon": -77.02234333333334, "bike_id": "556480ee159c5a1c7af21549a277dd8c", "fusion_lat": 0.0, "name": "556480ee159c5a1c7af21549a277dd8c", "is_reserved": 0, "rental_uris": {"android": "https://dc.lft.to/lastmile_qr_scan", "ios": "https://dc.lft.to/lastmile_qr_scan"}, "fusion_lon": 0.0}, {"lat": 38.90018366666666, "is_disabled": 0, "type": "electric_scooter", "lon": -76.98375233333333, "bike_id": "4a5e960b98a19480e4600328b131cffa", "fusion_lat": 0.0, "name": "4a5e960b98a19480e4600328b131cffa", "is_reserved": 0, "rental_uris": {"android": "https://dc.lft.to/lastmile_qr_scan", "ios": "https://dc.lft.to/lastmile_qr_scan"}, "fusion_lon": 0.0}, {"lat": 38.91112, "is_disabled": 0, "type": "electric_scooter", "lon": -77.0383735, "bike_id": "38ed240628e98436b5a1a43aeca875e3", "fusion_lat": 0.0, "name": "38ed240628e98436b5a1a43aeca875e3", "is_reserved": 0, "rental_uris": {"android": "https://dc.lft.to/lastmile_qr_scan", "ios": "https://dc.lft.to/lastmile_qr_scan"}, "fusion_lon": 0.0}, {"lat": 38.901112166666664, "is_disabled": 0, "type": "electric_scooter", "lon": -77.02532516666666, "bike_id": "4b5ab55e236d49785b0c1e195340f15a", "fusion_lat": 0.0, "name": "4b5ab55e236d49785b0c1e195340f15a", "is_reserved": 0, "rental_uris": {"android": "https://dc.lft.to/lastmile_qr_scan", "ios": "https://dc.lft.to/lastmile_qr_scan"}, "fusion_lon": 0.0}, {"lat": 38.94391983333333, "is_disabled": 0, "type": "electric_scooter", "lon": -77.019859, "bike_id": "02317aa469017c59803231c5dcad81b4", "fusion_lat": 0.0, "name": "02317aa469017c59803231c5dcad81b4", "is_reserved": 0, "rental_uris": {"android": "https://dc.lft.to/lastmile_qr_scan", "ios": "https://dc.lft.to/lastmile_qr_scan"}, "fusion_lon": 0.0}, {"lat": 38.9284745, "is_disabled": 0, "type": "electric_scooter", "lon": -77.01406, "bike_id": "094f2b0cac5cfdc93a84d91bda534418", "fusion_lat": 0.0, "name": "094f2b0cac5cfdc93a84d91bda534418", "is_reserved": 0, "rental_uris": {"android": "https://dc.lft.to/lastmile_qr_scan", "ios": "https://dc.lft.to/lastmile_qr_scan"}, "fusion_lon": 0.0}, {"lat": 38.99006083333333, "is_disabled": 0, "type": "electric_bike", "lon": -77.00441966666666, "bike_id": "f5c03f3c37c7d26023eab4c700210820", "fusion_lat": 0.0, "name": "f5c03f3c37c7d26023eab4c700210820", "is_reserved": 0, "rental_uris": {"android": "https://dc.lft.to/lastmile_qr_scan", "ios": "https://dc.lft.to/lastmile_qr_scan"}, "fusion_lon": 0.0}, {"lat": 38.855203, "is_disabled": 0, "type": "electric_bike", "lon": -77.12026966666667, "bike_id": "1cedfe0708cecce93d86b5e30203c67e", "fusion_lat": 0.0, "name": "1cedfe0708cecce93d86b5e30203c67e", "is_reserved": 0, "rental_uris": {"android": "https://dc.lft.to/lastmile_qr_scan", "ios": "https://dc.lft.to/lastmile_qr_scan"}, "fusion_lon": 0.0}, {"lat": 38.918892, "is_disabled": 0, "type": "electric_scooter", "lon": -77.03494666666667, "bike_id": "a1113e36b14ad03677536a6b538044ca", "fusion_lat": 0.0, "name": "a1113e36b14ad03677536a6b538044ca", "is_reserved": 0, "rental_uris": {"android": "https://dc.lft.to/lastmile_qr_scan", "ios": "https://dc.lft.to/lastmile_qr_scan"}, "fusion_lon": 0.0}, {"lat": 38.92351766666667, "is_disabled": 0, "type": "electric_scooter", "lon": -77.033976, "bike_id": "8235ea405dd061262414854d7958a678", "fusion_lat": 0.0, "name": "8235ea405dd061262414854d7958a678", "is_reserved": 0, "rental_uris": {"android": "https://dc.lft.to/lastmile_qr_scan", "ios": "https://dc.lft.to/lastmile_qr_scan"}, "fusion_lon": 0.0}, {"lat": 38.9443735, "is_disabled": 0, "type": "electric_scooter", "lon": -77.01505283333333, "bike_id": "2f608db793bb7a8ebc91a993be12ed16", "fusion_lat": 0.0, "name": "2f608db793bb7a8ebc91a993be12ed16", "is_reserved": 0, "rental_uris": {"android": "https://dc.lft.to/lastmile_qr_scan", "ios": "https://dc.lft.to/lastmile_qr_scan"}, "fusion_lon": 0.0}, {"lat": 38.85190866666667, "is_disabled": 0, "type": "electric_bike", "lon": -76.961089, "bike_id": "3e7edbff2ee9d7c6e745838bc3819061", "fusion_lat": 0.0, "name": "3e7edbff2ee9d7c6e745838bc3819061", "is_reserved": 0, "rental_uris": {"android": "https://dc.lft.to/lastmile_qr_scan", "ios": "https://dc.lft.to/lastmile_qr_scan"}, "fusion_lon": 0.0}, {"lat": 38.9142165, "is_disabled": 0, "type": "electric_scooter", "lon": -77.02204233333333, "bike_id": "6142100e24c10f8acf5797af9e697352", "fusion_lat": 0.0, "name": "6142100e24c10f8acf5797af9e697352", "is_reserved": 0, "rental_uris": {"android": "https://dc.lft.to/lastmile_qr_scan", "ios": "https://dc.lft.to/lastmile_qr_scan"}, "fusion_lon": 0.0}, {"lat": 38.919146833333336, "is_disabled": 0, "type": "electric_scooter", "lon": -77.04173116666666, "bike_id": "8a026bb248caf3911655e62a57f97b45", "fusion_lat": 0.0, "name": "8a026bb248caf3911655e62a57f97b45", "is_reserved": 0, "rental_uris": {"android": "https://dc.lft.to/lastmile_qr_scan", "ios": "https://dc.lft.to/lastmile_qr_scan"}, "fusion_lon": 0.0}, {"lat": 38.886915, "is_disabled": 0, "type": "electric_scooter", "lon": -77.01295633333334, "bike_id": "a819a32299c1847955b2fd0ae978eeb8", "fusion_lat": 0.0, "name": "a819a32299c1847955b2fd0ae978eeb8", "is_reserved": 0, "rental_uris": {"android": "https://dc.lft.to/lastmile_qr_scan", "ios": "https://dc.lft.to/lastmile_qr_scan"}, "fusion_lon": 0.0}, {"lat": 38.80055983333333, "is_disabled": 0, "type": "electric_bike", "lon": -77.07111233333333, "bike_id": "e4262086740ab821f8712e247d35cf7e", "fusion_lat": 0.0, "name": "e4262086740ab821f8712e247d35cf7e", "is_reserved": 0, "rental_uris": {"android": "https://dc.lft.to/lastmile_qr_scan", "ios": "https://dc.lft.to/lastmile_qr_scan"}, "fusion_lon": 0.0}, {"lat": 38.866514, "is_disabled": 0, "type": "electric_scooter", "lon": -76.988852, "bike_id": "9522c895ed72fad4d9c9d36fce6c40ca", "fusion_lat": 0.0, "name": "9522c895ed72fad4d9c9d36fce6c40ca", "is_reserved": 0, "rental_uris": {"android": "https://dc.lft.to/lastmile_qr_scan", "ios": "https://dc.lft.to/lastmile_qr_scan"}, "fusion_lon": 0.0}, {"lat": 38.884908333333335, "is_disabled": 0, "type": "electric_scooter", "lon": -77.00707716666666, "bike_id": "3b5130d102d0686cee74c12100585686", "fusion_lat": 0.0, "name": "3b5130d102d0686cee74c12100585686", "is_reserved": 0, "rental_uris": {"android": "https://dc.lft.to/lastmile_qr_scan", "ios": "https://dc.lft.to/lastmile_qr_scan"}, "fusion_lon": 0.0}, {"lat": 38.9349805, "is_disabled": 0, "type": "electric_bike", "lon": -76.98646083333334, "bike_id": "e181b73912a11e9d9f754be252d467c2", "fusion_lat": 0.0, "name": "e181b73912a11e9d9f754be252d467c2", "is_reserved": 0, "rental_uris": {"android": "https://dc.lft.to/lastmile_qr_scan", "ios": "https://dc.lft.to/lastmile_qr_scan"}, "fusion_lon": 0.0}, {"lat": 38.884888, "is_disabled": 0, "type": "electric_scooter", "lon": -77.00715783333334, "bike_id": "829c3bd1f4702b0f7faac134027523af", "fusion_lat": 0.0, "name": "829c3bd1f4702b0f7faac134027523af", "is_reserved": 0, "rental_uris": {"android": "https://dc.lft.to/lastmile_qr_scan", "ios": "https://dc.lft.to/lastmile_qr_scan"}, "fusion_lon": 0.0}, {"lat": 38.92016383333333, "is_disabled": 0, "type": "electric_scooter", "lon": -77.02390033333333, "bike_id": "f28baa77e59dce2d89f7f1151eb5b023", "fusion_lat": 0.0, "name": "f28baa77e59dce2d89f7f1151eb5b023", "is_reserved": 0, "rental_uris": {"android": "https://dc.lft.to/lastmile_qr_scan", "ios": "https://dc.lft.to/lastmile_qr_scan"}, "fusion_lon": 0.0}, {"lat": 38.9941145, "is_disabled": 0, "type": "electric_bike", "lon": -77.0317795, "bike_id": "013b3fdb2c344785bd92de0308300617", "fusion_lat": 0.0, "name": "013b3fdb2c344785bd92de0308300617", "is_reserved": 0, "rental_uris": {"android": "https://dc.lft.to/lastmile_qr_scan", "ios": "https://dc.lft.to/lastmile_qr_scan"}, "fusion_lon": 0.0}, {"lat": 38.93496433333333, "is_disabled": 0, "type": "electric_scooter", "lon": -77.03622983333334, "bike_id": "f8bce7287ce3f0967f905b53a683e958", "fusion_lat": 0.0, "name": "f8bce7287ce3f0967f905b53a683e958", "is_reserved": 0, "rental_uris": {"android": "https://dc.lft.to/lastmile_qr_scan", "ios": "https://dc.lft.to/lastmile_qr_scan"}, "fusion_lon": 0.0}, {"lat": 38.89734416666667, "is_disabled": 0, "type": "electric_scooter", "lon": -77.04994216666667, "bike_id": "dcd255fb24d353539c4eeb1955e7e2a6", "fusion_lat": 0.0, "name": "dcd255fb24d353539c4eeb1955e7e2a6", "is_reserved": 0, "rental_uris": {"android": "https://dc.lft.to/lastmile_qr_scan", "ios": "https://dc.lft.to/lastmile_qr_scan"}, "fusion_lon": 0.0}, {"lat": 38.90978283333333, "is_disabled": 0, "type": "electric_scooter", "lon": -77.03441616666667, "bike_id": "05b108ef8d828abd4a363a9216b57d5e", "fusion_lat": 0.0, "name": "05b108ef8d828abd4a363a9216b57d5e", "is_reserved": 0, "rental_uris": {"android": "https://dc.lft.to/lastmile_qr_scan", "ios": "https://dc.lft.to/lastmile_qr_scan"}, "fusion_lon": 0.0}, {"lat": 38.900157, "is_disabled": 0, "type": "electric_scooter", "lon": -77.011981, "bike_id": "edd506e74a81daf83ea1babb98745592", "fusion_lat": 0.0, "name": "edd506e74a81daf83ea1babb98745592", "is_reserved": 0, "rental_uris": {"android": "https://dc.lft.to/lastmile_qr_scan", "ios": "https://dc.lft.to/lastmile_qr_scan"}, "fusion_lon": 0.0}, {"lat": 38.925733666666666, "is_disabled": 0, "type": "electric_scooter", "lon": -76.98610066666667, "bike_id": "f9809b62c639d107a6f179cf26a9d75e", "fusion_lat": 0.0, "name": "f9809b62c639d107a6f179cf26a9d75e", "is_reserved": 0, "rental_uris": {"android": "https://dc.lft.to/lastmile_qr_scan", "ios": "https://dc.lft.to/lastmile_qr_scan"}, "fusion_lon": 0.0}, {"lat": 38.84293066666667, "is_disabled": 0, "type": "electric_scooter", "lon": -76.99950749999999, "bike_id": "a630ef18563c4a060d8530561a87e994", "fusion_lat": 0.0, "name": "a630ef18563c4a060d8530561a87e994", "is_reserved": 0, "rental_uris": {"android": "https://dc.lft.to/lastmile_qr_scan", "ios": "https://dc.lft.to/lastmile_qr_scan"}, "fusion_lon": 0.0}, {"lat": 38.923772666666665, "is_disabled": 0, "type": "electric_scooter", "lon": -77.02921233333333, "bike_id": "dcfe7c046f79dab42c02f13715a4faa6", "fusion_lat": 0.0, "name": "dcfe7c046f79dab42c02f13715a4faa6", "is_reserved": 0, "rental_uris": {"android": "https://dc.lft.to/lastmile_qr_scan", "ios": "https://dc.lft.to/lastmile_qr_scan"}, "fusion_lon": 0.0}, {"lat": 38.901143166666664, "is_disabled": 0, "type": "electric_scooter", "lon": -77.03322516666667, "bike_id": "59177fc952a3ff9c4e2a7e5c625173f8", "fusion_lat": 0.0, "name": "59177fc952a3ff9c4e2a7e5c625173f8", "is_reserved": 0, "rental_uris": {"android": "https://dc.lft.to/lastmile_qr_scan", "ios": "https://dc.lft.to/lastmile_qr_scan"}, "fusion_lon": 0.0}, {"lat": 38.902471166666665, "is_disabled": 0, "type": "electric_scooter", "lon": -77.0536355, "bike_id": "be7766271a1d10607d5e01773ed3d106", "fusion_lat": 0.0, "name": "be7766271a1d10607d5e01773ed3d106", "is_reserved": 0, "rental_uris": {"android": "https://dc.lft.to/lastmile_qr_scan", "ios": "https://dc.lft.to/lastmile_qr_scan"}, "fusion_lon": 0.0}, {"lat": 38.8778035, "is_disabled": 0, "type": "electric_scooter", "lon": -76.99513983333334, "bike_id": "1841f0cc74f6892b5c20708f65ac7cdc", "fusion_lat": 0.0, "name": "1841f0cc74f6892b5c20708f65ac7cdc", "is_reserved": 0, "rental_uris": {"android": "https://dc.lft.to/lastmile_qr_scan", "ios": "https://dc.lft.to/lastmile_qr_scan"}, "fusion_lon": 0.0}, {"lat": 38.919660666666665, "is_disabled": 0, "type": "electric_scooter", "lon": -77.0120905, "bike_id": "5a5d375ebabb3f008f18dfd5e8617c8d", "fusion_lat": 0.0, "name": "5a5d375ebabb3f008f18dfd5e8617c8d", "is_reserved": 0, "rental_uris": {"android": "https://dc.lft.to/lastmile_qr_scan", "ios": "https://dc.lft.to/lastmile_qr_scan"}, "fusion_lon": 0.0}, {"lat": 38.898180833333335, "is_disabled": 0, "type": "electric_scooter", "lon": -76.99688716666667, "bike_id": "150c69c6b5ac25877e47b294cafc5052", "fusion_lat": 0.0, "name": "150c69c6b5ac25877e47b294cafc5052", "is_reserved": 0, "rental_uris": {"android": "https://dc.lft.to/lastmile_qr_scan", "ios": "https://dc.lft.to/lastmile_qr_scan"}, "fusion_lon": 0.0}, {"lat": 38.92481633333333, "is_disabled": 0, "type": "electric_scooter", "lon": -77.02838283333334, "bike_id": "cb22fe5edbfff773c25b0dbca6739f4c", "fusion_lat": 0.0, "name": "cb22fe5edbfff773c25b0dbca6739f4c", "is_reserved": 0, "rental_uris": {"android": "https://dc.lft.to/lastmile_qr_scan", "ios": "https://dc.lft.to/lastmile_qr_scan"}, "fusion_lon": 0.0}, {"lat": 38.90831716666667, "is_disabled": 0, "type": "electric_scooter", "lon": -77.00236833333334, "bike_id": "d258295094c7fb5e9c0860705e342b33", "fusion_lat": 0.0, "name": "d258295094c7fb5e9c0860705e342b33", "is_reserved": 0, "rental_uris": {"android": "https://dc.lft.to/lastmile_qr_scan", "ios": "https://dc.lft.to/lastmile_qr_scan"}, "fusion_lon": 0.0}, {"lat": 38.884154333333335, "is_disabled": 0, "type": "electric_bike", "lon": -76.954151, "bike_id": "bc5131622ac7b3582da2908ecf571d74", "fusion_lat": 0.0, "name": "bc5131622ac7b3582da2908ecf571d74", "is_reserved": 0, "rental_uris": {"android": "https://dc.lft.to/lastmile_qr_scan", "ios": "https://dc.lft.to/lastmile_qr_scan"}, "fusion_lon": 0.0}, {"lat": 38.8874065, "is_disabled": 0, "type": "electric_scooter", "lon": -77.01534866666667, "bike_id": "96956566a318bf8020a992643895bb8d", "fusion_lat": 0.0, "name": "96956566a318bf8020a992643895bb8d", "is_reserved": 0, "rental_uris": {"android": "https://dc.lft.to/lastmile_qr_scan", "ios": "https://dc.lft.to/lastmile_qr_scan"}, "fusion_lon": 0.0}, {"lat": 38.9317555, "is_disabled": 0, "type": "electric_scooter", "lon": -77.02822783333333, "bike_id": "a8520961260c5bbdd98a70bbcc6e8fad", "fusion_lat": 0.0, "name": "a8520961260c5bbdd98a70bbcc6e8fad", "is_reserved": 0, "rental_uris": {"android": "https://dc.lft.to/lastmile_qr_scan", "ios": "https://dc.lft.to/lastmile_qr_scan"}, "fusion_lon": 0.0}, {"lat": 38.888849666666665, "is_disabled": 0, "type": "electric_scooter", "lon": -76.9315395, "bike_id": "b1c895d48d3fdeecc494963c4e95555a", "fusion_lat": 0.0, "name": "b1c895d48d3fdeecc494963c4e95555a", "is_reserved": 0, "rental_uris": {"android": "https://dc.lft.to/lastmile_qr_scan", "ios": "https://dc.lft.to/lastmile_qr_scan"}, "fusion_lon": 0.0}, {"lat": 38.961440333333336, "is_disabled": 0, "type": "electric_scooter", "lon": -77.027909, "bike_id": "eb4fa51e933f9d85091b52aebdc2545c", "fusion_lat": 0.0, "name": "eb4fa51e933f9d85091b52aebdc2545c", "is_reserved": 0, "rental_uris": {"android": "https://dc.lft.to/lastmile_qr_scan", "ios": "https://dc.lft.to/lastmile_qr_scan"}, "fusion_lon": 0.0}, {"lat": 38.90723116666667, "is_disabled": 0, "type": "electric_scooter", "lon": -77.0464415, "bike_id": "9a7aba2a0dfed22a9ad75ba5d6338a02", "fusion_lat": 0.0, "name": "9a7aba2a0dfed22a9ad75ba5d6338a02", "is_reserved": 0, "rental_uris": {"android": "https://dc.lft.to/lastmile_qr_scan", "ios": "https://dc.lft.to/lastmile_qr_scan"}, "fusion_lon": 0.0}, {"lat": 38.911928, "is_disabled": 0, "type": "electric_scooter", "lon": -77.04300916666666, "bike_id": "41775081f70d48dd72145041e74fd1d4", "fusion_lat": 0.0, "name": "41775081f70d48dd72145041e74fd1d4", "is_reserved": 0, "rental_uris": {"android": "https://dc.lft.to/lastmile_qr_scan", "ios": "https://dc.lft.to/lastmile_qr_scan"}, "fusion_lon": 0.0}, {"lat": 38.890414666666665, "is_disabled": 0, "type": "electric_scooter", "lon": -76.95247133333334, "bike_id": "ab4e30855dd9f55b06f4d4d8494b5300", "fusion_lat": 0.0, "name": "ab4e30855dd9f55b06f4d4d8494b5300", "is_reserved": 0, "rental_uris": {"android": "https://dc.lft.to/lastmile_qr_scan", "ios": "https://dc.lft.to/lastmile_qr_scan"}, "fusion_lon": 0.0}, {"lat": 38.9321165, "is_disabled": 0, "type": "electric_scooter", "lon": -77.02246183333334, "bike_id": "dd1e97df23baf3fd5f809a86feda17e2", "fusion_lat": 0.0, "name": "dd1e97df23baf3fd5f809a86feda17e2", "is_reserved": 0, "rental_uris": {"android": "https://dc.lft.to/lastmile_qr_scan", "ios": "https://dc.lft.to/lastmile_qr_scan"}, "fusion_lon": 0.0}, {"lat": 39.05636333333333, "is_disabled": 0, "type": "electric_bike", "lon": -77.12526566666666, "bike_id": "7adb0a175ed26f9e55fe137feeec1b84", "fusion_lat": 0.0, "name": "7adb0a175ed26f9e55fe137feeec1b84", "is_reserved": 0, "rental_uris": {"android": "https://dc.lft.to/lastmile_qr_scan", "ios": "https://dc.lft.to/lastmile_qr_scan"}, "fusion_lon": 0.0},