{"data": {"bikes": [{"bike_id": "480193617c7978209f4b7a0e0cf0c59f", "type": "electric_scooter", "is_disabled": 0, "lat": 38.917843500000004, "rental_uris": {"ios": "https://dc.lft.to/lastmile_qr_scan", "android": "https://dc.lft.to/lastmile_qr_scan"}, "is_reserved": 0, "fusion_lon": 0.0, "fusion_lat": 0.0, "lon": -77.0231425, "name": "480193617c7978209f4b7a0e0cf0c59f"}, {"bike_id": "f094dd60b49e285c0489f6c8aff04caa", "type": "electric_scooter", "is_disabled": 0, "lat": 38.92772333333333, "rental_uris": {"ios": "https://dc.lft.to/lastmile_qr_scan", "android": "https://dc.lft.to/lastmile_qr_scan"}, "is_reserved": 0, "fusion_lon": 0.0, "fusion_lat": 0.0, "lon": -77.02710016666667, "name": "f094dd60b49e285c0489f6c8aff04caa"}, {"bike_id": "89ef94a89f467ed361f941288cf5f452", "type": "electric_scooter", "is_disabled": 0, "lat": 38.913051333333335, "rental_uris": {"ios": "https://dc.lft.to/lastmile_qr_scan", "android": "https://dc.lft.to/lastmile_qr_scan"}, "is_reserved": 0, "fusion_lon": 0.0, "fusion_lat": 0.0, "lon": -77.04561516666666, "name": "89ef94a89f467ed361f941288cf5f452"}, {"bike_id": "0e9676c3cddb79f8e69ad580771e65c5", "type": "electric_bike", "is_disabled": 0, "lat": 38.87281316666667, "rental_uris": {"ios": "https://dc.lft.to/lastmile_qr_scan", "android": "https://dc.lft.to/lastmile_qr_scan"}, "is_reserved": 0, "fusion_lon": 0.0, "fusion_lat": 0.0, "lon": -77.23315666666667, "name": "0e9676c3cddb79f8e69ad580771e65c5"}, {"bike_id": "1b43d047772b17e93992d8d9d768f861", "type": "electric_scooter", "is_disabled": 0, "lat": 38.9002535, "rental_uris": {"ios": "https://dc.lft.to/lastmile_qr_scan", "android": "https://dc.lft.to/lastmile_qr_scan"}, "is_reserved": 0, "fusion_lon": 0.0, "fusion_lat": 0.0, "lon": -77.001961, "name": "1b43d047772b17e93992d8d9d768f861"}, {"bike_id": "3fdf554b590d07b6368e5bd199fdb7cd", "type": "electric_scooter", "is_disabled": 0, "lat": 38.8697625, "rental_uris": {"ios": "https://dc.lft.to/lastmile_qr_scan", "android": "https://dc.lft.to/lastmile_qr_scan"}, "is_reserved": 0, "fusion_lon": 0.0, "fusion_lat": 0.0, "lon": -76.98169583333333, "name": "3fdf554b590d07b6368e5bd199fdb7cd"}, {"bike_id": "5df562a1e4995112df75a03448110398", "type": "electric_bike", "is_disabled": 0, "lat": 38.88060316666667, "rental_uris": {"ios": "https://dc.lft.to/lastmile_qr_scan", "android": "https://dc.lft.to/lastmile_qr_scan"}, "is_reserved": 0, "fusion_lon": 0.0, "fusion_lat": 0.0, "lon": -76.96235116666666, "name": "5df562a1e4995112df75a03448110398"}, {"bike_id": "9e63580ff54bd31fe9be9e0fdf25b390", "type": "electric_scooter", "is_disabled": 0, "lat": 38.9184245, "rental_uris": {"ios": "https://dc.lft.to/lastmile_qr_scan", "android": "https://dc.lft.to/lastmile_qr_scan"}, "is_reserved": 0, "fusion_lon": 0.0, "fusion_lat": 0.0, "lon": -77.024614, "name": "9e63580ff54bd31fe9be9e0fdf25b390"}, {"bike_id": "18baa53f870457123ebd9da4d557073f", "type": "electric_scooter", "is_disabled": 0, "lat": 38.947914833333336, "rental_uris": {"ios": "https://dc.lft.to/lastmile_qr_scan", "android": "https://dc.lft.to/lastmile_qr_scan"}, "is_reserved": 0, "fusion_lon": 0.0, "fusion_lat": 0.0, "lon": -77.0213065, "name": "18baa53f870457123ebd9da4d557073f"}, {"bike_id": "24c31443e29f44206a7a03126d42707b", "type": "electric_scooter", "is_disabled": 0, "lat": 38.88218466666667, "rental_uris": {"ios": "https://dc.lft.to/lastmile_qr_scan", "android": "https://dc.lft.to/lastmile_qr_scan"}, "is_reserved": 0, "fusion_lon": 0.0, "fusion_lat": 0.0, "lon": -76.92658933333334, "name": "24c31443e29f44206a7a03126d42707b"}, {"bike_id": "241f005509e59175e9fbacc4c047a51f", "type": "electric_scooter", "is_disabled": 0, "lat": 38.923778666666664, "rental_uris": {"ios": "https://dc.lft.to/lastmile_qr_scan", "android": "https://dc.lft.to/lastmile_qr_scan"}, "is_reserved": 0, "fusion_lon": 0.0, "fusion_lat": 0.0, "lon": -77.0305055, "name": "241f005509e59175e9fbacc4c047a51f"}, {"bike_id": "20cb35f0768169de83cec471b88422ed", "type": "electric_scooter", "is_disabled": 0, "lat": 38.93301616666667, "rental_uris": {"ios": "https://dc.lft.to/lastmile_qr_scan", "android": "https://dc.lft.to/lastmile_qr_scan"}, "is_reserved": 0, "fusion_lon": 0.0, "fusion_lat": 0.0, "lon": -77.03261533333334, "name": "20cb35f0768169de83cec471b88422ed"}, {"bike_id": "432d05c23e97b34bcb144aaf2b977f02", "type": "electric_scooter", "is_disabled": 0, "lat": 38.91423866666667, "rental_uris": {"ios": "https://dc.lft.to/lastmile_qr_scan", "android": "https://dc.lft.to/lastmile_qr_scan"}, "is_reserved": 0, "fusion_lon": 0.0, "fusion_lat": 0.0, "lon": -77.048041, "name": "432d05c23e97b34bcb144aaf2b977f02"}, {"bike_id": "15f3ca1bd3420de67c0628ac7687ce6c", "type": "electric_bike", "is_disabled": 0, "lat": 38.91015483333334, "rental_uris": {"ios": "https://dc.lft.to/lastmile_qr_scan", "android": "https://dc.lft.to/lastmile_qr_scan"}, "is_reserved": 0, "fusion_lon": 0.0, "fusion_lat": 0.0, "lon": -77.22797333333334, "name": "15f3ca1bd3420de67c0628ac7687ce6c"}, {"bike_id": "362d7be71428f7ec533d78f8ff62f3bb", "type": "electric_scooter", "is_disabled": 0, "lat": 38.91029866666667, "rental_uris": {"ios": "https://dc.lft.to/lastmile_qr_scan", "android": "https://dc.lft.to/lastmile_qr_scan"}, "is_reserved": 0, "fusion_lon": 0.0, "fusion_lat": 0.0, "lon": -77.00759433333333, "name": "362d7be71428f7ec533d78f8ff62f3bb"}, {"bike_id": "1b6023383de471a4dc6f5bc1be6b0842", "type": "electric_scooter", "is_disabled": 0, "lat": 38.90225316666667, "rental_uris": {"ios": "https://dc.lft.to/lastmile_qr_scan", "android": "https://dc.lft.to/lastmile_qr_scan"}, "is_reserved": 0, "fusion_lon": 0.0, "fusion_lat": 0.0, "lon": -77.040458, "name": "1b6023383de471a4dc6f5bc1be6b0842"}, {"bike_id": "d3abe8962ea18bd97c400ad1a395aa81", "type": "electric_scooter", "is_disabled": 0, "lat": 38.90956116666667, "rental_uris": {"ios": "https://dc.lft.to/lastmile_qr_scan", "android": "https://dc.lft.to/lastmile_qr_scan"}, "is_reserved": 0, "fusion_lon": 0.0, "fusion_lat": 0.0, "lon": -77.027179, "name": "d3abe8962ea18bd97c400ad1a395aa81"}, {"bike_id": "a94ecc046f9d4d435786f751560bafd3", "type": "electric_bike", "is_disabled": 0, "lat": 38.96183216666667, "rental_uris": {"ios": "https://dc.lft.to/lastmile_qr_scan", "android": "https://dc.lft.to/lastmile_qr_scan"}, "is_reserved": 0, "fusion_lon": 0.0, "fusion_lat": 0.0, "lon": -77.0322785, "name": "a94ecc046f9d4d435786f751560bafd3"}, {"bike_id": "2d7d542910492c7d2a6fdc0e2b1792a4", "type": "electric_scooter", "is_disabled": 0, "lat": 38.96608066666667, "rental_uris": {"ios": "https://dc.lft.to/lastmile_qr_scan", "android": "https://dc.lft.to/lastmile_qr_scan"}, "is_reserved": 0, "fusion_lon": 0.0, "fusion_lat": 0.0, "lon": -77.01973483333333, "name": "2d7d542910492c7d2a6fdc0e2b1792a4"}, {"bike_id": "21d974fa242cf61309d3a0553b4c8be5", "type": "electric_scooter", "is_disabled": 0, "lat": 38.899184166666664, "rental_uris": {"ios": "https://dc.lft.to/lastmile_qr_scan", "android": "https://dc.lft.to/lastmile_qr_scan"}, "is_reserved": 0, "fusion_lon": 0.0, "fusion_lat": 0.0, "lon": -76.93365333333334, "name": "21d974fa242cf61309d3a0553b4c8be5"}, {"bike_id": "582ecb4e328e457d65205737d0b6d48f", "type": "electric_scooter", "is_disabled": 0, "lat": 38.926039333333335, "rental_uris": {"ios": "https://dc.lft.to/lastmile_qr_scan", "android": "https://dc.lft.to/lastmile_qr_scan"}, "is_reserved": 0, "fusion_lon": 0.0, "fusion_lat": 0.0, "lon": -77.03733383333334, "name": "582ecb4e328e457d65205737d0b6d48f"}, {"bike_id": "3bbaff7482c0d4d1c8429d3e488cda2f", "type": "electric_scooter", "is_disabled": 0, "lat": 38.898574333333336, "rental_uris": {"ios": "https://dc.lft.to/lastmile_qr_scan", "android": "https://dc.lft.to/lastmile_qr_scan"}, "is_reserved": 0, "fusion_lon": 0.0, "fusion_lat": 0.0, "lon": -77.03345166666666, "name": "3bbaff7482c0d4d1c8429d3e488cda2f"}, {"bike_id": "fe41b755cd9d935eec3c5922dda449eb", "type": "electric_scooter", "is_disabled": 0, "lat": 38.930366666666664, "rental_uris": {"ios": "https://dc.lft.to/lastmile_qr_scan", "android": "https://dc.lft.to/lastmile_qr_scan"}, "is_reserved": 0, "fusion_lon": 0.0, "fusion_lat": 0.0, "lon": -77.03300166666666, "name": "fe41b755cd9d935eec3c5922dda449eb"}, {"bike_id": "1d78a1b2f29d3a3822f6daf5f425c436", "type": "electric_scooter", "is_disabled": 0, "lat": 38.934624, "rental_uris": {"ios": "https://dc.lft.to/lastmile_qr_scan", "android": "https://dc.lft.to/lastmile_qr_scan"}, "is_reserved": 0, "fusion_lon": 0.0, "fusion_lat": 0.0, "lon": -77.02242066666666, "name": "1d78a1b2f29d3a3822f6daf5f425c436"}, {"bike_id": "c4660572b74d1e8c02684fe63237ab5d", "type": "electric_scooter", "is_disabled": 0, "lat": 38.9080175, "rental_uris": {"ios": "https://dc.lft.to/lastmile_qr_scan", "android": "https://dc.lft.to/lastmile_qr_scan"}, "is_reserved": 0, "fusion_lon": 0.0, "fusion_lat": 0.0, "lon": -77.04353816666666, "name": "c4660572b74d1e8c02684fe63237ab5d"}, {"bike_id": "dad28fc973bb30df3ea413521e02b14b", "type": "electric_scooter", "is_disabled": 0, "lat": 38.916763333333336, "rental_uris": {"ios": "https://dc.lft.to/lastmile_qr_scan", "android": "https://dc.lft.to/lastmile_qr_scan"}, "is_reserved": 0, "fusion_lon": 0.0, "fusion_lat": 0.0, "lon": -77.02329533333334, "name": "dad28fc973bb30df3ea413521e02b14b"}, {"bike_id": "22d6e883953e530e563ada67b6f02ada", "type": "electric_scooter", "is_disabled": 0, "lat": 38.926028, "rental_uris": {"ios": "https://dc.lft.to/lastmile_qr_scan", "android": "https://dc.lft.to/lastmile_qr_scan"}, "is_reserved": 0, "fusion_lon": 0.0, "fusion_lat": 0.0, "lon": -77.102377, "name": "22d6e883953e530e563ada67b6f02ada"}, {"bike_id": "13373c22d38aefcae368172ca39a0f3a", "type": "electric_scooter", "is_disabled": 0, "lat": 38.90143783333333, "rental_uris": {"ios": "https://dc.lft.to/lastmile_qr_scan", "android": "https://dc.lft.to/lastmile_qr_scan"}, "is_reserved": 0, "fusion_lon": 0.0, "fusion_lat": 0.0, "lon": -76.93089366666666, "name": "13373c22d38aefcae368172ca39a0f3a"}, {"bike_id": "589f077c81529fb3fbc460bdedecbf93", "type": "electric_scooter", "is_disabled": 0, "lat": 38.90409616666667, "rental_uris": {"ios": "https://dc.lft.to/lastmile_qr_scan", "android": "https://dc.lft.to/lastmile_qr_scan"}, "is_reserved": 0, "fusion_lon": 0.0, "fusion_lat": 0.0, "lon": -76.97329866666666, "name": "589f077c81529fb3fbc460bdedecbf93"}, {"bike_id": "c1656e267a539d486ec2ff9e4acc11bf", "type": "electric_scooter", "is_disabled": 0, "lat": 38.924543, "rental_uris": {"ios": "https://dc.lft.to/lastmile_qr_scan", "android": "https://dc.lft.to/lastmile_qr_scan"}, "is_reserved": 0, "fusion_lon": 0.0, "fusion_lat": 0.0, "lon": -77.03339616666666, "name": "c1656e267a539d486ec2ff9e4acc11bf"}, {"bike_id": "c54989bf9cc3ffcccc9222361ea4caff", "type": "electric_scooter", "is_disabled": 0, "lat": 38.918695666666665, "rental_uris": {"ios": "https://dc.lft.to/lastmile_qr_scan", "android": "https://dc.lft.to/lastmile_qr_scan"}, "is_reserved": 0, "fusion_lon": 0.0, "fusion_lat": 0.0, "lon": -77.04445833333334, "name": "c54989bf9cc3ffcccc9222361ea4caff"}, {"bike_id": "92c20baad5b2467ef2250da1b069bd25", "type": "electric_scooter", "is_disabled": 0, "lat": 38.897507166666664, "rental_uris": {"ios": "https://dc.lft.to/lastmile_qr_scan", "android": "https://dc.lft.to/lastmile_qr_scan"}, "is_reserved": 0, "fusion_lon": 0.0, "fusion_lat": 0.0, "lon": -76.99384183333333, "name": "92c20baad5b2467ef2250da1b069bd25"}, {"bike_id": "26ff78d501f42f41b722d326b18e1f54", "type": "electric_scooter", "is_disabled": 0, "lat": 38.89843333333334, "rental_uris": {"ios": "https://dc.lft.to/lastmile_qr_scan", "android": "https://dc.lft.to/lastmile_qr_scan"}, "is_reserved": 0, "fusion_lon": 0.0, "fusion_lat": 0.0, "lon": -76.94631516666666, "name": "26ff78d501f42f41b722d326b18e1f54"}, {"bike_id": "d760b9435566a8a6fbb0e7a03f5b144f", "type": "electric_scooter", "is_disabled": 0, "lat": 38.9047915, "rental_uris": {"ios": "https://dc.lft.to/lastmile_qr_scan", "android": "https://dc.lft.to/lastmile_qr_scan"}, "is_reserved": 0, "fusion_lon": 0.0, "fusion_lat": 0.0, "lon": -77.0610625, "name": "d760b9435566a8a6fbb0e7a03f5b144f"}, {"bike_id": "4ead49792ea7e1fa8720508cfb7eebe0", "type": "electric_scooter", "is_disabled": 0, "lat": 38.902688833333336, "rental_uris": {"ios": "https://dc.lft.to/lastmile_qr_scan", "android": "https://dc.lft.to/lastmile_qr_scan"}, "is_reserved": 0, "fusion_lon": 0.0, "fusion_lat": 0.0, "lon": -77.03378116666667, "name": "4ead49792ea7e1fa8720508cfb7eebe0"}, {"bike_id": "75e1043e26dfa2fc3103fe4d48adabad", "type": "electric_bike", "is_disabled": 0, "lat": 38.815095166666666, "rental_uris": {"ios": "https://dc.lft.to/lastmile_qr_scan", "android": "https://dc.lft.to/lastmile_qr_scan"}, "is_reserved": 0, "fusion_lon": 0.0, "fusion_lat": 0.0, "lon": -77.12652983333334, "name": "75e1043e26dfa2fc3103fe4d48adabad"}, {"bike_id": "f171fe5dfd1a3b0ef2b08ab99aaa256b", "type": "electric_scooter", "is_disabled": 0, "lat": 38.8988815, "rental_uris": {"ios": "https://dc.lft.to/lastmile_qr_scan", "android": "https://dc.lft.to/lastmile_qr_scan"}, "is_reserved": 0, "fusion_lon": 0.0, "fusion_lat": 0.0, "lon": -76.9317385, "name": "f171fe5dfd1a3b0ef2b08ab99aaa256b"}, {"bike_id": "2ce6c35d58815429af2a24e0cfc042ac", "type": "electric_bike", "is_disabled": 0, "lat": 38.79610016666667, "rental_uris": {"ios": "https://dc.lft.to/lastmile_qr_scan", "android": "https://dc.lft.to/lastmile_qr_scan"}, "is_reserved": 0, "fusion_lon": 0.0, "fusion_lat": 0.0, "lon": -76.99743416666666, "name": "2ce6c35d58815429af2a24e0cfc042ac"}, {"bike_id": "6924fd07e52acfe783b56cd72f72d33b", "type": "electric_scooter", "is_disabled": 0, "lat": 38.922337, "rental_uris": {"ios": "https://dc.lft.to/lastmile_qr_scan", "android": "https://dc.lft.to/lastmile_qr_scan"}, "is_reserved": 0, "fusion_lon": 0.0, "fusion_lat": 0.0, "lon": -76.97340966666667, "name": "6924fd07e52acfe783b56cd72f72d33b"}, {"bike_id": "94004ccf3f8450862293a7c90c8b0178", "type": "electric_scooter", "is_disabled": 0, "lat": 38.935327666666666, "rental_uris": {"ios": "https://dc.lft.to/lastmile_qr_scan", "android": "https://dc.lft.to/lastmile_qr_scan"}, "is_reserved": 0, "fusion_lon": 0.0, "fusion_lat": 0.0, "lon": -77.033952, "name": "94004ccf3f8450862293a7c90c8b0178"}, {"bike_id": "ebf0e79bdaa5a97f19d84ccabd3bb8d7", "type": "electric_scooter", "is_disabled": 0, "lat": 38.88888983333333, "rental_uris": {"ios": "https://dc.lft.to/lastmile_qr_scan", "android": "https://dc.lft.to/lastmile_qr_scan"}, "is_reserved": 0, "fusion_lon": 0.0, "fusion_lat": 0.0, "lon": -77.03323933333333, "name": "ebf0e79bdaa5a97f19d84ccabd3bb8d7"}, {"bike_id": "bac50f82de5bc2404b1a851b72ef8b10", "type": "electric_scooter", "is_disabled": 0, "lat": 38.8617805, "rental_uris": {"ios": "https://dc.lft.to/lastmile_qr_scan", "android": "https://dc.lft.to/lastmile_qr_scan"}, "is_reserved": 0, "fusion_lon": 0.0, "fusion_lat": 0.0, "lon": -77.088096, "name": "bac50f82de5bc2404b1a851b72ef8b10"}, {"bike_id": "e0a0a7984cf53db506769175a743c270", "type": "electric_scooter", "is_disabled": 0, "lat": 38.93469733333333, "rental_uris": {"ios": "https://dc.lft.to/lastmile_qr_scan", "android": "https://dc.lft.to/lastmile_qr_scan"}, "is_reserved": 0, "fusion_lon": 0.0, "fusion_lat": 0.0, "lon": -77.0727055, "name": "e0a0a7984cf53db506769175a743c270"}, {"bike_id": "04eb4517af0f60128b0069a58feab4ae", "type": "electric_scooter", "is_disabled": 0, "lat": 38.907174, "rental_uris": {"ios": "https://dc.lft.to/lastmile_qr_scan", "android": "https://dc.lft.to/lastmile_qr_scan"}, "is_reserved": 0, "fusion_lon": 0.0, "fusion_lat": 0.0, "lon": -77.03228333333334, "name": "04eb4517af0f60128b0069a58feab4ae"}, {"bike_id": "56e3fec601ded77d0f5793fcf4c41f2f", "type": "electric_scooter", "is_disabled": 0, "lat": 38.92146233333333, "rental_uris": {"ios": "https://dc.lft.to/lastmile_qr_scan", "android": "https://dc.lft.to/lastmile_qr_scan"}, "is_reserved": 0, "fusion_lon": 0.0, "fusion_lat": 0.0, "lon": -77.01797266666667, "name": "56e3fec601ded77d0f5793fcf4c41f2f"}, {"bike_id": "643508643184667031c9bfb0026d3a30", "type": "electric_scooter", "is_disabled": 0, "lat": 38.927897333333334, "rental_uris": {"ios": "https://dc.lft.to/lastmile_qr_scan", "android": "https://dc.lft.to/lastmile_qr_scan"}, "is_reserved": 0, "fusion_lon": 0.0, "fusion_lat": 0.0, "lon": -77.0432305, "name": "643508643184667031c9bfb0026d3a30"}, {"bike_id": "074928546c750496e4adc8415078df2a", "type": "electric_scooter", "is_disabled": 0, "lat": 38.964145, "rental_uris": {"ios": "https://dc.lft.to/lastmile_qr_scan", "android": "https://dc.lft.to/lastmile_qr_scan"}, "is_reserved": 0, "fusion_lon": 0.0, "fusion_lat": 0.0, "lon": -77.02424633333334, "name": "074928546c750496e4adc8415078df2a"}, {"bike_id": "f67cc66749e9bbcf7c8e6103a1089c5e", "type": "electric_scooter", "is_disabled": 0, "lat": 38.9219585, "rental_uris": {"ios": "https://dc.lft.to/lastmile_qr_scan", "android": "https://dc.lft.to/lastmile_qr_scan"}, "is_reserved": 0, "fusion_lon": 0.0, "fusion_lat": 0.0, "lon": -77.019742, "name": "f67cc66749e9bbcf7c8e6103a1089c5e"}, {"bike_id": "03a07264954ee15e0bdd2d2618055fbe", "type": "electric_scooter", "is_disabled": 0, "lat": 38.89726016666667, "rental_uris": {"ios": "https://dc.lft.to/lastmile_qr_scan", "android": "https://dc.lft.to/lastmile_qr_scan"}, "is_reserved": 0, "fusion_lon": 0.0, "fusion_lat": 0.0, "lon": -77.02446466666666, "name": "03a07264954ee15e0bdd2d2618055fbe"}, {"bike_id": "6d1b42dee03586a5ef03419aabb6e974", "type": "electric_scooter", "is_disabled": 0, "lat": 38.91824166666667, "rental_uris": {"ios": "https://dc.lft.to/lastmile_qr_scan", "android": "https://dc.lft.to/lastmile_qr_scan"}, "is_reserved": 0, "fusion_lon": 0.0, "fusion_lat": 0.0, "lon": -77.04941916666667, "name": "6d1b42dee03586a5ef03419aabb6e974"}, {"bike_id": "8a45369891028aef4b15014930b2a2f2", "type": "electric_scooter", "is_disabled": 0, "lat": 38.898469166666665, "rental_uris": {"ios": "https://dc.lft.to/lastmile_qr_scan", "android": "https://dc.lft.to/lastmile_qr_scan"}, "is_reserved": 0, "fusion_lon": 0.0, "fusion_lat": 0.0, "lon": -77.04656233333333, "name": "8a45369891028aef4b15014930b2a2f2"}, {"bike_id": "d103d32891f7cb36367de95c61b33b9b", "type": "electric_scooter", "is_disabled": 0, "lat": 38.90843266666667, "rental_uris": {"ios": "https://dc.lft.to/lastmile_qr_scan", "android": "https://dc.lft.to/lastmile_qr_scan"}, "is_reserved": 0, "fusion_lon": 0.0, "fusion_lat": 0.0, "lon": -77.0327325, "name": "d103d32891f7cb36367de95c61b33b9b"}, {"bike_id": "ed48493cdbd46993092c9e2d7e681fe9", "type": "electric_scooter", "is_disabled": 0, "lat": 38.910409, "rental_uris": {"ios": "https://dc.lft.to/lastmile_qr_scan", "android": "https://dc.lft.to/lastmile_qr_scan"}, "is_reserved": 0, "fusion_lon": 0.0, "fusion_lat": 0.0, "lon": -77.0383455, "name": "ed48493cdbd46993092c9e2d7e681fe9"}, {"bike_id": "87c10166fc5ba8a6bc4a6a039e8aeb77", "type": "electric_scooter", "is_disabled": 0, "lat": 38.922178833333334, "rental_uris": {"ios": "https://dc.lft.to/lastmile_qr_scan", "android": "https://dc.lft.to/lastmile_qr_scan"}, "is_reserved": 0, "fusion_lon": 0.0, "fusion_lat": 0.0, "lon": -77.03290666666666, "name": "87c10166fc5ba8a6bc4a6a039e8aeb77"}, {"bike_id": "54fe65f3af199200c39153108ec78e26", "type": "electric_scooter", "is_disabled": 0, "lat": 38.92459383333333, "rental_uris": {"ios": "https://dc.lft.to/lastmile_qr_scan", "android": "https://dc.lft.to/lastmile_qr_scan"}, "is_reserved": 0, "fusion_lon": 0.0, "fusion_lat": 0.0, "lon": -77.042003, "name": "54fe65f3af199200c39153108ec78e26"}, {"bike_id": "77ae0898776da292ea5dfa1d70b38dcf", "type": "electric_scooter", "is_disabled": 0, "lat": 38.90764133333333, "rental_uris": {"ios": "https://dc.lft.to/lastmile_qr_scan", "android": "https://dc.lft.to/lastmile_qr_scan"}, "is_reserved": 0, "fusion_lon": 0.0, "fusion_lat": 0.0, "lon": -77.03579383333333, "name": "77ae0898776da292ea5dfa1d70b38dcf"}, {"bike_id": "0f5f3fe33b5c46586a0c5061c161ca32", "type": "electric_scooter", "is_disabled": 0, "lat": 38.91566133333333, "rental_uris": {"ios": "https://dc.lft.to/lastmile_qr_scan", "android": "https://dc.lft.to/lastmile_qr_scan"}, "is_reserved": 0, "fusion_lon": 0.0, "fusion_lat": 0.0, "lon": -77.04470916666666, "name": "0f5f3fe33b5c46586a0c5061c161ca32"}, {"bike_id": "c0a6eb0c780e57653114dcec74ced235", "type": "electric_scooter", "is_disabled": 0, "lat": 38.9172835, "rental_uris": {"ios": "https://dc.lft.to/lastmile_qr_scan", "android": "https://dc.lft.to/lastmile_qr_scan"}, "is_reserved": 0, "fusion_lon": 0.0, "fusion_lat": 0.0, "lon": -77.03663066666667, "name": "c0a6eb0c780e57653114dcec74ced235"}, {"bike_id": "65d292e1a62b58a5b3bb45c3bd776a6a", "type": "electric_bike", "is_disabled": 0, "lat": 38.897428166666664, "rental_uris": {"ios": "https://dc.lft.to/lastmile_qr_scan", "android": "https://dc.lft.to/lastmile_qr_scan"}, "is_reserved": 0, "fusion_lon": 0.0, "fusion_lat": 0.0, "lon": -76.9204515, "name": "65d292e1a62b58a5b3bb45c3bd776a6a"}, {"bike_id": "162fd7e077e5f4457069e5d97cb4a01b", "type": "electric_scooter", "is_disabled": 0, "lat": 38.942718166666666, "rental_uris": {"ios": "https://dc.lft.to/lastmile_qr_scan", "android": "https://dc.lft.to/lastmile_qr_scan"}, "is_reserved": 0, "fusion_lon": 0.0, "fusion_lat": 0.0, "lon": -77.03258716666667, "name": "162fd7e077e5f4457069e5d97cb4a01b"}, {"bike_id": "937a670b0064b2479bad39f081d5b2ca", "type": "electric_scooter", "is_disabled": 0, "lat": 38.89980166666667, "rental_uris": {"ios": "https://dc.lft.to/lastmile_qr_scan", "android": "https://dc.lft.to/lastmile_qr_scan"}, "is_reserved": 0, "fusion_lon": 0.0, "fusion_lat": 0.0, "lon": -77.02602616666667, "name": "937a670b0064b2479bad39f081d5b2ca"}, {"bike_id": "f39297cfecd08faf3090a73a809fa43c", "type": "electric_scooter", "is_disabled": 0, "lat": 38.92478416666667, "rental_uris": {"ios": "https://dc.lft.to/lastmile_qr_scan", "android": "https://dc.lft.to/lastmile_qr_scan"}, "is_reserved": 0, "fusion_lon": 0.0, "fusion_lat": 0.0, "lon": -77.02829916666667, "name": "f39297cfecd08faf3090a73a809fa43c"}, {"bike_id": "d384170275720f7170ccbe399885e94f", "type": "electric_scooter", "is_disabled": 0, "lat": 38.9144265, "rental_uris": {"ios": "https://dc.lft.to/lastmile_qr_scan", "android": "https://dc.lft.to/lastmile_qr_scan"}, "is_reserved": 0, "fusion_lon": 0.0, "fusion_lat": 0.0, "lon": -77.022887, "name": "d384170275720f7170ccbe399885e94f"}, {"bike_id": "abb39639ca53c299dbb4743b2bff09d8", "type": "electric_scooter", "is_disabled": 0, "lat": 38.878637499999996, "rental_uris": {"ios": "https://dc.lft.to/lastmile_qr_scan", "android": "https://dc.lft.to/lastmile_qr_scan"}, "is_reserved": 0, "fusion_lon": 0.0, "fusion_lat": 0.0, "lon": -76.969802, "name": "abb39639ca53c299dbb4743b2bff09d8"}, {"bike_id": "984f510abfa0ad3c5c86313ac7374729", "type": "electric_scooter", "is_disabled": 0, "lat": 38.8531935, "rental_uris": {"ios": "https://dc.lft.to/lastmile_qr_scan", "android": "https://dc.lft.to/lastmile_qr_scan"}, "is_reserved": 0, "fusion_lon": 0.0, "fusion_lat": 0.0, "lon": -76.9800745, "name": "984f510abfa0ad3c5c86313ac7374729"}, {"bike_id": "3f1f3090490c8574a734a6d4b0f4b930", "type": "electric_scooter", "is_disabled": 0, "lat": 38.88849316666666, "rental_uris": {"ios": "https://dc.lft.to/lastmile_qr_scan", "android": "https://dc.lft.to/lastmile_qr_scan"}, "is_reserved": 0, "fusion_lon": 0.0, "fusion_lat": 0.0, "lon": -76.92677466666666, "name": "3f1f3090490c8574a734a6d4b0f4b930"}, {"bike_id": "89456470f477e0a8b2915080ff08f9f2", "type": "electric_scooter", "is_disabled": 0, "lat": 38.86688133333333, "rental_uris": {"ios": "https://dc.lft.to/lastmile_qr_scan", "android": "https://dc.lft.to/lastmile_qr_scan"}, "is_reserved": 0, "fusion_lon": 0.0, "fusion_lat": 0.0, "lon": -76.98586116666667, "name": "89456470f477e0a8b2915080ff08f9f2"}, {"bike_id": "634b4f77e73c13b193c39884c33ba2eb", "type": "electric_scooter", "is_disabled": 0, "lat": 38.874264833333335, "rental_uris": {"ios": "https://dc.lft.to/lastmile_qr_scan", "android": "https://dc.lft.to/lastmile_qr_scan"}, "is_reserved": 0, "fusion_lon": 0.0, "fusion_lat": 0.0, "lon": -76.96908433333333, "name": "634b4f77e73c13b193c39884c33ba2eb"}, {"bike_id": "fa0f719ccd8f9c61bb2c0ee0933c4f33", "type": "electric_scooter", "is_disabled": 0, "lat": 38.915644, "rental_uris": {"ios": "https://dc.lft.to/lastmile_qr_scan", "android": "https://dc.lft.to/lastmile_qr_scan"}, "is_reserved": 0, "fusion_lon": 0.0, "fusion_lat": 0.0, "lon": -77.02053966666666, "name": "fa0f719ccd8f9c61bb2c0ee0933c4f33"}, {"bike_id": "1515d2ea5a0961a076c00821c86906a2", "type": "electric_scooter", "is_disabled": 0, "lat": 38.902246833333336, "rental_uris": {"ios": "https://dc.lft.to/lastmile_qr_scan", "android": "https://dc.lft.to/lastmile_qr_scan"}, "is_reserved": 0, "fusion_lon": 0.0, "fusion_lat": 0.0, "lon": -77.043086, "name": "1515d2ea5a0961a076c00821c86906a2"}, {"bike_id": "e5f283f9865e50ae81dbcd10a242e281", "type": "electric_scooter", "is_disabled": 0, "lat": 38.916404, "rental_uris": {"ios": "https://dc.lft.to/lastmile_qr_scan", "android": "https://dc.lft.to/lastmile_qr_scan"}, "is_reserved": 0, "fusion_lon": 0.0, "fusion_lat": 0.0, "lon": -77.022902, "name": "e5f283f9865e50ae81dbcd10a242e281"}, {"bike_id": "1e6ec0555dd75343e6bc18c65798068f", "type": "electric_scooter", "is_disabled": 0, "lat": 38.90678366666667, "rental_uris": {"ios": "https://dc.lft.to/lastmile_qr_scan", "android": "https://dc.lft.to/lastmile_qr_scan"}, "is_reserved": 0, "fusion_lon": 0.0, "fusion_lat": 0.0, "lon": -77.04170383333333, "name": "1e6ec0555dd75343e6bc18c65798068f"}, {"bike_id": "3ac26949faacecf6c0f836a4b7c99d73", "type": "electric_scooter", "is_disabled": 0, "lat": 38.909985, "rental_uris": {"ios": "https://dc.lft.to/lastmile_qr_scan", "android": "https://dc.lft.to/lastmile_qr_scan"}, "is_reserved": 0, "fusion_lon": 0.0, "fusion_lat": 0.0, "lon": -77.040057, "name": "3ac26949faacecf6c0f836a4b7c99d73"}, {"bike_id": "9621272c77a06bab9b01b9e3f7dcf3fe", "type": "electric_scooter", "is_disabled": 0, "lat": 38.91680683333333, "rental_uris": {"ios": "https://dc.lft.to/lastmile_qr_scan", "android": "https://dc.lft.to/lastmile_qr_scan"}, "is_reserved": 0, "fusion_lon": 0.0, "fusion_lat": 0.0, "lon": -77.02333166666666, "name": "9621272c77a06bab9b01b9e3f7dcf3fe"}, {"bike_id": "df17f1c087cfdb507d9783ae28c8c419", "type": "electric_scooter", "is_disabled": 0, "lat": 38.895004, "rental_uris": {"ios": "https://dc.lft.to/lastmile_qr_scan", "android": "https://dc.lft.to/lastmile_qr_scan"}, "is_reserved": 0, "fusion_lon": 0.0, "fusion_lat": 0.0, "lon": -76.93474616666667, "name": "df17f1c087cfdb507d9783ae28c8c419"}, {"bike_id": "6d3574a3d81a7634c9f2c95474acbea8", "type": "electric_bike", "is_disabled": 0, "lat": 38.942628, "rental_uris": {"ios": "https://dc.lft.to/lastmile_qr_scan", "android": "https://dc.lft.to/lastmile_qr_scan"}, "is_reserved": 0, "fusion_lon": 0.0, "fusion_lat": 0.0, "lon": -76.9906595, "name": "6d3574a3d81a7634c9f2c95474acbea8"}, {"bike_id": "cb6ef734efe3a55e620f106723a32ba2", "type": "electric_bike", "is_disabled": 0, "lat": 38.848412833333335, "rental_uris": {"ios": "https://dc.lft.to/lastmile_qr_scan", "android": "https://dc.lft.to/lastmile_qr_scan"}, "is_reserved": 0, "fusion_lon": 0.0, "fusion_lat": 0.0, "lon": -77.07920783333333, "name": "cb6ef734efe3a55e620f106723a32ba2"}, {"bike_id": "b2c415f3ec36281a458dc0ff735de755", "type": "electric_scooter", "is_disabled": 0, "lat": 38.9119725, "rental_uris": {"ios": "https://dc.lft.to/lastmile_qr_scan", "android": "https://dc.lft.to/lastmile_qr_scan"}, "is_reserved": 0, "fusion_lon": 0.0, "fusion_lat": 0.0, "lon": -77.04238183333334, "name": "b2c415f3ec36281a458dc0ff735de755"}, {"bike_id": "f5e4e229b0113932e3807972fd25dd74", "type": "electric_scooter", "is_disabled": 0, "lat": 38.951182333333335, "rental_uris": {"ios": "https://dc.lft.to/lastmile_qr_scan", "android": "https://dc.lft.to/lastmile_qr_scan"}, "is_reserved": 0, "fusion_lon": 0.0, "fusion_lat": 0.0, "lon": -77.0143275, "name": "f5e4e229b0113932e3807972fd25dd74"}, {"bike_id": "98c144af8e93c2fdbd7bdd70b0e7e7a4", "type": "electric_scooter", "is_disabled": 0, "lat": 38.86690433333333, "rental_uris": {"ios": "https://dc.lft.to/lastmile_qr_scan", "android": "https://dc.lft.to/lastmile_qr_scan"}, "is_reserved": 0, "fusion_lon": 0.0, "fusion_lat": 0.0, "lon": -76.98560566666667, "name": "98c144af8e93c2fdbd7bdd70b0e7e7a4"}, {"bike_id": "585b041a499a81c356ac229c1e57c3e0", "type": "electric_scooter", "is_disabled": 0, "lat": 38.928617333333335, "rental_uris": {"ios": "https://dc.lft.to/lastmile_qr_scan", "android": "https://dc.lft.to/lastmile_qr_scan"}, "is_reserved": 0, "fusion_lon": 0.0, "fusion_lat": 0.0, "lon": -77.03710366666667, "name": "585b041a499a81c356ac229c1e57c3e0"}, {"bike_id": "10835be357da16ac857bdf2d47858698", "type": "electric_scooter", "is_disabled": 0, "lat": 38.9495235, "rental_uris": {"ios": "https://dc.lft.to/lastmile_qr_scan", "android": "https://dc.lft.to/lastmile_qr_scan"}, "is_reserved": 0, "fusion_lon": 0.0, "fusion_lat": 0.0, "lon": -77.06523433333334, "name": "10835be357da16ac857bdf2d47858698"}, {"bike_id": "45e3e37d1045e047384e835ec5b1f5b4", "type": "electric_scooter", "is_disabled": 0, "lat": 38.9254735, "rental_uris": {"ios": "https://dc.lft.to/lastmile_qr_scan", "android": "https://dc.lft.to/lastmile_qr_scan"}, "is_reserved": 0, "fusion_lon": 0.0, "fusion_lat": 0.0, "lon": -77.03356483333333, "name": "45e3e37d1045e047384e835ec5b1f5b4"}, {"bike_id": "01ebe49bc4646f9608a6effa0111d673", "type": "electric_scooter", "is_disabled": 0, "lat": 38.91665666666667, "rental_uris": {"ios": "https://dc.lft.to/lastmile_qr_scan", "android": "https://dc.lft.to/lastmile_qr_scan"}, "is_reserved": 0, "fusion_lon": 0.0, "fusion_lat": 0.0, "lon": -77.02892766666666, "name": "01ebe49bc4646f9608a6effa0111d673"}, {"bike_id": "922fd00826590faf75ebdf0287f00521", "type": "electric_scooter", "is_disabled": 0, "lat": 38.932073, "rental_uris": {"ios": "https://dc.lft.to/lastmile_qr_scan", "android": "https://dc.lft.to/lastmile_qr_scan"}, "is_reserved": 0, "fusion_lon": 0.0, "fusion_lat": 0.0, "lon": -77.03672666666667, "name": "922fd00826590faf75ebdf0287f00521"}, {"bike_id": "e5ea42ac03141120fa90f0729d48be36", "type": "electric_scooter", "is_disabled": 0, "lat": 38.887480333333336, "rental_uris": {"ios": "https://dc.lft.to/lastmile_qr_scan", "android": "https://dc.lft.to/lastmile_qr_scan"}, "is_reserved": 0, "fusion_lon": 0.0, "fusion_lat": 0.0, "lon": -76.99621516666667, "name": "e5ea42ac03141120fa90f0729d48be36"}, {"bike_id": "3ff4338cbb111a0287f90649f030a359", "type": "electric_scooter", "is_disabled": 0, "lat": 38.8885385, "rental_uris": {"ios": "https://dc.lft.to/lastmile_qr_scan", "android": "https://dc.lft.to/lastmile_qr_scan"}, "is_reserved": 0, "fusion_lon": 0.0, "fusion_lat": 0.0, "lon": -77.000503, "name": "3ff4338cbb111a0287f90649f030a359"}, {"bike_id": "411653ede5aa06e5266cd75eec073625", "type": "electric_scooter", "is_disabled": 0, "lat": 38.919136, "rental_uris": {"ios": "https://dc.lft.to/lastmile_qr_scan", "android": "https://dc.lft.to/lastmile_qr_scan"}, "is_reserved": 0, "fusion_lon": 0.0, "fusion_lat": 0.0, "lon": -77.07071533333334, "name": "411653ede5aa06e5266cd75eec073625"}, {"bike_id": "f0079d686113bee71eb19062f36c44ea", "type": "electric_scooter", "is_disabled": 0, "lat": 38.91180833333333, "rental_uris": {"ios": "https://dc.lft.to/lastmile_qr_scan", "android": "https://dc.lft.to/lastmile_qr_scan"}, "is_reserved": 0, "fusion_lon": 0.0, "fusion_lat": 0.0, "lon": -77.0021245, "name": "f0079d686113bee71eb19062f36c44ea"}, {"bike_id": "8df30043f95b784c695909303e249403", "type": "electric_scooter", "is_disabled": 0, "lat": 38.90560933333333, "rental_uris": {"ios": "https://dc.lft.to/lastmile_qr_scan", "android": "https://dc.lft.to/lastmile_qr_scan"}, "is_reserved": 0, "fusion_lon": 0.0, "fusion_lat": 0.0, "lon": -77.00602083333334, "name": "8df30043f95b784c695909303e249403"}, {"bike_id": "d8ad6558535d2586f182db50d1dce777", "type": "electric_scooter", "is_disabled": 0, "lat": 38.91508966666667, "rental_uris": {"ios": "https://dc.lft.to/lastmile_qr_scan", "android": "https://dc.lft.to/lastmile_qr_scan"}, "is_reserved": 0, "fusion_lon": 0.0, "fusion_lat": 0.0, "lon": -77.021853, "name": "d8ad6558535d2586f182db50d1dce777"}, {"bike_id": "2064b2a7d7dee9f749878d4c44e1a7e0", "type": "electric_bike", "is_disabled": 0, "lat": 38.8798755, "rental_uris": {"ios": "https://dc.lft.to/lastmile_qr_scan", "android": "https://dc.lft.to/lastmile_qr_scan"}, "is_reserved": 0, "fusion_lon": 0.0, "fusion_lat": 0.0, "lon": -76.91597216666666, "name": "2064b2a7d7dee9f749878d4c44e1a7e0"}, {"bike_id": "10584848db59ef10c9d237c297d48d48", "type": "electric_scooter", "is_disabled": 0, "lat": 38.92482483333333, "rental_uris": {"ios": "https://dc.lft.to/lastmile_qr_scan", "android": "https://dc.lft.to/lastmile_qr_scan"}, "is_reserved": 0, "fusion_lon": 0.0, "fusion_lat": 0.0, "lon": -77.05209783333333, "name": "10584848db59ef10c9d237c297d48d48"}, {"bike_id": "c078c1635d7adbb0893e79d9cfee954c", "type": "electric_scooter", "is_disabled": 0, "lat": 38.880416, "rental_uris": {"ios": "https://dc.lft.to/lastmile_qr_scan", "android": "https://dc.lft.to/lastmile_qr_scan"}, "is_reserved": 0, "fusion_lon": 0.0, "fusion_lat": 0.0, "lon": -76.93215083333334, "name": "c078c1635d7adbb0893e79d9cfee954c"}, {"bike_id": "c28b396fe02f4cc0393078a7c3548147", "type": "electric_scooter", "is_disabled": 0, "lat": 38.900917, "rental_uris": {"ios": "https://dc.lft.to/lastmile_qr_scan", "android": "https://dc.lft.to/lastmile_qr_scan"}, "is_reserved": 0, "fusion_lon": 0.0, "fusion_lat": 0.0, "lon": -76.9833775, "name": "c28b396fe02f4cc0393078a7c3548147"}, {"bike_id": "7aa7786df6f892265c7f65c531d958f3", "type": "electric_scooter", "is_disabled": 0, "lat": 38.866884666666664, "rental_uris": {"ios": "https://dc.lft.to/lastmile_qr_scan", "android": "https://dc.lft.to/lastmile_qr_scan"}, "is_reserved": 0, "fusion_lon": 0.0, "fusion_lat": 0.0, "lon": -76.98577783333333, "name": "7aa7786df6f892265c7f65c531d958f3"}, {"bike_id": "1f6b34a9ec5a9f3eb5378508cd5af0e0", "type": "electric_scooter", "is_disabled": 0, "lat": 38.91403916666667, "rental_uris": {"ios": "https://dc.lft.to/lastmile_qr_scan", "android": "https://dc.lft.to/lastmile_qr_scan"}, "is_reserved": 0, "fusion_lon": 0.0, "fusion_lat": 0.0, "lon": -77.03222066666666, "name": "1f6b34a9ec5a9f3eb5378508cd5af0e0"}, {"bike_id": "eb4a0a46850776af7c65760ba3347799", "type": "electric_scooter", "is_disabled": 0, "lat": 38.9247685, "rental_uris": {"ios": "https://dc.lft.to/lastmile_qr_scan", "android": "https://dc.lft.to/lastmile_qr_scan"}, "is_reserved": 0, "fusion_lon": 0.0, "fusion_lat": 0.0, "lon": -77.05203316666666, "name": "eb4a0a46850776af7c65760ba3347799"}, {"bike_id": "a1b433abcf484baf14f804d443000d3a", "type": "electric_scooter", "is_disabled": 0, "lat": 38.90041333333333, "rental_uris": {"ios": "https://dc.lft.to/lastmile_qr_scan", "android": "https://dc.lft.to/lastmile_qr_scan"}, "is_reserved": 0, "fusion_lon": 0.0, "fusion_lat": 0.0, "lon": -77.03664233333333, "name": "a1b433abcf484baf14f804d443000d3a"}, {"bike_id": "acc11bdbb0dc40ba69a1a42db07be6e1", "type": "electric_scooter", "is_disabled": 0, "lat": 38.91076133333333, "rental_uris": {"ios": "https://dc.lft.to/lastmile_qr_scan", "android": "https://dc.lft.to/lastmile_qr_scan"}, "is_reserved": 0, "fusion_lon": 0.0, "fusion_lat": 0.0, "lon": -77.03854433333333, "name": "acc11bdbb0dc40ba69a1a42db07be6e1"}, {"bike_id": "4ff85ffa2f84aa74debf06ab88526fad", "type": "electric_scooter", "is_disabled": 0, "lat": 38.90251116666666, "rental_uris": {"ios": "https://dc.lft.to/lastmile_qr_scan", "android": "https://dc.lft.to/lastmile_qr_scan"}, "is_reserved": 0, "fusion_lon": 0.0, "fusion_lat": 0.0, "lon": -77.03353483333333, "name": "4ff85ffa2f84aa74debf06ab88526fad"}, {"bike_id": "a91e6fa121594b6ceb3d6caa89f72127", "type": "electric_scooter", "is_disabled": 0, "lat": 38.93669716666667, "rental_uris": {"ios": "https://dc.lft.to/lastmile_qr_scan", "android": "https://dc.lft.to/lastmile_qr_scan"}, "is_reserved": 0, "fusion_lon": 0.0, "fusion_lat": 0.0, "lon": -77.0244835, "name": "a91e6fa121594b6ceb3d6caa89f72127"}, {"bike_id": "2ecf06e6b0ee91086aa4b765ffe61d61", "type": "electric_scooter", "is_disabled": 0, "lat": 38.9169695, "rental_uris": {"ios": "https://dc.lft.to/lastmile_qr_scan", "android": "https://dc.lft.to/lastmile_qr_scan"}, "is_reserved": 0, "fusion_lon": 0.0, "fusion_lat": 0.0, "lon": -77.04111233333333, "name": "2ecf06e6b0ee91086aa4b765ffe61d61"}, {"bike_id": "d7081448952c93ba4ead36365d1fd962", "type": "electric_scooter", "is_disabled": 0, "lat": 38.87391366666667, "rental_uris": {"ios": "https://dc.lft.to/lastmile_qr_scan", "android": "https://dc.lft.to/lastmile_qr_scan"}, "is_reserved": 0, "fusion_lon": 0.0, "fusion_lat": 0.0, "lon": -77.04339033333333, "name": "d7081448952c93ba4ead36365d1fd962"}, {"bike_id": "c190a7e8f5c1dee559f66c660b2f425b", "type": "electric_scooter", "is_disabled": 0, "lat": 38.93518383333333, "rental_uris": {"ios": "https://dc.lft.to/lastmile_qr_scan", "android": "https://dc.lft.to/lastmile_qr_scan"}, "is_reserved": 0, "fusion_lon": 0.0, "fusion_lat": 0.0, "lon": -77.033548, "name": "c190a7e8f5c1dee559f66c660b2f425b"}, {"bike_id": "7b6c7dd647b62247cd44296e25487a31", "type": "electric_scooter", "is_disabled": 0, "lat": 38.92847483333333, "rental_uris": {"ios": "https://dc.lft.to/lastmile_qr_scan", "android": "https://dc.lft.to/lastmile_qr_scan"}, "is_reserved": 0, "fusion_lon": 0.0, "fusion_lat": 0.0, "lon": -77.02007416666666, "name": "7b6c7dd647b62247cd44296e25487a31"}, {"bike_id": "de9a07a64600c43620fa19f2daef5d73", "type": "electric_scooter", "is_disabled": 0, "lat": 38.920167, "rental_uris": {"ios": "https://dc.lft.to/lastmile_qr_scan", "android": "https://dc.lft.to/lastmile_qr_scan"}, "is_reserved": 0, "fusion_lon": 0.0, "fusion_lat": 0.0, "lon": -77.0231085, "name": "de9a07a64600c43620fa19f2daef5d73"}, {"bike_id": "220fb88cb0615fe308fb9f6ddf4ffd0b", "type": "electric_scooter", "is_disabled": 0, "lat": 38.907932, "rental_uris": {"ios": "https://dc.lft.to/lastmile_qr_scan", "android": "https://dc.lft.to/lastmile_qr_scan"}, "is_reserved": 0, "fusion_lon": 0.0, "fusion_lat": 0.0, "lon": -77.0479395, "name": "220fb88cb0615fe308fb9f6ddf4ffd0b"}, {"bike_id": "1587981ca7bbefdcd4da65c963efaa5b", "type": "electric_scooter", "is_disabled": 0, "lat": 38.9368465, "rental_uris": {"ios": "https://dc.lft.to/lastmile_qr_scan", "android": "https://dc.lft.to/lastmile_qr_scan"}, "is_reserved": 0, "fusion_lon": 0.0, "fusion_lat": 0.0, "lon": -77.02466116666666, "name": "1587981ca7bbefdcd4da65c963efaa5b"}, {"bike_id": "b03c8692f9d2dbbcb2184f6d30fd4a62", "type": "electric_scooter", "is_disabled": 0, "lat": 38.92326416666667, "rental_uris": {"ios": "https://dc.lft.to/lastmile_qr_scan", "android": "https://dc.lft.to/lastmile_qr_scan"}, "is_reserved": 0, "fusion_lon": 0.0, "fusion_lat": 0.0, "lon": -77.02137816666666, "name": "b03c8692f9d2dbbcb2184f6d30fd4a62"}, {"bike_id": "9f16fd2d0bf415243b4eb646c053539b", "type": "electric_scooter", "is_disabled": 0, "lat": 38.916202, "rental_uris": {"ios": "https://dc.lft.to/lastmile_qr_scan", "android": "https://dc.lft.to/lastmile_qr_scan"}, "is_reserved": 0, "fusion_lon": 0.0, "fusion_lat": 0.0, "lon": -77.03640516666667, "name": "9f16fd2d0bf415243b4eb646c053539b"}, {"bike_id": "a6b95e1e96a78f8007d44badd3c16836", "type": "electric_bike", "is_disabled": 0, "lat": 38.845309, "rental_uris": {"ios": "https://dc.lft.to/lastmile_qr_scan", "android": "https://dc.lft.to/lastmile_qr_scan"}, "is_reserved": 0, "fusion_lon": 0.0, "fusion_lat": 0.0, "lon": -76.97395716666666, "name": "a6b95e1e96a78f8007d44badd3c16836"}, {"bike_id": "6018c6784b3f921e4a27a30dca83de14", "type": "electric_scooter", "is_disabled": 0, "lat": 38.919231, "rental_uris": {"ios": "https://dc.lft.to/lastmile_qr_scan", "android": "https://dc.lft.to/lastmile_qr_scan"}, "is_reserved": 0, "fusion_lon": 0.0, "fusion_lat": 0.0, "lon": -77.03421816666666, "name": "6018c6784b3f921e4a27a30dca83de14"}, {"bike_id": "76b650ab70a763159331f0a3e3221cae", "type": "electric_scooter", "is_disabled": 0, "lat": 38.90725533333333, "rental_uris": {"ios": "https://dc.lft.to/lastmile_qr_scan", "android": "https://dc.lft.to/lastmile_qr_scan"}, "is_reserved": 0, "fusion_lon": 0.0, "fusion_lat": 0.0, "lon": -77.02889533333334, "name": "76b650ab70a763159331f0a3e3221cae"}, {"bike_id": "438197a2743959bbe4ee2c4eb2b04485", "type": "electric_scooter", "is_disabled": 0, "lat": 38.932201166666665, "rental_uris": {"ios": "https://dc.lft.to/lastmile_qr_scan", "android": "https://dc.lft.to/lastmile_qr_scan"}, "is_reserved": 0, "fusion_lon": 0.0, "fusion_lat": 0.0, "lon": -77.03513816666667, "name": "438197a2743959bbe4ee2c4eb2b04485"}, {"bike_id": "fc444b1a37b5e598944a4ba3023d12b5", "type": "electric_scooter", "is_disabled": 0, "lat": 38.9261925, "rental_uris": {"ios": "https://dc.lft.to/lastmile_qr_scan", "android": "https://dc.lft.to/lastmile_qr_scan"}, "is_reserved": 0, "fusion_lon": 0.0, "fusion_lat": 0.0, "lon": -77.04188183333333, "name": "fc444b1a37b5e598944a4ba3023d12b5"}, {"bike_id": "59b0fc1106c0869132bf803d3aa8b0b6", "type": "electric_scooter", "is_disabled": 0, "lat": 38.94717166666667, "rental_uris": {"ios": "https://dc.lft.to/lastmile_qr_scan", "android": "https://dc.lft.to/lastmile_qr_scan"}, "is_reserved": 0, "fusion_lon": 0.0, "fusion_lat": 0.0, "lon": -77.033262, "name": "59b0fc1106c0869132bf803d3aa8b0b6"}, {"bike_id": "38751a88f951e1a3c29d8560b9dd8026", "type": "electric_scooter", "is_disabled": 0, "lat": 38.926899, "rental_uris": {"ios": "https://dc.lft.to/lastmile_qr_scan", "android": "https://dc.lft.to/lastmile_qr_scan"}, "is_reserved": 0, "fusion_lon": 0.0, "fusion_lat": 0.0, "lon": -77.029785, "name": "38751a88f951e1a3c29d8560b9dd8026"}, {"bike_id": "0bbc12eb3fce55756612ed94cbc88b46", "type": "electric_scooter", "is_disabled": 0, "lat": 38.89850033333333, "rental_uris": {"ios": "https://dc.lft.to/lastmile_qr_scan", "android": "https://dc.lft.to/lastmile_qr_scan"}, "is_reserved": 0, "fusion_lon": 0.0, "fusion_lat": 0.0, "lon": -77.04078666666666, "name": "0bbc12eb3fce55756612ed94cbc88b46"}, {"bike_id": "27ed11dfd2fa4a66497257fcca9adfa3", "type": "electric_scooter", "is_disabled": 0, "lat": 38.9145975, "rental_uris": {"ios": "https://dc.lft.to/lastmile_qr_scan", "android": "https://dc.lft.to/lastmile_qr_scan"}, "is_reserved": 0, "fusion_lon": 0.0, "fusion_lat": 0.0, "lon": -77.0710605, "name": "27ed11dfd2fa4a66497257fcca9adfa3"}, {"bike_id": "ae6782e85913b24f0ad2dffbbdda331f", "type": "electric_scooter", "is_disabled": 0, "lat": 38.92545783333333, "rental_uris": {"ios": "https://dc.lft.to/lastmile_qr_scan", "android": "https://dc.lft.to/lastmile_qr_scan"}, "is_reserved": 0, "fusion_lon": 0.0, "fusion_lat": 0.0, "lon": -77.04122483333333, "name": "ae6782e85913b24f0ad2dffbbdda331f"}, {"bike_id": "ad96b6ff608ae0d1ef414d678c1838f2", "type": "electric_scooter", "is_disabled": 0, "lat": 38.90486833333333, "rental_uris": {"ios": "https://dc.lft.to/lastmile_qr_scan", "android": "https://dc.lft.to/lastmile_qr_scan"}, "is_reserved": 0, "fusion_lon": 0.0, "fusion_lat": 0.0, "lon": -77.0536285, "name": "ad96b6ff608ae0d1ef414d678c1838f2"}, {"bike_id": "d202226392c0edb7b20d8907052e00e9", "type": "electric_scooter", "is_disabled": 0, "lat": 38.93902766666667, "rental_uris": {"ios": "https://dc.lft.to/lastmile_qr_scan", "android": "https://dc.lft.to/lastmile_qr_scan"}, "is_reserved": 0, "fusion_lon": 0.0, "fusion_lat": 0.0, "lon": -77.016742, "name": "d202226392c0edb7b20d8907052e00e9"}, {"bike_id": "21ef4ea27e39b8efe259c06035a98bf6", "type": "electric_bike", "is_disabled": 0, "lat": 38.835513666666664, "rental_uris": {"ios": "https://dc.lft.to/lastmile_qr_scan", "android": "https://dc.lft.to/lastmile_qr_scan"}, "is_reserved": 0, "fusion_lon": 0.0, "fusion_lat": 0.0, "lon": -77.001142, "name": "21ef4ea27e39b8efe259c06035a98bf6"}, {"bike_id": "8c90c2a3f751964d6c5f0259ee515f3d", "type": "electric_scooter", "is_disabled": 0, "lat": 38.8960835, "rental_uris": {"ios": "https://dc.lft.to/lastmile_qr_scan", "android": "https://dc.lft.to/lastmile_qr_scan"}, "is_reserved": 0, "fusion_lon": 0.0, "fusion_lat": 0.0, "lon": -77.00335, "name": "8c90c2a3f751964d6c5f0259ee515f3d"}, {"bike_id": "ef008e2e48c6c035dba0ad9b69f837e3", "type": "electric_scooter", "is_disabled": 0, "lat": 38.922007666666666, "rental_uris": {"ios": "https://dc.lft.to/lastmile_qr_scan", "android": "https://dc.lft.to/lastmile_qr_scan"}, "is_reserved": 0, "fusion_lon": 0.0, "fusion_lat": 0.0, "lon": -77.02029116666667, "name": "ef008e2e48c6c035dba0ad9b69f837e3"}, {"bike_id": "f32423d0d19c6670faba71741f6ad5c2", "type": "electric_scooter", "is_disabled": 0, "lat": 38.91875183333333, "rental_uris": {"ios": "https://dc.lft.to/lastmile_qr_scan", "android": "https://dc.lft.to/lastmile_qr_scan"}, "is_reserved": 0, "fusion_lon": 0.0, "fusion_lat": 0.0, "lon": -77.012083, "name": "f32423d0d19c6670faba71741f6ad5c2"}, {"bike_id": "336f31c181090bbe9c7194e103c552e7", "type": "electric_scooter", "is_disabled": 0, "lat": 38.89895966666667, "rental_uris": {"ios": "https://dc.lft.to/lastmile_qr_scan", "android": "https://dc.lft.to/lastmile_qr_scan"}, "is_reserved": 0, "fusion_lon": 0.0, "fusion_lat": 0.0, "lon": -76.97692316666667, "name": "336f31c181090bbe9c7194e103c552e7"}, {"bike_id": "4c5b6bcfb26367f20fdcf6225e86c31a", "type": "electric_scooter", "is_disabled": 0, "lat": 38.9192705, "rental_uris": {"ios": "https://dc.lft.to/lastmile_qr_scan", "android": "https://dc.lft.to/lastmile_qr_scan"}, "is_reserved": 0, "fusion_lon": 0.0, "fusion_lat": 0.0, "lon": -77.03423683333334, "name": "4c5b6bcfb26367f20fdcf6225e86c31a"}, {"bike_id": "b98a42d3f7199c06f897351584b1a924", "type": "electric_scooter", "is_disabled": 0, "lat": 38.906358, "rental_uris": {"ios": "https://dc.lft.to/lastmile_qr_scan", "android": "https://dc.lft.to/lastmile_qr_scan"}, "is_reserved": 0, "fusion_lon": 0.0, "fusion_lat": 0.0, "lon": -77.025007, "name": "b98a42d3f7199c06f897351584b1a924"}, {"bike_id": "d79687b36d23793636a3e69d213cafb8", "type": "electric_bike", "is_disabled": 0, "lat": 38.954055333333336, "rental_uris": {"ios": "https://dc.lft.to/lastmile_qr_scan", "android": "https://dc.lft.to/lastmile_qr_scan"}, "is_reserved": 0, "fusion_lon": 0.0, "fusion_lat": 0.0, "lon": -76.98051933333333, "name": "d79687b36d23793636a3e69d213cafb8"}, {"bike_id": "7ca79173fc99d76bba8fadaa2b021112", "type": "electric_scooter", "is_disabled": 0, "lat": 38.907722, "rental_uris": {"ios": "https://dc.lft.to/lastmile_qr_scan", "android": "https://dc.lft.to/lastmile_qr_scan"}, "is_reserved": 0, "fusion_lon": 0.0, "fusion_lat": 0.0, "lon": -77.03857866666667, "name": "7ca79173fc99d76bba8fadaa2b021112"}, {"bike_id": "08f0899fc77f8d5e3176e4d38b2e1a44", "type": "electric_scooter", "is_disabled": 0, "lat": 38.905785333333334, "rental_uris": {"ios": "https://dc.lft.to/lastmile_qr_scan", "android": "https://dc.lft.to/lastmile_qr_scan"}, "is_reserved": 0, "fusion_lon": 0.0, "fusion_lat": 0.0, "lon": -77.00626233333334, "name": "08f0899fc77f8d5e3176e4d38b2e1a44"}, {"bike_id": "06340f6fc57b1e61efe9cd8cae17b679", "type": "electric_scooter", "is_disabled": 0, "lat": 38.90719833333333, "rental_uris": {"ios": "https://dc.lft.to/lastmile_qr_scan", "android": "https://dc.lft.to/lastmile_qr_scan"}, "is_reserved": 0, "fusion_lon": 0.0, "fusion_lat": 0.0, "lon": -77.04186466666667, "name": "06340f6fc57b1e61efe9cd8cae17b679"}, {"bike_id": "dac4850269e3c9c9c69ab351d7536337", "type": "electric_bike", "is_disabled": 0, "lat": 38.95788233333333, "rental_uris": {"ios": "https://dc.lft.to/lastmile_qr_scan", "android": "https://dc.lft.to/lastmile_qr_scan"}, "is_reserved": 0, "fusion_lon": 0.0, "fusion_lat": 0.0, "lon": -77.019973, "name": "dac4850269e3c9c9c69ab351d7536337"}, {"bike_id": "775fb7026980c1339515c8f191f67ebb", "type": "electric_scooter", "is_disabled": 0, "lat": 38.899687166666666, "rental_uris": {"ios": "https://dc.lft.to/lastmile_qr_scan", "android": "https://dc.lft.to/lastmile_qr_scan"}, "is_reserved": 0, "fusion_lon": 0.0, "fusion_lat": 0.0, "lon": -76.98306233333334, "name": "775fb7026980c1339515c8f191f67ebb"}, {"bike_id": "32bc9d4660ca0ae9276a1c8a10f4ce49", "type": "electric_scooter", "is_disabled": 0, "lat": 38.916962833333336, "rental_uris": {"ios": "https://dc.lft.to/lastmile_qr_scan", "android": "https://dc.lft.to/lastmile_qr_scan"}, "is_reserved": 0, "fusion_lon": 0.0, "fusion_lat": 0.0, "lon": -77.02900233333334, "name": "32bc9d4660ca0ae9276a1c8a10f4ce49"}, {"bike_id": "19b1efab67a74951bd1a9bef6470628a", "type": "electric_scooter", "is_disabled": 0, "lat": 38.91926, "rental_uris": {"ios": "https://dc.lft.to/lastmile_qr_scan", "android": "https://dc.lft.to/lastmile_qr_scan"}, "is_reserved": 0, "fusion_lon": 0.0, "fusion_lat": 0.0, "lon": -77.04170366666666, "name": "19b1efab67a74951bd1a9bef6470628a"}, {"bike_id": "31269fd8454635d09516612366caebaa", "type": "electric_scooter", "is_disabled": 0, "lat": 38.930921166666664, "rental_uris": {"ios": "https://dc.lft.to/lastmile_qr_scan", "android": "https://dc.lft.to/lastmile_qr_scan"}, "is_reserved": 0, "fusion_lon": 0.0, "fusion_lat": 0.0, "lon": -77.0308315, "name": "31269fd8454635d09516612366caebaa"}, {"bike_id": "853731831b01cb4ed8e2cb81bbb0550c", "type": "electric_scooter", "is_disabled": 0, "lat": 38.904107833333335, "rental_uris": {"ios": "https://dc.lft.to/lastmile_qr_scan", "android": "https://dc.lft.to/lastmile_qr_scan"}, "is_reserved": 0, "fusion_lon": 0.0, "fusion_lat": 0.0, "lon": -76.97330183333334, "name": "853731831b01cb4ed8e2cb81bbb0550c"}, {"bike_id": "02ea38d70d21fa73b62ffa09cab762d9", "type": "electric_scooter", "is_disabled": 0, "lat": 38.91569233333333, "rental_uris": {"ios": "https://dc.lft.to/lastmile_qr_scan", "android": "https://dc.lft.to/lastmile_qr_scan"}, "is_reserved": 0, "fusion_lon": 0.0, "fusion_lat": 0.0, "lon": -77.0210615, "name": "02ea38d70d21fa73b62ffa09cab762d9"}, {"bike_id": "4cd4c248150085bd417bb271905467c5", "type": "electric_scooter", "is_disabled": 0, "lat": 38.9456195, "rental_uris": {"ios": "https://dc.lft.to/lastmile_qr_scan", "android": "https://dc.lft.to/lastmile_qr_scan"}, "is_reserved": 0, "fusion_lon": 0.0, "fusion_lat": 0.0, "lon": -77.07124233333333, "name": "4cd4c248150085bd417bb271905467c5"}, {"bike_id": "70d3dadb98a7e5994805f316127b870a", "type": "electric_bike", "is_disabled": 0, "lat": 38.858977833333334, "rental_uris": {"ios": "https://dc.lft.to/lastmile_qr_scan", "android": "https://dc.lft.to/lastmile_qr_scan"}, "is_reserved": 0, "fusion_lon": 0.0, "fusion_lat": 0.0, "lon": -77.11864066666666, "name": "70d3dadb98a7e5994805f316127b870a"}, {"bike_id": "998eb866c22c4a106f7bdeeab76f7d5b", "type": "electric_scooter", "is_disabled": 0, "lat": 38.8845265, "rental_uris": {"ios": "https://dc.lft.to/lastmile_qr_scan", "android": "https://dc.lft.to/lastmile_qr_scan"}, "is_reserved": 0, "fusion_lon": 0.0, "fusion_lat": 0.0, "lon": -76.95094816666666, "name": "998eb866c22c4a106f7bdeeab76f7d5b"}, {"bike_id": "fb94e16bf676326bdab9ba69ef212554", "type": "electric_scooter", "is_disabled": 0, "lat": 38.904768, "rental_uris": {"ios": "https://dc.lft.to/lastmile_qr_scan", "android": "https://dc.lft.to/lastmile_qr_scan"}, "is_reserved": 0, "fusion_lon": 0.0, "fusion_lat": 0.0, "lon": -77.00923166666666, "name": "fb94e16bf676326bdab9ba69ef212554"}, {"bike_id": "0926ae45eaf0849972931285830fc6df", "type": "electric_scooter", "is_disabled": 0, "lat": 38.915934166666666, "rental_uris": {"ios": "https://dc.lft.to/lastmile_qr_scan", "android": "https://dc.lft.to/lastmile_qr_scan"}, "is_reserved": 0, "fusion_lon": 0.0, "fusion_lat": 0.0, "lon": -77.00195966666666, "name": "0926ae45eaf0849972931285830fc6df"}, {"bike_id": "0d617054b1e498ca25b3a1347d025e09", "type": "electric_scooter", "is_disabled": 0, "lat": 38.90061933333333, "rental_uris": {"ios": "https://dc.lft.to/lastmile_qr_scan", "android": "https://dc.lft.to/lastmile_qr_scan"}, "is_reserved": 0, "fusion_lon": 0.0, "fusion_lat": 0.0, "lon": -77.01728316666667, "name": "0d617054b1e498ca25b3a1347d025e09"}, {"bike_id": "e4db20b39b9c70d10b410de46dba6e51", "type": "electric_scooter", "is_disabled": 0, "lat": 38.92378166666667, "rental_uris": {"ios": "https://dc.lft.to/lastmile_qr_scan", "android": "https://dc.lft.to/lastmile_qr_scan"}, "is_reserved": 0, "fusion_lon": 0.0, "fusion_lat": 0.0, "lon": -77.0121975, "name": "e4db20b39b9c70d10b410de46dba6e51"}, {"bike_id": "fc0a248c821d67653e25153c688c2e01", "type": "electric_scooter", "is_disabled": 0, "lat": 38.9490485, "rental_uris": {"ios": "https://dc.lft.to/lastmile_qr_scan", "android": "https://dc.lft.to/lastmile_qr_scan"}, "is_reserved": 0, "fusion_lon": 0.0, "fusion_lat": 0.0, "lon": -77.02074416666666, "name": "fc0a248c821d67653e25153c688c2e01"}, {"bike_id": "3365a3af66cfc121bf43687697d27699", "type": "electric_scooter", "is_disabled": 0, "lat": 38.905224, "rental_uris": {"ios": "https://dc.lft.to/lastmile_qr_scan", "android": "https://dc.lft.to/lastmile_qr_scan"}, "is_reserved": 0, "fusion_lon": 0.0, "fusion_lat": 0.0, "lon": -77.0436485, "name": "3365a3af66cfc121bf43687697d27699"}, {"bike_id": "cde0c97cf9c9934f216d73d6e17e3553", "type": "electric_scooter", "is_disabled": 0, "lat": 38.92325116666667, "rental_uris": {"ios": "https://dc.lft.to/lastmile_qr_scan", "android": "https://dc.lft.to/lastmile_qr_scan"}, "is_reserved": 0, "fusion_lon": 0.0, "fusion_lat": 0.0, "lon": -77.00885733333334, "name": "cde0c97cf9c9934f216d73d6e17e3553"}, {"bike_id": "4d4ec3ae8b7bdf6d2c1f0afc43b65163", "type": "electric_bike", "is_disabled": 0, "lat": 38.908986666666664, "rental_uris": {"ios": "https://dc.lft.to/lastmile_qr_scan", "android": "https://dc.lft.to/lastmile_qr_scan"}, "is_reserved": 0, "fusion_lon": 0.0, "fusion_lat": 0.0, "lon": -77.05715566666667, "name": "4d4ec3ae8b7bdf6d2c1f0afc43b65163"}, {"bike_id": "937040bc000719c51e348137b9d1e940", "type": "electric_scooter", "is_disabled": 0, "lat": 38.9361475, "rental_uris": {"ios": "https://dc.lft.to/lastmile_qr_scan", "android": "https://dc.lft.to/lastmile_qr_scan"}, "is_reserved": 0, "fusion_lon": 0.0, "fusion_lat": 0.0, "lon": -77.037936, "name": "937040bc000719c51e348137b9d1e940"}, {"bike_id": "2d4c4fdc0c52d77d498e95f186889511", "type": "electric_bike", "is_disabled": 0, "lat": 38.9877005, "rental_uris": {"ios": "https://dc.lft.to/lastmile_qr_scan", "android": "https://dc.lft.to/lastmile_qr_scan"}, "is_reserved": 0, "fusion_lon": 0.0, "fusion_lat": 0.0, "lon": -77.14057133333333, "name": "2d4c4fdc0c52d77d498e95f186889511"}, {"bike_id": "8f33f859510923fe453a6dabc03cb530", "type": "electric_bike", "is_disabled": 0, "lat": 38.9517725, "rental_uris": {"ios": "https://dc.lft.to/lastmile_qr_scan", "android": "https://dc.lft.to/lastmile_qr_scan"}, "is_reserved": 0, "fusion_lon": 0.0, "fusion_lat": 0.0, "lon": -76.97731466666667, "name": "8f33f859510923fe453a6dabc03cb530"}, {"bike_id": "8a6a3d12cfccd3ee89e7f2faf376500c", "type": "electric_scooter", "is_disabled": 0, "lat": 38.92483216666667, "rental_uris": {"ios": "https://dc.lft.to/lastmile_qr_scan", "android": "https://dc.lft.to/lastmile_qr_scan"}, "is_reserved": 0, "fusion_lon": 0.0, "fusion_lat": 0.0, "lon": -77.0317765, "name": "8a6a3d12cfccd3ee89e7f2faf376500c"}, {"bike_id": "f3194f036f18052749faa6a9e4f7ffef", "type": "electric_scooter", "is_disabled": 0, "lat": 38.91659966666667, "rental_uris": {"ios": "https://dc.lft.to/lastmile_qr_scan", "android": "https://dc.lft.to/lastmile_qr_scan"}, "is_reserved": 0, "fusion_lon": 0.0, "fusion_lat": 0.0, "lon": -76.979082, "name": "f3194f036f18052749faa6a9e4f7ffef"}, {"bike_id": "1d3970c1a45ec5b5d3e43c571a3492e4", "type": "electric_scooter", "is_disabled": 0, "lat": 38.866872, "rental_uris": {"ios": "https://dc.lft.to/lastmile_qr_scan", "android": "https://dc.lft.to/lastmile_qr_scan"}, "is_reserved": 0, "fusion_lon": 0.0, "fusion_lat": 0.0, "lon": -76.985832, "name": "1d3970c1a45ec5b5d3e43c571a3492e4"}, {"bike_id": "5bcc6a108a7b3553ddd7f40740172096", "type": "electric_scooter", "is_disabled": 0, "lat": 38.934573666666665, "rental_uris": {"ios": "https://dc.lft.to/lastmile_qr_scan", "android": "https://dc.lft.to/lastmile_qr_scan"}, "is_reserved": 0, "fusion_lon": 0.0, "fusion_lat": 0.0, "lon": -77.0276575, "name": "5bcc6a108a7b3553ddd7f40740172096"}, {"bike_id": "11de366d3b1d52068b0b8d5dc5cdd3d6", "type": "electric_bike", "is_disabled": 0, "lat": 38.983751833333336, "rental_uris": {"ios": "https://dc.lft.to/lastmile_qr_scan", "android": "https://dc.lft.to/lastmile_qr_scan"}, "is_reserved": 0, "fusion_lon": 0.0, "fusion_lat": 0.0, "lon": -76.97215433333334, "name": "11de366d3b1d52068b0b8d5dc5cdd3d6"}, {"bike_id": "86c9710f263aaff5ea5fdc7bce5b85f0", "type": "electric_scooter", "is_disabled": 0, "lat": 38.962085333333334, "rental_uris": {"ios": "https://dc.lft.to/lastmile_qr_scan", "android": "https://dc.lft.to/lastmile_qr_scan"}, "is_reserved": 0, "fusion_lon": 0.0, "fusion_lat": 0.0, "lon": -77.02228766666667, "name": "86c9710f263aaff5ea5fdc7bce5b85f0"}, {"bike_id": "7a297be6af5c3b006bdbd1dad96d06ba", "type": "electric_scooter", "is_disabled": 0, "lat": 38.86652866666667, "rental_uris": {"ios": "https://dc.lft.to/lastmile_qr_scan", "android": "https://dc.lft.to/lastmile_qr_scan"}, "is_reserved": 0, "fusion_lon": 0.0, "fusion_lat": 0.0, "lon": -76.98815, "name": "7a297be6af5c3b006bdbd1dad96d06ba"}, {"bike_id": "6dbc8bd75cd1628c2327ab07356b4014", "type": "electric_scooter", "is_disabled": 0, "lat": 38.92751233333333, "rental_uris": {"ios": "https://dc.lft.to/lastmile_qr_scan", "android": "https://dc.lft.to/lastmile_qr_scan"}, "is_reserved": 0, "fusion_lon": 0.0, "fusion_lat": 0.0, "lon": -77.02541333333333, "name": "6dbc8bd75cd1628c2327ab07356b4014"}, {"bike_id": "108464d1480e48ebb682d7ae4baaf7cf", "type": "electric_bike", "is_disabled": 0, "lat": 38.937740833333336, "rental_uris": {"ios": "https://dc.lft.to/lastmile_qr_scan", "android": "https://dc.lft.to/lastmile_qr_scan"}, "is_reserved": 0, "fusion_lon": 0.0, "fusion_lat": 0.0, "lon": -77.01879183333334, "name": "108464d1480e48ebb682d7ae4baaf7cf"}, {"bike_id": "b6bae4e10c0fc08453272db074aa4ac5", "type": "electric_scooter", "is_disabled": 0, "lat": 38.915484166666666, "rental_uris": {"ios": "https://dc.lft.to/lastmile_qr_scan", "android": "https://dc.lft.to/lastmile_qr_scan"}, "is_reserved": 0, "fusion_lon": 0.0, "fusion_lat": 0.0, "lon": -77.01222416666667, "name": "b6bae4e10c0fc08453272db074aa4ac5"}, {"bike_id": "1806fcdbd026f59cdb76b75c3932c6ba", "type": "electric_bike", "is_disabled": 0, "lat": 38.823683, "rental_uris": {"ios": "https://dc.lft.to/lastmile_qr_scan", "android": "https://dc.lft.to/lastmile_qr_scan"}, "is_reserved": 0, "fusion_lon": 0.0, "fusion_lat": 0.0, "lon": -77.0021785, "name": "1806fcdbd026f59cdb76b75c3932c6ba"}, {"bike_id": "1dcd62a70e25935f141610f7d3849a02", "type": "electric_bike", "is_disabled": 0, "lat": 38.89813766666666, "rental_uris": {"ios": "https://dc.lft.to/lastmile_qr_scan", "android": "https://dc.lft.to/lastmile_qr_scan"}, "is_reserved": 0, "fusion_lon": 0.0, "fusion_lat": 0.0, "lon": -76.99069883333334, "name": "1dcd62a70e25935f141610f7d3849a02"}, {"bike_id": "bec65b465beb36d31457fe957920f505", "type": "electric_scooter", "is_disabled": 0, "lat": 38.9116415, "rental_uris": {"ios": "https://dc.lft.to/lastmile_qr_scan", "android": "https://dc.lft.to/lastmile_qr_scan"}, "is_reserved": 0, "fusion_lon": 0.0, "fusion_lat": 0.0, "lon": -77.02000383333333, "name": "bec65b465beb36d31457fe957920f505"}, {"bike_id": "208c01ce20c640a2bab0483cff435d68", "type": "electric_bike", "is_disabled": 0, "lat": 38.85938566666667, "rental_uris": {"ios": "https://dc.lft.to/lastmile_qr_scan", "android": "https://dc.lft.to/lastmile_qr_scan"}, "is_reserved": 0, "fusion_lon": 0.0, "fusion_lat": 0.0, "lon": -77.11830716666667, "name": "208c01ce20c640a2bab0483cff435d68"}, {"bike_id": "1f0150cb0ad2ef6f92c6107749df841b", "type": "electric_scooter", "is_disabled": 0, "lat": 38.916847, "rental_uris": {"ios": "https://dc.lft.to/lastmile_qr_scan", "android": "https://dc.lft.to/lastmile_qr_scan"}, "is_reserved": 0, "fusion_lon": 0.0, "fusion_lat": 0.0, "lon": -77.01577833333333, "name": "1f0150cb0ad2ef6f92c6107749df841b"}, {"bike_id": "f51a4a691c080e1aa2bb9cfd9ee47fab", "type": "electric_scooter", "is_disabled": 0, "lat": 38.909022, "rental_uris": {"ios": "https://dc.lft.to/lastmile_qr_scan", "android": "https://dc.lft.to/lastmile_qr_scan"}, "is_reserved": 0, "fusion_lon": 0.0, "fusion_lat": 0.0, "lon": -77.04408683333334, "name": "f51a4a691c080e1aa2bb9cfd9ee47fab"}, {"bike_id": "53c423d45e1b886485af9f6bc15ce458", "type": "electric_scooter", "is_disabled": 0, "lat": 38.917604, "rental_uris": {"ios": "https://dc.lft.to/lastmile_qr_scan", "android": "https://dc.lft.to/lastmile_qr_scan"}, "is_reserved": 0, "fusion_lon": 0.0, "fusion_lat": 0.0, "lon": -77.01472566666666, "name": "53c423d45e1b886485af9f6bc15ce458"}, {"bike_id": "f8f7f6d182bf71e82aa9913ae412c7cb", "type": "electric_scooter", "is_disabled": 0, "lat": 38.87087, "rental_uris": {"ios": "https://dc.lft.to/lastmile_qr_scan", "android": "https://dc.lft.to/lastmile_qr_scan"}, "is_reserved": 0, "fusion_lon": 0.0, "fusion_lat": 0.0, "lon": -77.012027, "name": "f8f7f6d182bf71e82aa9913ae412c7cb"}, {"bike_id": "a5015687c1ac29d47566f295c83e4f94", "type": "electric_scooter", "is_disabled": 0, "lat": 38.89759766666667, "rental_uris": {"ios": "https://dc.lft.to/lastmile_qr_scan", "android": "https://dc.lft.to/lastmile_qr_scan"}, "is_reserved": 0, "fusion_lon": 0.0, "fusion_lat": 0.0, "lon": -77.02672633333333, "name": "a5015687c1ac29d47566f295c83e4f94"}, {"bike_id": "821fd70ae392794fec16eebf83288906", "type": "electric_scooter", "is_disabled": 0, "lat": 38.92054183333333, "rental_uris": {"ios": "https://dc.lft.to/lastmile_qr_scan", "android": "https://dc.lft.to/lastmile_qr_scan"}, "is_reserved": 0, "fusion_lon": 0.0, "fusion_lat": 0.0, "lon": -76.99871383333333, "name": "821fd70ae392794fec16eebf83288906"}, {"bike_id": "b5ec69a47b26c736630bbf7f65a39ff1", "type": "electric_scooter", "is_disabled": 0, "lat": 38.916813166666664, "rental_uris": {"ios": "https://dc.lft.to/lastmile_qr_scan", "android": "https://dc.lft.to/lastmile_qr_scan"}, "is_reserved": 0, "fusion_lon": 0.0, "fusion_lat": 0.0, "lon": -77.030638, "name": "b5ec69a47b26c736630bbf7f65a39ff1"}, {"bike_id": "b2cd91813b7d02c31d160135e74df503", "type": "electric_scooter", "is_disabled": 0, "lat": 38.87630466666667, "rental_uris": {"ios": "https://dc.lft.to/lastmile_qr_scan", "android": "https://dc.lft.to/lastmile_qr_scan"}, "is_reserved": 0, "fusion_lon": 0.0, "fusion_lat": 0.0, "lon": -76.9652325, "name": "b2cd91813b7d02c31d160135e74df503"}, {"bike_id": "22269cf9138294cfdefaf2a869a330ed", "type": "electric_scooter", "is_disabled": 0, "lat": 38.956159, "rental_uris": {"ios": "https://dc.lft.to/lastmile_qr_scan", "android": "https://dc.lft.to/lastmile_qr_scan"}, "is_reserved": 0, "fusion_lon": 0.0, "fusion_lat": 0.0, "lon": -77.010219, "name": "22269cf9138294cfdefaf2a869a330ed"}, {"bike_id": "b19f493415fb5cebcc69ea5267cec818", "type": "electric_scooter", "is_disabled": 0, "lat": 38.90234683333333, "rental_uris": {"ios": "https://dc.lft.to/lastmile_qr_scan", "android": "https://dc.lft.to/lastmile_qr_scan"}, "is_reserved": 0, "fusion_lon": 0.0, "fusion_lat": 0.0, "lon": -77.04317333333333, "name": "b19f493415fb5cebcc69ea5267cec818"}, {"bike_id": "cde465984e5a3fd04d683dc8818f99dd", "type": "electric_scooter", "is_disabled": 0, "lat": 38.90579433333333, "rental_uris": {"ios": "https://dc.lft.to/lastmile_qr_scan", "android": "https://dc.lft.to/lastmile_qr_scan"}, "is_reserved": 0, "fusion_lon": 0.0, "fusion_lat": 0.0, "lon": -77.04631483333333, "name": "cde465984e5a3fd04d683dc8818f99dd"}, {"bike_id": "b65865ed7c0c2ba3edec50e552e51cea", "type": "electric_scooter", "is_disabled": 0, "lat": 38.9394265, "rental_uris": {"ios": "https://dc.lft.to/lastmile_qr_scan", "android": "https://dc.lft.to/lastmile_qr_scan"}, "is_reserved": 0, "fusion_lon": 0.0, "fusion_lat": 0.0, "lon": -77.019983, "name": "b65865ed7c0c2ba3edec50e552e51cea"}, {"bike_id": "e36ea452c80700d6475b1acbd215e35a", "type": "electric_scooter", "is_disabled": 0, "lat": 38.90226233333333, "rental_uris": {"ios": "https://dc.lft.to/lastmile_qr_scan", "android": "https://dc.lft.to/lastmile_qr_scan"}, "is_reserved": 0, "fusion_lon": 0.0, "fusion_lat": 0.0, "lon": -77.04041716666667, "name": "e36ea452c80700d6475b1acbd215e35a"}, {"bike_id": "c7deb7b8181992c2f7a03fd75c294999", "type": "electric_scooter", "is_disabled": 0, "lat": 38.938509, "rental_uris": {"ios": "https://dc.lft.to/lastmile_qr_scan", "android": "https://dc.lft.to/lastmile_qr_scan"}, "is_reserved": 0, "fusion_lon": 0.0, "fusion_lat": 0.0, "lon": -77.03393666666666, "name": "c7deb7b8181992c2f7a03fd75c294999"}, {"bike_id": "5caef12d42e8c7fc1c8fb561f706dffc", "type": "electric_scooter", "is_disabled": 0, "lat": 38.92463216666667, "rental_uris": {"ios": "https://dc.lft.to/lastmile_qr_scan", "android": "https://dc.lft.to/lastmile_qr_scan"}, "is_reserved": 0, "fusion_lon": 0.0, "fusion_lat": 0.0, "lon": -77.032831, "name": "5caef12d42e8c7fc1c8fb561f706dffc"}, {"bike_id": "062dc5ef97a10fe813fd831bf603d81f", "type": "electric_scooter", "is_disabled": 0, "lat": 38.923443166666665, "rental_uris": {"ios": "https://dc.lft.to/lastmile_qr_scan", "android": "https://dc.lft.to/lastmile_qr_scan"}, "is_reserved": 0, "fusion_lon": 0.0, "fusion_lat": 0.0, "lon": -77.0389915, "name": "062dc5ef97a10fe813fd831bf603d81f"}, {"bike_id": "a34d843ffa723fd2e6fa844f2a37cf70", "type": "electric_bike", "is_disabled": 0, "lat": 38.94366, "rental_uris": {"ios": "https://dc.lft.to/lastmile_qr_scan", "android": "https://dc.lft.to/lastmile_qr_scan"}, "is_reserved": 0, "fusion_lon": 0.0, "fusion_lat": 0.0, "lon": -76.96776866666667, "name": "a34d843ffa723fd2e6fa844f2a37cf70"}, {"bike_id": "fba3eb215d0a6ccc64bda174d6fa10da", "type": "electric_scooter", "is_disabled": 0, "lat": 38.8621135, "rental_uris": {"ios": "https://dc.lft.to/lastmile_qr_scan", "android": "https://dc.lft.to/lastmile_qr_scan"}, "is_reserved": 0, "fusion_lon": 0.0, "fusion_lat": 0.0, "lon": -76.994676, "name": "fba3eb215d0a6ccc64bda174d6fa10da"}, {"bike_id": "8b25cfcf9b6f78d1dfe2797f504f4bf6", "type": "electric_scooter", "is_disabled": 0, "lat": 38.89550583333333, "rental_uris": {"ios": "https://dc.lft.to/lastmile_qr_scan", "android": "https://dc.lft.to/lastmile_qr_scan"}, "is_reserved": 0, "fusion_lon": 0.0, "fusion_lat": 0.0, "lon": -76.94932983333334, "name": "8b25cfcf9b6f78d1dfe2797f504f4bf6"}, {"bike_id": "e362dcfe8970fea84a37a7f21e68a3ba", "type": "electric_scooter", "is_disabled": 0, "lat": 38.917688, "rental_uris": {"ios": "https://dc.lft.to/lastmile_qr_scan", "android": "https://dc.lft.to/lastmile_qr_scan"}, "is_reserved": 0, "fusion_lon": 0.0, "fusion_lat": 0.0, "lon": -77.0476685, "name": "e362dcfe8970fea84a37a7f21e68a3ba"}, {"bike_id": "026ddc85db5c4efff8737c8fcd2e479a", "type": "electric_scooter", "is_disabled": 0, "lat": 38.902662, "rental_uris": {"ios": "https://dc.lft.to/lastmile_qr_scan", "android": "https://dc.lft.to/lastmile_qr_scan"}, "is_reserved": 0, "fusion_lon": 0.0, "fusion_lat": 0.0, "lon": -77.0035345, "name": "026ddc85db5c4efff8737c8fcd2e479a"}, {"bike_id": "47524371458eb93aed5a3f4b99a0023d", "type": "electric_scooter", "is_disabled": 0, "lat": 38.90954333333333, "rental_uris": {"ios": "https://dc.lft.to/lastmile_qr_scan", "android": "https://dc.lft.to/lastmile_qr_scan"}, "is_reserved": 0, "fusion_lon": 0.0, "fusion_lat": 0.0, "lon": -77.04471933333333, "name": "47524371458eb93aed5a3f4b99a0023d"}, {"bike_id": "935d29db2487ba715c39e93c1d70f69d", "type": "electric_scooter", "is_disabled": 0, "lat": 38.919884, "rental_uris": {"ios": "https://dc.lft.to/lastmile_qr_scan", "android": "https://dc.lft.to/lastmile_qr_scan"}, "is_reserved": 0, "fusion_lon": 0.0, "fusion_lat": 0.0, "lon": -76.97303566666666, "name": "935d29db2487ba715c39e93c1d70f69d"}, {"bike_id": "c78d5642f1ac2f07b32d8dac59237556", "type": "electric_bike", "is_disabled": 0, "lat": 38.87298166666667, "rental_uris": {"ios": "https://dc.lft.to/lastmile_qr_scan", "android": "https://dc.lft.to/lastmile_qr_scan"}, "is_reserved": 0, "fusion_lon": 0.0, "fusion_lat": 0.0, "lon": -76.96978133333333, "name": "c78d5642f1ac2f07b32d8dac59237556"}, {"bike_id": "d9b3d28cc909ae2faaa0ebe672cb18d2", "type": "electric_scooter", "is_disabled": 0, "lat": 38.904150666666666, "rental_uris": {"ios": "https://dc.lft.to/lastmile_qr_scan", "android": "https://dc.lft.to/lastmile_qr_scan"}, "is_reserved": 0, "fusion_lon": 0.0, "fusion_lat": 0.0, "lon": -76.97329, "name": "d9b3d28cc909ae2faaa0ebe672cb18d2"}, {"bike_id": "5638073117a69ab2e5be5d5a4635b4d1", "type": "electric_scooter", "is_disabled": 0, "lat": 38.94735983333333, "rental_uris": {"ios": "https://dc.lft.to/lastmile_qr_scan", "android": "https://dc.lft.to/lastmile_qr_scan"}, "is_reserved": 0, "fusion_lon": 0.0, "fusion_lat": 0.0, "lon": -77.07858733333333, "name": "5638073117a69ab2e5be5d5a4635b4d1"}, {"bike_id": "69afc0b6bdfe8b9df8033312c376ae6a", "type": "electric_scooter", "is_disabled": 0, "lat": 38.91247933333333, "rental_uris": {"ios": "https://dc.lft.to/lastmile_qr_scan", "android": "https://dc.lft.to/lastmile_qr_scan"}, "is_reserved": 0, "fusion_lon": 0.0, "fusion_lat": 0.0, "lon": -77.019777, "name": "69afc0b6bdfe8b9df8033312c376ae6a"}, {"bike_id": "ca6ce89e64217373c41a7cfc33b63b69", "type": "electric_scooter", "is_disabled": 0, "lat": 38.92907666666667, "rental_uris": {"ios": "https://dc.lft.to/lastmile_qr_scan", "android": "https://dc.lft.to/lastmile_qr_scan"}, "is_reserved": 0, "fusion_lon": 0.0, "fusion_lat": 0.0, "lon": -77.03269316666666, "name": "ca6ce89e64217373c41a7cfc33b63b69"}, {"bike_id": "2b8a2394efe616215da2bca25c5d8cc8", "type": "electric_bike", "is_disabled": 0, "lat": 38.996782833333334, "rental_uris": {"ios": "https://dc.lft.to/lastmile_qr_scan", "android": "https://dc.lft.to/lastmile_qr_scan"}, "is_reserved": 0, "fusion_lon": 0.0, "fusion_lat": 0.0, "lon": -77.03750283333333, "name": "2b8a2394efe616215da2bca25c5d8cc8"}, {"bike_id": "9b0d6a77a27a3d5b7e07cd92403fa771", "type": "electric_bike", "is_disabled": 0, "lat": 38.934813166666665, "rental_uris": {"ios": "https://dc.lft.to/lastmile_qr_scan", "android": "https://dc.lft.to/lastmile_qr_scan"}, "is_reserved": 0, "fusion_lon": 0.0, "fusion_lat": 0.0, "lon": -77.05791266666667, "name": "9b0d6a77a27a3d5b7e07cd92403fa771"}, {"bike_id": "33a9cf78124629299093e94171c0805c", "type": "electric_scooter", "is_disabled": 0, "lat": 38.907611833333334, "rental_uris": {"ios": "https://dc.lft.to/lastmile_qr_scan", "android": "https://dc.lft.to/lastmile_qr_scan"}, "is_reserved": 0, "fusion_lon": 0.0, "fusion_lat": 0.0, "lon": -77.02795316666666, "name": "33a9cf78124629299093e94171c0805c"}, {"bike_id": "2ae2f0486b5e4bf78eaf98abf89ecd2a", "type": "electric_scooter", "is_disabled": 0, "lat": 38.92844216666667, "rental_uris": {"ios": "https://dc.lft.to/lastmile_qr_scan", "android": "https://dc.lft.to/lastmile_qr_scan"}, "is_reserved": 0, "fusion_lon": 0.0, "fusion_lat": 0.0, "lon": -77.02751366666666, "name": "2ae2f0486b5e4bf78eaf98abf89ecd2a"}, {"bike_id": "0fc2b4d32ee161c21a2c9a8db08bbc0c", "type": "electric_bike", "is_disabled": 0, "lat": 38.896136, "rental_uris": {"ios": "https://dc.lft.to/lastmile_qr_scan", "android": "https://dc.lft.to/lastmile_qr_scan"}, "is_reserved": 0, "fusion_lon": 0.0, "fusion_lat": 0.0, "lon": -76.90736466666667, "name": "0fc2b4d32ee161c21a2c9a8db08bbc0c"}, {"bike_id": "6171228d4bd10040147e3b0e43c60d1b", "type": "electric_scooter", "is_disabled": 0, "lat": 38.942065166666666, "rental_uris": {"ios": "https://dc.lft.to/lastmile_qr_scan", "android": "https://dc.lft.to/lastmile_qr_scan"}, "is_reserved": 0, "fusion_lon": 0.0, "fusion_lat": 0.0, "lon": -77.02535483333334, "name": "6171228d4bd10040147e3b0e43c60d1b"}, {"bike_id": "a327e92145ba7e69484dcbf3421179ce", "type": "electric_scooter", "is_disabled": 0, "lat": 38.858104166666664, "rental_uris": {"ios": "https://dc.lft.to/lastmile_qr_scan", "android": "https://dc.lft.to/lastmile_qr_scan"}, "is_reserved": 0, "fusion_lon": 0.0, "fusion_lat": 0.0, "lon": -76.98924066666666, "name": "a327e92145ba7e69484dcbf3421179ce"}, {"bike_id": "2c1e51e12c3fe289ba6791178f20635a", "type": "electric_scooter", "is_disabled": 0, "lat": 38.924875666666665, "rental_uris": {"ios": "https://dc.lft.to/lastmile_qr_scan", "android": "https://dc.lft.to/lastmile_qr_scan"}, "is_reserved": 0, "fusion_lon": 0.0, "fusion_lat": 0.0, "lon": -77.02962183333334, "name": "2c1e51e12c3fe289ba6791178f20635a"}, {"bike_id": "b90b97639538f920da1ed93129255f70", "type": "electric_scooter", "is_disabled": 0, "lat": 38.91696016666667, "rental_uris": {"ios": "https://dc.lft.to/lastmile_qr_scan", "android": "https://dc.lft.to/lastmile_qr_scan"}, "is_reserved": 0, "fusion_lon": 0.0, "fusion_lat": 0.0, "lon": -77.02885816666667, "name": "b90b97639538f920da1ed93129255f70"}, {"bike_id": "9b1407471ebb3cbd916ca17eaa095913", "type": "electric_scooter", "is_disabled": 0, "lat": 38.9141825, "rental_uris": {"ios": "https://dc.lft.to/lastmile_qr_scan", "android": "https://dc.lft.to/lastmile_qr_scan"}, "is_reserved": 0, "fusion_lon": 0.0, "fusion_lat": 0.0, "lon": -77.03958816666666, "name": "9b1407471ebb3cbd916ca17eaa095913"}, {"bike_id": "5947d078079f536483e1924923aadfd3", "type": "electric_scooter", "is_disabled": 0, "lat": 38.899669833333334, "rental_uris": {"ios": "https://dc.lft.to/lastmile_qr_scan", "android": "https://dc.lft.to/lastmile_qr_scan"}, "is_reserved": 0, "fusion_lon": 0.0, "fusion_lat": 0.0, "lon": -76.9830445, "name": "5947d078079f536483e1924923aadfd3"}, {"bike_id": "589ae8f9aaa7d564dc4576b019bb4506", "type": "electric_scooter", "is_disabled": 0, "lat": 38.866332, "rental_uris": {"ios": "https://dc.lft.to/lastmile_qr_scan", "android": "https://dc.lft.to/lastmile_qr_scan"}, "is_reserved": 0, "fusion_lon": 0.0, "fusion_lat": 0.0, "lon": -76.98717383333333, "name": "589ae8f9aaa7d564dc4576b019bb4506"}, {"bike_id": "45e1f92def1a11badffa5cc27cb9bc1d", "type": "electric_scooter", "is_disabled": 0, "lat": 38.907906, "rental_uris": {"ios": "https://dc.lft.to/lastmile_qr_scan", "android": "https://dc.lft.to/lastmile_qr_scan"}, "is_reserved": 0, "fusion_lon": 0.0, "fusion_lat": 0.0, "lon": -76.994153, "name": "45e1f92def1a11badffa5cc27cb9bc1d"}, {"bike_id": "e5b0a4ce7e14709f23818e3531924a3e", "type": "electric_bike", "is_disabled": 0, "lat": 38.80758616666667, "rental_uris": {"ios": "https://dc.lft.to/lastmile_qr_scan", "android": "https://dc.lft.to/lastmile_qr_scan"}, "is_reserved": 0, "fusion_lon": 0.0, "fusion_lat": 0.0, "lon": -77.09455183333333, "name": "e5b0a4ce7e14709f23818e3531924a3e"}, {"bike_id": "584f648d00f6e8751fbbfa2c9448114f", "type": "electric_scooter", "is_disabled": 0, "lat": 38.89481833333333, "rental_uris": {"ios": "https://dc.lft.to/lastmile_qr_scan", "android": "https://dc.lft.to/lastmile_qr_scan"}, "is_reserved": 0, "fusion_lon": 0.0, "fusion_lat": 0.0, "lon": -76.98779366666666, "name": "584f648d00f6e8751fbbfa2c9448114f"}, {"bike_id": "974c38e832a7417fe90c1136580d7fa5", "type": "electric_scooter", "is_disabled": 0, "lat": 38.93900216666667, "rental_uris": {"ios": "https://dc.lft.to/lastmile_qr_scan", "android": "https://dc.lft.to/lastmile_qr_scan"}, "is_reserved": 0, "fusion_lon": 0.0, "fusion_lat": 0.0, "lon": -77.03311316666667, "name": "974c38e832a7417fe90c1136580d7fa5"}, {"bike_id": "88b8dff994155820b81053e047e1ee9c", "type": "electric_bike", "is_disabled": 0, "lat": 38.86487783333333, "rental_uris": {"ios": "https://dc.lft.to/lastmile_qr_scan", "android": "https://dc.lft.to/lastmile_qr_scan"}, "is_reserved": 0, "fusion_lon": 0.0, "fusion_lat": 0.0, "lon": -76.9774365, "name": "88b8dff994155820b81053e047e1ee9c"}, {"bike_id": "08281d5ddcd4ba7de87e3730829f8a37", "type": "electric_scooter", "is_disabled": 0, "lat": 38.939841666666666, "rental_uris": {"ios": "https://dc.lft.to/lastmile_qr_scan", "android": "https://dc.lft.to/lastmile_qr_scan"}, "is_reserved": 0, "fusion_lon": 0.0, "fusion_lat": 0.0, "lon": -77.02876033333334, "name": "08281d5ddcd4ba7de87e3730829f8a37"}, {"bike_id": "5f759061461ed9b6db84f3fb52ed1981", "type": "electric_scooter", "is_disabled": 0, "lat": 38.89250916666667, "rental_uris": {"ios": "https://dc.lft.to/lastmile_qr_scan", "android": "https://dc.lft.to/lastmile_qr_scan"}, "is_reserved": 0, "fusion_lon": 0.0, "fusion_lat": 0.0, "lon": -77.02032683333333, "name": "5f759061461ed9b6db84f3fb52ed1981"}, {"bike_id": "9a89df066ed22af4608054978563ffd4", "type": "electric_bike", "is_disabled": 0, "lat": 38.93506416666666, "rental_uris": {"ios": "https://dc.lft.to/lastmile_qr_scan", "android": "https://dc.lft.to/lastmile_qr_scan"}, "is_reserved": 0, "fusion_lon": 0.0, "fusion_lat": 0.0, "lon": -77.0363685, "name": "9a89df066ed22af4608054978563ffd4"}, {"bike_id": "47eb5c272adc13929de9afed75dd1ff9", "type": "electric_scooter", "is_disabled": 0, "lat": 38.870742, "rental_uris": {"ios": "https://dc.lft.to/lastmile_qr_scan", "android": "https://dc.lft.to/lastmile_qr_scan"}, "is_reserved": 0, "fusion_lon": 0.0, "fusion_lat": 0.0, "lon": -76.98129116666667, "name": "47eb5c272adc13929de9afed75dd1ff9"}, {"bike_id": "0f7f89e088e252a28ab593ba553ebfd1", "type": "electric_bike", "is_disabled": 0, "lat": 38.959634333333334, "rental_uris": {"ios": "https://dc.lft.to/lastmile_qr_scan", "android": "https://dc.lft.to/lastmile_qr_scan"}, "is_reserved": 0, "fusion_lon": 0.0, "fusion_lat": 0.0, "lon": -76.9816625, "name": "0f7f89e088e252a28ab593ba553ebfd1"}, {"bike_id": "0d9aa859bf7682f677d93701b2f3ae2f", "type": "electric_scooter", "is_disabled": 0, "lat": 38.917269833333336, "rental_uris": {"ios": "https://dc.lft.to/lastmile_qr_scan", "android": "https://dc.lft.to/lastmile_qr_scan"}, "is_reserved": 0, "fusion_lon": 0.0, "fusion_lat": 0.0, "lon": -77.0081685, "name": "0d9aa859bf7682f677d93701b2f3ae2f"}, {"bike_id": "c7122f3ee55f600d05dfde7a44d9d69a", "type": "electric_scooter", "is_disabled": 0, "lat": 38.8760665, "rental_uris": {"ios": "https://dc.lft.to/lastmile_qr_scan", "android": "https://dc.lft.to/lastmile_qr_scan"}, "is_reserved": 0, "fusion_lon": 0.0, "fusion_lat": 0.0, "lon": -77.01382116666667, "name": "c7122f3ee55f600d05dfde7a44d9d69a"}, {"bike_id": "3293d23ecfc9e5c5cc388b7ecad5d706", "type": "electric_bike", "is_disabled": 0, "lat": 38.8572545, "rental_uris": {"ios": "https://dc.lft.to/lastmile_qr_scan", "android": "https://dc.lft.to/lastmile_qr_scan"}, "is_reserved": 0, "fusion_lon": 0.0, "fusion_lat": 0.0, "lon": -77.07962233333333, "name": "3293d23ecfc9e5c5cc388b7ecad5d706"}, {"bike_id": "79d3ebcbf9ca7c7f215eec2ec3806058", "type": "electric_scooter", "is_disabled": 0, "lat": 38.9142975, "rental_uris": {"ios": "https://dc.lft.to/lastmile_qr_scan", "android": "https://dc.lft.to/lastmile_qr_scan"}, "is_reserved": 0, "fusion_lon": 0.0, "fusion_lat": 0.0, "lon": -77.069271, "name": "79d3ebcbf9ca7c7f215eec2ec3806058"}, {"bike_id": "0b83dd962875791aef3ad1cb4cd85cb0", "type": "electric_scooter", "is_disabled": 0, "lat": 38.898021666666665, "rental_uris": {"ios": "https://dc.lft.to/lastmile_qr_scan", "android": "https://dc.lft.to/lastmile_qr_scan"}, "is_reserved": 0, "fusion_lon": 0.0, "fusion_lat": 0.0, "lon": -77.021874, "name": "0b83dd962875791aef3ad1cb4cd85cb0"}, {"bike_id": "cf9d6ada83288c681f17ab27045d9729", "type": "electric_scooter", "is_disabled": 0, "lat": 38.904772, "rental_uris": {"ios": "https://dc.lft.to/lastmile_qr_scan", "android": "https://dc.lft.to/lastmile_qr_scan"}, "is_reserved": 0, "fusion_lon": 0.0, "fusion_lat": 0.0, "lon": -77.040461, "name": "cf9d6ada83288c681f17ab27045d9729"}, {"bike_id": "90e5011d9629a97b273762c92bf1093c", "type": "electric_scooter", "is_disabled": 0, "lat": 38.9182675, "rental_uris": {"ios": "https://dc.lft.to/lastmile_qr_scan", "android": "https://dc.lft.to/lastmile_qr_scan"}, "is_reserved": 0, "fusion_lon": 0.0, "fusion_lat": 0.0, "lon": -77.03211133333333, "name": "90e5011d9629a97b273762c92bf1093c"}, {"bike_id": "e9915ce1ca09c894789d7adc89e4a8af", "type": "electric_scooter", "is_disabled": 0, "lat": 38.9170325, "rental_uris": {"ios": "https://dc.lft.to/lastmile_qr_scan", "android": "https://dc.lft.to/lastmile_qr_scan"}, "is_reserved": 0, "fusion_lon": 0.0, "fusion_lat": 0.0, "lon": -77.03147583333333, "name": "e9915ce1ca09c894789d7adc89e4a8af"}, {"bike_id": "fabeddb960f362967af2e8404a55eedf", "type": "electric_bike", "is_disabled": 0, "lat": 38.93692216666667, "rental_uris": {"ios": "https://dc.lft.to/lastmile_qr_scan", "android": "https://dc.lft.to/lastmile_qr_scan"}, "is_reserved": 0, "fusion_lon": 0.0, "fusion_lat": 0.0, "lon": -77.05642133333333, "name": "fabeddb960f362967af2e8404a55eedf"}, {"bike_id": "74912cbdb9fe4a1486dd9bebe68bb7ed", "type": "electric_scooter", "is_disabled": 0, "lat": 38.908557, "rental_uris": {"ios": "https://dc.lft.to/lastmile_qr_scan", "android": "https://dc.lft.to/lastmile_qr_scan"}, "is_reserved": 0, "fusion_lon": 0.0, "fusion_lat": 0.0, "lon": -77.0222445, "name": "74912cbdb9fe4a1486dd9bebe68bb7ed"}, {"bike_id": "6e6f46b46b4616205c4d18394c46cd9b", "type": "electric_scooter", "is_disabled": 0, "lat": 38.91990166666667, "rental_uris": {"ios": "https://dc.lft.to/lastmile_qr_scan", "android": "https://dc.lft.to/lastmile_qr_scan"}, "is_reserved": 0, "fusion_lon": 0.0, "fusion_lat": 0.0, "lon": -77.017934, "name": "6e6f46b46b4616205c4d18394c46cd9b"}, {"bike_id": "e2c03b8735106dc2246429e0d6b106d2", "type": "electric_scooter", "is_disabled": 0, "lat": 38.899197, "rental_uris": {"ios": "https://dc.lft.to/lastmile_qr_scan", "android": "https://dc.lft.to/lastmile_qr_scan"}, "is_reserved": 0, "fusion_lon": 0.0, "fusion_lat": 0.0, "lon": -76.93361633333333, "name": "e2c03b8735106dc2246429e0d6b106d2"}, {"bike_id": "aa2442a5235df2d190560491db6c7d03", "type": "electric_scooter", "is_disabled": 0, "lat": 38.906261, "rental_uris": {"ios": "https://dc.lft.to/lastmile_qr_scan", "android": "https://dc.lft.to/lastmile_qr_scan"}, "is_reserved": 0, "fusion_lon": 0.0, "fusion_lat": 0.0, "lon": -77.05555183333334, "name": "aa2442a5235df2d190560491db6c7d03"}, {"bike_id": "0c2bee4bab140c9d29085da32bc42862", "type": "electric_scooter", "is_disabled": 0, "lat": 38.902431166666666, "rental_uris": {"ios": "https://dc.lft.to/lastmile_qr_scan", "android": "https://dc.lft.to/lastmile_qr_scan"}, "is_reserved": 0, "fusion_lon": 0.0, "fusion_lat": 0.0, "lon": -77.00203533333334, "name": "0c2bee4bab140c9d29085da32bc42862"}, {"bike_id": "dd5b85a264aaa693b34a72ecbf1b0754", "type": "electric_scooter", "is_disabled": 0, "lat": 38.9002415, "rental_uris": {"ios": "https://dc.lft.to/lastmile_qr_scan", "android": "https://dc.lft.to/lastmile_qr_scan"}, "is_reserved": 0, "fusion_lon": 0.0, "fusion_lat": 0.0, "lon": -77.001977, "name": "dd5b85a264aaa693b34a72ecbf1b0754"}, {"bike_id": "6f4084f7282eb4acdb6c5c30d8c5092b", "type": "electric_scooter", "is_disabled": 0, "lat": 38.942923, "rental_uris": {"ios": "https://dc.lft.to/lastmile_qr_scan", "android": "https://dc.lft.to/lastmile_qr_scan"}, "is_reserved": 0, "fusion_lon": 0.0, "fusion_lat": 0.0, "lon": -77.02176616666667, "name": "6f4084f7282eb4acdb6c5c30d8c5092b"}, {"bike_id": "1cccc20d0e92bae6941446dd15057026", "type": "electric_scooter", "is_disabled": 0, "lat": 38.916896666666666, "rental_uris": {"ios": "https://dc.lft.to/lastmile_qr_scan", "android": "https://dc.lft.to/lastmile_qr_scan"}, "is_reserved": 0, "fusion_lon": 0.0, "fusion_lat": 0.0, "lon": -77.03200366666667, "name": "1cccc20d0e92bae6941446dd15057026"}, {"bike_id": "4cd6fa0136f0e1816d64ee4c32260a87", "type": "electric_scooter", "is_disabled": 0, "lat": 38.914159166666664, "rental_uris": {"ios": "https://dc.lft.to/lastmile_qr_scan", "android": "https://dc.lft.to/lastmile_qr_scan"}, "is_reserved": 0, "fusion_lon": 0.0, "fusion_lat": 0.0, "lon": -77.02255866666667, "name": "4cd6fa0136f0e1816d64ee4c32260a87"}, {"bike_id": "4a20ef253a3291be3c5049fe4cabb311", "type": "electric_scooter", "is_disabled": 0, "lat": 38.931886666666664, "rental_uris": {"ios": "https://dc.lft.to/lastmile_qr_scan", "android": "https://dc.lft.to/lastmile_qr_scan"}, "is_reserved": 0, "fusion_lon": 0.0, "fusion_lat": 0.0, "lon": -77.02365833333333, "name": "4a20ef253a3291be3c5049fe4cabb311"}, {"bike_id": "87b17f9167df403ecc815d7802eed9d2", "type": "electric_scooter", "is_disabled": 0, "lat": 38.93343816666667, "rental_uris": {"ios": "https://dc.lft.to/lastmile_qr_scan", "android": "https://dc.lft.to/lastmile_qr_scan"}, "is_reserved": 0, "fusion_lon": 0.0, "fusion_lat": 0.0, "lon": -77.0397965, "name": "87b17f9167df403ecc815d7802eed9d2"}, {"bike_id": "7b2f34830c13ec781148a7a636f378ad", "type": "electric_scooter", "is_disabled": 0, "lat": 38.91691816666667, "rental_uris": {"ios": "https://dc.lft.to/lastmile_qr_scan", "android": "https://dc.lft.to/lastmile_qr_scan"}, "is_reserved": 0, "fusion_lon": 0.0, "fusion_lat": 0.0, "lon": -77.03460383333334, "name": "7b2f34830c13ec781148a7a636f378ad"}, {"bike_id": "57ac973b85f81625ba214e80fdf63437", "type": "electric_scooter", "is_disabled": 0, "lat": 38.90959566666667, "rental_uris": {"ios": "https://dc.lft.to/lastmile_qr_scan", "android": "https://dc.lft.to/lastmile_qr_scan"}, "is_reserved": 0, "fusion_lon": 0.0, "fusion_lat": 0.0, "lon": -77.04783, "name": "57ac973b85f81625ba214e80fdf63437"}, {"bike_id": "e7cecde9da572752d4380c1925326484", "type": "electric_scooter", "is_disabled": 0, "lat": 38.90892483333333, "rental_uris": {"ios": "https://dc.lft.to/lastmile_qr_scan", "android": "https://dc.lft.to/lastmile_qr_scan"}, "is_reserved": 0, "fusion_lon": 0.0, "fusion_lat": 0.0, "lon": -77.02286983333333, "name": "e7cecde9da572752d4380c1925326484"}, {"bike_id": "086c0170be53b5129e102db526f606fd", "type": "electric_scooter", "is_disabled": 0, "lat": 38.931532833333335, "rental_uris": {"ios": "https://dc.lft.to/lastmile_qr_scan", "android": "https://dc.lft.to/lastmile_qr_scan"}, "is_reserved": 0, "fusion_lon": 0.0, "fusion_lat": 0.0, "lon": -77.03346283333333, "name": "086c0170be53b5129e102db526f606fd"}, {"bike_id": "f62d719102c92a5222afa2b1593b260f", "type": "electric_scooter", "is_disabled": 0, "lat": 38.894804666666666, "rental_uris": {"ios": "https://dc.lft.to/lastmile_qr_scan", "android": "https://dc.lft.to/lastmile_qr_scan"}, "is_reserved": 0, "fusion_lon": 0.0, "fusion_lat": 0.0, "lon": -76.948627, "name": "f62d719102c92a5222afa2b1593b260f"}, {"bike_id": "6f94049b37c732c3f07e66b6ac2c9ec3", "type": "electric_bike", "is_disabled": 0, "lat": 38.97883316666667, "rental_uris": {"ios": "https://dc.lft.to/lastmile_qr_scan", "android": "https://dc.lft.to/lastmile_qr_scan"}, "is_reserved": 0, "fusion_lon": 0.0, "fusion_lat": 0.0, "lon": -77.06025716666667, "name": "6f94049b37c732c3f07e66b6ac2c9ec3"}, {"bike_id": "3ac714c103a8a36ebbcd4478a8f01b55", "type": "electric_scooter", "is_disabled": 0, "lat": 38.909590333333334, "rental_uris": {"ios": "https://dc.lft.to/lastmile_qr_scan", "android": "https://dc.lft.to/lastmile_qr_scan"}, "is_reserved": 0, "fusion_lon": 0.0, "fusion_lat": 0.0, "lon": -77.02280216666666, "name": "3ac714c103a8a36ebbcd4478a8f01b55"}, {"bike_id": "7fa47fb492bb6f9c1a0a3e6803f936ba", "type": "electric_scooter", "is_disabled": 0, "lat": 38.9064625, "rental_uris": {"ios": "https://dc.lft.to/lastmile_qr_scan", "android": "https://dc.lft.to/lastmile_qr_scan"}, "is_reserved": 0, "fusion_lon": 0.0, "fusion_lat": 0.0, "lon": -77.0531315, "name": "7fa47fb492bb6f9c1a0a3e6803f936ba"}, {"bike_id": "e9342d52a7397f80f747a355392e34d1", "type": "electric_scooter", "is_disabled": 0, "lat": 38.93464316666667, "rental_uris": {"ios": "https://dc.lft.to/lastmile_qr_scan", "android": "https://dc.lft.to/lastmile_qr_scan"}, "is_reserved": 0, "fusion_lon": 0.0, "fusion_lat": 0.0, "lon": -77.0239815, "name": "e9342d52a7397f80f747a355392e34d1"}, {"bike_id": "d01760bce9809818c8f12fe5030d4b6b", "type": "electric_scooter", "is_disabled": 0, "lat": 38.9277985, "rental_uris": {"ios": "https://dc.lft.to/lastmile_qr_scan", "android": "https://dc.lft.to/lastmile_qr_scan"}, "is_reserved": 0, "fusion_lon": 0.0, "fusion_lat": 0.0, "lon": -76.98758133333334, "name": "d01760bce9809818c8f12fe5030d4b6b"}, {"bike_id": "6308f6a57a7fead2aa8828d5cade6d78", "type": "electric_scooter", "is_disabled": 0, "lat": 38.91019466666667, "rental_uris": {"ios": "https://dc.lft.to/lastmile_qr_scan", "android": "https://dc.lft.to/lastmile_qr_scan"}, "is_reserved": 0, "fusion_lon": 0.0, "fusion_lat": 0.0, "lon": -77.0386365, "name": "6308f6a57a7fead2aa8828d5cade6d78"}, {"bike_id": "fc466de4f166f195c48be40405700475", "type": "electric_scooter", "is_disabled": 0, "lat": 38.93637366666667, "rental_uris": {"ios": "https://dc.lft.to/lastmile_qr_scan", "android": "https://dc.lft.to/lastmile_qr_scan"}, "is_reserved": 0, "fusion_lon": 0.0, "fusion_lat": 0.0, "lon": -77.05882816666667, "name": "fc466de4f166f195c48be40405700475"}, {"bike_id": "015c425ee1bf9025c9b84f11a94a26f0", "type": "electric_scooter", "is_disabled": 0, "lat": 38.919316, "rental_uris": {"ios": "https://dc.lft.to/lastmile_qr_scan", "android": "https://dc.lft.to/lastmile_qr_scan"}, "is_reserved": 0, "fusion_lon": 0.0, "fusion_lat": 0.0, "lon": -77.02561583333333, "name": "015c425ee1bf9025c9b84f11a94a26f0"}, {"bike_id": "999080d01cdc7463727b02d95a360d26", "type": "electric_scooter", "is_disabled": 0, "lat": 38.923836, "rental_uris": {"ios": "https://dc.lft.to/lastmile_qr_scan", "android": "https://dc.lft.to/lastmile_qr_scan"}, "is_reserved": 0, "fusion_lon": 0.0, "fusion_lat": 0.0, "lon": -77.03084033333333, "name": "999080d01cdc7463727b02d95a360d26"}, {"bike_id": "ede50810034e0c008893d7e612a107c9", "type": "electric_scooter", "is_disabled": 0, "lat": 38.9133325, "rental_uris": {"ios": "https://dc.lft.to/lastmile_qr_scan", "android": "https://dc.lft.to/lastmile_qr_scan"}, "is_reserved": 0, "fusion_lon": 0.0, "fusion_lat": 0.0, "lon": -77.02694883333334, "name": "ede50810034e0c008893d7e612a107c9"}, {"bike_id": "ee651c7f2434243891689859d68b0c85", "type": "electric_scooter", "is_disabled": 0, "lat": 38.916829666666665, "rental_uris": {"ios": "https://dc.lft.to/lastmile_qr_scan", "android": "https://dc.lft.to/lastmile_qr_scan"}, "is_reserved": 0, "fusion_lon": 0.0, "fusion_lat": 0.0, "lon": -77.023848, "name": "ee651c7f2434243891689859d68b0c85"}, {"bike_id": "753028d60671ae83fc9b63b5b6c21f70", "type": "electric_scooter", "is_disabled": 0, "lat": 38.916390166666666, "rental_uris": {"ios": "https://dc.lft.to/lastmile_qr_scan", "android": "https://dc.lft.to/lastmile_qr_scan"}, "is_reserved": 0, "fusion_lon": 0.0, "fusion_lat": 0.0, "lon": -77.03038583333333, "name": "753028d60671ae83fc9b63b5b6c21f70"}, {"bike_id": "ccb0470a1803f1a54dbe16164b43ff9d", "type": "electric_scooter", "is_disabled": 0, "lat": 38.9168315, "rental_uris": {"ios": "https://dc.lft.to/lastmile_qr_scan", "android": "https://dc.lft.to/lastmile_qr_scan"}, "is_reserved": 0, "fusion_lon": 0.0, "fusion_lat": 0.0, "lon": -77.01579433333333, "name": "ccb0470a1803f1a54dbe16164b43ff9d"}, {"bike_id": "855a2c7db0b521200d239c04490818df", "type": "electric_scooter", "is_disabled": 0, "lat": 38.8974125, "rental_uris": {"ios": "https://dc.lft.to/lastmile_qr_scan", "android": "https://dc.lft.to/lastmile_qr_scan"}, "is_reserved": 0, "fusion_lon": 0.0, "fusion_lat": 0.0, "lon": -77.04530366666667, "name": "855a2c7db0b521200d239c04490818df"}, {"bike_id": "d06cb876f4112773f1136778bfc47847", "type": "electric_scooter", "is_disabled": 0, "lat": 38.9183175, "rental_uris": {"ios": "https://dc.lft.to/lastmile_qr_scan", "android": "https://dc.lft.to/lastmile_qr_scan"}, "is_reserved": 0, "fusion_lon": 0.0, "fusion_lat": 0.0, "lon": -77.02449666666666, "name": "d06cb876f4112773f1136778bfc47847"}, {"bike_id": "cd20d51016134e5d1ec70e5851fc3ff3", "type": "electric_scooter", "is_disabled": 0, "lat": 38.94216133333333, "rental_uris": {"ios": "https://dc.lft.to/lastmile_qr_scan", "android": "https://dc.lft.to/lastmile_qr_scan"}, "is_reserved": 0, "fusion_lon": 0.0, "fusion_lat": 0.0, "lon": -77.02581916666666, "name": "cd20d51016134e5d1ec70e5851fc3ff3"}, {"bike_id": "90b6f35c9a291f77a47a429667a5a16d", "type": "electric_bike", "is_disabled": 0, "lat": 38.9466335, "rental_uris": {"ios": "https://dc.lft.to/lastmile_qr_scan", "android": "https://dc.lft.to/lastmile_qr_scan"}, "is_reserved": 0, "fusion_lon": 0.0, "fusion_lat": 0.0, "lon": -76.95670683333333, "name": "90b6f35c9a291f77a47a429667a5a16d"}, {"bike_id": "492a82d803e4082b12bf42a58ed736fe", "type": "electric_scooter", "is_disabled": 0, "lat": 38.974183, "rental_uris": {"ios": "https://dc.lft.to/lastmile_qr_scan", "android": "https://dc.lft.to/lastmile_qr_scan"}, "is_reserved": 0, "fusion_lon": 0.0, "fusion_lat": 0.0, "lon": -77.01272716666666, "name": "492a82d803e4082b12bf42a58ed736fe"}, {"bike_id": "ea7e64d0ead3e381f3992d90ebb50cca", "type": "electric_scooter", "is_disabled": 0, "lat": 38.90645166666667, "rental_uris": {"ios": "https://dc.lft.to/lastmile_qr_scan", "android": "https://dc.lft.to/lastmile_qr_scan"}, "is_reserved": 0, "fusion_lon": 0.0, "fusion_lat": 0.0, "lon": -77.00988533333333, "name": "ea7e64d0ead3e381f3992d90ebb50cca"}, {"bike_id": "d4dfc2725c539046ea5c7cc9fd962064", "type": "electric_bike", "is_disabled": 0, "lat": 38.92450266666667, "rental_uris": {"ios": "https://dc.lft.to/lastmile_qr_scan", "android": "https://dc.lft.to/lastmile_qr_scan"}, "is_reserved": 0, "fusion_lon": 0.0, "fusion_lat": 0.0, "lon": -77.2254635, "name": "d4dfc2725c539046ea5c7cc9fd962064"}, {"bike_id": "527314a9cf17dbf412edaf3f21f46617", "type": "electric_scooter", "is_disabled": 0, "lat": 38.94196133333333, "rental_uris": {"ios": "https://dc.lft.to/lastmile_qr_scan", "android": "https://dc.lft.to/lastmile_qr_scan"}, "is_reserved": 0, "fusion_lon": 0.0, "fusion_lat": 0.0, "lon": -77.0243545, "name": "527314a9cf17dbf412edaf3f21f46617"}, {"bike_id": "15381fc985f0191f6662d161cff382ec", "type": "electric_scooter", "is_disabled": 0, "lat": 38.90367716666667, "rental_uris": {"ios": "https://dc.lft.to/lastmile_qr_scan", "android": "https://dc.lft.to/lastmile_qr_scan"}, "is_reserved": 0, "fusion_lon": 0.0, "fusion_lat": 0.0, "lon": -77.02948783333333, "name": "15381fc985f0191f6662d161cff382ec"}, {"bike_id": "4d080ca6851097422f8f6a1902cf8648", "type": "electric_bike", "is_disabled": 0, "lat": 38.9492265, "rental_uris": {"ios": "https://dc.lft.to/lastmile_qr_scan", "android": "https://dc.lft.to/lastmile_qr_scan"}, "is_reserved": 0, "fusion_lon": 0.0, "fusion_lat": 0.0, "lon": -77.007965, "name": "4d080ca6851097422f8f6a1902cf8648"}, {"bike_id": "0b5f726e6b3875e55f1eb2a67e95a571", "type": "electric_scooter", "is_disabled": 0, "lat": 38.91459433333333, "rental_uris": {"ios": "https://dc.lft.to/lastmile_qr_scan", "android": "https://dc.lft.to/lastmile_qr_scan"}, "is_reserved": 0, "fusion_lon": 0.0, "fusion_lat": 0.0, "lon": -77.0228945, "name": "0b5f726e6b3875e55f1eb2a67e95a571"}, {"bike_id": "86cc9e275fd61c849cb17eb9a811c5aa", "type": "electric_scooter", "is_disabled": 0, "lat": 38.9265725, "rental_uris": {"ios": "https://dc.lft.to/lastmile_qr_scan", "android": "https://dc.lft.to/lastmile_qr_scan"}, "is_reserved": 0, "fusion_lon": 0.0, "fusion_lat": 0.0, "lon": -77.02434333333333, "name": "86cc9e275fd61c849cb17eb9a811c5aa"}, {"bike_id": "c235788db48c10ffe5dafed44a9ea2d5", "type": "electric_scooter", "is_disabled": 0, "lat": 38.916096833333334, "rental_uris": {"ios": "https://dc.lft.to/lastmile_qr_scan", "android": "https://dc.lft.to/lastmile_qr_scan"}, "is_reserved": 0, "fusion_lon": 0.0, "fusion_lat": 0.0, "lon": -77.0460075, "name": "c235788db48c10ffe5dafed44a9ea2d5"}, {"bike_id": "b57440d985ca8d81bdc7e84ae04b160b", "type": "electric_bike", "is_disabled": 0, "lat": 38.96505366666667, "rental_uris": {"ios": "https://dc.lft.to/lastmile_qr_scan", "android": "https://dc.lft.to/lastmile_qr_scan"}, "is_reserved": 0, "fusion_lon": 0.0, "fusion_lat": 0.0, "lon": -77.028208, "name": "b57440d985ca8d81bdc7e84ae04b160b"}, {"bike_id": "1c75d4e3d1185c8478211ba027be9b13", "type": "electric_scooter", "is_disabled": 0, "lat": 38.919469166666666, "rental_uris": {"ios": "https://dc.lft.to/lastmile_qr_scan", "android": "https://dc.lft.to/lastmile_qr_scan"}, "is_reserved": 0, "fusion_lon": 0.0, "fusion_lat": 0.0, "lon": -77.04502166666667, "name": "1c75d4e3d1185c8478211ba027be9b13"}, {"bike_id": "94b77ef0ef74cb9eb611d592c7b3947d", "type": "electric_scooter", "is_disabled": 0, "lat": 38.9332745, "rental_uris": {"ios": "https://dc.lft.to/lastmile_qr_scan", "android": "https://dc.lft.to/lastmile_qr_scan"}, "is_reserved": 0, "fusion_lon": 0.0, "fusion_lat": 0.0, "lon": -77.02394116666666, "name": "94b77ef0ef74cb9eb611d592c7b3947d"}, {"bike_id": "d28f3d56e232a4fd47181e73a8a0a090", "type": "electric_scooter", "is_disabled": 0, "lat": 38.8779455, "rental_uris": {"ios": "https://dc.lft.to/lastmile_qr_scan", "android": "https://dc.lft.to/lastmile_qr_scan"}, "is_reserved": 0, "fusion_lon": 0.0, "fusion_lat": 0.0, "lon": -77.00127683333334, "name": "d28f3d56e232a4fd47181e73a8a0a090"}, {"bike_id": "ad5c92f01cd8b6aa60d48872f26c1023", "type": "electric_bike", "is_disabled": 0, "lat": 38.878855333333334, "rental_uris": {"ios": "https://dc.lft.to/lastmile_qr_scan", "android": "https://dc.lft.to/lastmile_qr_scan"}, "is_reserved": 0, "fusion_lon": 0.0, "fusion_lat": 0.0, "lon": -77.09612, "name": "ad5c92f01cd8b6aa60d48872f26c1023"}, {"bike_id": "cbbac33f6c344158f0a51a09ab4912c2", "type": "electric_scooter", "is_disabled": 0, "lat": 38.91167183333334, "rental_uris": {"ios": "https://dc.lft.to/lastmile_qr_scan", "android": "https://dc.lft.to/lastmile_qr_scan"}, "is_reserved": 0, "fusion_lon": 0.0, "fusion_lat": 0.0, "lon": -77.01624083333333, "name": "cbbac33f6c344158f0a51a09ab4912c2"}, {"bike_id": "242040b259a1049b424ba1592307c175", "type": "electric_scooter", "is_disabled": 0, "lat": 38.91117916666666, "rental_uris": {"ios": "https://dc.lft.to/lastmile_qr_scan", "android": "https://dc.lft.to/lastmile_qr_scan"}, "is_reserved": 0, "fusion_lon": 0.0, "fusion_lat": 0.0, "lon": -77.040053, "name": "242040b259a1049b424ba1592307c175"}, {"bike_id": "956a37aa9a0b14f48e564940e25744f2", "type": "electric_scooter", "is_disabled": 0, "lat": 38.91273566666667, "rental_uris": {"ios": "https://dc.lft.to/lastmile_qr_scan", "android": "https://dc.lft.to/lastmile_qr_scan"}, "is_reserved": 0, "fusion_lon": 0.0, "fusion_lat": 0.0, "lon": -77.04706666666667, "name": "956a37aa9a0b14f48e564940e25744f2"}, {"bike_id": "95c272bfe5b8f091f0ec08298b3fb0de", "type": "electric_scooter", "is_disabled": 0, "lat": 38.905067833333334, "rental_uris": {"ios": "https://dc.lft.to/lastmile_qr_scan", "android": "https://dc.lft.to/lastmile_qr_scan"}, "is_reserved": 0, "fusion_lon": 0.0, "fusion_lat": 0.0, "lon": -76.99958633333334, "name": "95c272bfe5b8f091f0ec08298b3fb0de"}, {"bike_id": "65c0b38c53aced79a4424030aa6fc751", "type": "electric_scooter", "is_disabled": 0, "lat": 38.928362, "rental_uris": {"ios": "https://dc.lft.to/lastmile_qr_scan", "android": "https://dc.lft.to/lastmile_qr_scan"}, "is_reserved": 0, "fusion_lon": 0.0, "fusion_lat": 0.0, "lon": -77.0298085, "name": "65c0b38c53aced79a4424030aa6fc751"}, {"bike_id": "80897e9440ceb926b7dd4cf243d53471", "type": "electric_scooter", "is_disabled": 0, "lat": 38.9293925, "rental_uris": {"ios": "https://dc.lft.to/lastmile_qr_scan", "android": "https://dc.lft.to/lastmile_qr_scan"}, "is_reserved": 0, "fusion_lon": 0.0, "fusion_lat": 0.0, "lon": -77.02320316666666, "name": "80897e9440ceb926b7dd4cf243d53471"}, {"bike_id": "080bdc6b9bdc75987bcdfff060c0c402", "type": "electric_scooter", "is_disabled": 0, "lat": 38.967403, "rental_uris": {"ios": "https://dc.lft.to/lastmile_qr_scan", "android": "https://dc.lft.to/lastmile_qr_scan"}, "is_reserved": 0, "fusion_lon": 0.0, "fusion_lat": 0.0, "lon": -77.0551095, "name": "080bdc6b9bdc75987bcdfff060c0c402"}, {"bike_id": "fb81d29fffa1457fa950d8da96936fc8", "type": "electric_scooter", "is_disabled": 0, "lat": 38.886595166666666, "rental_uris": {"ios": "https://dc.lft.to/lastmile_qr_scan", "android": "https://dc.lft.to/lastmile_qr_scan"},