{"data": {"bikes": [{"is_reserved": 0, "is_disabled": 0, "fusion_lon": 0.0, "lat": 38.905567166666664, "name": "7bbb5c471ce870d21e47f23ce3ac268a", "bike_id": "7bbb5c471ce870d21e47f23ce3ac268a", "lon": -77.00564983333334, "fusion_lat": 0.0, "rental_uris": {"android": "https://dc.lft.to/lastmile_qr_scan", "ios": "https://dc.lft.to/lastmile_qr_scan"}, "type": "electric_scooter"}, {"is_reserved": 0, "is_disabled": 0, "fusion_lon": 0.0, "lat": 38.920041166666664, "name": "d6bef14e7a63b00cb34e6656033288b6", "bike_id": "d6bef14e7a63b00cb34e6656033288b6", "lon": -77.02337616666667, "fusion_lat": 0.0, "rental_uris": {"android": "https://dc.lft.to/lastmile_qr_scan", "ios": "https://dc.lft.to/lastmile_qr_scan"}, "type": "electric_scooter"}, {"is_reserved": 0, "is_disabled": 0, "fusion_lon": 0.0, "lat": 38.876202166666666, "name": "c50663db2b979edde6e8bab396130954", "bike_id": "c50663db2b979edde6e8bab396130954", "lon": -77.0006485, "fusion_lat": 0.0, "rental_uris": {"android": "https://dc.lft.to/lastmile_qr_scan", "ios": "https://dc.lft.to/lastmile_qr_scan"}, "type": "electric_scooter"}, {"is_reserved": 0, "is_disabled": 0, "fusion_lon": 0.0, "lat": 38.92700633333333, "name": "d60115835a3516de431f17fc16585361", "bike_id": "d60115835a3516de431f17fc16585361", "lon": -77.02096, "fusion_lat": 0.0, "rental_uris": {"android": "https://dc.lft.to/lastmile_qr_scan", "ios": "https://dc.lft.to/lastmile_qr_scan"}, "type": "electric_scooter"}, {"is_reserved": 0, "is_disabled": 0, "fusion_lon": 0.0, "lat": 38.88327566666667, "name": "c525c184a29f7dc2bbf1bc320862c0ba", "bike_id": "c525c184a29f7dc2bbf1bc320862c0ba", "lon": -77.01374833333334, "fusion_lat": 0.0, "rental_uris": {"android": "https://dc.lft.to/lastmile_qr_scan", "ios": "https://dc.lft.to/lastmile_qr_scan"}, "type": "electric_scooter"}, {"is_reserved": 0, "is_disabled": 0, "fusion_lon": 0.0, "lat": 38.90024483333333, "name": "19d73fd50d5e305ad43835e45094362a", "bike_id": "19d73fd50d5e305ad43835e45094362a", "lon": -77.00203216666667, "fusion_lat": 0.0, "rental_uris": {"android": "https://dc.lft.to/lastmile_qr_scan", "ios": "https://dc.lft.to/lastmile_qr_scan"}, "type": "electric_scooter"}, {"is_reserved": 0, "is_disabled": 0, "fusion_lon": 0.0, "lat": 38.8922235, "name": "914530e3dad32d9c1530d09c595a742e", "bike_id": "914530e3dad32d9c1530d09c595a742e", "lon": -77.04799616666666, "fusion_lat": 0.0, "rental_uris": {"android": "https://dc.lft.to/lastmile_qr_scan", "ios": "https://dc.lft.to/lastmile_qr_scan"}, "type": "electric_scooter"}, {"is_reserved": 0, "is_disabled": 0, "fusion_lon": 0.0, "lat": 38.9085475, "name": "1682fe4e3413ff0b6bb83e0345fc2e51", "bike_id": "1682fe4e3413ff0b6bb83e0345fc2e51", "lon": -77.0022525, "fusion_lat": 0.0, "rental_uris": {"android": "https://dc.lft.to/lastmile_qr_scan", "ios": "https://dc.lft.to/lastmile_qr_scan"}, "type": "electric_scooter"}, {"is_reserved": 0, "is_disabled": 0, "fusion_lon": 0.0, "lat": 38.900245166666664, "name": "c5c91074de5c5fecb31aaa4436dda5af", "bike_id": "c5c91074de5c5fecb31aaa4436dda5af", "lon": -77.046728, "fusion_lat": 0.0, "rental_uris": {"android": "https://dc.lft.to/lastmile_qr_scan", "ios": "https://dc.lft.to/lastmile_qr_scan"}, "type": "electric_scooter"}, {"is_reserved": 0, "is_disabled": 0, "fusion_lon": 0.0, "lat": 38.909647, "name": "813ace508743124ebf1ef35f57e067ba", "bike_id": "813ace508743124ebf1ef35f57e067ba", "lon": -77.04516816666667, "fusion_lat": 0.0, "rental_uris": {"android": "https://dc.lft.to/lastmile_qr_scan", "ios": "https://dc.lft.to/lastmile_qr_scan"}, "type": "electric_scooter"}, {"is_reserved": 0, "is_disabled": 0, "fusion_lon": 0.0, "lat": 38.92447833333333, "name": "19229fa75f71b5ddf12d1ea6c2728003", "bike_id": "19229fa75f71b5ddf12d1ea6c2728003", "lon": -77.04020166666666, "fusion_lat": 0.0, "rental_uris": {"android": "https://dc.lft.to/lastmile_qr_scan", "ios": "https://dc.lft.to/lastmile_qr_scan"}, "type": "electric_scooter"}, {"is_reserved": 0, "is_disabled": 0, "fusion_lon": 0.0, "lat": 38.91408233333333, "name": "9ddcea1ba415f11bcab5b84673c86aba", "bike_id": "9ddcea1ba415f11bcab5b84673c86aba", "lon": -77.03260883333333, "fusion_lat": 0.0, "rental_uris": {"android": "https://dc.lft.to/lastmile_qr_scan", "ios": "https://dc.lft.to/lastmile_qr_scan"}, "type": "electric_scooter"}, {"is_reserved": 0, "is_disabled": 0, "fusion_lon": 0.0, "lat": 38.924420833333336, "name": "ea4a6582c5a4b7a8cc8801372efff23a", "bike_id": "ea4a6582c5a4b7a8cc8801372efff23a", "lon": -77.03406533333333, "fusion_lat": 0.0, "rental_uris": {"android": "https://dc.lft.to/lastmile_qr_scan", "ios": "https://dc.lft.to/lastmile_qr_scan"}, "type": "electric_scooter"}, {"is_reserved": 0, "is_disabled": 0, "fusion_lon": 0.0, "lat": 38.895725, "name": "0486518de268235ffaf062f52e94a387", "bike_id": "0486518de268235ffaf062f52e94a387", "lon": -76.99410433333334, "fusion_lat": 0.0, "rental_uris": {"android": "https://dc.lft.to/lastmile_qr_scan", "ios": "https://dc.lft.to/lastmile_qr_scan"}, "type": "electric_scooter"}, {"is_reserved": 0, "is_disabled": 0, "fusion_lon": 0.0, "lat": 38.926097666666664, "name": "8047fa79eb93aeef9a4de28adc2eab27", "bike_id": "8047fa79eb93aeef9a4de28adc2eab27", "lon": -77.03958883333334, "fusion_lat": 0.0, "rental_uris": {"android": "https://dc.lft.to/lastmile_qr_scan", "ios": "https://dc.lft.to/lastmile_qr_scan"}, "type": "electric_scooter"}, {"is_reserved": 0, "is_disabled": 0, "fusion_lon": 0.0, "lat": 38.9057355, "name": "9692ec269bd9fe3ce1f1730521916c47", "bike_id": "9692ec269bd9fe3ce1f1730521916c47", "lon": -77.05709266666666, "fusion_lat": 0.0, "rental_uris": {"android": "https://dc.lft.to/lastmile_qr_scan", "ios": "https://dc.lft.to/lastmile_qr_scan"}, "type": "electric_scooter"}, {"is_reserved": 0, "is_disabled": 0, "fusion_lon": 0.0, "lat": 38.91559816666667, "name": "09e27912527917ef13db146e7ab97c17", "bike_id": "09e27912527917ef13db146e7ab97c17", "lon": -77.05108283333334, "fusion_lat": 0.0, "rental_uris": {"android": "https://dc.lft.to/lastmile_qr_scan", "ios": "https://dc.lft.to/lastmile_qr_scan"}, "type": "electric_scooter"}, {"is_reserved": 0, "is_disabled": 0, "fusion_lon": 0.0, "lat": 38.94154433333333, "name": "71bb4b5d600162c3e8c6b073bca5ebd5", "bike_id": "71bb4b5d600162c3e8c6b073bca5ebd5", "lon": -77.0019465, "fusion_lat": 0.0, "rental_uris": {"android": "https://dc.lft.to/lastmile_qr_scan", "ios": "https://dc.lft.to/lastmile_qr_scan"}, "type": "electric_bike"}, {"is_reserved": 0, "is_disabled": 0, "fusion_lon": 0.0, "lat": 38.889683166666664, "name": "2018d22f50018209d7ba8f602d0492a7", "bike_id": "2018d22f50018209d7ba8f602d0492a7", "lon": -76.98033816666667, "fusion_lat": 0.0, "rental_uris": {"android": "https://dc.lft.to/lastmile_qr_scan", "ios": "https://dc.lft.to/lastmile_qr_scan"}, "type": "electric_scooter"}, {"is_reserved": 0, "is_disabled": 0, "fusion_lon": 0.0, "lat": 38.897354666666665, "name": "30490e7d52aed12d27670da7c16f795d", "bike_id": "30490e7d52aed12d27670da7c16f795d", "lon": -77.02984616666667, "fusion_lat": 0.0, "rental_uris": {"android": "https://dc.lft.to/lastmile_qr_scan", "ios": "https://dc.lft.to/lastmile_qr_scan"}, "type": "electric_scooter"}, {"is_reserved": 0, "is_disabled": 0, "fusion_lon": 0.0, "lat": 38.91040483333333, "name": "b80204bad625ce3b1edb5296677a1b2f", "bike_id": "b80204bad625ce3b1edb5296677a1b2f", "lon": -77.03246366666667, "fusion_lat": 0.0, "rental_uris": {"android": "https://dc.lft.to/lastmile_qr_scan", "ios": "https://dc.lft.to/lastmile_qr_scan"}, "type": "electric_scooter"}, {"is_reserved": 0, "is_disabled": 0, "fusion_lon": 0.0, "lat": 38.923803666666664, "name": "dd3262c5fd3cf45c5fa59c53c4c2f3a1", "bike_id": "dd3262c5fd3cf45c5fa59c53c4c2f3a1", "lon": -77.030593, "fusion_lat": 0.0, "rental_uris": {"android": "https://dc.lft.to/lastmile_qr_scan", "ios": "https://dc.lft.to/lastmile_qr_scan"}, "type": "electric_scooter"}, {"is_reserved": 0, "is_disabled": 0, "fusion_lon": 0.0, "lat": 38.8952595, "name": "168ed4e41b7e09b05dc7467ff8e51dcf", "bike_id": "168ed4e41b7e09b05dc7467ff8e51dcf", "lon": -77.0448825, "fusion_lat": 0.0, "rental_uris": {"android": "https://dc.lft.to/lastmile_qr_scan", "ios": "https://dc.lft.to/lastmile_qr_scan"}, "type": "electric_scooter"}, {"is_reserved": 0, "is_disabled": 0, "fusion_lon": 0.0, "lat": 38.84672916666667, "name": "a8c5cfe060f4a8ac3b9a53260d92ad12", "bike_id": "a8c5cfe060f4a8ac3b9a53260d92ad12", "lon": -77.13918233333334, "fusion_lat": 0.0, "rental_uris": {"android": "https://dc.lft.to/lastmile_qr_scan", "ios": "https://dc.lft.to/lastmile_qr_scan"}, "type": "electric_bike"}, {"is_reserved": 0, "is_disabled": 0, "fusion_lon": 0.0, "lat": 38.91328733333334, "name": "46374cbea11b6138f7d482e8ecfdbce6", "bike_id": "46374cbea11b6138f7d482e8ecfdbce6", "lon": -77.045471, "fusion_lat": 0.0, "rental_uris": {"android": "https://dc.lft.to/lastmile_qr_scan", "ios": "https://dc.lft.to/lastmile_qr_scan"}, "type": "electric_scooter"}, {"is_reserved": 0, "is_disabled": 0, "fusion_lon": 0.0, "lat": 38.91965116666667, "name": "23e9a54a180d219103d6ffefb4f6478a", "bike_id": "23e9a54a180d219103d6ffefb4f6478a", "lon": -77.00105083333334, "fusion_lat": 0.0, "rental_uris": {"android": "https://dc.lft.to/lastmile_qr_scan", "ios": "https://dc.lft.to/lastmile_qr_scan"}, "type": "electric_scooter"}, {"is_reserved": 0, "is_disabled": 0, "fusion_lon": 0.0, "lat": 38.9001435, "name": "907e8d8785e66788b8cd07e074bb0c33", "bike_id": "907e8d8785e66788b8cd07e074bb0c33", "lon": -77.01253433333333, "fusion_lat": 0.0, "rental_uris": {"android": "https://dc.lft.to/lastmile_qr_scan", "ios": "https://dc.lft.to/lastmile_qr_scan"}, "type": "electric_scooter"}, {"is_reserved": 0, "is_disabled": 0, "fusion_lon": 0.0, "lat": 38.9386935, "name": "67e00b0edf648224c35fd76fb0b3fe7a", "bike_id": "67e00b0edf648224c35fd76fb0b3fe7a", "lon": -77.02469466666666, "fusion_lat": 0.0, "rental_uris": {"android": "https://dc.lft.to/lastmile_qr_scan", "ios": "https://dc.lft.to/lastmile_qr_scan"}, "type": "electric_scooter"}, {"is_reserved": 0, "is_disabled": 0, "fusion_lon": 0.0, "lat": 38.894919333333334, "name": "54b44a41ce0338d806c6dc9af095db19", "bike_id": "54b44a41ce0338d806c6dc9af095db19", "lon": -76.99503883333334, "fusion_lat": 0.0, "rental_uris": {"android": "https://dc.lft.to/lastmile_qr_scan", "ios": "https://dc.lft.to/lastmile_qr_scan"}, "type": "electric_scooter"}, {"is_reserved": 0, "is_disabled": 0, "fusion_lon": 0.0, "lat": 38.897528, "name": "1e4de0313ee79ef96d3da4efdade3d2f", "bike_id": "1e4de0313ee79ef96d3da4efdade3d2f", "lon": -77.02890216666667, "fusion_lat": 0.0, "rental_uris": {"android": "https://dc.lft.to/lastmile_qr_scan", "ios": "https://dc.lft.to/lastmile_qr_scan"}, "type": "electric_scooter"}, {"is_reserved": 0, "is_disabled": 0, "fusion_lon": 0.0, "lat": 38.92674566666667, "name": "ca71c8556424902052afb7f45ffba889", "bike_id": "ca71c8556424902052afb7f45ffba889", "lon": -77.02582666666666, "fusion_lat": 0.0, "rental_uris": {"android": "https://dc.lft.to/lastmile_qr_scan", "ios": "https://dc.lft.to/lastmile_qr_scan"}, "type": "electric_scooter"}, {"is_reserved": 0, "is_disabled": 0, "fusion_lon": 0.0, "lat": 38.903952, "name": "5226242f53ac7b52d6180f5bad99cf27", "bike_id": "5226242f53ac7b52d6180f5bad99cf27", "lon": -77.026368, "fusion_lat": 0.0, "rental_uris": {"android": "https://dc.lft.to/lastmile_qr_scan", "ios": "https://dc.lft.to/lastmile_qr_scan"}, "type": "electric_scooter"}, {"is_reserved": 0, "is_disabled": 0, "fusion_lon": 0.0, "lat": 38.90608116666667, "name": "37a49435482573c834eb70e7cdf55288", "bike_id": "37a49435482573c834eb70e7cdf55288", "lon": -77.04081233333334, "fusion_lat": 0.0, "rental_uris": {"android": "https://dc.lft.to/lastmile_qr_scan", "ios": "https://dc.lft.to/lastmile_qr_scan"}, "type": "electric_scooter"}, {"is_reserved": 0, "is_disabled": 0, "fusion_lon": 0.0, "lat": 38.916525, "name": "a5fc6f34cd753879207d569c5796f0df", "bike_id": "a5fc6f34cd753879207d569c5796f0df", "lon": -77.03191616666666, "fusion_lat": 0.0, "rental_uris": {"android": "https://dc.lft.to/lastmile_qr_scan", "ios": "https://dc.lft.to/lastmile_qr_scan"}, "type": "electric_scooter"}, {"is_reserved": 0, "is_disabled": 0, "fusion_lon": 0.0, "lat": 38.90785733333333, "name": "0784b1f89a83267f8b581b304d20a525", "bike_id": "0784b1f89a83267f8b581b304d20a525", "lon": -77.0321855, "fusion_lat": 0.0, "rental_uris": {"android": "https://dc.lft.to/lastmile_qr_scan", "ios": "https://dc.lft.to/lastmile_qr_scan"}, "type": "electric_scooter"}, {"is_reserved": 0, "is_disabled": 0, "fusion_lon": 0.0, "lat": 38.8705815, "name": "3376ef79e9684a3b56d38df6fe3290b2", "bike_id": "3376ef79e9684a3b56d38df6fe3290b2", "lon": -77.11051783333333, "fusion_lat": 0.0, "rental_uris": {"android": "https://dc.lft.to/lastmile_qr_scan", "ios": "https://dc.lft.to/lastmile_qr_scan"}, "type": "electric_bike"}, {"is_reserved": 0, "is_disabled": 0, "fusion_lon": 0.0, "lat": 38.91709483333333, "name": "fe242e8cbc43673c9938c7ca7ba4df5a", "bike_id": "fe242e8cbc43673c9938c7ca7ba4df5a", "lon": -77.03726583333334, "fusion_lat": 0.0, "rental_uris": {"android": "https://dc.lft.to/lastmile_qr_scan", "ios": "https://dc.lft.to/lastmile_qr_scan"}, "type": "electric_scooter"}, {"is_reserved": 0, "is_disabled": 0, "fusion_lon": 0.0, "lat": 38.9240125, "name": "da3b34609dd8c4c30bbc854e9bb02109", "bike_id": "da3b34609dd8c4c30bbc854e9bb02109", "lon": -77.03424866666667, "fusion_lat": 0.0, "rental_uris": {"android": "https://dc.lft.to/lastmile_qr_scan", "ios": "https://dc.lft.to/lastmile_qr_scan"}, "type": "electric_scooter"}, {"is_reserved": 0, "is_disabled": 0, "fusion_lon": 0.0, "lat": 38.96410683333333, "name": "1549eb15a1d02dcb24ea3bd9d3d27a81", "bike_id": "1549eb15a1d02dcb24ea3bd9d3d27a81", "lon": -77.03288083333334, "fusion_lat": 0.0, "rental_uris": {"android": "https://dc.lft.to/lastmile_qr_scan", "ios": "https://dc.lft.to/lastmile_qr_scan"}, "type": "electric_scooter"}, {"is_reserved": 0, "is_disabled": 0, "fusion_lon": 0.0, "lat": 38.89729033333333, "name": "fcda4e24bb5b593dac90d2ccfda6e1aa", "bike_id": "fcda4e24bb5b593dac90d2ccfda6e1aa", "lon": -77.05525666666666, "fusion_lat": 0.0, "rental_uris": {"android": "https://dc.lft.to/lastmile_qr_scan", "ios": "https://dc.lft.to/lastmile_qr_scan"}, "type": "electric_scooter"}, {"is_reserved": 0, "is_disabled": 0, "fusion_lon": 0.0, "lat": 38.90371483333333, "name": "8ca68be52422c056262fd5753377527c", "bike_id": "8ca68be52422c056262fd5753377527c", "lon": -77.01775183333334, "fusion_lat": 0.0, "rental_uris": {"android": "https://dc.lft.to/lastmile_qr_scan", "ios": "https://dc.lft.to/lastmile_qr_scan"}, "type": "electric_scooter"}, {"is_reserved": 0, "is_disabled": 0, "fusion_lon": 0.0, "lat": 38.936574, "name": "f144e28afa114a58ed3f8fd2767fa66e", "bike_id": "f144e28afa114a58ed3f8fd2767fa66e", "lon": -76.99354166666667, "fusion_lat": 0.0, "rental_uris": {"android": "https://dc.lft.to/lastmile_qr_scan", "ios": "https://dc.lft.to/lastmile_qr_scan"}, "type": "electric_scooter"}, {"is_reserved": 0, "is_disabled": 0, "fusion_lon": 0.0, "lat": 38.919894166666666, "name": "f6dc730152bfbfa831e41bd881a2ec7f", "bike_id": "f6dc730152bfbfa831e41bd881a2ec7f", "lon": -77.032438, "fusion_lat": 0.0, "rental_uris": {"android": "https://dc.lft.to/lastmile_qr_scan", "ios": "https://dc.lft.to/lastmile_qr_scan"}, "type": "electric_scooter"}, {"is_reserved": 0, "is_disabled": 0, "fusion_lon": 0.0, "lat": 38.89502016666667, "name": "5b3e1d61ffc33939fddcb0bf995e31c8", "bike_id": "5b3e1d61ffc33939fddcb0bf995e31c8", "lon": -77.02284466666667, "fusion_lat": 0.0, "rental_uris": {"android": "https://dc.lft.to/lastmile_qr_scan", "ios": "https://dc.lft.to/lastmile_qr_scan"}, "type": "electric_scooter"}, {"is_reserved": 0, "is_disabled": 0, "fusion_lon": 0.0, "lat": 38.916876333333335, "name": "293be1c8d39ae701c4a31d3b762f85dc", "bike_id": "293be1c8d39ae701c4a31d3b762f85dc", "lon": -77.0336205, "fusion_lat": 0.0, "rental_uris": {"android": "https://dc.lft.to/lastmile_qr_scan", "ios": "https://dc.lft.to/lastmile_qr_scan"}, "type": "electric_scooter"}, {"is_reserved": 0, "is_disabled": 0, "fusion_lon": 0.0, "lat": 38.87466933333333, "name": "0bd74ca9876d18d740be54de6d0c7d4a", "bike_id": "0bd74ca9876d18d740be54de6d0c7d4a", "lon": -77.00509116666667, "fusion_lat": 0.0, "rental_uris": {"android": "https://dc.lft.to/lastmile_qr_scan", "ios": "https://dc.lft.to/lastmile_qr_scan"}, "type": "electric_scooter"}, {"is_reserved": 0, "is_disabled": 0, "fusion_lon": 0.0, "lat": 38.923827833333334, "name": "1340d12a906edf4be384dd559ee6bcaa", "bike_id": "1340d12a906edf4be384dd559ee6bcaa", "lon": -77.03659, "fusion_lat": 0.0, "rental_uris": {"android": "https://dc.lft.to/lastmile_qr_scan", "ios": "https://dc.lft.to/lastmile_qr_scan"}, "type": "electric_scooter"}, {"is_reserved": 0, "is_disabled": 0, "fusion_lon": 0.0, "lat": 38.9073685, "name": "2c2f0011ca7fd5520ec7e1b8cc753835", "bike_id": "2c2f0011ca7fd5520ec7e1b8cc753835", "lon": -77.02803133333333, "fusion_lat": 0.0, "rental_uris": {"android": "https://dc.lft.to/lastmile_qr_scan", "ios": "https://dc.lft.to/lastmile_qr_scan"}, "type": "electric_scooter"}, {"is_reserved": 0, "is_disabled": 0, "fusion_lon": 0.0, "lat": 38.926860166666664, "name": "a31f882bbeba21a3922c38e4b37bb10c", "bike_id": "a31f882bbeba21a3922c38e4b37bb10c", "lon": -77.02963283333334, "fusion_lat": 0.0, "rental_uris": {"android": "https://dc.lft.to/lastmile_qr_scan", "ios": "https://dc.lft.to/lastmile_qr_scan"}, "type": "electric_scooter"}, {"is_reserved": 0, "is_disabled": 0, "fusion_lon": 0.0, "lat": 38.920843166666664, "name": "afb6b954110d106ed27395e49f119503", "bike_id": "afb6b954110d106ed27395e49f119503", "lon": -77.02532516666666, "fusion_lat": 0.0, "rental_uris": {"android": "https://dc.lft.to/lastmile_qr_scan", "ios": "https://dc.lft.to/lastmile_qr_scan"}, "type": "electric_scooter"}, {"is_reserved": 0, "is_disabled": 0, "fusion_lon": 0.0, "lat": 38.9085575, "name": "75d6f8bc3b59baf38def39b0359b8532", "bike_id": "75d6f8bc3b59baf38def39b0359b8532", "lon": -77.043636, "fusion_lat": 0.0, "rental_uris": {"android": "https://dc.lft.to/lastmile_qr_scan", "ios": "https://dc.lft.to/lastmile_qr_scan"}, "type": "electric_scooter"}, {"is_reserved": 0, "is_disabled": 0, "fusion_lon": 0.0, "lat": 38.923479, "name": "96dca9624a4df33ce1ecd1daefbce70d", "bike_id": "96dca9624a4df33ce1ecd1daefbce70d", "lon": -77.02445816666666, "fusion_lat": 0.0, "rental_uris": {"android": "https://dc.lft.to/lastmile_qr_scan", "ios": "https://dc.lft.to/lastmile_qr_scan"}, "type": "electric_scooter"}, {"is_reserved": 0, "is_disabled": 0, "fusion_lon": 0.0, "lat": 38.895701833333334, "name": "49d86f795bb285405d8be5f23080542b", "bike_id": "49d86f795bb285405d8be5f23080542b", "lon": -76.99405883333333, "fusion_lat": 0.0, "rental_uris": {"android": "https://dc.lft.to/lastmile_qr_scan", "ios": "https://dc.lft.to/lastmile_qr_scan"}, "type": "electric_scooter"}, {"is_reserved": 0, "is_disabled": 0, "fusion_lon": 0.0, "lat": 38.903929833333336, "name": "aaa316a6f4994e2b8e2cb1f4c47403b5", "bike_id": "aaa316a6f4994e2b8e2cb1f4c47403b5", "lon": -77.01269066666667, "fusion_lat": 0.0, "rental_uris": {"android": "https://dc.lft.to/lastmile_qr_scan", "ios": "https://dc.lft.to/lastmile_qr_scan"}, "type": "electric_scooter"}, {"is_reserved": 0, "is_disabled": 0, "fusion_lon": 0.0, "lat": 38.91630283333333, "name": "8a15f80afd788c3f65067b77a3c52056", "bike_id": "8a15f80afd788c3f65067b77a3c52056", "lon": -77.046202, "fusion_lat": 0.0, "rental_uris": {"android": "https://dc.lft.to/lastmile_qr_scan", "ios": "https://dc.lft.to/lastmile_qr_scan"}, "type": "electric_scooter"}, {"is_reserved": 0, "is_disabled": 0, "fusion_lon": 0.0, "lat": 38.85887183333333, "name": "a4271fa3d66fc2b2e6f466898e3f2d18", "bike_id": "a4271fa3d66fc2b2e6f466898e3f2d18", "lon": -76.96695233333334, "fusion_lat": 0.0, "rental_uris": {"android": "https://dc.lft.to/lastmile_qr_scan", "ios": "https://dc.lft.to/lastmile_qr_scan"}, "type": "electric_scooter"}, {"is_reserved": 0, "is_disabled": 0, "fusion_lon": 0.0, "lat": 38.8947725, "name": "e0495a8ea4402213e49252e27efb0cb4", "bike_id": "e0495a8ea4402213e49252e27efb0cb4", "lon": -77.0202475, "fusion_lat": 0.0, "rental_uris": {"android": "https://dc.lft.to/lastmile_qr_scan", "ios": "https://dc.lft.to/lastmile_qr_scan"}, "type": "electric_scooter"}, {"is_reserved": 0, "is_disabled": 0, "fusion_lon": 0.0, "lat": 38.90534, "name": "6b8ef6c865068d23ec46fde54e72a9e4", "bike_id": "6b8ef6c865068d23ec46fde54e72a9e4", "lon": -77.00914, "fusion_lat": 0.0, "rental_uris": {"android": "https://dc.lft.to/lastmile_qr_scan", "ios": "https://dc.lft.to/lastmile_qr_scan"}, "type": "electric_scooter"}, {"is_reserved": 0, "is_disabled": 0, "fusion_lon": 0.0, "lat": 38.90385633333333, "name": "a91849b6c1f70abfe21182cfa015ae38", "bike_id": "a91849b6c1f70abfe21182cfa015ae38", "lon": -77.04049266666667, "fusion_lat": 0.0, "rental_uris": {"android": "https://dc.lft.to/lastmile_qr_scan", "ios": "https://dc.lft.to/lastmile_qr_scan"}, "type": "electric_scooter"}, {"is_reserved": 0, "is_disabled": 0, "fusion_lon": 0.0, "lat": 38.92892233333333, "name": "bc3c0b1db86ee02d6fb7b3ce237dafcc", "bike_id": "bc3c0b1db86ee02d6fb7b3ce237dafcc", "lon": -77.0324745, "fusion_lat": 0.0, "rental_uris": {"android": "https://dc.lft.to/lastmile_qr_scan", "ios": "https://dc.lft.to/lastmile_qr_scan"}, "type": "electric_scooter"}, {"is_reserved": 0, "is_disabled": 0, "fusion_lon": 0.0, "lat": 38.92239433333334, "name": "b1110e686aa20516c95096b7a37f2f5d", "bike_id": "b1110e686aa20516c95096b7a37f2f5d", "lon": -77.02261066666667, "fusion_lat": 0.0, "rental_uris": {"android": "https://dc.lft.to/lastmile_qr_scan", "ios": "https://dc.lft.to/lastmile_qr_scan"}, "type": "electric_scooter"}, {"is_reserved": 0, "is_disabled": 0, "fusion_lon": 0.0, "lat": 38.91104133333333, "name": "4bbaf0d80bc3f99d818fa2665b4dcd13", "bike_id": "4bbaf0d80bc3f99d818fa2665b4dcd13", "lon": -76.99722516666667, "fusion_lat": 0.0, "rental_uris": {"android": "https://dc.lft.to/lastmile_qr_scan", "ios": "https://dc.lft.to/lastmile_qr_scan"}, "type": "electric_scooter"}, {"is_reserved": 0, "is_disabled": 0, "fusion_lon": 0.0, "lat": 38.917477, "name": "1801d24faea9d7e3c8848308219f78e8", "bike_id": "1801d24faea9d7e3c8848308219f78e8", "lon": -77.0249855, "fusion_lat": 0.0, "rental_uris": {"android": "https://dc.lft.to/lastmile_qr_scan", "ios": "https://dc.lft.to/lastmile_qr_scan"}, "type": "electric_scooter"}, {"is_reserved": 0, "is_disabled": 0, "fusion_lon": 0.0, "lat": 38.9244465, "name": "6d75c37717ed5850986b72d30a67a591", "bike_id": "6d75c37717ed5850986b72d30a67a591", "lon": -77.02152383333333, "fusion_lat": 0.0, "rental_uris": {"android": "https://dc.lft.to/lastmile_qr_scan", "ios": "https://dc.lft.to/lastmile_qr_scan"}, "type": "electric_scooter"}, {"is_reserved": 0, "is_disabled": 0, "fusion_lon": 0.0, "lat": 38.918648166666664, "name": "af9f41c26ebf3de3da34af463e31f01a", "bike_id": "af9f41c26ebf3de3da34af463e31f01a", "lon": -77.04835666666666, "fusion_lat": 0.0, "rental_uris": {"android": "https://dc.lft.to/lastmile_qr_scan", "ios": "https://dc.lft.to/lastmile_qr_scan"}, "type": "electric_scooter"}, {"is_reserved": 0, "is_disabled": 0, "fusion_lon": 0.0, "lat": 38.819370166666666, "name": "90ee9a582a597505c60b541230d2a677", "bike_id": "90ee9a582a597505c60b541230d2a677", "lon": -77.0020495, "fusion_lat": 0.0, "rental_uris": {"android": "https://dc.lft.to/lastmile_qr_scan", "ios": "https://dc.lft.to/lastmile_qr_scan"}, "type": "electric_bike"}, {"is_reserved": 0, "is_disabled": 0, "fusion_lon": 0.0, "lat": 38.902216333333335, "name": "54f42ac16422c5291cf8a18fdc181c5b", "bike_id": "54f42ac16422c5291cf8a18fdc181c5b", "lon": -76.9317615, "fusion_lat": 0.0, "rental_uris": {"android": "https://dc.lft.to/lastmile_qr_scan", "ios": "https://dc.lft.to/lastmile_qr_scan"}, "type": "electric_bike"}, {"is_reserved": 0, "is_disabled": 0, "fusion_lon": 0.0, "lat": 38.9180735, "name": "ffc5164670317308cc48a46d9ba51a02", "bike_id": "ffc5164670317308cc48a46d9ba51a02", "lon": -77.02716483333333, "fusion_lat": 0.0, "rental_uris": {"android": "https://dc.lft.to/lastmile_qr_scan", "ios": "https://dc.lft.to/lastmile_qr_scan"}, "type": "electric_scooter"}, {"is_reserved": 0, "is_disabled": 0, "fusion_lon": 0.0, "lat": 38.93379, "name": "90c936207f6d4bc686339d8fc4563197", "bike_id": "90c936207f6d4bc686339d8fc4563197", "lon": -77.03216583333334, "fusion_lat": 0.0, "rental_uris": {"android": "https://dc.lft.to/lastmile_qr_scan", "ios": "https://dc.lft.to/lastmile_qr_scan"}, "type": "electric_scooter"}, {"is_reserved": 0, "is_disabled": 0, "fusion_lon": 0.0, "lat": 38.916961, "name": "131cdcad389c23288df9593ee9d7e874", "bike_id": "131cdcad389c23288df9593ee9d7e874", "lon": -77.03780516666667, "fusion_lat": 0.0, "rental_uris": {"android": "https://dc.lft.to/lastmile_qr_scan", "ios": "https://dc.lft.to/lastmile_qr_scan"}, "type": "electric_scooter"}, {"is_reserved": 0, "is_disabled": 0, "fusion_lon": 0.0, "lat": 38.969997166666666, "name": "ca89e20fcda420aba78efeb325de4028", "bike_id": "ca89e20fcda420aba78efeb325de4028", "lon": -77.03113966666666, "fusion_lat": 0.0, "rental_uris": {"android": "https://dc.lft.to/lastmile_qr_scan", "ios": "https://dc.lft.to/lastmile_qr_scan"}, "type": "electric_scooter"}, {"is_reserved": 0, "is_disabled": 0, "fusion_lon": 0.0, "lat": 38.91286766666666, "name": "12f5e0dcb876e462752bc5a40f70e45d", "bike_id": "12f5e0dcb876e462752bc5a40f70e45d", "lon": -76.98539833333334, "fusion_lat": 0.0, "rental_uris": {"android": "https://dc.lft.to/lastmile_qr_scan", "ios": "https://dc.lft.to/lastmile_qr_scan"}, "type": "electric_scooter"}, {"is_reserved": 0, "is_disabled": 0, "fusion_lon": 0.0, "lat": 38.878848, "name": "290d95720aafe0d07d2c37f03617ec58", "bike_id": "290d95720aafe0d07d2c37f03617ec58", "lon": -77.00050566666667, "fusion_lat": 0.0, "rental_uris": {"android": "https://dc.lft.to/lastmile_qr_scan", "ios": "https://dc.lft.to/lastmile_qr_scan"}, "type": "electric_scooter"}, {"is_reserved": 0, "is_disabled": 0, "fusion_lon": 0.0, "lat": 38.914845, "name": "f8015bfbe482e7e66c08d9f54fe21683", "bike_id": "f8015bfbe482e7e66c08d9f54fe21683", "lon": -77.02180916666667, "fusion_lat": 0.0, "rental_uris": {"android": "https://dc.lft.to/lastmile_qr_scan", "ios": "https://dc.lft.to/lastmile_qr_scan"}, "type": "electric_scooter"}, {"is_reserved": 0, "is_disabled": 0, "fusion_lon": 0.0, "lat": 38.90480183333333, "name": "ab171b84fc925bcecccb28b6d271fc6a", "bike_id": "ab171b84fc925bcecccb28b6d271fc6a", "lon": -77.00124383333333, "fusion_lat": 0.0, "rental_uris": {"android": "https://dc.lft.to/lastmile_qr_scan", "ios": "https://dc.lft.to/lastmile_qr_scan"}, "type": "electric_scooter"}, {"is_reserved": 0, "is_disabled": 0, "fusion_lon": 0.0, "lat": 38.917775666666664, "name": "8ee7e08fe3ae8e01d722e01726fe4e85", "bike_id": "8ee7e08fe3ae8e01d722e01726fe4e85", "lon": -77.02310483333333, "fusion_lat": 0.0, "rental_uris": {"android": "https://dc.lft.to/lastmile_qr_scan", "ios": "https://dc.lft.to/lastmile_qr_scan"}, "type": "electric_scooter"}, {"is_reserved": 0, "is_disabled": 0, "fusion_lon": 0.0, "lat": 38.902415, "name": "bc23a3c83b10eccc67d400dc1fbe7ac8", "bike_id": "bc23a3c83b10eccc67d400dc1fbe7ac8", "lon": -77.00202133333333, "fusion_lat": 0.0, "rental_uris": {"android": "https://dc.lft.to/lastmile_qr_scan", "ios": "https://dc.lft.to/lastmile_qr_scan"}, "type": "electric_scooter"}, {"is_reserved": 0, "is_disabled": 0, "fusion_lon": 0.0, "lat": 38.92557, "name": "6bef13bbe27673710597c07e592d9087", "bike_id": "6bef13bbe27673710597c07e592d9087", "lon": -77.02150466666667, "fusion_lat": 0.0, "rental_uris": {"android": "https://dc.lft.to/lastmile_qr_scan", "ios": "https://dc.lft.to/lastmile_qr_scan"}, "type": "electric_scooter"}, {"is_reserved": 0, "is_disabled": 0, "fusion_lon": 0.0, "lat": 38.94411016666667, "name": "ebcaaa114ee278d42ccd22fb59186026", "bike_id": "ebcaaa114ee278d42ccd22fb59186026", "lon": -77.063265, "fusion_lat": 0.0, "rental_uris": {"android": "https://dc.lft.to/lastmile_qr_scan", "ios": "https://dc.lft.to/lastmile_qr_scan"}, "type": "electric_scooter"}, {"is_reserved": 0, "is_disabled": 0, "fusion_lon": 0.0, "lat": 38.896016833333334, "name": "6b8ef005bb1cabfec2daf0adb8b80bb5", "bike_id": "6b8ef005bb1cabfec2daf0adb8b80bb5", "lon": -77.0464895, "fusion_lat": 0.0, "rental_uris": {"android": "https://dc.lft.to/lastmile_qr_scan", "ios": "https://dc.lft.to/lastmile_qr_scan"}, "type": "electric_scooter"}, {"is_reserved": 0, "is_disabled": 0, "fusion_lon": 0.0, "lat": 38.94450916666667, "name": "db81d644332ee162251271619b48db80", "bike_id": "db81d644332ee162251271619b48db80", "lon": -77.06353066666667, "fusion_lat": 0.0, "rental_uris": {"android": "https://dc.lft.to/lastmile_qr_scan", "ios": "https://dc.lft.to/lastmile_qr_scan"}, "type": "electric_scooter"}, {"is_reserved": 0, "is_disabled": 0, "fusion_lon": 0.0, "lat": 38.898336666666665, "name": "1d255803f1b86e5fff65602dc1b70421", "bike_id": "1d255803f1b86e5fff65602dc1b70421", "lon": -76.94643866666667, "fusion_lat": 0.0, "rental_uris": {"android": "https://dc.lft.to/lastmile_qr_scan", "ios": "https://dc.lft.to/lastmile_qr_scan"}, "type": "electric_scooter"}, {"is_reserved": 0, "is_disabled": 0, "fusion_lon": 0.0, "lat": 38.91563133333333, "name": "dcc87f430c55199e635ecc148dc64098", "bike_id": "dcc87f430c55199e635ecc148dc64098", "lon": -77.007166, "fusion_lat": 0.0, "rental_uris": {"android": "https://dc.lft.to/lastmile_qr_scan", "ios": "https://dc.lft.to/lastmile_qr_scan"}, "type": "electric_scooter"}, {"is_reserved": 0, "is_disabled": 0, "fusion_lon": 0.0, "lat": 38.90051833333333, "name": "dcf87dd18fae1cd435a0c26235d0d1e1", "bike_id": "dcf87dd18fae1cd435a0c26235d0d1e1", "lon": -77.0178375, "fusion_lat": 0.0, "rental_uris": {"android": "https://dc.lft.to/lastmile_qr_scan", "ios": "https://dc.lft.to/lastmile_qr_scan"}, "type": "electric_scooter"}, {"is_reserved": 0, "is_disabled": 0, "fusion_lon": 0.0, "lat": 38.92153416666667, "name": "28f228b56c3bf833997617d55a540ffe", "bike_id": "28f228b56c3bf833997617d55a540ffe", "lon": -77.04015816666667, "fusion_lat": 0.0, "rental_uris": {"android": "https://dc.lft.to/lastmile_qr_scan", "ios": "https://dc.lft.to/lastmile_qr_scan"}, "type": "electric_scooter"}, {"is_reserved": 0, "is_disabled": 0, "fusion_lon": 0.0, "lat": 38.88024216666667, "name": "90c40649f382c87c3387f1c0c20b2436", "bike_id": "90c40649f382c87c3387f1c0c20b2436", "lon": -76.9432395, "fusion_lat": 0.0, "rental_uris": {"android": "https://dc.lft.to/lastmile_qr_scan", "ios": "https://dc.lft.to/lastmile_qr_scan"}, "type": "electric_scooter"}, {"is_reserved": 0, "is_disabled": 0, "fusion_lon": 0.0, "lat": 38.9036885, "name": "3fecc20725d6af303b8e09fdd7bbeb6a", "bike_id": "3fecc20725d6af303b8e09fdd7bbeb6a", "lon": -77.03647733333334, "fusion_lat": 0.0, "rental_uris": {"android": "https://dc.lft.to/lastmile_qr_scan", "ios": "https://dc.lft.to/lastmile_qr_scan"}, "type": "electric_scooter"}, {"is_reserved": 0, "is_disabled": 0, "fusion_lon": 0.0, "lat": 38.9399855, "name": "5a469b7890d409ca127519a207aa983f", "bike_id": "5a469b7890d409ca127519a207aa983f", "lon": -77.01743466666667, "fusion_lat": 0.0, "rental_uris": {"android": "https://dc.lft.to/lastmile_qr_scan", "ios": "https://dc.lft.to/lastmile_qr_scan"}, "type": "electric_scooter"}, {"is_reserved": 0, "is_disabled": 0, "fusion_lon": 0.0, "lat": 38.88123083333333, "name": "0cb66bd79a5521233f033b1184fcabaf", "bike_id": "0cb66bd79a5521233f033b1184fcabaf", "lon": -76.99344316666667, "fusion_lat": 0.0, "rental_uris": {"android": "https://dc.lft.to/lastmile_qr_scan", "ios": "https://dc.lft.to/lastmile_qr_scan"}, "type": "electric_scooter"}, {"is_reserved": 0, "is_disabled": 0, "fusion_lon": 0.0, "lat": 38.910263, "name": "0524ee150169b5021a8399d09542756f", "bike_id": "0524ee150169b5021a8399d09542756f", "lon": -77.02939583333334, "fusion_lat": 0.0, "rental_uris": {"android": "https://dc.lft.to/lastmile_qr_scan", "ios": "https://dc.lft.to/lastmile_qr_scan"}, "type": "electric_scooter"}, {"is_reserved": 0, "is_disabled": 0, "fusion_lon": 0.0, "lat": 38.858064166666665, "name": "686aa7802c4f15d715e1ba199be660d2", "bike_id": "686aa7802c4f15d715e1ba199be660d2", "lon": -76.990002, "fusion_lat": 0.0, "rental_uris": {"android": "https://dc.lft.to/lastmile_qr_scan", "ios": "https://dc.lft.to/lastmile_qr_scan"}, "type": "electric_scooter"}, {"is_reserved": 0, "is_disabled": 0, "fusion_lon": 0.0, "lat": 38.91773083333333, "name": "17c54ab491a63a301ac4ec736be4bab3", "bike_id": "17c54ab491a63a301ac4ec736be4bab3", "lon": -77.01501583333334, "fusion_lat": 0.0, "rental_uris": {"android": "https://dc.lft.to/lastmile_qr_scan", "ios": "https://dc.lft.to/lastmile_qr_scan"}, "type": "electric_scooter"}, {"is_reserved": 0, "is_disabled": 0, "fusion_lon": 0.0, "lat": 38.912692666666665, "name": "e07e15583d99a9d70af8602e6df0710a", "bike_id": "e07e15583d99a9d70af8602e6df0710a", "lon": -77.02210483333333, "fusion_lat": 0.0, "rental_uris": {"android": "https://dc.lft.to/lastmile_qr_scan", "ios": "https://dc.lft.to/lastmile_qr_scan"}, "type": "electric_scooter"}, {"is_reserved": 0, "is_disabled": 0, "fusion_lon": 0.0, "lat": 38.905587833333335, "name": "7731c7a53699a89485d6eba200fa9415", "bike_id": "7731c7a53699a89485d6eba200fa9415", "lon": -76.9837455, "fusion_lat": 0.0, "rental_uris": {"android": "https://dc.lft.to/lastmile_qr_scan", "ios": "https://dc.lft.to/lastmile_qr_scan"}, "type": "electric_scooter"}, {"is_reserved": 0, "is_disabled": 0, "fusion_lon": 0.0, "lat": 38.80375083333333, "name": "72922b05ea9fb3cd321be4a6fa01a6bd", "bike_id": "72922b05ea9fb3cd321be4a6fa01a6bd", "lon": -76.988132, "fusion_lat": 0.0, "rental_uris": {"android": "https://dc.lft.to/lastmile_qr_scan", "ios": "https://dc.lft.to/lastmile_qr_scan"}, "type": "electric_bike"}, {"is_reserved": 0, "is_disabled": 0, "fusion_lon": 0.0, "lat": 38.88709466666667, "name": "4b0d07b5f3ae78401004ca4c13088fa0", "bike_id": "4b0d07b5f3ae78401004ca4c13088fa0", "lon": -76.983434, "fusion_lat": 0.0, "rental_uris": {"android": "https://dc.lft.to/lastmile_qr_scan", "ios": "https://dc.lft.to/lastmile_qr_scan"}, "type": "electric_scooter"}, {"is_reserved": 0, "is_disabled": 0, "fusion_lon": 0.0, "lat": 38.906732, "name": "0e4820fbac301ae32ffcc769de9e390d", "bike_id": "0e4820fbac301ae32ffcc769de9e390d", "lon": -76.983702, "fusion_lat": 0.0, "rental_uris": {"android": "https://dc.lft.to/lastmile_qr_scan", "ios": "https://dc.lft.to/lastmile_qr_scan"}, "type": "electric_scooter"}, {"is_reserved": 0, "is_disabled": 0, "fusion_lon": 0.0, "lat": 38.938818, "name": "78b35a2715e6bbd2dc6ca0bd945cf513", "bike_id": "78b35a2715e6bbd2dc6ca0bd945cf513", "lon": -77.033957, "fusion_lat": 0.0, "rental_uris": {"android": "https://dc.lft.to/lastmile_qr_scan", "ios": "https://dc.lft.to/lastmile_qr_scan"}, "type": "electric_scooter"}, {"is_reserved": 0, "is_disabled": 0, "fusion_lon": 0.0, "lat": 38.92060033333333, "name": "bdd0187337d325385cbba9631f7df8ab", "bike_id": "bdd0187337d325385cbba9631f7df8ab", "lon": -77.04192283333333, "fusion_lat": 0.0, "rental_uris": {"android": "https://dc.lft.to/lastmile_qr_scan", "ios": "https://dc.lft.to/lastmile_qr_scan"}, "type": "electric_scooter"}, {"is_reserved": 0, "is_disabled": 0, "fusion_lon": 0.0, "lat": 38.9245285, "name": "4e723b79e324faec48b1216d8a7f4590", "bike_id": "4e723b79e324faec48b1216d8a7f4590", "lon": -77.03968383333333, "fusion_lat": 0.0, "rental_uris": {"android": "https://dc.lft.to/lastmile_qr_scan", "ios": "https://dc.lft.to/lastmile_qr_scan"}, "type": "electric_scooter"}, {"is_reserved": 0, "is_disabled": 0, "fusion_lon": 0.0, "lat": 38.91115966666667, "name": "b978f873377260db8ae03a1e020ff972", "bike_id": "b978f873377260db8ae03a1e020ff972", "lon": -77.03828633333333, "fusion_lat": 0.0, "rental_uris": {"android": "https://dc.lft.to/lastmile_qr_scan", "ios": "https://dc.lft.to/lastmile_qr_scan"}, "type": "electric_scooter"}, {"is_reserved": 0, "is_disabled": 0, "fusion_lon": 0.0, "lat": 38.89054183333333, "name": "20af11f48fb6569c0449b61eeae61bc2", "bike_id": "20af11f48fb6569c0449b61eeae61bc2", "lon": -77.04497633333334, "fusion_lat": 0.0, "rental_uris": {"android": "https://dc.lft.to/lastmile_qr_scan", "ios": "https://dc.lft.to/lastmile_qr_scan"}, "type": "electric_scooter"}, {"is_reserved": 0, "is_disabled": 0, "fusion_lon": 0.0, "lat": 38.957335666666665, "name": "1f3e2550e32d6d7f40adee554369da69", "bike_id": "1f3e2550e32d6d7f40adee554369da69", "lon": -77.02416683333334, "fusion_lat": 0.0, "rental_uris": {"android": "https://dc.lft.to/lastmile_qr_scan", "ios": "https://dc.lft.to/lastmile_qr_scan"}, "type": "electric_scooter"}, {"is_reserved": 0, "is_disabled": 0, "fusion_lon": 0.0, "lat": 38.94963816666667, "name": "eb17c34c201fa7b496b0b7e2c3c09b80", "bike_id": "eb17c34c201fa7b496b0b7e2c3c09b80", "lon": -76.960978, "fusion_lat": 0.0, "rental_uris": {"android": "https://dc.lft.to/lastmile_qr_scan", "ios": "https://dc.lft.to/lastmile_qr_scan"}, "type": "electric_bike"}, {"is_reserved": 0, "is_disabled": 0, "fusion_lon": 0.0, "lat": 38.89512466666667, "name": "7d580a924fc8df3e31f57d9b33cec256", "bike_id": "7d580a924fc8df3e31f57d9b33cec256", "lon": -76.94887533333333, "fusion_lat": 0.0, "rental_uris": {"android": "https://dc.lft.to/lastmile_qr_scan", "ios": "https://dc.lft.to/lastmile_qr_scan"}, "type": "electric_scooter"}, {"is_reserved": 0, "is_disabled": 0, "fusion_lon": 0.0, "lat": 38.912339, "name": "7eafddf63b144310be7d9ddc3f815fe0", "bike_id": "7eafddf63b144310be7d9ddc3f815fe0", "lon": -77.0320955, "fusion_lat": 0.0, "rental_uris": {"android": "https://dc.lft.to/lastmile_qr_scan", "ios": "https://dc.lft.to/lastmile_qr_scan"}, "type": "electric_scooter"}, {"is_reserved": 0, "is_disabled": 0, "fusion_lon": 0.0, "lat": 38.930145333333336, "name": "ab7196e694edce05cd700369ef00527c", "bike_id": "ab7196e694edce05cd700369ef00527c", "lon": -77.06189183333333, "fusion_lat": 0.0, "rental_uris": {"android": "https://dc.lft.to/lastmile_qr_scan", "ios": "https://dc.lft.to/lastmile_qr_scan"}, "type": "electric_scooter"}, {"is_reserved": 0, "is_disabled": 0, "fusion_lon": 0.0, "lat": 38.91156866666667, "name": "bd465b812c79418c6cde05fab56a59fc", "bike_id": "bd465b812c79418c6cde05fab56a59fc", "lon": -77.02201166666667, "fusion_lat": 0.0, "rental_uris": {"android": "https://dc.lft.to/lastmile_qr_scan", "ios": "https://dc.lft.to/lastmile_qr_scan"}, "type": "electric_scooter"}, {"is_reserved": 0, "is_disabled": 0, "fusion_lon": 0.0, "lat": 38.88823633333333, "name": "2a1dcad1e4d5f9565a4c3797d9215a36", "bike_id": "2a1dcad1e4d5f9565a4c3797d9215a36", "lon": -76.977037, "fusion_lat": 0.0, "rental_uris": {"android": "https://dc.lft.to/lastmile_qr_scan", "ios": "https://dc.lft.to/lastmile_qr_scan"}, "type": "electric_scooter"}, {"is_reserved": 0, "is_disabled": 0, "fusion_lon": 0.0, "lat": 38.92436933333333, "name": "7af5887bef9e52bf9a9f802dd450626d", "bike_id": "7af5887bef9e52bf9a9f802dd450626d", "lon": -77.00320366666666, "fusion_lat": 0.0, "rental_uris": {"android": "https://dc.lft.to/lastmile_qr_scan", "ios": "https://dc.lft.to/lastmile_qr_scan"}, "type": "electric_scooter"}, {"is_reserved": 0, "is_disabled": 0, "fusion_lon": 0.0, "lat": 38.89749333333334, "name": "a77f153f5d41396e841e40c22f350882", "bike_id": "a77f153f5d41396e841e40c22f350882", "lon": -77.01904983333333, "fusion_lat": 0.0, "rental_uris": {"android": "https://dc.lft.to/lastmile_qr_scan", "ios": "https://dc.lft.to/lastmile_qr_scan"}, "type": "electric_scooter"}, {"is_reserved": 0, "is_disabled": 0, "fusion_lon": 0.0, "lat": 38.92649683333333, "name": "7dcd7f85e46a6b693aef7ac551081f2e", "bike_id": "7dcd7f85e46a6b693aef7ac551081f2e", "lon": -77.03856183333333, "fusion_lat": 0.0, "rental_uris": {"android": "https://dc.lft.to/lastmile_qr_scan", "ios": "https://dc.lft.to/lastmile_qr_scan"}, "type": "electric_scooter"}, {"is_reserved": 0, "is_disabled": 0, "fusion_lon": 0.0, "lat": 38.897021333333335, "name": "1e9a9891f38867290cea12de37ef7681", "bike_id": "1e9a9891f38867290cea12de37ef7681", "lon": -76.93914966666667, "fusion_lat": 0.0, "rental_uris": {"android": "https://dc.lft.to/lastmile_qr_scan", "ios": "https://dc.lft.to/lastmile_qr_scan"}, "type": "electric_scooter"}, {"is_reserved": 0, "is_disabled": 0, "fusion_lon": 0.0, "lat": 38.90270266666667, "name": "5141f5c2c49b141a4a58cd1faba7f8de", "bike_id": "5141f5c2c49b141a4a58cd1faba7f8de", "lon": -76.99852383333334, "fusion_lat": 0.0, "rental_uris": {"android": "https://dc.lft.to/lastmile_qr_scan", "ios": "https://dc.lft.to/lastmile_qr_scan"}, "type": "electric_scooter"}, {"is_reserved": 0, "is_disabled": 0, "fusion_lon": 0.0, "lat": 38.87661283333333, "name": "2ed276b65194d1975c29c91c08b672ba", "bike_id": "2ed276b65194d1975c29c91c08b672ba", "lon": -77.0116975, "fusion_lat": 0.0, "rental_uris": {"android": "https://dc.lft.to/lastmile_qr_scan", "ios": "https://dc.lft.to/lastmile_qr_scan"}, "type": "electric_scooter"}, {"is_reserved": 0, "is_disabled": 0, "fusion_lon": 0.0, "lat": 38.8935595, "name": "b2da5210bcd6f2b0a4a4858b202a2cfe", "bike_id": "b2da5210bcd6f2b0a4a4858b202a2cfe", "lon": -77.0461635, "fusion_lat": 0.0, "rental_uris": {"android": "https://dc.lft.to/lastmile_qr_scan", "ios": "https://dc.lft.to/lastmile_qr_scan"}, "type": "electric_scooter"}, {"is_reserved": 0, "is_disabled": 0, "fusion_lon": 0.0, "lat": 38.924505833333335, "name": "3ebb33f2514d6c0f25cd07fc3bc080ee", "bike_id": "3ebb33f2514d6c0f25cd07fc3bc080ee", "lon": -77.04018366666666, "fusion_lat": 0.0, "rental_uris": {"android": "https://dc.lft.to/lastmile_qr_scan", "ios": "https://dc.lft.to/lastmile_qr_scan"}, "type": "electric_scooter"}, {"is_reserved": 0, "is_disabled": 0, "fusion_lon": 0.0, "lat": 38.924595, "name": "a9ec1b4c01987d587d5b24e2e0056248", "bike_id": "a9ec1b4c01987d587d5b24e2e0056248", "lon": -77.05753983333334, "fusion_lat": 0.0, "rental_uris": {"android": "https://dc.lft.to/lastmile_qr_scan", "ios": "https://dc.lft.to/lastmile_qr_scan"}, "type": "electric_scooter"}, {"is_reserved": 0, "is_disabled": 0, "fusion_lon": 0.0, "lat": 38.90241783333333, "name": "7e817b2a247f070f57cb697eec6baf86", "bike_id": "7e817b2a247f070f57cb697eec6baf86", "lon": -77.03898933333333, "fusion_lat": 0.0, "rental_uris": {"android": "https://dc.lft.to/lastmile_qr_scan", "ios": "https://dc.lft.to/lastmile_qr_scan"}, "type": "electric_scooter"}, {"is_reserved": 0, "is_disabled": 0, "fusion_lon": 0.0, "lat": 38.90408883333333, "name": "43176aa1f4786975d045287defacb4ee", "bike_id": "43176aa1f4786975d045287defacb4ee", "lon": -77.02584516666667, "fusion_lat": 0.0, "rental_uris": {"android": "https://dc.lft.to/lastmile_qr_scan", "ios": "https://dc.lft.to/lastmile_qr_scan"}, "type": "electric_scooter"}, {"is_reserved": 0, "is_disabled": 0, "fusion_lon": 0.0, "lat": 38.949763, "name": "672b9f3b5203a89633bd44b84d3e769e", "bike_id": "672b9f3b5203a89633bd44b84d3e769e", "lon": -77.02453366666667, "fusion_lat": 0.0, "rental_uris": {"android": "https://dc.lft.to/lastmile_qr_scan", "ios": "https://dc.lft.to/lastmile_qr_scan"}, "type": "electric_scooter"}, {"is_reserved": 0, "is_disabled": 0, "fusion_lon": 0.0, "lat": 38.92242666666667, "name": "6facfd2b17a2ae25b1bacd2eaea57cdd", "bike_id": "6facfd2b17a2ae25b1bacd2eaea57cdd", "lon": -77.02138183333334, "fusion_lat": 0.0, "rental_uris": {"android": "https://dc.lft.to/lastmile_qr_scan", "ios": "https://dc.lft.to/lastmile_qr_scan"}, "type": "electric_scooter"}, {"is_reserved": 0, "is_disabled": 0, "fusion_lon": 0.0, "lat": 38.911779, "name": "f2ac4ef0f223004f9a5a99dc7308e51d", "bike_id": "f2ac4ef0f223004f9a5a99dc7308e51d", "lon": -77.02956566666667, "fusion_lat": 0.0, "rental_uris": {"android": "https://dc.lft.to/lastmile_qr_scan", "ios": "https://dc.lft.to/lastmile_qr_scan"}, "type": "electric_scooter"}, {"is_reserved": 0, "is_disabled": 0, "fusion_lon": 0.0, "lat": 38.93187483333333, "name": "b51414e6bc039d10504f0250706cf43a", "bike_id": "b51414e6bc039d10504f0250706cf43a", "lon": -77.02835166666667, "fusion_lat": 0.0, "rental_uris": {"android": "https://dc.lft.to/lastmile_qr_scan", "ios": "https://dc.lft.to/lastmile_qr_scan"}, "type": "electric_scooter"}, {"is_reserved": 0, "is_disabled": 0, "fusion_lon": 0.0, "lat": 38.95191766666667, "name": "d253be0ef6d36fb7a64a0010036bc9aa", "bike_id": "d253be0ef6d36fb7a64a0010036bc9aa", "lon": -77.0261475, "fusion_lat": 0.0, "rental_uris": {"android": "https://dc.lft.to/lastmile_qr_scan", "ios": "https://dc.lft.to/lastmile_qr_scan"}, "type": "electric_scooter"}, {"is_reserved": 0, "is_disabled": 0, "fusion_lon": 0.0, "lat": 38.92646966666667, "name": "9df7d2fc7eef89ec02d3df33c9d2adf2", "bike_id": "9df7d2fc7eef89ec02d3df33c9d2adf2", "lon": -77.02506683333333, "fusion_lat": 0.0, "rental_uris": {"android": "https://dc.lft.to/lastmile_qr_scan", "ios": "https://dc.lft.to/lastmile_qr_scan"}, "type": "electric_scooter"}, {"is_reserved": 0, "is_disabled": 0, "fusion_lon": 0.0, "lat": 38.932526333333335, "name": "054e0189e9fb7926a2f5b15e829e0e81", "bike_id": "054e0189e9fb7926a2f5b15e829e0e81", "lon": -77.0329165, "fusion_lat": 0.0, "rental_uris": {"android": "https://dc.lft.to/lastmile_qr_scan", "ios": "https://dc.lft.to/lastmile_qr_scan"}, "type": "electric_scooter"}, {"is_reserved": 0, "is_disabled": 0, "fusion_lon": 0.0, "lat": 38.90019733333333, "name": "390ee505d3f1bc6d9c892c100180f99c", "bike_id": "390ee505d3f1bc6d9c892c100180f99c", "lon": -76.99539816666666, "fusion_lat": 0.0, "rental_uris": {"android": "https://dc.lft.to/lastmile_qr_scan", "ios": "https://dc.lft.to/lastmile_qr_scan"}, "type": "electric_scooter"}, {"is_reserved": 0, "is_disabled": 0, "fusion_lon": 0.0, "lat": 38.892170166666666, "name": "a038000c0d0916facbe2c6bdcbb91a70", "bike_id": "a038000c0d0916facbe2c6bdcbb91a70", "lon": -77.031341, "fusion_lat": 0.0, "rental_uris": {"android": "https://dc.lft.to/lastmile_qr_scan", "ios": "https://dc.lft.to/lastmile_qr_scan"}, "type": "electric_scooter"}, {"is_reserved": 0, "is_disabled": 0, "fusion_lon": 0.0, "lat": 38.911926333333334, "name": "90a3855c5886b6aa7abd90b65163dfc6", "bike_id": "90a3855c5886b6aa7abd90b65163dfc6", "lon": -77.03836483333333, "fusion_lat": 0.0, "rental_uris": {"android": "https://dc.lft.to/lastmile_qr_scan", "ios": "https://dc.lft.to/lastmile_qr_scan"}, "type": "electric_scooter"}, {"is_reserved": 0, "is_disabled": 0, "fusion_lon": 0.0, "lat": 38.9270195, "name": "e9abe49e15512edf57e313ab34ee7d25", "bike_id": "e9abe49e15512edf57e313ab34ee7d25", "lon": -77.02070533333334, "fusion_lat": 0.0, "rental_uris": {"android": "https://dc.lft.to/lastmile_qr_scan", "ios": "https://dc.lft.to/lastmile_qr_scan"}, "type": "electric_scooter"}, {"is_reserved": 0, "is_disabled": 0, "fusion_lon": 0.0, "lat": 38.92314183333333, "name": "1a7beab6cf17a5556b3feb261ead9ceb", "bike_id": "1a7beab6cf17a5556b3feb261ead9ceb", "lon": -77.0195435, "fusion_lat": 0.0, "rental_uris": {"android": "https://dc.lft.to/lastmile_qr_scan", "ios": "https://dc.lft.to/lastmile_qr_scan"}, "type": "electric_scooter"}, {"is_reserved": 0, "is_disabled": 0, "fusion_lon": 0.0, "lat": 38.903047666666666, "name": "b5e8076ecd37de26d0ff99ec1b6fbfe9", "bike_id": "b5e8076ecd37de26d0ff99ec1b6fbfe9", "lon": -76.9750495, "fusion_lat": 0.0, "rental_uris": {"android": "https://dc.lft.to/lastmile_qr_scan", "ios": "https://dc.lft.to/lastmile_qr_scan"}, "type": "electric_scooter"}, {"is_reserved": 0, "is_disabled": 0, "fusion_lon": 0.0, "lat": 38.91254216666667, "name": "d0dc9d34b71d92304573fa367d6f5429", "bike_id": "d0dc9d34b71d92304573fa367d6f5429", "lon": -77.01347966666667, "fusion_lat": 0.0, "rental_uris": {"android": "https://dc.lft.to/lastmile_qr_scan", "ios": "https://dc.lft.to/lastmile_qr_scan"}, "type": "electric_bike"}, {"is_reserved": 0, "is_disabled": 0, "fusion_lon": 0.0, "lat": 38.88430133333333, "name": "6c32a03487b50a177604b684715d6945", "bike_id": "6c32a03487b50a177604b684715d6945", "lon": -76.99728716666667, "fusion_lat": 0.0, "rental_uris": {"android": "https://dc.lft.to/lastmile_qr_scan", "ios": "https://dc.lft.to/lastmile_qr_scan"}, "type": "electric_scooter"}, {"is_reserved": 0, "is_disabled": 0, "fusion_lon": 0.0, "lat": 38.919840666666666, "name": "74fd82ae4fb847931fffbb1fbbaa1623", "bike_id": "74fd82ae4fb847931fffbb1fbbaa1623", "lon": -77.0217685, "fusion_lat": 0.0, "rental_uris": {"android": "https://dc.lft.to/lastmile_qr_scan", "ios": "https://dc.lft.to/lastmile_qr_scan"}, "type": "electric_scooter"}, {"is_reserved": 0, "is_disabled": 0, "fusion_lon": 0.0, "lat": 38.9250965, "name": "9488f359688fbb7596ea362369585c89", "bike_id": "9488f359688fbb7596ea362369585c89", "lon": -77.0257185, "fusion_lat": 0.0, "rental_uris": {"android": "https://dc.lft.to/lastmile_qr_scan", "ios": "https://dc.lft.to/lastmile_qr_scan"}, "type": "electric_scooter"}, {"is_reserved": 0, "is_disabled": 0, "fusion_lon": 0.0, "lat": 38.91577383333333, "name": "d80526c0ea8751f40b48cc6305c8517b", "bike_id": "d80526c0ea8751f40b48cc6305c8517b", "lon": -77.067983, "fusion_lat": 0.0, "rental_uris": {"android": "https://dc.lft.to/lastmile_qr_scan", "ios": "https://dc.lft.to/lastmile_qr_scan"}, "type": "electric_scooter"}, {"is_reserved": 0, "is_disabled": 0, "fusion_lon": 0.0, "lat": 38.939732, "name": "7322950b190ba47b7e0ab1655b2e0047", "bike_id": "7322950b190ba47b7e0ab1655b2e0047", "lon": -77.03024766666667, "fusion_lat": 0.0, "rental_uris": {"android": "https://dc.lft.to/lastmile_qr_scan", "ios": "https://dc.lft.to/lastmile_qr_scan"}, "type": "electric_scooter"}, {"is_reserved": 0, "is_disabled": 0, "fusion_lon": 0.0, "lat": 38.9213085, "name": "c117f2b66902e7fab2d03d436b4482cd", "bike_id": "c117f2b66902e7fab2d03d436b4482cd", "lon": -77.018055, "fusion_lat": 0.0, "rental_uris": {"android": "https://dc.lft.to/lastmile_qr_scan", "ios": "https://dc.lft.to/lastmile_qr_scan"}, "type": "electric_scooter"}, {"is_reserved": 0, "is_disabled": 0, "fusion_lon": 0.0, "lat": 38.86522716666666, "name": "ffa5a6deb0395c1973c6a807edb7c1fc", "bike_id": "ffa5a6deb0395c1973c6a807edb7c1fc", "lon": -76.96909833333333, "fusion_lat": 0.0, "rental_uris": {"android": "https://dc.lft.to/lastmile_qr_scan", "ios": "https://dc.lft.to/lastmile_qr_scan"}, "type": "electric_scooter"}, {"is_reserved": 0, "is_disabled": 0, "fusion_lon": 0.0, "lat": 38.92449916666666, "name": "204e1d4d68e56eb5075350ad3ee66ec7", "bike_id": "204e1d4d68e56eb5075350ad3ee66ec7", "lon": -76.968293, "fusion_lat": 0.0, "rental_uris": {"android": "https://dc.lft.to/lastmile_qr_scan", "ios": "https://dc.lft.to/lastmile_qr_scan"}, "type": "electric_scooter"}, {"is_reserved": 0, "is_disabled": 0, "fusion_lon": 0.0, "lat": 38.87291316666666, "name": "06ede5bc5ef4473d0a8ae2da11f77a05", "bike_id": "06ede5bc5ef4473d0a8ae2da11f77a05", "lon": -77.015878, "fusion_lat": 0.0, "rental_uris": {"android": "https://dc.lft.to/lastmile_qr_scan", "ios": "https://dc.lft.to/lastmile_qr_scan"}, "type": "electric_scooter"}, {"is_reserved": 0, "is_disabled": 0, "fusion_lon": 0.0, "lat": 38.884516166666664, "name": "7cbdbea338095b21f91eb6d68a41eee0", "bike_id": "7cbdbea338095b21f91eb6d68a41eee0", "lon": -76.9577115, "fusion_lat": 0.0, "rental_uris": {"android": "https://dc.lft.to/lastmile_qr_scan", "ios": "https://dc.lft.to/lastmile_qr_scan"}, "type": "electric_scooter"}, {"is_reserved": 0, "is_disabled": 0, "fusion_lon": 0.0, "lat": 38.89834583333333, "name": "44f5434eeaf4234b7410ceeec38dfc6c", "bike_id": "44f5434eeaf4234b7410ceeec38dfc6c", "lon": -76.94641033333333, "fusion_lat": 0.0, "rental_uris": {"android": "https://dc.lft.to/lastmile_qr_scan", "ios": "https://dc.lft.to/lastmile_qr_scan"}, "type": "electric_scooter"}, {"is_reserved": 0, "is_disabled": 0, "fusion_lon": 0.0, "lat": 38.90718733333333, "name": "562a2fd1111f813b6ec97658d5712a28", "bike_id": "562a2fd1111f813b6ec97658d5712a28", "lon": -77.02567783333333, "fusion_lat": 0.0, "rental_uris": {"android": "https://dc.lft.to/lastmile_qr_scan", "ios": "https://dc.lft.to/lastmile_qr_scan"}, "type": "electric_scooter"}, {"is_reserved": 0, "is_disabled": 0, "fusion_lon": 0.0, "lat": 38.9206085, "name": "909e326738510017887efeb0616c2519", "bike_id": "909e326738510017887efeb0616c2519", "lon": -77.02449016666667, "fusion_lat": 0.0, "rental_uris": {"android": "https://dc.lft.to/lastmile_qr_scan", "ios": "https://dc.lft.to/lastmile_qr_scan"}, "type": "electric_scooter"}, {"is_reserved": 0, "is_disabled": 0, "fusion_lon": 0.0, "lat": 38.9096515, "name": "c2546f2364e8c99f56d038714cec261d", "bike_id": "c2546f2364e8c99f56d038714cec261d", "lon": -77.01441433333333, "fusion_lat": 0.0, "rental_uris": {"android": "https://dc.lft.to/lastmile_qr_scan", "ios": "https://dc.lft.to/lastmile_qr_scan"}, "type": "electric_scooter"}, {"is_reserved": 0, "is_disabled": 0, "fusion_lon": 0.0, "lat": 38.918055, "name": "9cfc2f3cbc6f2ce4e7143466427059cc", "bike_id": "9cfc2f3cbc6f2ce4e7143466427059cc", "lon": -77.02717433333333, "fusion_lat": 0.0, "rental_uris": {"android": "https://dc.lft.to/lastmile_qr_scan", "ios": "https://dc.lft.to/lastmile_qr_scan"}, "type": "electric_scooter"}, {"is_reserved": 0, "is_disabled": 0, "fusion_lon": 0.0, "lat": 38.920904166666666, "name": "f702c7c9e3eb773db6bebd57f45006ef", "bike_id": "f702c7c9e3eb773db6bebd57f45006ef", "lon": -77.0315785, "fusion_lat": 0.0, "rental_uris": {"android": "https://dc.lft.to/lastmile_qr_scan", "ios": "https://dc.lft.to/lastmile_qr_scan"}, "type": "electric_scooter"}, {"is_reserved": 0, "is_disabled": 0, "fusion_lon": 0.0, "lat": 38.936575166666664, "name": "20e9abd1c6b55fec5314b26e82f7fbb8", "bike_id": "20e9abd1c6b55fec5314b26e82f7fbb8", "lon": -77.06605, "fusion_lat": 0.0, "rental_uris": {"android": "https://dc.lft.to/lastmile_qr_scan", "ios": "https://dc.lft.to/lastmile_qr_scan"}, "type": "electric_scooter"}, {"is_reserved": 0, "is_disabled": 0, "fusion_lon": 0.0, "lat": 38.91236, "name": "93bc8165df4647d342eca406bd05f585", "bike_id": "93bc8165df4647d342eca406bd05f585", "lon": -76.98664916666667, "fusion_lat": 0.0, "rental_uris": {"android": "https://dc.lft.to/lastmile_qr_scan", "ios": "https://dc.lft.to/lastmile_qr_scan"}, "type": "electric_scooter"}, {"is_reserved": 0, "is_disabled": 0, "fusion_lon": 0.0, "lat": 38.877593833333336, "name": "c2c1f1f5ffd22e64b255ad39bb88646c", "bike_id": "c2c1f1f5ffd22e64b255ad39bb88646c", "lon": -77.00603516666666, "fusion_lat": 0.0, "rental_uris": {"android": "https://dc.lft.to/lastmile_qr_scan", "ios": "https://dc.lft.to/lastmile_qr_scan"}, "type": "electric_scooter"}, {"is_reserved": 0, "is_disabled": 0, "fusion_lon": 0.0, "lat": 38.911883, "name": "4a4824c2b0ef823026014a113bbcc91b", "bike_id": "4a4824c2b0ef823026014a113bbcc91b", "lon": -77.01979, "fusion_lat": 0.0, "rental_uris": {"android": "https://dc.lft.to/lastmile_qr_scan", "ios": "https://dc.lft.to/lastmile_qr_scan"}, "type": "electric_scooter"}, {"is_reserved": 0, "is_disabled": 0, "fusion_lon": 0.0, "lat": 38.916989666666666, "name": "18ec33bd4891f90acf56050d4f921123", "bike_id": "18ec33bd4891f90acf56050d4f921123", "lon": -77.02957516666666, "fusion_lat": 0.0, "rental_uris": {"android": "https://dc.lft.to/lastmile_qr_scan", "ios": "https://dc.lft.to/lastmile_qr_scan"}, "type": "electric_scooter"}, {"is_reserved": 0, "is_disabled": 0, "fusion_lon": 0.0, "lat": 38.908672333333335, "name": "67527b106bba14b522089a8e2f620a46", "bike_id": "67527b106bba14b522089a8e2f620a46", "lon": -77.03763866666667, "fusion_lat": 0.0, "rental_uris": {"android": "https://dc.lft.to/lastmile_qr_scan", "ios": "https://dc.lft.to/lastmile_qr_scan"}, "type": "electric_scooter"}, {"is_reserved": 0, "is_disabled": 0, "fusion_lon": 0.0, "lat": 38.88643716666667, "name": "a46adebfa9ba49a534232c49e26b30cc", "bike_id": "a46adebfa9ba49a534232c49e26b30cc", "lon": -77.00206133333333, "fusion_lat": 0.0, "rental_uris": {"android": "https://dc.lft.to/lastmile_qr_scan", "ios": "https://dc.lft.to/lastmile_qr_scan"}, "type": "electric_scooter"}, {"is_reserved": 0, "is_disabled": 0, "fusion_lon": 0.0, "lat": 38.927005, "name": "0fa7aae52275fcdf960cd11a88060f00", "bike_id": "0fa7aae52275fcdf960cd11a88060f00", "lon": -77.02070133333334, "fusion_lat": 0.0, "rental_uris": {"android": "https://dc.lft.to/lastmile_qr_scan", "ios": "https://dc.lft.to/lastmile_qr_scan"}, "type": "electric_scooter"}, {"is_reserved": 0, "is_disabled": 0, "fusion_lon": 0.0, "lat": 38.931868333333334, "name": "991d5cb7b694c0095ec3d540f0441730", "bike_id": "991d5cb7b694c0095ec3d540f0441730", "lon": -77.02021733333333, "fusion_lat": 0.0, "rental_uris": {"android": "https://dc.lft.to/lastmile_qr_scan", "ios": "https://dc.lft.to/lastmile_qr_scan"}, "type": "electric_scooter"}, {"is_reserved": 0, "is_disabled": 0, "fusion_lon": 0.0, "lat": 38.89985816666667, "name": "ffd389ea5c7fc8d587b883ae094fdfce", "bike_id": "ffd389ea5c7fc8d587b883ae094fdfce", "lon": -77.01625083333333, "fusion_lat": 0.0, "rental_uris": {"android": "https://dc.lft.to/lastmile_qr_scan", "ios": "https://dc.lft.to/lastmile_qr_scan"}, "type": "electric_scooter"}, {"is_reserved": 0, "is_disabled": 0, "fusion_lon": 0.0, "lat": 38.89765083333333, "name": "749f8a2103181b99adca78fcd2e74e5c", "bike_id": "749f8a2103181b99adca78fcd2e74e5c", "lon": -77.009555, "fusion_lat": 0.0, "rental_uris": {"android": "https://dc.lft.to/lastmile_qr_scan", "ios": "https://dc.lft.to/lastmile_qr_scan"}, "type": "electric_scooter"}, {"is_reserved": 0, "is_disabled": 0, "fusion_lon": 0.0, "lat": 38.918068833333336, "name": "16e72411db85ea03159f2fa2809639cb", "bike_id": "16e72411db85ea03159f2fa2809639cb", "lon": -77.02718483333334, "fusion_lat": 0.0, "rental_uris": {"android": "https://dc.lft.to/lastmile_qr_scan", "ios": "https://dc.lft.to/lastmile_qr_scan"}, "type": "electric_scooter"}, {"is_reserved": 0, "is_disabled": 0, "fusion_lon": 0.0, "lat": 38.9223445, "name": "70537dbb302b7466fea494eddd32cf04", "bike_id": "70537dbb302b7466fea494eddd32cf04", "lon": -77.04309283333333, "fusion_lat": 0.0, "rental_uris": {"android": "https://dc.lft.to/lastmile_qr_scan", "ios": "https://dc.lft.to/lastmile_qr_scan"}, "type": "electric_scooter"}, {"is_reserved": 0, "is_disabled": 0, "fusion_lon": 0.0, "lat": 38.884984833333334, "name": "5b29d71ba1ec6cf837a62e123d2a101a", "bike_id": "5b29d71ba1ec6cf837a62e123d2a101a", "lon": -77.01477833333334, "fusion_lat": 0.0, "rental_uris": {"android": "https://dc.lft.to/lastmile_qr_scan", "ios": "https://dc.lft.to/lastmile_qr_scan"}, "type": "electric_scooter"}, {"is_reserved": 0, "is_disabled": 0, "fusion_lon": 0.0, "lat": 38.903827166666666, "name": "e55f444a2722352630bec6bf9d158745", "bike_id": "e55f444a2722352630bec6bf9d158745", "lon": -77.053363, "fusion_lat": 0.0, "rental_uris": {"android": "https://dc.lft.to/lastmile_qr_scan", "ios": "https://dc.lft.to/lastmile_qr_scan"}, "type": "electric_scooter"}, {"is_reserved": 0, "is_disabled": 0, "fusion_lon": 0.0, "lat": 38.930811166666665, "name": "23ef35eba804963df05a2de6a0fec332", "bike_id": "23ef35eba804963df05a2de6a0fec332", "lon": -77.0279495, "fusion_lat": 0.0, "rental_uris": {"android": "https://dc.lft.to/lastmile_qr_scan", "ios": "https://dc.lft.to/lastmile_qr_scan"}, "type": "electric_scooter"}, {"is_reserved": 0, "is_disabled": 0, "fusion_lon": 0.0, "lat": 38.911155, "name": "094caca4c35e458859d5f7248f395297", "bike_id": "094caca4c35e458859d5f7248f395297", "lon": -77.00765366666667, "fusion_lat": 0.0, "rental_uris": {"android": "https://dc.lft.to/lastmile_qr_scan", "ios": "https://dc.lft.to/lastmile_qr_scan"}, "type": "electric_scooter"}, {"is_reserved": 0, "is_disabled": 0, "fusion_lon": 0.0, "lat": 38.907788, "name": "2c01ba98ca35079114ae7be840631b4e", "bike_id": "2c01ba98ca35079114ae7be840631b4e", "lon": -77.01829483333333, "fusion_lat": 0.0, "rental_uris": {"android": "https://dc.lft.to/lastmile_qr_scan", "ios": "https://dc.lft.to/lastmile_qr_scan"}, "type": "electric_scooter"}, {"is_reserved": 0, "is_disabled": 0, "fusion_lon": 0.0, "lat": 38.91828816666667, "name": "76a09ca6ea6952879b88ad21446d219f", "bike_id": "76a09ca6ea6952879b88ad21446d219f", "lon": -77.05315533333334, "fusion_lat": 0.0, "rental_uris": {"android": "https://dc.lft.to/lastmile_qr_scan", "ios": "https://dc.lft.to/lastmile_qr_scan"}, "type": "electric_scooter"}, {"is_reserved": 0, "is_disabled": 0, "fusion_lon": 0.0, "lat": 38.91812316666667, "name": "3d69e0e2d55e9cac1df867958e3ec739", "bike_id": "3d69e0e2d55e9cac1df867958e3ec739", "lon": -77.0247905, "fusion_lat": 0.0, "rental_uris": {"android": "https://dc.lft.to/lastmile_qr_scan", "ios": "https://dc.lft.to/lastmile_qr_scan"}, "type": "electric_scooter"}, {"is_reserved": 0, "is_disabled": 0, "fusion_lon": 0.0, "lat": 38.9086115, "name": "b849169ede4b0b58ee04ea97c8fc7a73", "bike_id": "b849169ede4b0b58ee04ea97c8fc7a73", "lon": -77.08074266666667, "fusion_lat": 0.0, "rental_uris": {"android": "https://dc.lft.to/lastmile_qr_scan", "ios": "https://dc.lft.to/lastmile_qr_scan"}, "type": "electric_bike"}, {"is_reserved": 0, "is_disabled": 0, "fusion_lon": 0.0, "lat": 38.924668833333335, "name": "d0039c050fa9d09bf41c818bf8ec4a93", "bike_id": "d0039c050fa9d09bf41c818bf8ec4a93", "lon": -77.02713433333334, "fusion_lat": 0.0, "rental_uris": {"android": "https://dc.lft.to/lastmile_qr_scan", "ios": "https://dc.lft.to/lastmile_qr_scan"}, "type": "electric_scooter"}, {"is_reserved": 0, "is_disabled": 0, "fusion_lon": 0.0, "lat": 38.89249433333333, "name": "88eee6d62c23c100627b0fabe42d3f88", "bike_id": "88eee6d62c23c100627b0fabe42d3f88", "lon": -77.03956783333334, "fusion_lat": 0.0, "rental_uris": {"android": "https://dc.lft.to/lastmile_qr_scan", "ios": "https://dc.lft.to/lastmile_qr_scan"}, "type": "electric_scooter"}, {"is_reserved": 0, "is_disabled": 0, "fusion_lon": 0.0, "lat": 38.907188166666664, "name": "58011b6df428dd191903152f1a0ea171", "bike_id": "58011b6df428dd191903152f1a0ea171", "lon": -76.99816166666666, "fusion_lat": 0.0, "rental_uris": {"android": "https://dc.lft.to/lastmile_qr_scan", "ios": "https://dc.lft.to/lastmile_qr_scan"}, "type": "electric_scooter"}, {"is_reserved": 0, "is_disabled": 0, "fusion_lon": 0.0, "lat": 38.90244333333333, "name": "d83c9146c7c28733db995abd90d52d13", "bike_id": "d83c9146c7c28733db995abd90d52d13", "lon": -77.04444716666667, "fusion_lat": 0.0, "rental_uris": {"android": "https://dc.lft.to/lastmile_qr_scan", "ios": "https://dc.lft.to/lastmile_qr_scan"}, "type": "electric_scooter"}, {"is_reserved": 0, "is_disabled": 0, "fusion_lon": 0.0, "lat": 38.92860566666667, "name": "ad5b278ad7cc8a6ce0af49fba66d36d2", "bike_id": "ad5b278ad7cc8a6ce0af49fba66d36d2", "lon": -77.0370685, "fusion_lat": 0.0, "rental_uris": {"android": "https://dc.lft.to/lastmile_qr_scan", "ios": "https://dc.lft.to/lastmile_qr_scan"}, "type": "electric_scooter"}, {"is_reserved": 0, "is_disabled": 0, "fusion_lon": 0.0, "lat": 38.842768666666665, "name": "8c9b20a19146011b1dcbdf2c93d6a7e3", "bike_id": "8c9b20a19146011b1dcbdf2c93d6a7e3", "lon": -76.988409, "fusion_lat": 0.0, "rental_uris": {"android": "https://dc.lft.to/lastmile_qr_scan", "ios": "https://dc.lft.to/lastmile_qr_scan"}, "type": "electric_bike"}, {"is_reserved": 0, "is_disabled": 0, "fusion_lon": 0.0, "lat": 38.929593, "name": "2617c626d8e75d55d3d3df562839f8aa", "bike_id": "2617c626d8e75d55d3d3df562839f8aa", "lon": -77.04123583333333, "fusion_lat": 0.0, "rental_uris": {"android": "https://dc.lft.to/lastmile_qr_scan", "ios": "https://dc.lft.to/lastmile_qr_scan"}, "type": "electric_scooter"}, {"is_reserved": 0, "is_disabled": 0, "fusion_lon": 0.0, "lat": 38.90638933333334, "name": "36aaf418a39b9d8abc9b5dde30921a14", "bike_id": "36aaf418a39b9d8abc9b5dde30921a14", "lon": -77.01768616666666, "fusion_lat": 0.0, "rental_uris": {"android": "https://dc.lft.to/lastmile_qr_scan", "ios": "https://dc.lft.to/lastmile_qr_scan"}, "type": "electric_scooter"}, {"is_reserved": 0, "is_disabled": 0, "fusion_lon": 0.0, "lat": 38.92860116666667, "name": "1a0caa8fd105404eabefe039eef7a84e", "bike_id": "1a0caa8fd105404eabefe039eef7a84e", "lon": -77.0543845, "fusion_lat": 0.0, "rental_uris": {"android": "https://dc.lft.to/lastmile_qr_scan", "ios": "https://dc.lft.to/lastmile_qr_scan"}, "type": "electric_scooter"}, {"is_reserved": 0, "is_disabled": 0, "fusion_lon": 0.0, "lat": 38.9224085, "name": "1b43d70ba7f00c1bd942e7f6bdfbb82d", "bike_id": "1b43d70ba7f00c1bd942e7f6bdfbb82d", "lon": -77.02119516666667, "fusion_lat": 0.0, "rental_uris": {"android": "https://dc.lft.to/lastmile_qr_scan", "ios": "https://dc.lft.to/lastmile_qr_scan"}, "type": "electric_scooter"}, {"is_reserved": 0, "is_disabled": 0, "fusion_lon": 0.0, "lat": 38.8955005, "name": "f48c27486911dfba55691c406f5109cd", "bike_id": "f48c27486911dfba55691c406f5109cd", "lon": -77.009078, "fusion_lat": 0.0, "rental_uris": {"android": "https://dc.lft.to/lastmile_qr_scan", "ios": "https://dc.lft.to/lastmile_qr_scan"}, "type": "electric_scooter"}, {"is_reserved": 0, "is_disabled": 0, "fusion_lon": 0.0, "lat": 38.91348333333333, "name": "3d008cf83805d54a478b319822db79d7", "bike_id": "3d008cf83805d54a478b319822db79d7", "lon": -77.03183216666666, "fusion_lat": 0.0, "rental_uris": {"android": "https://dc.lft.to/lastmile_qr_scan", "ios": "https://dc.lft.to/lastmile_qr_scan"}, "type": "electric_scooter"}, {"is_reserved": 0, "is_disabled": 0, "fusion_lon": 0.0, "lat": 38.92758966666667, "name": "ea52567d82f964d04c8a2627f693e56f", "bike_id": "ea52567d82f964d04c8a2627f693e56f", "lon": -77.02793166666666, "fusion_lat": 0.0, "rental_uris": {"android": "https://dc.lft.to/lastmile_qr_scan", "ios": "https://dc.lft.to/lastmile_qr_scan"}, "type": "electric_scooter"}, {"is_reserved": 0, "is_disabled": 0, "fusion_lon": 0.0, "lat": 38.92339966666667, "name": "ad8527ef3ec9a3b455ae0ecf253a574b", "bike_id": "ad8527ef3ec9a3b455ae0ecf253a574b", "lon": -77.056824, "fusion_lat": 0.0, "rental_uris": {"android": "https://dc.lft.to/lastmile_qr_scan", "ios": "https://dc.lft.to/lastmile_qr_scan"}, "type": "electric_scooter"}, {"is_reserved": 0, "is_disabled": 0, "fusion_lon": 0.0, "lat": 38.868773166666664, "name": "c193b6a64c8767150853efafcc312b80", "bike_id": "c193b6a64c8767150853efafcc312b80", "lon": -76.9866905, "fusion_lat": 0.0, "rental_uris": {"android": "https://dc.lft.to/lastmile_qr_scan", "ios": "https://dc.lft.to/lastmile_qr_scan"}, "type": "electric_scooter"}, {"is_reserved": 0, "is_disabled": 0, "fusion_lon": 0.0, "lat": 38.9207835, "name": "4da9fe68c51a8abe36157650c9d654d0", "bike_id": "4da9fe68c51a8abe36157650c9d654d0", "lon": -77.02304433333333, "fusion_lat": 0.0, "rental_uris": {"android": "https://dc.lft.to/lastmile_qr_scan", "ios": "https://dc.lft.to/lastmile_qr_scan"}, "type": "electric_scooter"}, {"is_reserved": 0, "is_disabled": 0, "fusion_lon": 0.0, "lat": 38.9213865, "name": "6bef968bf7dbe8c1db69b5ec7d36fa8a", "bike_id": "6bef968bf7dbe8c1db69b5ec7d36fa8a", "lon": -77.012161, "fusion_lat": 0.0, "rental_uris": {"android": "https://dc.lft.to/lastmile_qr_scan", "ios": "https://dc.lft.to/lastmile_qr_scan"}, "type": "electric_scooter"}, {"is_reserved": 0, "is_disabled": 0, "fusion_lon": 0.0, "lat": 38.91571866666666, "name": "9e020b90022c14d1ccb43ee42c53eb2d", "bike_id": "9e020b90022c14d1ccb43ee42c53eb2d", "lon": -77.03643783333334, "fusion_lat": 0.0, "rental_uris": {"android": "https://dc.lft.to/lastmile_qr_scan", "ios": "https://dc.lft.to/lastmile_qr_scan"}, "type": "electric_scooter"}, {"is_reserved": 0, "is_disabled": 0, "fusion_lon": 0.0, "lat": 38.9191325, "name": "73db9efdee2fe858714dcfb17d031aeb", "bike_id": "73db9efdee2fe858714dcfb17d031aeb", "lon": -77.033838, "fusion_lat": 0.0, "rental_uris": {"android": "https://dc.lft.to/lastmile_qr_scan", "ios": "https://dc.lft.to/lastmile_qr_scan"}, "type": "electric_scooter"}, {"is_reserved": 0, "is_disabled": 0, "fusion_lon": 0.0, "lat": 38.85446783333333, "name": "cf850a118de9b753f7d13b71be6abe58", "bike_id": "cf850a118de9b753f7d13b71be6abe58", "lon": -77.0832045, "fusion_lat": 0.0, "rental_uris": {"android": "https://dc.lft.to/lastmile_qr_scan", "ios": "https://dc.lft.to/lastmile_qr_scan"}, "type": "electric_bike"}, {"is_reserved": 0, "is_disabled": 0, "fusion_lon": 0.0, "lat": 38.91115216666667, "name": "06890c49a033a85093592c97c4ab8ecb", "bike_id": "06890c49a033a85093592c97c4ab8ecb", "lon": -77.03830483333333, "fusion_lat": 0.0, "rental_uris": {"android": "https://dc.lft.to/lastmile_qr_scan", "ios": "https://dc.lft.to/lastmile_qr_scan"}, "type": "electric_scooter"}, {"is_reserved": 0, "is_disabled": 0, "fusion_lon": 0.0, "lat": 38.934507333333336, "name": "b116b4198987e7fd8acdb6463d2a2cd5", "bike_id": "b116b4198987e7fd8acdb6463d2a2cd5", "lon": -77.02359, "fusion_lat": 0.0, "rental_uris": {"android": "https://dc.lft.to/lastmile_qr_scan", "ios": "https://dc.lft.to/lastmile_qr_scan"}, "type": "electric_scooter"}, {"is_reserved": 0, "is_disabled": 0, "fusion_lon": 0.0, "lat": 38.89731883333333, "name": "2b0e1029b49bd13dc93b086f8dc6f95d", "bike_id": "2b0e1029b49bd13dc93b086f8dc6f95d", "lon": -77.05527066666667, "fusion_lat": 0.0, "rental_uris": {"android": "https://dc.lft.to/lastmile_qr_scan", "ios": "https://dc.lft.to/lastmile_qr_scan"}, "type": "electric_scooter"}, {"is_reserved": 0, "is_disabled": 0, "fusion_lon": 0.0, "lat": 38.87699666666666, "name": "220a2690288e74ddaf59fa22c529471b", "bike_id": "220a2690288e74ddaf59fa22c529471b", "lon": -77.01757783333333, "fusion_lat": 0.0, "rental_uris": {"android": "https://dc.lft.to/lastmile_qr_scan", "ios": "https://dc.lft.to/lastmile_qr_scan"}, "type": "electric_scooter"}, {"is_reserved": 0, "is_disabled": 0, "fusion_lon": 0.0, "lat": 38.89985716666666, "name": "87521283b558af734ae3781de23f98d8", "bike_id": "87521283b558af734ae3781de23f98d8", "lon": -77.00697733333334, "fusion_lat": 0.0, "rental_uris": {"android": "https://dc.lft.to/lastmile_qr_scan", "ios": "https://dc.lft.to/lastmile_qr_scan"}, "type": "electric_scooter"}, {"is_reserved": 0, "is_disabled": 0, "fusion_lon": 0.0, "lat": 38.9300025, "name": "c30e9f3a77007d9f71b31dd7a610a3bb", "bike_id": "c30e9f3a77007d9f71b31dd7a610a3bb", "lon": -77.02212216666666, "fusion_lat": 0.0, "rental_uris": {"android": "https://dc.lft.to/lastmile_qr_scan", "ios": "https://dc.lft.to/lastmile_qr_scan"}, "type": "electric_scooter"}, {"is_reserved": 0, "is_disabled": 0, "fusion_lon": 0.0, "lat": 38.922421, "name": "cce40a08cdf60fdd34ad5dae3020011c", "bike_id": "cce40a08cdf60fdd34ad5dae3020011c", "lon": -77.030778, "fusion_lat": 0.0, "rental_uris": {"android": "https://dc.lft.to/lastmile_qr_scan", "ios": "https://dc.lft.to/lastmile_qr_scan"}, "type": "electric_scooter"}, {"is_reserved": 0, "is_disabled": 0, "fusion_lon": 0.0, "lat": 38.87930683333333, "name": "8697cad5e83f28295eaf73344a749d43", "bike_id": "8697cad5e83f28295eaf73344a749d43", "lon": -77.02044266666667, "fusion_lat": 0.0, "rental_uris": {"android": "https://dc.lft.to/lastmile_qr_scan", "ios": "https://dc.lft.to/lastmile_qr_scan"}, "type": "electric_scooter"}, {"is_reserved": 0, "is_disabled": 0, "fusion_lon": 0.0, "lat": 38.909675166666666, "name": "39d6181f3704ee966eb9e4e7b195bcb8", "bike_id": "39d6181f3704ee966eb9e4e7b195bcb8", "lon": -77.01174683333333, "fusion_lat": 0.0, "rental_uris": {"android": "https://dc.lft.to/lastmile_qr_scan", "ios": "https://dc.lft.to/lastmile_qr_scan"}, "type": "electric_scooter"}, {"is_reserved": 0, "is_disabled": 0, "fusion_lon": 0.0, "lat": 38.89222683333333, "name": "d152ab2fd754f3710767c3c5b8a32e23", "bike_id": "d152ab2fd754f3710767c3c5b8a32e23", "lon": -77.0468475, "fusion_lat": 0.0, "rental_uris": {"android": "https://dc.lft.to/lastmile_qr_scan", "ios": "https://dc.lft.to/lastmile_qr_scan"}, "type": "electric_scooter"}, {"is_reserved": 0, "is_disabled": 0, "fusion_lon": 0.0, "lat": 38.89832766666667, "name": "ab84d5cdc2e5ed8374935bfb3b7a9f21", "bike_id": "ab84d5cdc2e5ed8374935bfb3b7a9f21", "lon": -77.04655133333333, "fusion_lat": 0.0, "rental_uris": {"android": "https://dc.lft.to/lastmile_qr_scan", "ios": "https://dc.lft.to/lastmile_qr_scan"}, "type": "electric_scooter"}, {"is_reserved": 0, "is_disabled": 0, "fusion_lon": 0.0, "lat": 38.924817, "name": "73c10a7b0c63f647ace4a8e4ee5ed53c", "bike_id": "73c10a7b0c63f647ace4a8e4ee5ed53c", "lon": -77.0220465, "fusion_lat": 0.0, "rental_uris": {"android": "https://dc.lft.to/lastmile_qr_scan", "ios": "https://dc.lft.to/lastmile_qr_scan"}, "type": "electric_scooter"}, {"is_reserved": 0, "is_disabled": 0, "fusion_lon": 0.0, "lat": 38.91533883333334, "name": "6e9676ece7a89809e61c74e820e4922e", "bike_id": "6e9676ece7a89809e61c74e820e4922e", "lon": -77.03188166666666, "fusion_lat": 0.0, "rental_uris": {"android": "https://dc.lft.to/lastmile_qr_scan", "ios": "https://dc.lft.to/lastmile_qr_scan"}, "type": "electric_scooter"}, {"is_reserved": 0, "is_disabled": 0, "fusion_lon": 0.0, "lat": 38.88822233333333, "name": "85ac99d724d1152e627dd38386a6c5b0", "bike_id": "85ac99d724d1152e627dd38386a6c5b0", "lon": -76.9770455, "fusion_lat": 0.0, "rental_uris": {"android": "https://dc.lft.to/lastmile_qr_scan", "ios": "https://dc.lft.to/lastmile_qr_scan"}, "type": "electric_scooter"}, {"is_reserved": 0, "is_disabled": 0, "fusion_lon": 0.0, "lat": 38.9165455, "name": "9eb6821b66345ffacb198acb10b42243", "bike_id": "9eb6821b66345ffacb198acb10b42243", "lon": -77.0122395, "fusion_lat": 0.0, "rental_uris": {"android": "https://dc.lft.to/lastmile_qr_scan", "ios": "https://dc.lft.to/lastmile_qr_scan"}, "type": "electric_bike"}, {"is_reserved": 0, "is_disabled": 0, "fusion_lon": 0.0, "lat": 38.9314905, "name": "a447888b471e80f899e0cffbc757fa84", "bike_id": "a447888b471e80f899e0cffbc757fa84", "lon": -77.07847366666667, "fusion_lat": 0.0, "rental_uris": {"android": "https://dc.lft.to/lastmile_qr_scan", "ios": "https://dc.lft.to/lastmile_qr_scan"}, "type": "electric_scooter"}, {"is_reserved": 0, "is_disabled": 0, "fusion_lon": 0.0, "lat": 38.887102166666665, "name": "116e0285d5569a8b39924e5877a71586", "bike_id": "116e0285d5569a8b39924e5877a71586", "lon": -76.98340183333333, "fusion_lat": 0.0, "rental_uris": {"android": "https://dc.lft.to/lastmile_qr_scan", "ios": "https://dc.lft.to/lastmile_qr_scan"}, "type": "electric_scooter"}, {"is_reserved": 0, "is_disabled": 0, "fusion_lon": 0.0, "lat": 38.90162566666667, "name": "aae703172d97a801cd7a2fa8e552d2b6", "bike_id": "aae703172d97a801cd7a2fa8e552d2b6", "lon": -76.9807285, "fusion_lat": 0.0, "rental_uris": {"android": "https://dc.lft.to/lastmile_qr_scan", "ios": "https://dc.lft.to/lastmile_qr_scan"}, "type": "electric_scooter"}, {"is_reserved": 0, "is_disabled": 0, "fusion_lon": 0.0, "lat": 38.926761, "name": "75fa1bdd36667f86567d4764eb09b4f6", "bike_id": "75fa1bdd36667f86567d4764eb09b4f6", "lon": -77.02747, "fusion_lat": 0.0, "rental_uris": {"android": "https://dc.lft.to/lastmile_qr_scan", "ios": "https://dc.lft.to/lastmile_qr_scan"}, "type": "electric_scooter"}, {"is_reserved": 0, "is_disabled": 0, "fusion_lon": 0.0, "lat": 38.87617566666667, "name": "0ead9220bb685e173adb54c7e4c27bb8", "bike_id": "0ead9220bb685e173adb54c7e4c27bb8", "lon": -77.00273983333334, "fusion_lat": 0.0, "rental_uris": {"android": "https://dc.lft.to/lastmile_qr_scan", "ios": "https://dc.lft.to/lastmile_qr_scan"}, "type": "electric_scooter"}, {"is_reserved": 0, "is_disabled": 0, "fusion_lon": 0.0, "lat": 38.909072333333334, "name": "312abaf22fd667ab56f4efbc4c3caab4", "bike_id": "312abaf22fd667ab56f4efbc4c3caab4", "lon": -76.98974133333333, "fusion_lat": 0.0, "rental_uris": {"android": "https://dc.lft.to/lastmile_qr_scan", "ios": "https://dc.lft.to/lastmile_qr_scan"}, "type": "electric_scooter"}, {"is_reserved": 0, "is_disabled": 0, "fusion_lon": 0.0, "lat": 39.029270833333335, "name": "da23e80c209b9f6a58a1673466653fe8", "bike_id": "da23e80c209b9f6a58a1673466653fe8", "lon": -77.01353633333333, "fusion_lat": 0.0, "rental_uris": {"android": "https://dc.lft.to/lastmile_qr_scan", "ios": "https://dc.lft.to/lastmile_qr_scan"}, "type": "electric_bike"}, {"is_reserved": 0, "is_disabled": 0, "fusion_lon": 0.0, "lat": 38.91418683333333, "name": "08e74d379ae65280a5a1f0867515c3f8", "bike_id": "08e74d379ae65280a5a1f0867515c3f8", "lon": -77.05212116666667, "fusion_lat": 0.0, "rental_uris": {"android": "https://dc.lft.to/lastmile_qr_scan", "ios": "https://dc.lft.to/lastmile_qr_scan"}, "type": "electric_scooter"}, {"is_reserved": 0, "is_disabled": 0, "fusion_lon": 0.0, "lat": 38.878595, "name": "2fecaa9613617d435c0a2865272f680f", "bike_id": "2fecaa9613617d435c0a2865272f680f", "lon": -77.00709666666667, "fusion_lat": 0.0, "rental_uris": {"android": "https://dc.lft.to/lastmile_qr_scan", "ios": "https://dc.lft.to/lastmile_qr_scan"}, "type": "electric_scooter"}, {"is_reserved": 0, "is_disabled": 0, "fusion_lon": 0.0, "lat": 38.899897833333334, "name": "6a1f1eaccb0271ac36588d0d61a795bf", "bike_id": "6a1f1eaccb0271ac36588d0d61a795bf", "lon": -77.012076, "fusion_lat": 0.0, "rental_uris": {"android": "https://dc.lft.to/lastmile_qr_scan", "ios": "https://dc.lft.to/lastmile_qr_scan"}, "type": "electric_scooter"}, {"is_reserved": 0, "is_disabled": 0, "fusion_lon": 0.0, "lat": 38.92649766666667, "name": "14f4f81ca9a8995574adecdae7787355", "bike_id": "14f4f81ca9a8995574adecdae7787355", "lon": -77.02411116666667, "fusion_lat": 0.0, "rental_uris": {"android": "https://dc.lft.to/lastmile_qr_scan", "ios": "https://dc.lft.to/lastmile_qr_scan"}, "type": "electric_scooter"}, {"is_reserved": 0, "is_disabled": 0, "fusion_lon": 0.0, "lat": 38.92456833333333, "name": "fa89e4035bb10ac5e84045eb9696636d", "bike_id": "fa89e4035bb10ac5e84045eb9696636d", "lon": -76.999122, "fusion_lat": 0.0, "rental_uris": {"android": "https://dc.lft.to/lastmile_qr_scan", "ios": "https://dc.lft.to/lastmile_qr_scan"}, "type": "electric_scooter"}, {"is_reserved": 0, "is_disabled": 0, "fusion_lon": 0.0, "lat": 38.92471183333333, "name": "81742d86b61bf2fd19f88cab806f12bb", "bike_id": "81742d86b61bf2fd19f88cab806f12bb", "lon": -77.022057, "fusion_lat": 0.0, "rental_uris": {"android": "https://dc.lft.to/lastmile_qr_scan", "ios": "https://dc.lft.to/lastmile_qr_scan"}, "type": "electric_scooter"}, {"is_reserved": 0, "is_disabled": 0, "fusion_lon": 0.0, "lat": 38.93867316666667, "name": "b519e96c0090df91281d88c4c944fabc", "bike_id": "b519e96c0090df91281d88c4c944fabc", "lon": -77.0251605, "fusion_lat": 0.0, "rental_uris": {"android": "https://dc.lft.to/lastmile_qr_scan", "ios": "https://dc.lft.to/lastmile_qr_scan"}, "type": "electric_scooter"}, {"is_reserved": 0, "is_disabled": 0, "fusion_lon": 0.0, "lat": 38.892896, "name": "b3a2fea58926bf72ee5605aef80eb55a", "bike_id": "b3a2fea58926bf72ee5605aef80eb55a", "lon": -76.9761575, "fusion_lat": 0.0, "rental_uris": {"android": "https://dc.lft.to/lastmile_qr_scan", "ios": "https://dc.lft.to/lastmile_qr_scan"}, "type": "electric_bike"}, {"is_reserved": 0, "is_disabled": 0, "fusion_lon": 0.0, "lat": 38.93599583333334, "name": "048e6666358a3390f3050f384b4f3dd0", "bike_id": "048e6666358a3390f3050f384b4f3dd0", "lon": -77.03540883333334, "fusion_lat": 0.0, "rental_uris": {"android": "https://dc.lft.to/lastmile_qr_scan", "ios": "https://dc.lft.to/lastmile_qr_scan"}, "type": "electric_scooter"}, {"is_reserved": 0, "is_disabled": 0, "fusion_lon": 0.0, "lat": 38.92996433333333, "name": "9c26e885fbbac4dc8abda9281db033d5", "bike_id": "9c26e885fbbac4dc8abda9281db033d5", "lon": -77.03775116666667, "fusion_lat": 0.0, "rental_uris": {"android": "https://dc.lft.to/lastmile_qr_scan", "ios": "https://dc.lft.to/lastmile_qr_scan"}, "type": "electric_scooter"}, {"is_reserved": 0, "is_disabled": 0, "fusion_lon": 0.0, "lat": 38.892199166666664, "name": "1eaa254e67eeac069bbc4be91ff94cbe", "bike_id": "1eaa254e67eeac069bbc4be91ff94cbe", "lon": -77.0216255, "fusion_lat": 0.0, "rental_uris": {"android": "https://dc.lft.to/lastmile_qr_scan", "ios": "https://dc.lft.to/lastmile_qr_scan"}, "type": "electric_scooter"}, {"is_reserved": 0, "is_disabled": 0, "fusion_lon": 0.0, "lat": 38.9056525, "name": "46dea838352f6b0d300135263d1367e8", "bike_id": "46dea838352f6b0d300135263d1367e8", "lon": -77.03433183333334, "fusion_lat": 0.0, "rental_uris": {"android": "https://dc.lft.to/lastmile_qr_scan", "ios": "https://dc.lft.to/lastmile_qr_scan"}, "type": "electric_scooter"}, {"is_reserved": 0, "is_disabled": 0, "fusion_lon": 0.0, "lat": 38.90987616666666, "name": "1da288b46c211fa1a89169f29c79bd83", "bike_id": "1da288b46c211fa1a89169f29c79bd83", "lon": -77.04257716666666, "fusion_lat": 0.0, "rental_uris": {"android": "https://dc.lft.to/lastmile_qr_scan", "ios": "https://dc.lft.to/lastmile_qr_scan"}, "type": "electric_scooter"}, {"is_reserved": 0, "is_disabled": 0, "fusion_lon": 0.0, "lat": 38.89969383333333, "name": "fa2eff879e45898917e6bbb551a8b33a", "bike_id": "fa2eff879e45898917e6bbb551a8b33a", "lon": -77.04721716666667, "fusion_lat": 0.0, "rental_uris": {"android": "https://dc.lft.to/lastmile_qr_scan", "ios": "https://dc.lft.to/lastmile_qr_scan"}, "type": "electric_scooter"}, {"is_reserved": 0, "is_disabled": 0, "fusion_lon": 0.0, "lat": 38.9238525, "name": "f0844e228c09a175f5898f8d914cf8af", "bike_id": "f0844e228c09a175f5898f8d914cf8af", "lon": -77.02655066666667, "fusion_lat": 0.0, "rental_uris": {"android": "https://dc.lft.to/lastmile_qr_scan", "ios": "https://dc.lft.to/lastmile_qr_scan"}, "type": "electric_scooter"}, {"is_reserved": 0, "is_disabled": 0, "fusion_lon": 0.0, "lat": 38.807332333333335, "name": "d9b2c091b8a437925aabe792666a53d4", "bike_id": "d9b2c091b8a437925aabe792666a53d4", "lon": -76.99253, "fusion_lat": 0.0, "rental_uris": {"android": "https://dc.lft.to/lastmile_qr_scan", "ios": "https://dc.lft.to/lastmile_qr_scan"}, "type": "electric_bike"}, {"is_reserved": 0, "is_disabled": 0, "fusion_lon": 0.0, "lat": 38.918010333333335, "name": "4e7539bde9959569f5d5279bf51f886e", "bike_id": "4e7539bde9959569f5d5279bf51f886e", "lon": -77.02489966666667, "fusion_lat": 0.0, "rental_uris": {"android": "https://dc.lft.to/lastmile_qr_scan", "ios": "https://dc.lft.to/lastmile_qr_scan"}, "type": "electric_scooter"}, {"is_reserved": 0, "is_disabled": 0, "fusion_lon": 0.0, "lat": 38.9268495, "name": "b04d9dbb1812fa74caa1a7a32d1680da", "bike_id": "b04d9dbb1812fa74caa1a7a32d1680da", "lon": -77.02966283333333, "fusion_lat": 0.0, "rental_uris": {"android": "https://dc.lft.to/lastmile_qr_scan", "ios": "https://dc.lft.to/lastmile_qr_scan"}, "type": "electric_scooter"}, {"is_reserved": 0, "is_disabled": 0, "fusion_lon": 0.0, "lat": 38.92076733333333, "name": "f3ea69459c73c4799435da6ba96eaa51", "bike_id": "f3ea69459c73c4799435da6ba96eaa51", "lon": -77.02392566666667, "fusion_lat": 0.0, "rental_uris": {"android": "https://dc.lft.to/lastmile_qr_scan", "ios": "https://dc.lft.to/lastmile_qr_scan"}, "type": "electric_scooter"}, {"is_reserved": 0, "is_disabled": 0, "fusion_lon": 0.0, "lat": 38.916453, "name": "114b35fd7c59c3ac39ed1ee640ac69b6", "bike_id": "114b35fd7c59c3ac39ed1ee640ac69b6", "lon": -77.0202925, "fusion_lat": 0.0, "rental_uris": {"android": "https://dc.lft.to/lastmile_qr_scan", "ios": "https://dc.lft.to/lastmile_qr_scan"}, "type": "electric_scooter"}, {"is_reserved": 0, "is_disabled": 0, "fusion_lon": 0.0, "lat": 38.91650283333333, "name": "05b8cf157022c9ba21d456ebeff88564", "bike_id": "05b8cf157022c9ba21d456ebeff88564", "lon": -77.03194666666667, "fusion_lat": 0.0, "rental_uris": {"android": "https://dc.lft.to/lastmile_qr_scan", "ios": "https://dc.lft.to/lastmile_qr_scan"}, "type": "electric_scooter"}, {"is_reserved": 0, "is_disabled": 0, "fusion_lon": 0.0, "lat": 38.9009015, "name": "367e813a9a0acae849e41aa3e82c753b", "bike_id": "367e813a9a0acae849e41aa3e82c753b", "lon": -77.04903633333333, "fusion_lat": 0.0, "rental_uris": {"android": "https://dc.lft.to/lastmile_qr_scan", "ios": "https://dc.lft.to/lastmile_qr_scan"}, "type": "electric_scooter"}, {"is_reserved": 0, "is_disabled": 0, "fusion_lon": 0.0, "lat": 38.8972775, "name": "3b6ba90dd8a40e7b2f48ea539e7778f5", "bike_id": "3b6ba90dd8a40e7b2f48ea539e7778f5", "lon": -77.00210083333333, "fusion_lat": 0.0, "rental_uris": {"android": "https://dc.lft.to/lastmile_qr_scan", "ios": "https://dc.lft.to/lastmile_qr_scan"}, "type": "electric_scooter"}, {"is_reserved": 0, "is_disabled": 0, "fusion_lon": 0.0, "lat": 38.92362816666667, "name": "d16b6cf50ba057b43d0ca0efa15f3907", "bike_id": "d16b6cf50ba057b43d0ca0efa15f3907", "lon": -77.05029266666666, "fusion_lat": 0.0, "rental_uris": {"android": "https://dc.lft.to/lastmile_qr_scan", "ios": "https://dc.lft.to/lastmile_qr_scan"}, "type": "electric_scooter"}, {"is_reserved": 0, "is_disabled": 0, "fusion_lon": 0.0, "lat": 38.95084883333333, "name": "2665d0c1c140af3efcb1354ac4ba406a", "bike_id": "2665d0c1c140af3efcb1354ac4ba406a", "lon": -76.99797966666667, "fusion_lat": 0.0, "rental_uris": {"android": "https://dc.lft.to/lastmile_qr_scan", "ios": "https://dc.lft.to/lastmile_qr_scan"}, "type": "electric_scooter"}, {"is_reserved": 0, "is_disabled": 0, "fusion_lon": 0.0, "lat": 38.9181555, "name": "d665e4aee4239fef5260cf948c8dd6bd", "bike_id": "d665e4aee4239fef5260cf948c8dd6bd", "lon": -77.02479033333333, "fusion_lat": 0.0, "rental_uris": {"android": "https://dc.lft.to/lastmile_qr_scan", "ios": "https://dc.lft.to/lastmile_qr_scan"}, "type": "electric_scooter"}, {"is_reserved": 0, "is_disabled": 0, "fusion_lon": 0.0, "lat": 38.884444333333334, "name": "91013b325925c5e0dfe9d9fc0e30b208", "bike_id": "91013b325925c5e0dfe9d9fc0e30b208", "lon": -76.95745816666667, "fusion_lat": 0.0, "rental_uris": {"android": "https://dc.lft.to/lastmile_qr_scan", "ios": "https://dc.lft.to/lastmile_qr_scan"}, "type": "electric_scooter"}, {"is_reserved": 0, "is_disabled": 0, "fusion_lon": 0.0, "lat": 38.920550666666664, "name": "c872a254540530b75a652a723293a2c7", "bike_id": "c872a254540530b75a652a723293a2c7", "lon": -77.04194016666666, "fusion_lat": 0.0, "rental_uris": {"android": "https://dc.lft.to/lastmile_qr_scan", "ios": "https://dc.lft.to/lastmile_qr_scan"}, "type": "electric_scooter"}, {"is_reserved": 0, "is_disabled": 0, "fusion_lon": 0.0, "lat": 38.8922445, "name": "f79ad78961342810fda8ffd9798e50ed", "bike_id": "f79ad78961342810fda8ffd9798e50ed", "lon": -77.04369016666666, "fusion_lat": 0.0, "rental_uris": {"android": "https://dc.lft.to/lastmile_qr_scan", "ios": "https://dc.lft.to/lastmile_qr_scan"}, "type": "electric_scooter"}, {"is_reserved": 0, "is_disabled": 0, "fusion_lon": 0.0, "lat": 38.916025833333336, "name": "5ec7b79fbc72c4cec86d102bf4c48e95", "bike_id": "5ec7b79fbc72c4cec86d102bf4c48e95", "lon": -77.04905416666666, "fusion_lat": 0.0, "rental_uris": {"android": "https://dc.lft.to/lastmile_qr_scan", "ios": "https://dc.lft.to/lastmile_qr_scan"}, "type": "electric_scooter"}, {"is_reserved": 0, "is_disabled": 0, "fusion_lon": 0.0, "lat": 38.91800766666667, "name": "a74d3b00ef6072e26ccf16be42d582bb", "bike_id": "a74d3b00ef6072e26ccf16be42d582bb", "lon": -77.0402195, "fusion_lat": 0.0, "rental_uris": {"android": "https://dc.lft.to/lastmile_qr_scan", "ios": "https://dc.lft.to/lastmile_qr_scan"}, "type": "electric_scooter"}, {"is_reserved": 0, "is_disabled": 0, "fusion_lon": 0.0, "lat": 38.93316, "name": "365fe1c9aadcd140502af503c3499ebc", "bike_id": "365fe1c9aadcd140502af503c3499ebc", "lon": -77.03184983333334, "fusion_lat": 0.0, "rental_uris": {"android": "https://dc.lft.to/lastmile_qr_scan", "ios": "https://dc.lft.to/lastmile_qr_scan"}, "type": "electric_scooter"}, {"is_reserved": 0, "is_disabled": 0, "fusion_lon": 0.0, "lat": 38.892621, "name": "b35bab47370dc53bbab481454dcf9425", "bike_id": "b35bab47370dc53bbab481454dcf9425", "lon": -77.0502395, "fusion_lat": 0.0, "rental_uris": {"android": "https://dc.lft.to/lastmile_qr_scan", "ios": "https://dc.lft.to/lastmile_qr_scan"}, "type": "electric_scooter"}, {"is_reserved": 0, "is_disabled": 0, "fusion_lon": 0.0, "lat": 38.87650566666667, "name": "5a923ce462fce7156e7066ae2204adf6", "bike_id": "5a923ce462fce7156e7066ae2204adf6", "lon": -76.93546833333333, "fusion_lat": 0.0, "rental_uris": {"android": "https://dc.lft.to/lastmile_qr_scan", "ios": "https://dc.lft.to/lastmile_qr_scan"}, "type": "electric_bike"}, {"is_reserved": 0, "is_disabled": 0, "fusion_lon": 0.0, "lat": 38.88478516666667, "name": "133379ac5dbc382e84b0aa930c2071f6", "bike_id": "133379ac5dbc382e84b0aa930c2071f6", "lon": -77.0335325, "fusion_lat": 0.0, "rental_uris": {"android": "https://dc.lft.to/lastmile_qr_scan", "ios": "https://dc.lft.to/lastmile_qr_scan"}, "type": "electric_scooter"}, {"is_reserved": 0, "is_disabled": 0, "fusion_lon": 0.0, "lat": 38.89598866666667, "name": "5462d4e58d35e437ad215fddc38a430b", "bike_id": "5462d4e58d35e437ad215fddc38a430b", "lon": -76.9678245, "fusion_lat": 0.0, "rental_uris": {"android": "https://dc.lft.to/lastmile_qr_scan", "ios": "https://dc.lft.to/lastmile_qr_scan"}, "type": "electric_bike"}, {"is_reserved": 0, "is_disabled": 0, "fusion_lon": 0.0, "lat": 38.921196333333334, "name": "5b53a12b1f4aca5a638dba5ae39cbabe", "bike_id": "5b53a12b1f4aca5a638dba5ae39cbabe", "lon": -77.02070583333334, "fusion_lat": 0.0, "rental_uris": {"android": "https://dc.lft.to/lastmile_qr_scan", "ios": "https://dc.lft.to/lastmile_qr_scan"}, "type": "electric_scooter"}, {"is_reserved": 0, "is_disabled": 0, "fusion_lon": 0.0, "lat": 38.8843425, "name": "2ccdbe069c99161ddb848300047bff0d", "bike_id": "2ccdbe069c99161ddb848300047bff0d", "lon": -77.02384, "fusion_lat": 0.0, "rental_uris": {"android": "https://dc.lft.to/lastmile_qr_scan", "ios": "https://dc.lft.to/lastmile_qr_scan"}, "type": "electric_scooter"}, {"is_reserved": 0, "is_disabled": 0, "fusion_lon": 0.0, "lat": 38.905383, "name": "ae96a400e94615879b9d28e4da9fbb09", "bike_id": "ae96a400e94615879b9d28e4da9fbb09", "lon": -77.0055555, "fusion_lat": 0.0, "rental_uris": {"android": "https://dc.lft.to/lastmile_qr_scan", "ios": "https://dc.lft.to/lastmile_qr_scan"}, "type": "electric_scooter"}, {"is_reserved": 0, "is_disabled": 0, "fusion_lon": 0.0, "lat": 38.926717, "name": "85beeff8b2ac80971b87dee18afad5b9", "bike_id": "85beeff8b2ac80971b87dee18afad5b9", "lon": -77.03232383333334, "fusion_lat": 0.0, "rental_uris": {"android": "https://dc.lft.to/lastmile_qr_scan", "ios": "https://dc.lft.to/lastmile_qr_scan"}, "type": "electric_scooter"}, {"is_reserved": 0, "is_disabled": 0, "fusion_lon": 0.0, "lat": 38.9267365, "name": "8724069190ca9d4d637ba4ffe4ceff22", "bike_id": "8724069190ca9d4d637ba4ffe4ceff22", "lon": -77.02744533333333, "fusion_lat": 0.0, "rental_uris": {"android": "https://dc.lft.to/lastmile_qr_scan", "ios": "https://dc.lft.to/lastmile_qr_scan"}, "type": "electric_scooter"}, {"is_reserved": 0, "is_disabled": 0, "fusion_lon": 0.0, "lat": 38.90686933333333, "name": "5dac128af1d6bca1b61ea541cb95e730", "bike_id": "5dac128af1d6bca1b61ea541cb95e730", "lon": -77.02693383333333, "fusion_lat": 0.0, "rental_uris": {"android": "https://dc.lft.to/lastmile_qr_scan", "ios": "https://dc.lft.to/lastmile_qr_scan"}, "type": "electric_scooter"}, {"is_reserved": 0, "is_disabled": 0, "fusion_lon": 0.0, "lat": 38.92915166666667, "name": "6f4d9ae4c41ac1bdc1b9126fa0835b5d", "bike_id": "6f4d9ae4c41ac1bdc1b9126fa0835b5d", "lon": -77.03252866666666, "fusion_lat": 0.0, "rental_uris": {"android": "https://dc.lft.to/lastmile_qr_scan", "ios": "https://dc.lft.to/lastmile_qr_scan"}, "type": "electric_scooter"}, {"is_reserved": 0, "is_disabled": 0, "fusion_lon": 0.0, "lat": 38.921669333333334, "name": "32646eebbb19e6b73287110ed731f115", "bike_id": "32646eebbb19e6b73287110ed731f115", "lon": -77.03327816666666, "fusion_lat": 0.0, "rental_uris": {"android": "https://dc.lft.to/lastmile_qr_scan", "ios": "https://dc.lft.to/lastmile_qr_scan"}, "type": "electric_scooter"}, {"is_reserved": 0, "is_disabled": 0, "fusion_lon": 0.0, "lat": 38.91722166666667, "name": "f388a78c730ccba14911a37941f3ef84", "bike_id": "f388a78c730ccba14911a37941f3ef84", "lon": -77.02695816666666, "fusion_lat": 0.0, "rental_uris": {"android": "https://dc.lft.to/lastmile_qr_scan", "ios": "https://dc.lft.to/lastmile_qr_scan"}, "type": "electric_scooter"}, {"is_reserved": 0, "is_disabled": 0, "fusion_lon": 0.0, "lat": 38.88625066666667, "name": "76b93cd7fe01adf02540725859e69e13", "bike_id": "76b93cd7fe01adf02540725859e69e13", "lon": -77.03165816666667, "fusion_lat": 0.0, "rental_uris": {"android": "https://dc.lft.to/lastmile_qr_scan", "ios": "https://dc.lft.to/lastmile_qr_scan"}, "type": "electric_scooter"}, {"is_reserved": 0, "is_disabled": 0, "fusion_lon": 0.0, "lat": 38.897535500000004, "name": "3616e5673c3b0ce1821934363773b925", "bike_id": "3616e5673c3b0ce1821934363773b925", "lon": -77.01904233333333, "fusion_lat": 0.0, "rental_uris": {"android": "https://dc.lft.to/lastmile_qr_scan", "ios": "https://dc.lft.to/lastmile_qr_scan"}, "type": "electric_scooter"}, {"is_reserved": 0, "is_disabled": 0, "fusion_lon": 0.0, "lat": 38.9141925, "name": "9aa1d793abc100a903af428680f0b778", "bike_id": "9aa1d793abc100a903af428680f0b778", "lon": -77.03168866666667, "fusion_lat": 0.0, "rental_uris": {"android": "https://dc.lft.to/lastmile_qr_scan", "ios": "https://dc.lft.to/lastmile_qr_scan"}, "type": "electric_scooter"}, {"is_reserved": 0, "is_disabled": 0, "fusion_lon": 0.0, "lat": 38.897535500000004, "name": "41f882644bf821bbb7180d3ed2bbc64c", "bike_id": "41f882644bf821bbb7180d3ed2bbc64c", "lon": -77.02696583333334, "fusion_lat": 0.0, "rental_uris": {"android": "https://dc.lft.to/lastmile_qr_scan", "ios": "https://dc.lft.to/lastmile_qr_scan"}, "type": "electric_scooter"}, {"is_reserved": 0, "is_disabled": 0, "fusion_lon": 0.0, "lat": 38.783133166666666, "name": "849edbe89e57547f6dcd959a111a8623", "bike_id": "849edbe89e57547f6dcd959a111a8623", "lon": -77.11407516666667, "fusion_lat": 0.0, "rental_uris": {"android": "https://dc.lft.to/lastmile_qr_scan", "ios": "https://dc.lft.to/lastmile_qr_scan"}, "type": "electric_bike"}, {"is_reserved": 0, "is_disabled": 0, "fusion_lon": 0.0, "lat": 38.922752, "name": "ac5365d3d5e029c832e46fa6925a87a3", "bike_id": "ac5365d3d5e029c832e46fa6925a87a3", "lon": -77.029669, "fusion_lat": 0.0, "rental_uris": {"android": "https://dc.lft.to/lastmile_qr_scan", "ios": "https://dc.lft.to/lastmile_qr_scan"}, "type": "electric_scooter"}, {"is_reserved": 0, "is_disabled": 0, "fusion_lon": 0.0, "lat": 38.9449245, "name": "4212e32bff2f27b75c98e5a81eb4c304", "bike_id": "4212e32bff2f27b75c98e5a81eb4c304", "lon": -77.06379916666667, "fusion_lat": 0.0, "rental_uris": {"android": "https://dc.lft.to/lastmile_qr_scan", "ios": "https://dc.lft.to/lastmile_qr_scan"}, "type": "electric_scooter"}, {"is_reserved": 0, "is_disabled": 0, "fusion_lon": 0.0, "lat": 38.8933675, "name": "83554c6912824f7476ea716f729a9d82", "bike_id": "83554c6912824f7476ea716f729a9d82", "lon": -76.93929466666667, "fusion_lat": 0.0, "rental_uris": {"android": "https://dc.lft.to/lastmile_qr_scan", "ios": "https://dc.lft.to/lastmile_qr_scan"}, "type": "electric_scooter"}, {"is_reserved": 0, "is_disabled": 0, "fusion_lon": 0.0, "lat": 38.901780333333335, "name": "e93da294b2c1f27507599718eb6ad083", "bike_id": "e93da294b2c1f27507599718eb6ad083", "lon": -77.0012195, "fusion_lat": 0.0, "rental_uris": {"android": "https://dc.lft.to/lastmile_qr_scan", "ios": "https://dc.lft.to/lastmile_qr_scan"}, "type": "electric_scooter"}, {"is_reserved": 0, "is_disabled": 0, "fusion_lon": 0.0, "lat": 38.920646833333336, "name": "97de6105635bf710ca51aa474047d3ac", "bike_id": "97de6105635bf710ca51aa474047d3ac", "lon": -77.0239015, "fusion_lat": 0.0, "rental_uris": {"android": "https://dc.lft.to/lastmile_qr_scan", "ios": "https://dc.lft.to/lastmile_qr_scan"}, "type": "electric_scooter"}, {"is_reserved": 0, "is_disabled": 0, "fusion_lon": 0.0, "lat": 38.87584183333333, "name": "ff5a35b98020fc0ab61919ec1577d6d5", "bike_id": "ff5a35b98020fc0ab61919ec1577d6d5", "lon": -77.00581683333333, "fusion_lat": 0.0, "rental_uris": {"android": "https://dc.lft.to/lastmile_qr_scan", "ios": "https://dc.lft.to/lastmile_qr_scan"}, "type": "electric_scooter"}, {"is_reserved": 0, "is_disabled": 0, "fusion_lon": 0.0, "lat": 38.923365, "name": "c67ccd2976c1748bd24ac8cef59861ff", "bike_id": "c67ccd2976c1748bd24ac8cef59861ff", "lon": -77.05678433333334, "fusion_lat": 0.0, "rental_uris": {"android": "https://dc.lft.to/lastmile_qr_scan", "ios": "https://dc.lft.to/lastmile_qr_scan"}, "type": "electric_scooter"}, {"is_reserved": 0, "is_disabled": 0, "fusion_lon": 0.0, "lat": 38.895996333333336, "name": "f7d557896c24a4599a28d958b9335de7", "bike_id": "f7d557896c24a4599a28d958b9335de7", "lon": -77.04648566666667, "fusion_lat": 0.0, "rental_uris": {"android": "https://dc.lft.to/lastmile_qr_scan", "ios": "https://dc.lft.to/lastmile_qr_scan"}, "type": "electric_scooter"}, {"is_reserved": 0, "is_disabled": 0, "fusion_lon": 0.0, "lat": 38.85244183333333, "name": "430df4a00d9df878d06cf0bf8aeec39f", "bike_id": "430df4a00d9df878d06cf0bf8aeec39f", "lon": -77.11426783333333, "fusion_lat": 0.0, "rental_uris": {"android": "https://dc.lft.to/lastmile_qr_scan", "ios": "https://dc.lft.to/lastmile_qr_scan"}, "type": "electric_bike"}, {"is_reserved": 0, "is_disabled": 0, "fusion_lon": 0.0, "lat": 38.909299833333336, "name": "1c1876024f611ed15db06fb0c13b630a", "bike_id": "1c1876024f611ed15db06fb0c13b630a", "lon": -76.98470266666666, "fusion_lat": 0.0, "rental_uris": {"android": "https://dc.lft.to/lastmile_qr_scan", "ios": "https://dc.lft.to/lastmile_qr_scan"}, "type": "electric_scooter"}, {"is_reserved": 0, "is_disabled": 0, "fusion_lon": 0.0, "lat": 38.90669183333333, "name": "c145eafa77180e19a229c66eb9795a5f", "bike_id": "c145eafa77180e19a229c66eb9795a5f", "lon": -77.0271575, "fusion_lat": 0.0, "rental_uris": {"android": "https://dc.lft.to/lastmile_qr_scan", "ios": "https://dc.lft.to/lastmile_qr_scan"}, "type": "electric_scooter"}, {"is_reserved": 0, "is_disabled": 0, "fusion_lon": 0.0, "lat": 38.988404, "name": "72a00f50bb0b9a87e8d6e864005a73e4", "bike_id": "72a00f50bb0b9a87e8d6e864005a73e4", "lon": -77.02651116666667, "fusion_lat": 0.0, "rental_uris": {"android": "https://dc.lft.to/lastmile_qr_scan", "ios": "https://dc.lft.to/lastmile_qr_scan"}, "type": "electric_bike"}, {"is_reserved": 0, "is_disabled": 0, "fusion_lon": 0.0, "lat": 38.938683, "name": "389f54134e96c42df983edd2afd37589", "bike_id": "389f54134e96c42df983edd2afd37589", "lon": -77.02518616666667, "fusion_lat": 0.0, "rental_uris": {"android": "https://dc.lft.to/lastmile_qr_scan", "ios": "https://dc.lft.to/lastmile_qr_scan"}, "type": "electric_scooter"}, {"is_reserved": 0, "is_disabled": 0, "fusion_lon": 0.0, "lat": 38.897409333333336, "name": "7c3307dcf9d04dc17f71423762ae0c6d", "bike_id": "7c3307dcf9d04dc17f71423762ae0c6d", "lon": -77.0092765, "fusion_lat": 0.0, "rental_uris": {"android": "https://dc.lft.to/lastmile_qr_scan", "ios": "https://dc.lft.to/lastmile_qr_scan"}, "type": "electric_scooter"}, {"is_reserved": 0, "is_disabled": 0, "fusion_lon": 0.0, "lat": 38.90958283333333, "name": "7974923e28b409b24081914dacbd61c6", "bike_id": "7974923e28b409b24081914dacbd61c6", "lon": -77.0231215, "fusion_lat": 0.0, "rental_uris": {"android": "https://dc.lft.to/lastmile_qr_scan", "ios": "https://dc.lft.to/lastmile_qr_scan"}, "type": "electric_scooter"}, {"is_reserved": 0, "is_disabled": 0, "fusion_lon": 0.0, "lat": 38.932616833333334, "name": "56f3f790e3cccda41d0184017add3c31", "bike_id": "56f3f790e3cccda41d0184017add3c31", "lon": -77.03284133333334, "fusion_lat": 0.0, "rental_uris": {"android": "https://dc.lft.to/lastmile_qr_scan", "ios": "https://dc.lft.to/lastmile_qr_scan"}, "type": "electric_scooter"}, {"is_reserved": 0, "is_disabled": 0, "fusion_lon": 0.0, "lat": 38.91546016666667, "name": "1c3291d5af49463d7295bf26372cf00e", "bike_id": "1c3291d5af49463d7295bf26372cf00e", "lon": -77.03641183333333, "fusion_lat": 0.0, "rental_uris": {"android": "https://dc.lft.to/lastmile_qr_scan", "ios": "https://dc.lft.to/lastmile_qr_scan"}, "type": "electric_scooter"}, {"is_reserved": 0, "is_disabled": 0, "fusion_lon": 0.0, "lat": 38.91412316666667, "name": "c1ff307e60a339b678c000f216990f2f", "bike_id": "c1ff307e60a339b678c000f216990f2f", "lon": -77.0326295, "fusion_lat": 0.0, "rental_uris": {"android": "https://dc.lft.to/lastmile_qr_scan", "ios": "https://dc.lft.to/lastmile_qr_scan"}, "type": "electric_scooter"}, {"is_reserved": 0, "is_disabled": 0, "fusion_lon": 0.0, "lat": 38.92896966666667, "name": "36762c812dc65c48719617a40f2f985f", "bike_id": "36762c812dc65c48719617a40f2f985f", "lon": -76.984323, "fusion_lat": 0.0, "rental_uris": {"android": "https://dc.lft.to/lastmile_qr_scan", "ios": "https://dc.lft.to/lastmile_qr_scan"}, "type": "electric_scooter"},