{"data": {"bikes": [{"fusion_lat": 0.0, "lon": -77.0370175, "is_reserved": 0, "bike_id": "f2641b8c3107f02669c65ff538890d98", "fusion_lon": 0.0, "rental_uris": {"android": "https://dc.lft.to/lastmile_qr_scan", "ios": "https://dc.lft.to/lastmile_qr_scan"}, "name": "f2641b8c3107f02669c65ff538890d98", "type": "electric_scooter", "lat": 38.90365516666667, "is_disabled": 0}, {"fusion_lat": 0.0, "lon": -77.0029445, "is_reserved": 0, "bike_id": "0925b6055db7681d0110ecb6c8e954d5", "fusion_lon": 0.0, "rental_uris": {"android": "https://dc.lft.to/lastmile_qr_scan", "ios": "https://dc.lft.to/lastmile_qr_scan"}, "name": "0925b6055db7681d0110ecb6c8e954d5", "type": "electric_scooter", "lat": 38.8949215, "is_disabled": 0}, {"fusion_lat": 0.0, "lon": -76.91968466666667, "is_reserved": 0, "bike_id": "7a41f838e6bd5d302db445595e257a75", "fusion_lon": 0.0, "rental_uris": {"android": "https://dc.lft.to/lastmile_qr_scan", "ios": "https://dc.lft.to/lastmile_qr_scan"}, "name": "7a41f838e6bd5d302db445595e257a75", "type": "electric_scooter", "lat": 38.90028683333333, "is_disabled": 0}, {"fusion_lat": 0.0, "lon": -77.04649716666667, "is_reserved": 0, "bike_id": "7c68301158752c6ad510e396f00ce712", "fusion_lon": 0.0, "rental_uris": {"android": "https://dc.lft.to/lastmile_qr_scan", "ios": "https://dc.lft.to/lastmile_qr_scan"}, "name": "7c68301158752c6ad510e396f00ce712", "type": "electric_scooter", "lat": 38.909756, "is_disabled": 0}, {"fusion_lat": 0.0, "lon": -77.03912333333334, "is_reserved": 0, "bike_id": "d5f9e527b7b68f64ac4f9b0e778a3899", "fusion_lon": 0.0, "rental_uris": {"android": "https://dc.lft.to/lastmile_qr_scan", "ios": "https://dc.lft.to/lastmile_qr_scan"}, "name": "d5f9e527b7b68f64ac4f9b0e778a3899", "type": "electric_scooter", "lat": 38.924138, "is_disabled": 0}, {"fusion_lat": 0.0, "lon": -77.0309195, "is_reserved": 0, "bike_id": "b0bc850706ec0f9449f651c222e191d0", "fusion_lon": 0.0, "rental_uris": {"android": "https://dc.lft.to/lastmile_qr_scan", "ios": "https://dc.lft.to/lastmile_qr_scan"}, "name": "b0bc850706ec0f9449f651c222e191d0", "type": "electric_scooter", "lat": 38.899817166666665, "is_disabled": 0}, {"fusion_lat": 0.0, "lon": -77.03236316666667, "is_reserved": 0, "bike_id": "d20d4fad7cc12571f6c563be8027f34a", "fusion_lon": 0.0, "rental_uris": {"android": "https://dc.lft.to/lastmile_qr_scan", "ios": "https://dc.lft.to/lastmile_qr_scan"}, "name": "d20d4fad7cc12571f6c563be8027f34a", "type": "electric_scooter", "lat": 38.928690333333336, "is_disabled": 0}, {"fusion_lat": 0.0, "lon": -77.00623933333334, "is_reserved": 0, "bike_id": "7e34d8cde423f81de40bd9b667d25148", "fusion_lon": 0.0, "rental_uris": {"android": "https://dc.lft.to/lastmile_qr_scan", "ios": "https://dc.lft.to/lastmile_qr_scan"}, "name": "7e34d8cde423f81de40bd9b667d25148", "type": "electric_scooter", "lat": 38.83273366666667, "is_disabled": 0}, {"fusion_lat": 0.0, "lon": -77.03177483333333, "is_reserved": 0, "bike_id": "8501be56424b340dc579293239791008", "fusion_lon": 0.0, "rental_uris": {"android": "https://dc.lft.to/lastmile_qr_scan", "ios": "https://dc.lft.to/lastmile_qr_scan"}, "name": "8501be56424b340dc579293239791008", "type": "electric_scooter", "lat": 38.9180695, "is_disabled": 0}, {"fusion_lat": 0.0, "lon": -77.0346685, "is_reserved": 0, "bike_id": "f498a3a0a17d830dfd81e952cf7cbbe2", "fusion_lon": 0.0, "rental_uris": {"android": "https://dc.lft.to/lastmile_qr_scan", "ios": "https://dc.lft.to/lastmile_qr_scan"}, "name": "f498a3a0a17d830dfd81e952cf7cbbe2", "type": "electric_scooter", "lat": 38.90661166666667, "is_disabled": 0}, {"fusion_lat": 0.0, "lon": -76.98400133333334, "is_reserved": 0, "bike_id": "6121cb360b1884d56ac2facc0682bdd8", "fusion_lon": 0.0, "rental_uris": {"android": "https://dc.lft.to/lastmile_qr_scan", "ios": "https://dc.lft.to/lastmile_qr_scan"}, "name": "6121cb360b1884d56ac2facc0682bdd8", "type": "electric_scooter", "lat": 38.866994166666665, "is_disabled": 0}, {"fusion_lat": 0.0, "lon": -76.92920483333333, "is_reserved": 0, "bike_id": "b31ee1a54d44d96d64d538a7aecccfbb", "fusion_lon": 0.0, "rental_uris": {"android": "https://dc.lft.to/lastmile_qr_scan", "ios": "https://dc.lft.to/lastmile_qr_scan"}, "name": "b31ee1a54d44d96d64d538a7aecccfbb", "type": "electric_scooter", "lat": 38.892972, "is_disabled": 0}, {"fusion_lat": 0.0, "lon": -77.075858, "is_reserved": 0, "bike_id": "bcb860f936575cda8c3d206fe4d11503", "fusion_lon": 0.0, "rental_uris": {"android": "https://dc.lft.to/lastmile_qr_scan", "ios": "https://dc.lft.to/lastmile_qr_scan"}, "name": "bcb860f936575cda8c3d206fe4d11503", "type": "electric_scooter", "lat": 38.912723, "is_disabled": 0}, {"fusion_lat": 0.0, "lon": -77.0447285, "is_reserved": 0, "bike_id": "1b1cc8a603d7c20ec3b57bd1b203ff60", "fusion_lon": 0.0, "rental_uris": {"android": "https://dc.lft.to/lastmile_qr_scan", "ios": "https://dc.lft.to/lastmile_qr_scan"}, "name": "1b1cc8a603d7c20ec3b57bd1b203ff60", "type": "electric_scooter", "lat": 38.9039035, "is_disabled": 0}, {"fusion_lat": 0.0, "lon": -77.03636783333333, "is_reserved": 0, "bike_id": "c5e50f369ebebd6b95c4bb1af339bd3a", "fusion_lon": 0.0, "rental_uris": {"android": "https://dc.lft.to/lastmile_qr_scan", "ios": "https://dc.lft.to/lastmile_qr_scan"}, "name": "c5e50f369ebebd6b95c4bb1af339bd3a", "type": "electric_scooter", "lat": 38.92115233333333, "is_disabled": 0}, {"fusion_lat": 0.0, "lon": -77.02802533333333, "is_reserved": 0, "bike_id": "23d512c7421372a1ccb0f94198355d0a", "fusion_lon": 0.0, "rental_uris": {"android": "https://dc.lft.to/lastmile_qr_scan", "ios": "https://dc.lft.to/lastmile_qr_scan"}, "name": "23d512c7421372a1ccb0f94198355d0a", "type": "electric_scooter", "lat": 38.909779, "is_disabled": 0}, {"fusion_lat": 0.0, "lon": -76.98107366666666, "is_reserved": 0, "bike_id": "ec56352a51b874989c30c6f09ca0649f", "fusion_lon": 0.0, "rental_uris": {"android": "https://dc.lft.to/lastmile_qr_scan", "ios": "https://dc.lft.to/lastmile_qr_scan"}, "name": "ec56352a51b874989c30c6f09ca0649f", "type": "electric_scooter", "lat": 38.903938833333335, "is_disabled": 0}, {"fusion_lat": 0.0, "lon": -77.04248783333334, "is_reserved": 0, "bike_id": "839e354b9accd9cd18c9ae84cb903a46", "fusion_lon": 0.0, "rental_uris": {"android": "https://dc.lft.to/lastmile_qr_scan", "ios": "https://dc.lft.to/lastmile_qr_scan"}, "name": "839e354b9accd9cd18c9ae84cb903a46", "type": "electric_scooter", "lat": 38.91701166666667, "is_disabled": 0}, {"fusion_lat": 0.0, "lon": -76.98523716666666, "is_reserved": 0, "bike_id": "818658c69f91ae82a863eae6f17710d8", "fusion_lon": 0.0, "rental_uris": {"android": "https://dc.lft.to/lastmile_qr_scan", "ios": "https://dc.lft.to/lastmile_qr_scan"}, "name": "818658c69f91ae82a863eae6f17710d8", "type": "electric_scooter", "lat": 38.866594, "is_disabled": 0}, {"fusion_lat": 0.0, "lon": -77.04662633333334, "is_reserved": 0, "bike_id": "9febfa2177597cbf6415b419246349b0", "fusion_lon": 0.0, "rental_uris": {"android": "https://dc.lft.to/lastmile_qr_scan", "ios": "https://dc.lft.to/lastmile_qr_scan"}, "name": "9febfa2177597cbf6415b419246349b0", "type": "electric_scooter", "lat": 38.90332866666667, "is_disabled": 0}, {"fusion_lat": 0.0, "lon": -77.0276815, "is_reserved": 0, "bike_id": "a2e8af0aa919cda3e399e3415ae6fccf", "fusion_lon": 0.0, "rental_uris": {"android": "https://dc.lft.to/lastmile_qr_scan", "ios": "https://dc.lft.to/lastmile_qr_scan"}, "name": "a2e8af0aa919cda3e399e3415ae6fccf", "type": "electric_scooter", "lat": 38.92978516666667, "is_disabled": 0}, {"fusion_lat": 0.0, "lon": -77.00063883333333, "is_reserved": 0, "bike_id": "a9bcc5a12b06ab9a8927a36ef38c0020", "fusion_lon": 0.0, "rental_uris": {"android": "https://dc.lft.to/lastmile_qr_scan", "ios": "https://dc.lft.to/lastmile_qr_scan"}, "name": "a9bcc5a12b06ab9a8927a36ef38c0020", "type": "electric_scooter", "lat": 38.8998355, "is_disabled": 0}, {"fusion_lat": 0.0, "lon": -76.990156, "is_reserved": 0, "bike_id": "a124c0860e850146f42dc9e287455c01", "fusion_lon": 0.0, "rental_uris": {"android": "https://dc.lft.to/lastmile_qr_scan", "ios": "https://dc.lft.to/lastmile_qr_scan"}, "name": "a124c0860e850146f42dc9e287455c01", "type": "electric_scooter", "lat": 38.881833666666665, "is_disabled": 0}, {"fusion_lat": 0.0, "lon": -77.02556866666667, "is_reserved": 0, "bike_id": "900a47892e34976935e6a1d7af9993aa", "fusion_lon": 0.0, "rental_uris": {"android": "https://dc.lft.to/lastmile_qr_scan", "ios": "https://dc.lft.to/lastmile_qr_scan"}, "name": "900a47892e34976935e6a1d7af9993aa", "type": "electric_scooter", "lat": 38.92084333333333, "is_disabled": 0}, {"fusion_lat": 0.0, "lon": -77.03290633333333, "is_reserved": 0, "bike_id": "065b9b5b22932b32f573622455fd710e", "fusion_lon": 0.0, "rental_uris": {"android": "https://dc.lft.to/lastmile_qr_scan", "ios": "https://dc.lft.to/lastmile_qr_scan"}, "name": "065b9b5b22932b32f573622455fd710e", "type": "electric_scooter", "lat": 38.928299, "is_disabled": 0}, {"fusion_lat": 0.0, "lon": -77.04324833333334, "is_reserved": 0, "bike_id": "78a8d4893441e3ffb51526e597eb9234", "fusion_lon": 0.0, "rental_uris": {"android": "https://dc.lft.to/lastmile_qr_scan", "ios": "https://dc.lft.to/lastmile_qr_scan"}, "name": "78a8d4893441e3ffb51526e597eb9234", "type": "electric_scooter", "lat": 38.892234333333334, "is_disabled": 0}, {"fusion_lat": 0.0, "lon": -77.0072465, "is_reserved": 0, "bike_id": "81547c5c9de851cef9fefda81a95eef9", "fusion_lon": 0.0, "rental_uris": {"android": "https://dc.lft.to/lastmile_qr_scan", "ios": "https://dc.lft.to/lastmile_qr_scan"}, "name": "81547c5c9de851cef9fefda81a95eef9", "type": "electric_scooter", "lat": 38.9057255, "is_disabled": 0}, {"fusion_lat": 0.0, "lon": -77.03481233333333, "is_reserved": 0, "bike_id": "087262933392116f63085c19ef6fff27", "fusion_lon": 0.0, "rental_uris": {"android": "https://dc.lft.to/lastmile_qr_scan", "ios": "https://dc.lft.to/lastmile_qr_scan"}, "name": "087262933392116f63085c19ef6fff27", "type": "electric_scooter", "lat": 38.90557666666667, "is_disabled": 0}, {"fusion_lat": 0.0, "lon": -77.0322025, "is_reserved": 0, "bike_id": "d478a326e11dcab72bec67af042f4363", "fusion_lon": 0.0, "rental_uris": {"android": "https://dc.lft.to/lastmile_qr_scan", "ios": "https://dc.lft.to/lastmile_qr_scan"}, "name": "d478a326e11dcab72bec67af042f4363", "type": "electric_scooter", "lat": 38.91772366666667, "is_disabled": 0}, {"fusion_lat": 0.0, "lon": -76.98095066666667, "is_reserved": 0, "bike_id": "737c7d0e0a9f1e87ec2b40b2a0e2561d", "fusion_lon": 0.0, "rental_uris": {"android": "https://dc.lft.to/lastmile_qr_scan", "ios": "https://dc.lft.to/lastmile_qr_scan"}, "name": "737c7d0e0a9f1e87ec2b40b2a0e2561d", "type": "electric_bike", "lat": 38.953574333333336, "is_disabled": 0}, {"fusion_lat": 0.0, "lon": -77.01972166666667, "is_reserved": 0, "bike_id": "87555a25d0a1d9d8892b46e160774cb9", "fusion_lon": 0.0, "rental_uris": {"android": "https://dc.lft.to/lastmile_qr_scan", "ios": "https://dc.lft.to/lastmile_qr_scan"}, "name": "87555a25d0a1d9d8892b46e160774cb9", "type": "electric_scooter", "lat": 38.9127735, "is_disabled": 0}, {"fusion_lat": 0.0, "lon": -77.01979616666667, "is_reserved": 0, "bike_id": "050d66a7a6934a893cfb3b15d5373ba3", "fusion_lon": 0.0, "rental_uris": {"android": "https://dc.lft.to/lastmile_qr_scan", "ios": "https://dc.lft.to/lastmile_qr_scan"}, "name": "050d66a7a6934a893cfb3b15d5373ba3", "type": "electric_scooter", "lat": 38.91103866666667, "is_disabled": 0}, {"fusion_lat": 0.0, "lon": -77.0103525, "is_reserved": 0, "bike_id": "b40482326c5b6d459000260b580c5fa3", "fusion_lon": 0.0, "rental_uris": {"android": "https://dc.lft.to/lastmile_qr_scan", "ios": "https://dc.lft.to/lastmile_qr_scan"}, "name": "b40482326c5b6d459000260b580c5fa3", "type": "electric_scooter", "lat": 38.9191285, "is_disabled": 0}, {"fusion_lat": 0.0, "lon": -77.0239345, "is_reserved": 0, "bike_id": "6e128e783c866a11a325dfb0686e3540", "fusion_lon": 0.0, "rental_uris": {"android": "https://dc.lft.to/lastmile_qr_scan", "ios": "https://dc.lft.to/lastmile_qr_scan"}, "name": "6e128e783c866a11a325dfb0686e3540", "type": "electric_scooter", "lat": 38.91991683333333, "is_disabled": 0}, {"fusion_lat": 0.0, "lon": -77.03142516666666, "is_reserved": 0, "bike_id": "04d2c01bf6c65879829037e4be816051", "fusion_lon": 0.0, "rental_uris": {"android": "https://dc.lft.to/lastmile_qr_scan", "ios": "https://dc.lft.to/lastmile_qr_scan"}, "name": "04d2c01bf6c65879829037e4be816051", "type": "electric_scooter", "lat": 38.925703666666664, "is_disabled": 0}, {"fusion_lat": 0.0, "lon": -77.026069, "is_reserved": 0, "bike_id": "432a2e8e3362fe3ff30292767d6d9d87", "fusion_lon": 0.0, "rental_uris": {"android": "https://dc.lft.to/lastmile_qr_scan", "ios": "https://dc.lft.to/lastmile_qr_scan"}, "name": "432a2e8e3362fe3ff30292767d6d9d87", "type": "electric_scooter", "lat": 38.9086445, "is_disabled": 0}, {"fusion_lat": 0.0, "lon": -77.01345933333333, "is_reserved": 0, "bike_id": "f458f9f2902d25157740761949af0018", "fusion_lon": 0.0, "rental_uris": {"android": "https://dc.lft.to/lastmile_qr_scan", "ios": "https://dc.lft.to/lastmile_qr_scan"}, "name": "f458f9f2902d25157740761949af0018", "type": "electric_scooter", "lat": 38.8697415, "is_disabled": 0}, {"fusion_lat": 0.0, "lon": -77.03515016666667, "is_reserved": 0, "bike_id": "f3d001a5a9c0e360719db73ae38b2677", "fusion_lon": 0.0, "rental_uris": {"android": "https://dc.lft.to/lastmile_qr_scan", "ios": "https://dc.lft.to/lastmile_qr_scan"}, "name": "f3d001a5a9c0e360719db73ae38b2677", "type": "electric_scooter", "lat": 38.921583166666665, "is_disabled": 0}, {"fusion_lat": 0.0, "lon": -77.02446883333333, "is_reserved": 0, "bike_id": "03c82b031fb21cf4cabbe8bafb80b652", "fusion_lon": 0.0, "rental_uris": {"android": "https://dc.lft.to/lastmile_qr_scan", "ios": "https://dc.lft.to/lastmile_qr_scan"}, "name": "03c82b031fb21cf4cabbe8bafb80b652", "type": "electric_scooter", "lat": 38.920528, "is_disabled": 0}, {"fusion_lat": 0.0, "lon": -77.04872283333333, "is_reserved": 0, "bike_id": "5442a250ae8c960ec242514d32b36e7d", "fusion_lon": 0.0, "rental_uris": {"android": "https://dc.lft.to/lastmile_qr_scan", "ios": "https://dc.lft.to/lastmile_qr_scan"}, "name": "5442a250ae8c960ec242514d32b36e7d", "type": "electric_scooter", "lat": 38.90978616666666, "is_disabled": 0}, {"fusion_lat": 0.0, "lon": -76.9954875, "is_reserved": 0, "bike_id": "5f651f0455714592e8f9db1486a747da", "fusion_lon": 0.0, "rental_uris": {"android": "https://dc.lft.to/lastmile_qr_scan", "ios": "https://dc.lft.to/lastmile_qr_scan"}, "name": "5f651f0455714592e8f9db1486a747da", "type": "electric_scooter", "lat": 38.8625935, "is_disabled": 0}, {"fusion_lat": 0.0, "lon": -76.931329, "is_reserved": 0, "bike_id": "30a092cfc1317f70ff152207265ef2d7", "fusion_lon": 0.0, "rental_uris": {"android": "https://dc.lft.to/lastmile_qr_scan", "ios": "https://dc.lft.to/lastmile_qr_scan"}, "name": "30a092cfc1317f70ff152207265ef2d7", "type": "electric_scooter", "lat": 38.876135833333336, "is_disabled": 0}, {"fusion_lat": 0.0, "lon": -77.02362766666667, "is_reserved": 0, "bike_id": "a6f6d4df763a1cd83b52323461fa15fb", "fusion_lon": 0.0, "rental_uris": {"android": "https://dc.lft.to/lastmile_qr_scan", "ios": "https://dc.lft.to/lastmile_qr_scan"}, "name": "a6f6d4df763a1cd83b52323461fa15fb", "type": "electric_scooter", "lat": 38.89217816666667, "is_disabled": 0}, {"fusion_lat": 0.0, "lon": -77.039061, "is_reserved": 0, "bike_id": "17764c2d0b2d707af0cbe214b585bdde", "fusion_lon": 0.0, "rental_uris": {"android": "https://dc.lft.to/lastmile_qr_scan", "ios": "https://dc.lft.to/lastmile_qr_scan"}, "name": "17764c2d0b2d707af0cbe214b585bdde", "type": "electric_scooter", "lat": 38.923134, "is_disabled": 0}, {"fusion_lat": 0.0, "lon": -77.03359883333333, "is_reserved": 0, "bike_id": "804ea3b48bfcbf6149db2782ddcf44f0", "fusion_lon": 0.0, "rental_uris": {"android": "https://dc.lft.to/lastmile_qr_scan", "ios": "https://dc.lft.to/lastmile_qr_scan"}, "name": "804ea3b48bfcbf6149db2782ddcf44f0", "type": "electric_scooter", "lat": 38.90726466666667, "is_disabled": 0}, {"fusion_lat": 0.0, "lon": -76.9954425, "is_reserved": 0, "bike_id": "36a0c2804010e4805055d3b71d66112c", "fusion_lon": 0.0, "rental_uris": {"android": "https://dc.lft.to/lastmile_qr_scan", "ios": "https://dc.lft.to/lastmile_qr_scan"}, "name": "36a0c2804010e4805055d3b71d66112c", "type": "electric_scooter", "lat": 38.92671816666667, "is_disabled": 0}, {"fusion_lat": 0.0, "lon": -77.03471666666667, "is_reserved": 0, "bike_id": "3d855630f73a6ddd5a1116c1c065431a", "fusion_lon": 0.0, "rental_uris": {"android": "https://dc.lft.to/lastmile_qr_scan", "ios": "https://dc.lft.to/lastmile_qr_scan"}, "name": "3d855630f73a6ddd5a1116c1c065431a", "type": "electric_scooter", "lat": 38.91714866666667, "is_disabled": 0}, {"fusion_lat": 0.0, "lon": -77.04648066666667, "is_reserved": 0, "bike_id": "5867a5d9a8a7e5dcde22b9b79a5a55db", "fusion_lon": 0.0, "rental_uris": {"android": "https://dc.lft.to/lastmile_qr_scan", "ios": "https://dc.lft.to/lastmile_qr_scan"}, "name": "5867a5d9a8a7e5dcde22b9b79a5a55db", "type": "electric_bike", "lat": 39.05502333333333, "is_disabled": 0}, {"fusion_lat": 0.0, "lon": -77.016889, "is_reserved": 0, "bike_id": "e62b284159cb098407849ca9eb8d9d25", "fusion_lon": 0.0, "rental_uris": {"android": "https://dc.lft.to/lastmile_qr_scan", "ios": "https://dc.lft.to/lastmile_qr_scan"}, "name": "e62b284159cb098407849ca9eb8d9d25", "type": "electric_scooter", "lat": 38.8721685, "is_disabled": 0}, {"fusion_lat": 0.0, "lon": -77.02181516666667, "is_reserved": 0, "bike_id": "64605f96a12330e128f01735ec9309f3", "fusion_lon": 0.0, "rental_uris": {"android": "https://dc.lft.to/lastmile_qr_scan", "ios": "https://dc.lft.to/lastmile_qr_scan"}, "name": "64605f96a12330e128f01735ec9309f3", "type": "electric_scooter", "lat": 38.90954216666667, "is_disabled": 0}, {"fusion_lat": 0.0, "lon": -76.956601, "is_reserved": 0, "bike_id": "8df27f6b163b7ad85dda324e3137e11e", "fusion_lon": 0.0, "rental_uris": {"android": "https://dc.lft.to/lastmile_qr_scan", "ios": "https://dc.lft.to/lastmile_qr_scan"}, "name": "8df27f6b163b7ad85dda324e3137e11e", "type": "electric_scooter", "lat": 38.89621316666667, "is_disabled": 0}, {"fusion_lat": 0.0, "lon": -77.04656466666667, "is_reserved": 0, "bike_id": "396ac12cf0462c26098e9c668a84a014", "fusion_lon": 0.0, "rental_uris": {"android": "https://dc.lft.to/lastmile_qr_scan", "ios": "https://dc.lft.to/lastmile_qr_scan"}, "name": "396ac12cf0462c26098e9c668a84a014", "type": "electric_scooter", "lat": 38.9038435, "is_disabled": 0}, {"fusion_lat": 0.0, "lon": -76.96833083333334, "is_reserved": 0, "bike_id": "5424768ed521fa58e23405f1dc833512", "fusion_lon": 0.0, "rental_uris": {"android": "https://dc.lft.to/lastmile_qr_scan", "ios": "https://dc.lft.to/lastmile_qr_scan"}, "name": "5424768ed521fa58e23405f1dc833512", "type": "electric_bike", "lat": 38.94322433333333, "is_disabled": 0}, {"fusion_lat": 0.0, "lon": -77.02400683333333, "is_reserved": 0, "bike_id": "f3b56cc11de63ad80f2740ab76254814", "fusion_lon": 0.0, "rental_uris": {"android": "https://dc.lft.to/lastmile_qr_scan", "ios": "https://dc.lft.to/lastmile_qr_scan"}, "name": "f3b56cc11de63ad80f2740ab76254814", "type": "electric_scooter", "lat": 38.9311325, "is_disabled": 0}, {"fusion_lat": 0.0, "lon": -76.88403183333334, "is_reserved": 0, "bike_id": "e8c12db4d3906b2ee06c20ad64b6d8ba", "fusion_lon": 0.0, "rental_uris": {"android": "https://dc.lft.to/lastmile_qr_scan", "ios": "https://dc.lft.to/lastmile_qr_scan"}, "name": "e8c12db4d3906b2ee06c20ad64b6d8ba", "type": "electric_bike", "lat": 38.931695833333336, "is_disabled": 0}, {"fusion_lat": 0.0, "lon": -77.01812866666667, "is_reserved": 0, "bike_id": "6ed357096dfc3ce681ced620b13ce12d", "fusion_lon": 0.0, "rental_uris": {"android": "https://dc.lft.to/lastmile_qr_scan", "ios": "https://dc.lft.to/lastmile_qr_scan"}, "name": "6ed357096dfc3ce681ced620b13ce12d", "type": "electric_scooter", "lat": 38.96483083333333, "is_disabled": 0}, {"fusion_lat": 0.0, "lon": -77.00736383333333, "is_reserved": 0, "bike_id": "b125f369067375c17b3858b0d3c295de", "fusion_lon": 0.0, "rental_uris": {"android": "https://dc.lft.to/lastmile_qr_scan", "ios": "https://dc.lft.to/lastmile_qr_scan"}, "name": "b125f369067375c17b3858b0d3c295de", "type": "electric_scooter", "lat": 38.876452666666665, "is_disabled": 0}, {"fusion_lat": 0.0, "lon": -76.988271, "is_reserved": 0, "bike_id": "c2556c9d519ccb08a7ca3ca8e8361f03", "fusion_lon": 0.0, "rental_uris": {"android": "https://dc.lft.to/lastmile_qr_scan", "ios": "https://dc.lft.to/lastmile_qr_scan"}, "name": "c2556c9d519ccb08a7ca3ca8e8361f03", "type": "electric_scooter", "lat": 38.890733, "is_disabled": 0}, {"fusion_lat": 0.0, "lon": -77.008008, "is_reserved": 0, "bike_id": "1088008c2dd5a17334c82acbfe711ca7", "fusion_lon": 0.0, "rental_uris": {"android": "https://dc.lft.to/lastmile_qr_scan", "ios": "https://dc.lft.to/lastmile_qr_scan"}, "name": "1088008c2dd5a17334c82acbfe711ca7", "type": "electric_bike", "lat": 38.9491665, "is_disabled": 0}, {"fusion_lat": 0.0, "lon": -77.0383705, "is_reserved": 0, "bike_id": "c2d61c3b0fe1360bcec01bdc007fbf9b", "fusion_lon": 0.0, "rental_uris": {"android": "https://dc.lft.to/lastmile_qr_scan", "ios": "https://dc.lft.to/lastmile_qr_scan"}, "name": "c2d61c3b0fe1360bcec01bdc007fbf9b", "type": "electric_scooter", "lat": 38.91247716666667, "is_disabled": 0}, {"fusion_lat": 0.0, "lon": -76.97531016666667, "is_reserved": 0, "bike_id": "2ce0dfc6a7af21068120feaa1770d40b", "fusion_lon": 0.0, "rental_uris": {"android": "https://dc.lft.to/lastmile_qr_scan", "ios": "https://dc.lft.to/lastmile_qr_scan"}, "name": "2ce0dfc6a7af21068120feaa1770d40b", "type": "electric_scooter", "lat": 38.899546666666666, "is_disabled": 0}, {"fusion_lat": 0.0, "lon": -77.03567583333333, "is_reserved": 0, "bike_id": "7147f71ad82dad7fbe51126e11f1bd50", "fusion_lon": 0.0, "rental_uris": {"android": "https://dc.lft.to/lastmile_qr_scan", "ios": "https://dc.lft.to/lastmile_qr_scan"}, "name": "7147f71ad82dad7fbe51126e11f1bd50", "type": "electric_scooter", "lat": 38.909640833333334, "is_disabled": 0}, {"fusion_lat": 0.0, "lon": -77.02568916666667, "is_reserved": 0, "bike_id": "ea5467b949a707aeccba9a17a8608595", "fusion_lon": 0.0, "rental_uris": {"android": "https://dc.lft.to/lastmile_qr_scan", "ios": "https://dc.lft.to/lastmile_qr_scan"}, "name": "ea5467b949a707aeccba9a17a8608595", "type": "electric_scooter", "lat": 38.93083433333334, "is_disabled": 0}, {"fusion_lat": 0.0, "lon": -77.059572, "is_reserved": 0, "bike_id": "c46ebd905e5094ae89949bad3c9de5f8", "fusion_lon": 0.0, "rental_uris": {"android": "https://dc.lft.to/lastmile_qr_scan", "ios": "https://dc.lft.to/lastmile_qr_scan"}, "name": "c46ebd905e5094ae89949bad3c9de5f8", "type": "electric_scooter", "lat": 38.9076825, "is_disabled": 0}, {"fusion_lat": 0.0, "lon": -77.01209366666667, "is_reserved": 0, "bike_id": "26c851bf8d7895e647342ba0c2070bc0", "fusion_lon": 0.0, "rental_uris": {"android": "https://dc.lft.to/lastmile_qr_scan", "ios": "https://dc.lft.to/lastmile_qr_scan"}, "name": "26c851bf8d7895e647342ba0c2070bc0", "type": "electric_scooter", "lat": 38.91598166666667, "is_disabled": 0}, {"fusion_lat": 0.0, "lon": -76.97942883333333, "is_reserved": 0, "bike_id": "e0d24dfbff192bc867694d78a66132d9", "fusion_lon": 0.0, "rental_uris": {"android": "https://dc.lft.to/lastmile_qr_scan", "ios": "https://dc.lft.to/lastmile_qr_scan"}, "name": "e0d24dfbff192bc867694d78a66132d9", "type": "electric_scooter", "lat": 38.901869, "is_disabled": 0}, {"fusion_lat": 0.0, "lon": -77.0349675, "is_reserved": 0, "bike_id": "fd6a48fa8489408e48d03e87b4ac24fa", "fusion_lon": 0.0, "rental_uris": {"android": "https://dc.lft.to/lastmile_qr_scan", "ios": "https://dc.lft.to/lastmile_qr_scan"}, "name": "fd6a48fa8489408e48d03e87b4ac24fa", "type": "electric_scooter", "lat": 38.935472, "is_disabled": 0}, {"fusion_lat": 0.0, "lon": -77.03204383333333, "is_reserved": 0, "bike_id": "6161add29e630a232512ddd8b3b9a97e", "fusion_lon": 0.0, "rental_uris": {"android": "https://dc.lft.to/lastmile_qr_scan", "ios": "https://dc.lft.to/lastmile_qr_scan"}, "name": "6161add29e630a232512ddd8b3b9a97e", "type": "electric_scooter", "lat": 38.92071683333333, "is_disabled": 0}, {"fusion_lat": 0.0, "lon": -76.93607183333333, "is_reserved": 0, "bike_id": "6f98ec83caa75ed9a56e933bb481cf2a", "fusion_lon": 0.0, "rental_uris": {"android": "https://dc.lft.to/lastmile_qr_scan", "ios": "https://dc.lft.to/lastmile_qr_scan"}, "name": "6f98ec83caa75ed9a56e933bb481cf2a", "type": "electric_scooter", "lat": 38.896851166666664, "is_disabled": 0}, {"fusion_lat": 0.0, "lon": -76.99508383333334, "is_reserved": 0, "bike_id": "6707359b39047c7a8d07bc4ea61d0fd9", "fusion_lon": 0.0, "rental_uris": {"android": "https://dc.lft.to/lastmile_qr_scan", "ios": "https://dc.lft.to/lastmile_qr_scan"}, "name": "6707359b39047c7a8d07bc4ea61d0fd9", "type": "electric_scooter", "lat": 38.882833833333336, "is_disabled": 0}, {"fusion_lat": 0.0, "lon": -77.04250633333334, "is_reserved": 0, "bike_id": "2cec7ea6d6c7d8ced91bc6c8d27542dd", "fusion_lon": 0.0, "rental_uris": {"android": "https://dc.lft.to/lastmile_qr_scan", "ios": "https://dc.lft.to/lastmile_qr_scan"}, "name": "2cec7ea6d6c7d8ced91bc6c8d27542dd", "type": "electric_scooter", "lat": 38.925482833333334, "is_disabled": 0}, {"fusion_lat": 0.0, "lon": -77.03866983333333, "is_reserved": 0, "bike_id": "13b6ad3901006f640d112b9ebe3468e3", "fusion_lon": 0.0, "rental_uris": {"android": "https://dc.lft.to/lastmile_qr_scan", "ios": "https://dc.lft.to/lastmile_qr_scan"}, "name": "13b6ad3901006f640d112b9ebe3468e3", "type": "electric_scooter", "lat": 38.907891166666666, "is_disabled": 0}, {"fusion_lat": 0.0, "lon": -77.057289, "is_reserved": 0, "bike_id": "f95eeeb1bba07470d7fae8b04c8e4e4a", "fusion_lon": 0.0, "rental_uris": {"android": "https://dc.lft.to/lastmile_qr_scan", "ios": "https://dc.lft.to/lastmile_qr_scan"}, "name": "f95eeeb1bba07470d7fae8b04c8e4e4a", "type": "electric_scooter", "lat": 38.933596, "is_disabled": 0}, {"fusion_lat": 0.0, "lon": -76.98286816666666, "is_reserved": 0, "bike_id": "814dc63c5181024be026ffd1263a6291", "fusion_lon": 0.0, "rental_uris": {"android": "https://dc.lft.to/lastmile_qr_scan", "ios": "https://dc.lft.to/lastmile_qr_scan"}, "name": "814dc63c5181024be026ffd1263a6291", "type": "electric_scooter", "lat": 38.900473833333336, "is_disabled": 0}, {"fusion_lat": 0.0, "lon": -76.9315835, "is_reserved": 0, "bike_id": "9ff8cc06dedcb02d04ecbd7adeebb4ba", "fusion_lon": 0.0, "rental_uris": {"android": "https://dc.lft.to/lastmile_qr_scan", "ios": "https://dc.lft.to/lastmile_qr_scan"}, "name": "9ff8cc06dedcb02d04ecbd7adeebb4ba", "type": "electric_scooter", "lat": 38.898794, "is_disabled": 0}, {"fusion_lat": 0.0, "lon": -77.017448, "is_reserved": 0, "bike_id": "71a64ca92590c3ce2a5e592ecb492bf7", "fusion_lon": 0.0, "rental_uris": {"android": "https://dc.lft.to/lastmile_qr_scan", "ios": "https://dc.lft.to/lastmile_qr_scan"}, "name": "71a64ca92590c3ce2a5e592ecb492bf7", "type": "electric_scooter", "lat": 38.90257583333333, "is_disabled": 0}, {"fusion_lat": 0.0, "lon": -77.03671516666667, "is_reserved": 0, "bike_id": "7fef0aaea5501f1d7448affcc6c74b06", "fusion_lon": 0.0, "rental_uris": {"android": "https://dc.lft.to/lastmile_qr_scan", "ios": "https://dc.lft.to/lastmile_qr_scan"}, "name": "7fef0aaea5501f1d7448affcc6c74b06", "type": "electric_scooter", "lat": 38.906917, "is_disabled": 0}, {"fusion_lat": 0.0, "lon": -77.02102816666667, "is_reserved": 0, "bike_id": "5a4b6b66bc7bfe9d07d6f847cb3d2ebf", "fusion_lon": 0.0, "rental_uris": {"android": "https://dc.lft.to/lastmile_qr_scan", "ios": "https://dc.lft.to/lastmile_qr_scan"}, "name": "5a4b6b66bc7bfe9d07d6f847cb3d2ebf", "type": "electric_scooter", "lat": 38.88504916666667, "is_disabled": 0}, {"fusion_lat": 0.0, "lon": -77.039551, "is_reserved": 0, "bike_id": "fcbae78bbe9adb73664ba70dfbd16c78", "fusion_lon": 0.0, "rental_uris": {"android": "https://dc.lft.to/lastmile_qr_scan", "ios": "https://dc.lft.to/lastmile_qr_scan"}, "name": "fcbae78bbe9adb73664ba70dfbd16c78", "type": "electric_scooter", "lat": 38.8924535, "is_disabled": 0}, {"fusion_lat": 0.0, "lon": -77.07973483333333, "is_reserved": 0, "bike_id": "eb0a747d57b5d7b0193c5602a54d02f4", "fusion_lon": 0.0, "rental_uris": {"android": "https://dc.lft.to/lastmile_qr_scan", "ios": "https://dc.lft.to/lastmile_qr_scan"}, "name": "eb0a747d57b5d7b0193c5602a54d02f4", "type": "electric_scooter", "lat": 38.925808333333336, "is_disabled": 0}, {"fusion_lat": 0.0, "lon": -77.03633883333333, "is_reserved": 0, "bike_id": "39a290a259a805ed7456a148f2ec3d2e", "fusion_lon": 0.0, "rental_uris": {"android": "https://dc.lft.to/lastmile_qr_scan", "ios": "https://dc.lft.to/lastmile_qr_scan"}, "name": "39a290a259a805ed7456a148f2ec3d2e", "type": "electric_scooter", "lat": 38.92268816666667, "is_disabled": 0}, {"fusion_lat": 0.0, "lon": -77.01947716666666, "is_reserved": 0, "bike_id": "026d2bd8755edc20012902365ecd3b54", "fusion_lon": 0.0, "rental_uris": {"android": "https://dc.lft.to/lastmile_qr_scan", "ios": "https://dc.lft.to/lastmile_qr_scan"}, "name": "026d2bd8755edc20012902365ecd3b54", "type": "electric_bike", "lat": 38.9242105, "is_disabled": 0}, {"fusion_lat": 0.0, "lon": -77.020894, "is_reserved": 0, "bike_id": "430c7f63bafb022dc9499088060075e5", "fusion_lon": 0.0, "rental_uris": {"android": "https://dc.lft.to/lastmile_qr_scan", "ios": "https://dc.lft.to/lastmile_qr_scan"}, "name": "430c7f63bafb022dc9499088060075e5", "type": "electric_scooter", "lat": 38.91130066666667, "is_disabled": 0}, {"fusion_lat": 0.0, "lon": -77.051538, "is_reserved": 0, "bike_id": "ca05c3af759ea695d84cf711a998028d", "fusion_lon": 0.0, "rental_uris": {"android": "https://dc.lft.to/lastmile_qr_scan", "ios": "https://dc.lft.to/lastmile_qr_scan"}, "name": "ca05c3af759ea695d84cf711a998028d", "type": "electric_scooter", "lat": 38.899501, "is_disabled": 0}, {"fusion_lat": 0.0, "lon": -76.92736866666667, "is_reserved": 0, "bike_id": "a28d5c362776c6d47b15f242cf99eded", "fusion_lon": 0.0, "rental_uris": {"android": "https://dc.lft.to/lastmile_qr_scan", "ios": "https://dc.lft.to/lastmile_qr_scan"}, "name": "a28d5c362776c6d47b15f242cf99eded", "type": "electric_scooter", "lat": 38.889647833333335, "is_disabled": 0}, {"fusion_lat": 0.0, "lon": -77.01938316666667, "is_reserved": 0, "bike_id": "9d7a6a771d045736de2e895931a6d7d5", "fusion_lon": 0.0, "rental_uris": {"android": "https://dc.lft.to/lastmile_qr_scan", "ios": "https://dc.lft.to/lastmile_qr_scan"}, "name": "9d7a6a771d045736de2e895931a6d7d5", "type": "electric_scooter", "lat": 38.947030833333336, "is_disabled": 0}, {"fusion_lat": 0.0, "lon": -77.05064166666666, "is_reserved": 0, "bike_id": "8c1731617fe115f38d26f4d906ab4d61", "fusion_lon": 0.0, "rental_uris": {"android": "https://dc.lft.to/lastmile_qr_scan", "ios": "https://dc.lft.to/lastmile_qr_scan"}, "name": "8c1731617fe115f38d26f4d906ab4d61", "type": "electric_scooter", "lat": 38.9052685, "is_disabled": 0}, {"fusion_lat": 0.0, "lon": -76.98714383333333, "is_reserved": 0, "bike_id": "2975deb0b8784889cf343c342f232c23", "fusion_lon": 0.0, "rental_uris": {"android": "https://dc.lft.to/lastmile_qr_scan", "ios": "https://dc.lft.to/lastmile_qr_scan"}, "name": "2975deb0b8784889cf343c342f232c23", "type": "electric_scooter", "lat": 38.86626566666666, "is_disabled": 0}, {"fusion_lat": 0.0, "lon": -77.05488, "is_reserved": 0, "bike_id": "cfbae1281f895d6419cdc93bc64b974a", "fusion_lon": 0.0, "rental_uris": {"android": "https://dc.lft.to/lastmile_qr_scan", "ios": "https://dc.lft.to/lastmile_qr_scan"}, "name": "cfbae1281f895d6419cdc93bc64b974a", "type": "electric_scooter", "lat": 38.89382416666667, "is_disabled": 0}, {"fusion_lat": 0.0, "lon": -77.0501795, "is_reserved": 0, "bike_id": "548d3144d9287665fb2941fe7694a621", "fusion_lon": 0.0, "rental_uris": {"android": "https://dc.lft.to/lastmile_qr_scan", "ios": "https://dc.lft.to/lastmile_qr_scan"}, "name": "548d3144d9287665fb2941fe7694a621", "type": "electric_scooter", "lat": 38.90558683333333, "is_disabled": 0}, {"fusion_lat": 0.0, "lon": -77.01965083333333, "is_reserved": 0, "bike_id": "9ad4bc2fa09400fa65be5ab8aab6fbdd", "fusion_lon": 0.0, "rental_uris": {"android": "https://dc.lft.to/lastmile_qr_scan", "ios": "https://dc.lft.to/lastmile_qr_scan"}, "name": "9ad4bc2fa09400fa65be5ab8aab6fbdd", "type": "electric_scooter", "lat": 38.950202, "is_disabled": 0}, {"fusion_lat": 0.0, "lon": -77.02362366666667, "is_reserved": 0, "bike_id": "c33128c58c2c8c882fee6a418a4fc61b", "fusion_lon": 0.0, "rental_uris": {"android": "https://dc.lft.to/lastmile_qr_scan", "ios": "https://dc.lft.to/lastmile_qr_scan"}, "name": "c33128c58c2c8c882fee6a418a4fc61b", "type": "electric_scooter", "lat": 38.8921915, "is_disabled": 0}, {"fusion_lat": 0.0, "lon": -77.03007583333333, "is_reserved": 0, "bike_id": "15257b3abeeb7d0cbb105f54181a8053", "fusion_lon": 0.0, "rental_uris": {"android": "https://dc.lft.to/lastmile_qr_scan", "ios": "https://dc.lft.to/lastmile_qr_scan"}, "name": "15257b3abeeb7d0cbb105f54181a8053", "type": "electric_scooter", "lat": 38.926697, "is_disabled": 0}, {"fusion_lat": 0.0, "lon": -77.0385315, "is_reserved": 0, "bike_id": "b1bd9b7c143bddae1f91ec9b6601605f", "fusion_lon": 0.0, "rental_uris": {"android": "https://dc.lft.to/lastmile_qr_scan", "ios": "https://dc.lft.to/lastmile_qr_scan"}, "name": "b1bd9b7c143bddae1f91ec9b6601605f", "type": "electric_scooter", "lat": 38.92167633333333, "is_disabled": 0}, {"fusion_lat": 0.0, "lon": -77.01982216666667, "is_reserved": 0, "bike_id": "313f0ccc602bafb0450024a9a2da236f", "fusion_lon": 0.0, "rental_uris": {"android": "https://dc.lft.to/lastmile_qr_scan", "ios": "https://dc.lft.to/lastmile_qr_scan"}, "name": "313f0ccc602bafb0450024a9a2da236f", "type": "electric_scooter", "lat": 38.8860085, "is_disabled": 0}, {"fusion_lat": 0.0, "lon": -77.0632895, "is_reserved": 0, "bike_id": "3573188e18c1fbb3d670925d978844aa", "fusion_lon": 0.0, "rental_uris": {"android": "https://dc.lft.to/lastmile_qr_scan", "ios": "https://dc.lft.to/lastmile_qr_scan"}, "name": "3573188e18c1fbb3d670925d978844aa", "type": "electric_scooter", "lat": 38.94420066666667, "is_disabled": 0}, {"fusion_lat": 0.0, "lon": -76.9540095, "is_reserved": 0, "bike_id": "93818208fa58fdc0f6c1187ab10bfa06", "fusion_lon": 0.0, "rental_uris": {"android": "https://dc.lft.to/lastmile_qr_scan", "ios": "https://dc.lft.to/lastmile_qr_scan"}, "name": "93818208fa58fdc0f6c1187ab10bfa06", "type": "electric_scooter", "lat": 38.88468816666666, "is_disabled": 0}, {"fusion_lat": 0.0, "lon": -77.02716866666667, "is_reserved": 0, "bike_id": "3577b81576123a8659f8384dabe3aab2", "fusion_lon": 0.0, "rental_uris": {"android": "https://dc.lft.to/lastmile_qr_scan", "ios": "https://dc.lft.to/lastmile_qr_scan"}, "name": "3577b81576123a8659f8384dabe3aab2", "type": "electric_scooter", "lat": 38.906699833333334, "is_disabled": 0}, {"fusion_lat": 0.0, "lon": -77.059255, "is_reserved": 0, "bike_id": "e25c15b5ef6b277479b79ce5d5aca1bc", "fusion_lon": 0.0, "rental_uris": {"android": "https://dc.lft.to/lastmile_qr_scan", "ios": "https://dc.lft.to/lastmile_qr_scan"}, "name": "e25c15b5ef6b277479b79ce5d5aca1bc", "type": "electric_scooter", "lat": 38.9015535, "is_disabled": 0}, {"fusion_lat": 0.0, "lon": -76.98387933333333, "is_reserved": 0, "bike_id": "62ef88d6aaeed3d0dd8078aed8ce0ec0", "fusion_lon": 0.0, "rental_uris": {"android": "https://dc.lft.to/lastmile_qr_scan", "ios": "https://dc.lft.to/lastmile_qr_scan"}, "name": "62ef88d6aaeed3d0dd8078aed8ce0ec0", "type": "electric_scooter", "lat": 38.8670565, "is_disabled": 0}, {"fusion_lat": 0.0, "lon": -77.00958816666666, "is_reserved": 0, "bike_id": "2643a05862be9bea67e296840d3269f0", "fusion_lon": 0.0, "rental_uris": {"android": "https://dc.lft.to/lastmile_qr_scan", "ios": "https://dc.lft.to/lastmile_qr_scan"}, "name": "2643a05862be9bea67e296840d3269f0", "type": "electric_scooter", "lat": 38.9170705, "is_disabled": 0}, {"fusion_lat": 0.0, "lon": -77.05883383333334, "is_reserved": 0, "bike_id": "5d7112f2448042cc878930fe65ac2e97", "fusion_lon": 0.0, "rental_uris": {"android": "https://dc.lft.to/lastmile_qr_scan", "ios": "https://dc.lft.to/lastmile_qr_scan"}, "name": "5d7112f2448042cc878930fe65ac2e97", "type": "electric_scooter", "lat": 38.918275666666666, "is_disabled": 0}, {"fusion_lat": 0.0, "lon": -77.02328533333333, "is_reserved": 0, "bike_id": "9ff9f739d1f26fec113d5ac546f6baee", "fusion_lon": 0.0, "rental_uris": {"android": "https://dc.lft.to/lastmile_qr_scan", "ios": "https://dc.lft.to/lastmile_qr_scan"}, "name": "9ff9f739d1f26fec113d5ac546f6baee", "type": "electric_scooter", "lat": 38.909294333333335, "is_disabled": 0}, {"fusion_lat": 0.0, "lon": -76.9810565, "is_reserved": 0, "bike_id": "82f634a9ac7ad3f63a2952d2c2da14f8", "fusion_lon": 0.0, "rental_uris": {"android": "https://dc.lft.to/lastmile_qr_scan", "ios": "https://dc.lft.to/lastmile_qr_scan"}, "name": "82f634a9ac7ad3f63a2952d2c2da14f8", "type": "electric_scooter", "lat": 38.9040745, "is_disabled": 0}, {"fusion_lat": 0.0, "lon": -77.07096116666666, "is_reserved": 0, "bike_id": "a99cf655bafe14ef7b3fc3241caf03d8", "fusion_lon": 0.0, "rental_uris": {"android": "https://dc.lft.to/lastmile_qr_scan", "ios": "https://dc.lft.to/lastmile_qr_scan"}, "name": "a99cf655bafe14ef7b3fc3241caf03d8", "type": "electric_scooter", "lat": 38.907699666666666, "is_disabled": 0}, {"fusion_lat": 0.0, "lon": -77.046829, "is_reserved": 0, "bike_id": "02e6fc525ad893de6aca0a83c2bfd1c8", "fusion_lon": 0.0, "rental_uris": {"android": "https://dc.lft.to/lastmile_qr_scan", "ios": "https://dc.lft.to/lastmile_qr_scan"}, "name": "02e6fc525ad893de6aca0a83c2bfd1c8", "type": "electric_scooter", "lat": 38.921279166666665, "is_disabled": 0}, {"fusion_lat": 0.0, "lon": -77.01222833333334, "is_reserved": 0, "bike_id": "338d0d3d0c9ee1595054a9f81d5e4cb1", "fusion_lon": 0.0, "rental_uris": {"android": "https://dc.lft.to/lastmile_qr_scan", "ios": "https://dc.lft.to/lastmile_qr_scan"}, "name": "338d0d3d0c9ee1595054a9f81d5e4cb1", "type": "electric_scooter", "lat": 38.91432966666667, "is_disabled": 0}, {"fusion_lat": 0.0, "lon": -77.01761733333333, "is_reserved": 0, "bike_id": "57e5279afc90d914479826a26ed440fa", "fusion_lon": 0.0, "rental_uris": {"android": "https://dc.lft.to/lastmile_qr_scan", "ios": "https://dc.lft.to/lastmile_qr_scan"}, "name": "57e5279afc90d914479826a26ed440fa", "type": "electric_scooter", "lat": 38.87690333333333, "is_disabled": 0}, {"fusion_lat": 0.0, "lon": -76.9756205, "is_reserved": 0, "bike_id": "2ed6218e2f9d3fee283a7ee4d43c3b7b", "fusion_lon": 0.0, "rental_uris": {"android": "https://dc.lft.to/lastmile_qr_scan", "ios": "https://dc.lft.to/lastmile_qr_scan"}, "name": "2ed6218e2f9d3fee283a7ee4d43c3b7b", "type": "electric_bike", "lat": 38.924596333333334, "is_disabled": 0}, {"fusion_lat": 0.0, "lon": -77.017229, "is_reserved": 0, "bike_id": "9a2c5e0f6415ae7329371b3f85b30ea5", "fusion_lon": 0.0, "rental_uris": {"android": "https://dc.lft.to/lastmile_qr_scan", "ios": "https://dc.lft.to/lastmile_qr_scan"}, "name": "9a2c5e0f6415ae7329371b3f85b30ea5", "type": "electric_scooter", "lat": 38.974923, "is_disabled": 0}, {"fusion_lat": 0.0, "lon": -77.0437715, "is_reserved": 0, "bike_id": "6a3a06f6783d7afcba0af1bc09742244", "fusion_lon": 0.0, "rental_uris": {"android": "https://dc.lft.to/lastmile_qr_scan", "ios": "https://dc.lft.to/lastmile_qr_scan"}, "name": "6a3a06f6783d7afcba0af1bc09742244", "type": "electric_scooter", "lat": 38.89221633333333, "is_disabled": 0}, {"fusion_lat": 0.0, "lon": -77.043403, "is_reserved": 0, "bike_id": "0bc2f827bf081ca293a63be68f3fc191", "fusion_lon": 0.0, "rental_uris": {"android": "https://dc.lft.to/lastmile_qr_scan", "ios": "https://dc.lft.to/lastmile_qr_scan"}, "name": "0bc2f827bf081ca293a63be68f3fc191", "type": "electric_scooter", "lat": 38.90318633333333, "is_disabled": 0}, {"fusion_lat": 0.0, "lon": -77.02874666666666, "is_reserved": 0, "bike_id": "b40a96b55085028ad9f8e20d3852fbad", "fusion_lon": 0.0, "rental_uris": {"android": "https://dc.lft.to/lastmile_qr_scan", "ios": "https://dc.lft.to/lastmile_qr_scan"}, "name": "b40a96b55085028ad9f8e20d3852fbad", "type": "electric_scooter", "lat": 38.9257205, "is_disabled": 0}, {"fusion_lat": 0.0, "lon": -77.08400833333333, "is_reserved": 0, "bike_id": "85a00ef531ec95e4e916727fc9c0080c", "fusion_lon": 0.0, "rental_uris": {"android": "https://dc.lft.to/lastmile_qr_scan", "ios": "https://dc.lft.to/lastmile_qr_scan"}, "name": "85a00ef531ec95e4e916727fc9c0080c", "type": "electric_scooter", "lat": 38.90802866666667, "is_disabled": 0}, {"fusion_lat": 0.0, "lon": -77.05691266666666, "is_reserved": 0, "bike_id": "a3f6d1dd7fffe953f2f3e998929d1dae", "fusion_lon": 0.0, "rental_uris": {"android": "https://dc.lft.to/lastmile_qr_scan", "ios": "https://dc.lft.to/lastmile_qr_scan"}, "name": "a3f6d1dd7fffe953f2f3e998929d1dae", "type": "electric_scooter", "lat": 38.90608733333333, "is_disabled": 0}, {"fusion_lat": 0.0, "lon": -77.026126, "is_reserved": 0, "bike_id": "07a9d6f62c46d30fe6bab6de7a39e22c", "fusion_lon": 0.0, "rental_uris": {"android": "https://dc.lft.to/lastmile_qr_scan", "ios": "https://dc.lft.to/lastmile_qr_scan"}, "name": "07a9d6f62c46d30fe6bab6de7a39e22c", "type": "electric_scooter", "lat": 38.92983683333333, "is_disabled": 0}, {"fusion_lat": 0.0, "lon": -77.03691116666667, "is_reserved": 0, "bike_id": "368a4557e6f2746f947107e4b8f63199", "fusion_lon": 0.0, "rental_uris": {"android": "https://dc.lft.to/lastmile_qr_scan", "ios": "https://dc.lft.to/lastmile_qr_scan"}, "name": "368a4557e6f2746f947107e4b8f63199", "type": "electric_scooter", "lat": 38.91678366666667, "is_disabled": 0}, {"fusion_lat": 0.0, "lon": -77.04990583333333, "is_reserved": 0, "bike_id": "8bbf8d83a3ca6e921f3dc7f98b2bf548", "fusion_lon": 0.0, "rental_uris": {"android": "https://dc.lft.to/lastmile_qr_scan", "ios": "https://dc.lft.to/lastmile_qr_scan"}, "name": "8bbf8d83a3ca6e921f3dc7f98b2bf548", "type": "electric_scooter", "lat": 38.89736583333333, "is_disabled": 0}, {"fusion_lat": 0.0, "lon": -77.03262933333333, "is_reserved": 0, "bike_id": "e3df61bc5f8817ec134a70dd0aded816", "fusion_lon": 0.0, "rental_uris": {"android": "https://dc.lft.to/lastmile_qr_scan", "ios": "https://dc.lft.to/lastmile_qr_scan"}, "name": "e3df61bc5f8817ec134a70dd0aded816", "type": "electric_scooter", "lat": 38.94155283333333, "is_disabled": 0}, {"fusion_lat": 0.0, "lon": -77.0385205, "is_reserved": 0, "bike_id": "300e09d2c12a9c32a5be289b22d65cb4", "fusion_lon": 0.0, "rental_uris": {"android": "https://dc.lft.to/lastmile_qr_scan", "ios": "https://dc.lft.to/lastmile_qr_scan"}, "name": "300e09d2c12a9c32a5be289b22d65cb4", "type": "electric_scooter", "lat": 38.91657766666667, "is_disabled": 0}, {"fusion_lat": 0.0, "lon": -77.04507716666667, "is_reserved": 0, "bike_id": "0f880ec940268b2bb3f132ae713c5ef8", "fusion_lon": 0.0, "rental_uris": {"android": "https://dc.lft.to/lastmile_qr_scan", "ios": "https://dc.lft.to/lastmile_qr_scan"}, "name": "0f880ec940268b2bb3f132ae713c5ef8", "type": "electric_scooter", "lat": 38.90775166666667, "is_disabled": 0}, {"fusion_lat": 0.0, "lon": -77.00430733333333, "is_reserved": 0, "bike_id": "a05cb49c15146f597fb453a93a39713d", "fusion_lon": 0.0, "rental_uris": {"android": "https://dc.lft.to/lastmile_qr_scan", "ios": "https://dc.lft.to/lastmile_qr_scan"}, "name": "a05cb49c15146f597fb453a93a39713d", "type": "electric_scooter", "lat": 38.87675083333333, "is_disabled": 0}, {"fusion_lat": 0.0, "lon": -76.98073566666666, "is_reserved": 0, "bike_id": "9fd8fa292a4ebc71dc889c60b9ff7a16", "fusion_lon": 0.0, "rental_uris": {"android": "https://dc.lft.to/lastmile_qr_scan", "ios": "https://dc.lft.to/lastmile_qr_scan"}, "name": "9fd8fa292a4ebc71dc889c60b9ff7a16", "type": "electric_scooter", "lat": 38.90174783333333, "is_disabled": 0}, {"fusion_lat": 0.0, "lon": -77.02231933333333, "is_reserved": 0, "bike_id": "ad4cebd9eb2adf421800bc2ed0adef8e", "fusion_lon": 0.0, "rental_uris": {"android": "https://dc.lft.to/lastmile_qr_scan", "ios": "https://dc.lft.to/lastmile_qr_scan"}, "name": "ad4cebd9eb2adf421800bc2ed0adef8e", "type": "electric_scooter", "lat": 38.89220433333333, "is_disabled": 0}, {"fusion_lat": 0.0, "lon": -77.031882, "is_reserved": 0, "bike_id": "75d2e10f3da6e777cb9b38f8fe2348c8", "fusion_lon": 0.0, "rental_uris": {"android": "https://dc.lft.to/lastmile_qr_scan", "ios": "https://dc.lft.to/lastmile_qr_scan"}, "name": "75d2e10f3da6e777cb9b38f8fe2348c8", "type": "electric_scooter", "lat": 38.91326016666667, "is_disabled": 0}, {"fusion_lat": 0.0, "lon": -77.0343335, "is_reserved": 0, "bike_id": "86dc04e81aa1e4b8c52846afa0567310", "fusion_lon": 0.0, "rental_uris": {"android": "https://dc.lft.to/lastmile_qr_scan", "ios": "https://dc.lft.to/lastmile_qr_scan"}, "name": "86dc04e81aa1e4b8c52846afa0567310", "type": "electric_scooter", "lat": 38.919424666666664, "is_disabled": 0}, {"fusion_lat": 0.0, "lon": -77.006173, "is_reserved": 0, "bike_id": "9ae188d35e4533e9fc993559c6efcf53", "fusion_lon": 0.0, "rental_uris": {"android": "https://dc.lft.to/lastmile_qr_scan", "ios": "https://dc.lft.to/lastmile_qr_scan"}, "name": "9ae188d35e4533e9fc993559c6efcf53", "type": "electric_scooter", "lat": 38.87176433333333, "is_disabled": 0}, {"fusion_lat": 0.0, "lon": -77.00240833333334, "is_reserved": 0, "bike_id": "a60ff1a3bc1b55dff2bd806a93285da6", "fusion_lon": 0.0, "rental_uris": {"android": "https://dc.lft.to/lastmile_qr_scan", "ios": "https://dc.lft.to/lastmile_qr_scan"}, "name": "a60ff1a3bc1b55dff2bd806a93285da6", "type": "electric_bike", "lat": 38.874958166666666, "is_disabled": 0}, {"fusion_lat": 0.0, "lon": -77.0348775, "is_reserved": 0, "bike_id": "d6cbfb4be3338f3ea7a5ca2dc80a14cb", "fusion_lon": 0.0, "rental_uris": {"android": "https://dc.lft.to/lastmile_qr_scan", "ios": "https://dc.lft.to/lastmile_qr_scan"}, "name": "d6cbfb4be3338f3ea7a5ca2dc80a14cb", "type": "electric_scooter", "lat": 38.9215265, "is_disabled": 0}, {"fusion_lat": 0.0, "lon": -77.03273866666666, "is_reserved": 0, "bike_id": "e9335ce53572b55f5cc556bfd487386a", "fusion_lon": 0.0, "rental_uris": {"android": "https://dc.lft.to/lastmile_qr_scan", "ios": "https://dc.lft.to/lastmile_qr_scan"}, "name": "e9335ce53572b55f5cc556bfd487386a", "type": "electric_scooter", "lat": 38.93402, "is_disabled": 0}, {"fusion_lat": 0.0, "lon": -77.03253716666667, "is_reserved": 0, "bike_id": "ce6c7fa09b92e0c56a6e344a6ae91959", "fusion_lon": 0.0, "rental_uris": {"android": "https://dc.lft.to/lastmile_qr_scan", "ios": "https://dc.lft.to/lastmile_qr_scan"}, "name": "ce6c7fa09b92e0c56a6e344a6ae91959", "type": "electric_scooter", "lat": 38.91816933333333, "is_disabled": 0}, {"fusion_lat": 0.0, "lon": -77.04335666666667, "is_reserved": 0, "bike_id": "7ed81f7e9dc037b826a4bb40eea197c7", "fusion_lon": 0.0, "rental_uris": {"android": "https://dc.lft.to/lastmile_qr_scan", "ios": "https://dc.lft.to/lastmile_qr_scan"}, "name": "7ed81f7e9dc037b826a4bb40eea197c7", "type": "electric_scooter", "lat": 38.8922625, "is_disabled": 0}, {"fusion_lat": 0.0, "lon": -76.98390083333334, "is_reserved": 0, "bike_id": "cf2aac882799deb3bc07ad51b4803f2d", "fusion_lon": 0.0, "rental_uris": {"android": "https://dc.lft.to/lastmile_qr_scan", "ios": "https://dc.lft.to/lastmile_qr_scan"}, "name": "cf2aac882799deb3bc07ad51b4803f2d", "type": "electric_scooter", "lat": 38.9269125, "is_disabled": 0}, {"fusion_lat": 0.0, "lon": -77.0781915, "is_reserved": 0, "bike_id": "4ddff65473f5bbeb5be67524b2f562db", "fusion_lon": 0.0, "rental_uris": {"android": "https://dc.lft.to/lastmile_qr_scan", "ios": "https://dc.lft.to/lastmile_qr_scan"}, "name": "4ddff65473f5bbeb5be67524b2f562db", "type": "electric_bike", "lat": 38.93636016666667, "is_disabled": 0}, {"fusion_lat": 0.0, "lon": -77.04506533333333, "is_reserved": 0, "bike_id": "2936ac0f5b59dc3a16748f87e88995b1", "fusion_lon": 0.0, "rental_uris": {"android": "https://dc.lft.to/lastmile_qr_scan", "ios": "https://dc.lft.to/lastmile_qr_scan"}, "name": "2936ac0f5b59dc3a16748f87e88995b1", "type": "electric_scooter", "lat": 38.911137333333336, "is_disabled": 0}, {"fusion_lat": 0.0, "lon": -77.02059916666667, "is_reserved": 0, "bike_id": "458c987e2975d4e614173fd0aa77910a", "fusion_lon": 0.0, "rental_uris": {"android": "https://dc.lft.to/lastmile_qr_scan", "ios": "https://dc.lft.to/lastmile_qr_scan"}, "name": "458c987e2975d4e614173fd0aa77910a", "type": "electric_scooter", "lat": 38.92184266666667, "is_disabled": 0}, {"fusion_lat": 0.0, "lon": -77.02697366666666, "is_reserved": 0, "bike_id": "63ff39db0cc2aa3f2628471971ec050d", "fusion_lon": 0.0, "rental_uris": {"android": "https://dc.lft.to/lastmile_qr_scan", "ios": "https://dc.lft.to/lastmile_qr_scan"}, "name": "63ff39db0cc2aa3f2628471971ec050d", "type": "electric_scooter", "lat": 38.91577866666667, "is_disabled": 0}, {"fusion_lat": 0.0, "lon": -76.98842366666666, "is_reserved": 0, "bike_id": "e28ab678a8e96a5ac3d8705062b78d3a", "fusion_lon": 0.0, "rental_uris": {"android": "https://dc.lft.to/lastmile_qr_scan", "ios": "https://dc.lft.to/lastmile_qr_scan"}, "name": "e28ab678a8e96a5ac3d8705062b78d3a", "type": "electric_bike", "lat": 38.842803333333336, "is_disabled": 0}, {"fusion_lat": 0.0, "lon": -76.97612433333333, "is_reserved": 0, "bike_id": "d67fcd44462c377eff9cc72a2032c39d", "fusion_lon": 0.0, "rental_uris": {"android": "https://dc.lft.to/lastmile_qr_scan", "ios": "https://dc.lft.to/lastmile_qr_scan"}, "name": "d67fcd44462c377eff9cc72a2032c39d", "type": "electric_scooter", "lat": 38.91298333333334, "is_disabled": 0}, {"fusion_lat": 0.0, "lon": -77.03619583333334, "is_reserved": 0, "bike_id": "3069c1c681212a7632840864f07b90dc", "fusion_lon": 0.0, "rental_uris": {"android": "https://dc.lft.to/lastmile_qr_scan", "ios": "https://dc.lft.to/lastmile_qr_scan"}, "name": "3069c1c681212a7632840864f07b90dc", "type": "electric_scooter", "lat": 38.93042466666667, "is_disabled": 0}, {"fusion_lat": 0.0, "lon": -77.02622783333334, "is_reserved": 0, "bike_id": "967fa01bbab4e617522ff0a896754c28", "fusion_lon": 0.0, "rental_uris": {"android": "https://dc.lft.to/lastmile_qr_scan", "ios": "https://dc.lft.to/lastmile_qr_scan"}, "name": "967fa01bbab4e617522ff0a896754c28", "type": "electric_scooter", "lat": 38.89431166666667, "is_disabled": 0}, {"fusion_lat": 0.0, "lon": -77.0422805, "is_reserved": 0, "bike_id": "f5306d99f7fa4181a796fc5c9979c81e", "fusion_lon": 0.0, "rental_uris": {"android": "https://dc.lft.to/lastmile_qr_scan", "ios": "https://dc.lft.to/lastmile_qr_scan"}, "name": "f5306d99f7fa4181a796fc5c9979c81e", "type": "electric_scooter", "lat": 38.93151666666667, "is_disabled": 0}, {"fusion_lat": 0.0, "lon": -77.0458595, "is_reserved": 0, "bike_id": "0f638a4fee5df0181f3daac73ffe105d", "fusion_lon": 0.0, "rental_uris": {"android": "https://dc.lft.to/lastmile_qr_scan", "ios": "https://dc.lft.to/lastmile_qr_scan"}, "name": "0f638a4fee5df0181f3daac73ffe105d", "type": "electric_scooter", "lat": 38.921210333333335, "is_disabled": 0}, {"fusion_lat": 0.0, "lon": -77.0384015, "is_reserved": 0, "bike_id": "c879132cc750cffbe9cedc88a5ab5f92", "fusion_lon": 0.0, "rental_uris": {"android": "https://dc.lft.to/lastmile_qr_scan", "ios": "https://dc.lft.to/lastmile_qr_scan"}, "name": "c879132cc750cffbe9cedc88a5ab5f92", "type": "electric_scooter", "lat": 38.9037555, "is_disabled": 0}, {"fusion_lat": 0.0, "lon": -77.003794, "is_reserved": 0, "bike_id": "b8e0c7321b5afd436b4c4f3c8e1b3cc6", "fusion_lon": 0.0, "rental_uris": {"android": "https://dc.lft.to/lastmile_qr_scan", "ios": "https://dc.lft.to/lastmile_qr_scan"}, "name": "b8e0c7321b5afd436b4c4f3c8e1b3cc6", "type": "electric_bike", "lat": 38.836085833333335, "is_disabled": 0}, {"fusion_lat": 0.0, "lon": -77.00185833333333, "is_reserved": 0, "bike_id": "da9eae6c70229ae34c981e4be6afb39c", "fusion_lon": 0.0, "rental_uris": {"android": "https://dc.lft.to/lastmile_qr_scan", "ios": "https://dc.lft.to/lastmile_qr_scan"}, "name": "da9eae6c70229ae34c981e4be6afb39c", "type": "electric_scooter", "lat": 38.894468, "is_disabled": 0}, {"fusion_lat": 0.0, "lon": -76.97673416666666, "is_reserved": 0, "bike_id": "f06d07421e37cea8808b68e7425f757e", "fusion_lon": 0.0, "rental_uris": {"android": "https://dc.lft.to/lastmile_qr_scan", "ios": "https://dc.lft.to/lastmile_qr_scan"}, "name": "f06d07421e37cea8808b68e7425f757e", "type": "electric_bike", "lat": 38.9524505, "is_disabled": 0}, {"fusion_lat": 0.0, "lon": -76.98302616666666, "is_reserved": 0, "bike_id": "cea33ce15463d35b2fc5cf5e7d7c4bb7", "fusion_lon": 0.0, "rental_uris": {"android": "https://dc.lft.to/lastmile_qr_scan", "ios": "https://dc.lft.to/lastmile_qr_scan"}, "name": "cea33ce15463d35b2fc5cf5e7d7c4bb7", "type": "electric_scooter", "lat": 38.9052325, "is_disabled": 0}, {"fusion_lat": 0.0, "lon": -77.024827, "is_reserved": 0, "bike_id": "b8031024bc14a791af58e0537ce5c7e1", "fusion_lon": 0.0, "rental_uris": {"android": "https://dc.lft.to/lastmile_qr_scan", "ios": "https://dc.lft.to/lastmile_qr_scan"}, "name": "b8031024bc14a791af58e0537ce5c7e1", "type": "electric_scooter", "lat": 38.92748916666667, "is_disabled": 0}, {"fusion_lat": 0.0, "lon": -76.98793683333334, "is_reserved": 0, "bike_id": "4c1cf040db274c07faf80c68278cd00b", "fusion_lon": 0.0, "rental_uris": {"android": "https://dc.lft.to/lastmile_qr_scan", "ios": "https://dc.lft.to/lastmile_qr_scan"}, "name": "4c1cf040db274c07faf80c68278cd00b", "type": "electric_scooter", "lat": 38.867444166666665, "is_disabled": 0}, {"fusion_lat": 0.0, "lon": -77.0405605, "is_reserved": 0, "bike_id": "dd907321e93799f77d362442b793f999", "fusion_lon": 0.0, "rental_uris": {"android": "https://dc.lft.to/lastmile_qr_scan", "ios": "https://dc.lft.to/lastmile_qr_scan"}, "name": "dd907321e93799f77d362442b793f999", "type": "electric_scooter", "lat": 38.918646, "is_disabled": 0}, {"fusion_lat": 0.0, "lon": -77.03858283333334, "is_reserved": 0, "bike_id": "433f4fdeb08cb9623ecd964b8abbb7c2", "fusion_lon": 0.0, "rental_uris": {"android": "https://dc.lft.to/lastmile_qr_scan", "ios": "https://dc.lft.to/lastmile_qr_scan"}, "name": "433f4fdeb08cb9623ecd964b8abbb7c2", "type": "electric_scooter", "lat": 38.90651116666667, "is_disabled": 0}, {"fusion_lat": 0.0, "lon": -77.03595966666667, "is_reserved": 0, "bike_id": "166d5c1799853c8901eb0db2ad971deb", "fusion_lon": 0.0, "rental_uris": {"android": "https://dc.lft.to/lastmile_qr_scan", "ios": "https://dc.lft.to/lastmile_qr_scan"}, "name": "166d5c1799853c8901eb0db2ad971deb", "type": "electric_scooter", "lat": 38.93931633333333, "is_disabled": 0}, {"fusion_lat": 0.0, "lon": -77.03261083333334, "is_reserved": 0, "bike_id": "c2f8eec723ea848be3a28e5b6b7f8c54", "fusion_lon": 0.0, "rental_uris": {"android": "https://dc.lft.to/lastmile_qr_scan", "ios": "https://dc.lft.to/lastmile_qr_scan"}, "name": "c2f8eec723ea848be3a28e5b6b7f8c54", "type": "electric_scooter", "lat": 38.932505666666664, "is_disabled": 0}, {"fusion_lat": 0.0, "lon": -77.03031683333333, "is_reserved": 0, "bike_id": "460e80f6c41d5013a9cabc2931fe7061", "fusion_lon": 0.0, "rental_uris": {"android": "https://dc.lft.to/lastmile_qr_scan", "ios": "https://dc.lft.to/lastmile_qr_scan"}, "name": "460e80f6c41d5013a9cabc2931fe7061", "type": "electric_scooter", "lat": 38.932201666666664, "is_disabled": 0}, {"fusion_lat": 0.0, "lon": -77.03090116666667, "is_reserved": 0, "bike_id": "5eb215b3f0c7023d4c11b684dc2257cb", "fusion_lon": 0.0, "rental_uris": {"android": "https://dc.lft.to/lastmile_qr_scan", "ios": "https://dc.lft.to/lastmile_qr_scan"}, "name": "5eb215b3f0c7023d4c11b684dc2257cb", "type": "electric_scooter", "lat": 38.92726366666667, "is_disabled": 0}, {"fusion_lat": 0.0, "lon": -77.07935466666666, "is_reserved": 0, "bike_id": "d42bc7cc90ee254b9bccc6b7f5999d24", "fusion_lon": 0.0, "rental_uris": {"android": "https://dc.lft.to/lastmile_qr_scan", "ios": "https://dc.lft.to/lastmile_qr_scan"}, "name": "d42bc7cc90ee254b9bccc6b7f5999d24", "type": "electric_scooter", "lat": 38.93081166666666, "is_disabled": 0}, {"fusion_lat": 0.0, "lon": -77.055758, "is_reserved": 0, "bike_id": "9c0a7bdc9d75e81b1e92f23be1e65bfa", "fusion_lon": 0.0, "rental_uris": {"android": "https://dc.lft.to/lastmile_qr_scan", "ios": "https://dc.lft.to/lastmile_qr_scan"}, "name": "9c0a7bdc9d75e81b1e92f23be1e65bfa", "type": "electric_scooter", "lat": 38.9092765, "is_disabled": 0}, {"fusion_lat": 0.0, "lon": -77.02297166666666, "is_reserved": 0, "bike_id": "e95bd3846abb77a1dda272082516a04d", "fusion_lon": 0.0, "rental_uris": {"android": "https://dc.lft.to/lastmile_qr_scan", "ios": "https://dc.lft.to/lastmile_qr_scan"}, "name": "e95bd3846abb77a1dda272082516a04d", "type": "electric_scooter", "lat": 38.87878333333333, "is_disabled": 0}, {"fusion_lat": 0.0, "lon": -76.981922, "is_reserved": 0, "bike_id": "69032cbd1761112a2732062ec94f232d", "fusion_lon": 0.0, "rental_uris": {"android": "https://dc.lft.to/lastmile_qr_scan", "ios": "https://dc.lft.to/lastmile_qr_scan"}, "name": "69032cbd1761112a2732062ec94f232d", "type": "electric_scooter", "lat": 38.90280583333333, "is_disabled": 0}, {"fusion_lat": 0.0, "lon": -77.0299555, "is_reserved": 0, "bike_id": "9b7c51ca652c74513fd12ef35be21d49", "fusion_lon": 0.0, "rental_uris": {"android": "https://dc.lft.to/lastmile_qr_scan", "ios": "https://dc.lft.to/lastmile_qr_scan"}, "name": "9b7c51ca652c74513fd12ef35be21d49", "type": "electric_scooter", "lat": 38.92682383333333, "is_disabled": 0}, {"fusion_lat": 0.0, "lon": -77.0230195, "is_reserved": 0, "bike_id": "9153d02939460e7d92a5ba0983cdc291", "fusion_lon": 0.0, "rental_uris": {"android": "https://dc.lft.to/lastmile_qr_scan", "ios": "https://dc.lft.to/lastmile_qr_scan"}, "name": "9153d02939460e7d92a5ba0983cdc291", "type": "electric_scooter", "lat": 38.92069583333333, "is_disabled": 0}, {"fusion_lat": 0.0, "lon": -77.0399615, "is_reserved": 0, "bike_id": "057ab92c644c5f43984b55a8bf36cedc", "fusion_lon": 0.0, "rental_uris": {"android": "https://dc.lft.to/lastmile_qr_scan", "ios": "https://dc.lft.to/lastmile_qr_scan"}, "name": "057ab92c644c5f43984b55a8bf36cedc", "type": "electric_scooter", "lat": 38.91414783333333, "is_disabled": 0}, {"fusion_lat": 0.0, "lon": -76.998823, "is_reserved": 0, "bike_id": "8497895950fdf22794052d804ee84247", "fusion_lon": 0.0, "rental_uris": {"android": "https://dc.lft.to/lastmile_qr_scan", "ios": "https://dc.lft.to/lastmile_qr_scan"}, "name": "8497895950fdf22794052d804ee84247", "type": "electric_scooter", "lat": 38.920565833333335, "is_disabled": 0}, {"fusion_lat": 0.0, "lon": -76.97016, "is_reserved": 0, "bike_id": "a2344a9eef2833bea5c4dd00229f710d", "fusion_lon": 0.0, "rental_uris": {"android": "https://dc.lft.to/lastmile_qr_scan", "ios": "https://dc.lft.to/lastmile_qr_scan"}, "name": "a2344a9eef2833bea5c4dd00229f710d", "type": "electric_scooter", "lat": 38.9253005, "is_disabled": 0}, {"fusion_lat": 0.0, "lon": -77.05648883333333, "is_reserved": 0, "bike_id": "09c2609fc91db4220374d4d95972441b", "fusion_lon": 0.0, "rental_uris": {"android": "https://dc.lft.to/lastmile_qr_scan", "ios": "https://dc.lft.to/lastmile_qr_scan"}, "name": "09c2609fc91db4220374d4d95972441b", "type": "electric_scooter", "lat": 38.907703833333336, "is_disabled": 0}, {"fusion_lat": 0.0, "lon": -77.02274316666667, "is_reserved": 0, "bike_id": "a76345ed3912ce25fdc22deea1026626", "fusion_lon": 0.0, "rental_uris": {"android": "https://dc.lft.to/lastmile_qr_scan", "ios": "https://dc.lft.to/lastmile_qr_scan"}, "name": "a76345ed3912ce25fdc22deea1026626", "type": "electric_scooter", "lat": 38.91226133333333, "is_disabled": 0}, {"fusion_lat": 0.0, "lon": -76.9876945, "is_reserved": 0, "bike_id": "45ed09531085860233bb96165d88c58b", "fusion_lon": 0.0, "rental_uris": {"android": "https://dc.lft.to/lastmile_qr_scan", "ios": "https://dc.lft.to/lastmile_qr_scan"}, "name": "45ed09531085860233bb96165d88c58b", "type": "electric_scooter", "lat": 38.900308, "is_disabled": 0}, {"fusion_lat": 0.0, "lon": -77.0176195, "is_reserved": 0, "bike_id": "28db2afb9fdd06f751a6c94ce8e85c1d", "fusion_lon": 0.0, "rental_uris": {"android": "https://dc.lft.to/lastmile_qr_scan", "ios": "https://dc.lft.to/lastmile_qr_scan"}, "name": "28db2afb9fdd06f751a6c94ce8e85c1d", "type": "electric_scooter", "lat": 38.876914, "is_disabled": 0}, {"fusion_lat": 0.0, "lon": -77.0345675, "is_reserved": 0, "bike_id": "ea2c92b6ba80075c28f3da4ca29a4167", "fusion_lon": 0.0, "rental_uris": {"android": "https://dc.lft.to/lastmile_qr_scan", "ios": "https://dc.lft.to/lastmile_qr_scan"}, "name": "ea2c92b6ba80075c28f3da4ca29a4167", "type": "electric_scooter", "lat": 38.908049166666665, "is_disabled": 0}, {"fusion_lat": 0.0, "lon": -77.04143666666667, "is_reserved": 0, "bike_id": "5d3b7b51bc3e625e20d9001c7aea6a36", "fusion_lon": 0.0, "rental_uris": {"android": "https://dc.lft.to/lastmile_qr_scan", "ios": "https://dc.lft.to/lastmile_qr_scan"}, "name": "5d3b7b51bc3e625e20d9001c7aea6a36", "type": "electric_scooter", "lat": 38.89222866666667, "is_disabled": 0}, {"fusion_lat": 0.0, "lon": -77.2084395, "is_reserved": 0, "bike_id": "93e1cd4cd80445c6fcc60d697e467f82", "fusion_lon": 0.0, "rental_uris": {"android": "https://dc.lft.to/lastmile_qr_scan", "ios": "https://dc.lft.to/lastmile_qr_scan"}, "name": "93e1cd4cd80445c6fcc60d697e467f82", "type": "electric_bike", "lat": 38.924719, "is_disabled": 0}, {"fusion_lat": 0.0, "lon": -77.02848516666667, "is_reserved": 0, "bike_id": "005c3e1a14a0eb0f210dd9bb540d6230", "fusion_lon": 0.0, "rental_uris": {"android": "https://dc.lft.to/lastmile_qr_scan", "ios": "https://dc.lft.to/lastmile_qr_scan"}, "name": "005c3e1a14a0eb0f210dd9bb540d6230", "type": "electric_scooter", "lat": 38.88741316666667, "is_disabled": 0}, {"fusion_lat": 0.0, "lon": -77.00945283333333, "is_reserved": 0, "bike_id": "08ab2ad147df5c0a9c97bd58b04f7978", "fusion_lon": 0.0, "rental_uris": {"android": "https://dc.lft.to/lastmile_qr_scan", "ios": "https://dc.lft.to/lastmile_qr_scan"}, "name": "08ab2ad147df5c0a9c97bd58b04f7978", "type": "electric_scooter", "lat": 38.89744666666667, "is_disabled": 0}, {"fusion_lat": 0.0, "lon": -77.0665355, "is_reserved": 0, "bike_id": "9ef1e1c1b85db00b5e97d211960ed5b3", "fusion_lon": 0.0, "rental_uris": {"android": "https://dc.lft.to/lastmile_qr_scan", "ios": "https://dc.lft.to/lastmile_qr_scan"}, "name": "9ef1e1c1b85db00b5e97d211960ed5b3", "type": "electric_scooter", "lat": 38.949634, "is_disabled": 0}, {"fusion_lat": 0.0, "lon": -77.0342, "is_reserved": 0, "bike_id": "66eb808b3987946358c658f8641126e1", "fusion_lon": 0.0, "rental_uris": {"android": "https://dc.lft.to/lastmile_qr_scan", "ios": "https://dc.lft.to/lastmile_qr_scan"}, "name": "66eb808b3987946358c658f8641126e1", "type": "electric_scooter", "lat": 38.919436833333336, "is_disabled": 0}, {"fusion_lat": 0.0, "lon": -76.9375025, "is_reserved": 0, "bike_id": "6f722481e5629d5a1bd2d1d759e4cd7d", "fusion_lon": 0.0, "rental_uris": {"android": "https://dc.lft.to/lastmile_qr_scan", "ios": "https://dc.lft.to/lastmile_qr_scan"}, "name": "6f722481e5629d5a1bd2d1d759e4cd7d", "type": "electric_scooter", "lat": 38.90370716666666, "is_disabled": 0}, {"fusion_lat": 0.0, "lon": -77.03719966666667, "is_reserved": 0, "bike_id": "2d4d9c1bb8788e36c5ac2e18a856fc73", "fusion_lon": 0.0, "rental_uris": {"android": "https://dc.lft.to/lastmile_qr_scan", "ios": "https://dc.lft.to/lastmile_qr_scan"}, "name": "2d4d9c1bb8788e36c5ac2e18a856fc73", "type": "electric_scooter", "lat": 38.93562516666667, "is_disabled": 0}, {"fusion_lat": 0.0, "lon": -77.036366, "is_reserved": 0, "bike_id": "6101cb8d46c1f7d06d6e3893c48b07b9", "fusion_lon": 0.0, "rental_uris": {"android": "https://dc.lft.to/lastmile_qr_scan", "ios": "https://dc.lft.to/lastmile_qr_scan"}, "name": "6101cb8d46c1f7d06d6e3893c48b07b9", "type": "electric_scooter", "lat": 38.936794166666665, "is_disabled": 0}, {"fusion_lat": 0.0, "lon": -77.01782166666666, "is_reserved": 0, "bike_id": "67d5118aa61d0f7f48a49fbdbefe6881", "fusion_lon": 0.0, "rental_uris": {"android": "https://dc.lft.to/lastmile_qr_scan", "ios": "https://dc.lft.to/lastmile_qr_scan"}, "name": "67d5118aa61d0f7f48a49fbdbefe6881", "type": "electric_scooter", "lat": 38.92122466666667, "is_disabled": 0}, {"fusion_lat": 0.0, "lon": -77.03882333333334, "is_reserved": 0, "bike_id": "4bad07c92f95bf3d13231e852ff7b794", "fusion_lon": 0.0, "rental_uris": {"android": "https://dc.lft.to/lastmile_qr_scan", "ios": "https://dc.lft.to/lastmile_qr_scan"}, "name": "4bad07c92f95bf3d13231e852ff7b794", "type": "electric_scooter", "lat": 38.9312155, "is_disabled": 0}, {"fusion_lat": 0.0, "lon": -77.02434083333333, "is_reserved": 0, "bike_id": "1dceda48ec9789b0dcfaf04378fe6061", "fusion_lon": 0.0, "rental_uris": {"android": "https://dc.lft.to/lastmile_qr_scan", "ios": "https://dc.lft.to/lastmile_qr_scan"}, "name": "1dceda48ec9789b0dcfaf04378fe6061", "type": "electric_scooter", "lat": 38.92723566666667, "is_disabled": 0}, {"fusion_lat": 0.0, "lon": -76.9871545, "is_reserved": 0, "bike_id": "28183cf59839f0eb882e064628bf5f45", "fusion_lon": 0.0, "rental_uris": {"android": "https://dc.lft.to/lastmile_qr_scan", "ios": "https://dc.lft.to/lastmile_qr_scan"}, "name": "28183cf59839f0eb882e064628bf5f45", "type": "electric_scooter", "lat": 38.8662315, "is_disabled": 0}, {"fusion_lat": 0.0, "lon": -77.033684, "is_reserved": 0, "bike_id": "97da47bb123fbc5353e81b147c3af2fc", "fusion_lon": 0.0, "rental_uris": {"android": "https://dc.lft.to/lastmile_qr_scan", "ios": "https://dc.lft.to/lastmile_qr_scan"}, "name": "97da47bb123fbc5353e81b147c3af2fc", "type": "electric_scooter", "lat": 38.90821833333333, "is_disabled": 0}, {"fusion_lat": 0.0, "lon": -77.03388066666666, "is_reserved": 0, "bike_id": "8af9ddccb943d72c102c1807b540e3fc", "fusion_lon": 0.0, "rental_uris": {"android": "https://dc.lft.to/lastmile_qr_scan", "ios": "https://dc.lft.to/lastmile_qr_scan"}, "name": "8af9ddccb943d72c102c1807b540e3fc", "type": "electric_scooter", "lat": 38.92540233333333, "is_disabled": 0}, {"fusion_lat": 0.0, "lon": -77.01084533333334, "is_reserved": 0, "bike_id": "30a80e673b20f2a3f443858843d32457", "fusion_lon": 0.0, "rental_uris": {"android": "https://dc.lft.to/lastmile_qr_scan", "ios": "https://dc.lft.to/lastmile_qr_scan"}, "name": "30a80e673b20f2a3f443858843d32457", "type": "electric_scooter", "lat": 38.907840666666665, "is_disabled": 0}, {"fusion_lat": 0.0, "lon": -77.02791816666667, "is_reserved": 0, "bike_id": "26c81f8ca981acc9e9e01c13d049f4ef", "fusion_lon": 0.0, "rental_uris": {"android": "https://dc.lft.to/lastmile_qr_scan", "ios": "https://dc.lft.to/lastmile_qr_scan"}, "name": "26c81f8ca981acc9e9e01c13d049f4ef", "type": "electric_scooter", "lat": 38.9308175, "is_disabled": 0}, {"fusion_lat": 0.0, "lon": -77.07431883333334, "is_reserved": 0, "bike_id": "c8fe0b0dd23ee10a59f5915b12770207", "fusion_lon": 0.0, "rental_uris": {"android": "https://dc.lft.to/lastmile_qr_scan", "ios": "https://dc.lft.to/lastmile_qr_scan"}, "name": "c8fe0b0dd23ee10a59f5915b12770207", "type": "electric_bike", "lat": 38.999448, "is_disabled": 0}, {"fusion_lat": 0.0, "lon": -77.0006125, "is_reserved": 0, "bike_id": "42379e63ce415614d314bdd4d4f94713", "fusion_lon": 0.0, "rental_uris": {"android": "https://dc.lft.to/lastmile_qr_scan", "ios": "https://dc.lft.to/lastmile_qr_scan"}, "name": "42379e63ce415614d314bdd4d4f94713", "type": "electric_scooter", "lat": 38.898372333333334, "is_disabled": 0}, {"fusion_lat": 0.0, "lon": -76.99326516666666, "is_reserved": 0, "bike_id": "915a5edc34d4c6efae98d5f39433160f", "fusion_lon": 0.0, "rental_uris": {"android": "https://dc.lft.to/lastmile_qr_scan", "ios": "https://dc.lft.to/lastmile_qr_scan"}, "name": "915a5edc34d4c6efae98d5f39433160f", "type": "electric_bike", "lat": 38.89366966666667, "is_disabled": 0}, {"fusion_lat": 0.0, "lon": -76.98766, "is_reserved": 0, "bike_id": "6a88f5a2d73a54a110b320f9ef575ede", "fusion_lon": 0.0, "rental_uris": {"android": "https://dc.lft.to/lastmile_qr_scan", "ios": "https://dc.lft.to/lastmile_qr_scan"}, "name": "6a88f5a2d73a54a110b320f9ef575ede", "type": "electric_bike", "lat": 38.8577485, "is_disabled": 0}, {"fusion_lat": 0.0, "lon": -77.03423833333333, "is_reserved": 0, "bike_id": "6cc54b282165648eacbb466c083ebf08", "fusion_lon": 0.0, "rental_uris": {"android": "https://dc.lft.to/lastmile_qr_scan", "ios": "https://dc.lft.to/lastmile_qr_scan"}, "name": "6cc54b282165648eacbb466c083ebf08", "type": "electric_bike", "lat": 38.96623733333333, "is_disabled": 0}, {"fusion_lat": 0.0, "lon": -77.02811516666667, "is_reserved": 0, "bike_id": "f7895bce69cfcdb9044b7d28440bf34d", "fusion_lon": 0.0, "rental_uris": {"android": "https://dc.lft.to/lastmile_qr_scan", "ios": "https://dc.lft.to/lastmile_qr_scan"}, "name": "f7895bce69cfcdb9044b7d28440bf34d", "type": "electric_scooter", "lat": 38.89502933333333, "is_disabled": 0}, {"fusion_lat": 0.0, "lon": -77.04211783333334, "is_reserved": 0, "bike_id": "9c28e06d38aeb72155e4d32d89d20b71", "fusion_lon": 0.0, "rental_uris": {"android": "https://dc.lft.to/lastmile_qr_scan", "ios": "https://dc.lft.to/lastmile_qr_scan"}, "name": "9c28e06d38aeb72155e4d32d89d20b71", "type": "electric_scooter", "lat": 38.906546, "is_disabled": 0}, {"fusion_lat": 0.0, "lon": -77.073533, "is_reserved": 0, "bike_id": "7c2659cf1d4afb6db71341b36f9c6674", "fusion_lon": 0.0, "rental_uris": {"android": "https://dc.lft.to/lastmile_qr_scan", "ios": "https://dc.lft.to/lastmile_qr_scan"}, "name": "7c2659cf1d4afb6db71341b36f9c6674", "type": "electric_scooter", "lat": 38.93352616666667, "is_disabled": 0}, {"fusion_lat": 0.0, "lon": -77.02900816666667, "is_reserved": 0, "bike_id": "4952185a0ab921f48d8148e3971a2514", "fusion_lon": 0.0, "rental_uris": {"android": "https://dc.lft.to/lastmile_qr_scan", "ios": "https://dc.lft.to/lastmile_qr_scan"}, "name": "4952185a0ab921f48d8148e3971a2514", "type": "electric_scooter", "lat": 39.03752383333333, "is_disabled": 0}, {"fusion_lat": 0.0, "lon": -77.04889783333333, "is_reserved": 0, "bike_id": "0002cd007124506b5b53dce2aa2f16af", "fusion_lon": 0.0, "rental_uris": {"android": "https://dc.lft.to/lastmile_qr_scan", "ios": "https://dc.lft.to/lastmile_qr_scan"}, "name": "0002cd007124506b5b53dce2aa2f16af", "type": "electric_scooter", "lat": 38.91561, "is_disabled": 0}, {"fusion_lat": 0.0, "lon": -77.00681416666667, "is_reserved": 0, "bike_id": "3ebe60b952678ce6bd7f69efe1df4f1d", "fusion_lon": 0.0, "rental_uris": {"android": "https://dc.lft.to/lastmile_qr_scan", "ios": "https://dc.lft.to/lastmile_qr_scan"}, "name": "3ebe60b952678ce6bd7f69efe1df4f1d", "type": "electric_scooter", "lat": 38.900106, "is_disabled": 0}, {"fusion_lat": 0.0, "lon": -76.97419083333334, "is_reserved": 0, "bike_id": "e212122bdfe150b99c278fc4fe390338", "fusion_lon": 0.0, "rental_uris": {"android": "https://dc.lft.to/lastmile_qr_scan", "ios": "https://dc.lft.to/lastmile_qr_scan"}, "name": "e212122bdfe150b99c278fc4fe390338", "type": "electric_scooter", "lat": 38.9045495, "is_disabled": 0}, {"fusion_lat": 0.0, "lon": -76.97480433333334, "is_reserved": 0, "bike_id": "75f854073ef032b8f3c360022cb13994", "fusion_lon": 0.0, "rental_uris": {"android": "https://dc.lft.to/lastmile_qr_scan", "ios": "https://dc.lft.to/lastmile_qr_scan"}, "name": "75f854073ef032b8f3c360022cb13994", "type": "electric_scooter", "lat": 38.90354416666667, "is_disabled": 0}, {"fusion_lat": 0.0, "lon": -77.08069716666667, "is_reserved": 0, "bike_id": "1327cb103c49cbd6665e9c46510a5499", "fusion_lon": 0.0, "rental_uris": {"android": "https://dc.lft.to/lastmile_qr_scan", "ios": "https://dc.lft.to/lastmile_qr_scan"}, "name": "1327cb103c49cbd6665e9c46510a5499", "type": "electric_bike", "lat": 39.05281816666667, "is_disabled": 0}, {"fusion_lat": 0.0, "lon": -77.02332133333333, "is_reserved": 0, "bike_id": "e9dde0bf42413c5ead1426acd369b363", "fusion_lon": 0.0, "rental_uris": {"android": "https://dc.lft.to/lastmile_qr_scan", "ios": "https://dc.lft.to/lastmile_qr_scan"}, "name": "e9dde0bf42413c5ead1426acd369b363", "type": "electric_scooter", "lat": 38.924779, "is_disabled": 0}, {"fusion_lat": 0.0, "lon": -77.04040283333333, "is_reserved": 0, "bike_id": "6276c3607ebfbed77d7d3b44261ef67b", "fusion_lon": 0.0, "rental_uris": {"android": "https://dc.lft.to/lastmile_qr_scan", "ios": "https://dc.lft.to/lastmile_qr_scan"}, "name": "6276c3607ebfbed77d7d3b44261ef67b", "type": "electric_scooter", "lat": 38.918627, "is_disabled": 0}, {"fusion_lat": 0.0, "lon": -77.04868983333333, "is_reserved": 0, "bike_id": "3d30b73d0585521f2567d2ea45a1fe40", "fusion_lon": 0.0, "rental_uris": {"android": "https://dc.lft.to/lastmile_qr_scan", "ios": "https://dc.lft.to/lastmile_qr_scan"}, "name": "3d30b73d0585521f2567d2ea45a1fe40", "type": "electric_scooter", "lat": 38.909777166666665, "is_disabled": 0}, {"fusion_lat": 0.0, "lon": -77.0346535, "is_reserved": 0, "bike_id": "0df433e8f501e9ff31b67bf7881839cd", "fusion_lon": 0.0, "rental_uris": {"android": "https://dc.lft.to/lastmile_qr_scan", "ios": "https://dc.lft.to/lastmile_qr_scan"}, "name": "0df433e8f501e9ff31b67bf7881839cd", "type": "electric_scooter", "lat": 38.91879183333333, "is_disabled": 0}, {"fusion_lat": 0.0, "lon": -77.01780483333333, "is_reserved": 0, "bike_id": "73b4843c4927f7d8d4714f4d37601806", "fusion_lon": 0.0, "rental_uris": {"android": "https://dc.lft.to/lastmile_qr_scan", "ios": "https://dc.lft.to/lastmile_qr_scan"}, "name": "73b4843c4927f7d8d4714f4d37601806", "type": "electric_scooter", "lat": 38.887142833333336, "is_disabled": 0}, {"fusion_lat": 0.0, "lon": -76.99644416666666, "is_reserved": 0, "bike_id": "987bec1cd59e5b4dfcead5446326b836", "fusion_lon": 0.0, "rental_uris": {"android": "https://dc.lft.to/lastmile_qr_scan", "ios": "https://dc.lft.to/lastmile_qr_scan"}, "name": "987bec1cd59e5b4dfcead5446326b836", "type": "electric_bike", "lat": 38.98826783333333, "is_disabled": 0}, {"fusion_lat": 0.0, "lon": -77.06735583333334, "is_reserved": 0, "bike_id": "0ba19184da8f85f3e3c1f126ce97e3a2", "fusion_lon": 0.0, "rental_uris": {"android": "https://dc.lft.to/lastmile_qr_scan", "ios": "https://dc.lft.to/lastmile_qr_scan"}, "name": "0ba19184da8f85f3e3c1f126ce97e3a2", "type": "electric_scooter", "lat": 38.90678533333333, "is_disabled": 0}, {"fusion_lat": 0.0, "lon": -77.03865383333333, "is_reserved": 0, "bike_id": "291973c9ff839d7445e94191737813e0", "fusion_lon": 0.0, "rental_uris": {"android": "https://dc.lft.to/lastmile_qr_scan", "ios": "https://dc.lft.to/lastmile_qr_scan"}, "name": "291973c9ff839d7445e94191737813e0", "type": "electric_scooter", "lat": 38.90789616666667, "is_disabled": 0}, {"fusion_lat": 0.0, "lon": -77.02308716666667, "is_reserved": 0, "bike_id": "c01c7961c1bfa879305e59b23f57dfd8", "fusion_lon": 0.0, "rental_uris": {"android": "https://dc.lft.to/lastmile_qr_scan", "ios": "https://dc.lft.to/lastmile_qr_scan"}, "name": "c01c7961c1bfa879305e59b23f57dfd8", "type": "electric_scooter", "lat": 38.917858, "is_disabled": 0}, {"fusion_lat": 0.0, "lon": -77.048388, "is_reserved": 0, "bike_id": "9bd2828e18682d344000228c3643846b", "fusion_lon": 0.0, "rental_uris": {"android": "https://dc.lft.to/lastmile_qr_scan", "ios": "https://dc.lft.to/lastmile_qr_scan"}, "name": "9bd2828e18682d344000228c3643846b", "type": "electric_scooter", "lat": 38.90487, "is_disabled": 0}, {"fusion_lat": 0.0, "lon": -77.03681966666667, "is_reserved": 0, "bike_id": "420acfcb156f781b967fa8f1482e7db5", "fusion_lon": 0.0, "rental_uris": {"android": "https://dc.lft.to/lastmile_qr_scan", "ios": "https://dc.lft.to/lastmile_qr_scan"}, "name": "420acfcb156f781b967fa8f1482e7db5", "type": "electric_scooter", "lat": 38.910388833333336, "is_disabled": 0}, {"fusion_lat": 0.0, "lon": -77.02598416666666, "is_reserved": 0, "bike_id": "416ef50b343437303551155be3f9bb91", "fusion_lon": 0.0, "rental_uris": {"android": "https://dc.lft.to/lastmile_qr_scan", "ios": "https://dc.lft.to/lastmile_qr_scan"}, "name": "416ef50b343437303551155be3f9bb91", "type": "electric_scooter", "lat": 38.9258275, "is_disabled": 0}, {"fusion_lat": 0.0, "lon": -77.03392916666667, "is_reserved": 0, "bike_id": "0b98af42182583f36d9d894fb18feaa7", "fusion_lon": 0.0, "rental_uris": {"android": "https://dc.lft.to/lastmile_qr_scan", "ios": "https://dc.lft.to/lastmile_qr_scan"}, "name": "0b98af42182583f36d9d894fb18feaa7", "type": "electric_scooter", "lat": 38.923556833333336, "is_disabled": 0}, {"fusion_lat": 0.0, "lon": -77.032031, "is_reserved": 0, "bike_id": "7369917bf66babc5227fd772293262cc", "fusion_lon": 0.0, "rental_uris": {"android": "https://dc.lft.to/lastmile_qr_scan", "ios": "https://dc.lft.to/lastmile_qr_scan"}, "name": "7369917bf66babc5227fd772293262cc", "type": "electric_scooter", "lat": 38.908248666666665, "is_disabled": 0}, {"fusion_lat": 0.0, "lon": -77.02161166666667, "is_reserved": 0, "bike_id": "c70322e5259979767a907a66c3fc4050", "fusion_lon": 0.0, "rental_uris": {"android": "https://dc.lft.to/lastmile_qr_scan", "ios": "https://dc.lft.to/lastmile_qr_scan"}, "name": "c70322e5259979767a907a66c3fc4050", "type": "electric_scooter", "lat": 38.9290505, "is_disabled": 0}, {"fusion_lat": 0.0, "lon": -77.07908166666667, "is_reserved": 0, "bike_id": "8348bca6cd4121216f0fc49742500060", "fusion_lon": 0.0, "rental_uris": {"android": "https://dc.lft.to/lastmile_qr_scan", "ios": "https://dc.lft.to/lastmile_qr_scan"}, "name": "8348bca6cd4121216f0fc49742500060", "type": "electric_scooter", "lat": 38.94806483333333, "is_disabled": 0}, {"fusion_lat": 0.0, "lon": -77.03436566666667, "is_reserved": 0, "bike_id": "93799afd1281e866c2c36fa2c9ab7014", "fusion_lon": 0.0, "rental_uris": {"android": "https://dc.lft.to/lastmile_qr_scan", "ios": "https://dc.lft.to/lastmile_qr_scan"}, "name": "93799afd1281e866c2c36fa2c9ab7014", "type": "electric_bike", "lat": 38.965241666666664, "is_disabled": 0}, {"fusion_lat": 0.0, "lon": -77.0557115, "is_reserved": 0, "bike_id": "1e048fc6941e80ad2834e2e7e601ed9b", "fusion_lon": 0.0, "rental_uris": {"android": "https://dc.lft.to/lastmile_qr_scan", "ios": "https://dc.lft.to/lastmile_qr_scan"}, "name": "1e048fc6941e80ad2834e2e7e601ed9b", "type": "electric_scooter", "lat": 38.915978, "is_disabled": 0}, {"fusion_lat": 0.0, "lon": -77.00698216666666, "is_reserved": 0, "bike_id": "4ccd9e21116ee36ce59ff8f97924a391", "fusion_lon": 0.0, "rental_uris": {"android": "https://dc.lft.to/lastmile_qr_scan", "ios": "https://dc.lft.to/lastmile_qr_scan"}, "name": "4ccd9e21116ee36ce59ff8f97924a391", "type": "electric_scooter", "lat": 38.952461, "is_disabled": 0}, {"fusion_lat": 0.0, "lon": -77.07337116666666, "is_reserved": 0, "bike_id": "d428beb7e540f444d5618fe6ce890aa3", "fusion_lon": 0.0, "rental_uris": {"android": "https://dc.lft.to/lastmile_qr_scan", "ios": "https://dc.lft.to/lastmile_qr_scan"}, "name": "d428beb7e540f444d5618fe6ce890aa3", "type": "electric_scooter", "lat": 38.925295166666665, "is_disabled": 0}, {"fusion_lat": 0.0, "lon": -77.033202, "is_reserved": 0, "bike_id": "c60b9db683273a584fe4f2fccd08ff35", "fusion_lon": 0.0, "rental_uris": {"android": "https://dc.lft.to/lastmile_qr_scan", "ios": "https://dc.lft.to/lastmile_qr_scan"}, "name": "c60b9db683273a584fe4f2fccd08ff35", "type": "electric_scooter", "lat": 38.9014995, "is_disabled": 0}, {"fusion_lat": 0.0, "lon": -77.017021, "is_reserved": 0, "bike_id": "d6832322d3f558d55b3622ef698e1d71", "fusion_lon": 0.0, "rental_uris": {"android": "https://dc.lft.to/lastmile_qr_scan", "ios": "https://dc.lft.to/lastmile_qr_scan"}, "name": "d6832322d3f558d55b3622ef698e1d71", "type": "electric_scooter", "lat": 38.905227833333335, "is_disabled": 0}, {"fusion_lat": 0.0, "lon": -77.065988, "is_reserved": 0, "bike_id": "99216d473baa30f719e3305b08d2a523", "fusion_lon": 0.0, "rental_uris": {"android": "https://dc.lft.to/lastmile_qr_scan", "ios": "https://dc.lft.to/lastmile_qr_scan"}, "name": "99216d473baa30f719e3305b08d2a523", "type": "electric_scooter", "lat": 38.90353266666666, "is_disabled": 0}, {"fusion_lat": 0.0, "lon": -77.03179933333334, "is_reserved": 0, "bike_id": "be914e20f1be1ab495ce720da7ba89da", "fusion_lon": 0.0, "rental_uris": {"android": "https://dc.lft.to/lastmile_qr_scan", "ios": "https://dc.lft.to/lastmile_qr_scan"}, "name": "be914e20f1be1ab495ce720da7ba89da", "type": "electric_scooter", "lat": 38.919328166666666, "is_disabled": 0}, {"fusion_lat": 0.0, "lon": -77.02714733333333, "is_reserved": 0, "bike_id": "6aaf9f95aa78698fb099328bfa7598c4", "fusion_lon": 0.0, "rental_uris": {"android": "https://dc.lft.to/lastmile_qr_scan", "ios": "https://dc.lft.to/lastmile_qr_scan"}, "name": "6aaf9f95aa78698fb099328bfa7598c4", "type": "electric_scooter", "lat": 38.924565, "is_disabled": 0}, {"fusion_lat": 0.0, "lon": -77.04561266666667, "is_reserved": 0, "bike_id": "4a85230e17a37629b1a3d4a86f54230c", "fusion_lon": 0.0, "rental_uris": {"android": "https://dc.lft.to/lastmile_qr_scan", "ios": "https://dc.lft.to/lastmile_qr_scan"}, "name": "4a85230e17a37629b1a3d4a86f54230c", "type": "electric_scooter", "lat": 38.917919499999996, "is_disabled": 0}, {"fusion_lat": 0.0, "lon": -77.01515866666666, "is_reserved": 0, "bike_id": "8efc5c99eacc7fc31000ae2ff3ae20ed", "fusion_lon": 0.0, "rental_uris": {"android": "https://dc.lft.to/lastmile_qr_scan", "ios": "https://dc.lft.to/lastmile_qr_scan"}, "name": "8efc5c99eacc7fc31000ae2ff3ae20ed", "type": "electric_scooter", "lat": 38.892422833333335, "is_disabled": 0}, {"fusion_lat": 0.0, "lon": -77.01767516666666, "is_reserved": 0, "bike_id": "0d4441aee8e82e1595c504ca800115d3", "fusion_lon": 0.0, "rental_uris": {"android": "https://dc.lft.to/lastmile_qr_scan", "ios": "https://dc.lft.to/lastmile_qr_scan"}, "name": "0d4441aee8e82e1595c504ca800115d3", "type": "electric_scooter", "lat": 38.885863, "is_disabled": 0}, {"fusion_lat": 0.0, "lon": -77.04373816666667, "is_reserved": 0, "bike_id": "6be4a09684efd9a44ee4a37558789cbc", "fusion_lon": 0.0, "rental_uris": {"android": "https://dc.lft.to/lastmile_qr_scan", "ios": "https://dc.lft.to/lastmile_qr_scan"}, "name": "6be4a09684efd9a44ee4a37558789cbc", "type": "electric_scooter", "lat": 38.89223883333333, "is_disabled": 0}, {"fusion_lat": 0.0, "lon": -76.99795816666666, "is_reserved": 0, "bike_id": "2581b138cee906770bb7fb8013b04e36", "fusion_lon": 0.0, "rental_uris": {"android": "https://dc.lft.to/lastmile_qr_scan", "ios": "https://dc.lft.to/lastmile_qr_scan"}, "name": "2581b138cee906770bb7fb8013b04e36", "type": "electric_bike", "lat": 38.9508885, "is_disabled": 0}, {"fusion_lat": 0.0, "lon": -77.02219483333333, "is_reserved": 0, "bike_id": "7d7a321aa109ca9e62dde5e64fac18ca", "fusion_lon": 0.0, "rental_uris": {"android": "https://dc.lft.to/lastmile_qr_scan", "ios": "https://dc.lft.to/lastmile_qr_scan"}, "name": "7d7a321aa109ca9e62dde5e64fac18ca", "type": "electric_scooter", "lat": 38.91116133333333, "is_disabled": 0}, {"fusion_lat": 0.0, "lon": -77.03101483333333, "is_reserved": 0, "bike_id": "35358ed61b82641fd1e5ed57364a2fc0", "fusion_lon": 0.0, "rental_uris": {"android": "https://dc.lft.to/lastmile_qr_scan", "ios": "https://dc.lft.to/lastmile_qr_scan"}, "name": "35358ed61b82641fd1e5ed57364a2fc0", "type": "electric_scooter", "lat": 38.904223, "is_disabled": 0}, {"fusion_lat": 0.0, "lon": -77.0441645, "is_reserved": 0, "bike_id": "171f5154c6cfa6d6fbecd3a8d75a551e", "fusion_lon": 0.0, "rental_uris": {"android": "https://dc.lft.to/lastmile_qr_scan", "ios": "https://dc.lft.to/lastmile_qr_scan"}, "name": "171f5154c6cfa6d6fbecd3a8d75a551e", "type": "electric_scooter", "lat": 38.92131933333334, "is_disabled": 0}, {"fusion_lat": 0.0, "lon": -77.02844, "is_reserved": 0, "bike_id": "40e11ee97cc0c340ed0b5a4e8394d996", "fusion_lon": 0.0, "rental_uris": {"android": "https://dc.lft.to/lastmile_qr_scan", "ios": "https://dc.lft.to/lastmile_qr_scan"}, "name": "40e11ee97cc0c340ed0b5a4e8394d996", "type": "electric_scooter", "lat": 38.88748666666667, "is_disabled": 0}, {"fusion_lat": 0.0, "lon": -77.051084, "is_reserved": 0, "bike_id": "26e65e6575de10f9e267103067534227", "fusion_lon": 0.0, "rental_uris": {"android": "https://dc.lft.to/lastmile_qr_scan", "ios": "https://dc.lft.to/lastmile_qr_scan"}, "name": "26e65e6575de10f9e267103067534227", "type": "electric_bike", "lat": 39.03670916666667, "is_disabled": 0}, {"fusion_lat": 0.0, "lon": -77.0388225, "is_reserved": 0, "bike_id": "59b1d8a938dedcb807703af5a7652661", "fusion_lon": 0.0, "rental_uris": {"android": "https://dc.lft.to/lastmile_qr_scan", "ios": "https://dc.lft.to/lastmile_qr_scan"}, "name": "59b1d8a938dedcb807703af5a7652661", "type": "electric_scooter", "lat": 38.891995, "is_disabled": 0}, {"fusion_lat": 0.0, "lon": -76.9678505, "is_reserved": 0, "bike_id": "697ba2b37ed3f988de7a3100b3589937", "fusion_lon": 0.0, "rental_uris": {"android": "https://dc.lft.to/lastmile_qr_scan", "ios": "https://dc.lft.to/lastmile_qr_scan"}, "name": "697ba2b37ed3f988de7a3100b3589937", "type": "electric_scooter", "lat": 38.87338866666666, "is_disabled": 0}, {"fusion_lat": 0.0, "lon": -77.038163, "is_reserved": 0, "bike_id": "09cbf9005803150f7dce2c6b1af3bd11", "fusion_lon": 0.0, "rental_uris": {"android": "https://dc.lft.to/lastmile_qr_scan", "ios": "https://dc.lft.to/lastmile_qr_scan"}, "name": "09cbf9005803150f7dce2c6b1af3bd11", "type": "electric_scooter", "lat": 38.90975683333333, "is_disabled": 0}, {"fusion_lat": 0.0, "lon": -76.998181, "is_reserved": 0, "bike_id": "c518fe766dcc654ec4c0f6aaaaa41520", "fusion_lon": 0.0, "rental_uris": {"android": "https://dc.lft.to/lastmile_qr_scan", "ios": "https://dc.lft.to/lastmile_qr_scan"}, "name": "c518fe766dcc654ec4c0f6aaaaa41520", "type": "electric_scooter", "lat": 38.907171, "is_disabled": 0}, {"fusion_lat": 0.0, "lon": -77.0297795, "is_reserved": 0, "bike_id": "b2bbd0de4157087ed2d7c4bf1d3d0ea8", "fusion_lon": 0.0, "rental_uris": {"android": "https://dc.lft.to/lastmile_qr_scan", "ios": "https://dc.lft.to/lastmile_qr_scan"}, "name": "b2bbd0de4157087ed2d7c4bf1d3d0ea8", "type": "electric_scooter", "lat": 38.91417216666667, "is_disabled": 0}, {"fusion_lat": 0.0, "lon": -77.000453, "is_reserved": 0, "bike_id": "48dcacdbc754d11e6df47966f91d24ae", "fusion_lon": 0.0, "rental_uris": {"android": "https://dc.lft.to/lastmile_qr_scan", "ios": "https://dc.lft.to/lastmile_qr_scan"}, "name": "48dcacdbc754d11e6df47966f91d24ae", "type": "electric_scooter", "lat": 38.92466116666667, "is_disabled": 0}, {"fusion_lat": 0.0, "lon": -77.00729266666667, "is_reserved": 0, "bike_id": "43e4544cddf1b73f2003151f76227f9f", "fusion_lon": 0.0, "rental_uris": {"android": "https://dc.lft.to/lastmile_qr_scan", "ios": "https://dc.lft.to/lastmile_qr_scan"}, "name": "43e4544cddf1b73f2003151f76227f9f", "type": "electric_scooter", "lat": 38.884928333333335, "is_disabled": 0}, {"fusion_lat": 0.0, "lon": -76.9857675, "is_reserved": 0, "bike_id": "59c24de40984e415ff056906fdaba722", "fusion_lon": 0.0, "rental_uris": {"android": "https://dc.lft.to/lastmile_qr_scan", "ios": "https://dc.lft.to/lastmile_qr_scan"}, "name": "59c24de40984e415ff056906fdaba722", "type": "electric_bike", "lat": 38.89962716666667, "is_disabled": 0}, {"fusion_lat": 0.0, "lon": -77.02921216666667, "is_reserved": 0, "bike_id": "466e41d83b3b81a34bf31b45a9168ccc", "fusion_lon": 0.0, "rental_uris": {"android": "https://dc.lft.to/lastmile_qr_scan", "ios": "https://dc.lft.to/lastmile_qr_scan"}, "name": "466e41d83b3b81a34bf31b45a9168ccc", "type": "electric_scooter", "lat": 38.93874733333333, "is_disabled": 0}, {"fusion_lat": 0.0, "lon": -77.0425135, "is_reserved": 0, "bike_id": "9b5f56bfad1692b42c043ff11f76e445", "fusion_lon": 0.0, "rental_uris": {"android": "https://dc.lft.to/lastmile_qr_scan", "ios": "https://dc.lft.to/lastmile_qr_scan"}, "name": "9b5f56bfad1692b42c043ff11f76e445", "type": "electric_scooter", "lat": 38.92246016666667, "is_disabled": 0}, {"fusion_lat": 0.0, "lon": -76.98532583333333, "is_reserved": 0, "bike_id": "9abdd2be0885e02344ba7a38436c6ec4", "fusion_lon": 0.0, "rental_uris": {"android": "https://dc.lft.to/lastmile_qr_scan", "ios": "https://dc.lft.to/lastmile_qr_scan"}, "name": "9abdd2be0885e02344ba7a38436c6ec4", "type": "electric_scooter", "lat": 38.91026816666667, "is_disabled": 0}, {"fusion_lat": 0.0, "lon": -77.024685, "is_reserved": 0, "bike_id": "784ea9c671470e89af27e1e766344fd2", "fusion_lon": 0.0, "rental_uris": {"android": "https://dc.lft.to/lastmile_qr_scan", "ios": "https://dc.lft.to/lastmile_qr_scan"}, "name": "784ea9c671470e89af27e1e766344fd2", "type": "electric_scooter", "lat": 38.9309895, "is_disabled": 0}, {"fusion_lat": 0.0, "lon": -76.986041, "is_reserved": 0, "bike_id": "bfd388d96de3a2716bb47268fcb80c86", "fusion_lon": 0.0, "rental_uris": {"android": "https://dc.lft.to/lastmile_qr_scan", "ios": "https://dc.lft.to/lastmile_qr_scan"}, "name": "bfd388d96de3a2716bb47268fcb80c86", "type": "electric_scooter", "lat": 38.860721, "is_disabled": 0}, {"fusion_lat": 0.0, "lon": -77.025319, "is_reserved": 0, "bike_id": "517b1542a84020fd7944c61bba702ca9", "fusion_lon": 0.0, "rental_uris": {"android": "https://dc.lft.to/lastmile_qr_scan", "ios": "https://dc.lft.to/lastmile_qr_scan"}, "name": "517b1542a84020fd7944c61bba702ca9", "type": "electric_scooter", "lat": 38.9148285, "is_disabled": 0}, {"fusion_lat": 0.0, "lon": -77.04242083333334, "is_reserved": 0, "bike_id": "8ca91714580859083397e51464d3f147", "fusion_lon": 0.0, "rental_uris": {"android": "https://dc.lft.to/lastmile_qr_scan", "ios": "https://dc.lft.to/lastmile_qr_scan"}, "name": "8ca91714580859083397e51464d3f147", "type": "electric_scooter", "lat": 38.924291833333335, "is_disabled": 0}, {"fusion_lat": 0.0, "lon": -76.98725016666667, "is_reserved": 0, "bike_id": "e26b05910fe93bab29d14abf65a148fb", "fusion_lon": 0.0, "rental_uris": {"android": "https://dc.lft.to/lastmile_qr_scan", "ios": "https://dc.lft.to/lastmile_qr_scan"}, "name": "e26b05910fe93bab29d14abf65a148fb", "type": "electric_scooter", "lat": 38.86710816666667, "is_disabled": 0}, {"fusion_lat": 0.0, "lon": -77.02080383333333, "is_reserved": 0, "bike_id": "1f6f9add3718cd41b328f3fc032fcda9", "fusion_lon": 0.0, "rental_uris": {"android": "https://dc.lft.to/lastmile_qr_scan", "ios": "https://dc.lft.to/lastmile_qr_scan"}, "name": "1f6f9add3718cd41b328f3fc032fcda9", "type": "electric_scooter", "lat": 38.92698683333333, "is_disabled": 0}, {"fusion_lat": 0.0, "lon": -77.00105183333334, "is_reserved": 0, "bike_id": "ea237d965299d636d6bb6c2bbd583f5d", "fusion_lon": 0.0, "rental_uris": {"android": "https://dc.lft.to/lastmile_qr_scan", "ios": "https://dc.lft.to/lastmile_qr_scan"}, "name": "ea237d965299d636d6bb6c2bbd583f5d", "type": "electric_scooter", "lat": 38.824474333333335, "is_disabled": 0}, {"fusion_lat": 0.0, "lon": -77.05318033333333, "is_reserved": 0, "bike_id": "1b8f74bcafa302b01c280ec95e029a6a", "fusion_lon": 0.0, "rental_uris": {"android": "https://dc.lft.to/lastmile_qr_scan", "ios": "https://dc.lft.to/lastmile_qr_scan"}, "name": "1b8f74bcafa302b01c280ec95e029a6a", "type": "electric_scooter", "lat": 38.900773666666666, "is_disabled": 0}, {"fusion_lat": 0.0, "lon": -76.96156016666667, "is_reserved": 0, "bike_id": "7188485133c53a7df7536fd95719e895", "fusion_lon": 0.0, "rental_uris": {"android": "https://dc.lft.to/lastmile_qr_scan", "ios": "https://dc.lft.to/lastmile_qr_scan"}, "name": "7188485133c53a7df7536fd95719e895", "type": "electric_scooter", "lat": 38.883614666666666, "is_disabled": 0}, {"fusion_lat": 0.0, "lon": -77.03482233333334, "is_reserved": 0, "bike_id": "a755618865d57dbb415453ba8c68df10", "fusion_lon": 0.0, "rental_uris": {"android": "https://dc.lft.to/lastmile_qr_scan", "ios": "https://dc.lft.to/lastmile_qr_scan"}, "name": "a755618865d57dbb415453ba8c68df10", "type": "electric_scooter", "lat": 38.92347266666667, "is_disabled": 0}, {"fusion_lat": 0.0, "lon": -77.02840966666666, "is_reserved": 0, "bike_id": "c41aff555a782e3307c5f0332a753185", "fusion_lon": 0.0, "rental_uris": {"android": "https://dc.lft.to/lastmile_qr_scan", "ios": "https://dc.lft.to/lastmile_qr_scan"}, "name": "c41aff555a782e3307c5f0332a753185", "type": "electric_scooter", "lat": 38.92573, "is_disabled": 0}, {"fusion_lat": 0.0, "lon": -77.106009, "is_reserved": 0, "bike_id": "d9d8cfd98156eb5c145067231a249a76", "fusion_lon": 0.0, "rental_uris": {"android": "https://dc.lft.to/lastmile_qr_scan", "ios": "https://dc.lft.to/lastmile_qr_scan"}, "name": "d9d8cfd98156eb5c145067231a249a76", "type": "electric_bike", "lat": 38.928953166666666, "is_disabled": 0}, {"fusion_lat": 0.0, "lon": -77.02469033333334, "is_reserved": 0, "bike_id": "b84f6a62be9fab2fffc3d77834ab44a4", "fusion_lon": 0.0, "rental_uris": {"android": "https://dc.lft.to/lastmile_qr_scan", "ios": "https://dc.lft.to/lastmile_qr_scan"}, "name": "b84f6a62be9fab2fffc3d77834ab44a4", "type": "electric_scooter", "lat": 38.917075, "is_disabled": 0}, {"fusion_lat": 0.0, "lon": -77.03642533333333, "is_reserved": 0, "bike_id": "5684222bd7835ec9fe6ed03a3401a973", "fusion_lon": 0.0, "rental_uris": {"android": "https://dc.lft.to/lastmile_qr_scan", "ios": "https://dc.lft.to/lastmile_qr_scan"}, "name": "5684222bd7835ec9fe6ed03a3401a973", "type": "electric_scooter", "lat": 38.91828266666667, "is_disabled": 0}, {"fusion_lat": 0.0, "lon": -77.04105216666666, "is_reserved": 0, "bike_id": "cf366676a168ff3776b5d062ce592cbd", "fusion_lon": 0.0, "rental_uris": {"android": "https://dc.lft.to/lastmile_qr_scan", "ios": "https://dc.lft.to/lastmile_qr_scan"}, "name": "cf366676a168ff3776b5d062ce592cbd", "type": "electric_scooter", "lat": 38.91777666666667, "is_disabled": 0}, {"fusion_lat": 0.0, "lon": -77.07386516666666, "is_reserved": 0, "bike_id": "9c867d9d45d355b721fa5a7ff97de51c", "fusion_lon": 0.0, "rental_uris": {"android": "https://dc.lft.to/lastmile_qr_scan", "ios": "https://dc.lft.to/lastmile_qr_scan"}, "name": "9c867d9d45d355b721fa5a7ff97de51c", "type": "electric_bike", "lat": 38.961815666666666, "is_disabled": 0}, {"fusion_lat": 0.0, "lon": -76.99056916666666, "is_reserved": 0, "bike_id": "60032064637f8b3022796399e3731b36", "fusion_lon": 0.0, "rental_uris": {"android": "https://dc.lft.to/lastmile_qr_scan", "ios": "https://dc.lft.to/lastmile_qr_scan"}, "name": "60032064637f8b3022796399e3731b36", "type": "electric_scooter", "lat": 38.863693, "is_disabled": 0}, {"fusion_lat": 0.0, "lon": -77.02965933333333, "is_reserved": 0, "bike_id": "7c37926f4075f2b9688325d115542c6b", "fusion_lon": 0.0, "rental_uris": {"android": "https://dc.lft.to/lastmile_qr_scan", "ios": "https://dc.lft.to/lastmile_qr_scan"}, "name": "7c37926f4075f2b9688325d115542c6b", "type": "electric_scooter", "lat": 38.925738, "is_disabled": 0}, {"fusion_lat": 0.0, "lon": -77.0857585, "is_reserved": 0, "bike_id": "808657a39843cac99f445dda331822cd", "fusion_lon": 0.0, "rental_uris": {"android": "https://dc.lft.to/lastmile_qr_scan", "ios": "https://dc.lft.to/lastmile_qr_scan"}, "name": "808657a39843cac99f445dda331822cd", "type": "electric_bike", "lat": 38.8442955, "is_disabled": 0}, {"fusion_lat": 0.0, "lon": -77.0639995, "is_reserved": 0, "bike_id": "9363ed7700c187043b31e7b6b3fb4193", "fusion_lon": 0.0, "rental_uris": {"android": "https://dc.lft.to/lastmile_qr_scan", "ios": "https://dc.lft.to/lastmile_qr_scan"}, "name": "9363ed7700c187043b31e7b6b3fb4193", "type": "electric_scooter", "lat": 38.94322, "is_disabled": 0}, {"fusion_lat": 0.0, "lon": -77.03835733333334, "is_reserved": 0, "bike_id": "e58eb2e4ca995e9c67b170389a0ea52e", "fusion_lon": 0.0, "rental_uris": {"android": "https://dc.lft.to/lastmile_qr_scan", "ios": "https://dc.lft.to/lastmile_qr_scan"}, "name": "e58eb2e4ca995e9c67b170389a0ea52e", "type": "electric_scooter", "lat": 38.911927166666665, "is_disabled": 0}, {"fusion_lat": 0.0, "lon": -77.02621083333334, "is_reserved": 0, "bike_id": "ad7f9a55e74c05233b71549e494f750b", "fusion_lon": 0.0, "rental_uris": {"android": "https://dc.lft.to/lastmile_qr_scan", "ios": "https://dc.lft.to/lastmile_qr_scan"}, "name": "ad7f9a55e74c05233b71549e494f750b", "type": "electric_scooter", "lat": 38.905145833333336, "is_disabled": 0}, {"fusion_lat": 0.0, "lon": -76.99027066666666, "is_reserved": 0, "bike_id": "06a53713a272c3072b545bf44839ea7f", "fusion_lon": 0.0, "rental_uris": {"android": "https://dc.lft.to/lastmile_qr_scan", "ios": "https://dc.lft.to/lastmile_qr_scan"}, "name": "06a53713a272c3072b545bf44839ea7f", "type": "electric_scooter", "lat": 38.902899833333336, "is_disabled": 0}, {"fusion_lat": 0.0, "lon": -76.93733683333333, "is_reserved": 0, "bike_id": "79b7266511865141811938db08864abf", "fusion_lon": 0.0, "rental_uris": {"android": "https://dc.lft.to/lastmile_qr_scan", "ios": "https://dc.lft.to/lastmile_qr_scan"}, "name": "79b7266511865141811938db08864abf", "type": "electric_scooter", "lat": 38.890161666666664, "is_disabled": 0}, {"fusion_lat": 0.0, "lon": -77.006007, "is_reserved": 0, "bike_id": "d47bc298bd7aebc2618f4637a88ac75a", "fusion_lon": 0.0, "rental_uris": {"android": "https://dc.lft.to/lastmile_qr_scan", "ios": "https://dc.lft.to/lastmile_qr_scan"}, "name": "d47bc298bd7aebc2618f4637a88ac75a", "type": "electric_scooter", "lat": 38.885170333333335, "is_disabled": 0}, {"fusion_lat": 0.0, "lon": -76.92204616666666, "is_reserved": 0, "bike_id": "06ea5138ad73f63b39ae15e493de019d", "fusion_lon": 0.0, "rental_uris": {"android": "https://dc.lft.to/lastmile_qr_scan", "ios": "https://dc.lft.to/lastmile_qr_scan"}, "name": "06ea5138ad73f63b39ae15e493de019d", "type": "electric_bike", "lat": 38.89491533333333, "is_disabled": 0}, {"fusion_lat": 0.0, "lon": -77.006289, "is_reserved": 0, "bike_id": "67d7792116c8cc2131b18fb6713dd08d", "fusion_lon": 0.0, "rental_uris": {"android": "https://dc.lft.to/lastmile_qr_scan", "ios": "https://dc.lft.to/lastmile_qr_scan"}, "name": "67d7792116c8cc2131b18fb6713dd08d", "type": "electric_scooter", "lat": 38.90816816666667, "is_disabled": 0}, {"fusion_lat": 0.0, "lon": -76.9952995, "is_reserved": 0, "bike_id": "9919b322ce87933c110bd782b8a5cf37", "fusion_lon": 0.0, "rental_uris": {"android": "https://dc.lft.to/lastmile_qr_scan", "ios": "https://dc.lft.to/lastmile_qr_scan"}, "name": "9919b322ce87933c110bd782b8a5cf37", "type": "electric_scooter", "lat": 38.877581, "is_disabled": 0}, {"fusion_lat": 0.0, "lon": -77.02986083333333, "is_reserved": 0, "bike_id": "13b428cf1edf59deb965d41b32e57d68", "fusion_lon": 0.0, "rental_uris": {"android": "https://dc.lft.to/lastmile_qr_scan", "ios": "https://dc.lft.to/lastmile_qr_scan"}, "name": "13b428cf1edf59deb965d41b32e57d68", "type": "electric_scooter", "lat": 38.90570866666667, "is_disabled": 0}, {"fusion_lat": 0.0, "lon": -77.13103033333333, "is_reserved": 0, "bike_id": "75c961dc73fab57123f2a09d5731df87", "fusion_lon": 0.0, "rental_uris": {"android": "https://dc.lft.to/lastmile_qr_scan", "ios": "https://dc.lft.to/lastmile_qr_scan"}, "name": "75c961dc73fab57123f2a09d5731df87", "type": "electric_bike", "lat": 39.024346, "is_disabled": 0}, {"fusion_lat": 0.0, "lon": -76.99954133333334, "is_reserved": 0, "bike_id": "5351e046333b7e6cd96f0941de526e74", "fusion_lon": 0.0, "rental_uris": {"android": "https://dc.lft.to/lastmile_qr_scan", "ios": "https://dc.lft.to/lastmile_qr_scan"}, "name": "5351e046333b7e6cd96f0941de526e74", "type": "electric_scooter", "lat": 38.923523, "is_disabled": 0}, {"fusion_lat": 0.0, "lon": -77.09596116666667, "is_reserved": 0, "bike_id": "9019f861f309f29ebc42fa81abe04601", "fusion_lon": 0.0, "rental_uris": {"android": "https://dc.lft.to/lastmile_qr_scan", "ios": "https://dc.lft.to/lastmile_qr_scan"}, "name": "9019f861f309f29ebc42fa81abe04601", "type": "electric_bike", "lat": 39.02892633333333, "is_disabled": 0}, {"fusion_lat": 0.0, "lon": -77.0562245, "is_reserved": 0, "bike_id": "f1596d86435eefdca89a6946dd4039fe", "fusion_lon": 0.0, "rental_uris": {"android": "https://dc.lft.to/lastmile_qr_scan", "ios": "https://dc.lft.to/lastmile_qr_scan"}, "name": "f1596d86435eefdca89a6946dd4039fe", "type": "electric_scooter", "lat": 38.960768, "is_disabled": 0}, {"fusion_lat": 0.0, "lon": -77.03860666666667, "is_reserved": 0, "bike_id": "a92ed0c52584beb27903be78d74ee81b", "fusion_lon": 0.0, "rental_uris": {"android": "https://dc.lft.to/lastmile_qr_scan", "ios": "https://dc.lft.to/lastmile_qr_scan"}, "name": "a92ed0c52584beb27903be78d74ee81b", "type": "electric_scooter", "lat": 38.91556633333333, "is_disabled": 0}, {"fusion_lat": 0.0, "lon": -77.03092566666666, "is_reserved": 0, "bike_id": "3a2de57515ebca38083927a7733eca1a", "fusion_lon": 0.0, "rental_uris": {"android": "https://dc.lft.to/lastmile_qr_scan", "ios": "https://dc.lft.to/lastmile_qr_scan"}, "name": "3a2de57515ebca38083927a7733eca1a", "type": "electric_scooter", "lat": 38.922382666666664, "is_disabled": 0}, {"fusion_lat": 0.0, "lon": -77.02549816666667, "is_reserved": 0, "bike_id": "4f1a8dc2da4927e3fb16334df1864e4c", "fusion_lon": 0.0, "rental_uris": {"android": "https://dc.lft.to/lastmile_qr_scan", "ios": "https://dc.lft.to/lastmile_qr_scan"},