{"data": {"bikes": [{"name": "bfad338a4984ee16d88dc2706e59efa3", "fusion_lat": 0.0, "type": "electric_scooter", "lat": 38.919298, "is_reserved": 0, "is_disabled": 0, "fusion_lon": 0.0, "bike_id": "bfad338a4984ee16d88dc2706e59efa3", "lon": -77.04157316666667, "rental_uris": {"ios": "https://dc.lft.to/lastmile_qr_scan", "android": "https://dc.lft.to/lastmile_qr_scan"}}, {"name": "4084bd01b46f3131dca04875d81bedd3", "fusion_lat": 0.0, "type": "electric_scooter", "lat": 38.91114566666667, "is_reserved": 0, "is_disabled": 0, "fusion_lon": 0.0, "bike_id": "4084bd01b46f3131dca04875d81bedd3", "lon": -77.0246605, "rental_uris": {"ios": "https://dc.lft.to/lastmile_qr_scan", "android": "https://dc.lft.to/lastmile_qr_scan"}}, {"name": "b29601117fdf65c005ce4c89fdf13cd7", "fusion_lat": 0.0, "type": "electric_scooter", "lat": 38.883756, "is_reserved": 0, "is_disabled": 0, "fusion_lon": 0.0, "bike_id": "b29601117fdf65c005ce4c89fdf13cd7", "lon": -76.923754, "rental_uris": {"ios": "https://dc.lft.to/lastmile_qr_scan", "android": "https://dc.lft.to/lastmile_qr_scan"}}, {"name": "86a26310c359b16cbf07ff39c6b9c0f4", "fusion_lat": 0.0, "type": "electric_scooter", "lat": 38.923613, "is_reserved": 0, "is_disabled": 0, "fusion_lon": 0.0, "bike_id": "86a26310c359b16cbf07ff39c6b9c0f4", "lon": -77.05845483333333, "rental_uris": {"ios": "https://dc.lft.to/lastmile_qr_scan", "android": "https://dc.lft.to/lastmile_qr_scan"}}, {"name": "4cbf169b599a1481ca3975e9e9f1f10a", "fusion_lat": 0.0, "type": "electric_scooter", "lat": 38.924728333333334, "is_reserved": 0, "is_disabled": 0, "fusion_lon": 0.0, "bike_id": "4cbf169b599a1481ca3975e9e9f1f10a", "lon": -77.02894966666666, "rental_uris": {"ios": "https://dc.lft.to/lastmile_qr_scan", "android": "https://dc.lft.to/lastmile_qr_scan"}}, {"name": "a42f7d66c2e3d55314a9ad1cb48f030f", "fusion_lat": 0.0, "type": "electric_scooter", "lat": 38.925163166666664, "is_reserved": 0, "is_disabled": 0, "fusion_lon": 0.0, "bike_id": "a42f7d66c2e3d55314a9ad1cb48f030f", "lon": -77.00171983333334, "rental_uris": {"ios": "https://dc.lft.to/lastmile_qr_scan", "android": "https://dc.lft.to/lastmile_qr_scan"}}, {"name": "34ec13b97d6ac18cd37d138e41958f9a", "fusion_lat": 0.0, "type": "electric_scooter", "lat": 38.912739333333334, "is_reserved": 0, "is_disabled": 0, "fusion_lon": 0.0, "bike_id": "34ec13b97d6ac18cd37d138e41958f9a", "lon": -77.0450465, "rental_uris": {"ios": "https://dc.lft.to/lastmile_qr_scan", "android": "https://dc.lft.to/lastmile_qr_scan"}}, {"name": "4f77c8da2d2d40f5f31de7ac18654ded", "fusion_lat": 0.0, "type": "electric_scooter", "lat": 38.89540733333333, "is_reserved": 0, "is_disabled": 0, "fusion_lon": 0.0, "bike_id": "4f77c8da2d2d40f5f31de7ac18654ded", "lon": -77.0113565, "rental_uris": {"ios": "https://dc.lft.to/lastmile_qr_scan", "android": "https://dc.lft.to/lastmile_qr_scan"}}, {"name": "51be4bd2caa8c19a5e5d6a9e042350c3", "fusion_lat": 0.0, "type": "electric_scooter", "lat": 38.89620766666667, "is_reserved": 0, "is_disabled": 0, "fusion_lon": 0.0, "bike_id": "51be4bd2caa8c19a5e5d6a9e042350c3", "lon": -77.04459683333333, "rental_uris": {"ios": "https://dc.lft.to/lastmile_qr_scan", "android": "https://dc.lft.to/lastmile_qr_scan"}}, {"name": "ccdfadae87e485a17104678da619571b", "fusion_lat": 0.0, "type": "electric_scooter", "lat": 38.9192265, "is_reserved": 0, "is_disabled": 0, "fusion_lon": 0.0, "bike_id": "ccdfadae87e485a17104678da619571b", "lon": -77.03425516666667, "rental_uris": {"ios": "https://dc.lft.to/lastmile_qr_scan", "android": "https://dc.lft.to/lastmile_qr_scan"}}, {"name": "b0ce7196c72d1c6131f6140d4bcff420", "fusion_lat": 0.0, "type": "electric_scooter", "lat": 38.928551, "is_reserved": 0, "is_disabled": 0, "fusion_lon": 0.0, "bike_id": "b0ce7196c72d1c6131f6140d4bcff420", "lon": -77.02739933333334, "rental_uris": {"ios": "https://dc.lft.to/lastmile_qr_scan", "android": "https://dc.lft.to/lastmile_qr_scan"}}, {"name": "eac003c90df2605b7fc82baa6be95486", "fusion_lat": 0.0, "type": "electric_scooter", "lat": 38.906804666666666, "is_reserved": 0, "is_disabled": 0, "fusion_lon": 0.0, "bike_id": "eac003c90df2605b7fc82baa6be95486", "lon": -77.046452, "rental_uris": {"ios": "https://dc.lft.to/lastmile_qr_scan", "android": "https://dc.lft.to/lastmile_qr_scan"}}, {"name": "66d90a99f33d10d4b17a811eae62ed19", "fusion_lat": 0.0, "type": "electric_scooter", "lat": 38.90198566666667, "is_reserved": 0, "is_disabled": 0, "fusion_lon": 0.0, "bike_id": "66d90a99f33d10d4b17a811eae62ed19", "lon": -76.98212416666667, "rental_uris": {"ios": "https://dc.lft.to/lastmile_qr_scan", "android": "https://dc.lft.to/lastmile_qr_scan"}}, {"name": "5c40943000160dbac5126996b680ec71", "fusion_lat": 0.0, "type": "electric_scooter", "lat": 38.90968516666667, "is_reserved": 0, "is_disabled": 0, "fusion_lon": 0.0, "bike_id": "5c40943000160dbac5126996b680ec71", "lon": -77.0274285, "rental_uris": {"ios": "https://dc.lft.to/lastmile_qr_scan", "android": "https://dc.lft.to/lastmile_qr_scan"}}, {"name": "2a3d274fa660c7768000961a4a31a290", "fusion_lat": 0.0, "type": "electric_scooter", "lat": 38.91767183333333, "is_reserved": 0, "is_disabled": 0, "fusion_lon": 0.0, "bike_id": "2a3d274fa660c7768000961a4a31a290", "lon": -77.09674933333334, "rental_uris": {"ios": "https://dc.lft.to/lastmile_qr_scan", "android": "https://dc.lft.to/lastmile_qr_scan"}}, {"name": "32f6b050e9df8c65b412999a6470b6d3", "fusion_lat": 0.0, "type": "electric_scooter", "lat": 38.925210666666665, "is_reserved": 0, "is_disabled": 0, "fusion_lon": 0.0, "bike_id": "32f6b050e9df8c65b412999a6470b6d3", "lon": -77.03331416666667, "rental_uris": {"ios": "https://dc.lft.to/lastmile_qr_scan", "android": "https://dc.lft.to/lastmile_qr_scan"}}, {"name": "3e7647a28423c38fe7560c8864eb62fb", "fusion_lat": 0.0, "type": "electric_scooter", "lat": 38.866610333333334, "is_reserved": 0, "is_disabled": 0, "fusion_lon": 0.0, "bike_id": "3e7647a28423c38fe7560c8864eb62fb", "lon": -76.98881966666667, "rental_uris": {"ios": "https://dc.lft.to/lastmile_qr_scan", "android": "https://dc.lft.to/lastmile_qr_scan"}}, {"name": "e9112649127dfcdcaa11e73a9dab9989", "fusion_lat": 0.0, "type": "electric_scooter", "lat": 38.921258, "is_reserved": 0, "is_disabled": 0, "fusion_lon": 0.0, "bike_id": "e9112649127dfcdcaa11e73a9dab9989", "lon": -77.036652, "rental_uris": {"ios": "https://dc.lft.to/lastmile_qr_scan", "android": "https://dc.lft.to/lastmile_qr_scan"}}, {"name": "9ed7354ce4486b6237324d467c7c6aaf", "fusion_lat": 0.0, "type": "electric_bike", "lat": 38.90532483333333, "is_reserved": 0, "is_disabled": 0, "fusion_lon": 0.0, "bike_id": "9ed7354ce4486b6237324d467c7c6aaf", "lon": -76.99809766666667, "rental_uris": {"ios": "https://dc.lft.to/lastmile_qr_scan", "android": "https://dc.lft.to/lastmile_qr_scan"}}, {"name": "c30bc9bf47acefd975f75bcd08d19bdb", "fusion_lat": 0.0, "type": "electric_scooter", "lat": 38.91411033333333, "is_reserved": 0, "is_disabled": 0, "fusion_lon": 0.0, "bike_id": "c30bc9bf47acefd975f75bcd08d19bdb", "lon": -77.039118, "rental_uris": {"ios": "https://dc.lft.to/lastmile_qr_scan", "android": "https://dc.lft.to/lastmile_qr_scan"}}, {"name": "74476cfcc3d7c31165489b43893af22a", "fusion_lat": 0.0, "type": "electric_scooter", "lat": 38.909270166666666, "is_reserved": 0, "is_disabled": 0, "fusion_lon": 0.0, "bike_id": "74476cfcc3d7c31165489b43893af22a", "lon": -77.041541, "rental_uris": {"ios": "https://dc.lft.to/lastmile_qr_scan", "android": "https://dc.lft.to/lastmile_qr_scan"}}, {"name": "c160506511a3f41949bed87cda6d69ad", "fusion_lat": 0.0, "type": "electric_bike", "lat": 38.9908865, "is_reserved": 0, "is_disabled": 0, "fusion_lon": 0.0, "bike_id": "c160506511a3f41949bed87cda6d69ad", "lon": -76.87495583333333, "rental_uris": {"ios": "https://dc.lft.to/lastmile_qr_scan", "android": "https://dc.lft.to/lastmile_qr_scan"}}, {"name": "3c6167b0d194e2b76c1f3b40a5c1104a", "fusion_lat": 0.0, "type": "electric_scooter", "lat": 38.91700216666667, "is_reserved": 0, "is_disabled": 0, "fusion_lon": 0.0, "bike_id": "3c6167b0d194e2b76c1f3b40a5c1104a", "lon": -77.03899583333333, "rental_uris": {"ios": "https://dc.lft.to/lastmile_qr_scan", "android": "https://dc.lft.to/lastmile_qr_scan"}}, {"name": "4122d7630277418a05567f9333be572d", "fusion_lat": 0.0, "type": "electric_scooter", "lat": 38.908643, "is_reserved": 0, "is_disabled": 0, "fusion_lon": 0.0, "bike_id": "4122d7630277418a05567f9333be572d", "lon": -77.027109, "rental_uris": {"ios": "https://dc.lft.to/lastmile_qr_scan", "android": "https://dc.lft.to/lastmile_qr_scan"}}, {"name": "09cbfef239c7acecfc17bebc4b7afe40", "fusion_lat": 0.0, "type": "electric_scooter", "lat": 38.90294266666667, "is_reserved": 0, "is_disabled": 0, "fusion_lon": 0.0, "bike_id": "09cbfef239c7acecfc17bebc4b7afe40", "lon": -77.03815316666666, "rental_uris": {"ios": "https://dc.lft.to/lastmile_qr_scan", "android": "https://dc.lft.to/lastmile_qr_scan"}}, {"name": "799044a986dcc1322a4736f5a077f32f", "fusion_lat": 0.0, "type": "electric_scooter", "lat": 38.89985633333333, "is_reserved": 0, "is_disabled": 0, "fusion_lon": 0.0, "bike_id": "799044a986dcc1322a4736f5a077f32f", "lon": -77.02713183333333, "rental_uris": {"ios": "https://dc.lft.to/lastmile_qr_scan", "android": "https://dc.lft.to/lastmile_qr_scan"}}, {"name": "8240c412061b783c01ba88243a8c943a", "fusion_lat": 0.0, "type": "electric_bike", "lat": 38.9357995, "is_reserved": 0, "is_disabled": 0, "fusion_lon": 0.0, "bike_id": "8240c412061b783c01ba88243a8c943a", "lon": -77.0212495, "rental_uris": {"ios": "https://dc.lft.to/lastmile_qr_scan", "android": "https://dc.lft.to/lastmile_qr_scan"}}, {"name": "2cea6947bb58ffc46f8c0d14cba13728", "fusion_lat": 0.0, "type": "electric_scooter", "lat": 38.916956, "is_reserved": 0, "is_disabled": 0, "fusion_lon": 0.0, "bike_id": "2cea6947bb58ffc46f8c0d14cba13728", "lon": -77.03173083333333, "rental_uris": {"ios": "https://dc.lft.to/lastmile_qr_scan", "android": "https://dc.lft.to/lastmile_qr_scan"}}, {"name": "1becedc86ce57533d1206b7ae9b04baa", "fusion_lat": 0.0, "type": "electric_scooter", "lat": 38.923053333333336, "is_reserved": 0, "is_disabled": 0, "fusion_lon": 0.0, "bike_id": "1becedc86ce57533d1206b7ae9b04baa", "lon": -77.02958266666667, "rental_uris": {"ios": "https://dc.lft.to/lastmile_qr_scan", "android": "https://dc.lft.to/lastmile_qr_scan"}}, {"name": "db85d360a5e315fbc8d640802769943e", "fusion_lat": 0.0, "type": "electric_scooter", "lat": 38.900479, "is_reserved": 0, "is_disabled": 0, "fusion_lon": 0.0, "bike_id": "db85d360a5e315fbc8d640802769943e", "lon": -77.001027, "rental_uris": {"ios": "https://dc.lft.to/lastmile_qr_scan", "android": "https://dc.lft.to/lastmile_qr_scan"}}, {"name": "f823c6147cf0ed77084c62f3f5dbacf7", "fusion_lat": 0.0, "type": "electric_scooter", "lat": 38.90628433333333, "is_reserved": 0, "is_disabled": 0, "fusion_lon": 0.0, "bike_id": "f823c6147cf0ed77084c62f3f5dbacf7", "lon": -77.006122, "rental_uris": {"ios": "https://dc.lft.to/lastmile_qr_scan", "android": "https://dc.lft.to/lastmile_qr_scan"}}, {"name": "b6286a9955f5a854996671c9a36da1e3", "fusion_lat": 0.0, "type": "electric_scooter", "lat": 38.920679, "is_reserved": 0, "is_disabled": 0, "fusion_lon": 0.0, "bike_id": "b6286a9955f5a854996671c9a36da1e3", "lon": -77.02349066666666, "rental_uris": {"ios": "https://dc.lft.to/lastmile_qr_scan", "android": "https://dc.lft.to/lastmile_qr_scan"}}, {"name": "36ce825fa533a62bae07cbc28b67c89e", "fusion_lat": 0.0, "type": "electric_scooter", "lat": 38.87496516666667, "is_reserved": 0, "is_disabled": 0, "fusion_lon": 0.0, "bike_id": "36ce825fa533a62bae07cbc28b67c89e", "lon": -76.99796833333333, "rental_uris": {"ios": "https://dc.lft.to/lastmile_qr_scan", "android": "https://dc.lft.to/lastmile_qr_scan"}}, {"name": "5b01f679e400e724a4b26470df99ccdf", "fusion_lat": 0.0, "type": "electric_scooter", "lat": 38.91405616666667, "is_reserved": 0, "is_disabled": 0, "fusion_lon": 0.0, "bike_id": "5b01f679e400e724a4b26470df99ccdf", "lon": -77.02230483333334, "rental_uris": {"ios": "https://dc.lft.to/lastmile_qr_scan", "android": "https://dc.lft.to/lastmile_qr_scan"}}, {"name": "e4c31b538e6f0de425a3e73d9249312b", "fusion_lat": 0.0, "type": "electric_scooter", "lat": 38.90510733333333, "is_reserved": 0, "is_disabled": 0, "fusion_lon": 0.0, "bike_id": "e4c31b538e6f0de425a3e73d9249312b", "lon": -77.04490466666667, "rental_uris": {"ios": "https://dc.lft.to/lastmile_qr_scan", "android": "https://dc.lft.to/lastmile_qr_scan"}}, {"name": "00fde8219a5d1ee1a2fa78221048aa2c", "fusion_lat": 0.0, "type": "electric_scooter", "lat": 38.918278, "is_reserved": 0, "is_disabled": 0, "fusion_lon": 0.0, "bike_id": "00fde8219a5d1ee1a2fa78221048aa2c", "lon": -77.027121, "rental_uris": {"ios": "https://dc.lft.to/lastmile_qr_scan", "android": "https://dc.lft.to/lastmile_qr_scan"}}, {"name": "38f7561efcda6a307e5564f757d43af3", "fusion_lat": 0.0, "type": "electric_scooter", "lat": 38.91267283333333, "is_reserved": 0, "is_disabled": 0, "fusion_lon": 0.0, "bike_id": "38f7561efcda6a307e5564f757d43af3", "lon": -77.038672, "rental_uris": {"ios": "https://dc.lft.to/lastmile_qr_scan", "android": "https://dc.lft.to/lastmile_qr_scan"}}, {"name": "c8765ce8066b1a14d17bfcd85d192439", "fusion_lat": 0.0, "type": "electric_scooter", "lat": 38.916916, "is_reserved": 0, "is_disabled": 0, "fusion_lon": 0.0, "bike_id": "c8765ce8066b1a14d17bfcd85d192439", "lon": -77.02462083333333, "rental_uris": {"ios": "https://dc.lft.to/lastmile_qr_scan", "android": "https://dc.lft.to/lastmile_qr_scan"}}, {"name": "e53b88846aef1f38eed829dee15fe0f1", "fusion_lat": 0.0, "type": "electric_scooter", "lat": 38.9132495, "is_reserved": 0, "is_disabled": 0, "fusion_lon": 0.0, "bike_id": "e53b88846aef1f38eed829dee15fe0f1", "lon": -77.01783183333333, "rental_uris": {"ios": "https://dc.lft.to/lastmile_qr_scan", "android": "https://dc.lft.to/lastmile_qr_scan"}}, {"name": "f6463bb5cf032701fb6fa06b6fe135c3", "fusion_lat": 0.0, "type": "electric_scooter", "lat": 38.890898166666666, "is_reserved": 0, "is_disabled": 0, "fusion_lon": 0.0, "bike_id": "f6463bb5cf032701fb6fa06b6fe135c3", "lon": -76.9872975, "rental_uris": {"ios": "https://dc.lft.to/lastmile_qr_scan", "android": "https://dc.lft.to/lastmile_qr_scan"}}, {"name": "5d4e9012278f73b9bc951c7f5d5642d7", "fusion_lat": 0.0, "type": "electric_scooter", "lat": 38.932581166666665, "is_reserved": 0, "is_disabled": 0, "fusion_lon": 0.0, "bike_id": "5d4e9012278f73b9bc951c7f5d5642d7", "lon": -77.0400125, "rental_uris": {"ios": "https://dc.lft.to/lastmile_qr_scan", "android": "https://dc.lft.to/lastmile_qr_scan"}}, {"name": "93d320ef33e6bf369c1ea4aab46a5f02", "fusion_lat": 0.0, "type": "electric_scooter", "lat": 38.907027, "is_reserved": 0, "is_disabled": 0, "fusion_lon": 0.0, "bike_id": "93d320ef33e6bf369c1ea4aab46a5f02", "lon": -76.98854833333333, "rental_uris": {"ios": "https://dc.lft.to/lastmile_qr_scan", "android": "https://dc.lft.to/lastmile_qr_scan"}}, {"name": "842c0bdc4b9f95155da6d54260fd5ba4", "fusion_lat": 0.0, "type": "electric_scooter", "lat": 38.92694566666667, "is_reserved": 0, "is_disabled": 0, "fusion_lon": 0.0, "bike_id": "842c0bdc4b9f95155da6d54260fd5ba4", "lon": -77.03774533333333, "rental_uris": {"ios": "https://dc.lft.to/lastmile_qr_scan", "android": "https://dc.lft.to/lastmile_qr_scan"}}, {"name": "eea70768c2b1a69c1f069f31e5ae7df2", "fusion_lat": 0.0, "type": "electric_scooter", "lat": 38.900253166666666, "is_reserved": 0, "is_disabled": 0, "fusion_lon": 0.0, "bike_id": "eea70768c2b1a69c1f069f31e5ae7df2", "lon": -77.03291483333334, "rental_uris": {"ios": "https://dc.lft.to/lastmile_qr_scan", "android": "https://dc.lft.to/lastmile_qr_scan"}}, {"name": "4c52528c7d96e594d1f6553ac77c3255", "fusion_lat": 0.0, "type": "electric_scooter", "lat": 38.8974205, "is_reserved": 0, "is_disabled": 0, "fusion_lon": 0.0, "bike_id": "4c52528c7d96e594d1f6553ac77c3255", "lon": -76.942579, "rental_uris": {"ios": "https://dc.lft.to/lastmile_qr_scan", "android": "https://dc.lft.to/lastmile_qr_scan"}}, {"name": "ca4198ae17255b64cd4826cc7bd307db", "fusion_lat": 0.0, "type": "electric_scooter", "lat": 38.914192166666666, "is_reserved": 0, "is_disabled": 0, "fusion_lon": 0.0, "bike_id": "ca4198ae17255b64cd4826cc7bd307db", "lon": -77.031705, "rental_uris": {"ios": "https://dc.lft.to/lastmile_qr_scan", "android": "https://dc.lft.to/lastmile_qr_scan"}}, {"name": "b8f7e1da8eea103217285fb48d01b7bc", "fusion_lat": 0.0, "type": "electric_scooter", "lat": 38.907968, "is_reserved": 0, "is_disabled": 0, "fusion_lon": 0.0, "bike_id": "b8f7e1da8eea103217285fb48d01b7bc", "lon": -77.0481885, "rental_uris": {"ios": "https://dc.lft.to/lastmile_qr_scan", "android": "https://dc.lft.to/lastmile_qr_scan"}}, {"name": "b1cbb64a10c0c002b13a27e33e553aaa", "fusion_lat": 0.0, "type": "electric_scooter", "lat": 38.908600666666665, "is_reserved": 0, "is_disabled": 0, "fusion_lon": 0.0, "bike_id": "b1cbb64a10c0c002b13a27e33e553aaa", "lon": -77.02713583333333, "rental_uris": {"ios": "https://dc.lft.to/lastmile_qr_scan", "android": "https://dc.lft.to/lastmile_qr_scan"}}, {"name": "20b6b524b4122e0c90e4b6965eb50e09", "fusion_lat": 0.0, "type": "electric_bike", "lat": 38.93602633333333, "is_reserved": 0, "is_disabled": 0, "fusion_lon": 0.0, "bike_id": "20b6b524b4122e0c90e4b6965eb50e09", "lon": -77.021129, "rental_uris": {"ios": "https://dc.lft.to/lastmile_qr_scan", "android": "https://dc.lft.to/lastmile_qr_scan"}}, {"name": "b186ff1257e2f70a7e181c8d91e4bf25", "fusion_lat": 0.0, "type": "electric_scooter", "lat": 38.933839, "is_reserved": 0, "is_disabled": 0, "fusion_lon": 0.0, "bike_id": "b186ff1257e2f70a7e181c8d91e4bf25", "lon": -77.057668, "rental_uris": {"ios": "https://dc.lft.to/lastmile_qr_scan", "android": "https://dc.lft.to/lastmile_qr_scan"}}, {"name": "03444c1073864f6fdf5a0ace1d147447", "fusion_lat": 0.0, "type": "electric_scooter", "lat": 38.908475, "is_reserved": 0, "is_disabled": 0, "fusion_lon": 0.0, "bike_id": "03444c1073864f6fdf5a0ace1d147447", "lon": -77.02045483333333, "rental_uris": {"ios": "https://dc.lft.to/lastmile_qr_scan", "android": "https://dc.lft.to/lastmile_qr_scan"}}, {"name": "8d05ebb5ae92dea30ad469f054c93bd6", "fusion_lat": 0.0, "type": "electric_scooter", "lat": 38.912456666666664, "is_reserved": 0, "is_disabled": 0, "fusion_lon": 0.0, "bike_id": "8d05ebb5ae92dea30ad469f054c93bd6", "lon": -77.0222685, "rental_uris": {"ios": "https://dc.lft.to/lastmile_qr_scan", "android": "https://dc.lft.to/lastmile_qr_scan"}}, {"name": "410d31b29f80490b8c5cc885955cb02f", "fusion_lat": 0.0, "type": "electric_scooter", "lat": 38.930087666666665, "is_reserved": 0, "is_disabled": 0, "fusion_lon": 0.0, "bike_id": "410d31b29f80490b8c5cc885955cb02f", "lon": -77.023081, "rental_uris": {"ios": "https://dc.lft.to/lastmile_qr_scan", "android": "https://dc.lft.to/lastmile_qr_scan"}}, {"name": "806422b364c275b2f6ce9cb3402fd2de", "fusion_lat": 0.0, "type": "electric_scooter", "lat": 38.90167233333333, "is_reserved": 0, "is_disabled": 0, "fusion_lon": 0.0, "bike_id": "806422b364c275b2f6ce9cb3402fd2de", "lon": -77.02181416666667, "rental_uris": {"ios": "https://dc.lft.to/lastmile_qr_scan", "android": "https://dc.lft.to/lastmile_qr_scan"}}, {"name": "2c9d7a6f26d72e4720531c9289b40e5c", "fusion_lat": 0.0, "type": "electric_scooter", "lat": 38.94295066666667, "is_reserved": 0, "is_disabled": 0, "fusion_lon": 0.0, "bike_id": "2c9d7a6f26d72e4720531c9289b40e5c", "lon": -77.021734, "rental_uris": {"ios": "https://dc.lft.to/lastmile_qr_scan", "android": "https://dc.lft.to/lastmile_qr_scan"}}, {"name": "f6bf21d4de897dc180da10b081bf2c66", "fusion_lat": 0.0, "type": "electric_scooter", "lat": 38.906488, "is_reserved": 0, "is_disabled": 0, "fusion_lon": 0.0, "bike_id": "f6bf21d4de897dc180da10b081bf2c66", "lon": -77.03832766666666, "rental_uris": {"ios": "https://dc.lft.to/lastmile_qr_scan", "android": "https://dc.lft.to/lastmile_qr_scan"}}, {"name": "e4dc8282e2895fbe6a9d6c01abbc134c", "fusion_lat": 0.0, "type": "electric_bike", "lat": 38.958885333333335, "is_reserved": 0, "is_disabled": 0, "fusion_lon": 0.0, "bike_id": "e4dc8282e2895fbe6a9d6c01abbc134c", "lon": -77.02599083333334, "rental_uris": {"ios": "https://dc.lft.to/lastmile_qr_scan", "android": "https://dc.lft.to/lastmile_qr_scan"}}, {"name": "6ec174f61d6c12010896fdb09349edbb", "fusion_lat": 0.0, "type": "electric_scooter", "lat": 38.9067305, "is_reserved": 0, "is_disabled": 0, "fusion_lon": 0.0, "bike_id": "6ec174f61d6c12010896fdb09349edbb", "lon": -77.02711533333333, "rental_uris": {"ios": "https://dc.lft.to/lastmile_qr_scan", "android": "https://dc.lft.to/lastmile_qr_scan"}}, {"name": "9dfa08259257645b79f9f945ad7b35bb", "fusion_lat": 0.0, "type": "electric_scooter", "lat": 38.92625, "is_reserved": 0, "is_disabled": 0, "fusion_lon": 0.0, "bike_id": "9dfa08259257645b79f9f945ad7b35bb", "lon": -77.03707133333333, "rental_uris": {"ios": "https://dc.lft.to/lastmile_qr_scan", "android": "https://dc.lft.to/lastmile_qr_scan"}}, {"name": "5ddf16dfc29ea04b1870589aeb276942", "fusion_lat": 0.0, "type": "electric_scooter", "lat": 38.866576333333335, "is_reserved": 0, "is_disabled": 0, "fusion_lon": 0.0, "bike_id": "5ddf16dfc29ea04b1870589aeb276942", "lon": -76.98882316666666, "rental_uris": {"ios": "https://dc.lft.to/lastmile_qr_scan", "android": "https://dc.lft.to/lastmile_qr_scan"}}, {"name": "1dce3db4385ed46f9747059145ad9ddc", "fusion_lat": 0.0, "type": "electric_scooter", "lat": 38.905080833333336, "is_reserved": 0, "is_disabled": 0, "fusion_lon": 0.0, "bike_id": "1dce3db4385ed46f9747059145ad9ddc", "lon": -76.99449333333334, "rental_uris": {"ios": "https://dc.lft.to/lastmile_qr_scan", "android": "https://dc.lft.to/lastmile_qr_scan"}}, {"name": "4c13bae2a5a45b432017d8da16a0fa0a", "fusion_lat": 0.0, "type": "electric_scooter", "lat": 38.881038333333336, "is_reserved": 0, "is_disabled": 0, "fusion_lon": 0.0, "bike_id": "4c13bae2a5a45b432017d8da16a0fa0a", "lon": -77.0120865, "rental_uris": {"ios": "https://dc.lft.to/lastmile_qr_scan", "android": "https://dc.lft.to/lastmile_qr_scan"}}, {"name": "9d01ca90ae86714ba58a90f2342ea423", "fusion_lat": 0.0, "type": "electric_scooter", "lat": 38.922391166666664, "is_reserved": 0, "is_disabled": 0, "fusion_lon": 0.0, "bike_id": "9d01ca90ae86714ba58a90f2342ea423", "lon": -77.03908433333334, "rental_uris": {"ios": "https://dc.lft.to/lastmile_qr_scan", "android": "https://dc.lft.to/lastmile_qr_scan"}}, {"name": "23532953145b86c10d18adce9853d174", "fusion_lat": 0.0, "type": "electric_scooter", "lat": 38.923466, "is_reserved": 0, "is_disabled": 0, "fusion_lon": 0.0, "bike_id": "23532953145b86c10d18adce9853d174", "lon": -77.05101383333333, "rental_uris": {"ios": "https://dc.lft.to/lastmile_qr_scan", "android": "https://dc.lft.to/lastmile_qr_scan"}}, {"name": "bdc8b897054504ea79f18782e159cbf7", "fusion_lat": 0.0, "type": "electric_scooter", "lat": 38.913615666666665, "is_reserved": 0, "is_disabled": 0, "fusion_lon": 0.0, "bike_id": "bdc8b897054504ea79f18782e159cbf7", "lon": -77.04562366666667, "rental_uris": {"ios": "https://dc.lft.to/lastmile_qr_scan", "android": "https://dc.lft.to/lastmile_qr_scan"}}, {"name": "611412634f736d9acd258730033c92e1", "fusion_lat": 0.0, "type": "electric_scooter", "lat": 38.891305333333335, "is_reserved": 0, "is_disabled": 0, "fusion_lon": 0.0, "bike_id": "611412634f736d9acd258730033c92e1", "lon": -76.99162516666667, "rental_uris": {"ios": "https://dc.lft.to/lastmile_qr_scan", "android": "https://dc.lft.to/lastmile_qr_scan"}}, {"name": "ffa7b38610f52bf73ed2d47fb214b553", "fusion_lat": 0.0, "type": "electric_scooter", "lat": 38.90335483333333, "is_reserved": 0, "is_disabled": 0, "fusion_lon": 0.0, "bike_id": "ffa7b38610f52bf73ed2d47fb214b553", "lon": -77.03655883333333, "rental_uris": {"ios": "https://dc.lft.to/lastmile_qr_scan", "android": "https://dc.lft.to/lastmile_qr_scan"}}, {"name": "6706a4954272150e62c8974518f08a4c", "fusion_lat": 0.0, "type": "electric_scooter", "lat": 38.937767, "is_reserved": 0, "is_disabled": 0, "fusion_lon": 0.0, "bike_id": "6706a4954272150e62c8974518f08a4c", "lon": -77.032612, "rental_uris": {"ios": "https://dc.lft.to/lastmile_qr_scan", "android": "https://dc.lft.to/lastmile_qr_scan"}}, {"name": "f948c6544f7a4cac0d412a8026d304ec", "fusion_lat": 0.0, "type": "electric_bike", "lat": 38.8506075, "is_reserved": 0, "is_disabled": 0, "fusion_lon": 0.0, "bike_id": "f948c6544f7a4cac0d412a8026d304ec", "lon": -76.97328383333334, "rental_uris": {"ios": "https://dc.lft.to/lastmile_qr_scan", "android": "https://dc.lft.to/lastmile_qr_scan"}}, {"name": "f51c4d9b31dca20a8489dfaf63bfad47", "fusion_lat": 0.0, "type": "electric_scooter", "lat": 38.9200315, "is_reserved": 0, "is_disabled": 0, "fusion_lon": 0.0, "bike_id": "f51c4d9b31dca20a8489dfaf63bfad47", "lon": -76.98499366666667, "rental_uris": {"ios": "https://dc.lft.to/lastmile_qr_scan", "android": "https://dc.lft.to/lastmile_qr_scan"}}, {"name": "555a3f5df4cec3f67280dfb7a88cf0bd", "fusion_lat": 0.0, "type": "electric_scooter", "lat": 38.94227983333333, "is_reserved": 0, "is_disabled": 0, "fusion_lon": 0.0, "bike_id": "555a3f5df4cec3f67280dfb7a88cf0bd", "lon": -77.07681433333333, "rental_uris": {"ios": "https://dc.lft.to/lastmile_qr_scan", "android": "https://dc.lft.to/lastmile_qr_scan"}}, {"name": "206b24e1548bb711b884e740c420cdf9", "fusion_lat": 0.0, "type": "electric_scooter", "lat": 38.90244966666667, "is_reserved": 0, "is_disabled": 0, "fusion_lon": 0.0, "bike_id": "206b24e1548bb711b884e740c420cdf9", "lon": -77.00200016666666, "rental_uris": {"ios": "https://dc.lft.to/lastmile_qr_scan", "android": "https://dc.lft.to/lastmile_qr_scan"}}, {"name": "964d35d6e6434f903d0c135a73b57baf", "fusion_lat": 0.0, "type": "electric_scooter", "lat": 38.906912166666665, "is_reserved": 0, "is_disabled": 0, "fusion_lon": 0.0, "bike_id": "964d35d6e6434f903d0c135a73b57baf", "lon": -77.03204966666667, "rental_uris": {"ios": "https://dc.lft.to/lastmile_qr_scan", "android": "https://dc.lft.to/lastmile_qr_scan"}}, {"name": "d95ef852473d407a66b6ab64fe4346f4", "fusion_lat": 0.0, "type": "electric_scooter", "lat": 38.9058155, "is_reserved": 0, "is_disabled": 0, "fusion_lon": 0.0, "bike_id": "d95ef852473d407a66b6ab64fe4346f4", "lon": -77.03268183333333, "rental_uris": {"ios": "https://dc.lft.to/lastmile_qr_scan", "android": "https://dc.lft.to/lastmile_qr_scan"}}, {"name": "f774adddef194117eaf5ec2f3de467cd", "fusion_lat": 0.0, "type": "electric_scooter", "lat": 38.925363, "is_reserved": 0, "is_disabled": 0, "fusion_lon": 0.0, "bike_id": "f774adddef194117eaf5ec2f3de467cd", "lon": -77.026378, "rental_uris": {"ios": "https://dc.lft.to/lastmile_qr_scan", "android": "https://dc.lft.to/lastmile_qr_scan"}}, {"name": "92f72192cc5b68c7dc50cc8982f8ad68", "fusion_lat": 0.0, "type": "electric_scooter", "lat": 38.91628433333333, "is_reserved": 0, "is_disabled": 0, "fusion_lon": 0.0, "bike_id": "92f72192cc5b68c7dc50cc8982f8ad68", "lon": -77.023062, "rental_uris": {"ios": "https://dc.lft.to/lastmile_qr_scan", "android": "https://dc.lft.to/lastmile_qr_scan"}}, {"name": "2d87a993cfae2998074b007b446af861", "fusion_lat": 0.0, "type": "electric_scooter", "lat": 38.900932833333336, "is_reserved": 0, "is_disabled": 0, "fusion_lon": 0.0, "bike_id": "2d87a993cfae2998074b007b446af861", "lon": -77.01339366666667, "rental_uris": {"ios": "https://dc.lft.to/lastmile_qr_scan", "android": "https://dc.lft.to/lastmile_qr_scan"}}, {"name": "dc691631b5e424eb426a2d43c477bc09", "fusion_lat": 0.0, "type": "electric_scooter", "lat": 38.906427666666666, "is_reserved": 0, "is_disabled": 0, "fusion_lon": 0.0, "bike_id": "dc691631b5e424eb426a2d43c477bc09", "lon": -76.98579066666667, "rental_uris": {"ios": "https://dc.lft.to/lastmile_qr_scan", "android": "https://dc.lft.to/lastmile_qr_scan"}}, {"name": "96e4d4360c2b06c386608e8252cd1a0a", "fusion_lat": 0.0, "type": "electric_bike", "lat": 38.86912933333333, "is_reserved": 0, "is_disabled": 0, "fusion_lon": 0.0, "bike_id": "96e4d4360c2b06c386608e8252cd1a0a", "lon": -77.13181433333334, "rental_uris": {"ios": "https://dc.lft.to/lastmile_qr_scan", "android": "https://dc.lft.to/lastmile_qr_scan"}}, {"name": "a06e6276366c91b2e278bef909a3bb08", "fusion_lat": 0.0, "type": "electric_scooter", "lat": 38.91118616666667, "is_reserved": 0, "is_disabled": 0, "fusion_lon": 0.0, "bike_id": "a06e6276366c91b2e278bef909a3bb08", "lon": -77.03925066666666, "rental_uris": {"ios": "https://dc.lft.to/lastmile_qr_scan", "android": "https://dc.lft.to/lastmile_qr_scan"}}, {"name": "547f2e2a606d0f55d9def30c0cc33647", "fusion_lat": 0.0, "type": "electric_scooter", "lat": 38.932894166666664, "is_reserved": 0, "is_disabled": 0, "fusion_lon": 0.0, "bike_id": "547f2e2a606d0f55d9def30c0cc33647", "lon": -77.02528483333333, "rental_uris": {"ios": "https://dc.lft.to/lastmile_qr_scan", "android": "https://dc.lft.to/lastmile_qr_scan"}}, {"name": "27261dbdd4f51013d39285f0cf132279", "fusion_lat": 0.0, "type": "electric_scooter", "lat": 38.89926716666667, "is_reserved": 0, "is_disabled": 0, "fusion_lon": 0.0, "bike_id": "27261dbdd4f51013d39285f0cf132279", "lon": -77.00357966666667, "rental_uris": {"ios": "https://dc.lft.to/lastmile_qr_scan", "android": "https://dc.lft.to/lastmile_qr_scan"}}, {"name": "4d59aa1a688bfab48a75fba6767c0f93", "fusion_lat": 0.0, "type": "electric_scooter", "lat": 38.8962725, "is_reserved": 0, "is_disabled": 0, "fusion_lon": 0.0, "bike_id": "4d59aa1a688bfab48a75fba6767c0f93", "lon": -77.02821083333333, "rental_uris": {"ios": "https://dc.lft.to/lastmile_qr_scan", "android": "https://dc.lft.to/lastmile_qr_scan"}}, {"name": "ca1efa68843ffd1d6911d853b2619ad6", "fusion_lat": 0.0, "type": "electric_scooter", "lat": 38.8938, "is_reserved": 0, "is_disabled": 0, "fusion_lon": 0.0, "bike_id": "ca1efa68843ffd1d6911d853b2619ad6", "lon": -76.94977333333334, "rental_uris": {"ios": "https://dc.lft.to/lastmile_qr_scan", "android": "https://dc.lft.to/lastmile_qr_scan"}}, {"name": "c03fb20fbfda2e2cdea64aa0999f2770", "fusion_lat": 0.0, "type": "electric_bike", "lat": 38.8344025, "is_reserved": 0, "is_disabled": 0, "fusion_lon": 0.0, "bike_id": "c03fb20fbfda2e2cdea64aa0999f2770", "lon": -77.00824233333333, "rental_uris": {"ios": "https://dc.lft.to/lastmile_qr_scan", "android": "https://dc.lft.to/lastmile_qr_scan"}}, {"name": "92f20fce7ec627af4cb256ac436c0adc", "fusion_lat": 0.0, "type": "electric_scooter", "lat": 38.91765316666667, "is_reserved": 0, "is_disabled": 0, "fusion_lon": 0.0, "bike_id": "92f20fce7ec627af4cb256ac436c0adc", "lon": -77.027165, "rental_uris": {"ios": "https://dc.lft.to/lastmile_qr_scan", "android": "https://dc.lft.to/lastmile_qr_scan"}}, {"name": "301b2ca94878537a667b2c3e8b442ae4", "fusion_lat": 0.0, "type": "electric_scooter", "lat": 38.916868666666666, "is_reserved": 0, "is_disabled": 0, "fusion_lon": 0.0, "bike_id": "301b2ca94878537a667b2c3e8b442ae4", "lon": -77.03340866666667, "rental_uris": {"ios": "https://dc.lft.to/lastmile_qr_scan", "android": "https://dc.lft.to/lastmile_qr_scan"}}, {"name": "707900013c8a8d922ed266122ef3d4f2", "fusion_lat": 0.0, "type": "electric_scooter", "lat": 38.84428283333333, "is_reserved": 0, "is_disabled": 0, "fusion_lon": 0.0, "bike_id": "707900013c8a8d922ed266122ef3d4f2", "lon": -76.99780533333333, "rental_uris": {"ios": "https://dc.lft.to/lastmile_qr_scan", "android": "https://dc.lft.to/lastmile_qr_scan"}}, {"name": "9ce3345a0d04fa702baa19783cb03671", "fusion_lat": 0.0, "type": "electric_scooter", "lat": 38.892230166666664, "is_reserved": 0, "is_disabled": 0, "fusion_lon": 0.0, "bike_id": "9ce3345a0d04fa702baa19783cb03671", "lon": -77.01372433333333, "rental_uris": {"ios": "https://dc.lft.to/lastmile_qr_scan", "android": "https://dc.lft.to/lastmile_qr_scan"}}, {"name": "0ab5f05aea6984abd8213da1ea17bfc9", "fusion_lat": 0.0, "type": "electric_scooter", "lat": 38.90563983333333, "is_reserved": 0, "is_disabled": 0, "fusion_lon": 0.0, "bike_id": "0ab5f05aea6984abd8213da1ea17bfc9", "lon": -77.00583016666667, "rental_uris": {"ios": "https://dc.lft.to/lastmile_qr_scan", "android": "https://dc.lft.to/lastmile_qr_scan"}}, {"name": "7659beae0bedec5c2c260a167210cd92", "fusion_lat": 0.0, "type": "electric_scooter", "lat": 38.93369916666666, "is_reserved": 0, "is_disabled": 0, "fusion_lon": 0.0, "bike_id": "7659beae0bedec5c2c260a167210cd92", "lon": -77.03452233333333, "rental_uris": {"ios": "https://dc.lft.to/lastmile_qr_scan", "android": "https://dc.lft.to/lastmile_qr_scan"}}, {"name": "b2a7bc5afb590cd5c2cff9b156cc9c9e", "fusion_lat": 0.0, "type": "electric_scooter", "lat": 38.904157, "is_reserved": 0, "is_disabled": 0, "fusion_lon": 0.0, "bike_id": "b2a7bc5afb590cd5c2cff9b156cc9c9e", "lon": -77.0532265, "rental_uris": {"ios": "https://dc.lft.to/lastmile_qr_scan", "android": "https://dc.lft.to/lastmile_qr_scan"}}, {"name": "8b217487595c655a19f367a916adad68", "fusion_lat": 0.0, "type": "electric_scooter", "lat": 38.916994833333334, "is_reserved": 0, "is_disabled": 0, "fusion_lon": 0.0, "bike_id": "8b217487595c655a19f367a916adad68", "lon": -77.043338, "rental_uris": {"ios": "https://dc.lft.to/lastmile_qr_scan", "android": "https://dc.lft.to/lastmile_qr_scan"}}, {"name": "0b31fdbcfe36852a911038a00f1e857e", "fusion_lat": 0.0, "type": "electric_bike", "lat": 38.934854333333334, "is_reserved": 0, "is_disabled": 0, "fusion_lon": 0.0, "bike_id": "0b31fdbcfe36852a911038a00f1e857e", "lon": -77.072873, "rental_uris": {"ios": "https://dc.lft.to/lastmile_qr_scan", "android": "https://dc.lft.to/lastmile_qr_scan"}}, {"name": "795425534206400d379a55f8d292aee6", "fusion_lat": 0.0, "type": "electric_scooter", "lat": 38.86077083333333, "is_reserved": 0, "is_disabled": 0, "fusion_lon": 0.0, "bike_id": "795425534206400d379a55f8d292aee6", "lon": -76.96740966666667, "rental_uris": {"ios": "https://dc.lft.to/lastmile_qr_scan", "android": "https://dc.lft.to/lastmile_qr_scan"}}, {"name": "f2075b31af76c31315720a88d2d42562", "fusion_lat": 0.0, "type": "electric_scooter", "lat": 38.90961333333333, "is_reserved": 0, "is_disabled": 0, "fusion_lon": 0.0, "bike_id": "f2075b31af76c31315720a88d2d42562", "lon": -77.02380933333333, "rental_uris": {"ios": "https://dc.lft.to/lastmile_qr_scan", "android": "https://dc.lft.to/lastmile_qr_scan"}}, {"name": "8f9e39d314d42f8b60cb5794a0e49268", "fusion_lat": 0.0, "type": "electric_bike", "lat": 38.9312495, "is_reserved": 0, "is_disabled": 0, "fusion_lon": 0.0, "bike_id": "8f9e39d314d42f8b60cb5794a0e49268", "lon": -77.02718033333333, "rental_uris": {"ios": "https://dc.lft.to/lastmile_qr_scan", "android": "https://dc.lft.to/lastmile_qr_scan"}}, {"name": "b354bd3797251b8a25a8ca031f3634dd", "fusion_lat": 0.0, "type": "electric_scooter", "lat": 38.90663033333333, "is_reserved": 0, "is_disabled": 0, "fusion_lon": 0.0, "bike_id": "b354bd3797251b8a25a8ca031f3634dd", "lon": -77.02714766666666, "rental_uris": {"ios": "https://dc.lft.to/lastmile_qr_scan", "android": "https://dc.lft.to/lastmile_qr_scan"}}, {"name": "899ada4e02ba48514ed86228eb230068", "fusion_lat": 0.0, "type": "electric_scooter", "lat": 38.919481, "is_reserved": 0, "is_disabled": 0, "fusion_lon": 0.0, "bike_id": "899ada4e02ba48514ed86228eb230068", "lon": -77.04544333333334, "rental_uris": {"ios": "https://dc.lft.to/lastmile_qr_scan", "android": "https://dc.lft.to/lastmile_qr_scan"}}, {"name": "01bc9220a5c7e1d3e586e3082bd1f3f3", "fusion_lat": 0.0, "type": "electric_scooter", "lat": 38.90000283333333, "is_reserved": 0, "is_disabled": 0, "fusion_lon": 0.0, "bike_id": "01bc9220a5c7e1d3e586e3082bd1f3f3", "lon": -77.02951133333333, "rental_uris": {"ios": "https://dc.lft.to/lastmile_qr_scan", "android": "https://dc.lft.to/lastmile_qr_scan"}}, {"name": "51e7a9be8a9e306486dfc6a248c97c75", "fusion_lat": 0.0, "type": "electric_scooter", "lat": 38.9480395, "is_reserved": 0, "is_disabled": 0, "fusion_lon": 0.0, "bike_id": "51e7a9be8a9e306486dfc6a248c97c75", "lon": -77.07907833333333, "rental_uris": {"ios": "https://dc.lft.to/lastmile_qr_scan", "android": "https://dc.lft.to/lastmile_qr_scan"}}, {"name": "3b3abc5847d07c56107a0a1a8385c26a", "fusion_lat": 0.0, "type": "electric_scooter", "lat": 38.92730916666667, "is_reserved": 0, "is_disabled": 0, "fusion_lon": 0.0, "bike_id": "3b3abc5847d07c56107a0a1a8385c26a", "lon": -77.02312216666667, "rental_uris": {"ios": "https://dc.lft.to/lastmile_qr_scan", "android": "https://dc.lft.to/lastmile_qr_scan"}}, {"name": "e2cdcecd9b1aed0a85a60daf474b10dd", "fusion_lat": 0.0, "type": "electric_scooter", "lat": 38.888429, "is_reserved": 0, "is_disabled": 0, "fusion_lon": 0.0, "bike_id": "e2cdcecd9b1aed0a85a60daf474b10dd", "lon": -77.04902183333333, "rental_uris": {"ios": "https://dc.lft.to/lastmile_qr_scan", "android": "https://dc.lft.to/lastmile_qr_scan"}}, {"name": "f8c9c34a0fa9ef723af43b98d2f32290", "fusion_lat": 0.0, "type": "electric_scooter", "lat": 38.910449666666665, "is_reserved": 0, "is_disabled": 0, "fusion_lon": 0.0, "bike_id": "f8c9c34a0fa9ef723af43b98d2f32290", "lon": -77.023869, "rental_uris": {"ios": "https://dc.lft.to/lastmile_qr_scan", "android": "https://dc.lft.to/lastmile_qr_scan"}}, {"name": "fcba274fff907f5af18d51d5cf40ca85", "fusion_lat": 0.0, "type": "electric_scooter", "lat": 38.914857833333336, "is_reserved": 0, "is_disabled": 0, "fusion_lon": 0.0, "bike_id": "fcba274fff907f5af18d51d5cf40ca85", "lon": -77.02181083333333, "rental_uris": {"ios": "https://dc.lft.to/lastmile_qr_scan", "android": "https://dc.lft.to/lastmile_qr_scan"}}, {"name": "8f0b361dc35f935c11d94d116efbef2d", "fusion_lat": 0.0, "type": "electric_scooter", "lat": 38.897652666666666, "is_reserved": 0, "is_disabled": 0, "fusion_lon": 0.0, "bike_id": "8f0b361dc35f935c11d94d116efbef2d", "lon": -76.97723333333333, "rental_uris": {"ios": "https://dc.lft.to/lastmile_qr_scan", "android": "https://dc.lft.to/lastmile_qr_scan"}}, {"name": "0a4b9eae485de039be2fd68e951fd3d1", "fusion_lat": 0.0, "type": "electric_bike", "lat": 38.91761566666667, "is_reserved": 0, "is_disabled": 0, "fusion_lon": 0.0, "bike_id": "0a4b9eae485de039be2fd68e951fd3d1", "lon": -77.0160415, "rental_uris": {"ios": "https://dc.lft.to/lastmile_qr_scan", "android": "https://dc.lft.to/lastmile_qr_scan"}}, {"name": "3a493569f42865b942234612e4981546", "fusion_lat": 0.0, "type": "electric_scooter", "lat": 38.94440516666667, "is_reserved": 0, "is_disabled": 0, "fusion_lon": 0.0, "bike_id": "3a493569f42865b942234612e4981546", "lon": -77.03279666666667, "rental_uris": {"ios": "https://dc.lft.to/lastmile_qr_scan", "android": "https://dc.lft.to/lastmile_qr_scan"}}, {"name": "073c2343238173a7bd145d209942fede", "fusion_lat": 0.0, "type": "electric_scooter", "lat": 38.93737316666667, "is_reserved": 0, "is_disabled": 0, "fusion_lon": 0.0, "bike_id": "073c2343238173a7bd145d209942fede", "lon": -77.03259183333333, "rental_uris": {"ios": "https://dc.lft.to/lastmile_qr_scan", "android": "https://dc.lft.to/lastmile_qr_scan"}}, {"name": "b2237d076e91ef736849523d3f2bd7c6", "fusion_lat": 0.0, "type": "electric_scooter", "lat": 38.9156335, "is_reserved": 0, "is_disabled": 0, "fusion_lon": 0.0, "bike_id": "b2237d076e91ef736849523d3f2bd7c6", "lon": -77.014185, "rental_uris": {"ios": "https://dc.lft.to/lastmile_qr_scan", "android": "https://dc.lft.to/lastmile_qr_scan"}}, {"name": "2fb5231c3fac4ec634a70ca7978abebc", "fusion_lat": 0.0, "type": "electric_scooter", "lat": 38.92287816666666, "is_reserved": 0, "is_disabled": 0, "fusion_lon": 0.0, "bike_id": "2fb5231c3fac4ec634a70ca7978abebc", "lon": -77.0366555, "rental_uris": {"ios": "https://dc.lft.to/lastmile_qr_scan", "android": "https://dc.lft.to/lastmile_qr_scan"}}, {"name": "63de9664de717b8740de2897a7086028", "fusion_lat": 0.0, "type": "electric_bike", "lat": 38.9460375, "is_reserved": 0, "is_disabled": 0, "fusion_lon": 0.0, "bike_id": "63de9664de717b8740de2897a7086028", "lon": -77.029833, "rental_uris": {"ios": "https://dc.lft.to/lastmile_qr_scan", "android": "https://dc.lft.to/lastmile_qr_scan"}}, {"name": "fbc9f4b5ccb740b9082946fc24761e08", "fusion_lat": 0.0, "type": "electric_scooter", "lat": 38.91648933333333, "is_reserved": 0, "is_disabled": 0, "fusion_lon": 0.0, "bike_id": "fbc9f4b5ccb740b9082946fc24761e08", "lon": -77.0230205, "rental_uris": {"ios": "https://dc.lft.to/lastmile_qr_scan", "android": "https://dc.lft.to/lastmile_qr_scan"}}, {"name": "503ce6e18c7c3d485997174c2e488ffe", "fusion_lat": 0.0, "type": "electric_scooter", "lat": 38.9096435, "is_reserved": 0, "is_disabled": 0, "fusion_lon": 0.0, "bike_id": "503ce6e18c7c3d485997174c2e488ffe", "lon": -77.01136066666666, "rental_uris": {"ios": "https://dc.lft.to/lastmile_qr_scan", "android": "https://dc.lft.to/lastmile_qr_scan"}}, {"name": "eae245fb8491ce976ee59a70f3b44b94", "fusion_lat": 0.0, "type": "electric_bike", "lat": 38.854047333333334, "is_reserved": 0, "is_disabled": 0, "fusion_lon": 0.0, "bike_id": "eae245fb8491ce976ee59a70f3b44b94", "lon": -77.11810066666666, "rental_uris": {"ios": "https://dc.lft.to/lastmile_qr_scan", "android": "https://dc.lft.to/lastmile_qr_scan"}}, {"name": "9e06c80dddfcb0193a60bc0e290f25b0", "fusion_lat": 0.0, "type": "electric_scooter", "lat": 38.952668, "is_reserved": 0, "is_disabled": 0, "fusion_lon": 0.0, "bike_id": "9e06c80dddfcb0193a60bc0e290f25b0", "lon": -77.02571433333334, "rental_uris": {"ios": "https://dc.lft.to/lastmile_qr_scan", "android": "https://dc.lft.to/lastmile_qr_scan"}}, {"name": "6e0d6fed45887421654ea4a6de84aa66", "fusion_lat": 0.0, "type": "electric_scooter", "lat": 38.894028, "is_reserved": 0, "is_disabled": 0, "fusion_lon": 0.0, "bike_id": "6e0d6fed45887421654ea4a6de84aa66", "lon": -76.94803766666666, "rental_uris": {"ios": "https://dc.lft.to/lastmile_qr_scan", "android": "https://dc.lft.to/lastmile_qr_scan"}}, {"name": "244f2d0cb4cdf2bbc219de6a81f0de46", "fusion_lat": 0.0, "type": "electric_scooter", "lat": 38.88395116666667, "is_reserved": 0, "is_disabled": 0, "fusion_lon": 0.0, "bike_id": "244f2d0cb4cdf2bbc219de6a81f0de46", "lon": -76.9858595, "rental_uris": {"ios": "https://dc.lft.to/lastmile_qr_scan", "android": "https://dc.lft.to/lastmile_qr_scan"}}, {"name": "53ead5b8d738a3505d65b23f09046a0e", "fusion_lat": 0.0, "type": "electric_scooter", "lat": 38.9231275, "is_reserved": 0, "is_disabled": 0, "fusion_lon": 0.0, "bike_id": "53ead5b8d738a3505d65b23f09046a0e", "lon": -77.03543916666666, "rental_uris": {"ios": "https://dc.lft.to/lastmile_qr_scan", "android": "https://dc.lft.to/lastmile_qr_scan"}}, {"name": "409b54b370d75a864a46fd6906a617cc", "fusion_lat": 0.0, "type": "electric_scooter", "lat": 38.924811, "is_reserved": 0, "is_disabled": 0, "fusion_lon": 0.0, "bike_id": "409b54b370d75a864a46fd6906a617cc", "lon": -77.034773, "rental_uris": {"ios": "https://dc.lft.to/lastmile_qr_scan", "android": "https://dc.lft.to/lastmile_qr_scan"}}, {"name": "2382e58b479b7aeb8626cb82617adf90", "fusion_lat": 0.0, "type": "electric_scooter", "lat": 38.864161, "is_reserved": 0, "is_disabled": 0, "fusion_lon": 0.0, "bike_id": "2382e58b479b7aeb8626cb82617adf90", "lon": -76.98045783333333, "rental_uris": {"ios": "https://dc.lft.to/lastmile_qr_scan", "android": "https://dc.lft.to/lastmile_qr_scan"}}, {"name": "00057b4074d6a894d9b78350e81a71ba", "fusion_lat": 0.0, "type": "electric_scooter", "lat": 38.8553215, "is_reserved": 0, "is_disabled": 0, "fusion_lon": 0.0, "bike_id": "00057b4074d6a894d9b78350e81a71ba", "lon": -76.96919866666667, "rental_uris": {"ios": "https://dc.lft.to/lastmile_qr_scan", "android": "https://dc.lft.to/lastmile_qr_scan"}}, {"name": "2eb87c90efcc2bfde5710cae5aef4cfe", "fusion_lat": 0.0, "type": "electric_scooter", "lat": 38.92064166666667, "is_reserved": 0, "is_disabled": 0, "fusion_lon": 0.0, "bike_id": "2eb87c90efcc2bfde5710cae5aef4cfe", "lon": -77.02358433333333, "rental_uris": {"ios": "https://dc.lft.to/lastmile_qr_scan", "android": "https://dc.lft.to/lastmile_qr_scan"}}, {"name": "94bbb0e13315c0a530af79c41a096828", "fusion_lat": 0.0, "type": "electric_scooter", "lat": 38.923087833333334, "is_reserved": 0, "is_disabled": 0, "fusion_lon": 0.0, "bike_id": "94bbb0e13315c0a530af79c41a096828", "lon": -77.04106883333333, "rental_uris": {"ios": "https://dc.lft.to/lastmile_qr_scan", "android": "https://dc.lft.to/lastmile_qr_scan"}}, {"name": "00a0287d67bec72af5065cc880460826", "fusion_lat": 0.0, "type": "electric_bike", "lat": 38.896412166666664, "is_reserved": 0, "is_disabled": 0, "fusion_lon": 0.0, "bike_id": "00a0287d67bec72af5065cc880460826", "lon": -77.10455566666667, "rental_uris": {"ios": "https://dc.lft.to/lastmile_qr_scan", "android": "https://dc.lft.to/lastmile_qr_scan"}}, {"name": "095929895711b46fc7fa00a70dd8cd20", "fusion_lat": 0.0, "type": "electric_scooter", "lat": 38.92391683333334, "is_reserved": 0, "is_disabled": 0, "fusion_lon": 0.0, "bike_id": "095929895711b46fc7fa00a70dd8cd20", "lon": -77.0297535, "rental_uris": {"ios": "https://dc.lft.to/lastmile_qr_scan", "android": "https://dc.lft.to/lastmile_qr_scan"}}, {"name": "838e575e96ca83765e2c47afd56be09b", "fusion_lat": 0.0, "type": "electric_scooter", "lat": 38.942583, "is_reserved": 0, "is_disabled": 0, "fusion_lon": 0.0, "bike_id": "838e575e96ca83765e2c47afd56be09b", "lon": -77.0413665, "rental_uris": {"ios": "https://dc.lft.to/lastmile_qr_scan", "android": "https://dc.lft.to/lastmile_qr_scan"}}, {"name": "81ced3298764cc712ce653d2744545bd", "fusion_lat": 0.0, "type": "electric_scooter", "lat": 38.9024635, "is_reserved": 0, "is_disabled": 0, "fusion_lon": 0.0, "bike_id": "81ced3298764cc712ce653d2744545bd", "lon": -77.026451, "rental_uris": {"ios": "https://dc.lft.to/lastmile_qr_scan", "android": "https://dc.lft.to/lastmile_qr_scan"}}, {"name": "68277632970d270b518c4fa3b68c08c1", "fusion_lat": 0.0, "type": "electric_scooter", "lat": 38.90731816666667, "is_reserved": 0, "is_disabled": 0, "fusion_lon": 0.0, "bike_id": "68277632970d270b518c4fa3b68c08c1", "lon": -77.010719, "rental_uris": {"ios": "https://dc.lft.to/lastmile_qr_scan", "android": "https://dc.lft.to/lastmile_qr_scan"}}, {"name": "4af9f01763e611626f5b0c3f119e7e6d", "fusion_lat": 0.0, "type": "electric_scooter", "lat": 38.922521333333336, "is_reserved": 0, "is_disabled": 0, "fusion_lon": 0.0, "bike_id": "4af9f01763e611626f5b0c3f119e7e6d", "lon": -77.0307875, "rental_uris": {"ios": "https://dc.lft.to/lastmile_qr_scan", "android": "https://dc.lft.to/lastmile_qr_scan"}}, {"name": "c7eeaaf833af6573e60c50791841684a", "fusion_lat": 0.0, "type": "electric_scooter", "lat": 38.8624925, "is_reserved": 0, "is_disabled": 0, "fusion_lon": 0.0, "bike_id": "c7eeaaf833af6573e60c50791841684a", "lon": -76.99534833333334, "rental_uris": {"ios": "https://dc.lft.to/lastmile_qr_scan", "android": "https://dc.lft.to/lastmile_qr_scan"}}, {"name": "6c0a8d472a6a7b3386674428a21dc9de", "fusion_lat": 0.0, "type": "electric_scooter", "lat": 38.90247033333333, "is_reserved": 0, "is_disabled": 0, "fusion_lon": 0.0, "bike_id": "6c0a8d472a6a7b3386674428a21dc9de", "lon": -77.01976283333333, "rental_uris": {"ios": "https://dc.lft.to/lastmile_qr_scan", "android": "https://dc.lft.to/lastmile_qr_scan"}}, {"name": "cf78bc5b76a20d7fb68938f3d0e826ae", "fusion_lat": 0.0, "type": "electric_scooter", "lat": 38.937396666666665, "is_reserved": 0, "is_disabled": 0, "fusion_lon": 0.0, "bike_id": "cf78bc5b76a20d7fb68938f3d0e826ae", "lon": -77.032665, "rental_uris": {"ios": "https://dc.lft.to/lastmile_qr_scan", "android": "https://dc.lft.to/lastmile_qr_scan"}}, {"name": "2d22ebda185ecd602945020e2b2fb027", "fusion_lat": 0.0, "type": "electric_scooter", "lat": 38.912968, "is_reserved": 0, "is_disabled": 0, "fusion_lon": 0.0, "bike_id": "2d22ebda185ecd602945020e2b2fb027", "lon": -77.0611595, "rental_uris": {"ios": "https://dc.lft.to/lastmile_qr_scan", "android": "https://dc.lft.to/lastmile_qr_scan"}}, {"name": "a11d43f245f1b2dac51f6e8b23b07f54", "fusion_lat": 0.0, "type": "electric_scooter", "lat": 38.8771945, "is_reserved": 0, "is_disabled": 0, "fusion_lon": 0.0, "bike_id": "a11d43f245f1b2dac51f6e8b23b07f54", "lon": -76.99385283333334, "rental_uris": {"ios": "https://dc.lft.to/lastmile_qr_scan", "android": "https://dc.lft.to/lastmile_qr_scan"}}, {"name": "66c85ace7d383e6733685de14b0e5f2f", "fusion_lat": 0.0, "type": "electric_scooter", "lat": 38.905154833333334, "is_reserved": 0, "is_disabled": 0, "fusion_lon": 0.0, "bike_id": "66c85ace7d383e6733685de14b0e5f2f", "lon": -77.05227366666666, "rental_uris": {"ios": "https://dc.lft.to/lastmile_qr_scan", "android": "https://dc.lft.to/lastmile_qr_scan"}}, {"name": "a1725f84d6beb9639a293af050904039", "fusion_lat": 0.0, "type": "electric_scooter", "lat": 38.9073305, "is_reserved": 0, "is_disabled": 0, "fusion_lon": 0.0, "bike_id": "a1725f84d6beb9639a293af050904039", "lon": -77.04338266666667, "rental_uris": {"ios": "https://dc.lft.to/lastmile_qr_scan", "android": "https://dc.lft.to/lastmile_qr_scan"}}, {"name": "aa5b8cd17f3ee38bf3fe98b90feb7e5d", "fusion_lat": 0.0, "type": "electric_scooter", "lat": 38.91817783333333, "is_reserved": 0, "is_disabled": 0, "fusion_lon": 0.0, "bike_id": "aa5b8cd17f3ee38bf3fe98b90feb7e5d", "lon": -77.06831416666667, "rental_uris": {"ios": "https://dc.lft.to/lastmile_qr_scan", "android": "https://dc.lft.to/lastmile_qr_scan"}}, {"name": "19cb23d89a1ae14993476abb259ba6f5", "fusion_lat": 0.0, "type": "electric_scooter", "lat": 38.9053735, "is_reserved": 0, "is_disabled": 0, "fusion_lon": 0.0, "bike_id": "19cb23d89a1ae14993476abb259ba6f5", "lon": -77.05044283333334, "rental_uris": {"ios": "https://dc.lft.to/lastmile_qr_scan", "android": "https://dc.lft.to/lastmile_qr_scan"}}, {"name": "7d34466f3ee5759d6c9b7452a6bfe409", "fusion_lat": 0.0, "type": "electric_scooter", "lat": 38.909732, "is_reserved": 0, "is_disabled": 0, "fusion_lon": 0.0, "bike_id": "7d34466f3ee5759d6c9b7452a6bfe409", "lon": -77.01690916666666, "rental_uris": {"ios": "https://dc.lft.to/lastmile_qr_scan", "android": "https://dc.lft.to/lastmile_qr_scan"}}, {"name": "f95b32b7d8a6fea0d3e9ddcf4d8b86fc", "fusion_lat": 0.0, "type": "electric_scooter", "lat": 38.91633566666667, "is_reserved": 0, "is_disabled": 0, "fusion_lon": 0.0, "bike_id": "f95b32b7d8a6fea0d3e9ddcf4d8b86fc", "lon": -77.00108166666666, "rental_uris": {"ios": "https://dc.lft.to/lastmile_qr_scan", "android": "https://dc.lft.to/lastmile_qr_scan"}}, {"name": "42a6b0c6d5df803cb11a4dc05d90b9bd", "fusion_lat": 0.0, "type": "electric_scooter", "lat": 38.97497833333333, "is_reserved": 0, "is_disabled": 0, "fusion_lon": 0.0, "bike_id": "42a6b0c6d5df803cb11a4dc05d90b9bd", "lon": -77.01691233333334, "rental_uris": {"ios": "https://dc.lft.to/lastmile_qr_scan", "android": "https://dc.lft.to/lastmile_qr_scan"}}, {"name": "b89724a0d0b108aad741d0b6a9d7fdeb", "fusion_lat": 0.0, "type": "electric_scooter", "lat": 38.89655066666667, "is_reserved": 0, "is_disabled": 0, "fusion_lon": 0.0, "bike_id": "b89724a0d0b108aad741d0b6a9d7fdeb", "lon": -77.02591716666667, "rental_uris": {"ios": "https://dc.lft.to/lastmile_qr_scan", "android": "https://dc.lft.to/lastmile_qr_scan"}}, {"name": "10dc5a6541aa7dd64b52d726f0df0824", "fusion_lat": 0.0, "type": "electric_scooter", "lat": 38.90148816666667, "is_reserved": 0, "is_disabled": 0, "fusion_lon": 0.0, "bike_id": "10dc5a6541aa7dd64b52d726f0df0824", "lon": -77.03983616666666, "rental_uris": {"ios": "https://dc.lft.to/lastmile_qr_scan", "android": "https://dc.lft.to/lastmile_qr_scan"}}, {"name": "0127bcc0223e04f5287ab6ba8498c856", "fusion_lat": 0.0, "type": "electric_scooter", "lat": 38.889945833333336, "is_reserved": 0, "is_disabled": 0, "fusion_lon": 0.0, "bike_id": "0127bcc0223e04f5287ab6ba8498c856", "lon": -76.9541585, "rental_uris": {"ios": "https://dc.lft.to/lastmile_qr_scan", "android": "https://dc.lft.to/lastmile_qr_scan"}}, {"name": "cdba06926f9a54fca8eef31e5d0b9c05", "fusion_lat": 0.0, "type": "electric_scooter", "lat": 38.90261266666667, "is_reserved": 0, "is_disabled": 0, "fusion_lon": 0.0, "bike_id": "cdba06926f9a54fca8eef31e5d0b9c05", "lon": -77.01779233333333, "rental_uris": {"ios": "https://dc.lft.to/lastmile_qr_scan", "android": "https://dc.lft.to/lastmile_qr_scan"}}, {"name": "ea5d35940341007314c53da2c15b2760", "fusion_lat": 0.0, "type": "electric_scooter", "lat": 38.8429675, "is_reserved": 0, "is_disabled": 0, "fusion_lon": 0.0, "bike_id": "ea5d35940341007314c53da2c15b2760", "lon": -76.99951583333333, "rental_uris": {"ios": "https://dc.lft.to/lastmile_qr_scan", "android": "https://dc.lft.to/lastmile_qr_scan"}}, {"name": "974db376cab4c7e811ac2ada23e8daf5", "fusion_lat": 0.0, "type": "electric_scooter", "lat": 38.9233635, "is_reserved": 0, "is_disabled": 0, "fusion_lon": 0.0, "bike_id": "974db376cab4c7e811ac2ada23e8daf5", "lon": -77.05015533333334, "rental_uris": {"ios": "https://dc.lft.to/lastmile_qr_scan", "android": "https://dc.lft.to/lastmile_qr_scan"}}, {"name": "e6446eacc9ed0f838fc23fb31e2d1a2b", "fusion_lat": 0.0, "type": "electric_scooter", "lat": 38.911905833333336, "is_reserved": 0, "is_disabled": 0, "fusion_lon": 0.0, "bike_id": "e6446eacc9ed0f838fc23fb31e2d1a2b", "lon": -77.060837, "rental_uris": {"ios": "https://dc.lft.to/lastmile_qr_scan", "android": "https://dc.lft.to/lastmile_qr_scan"}}, {"name": "6c491afc3989da89181cda941765737c", "fusion_lat": 0.0, "type": "electric_scooter", "lat": 38.894845, "is_reserved": 0, "is_disabled": 0, "fusion_lon": 0.0, "bike_id": "6c491afc3989da89181cda941765737c", "lon": -76.94875633333334, "rental_uris": {"ios": "https://dc.lft.to/lastmile_qr_scan", "android": "https://dc.lft.to/lastmile_qr_scan"}}, {"name": "0061bf8963c10519615ba18190a979a2", "fusion_lat": 0.0, "type": "electric_scooter", "lat": 38.901736666666665, "is_reserved": 0, "is_disabled": 0, "fusion_lon": 0.0, "bike_id": "0061bf8963c10519615ba18190a979a2", "lon": -77.04703533333333, "rental_uris": {"ios": "https://dc.lft.to/lastmile_qr_scan", "android": "https://dc.lft.to/lastmile_qr_scan"}}, {"name": "995742fcce52fc2e4d7b4ab36ff6c217", "fusion_lat": 0.0, "type": "electric_scooter", "lat": 38.94203783333333, "is_reserved": 0, "is_disabled": 0, "fusion_lon": 0.0, "bike_id": "995742fcce52fc2e4d7b4ab36ff6c217", "lon": -77.025143, "rental_uris": {"ios": "https://dc.lft.to/lastmile_qr_scan", "android": "https://dc.lft.to/lastmile_qr_scan"}}, {"name": "5e67dadcf7338404179747250f890ea6", "fusion_lat": 0.0, "type": "electric_scooter", "lat": 38.86155333333333, "is_reserved": 0, "is_disabled": 0, "fusion_lon": 0.0, "bike_id": "5e67dadcf7338404179747250f890ea6", "lon": -76.98925833333334, "rental_uris": {"ios": "https://dc.lft.to/lastmile_qr_scan", "android": "https://dc.lft.to/lastmile_qr_scan"}}, {"name": "6d1097d9291e97b5b49dfac2a2ce564f", "fusion_lat": 0.0, "type": "electric_scooter", "lat": 38.907418166666666, "is_reserved": 0, "is_disabled": 0, "fusion_lon": 0.0, "bike_id": "6d1097d9291e97b5b49dfac2a2ce564f", "lon": -77.04329033333333, "rental_uris": {"ios": "https://dc.lft.to/lastmile_qr_scan", "android": "https://dc.lft.to/lastmile_qr_scan"}}, {"name": "eec433ea97cc0f3bf6be66d600f08726", "fusion_lat": 0.0, "type": "electric_bike", "lat": 38.83143333333334, "is_reserved": 0, "is_disabled": 0, "fusion_lon": 0.0, "bike_id": "eec433ea97cc0f3bf6be66d600f08726", "lon": -77.113265, "rental_uris": {"ios": "https://dc.lft.to/lastmile_qr_scan", "android": "https://dc.lft.to/lastmile_qr_scan"}}, {"name": "fc54fbc5c9d3ce647238863686227ea2", "fusion_lat": 0.0, "type": "electric_scooter", "lat": 38.92129683333334, "is_reserved": 0, "is_disabled": 0, "fusion_lon": 0.0, "bike_id": "fc54fbc5c9d3ce647238863686227ea2", "lon": -77.02516566666667, "rental_uris": {"ios": "https://dc.lft.to/lastmile_qr_scan", "android": "https://dc.lft.to/lastmile_qr_scan"}}, {"name": "f630c4ef16ee481c09e84e26ed428477", "fusion_lat": 0.0, "type": "electric_scooter", "lat": 38.90876516666667, "is_reserved": 0, "is_disabled": 0, "fusion_lon": 0.0, "bike_id": "f630c4ef16ee481c09e84e26ed428477", "lon": -77.00336033333333, "rental_uris": {"ios": "https://dc.lft.to/lastmile_qr_scan", "android": "https://dc.lft.to/lastmile_qr_scan"}}, {"name": "8cd12050016098d0cb22aa768bea0df1", "fusion_lat": 0.0, "type": "electric_bike", "lat": 38.92435833333333, "is_reserved": 0, "is_disabled": 0, "fusion_lon": 0.0, "bike_id": "8cd12050016098d0cb22aa768bea0df1", "lon": -76.99133016666667, "rental_uris": {"ios": "https://dc.lft.to/lastmile_qr_scan", "android": "https://dc.lft.to/lastmile_qr_scan"}}, {"name": "10f26ae6560dfbeee0f9b4b0111ae54d", "fusion_lat": 0.0, "type": "electric_scooter", "lat": 38.928262833333335, "is_reserved": 0, "is_disabled": 0, "fusion_lon": 0.0, "bike_id": "10f26ae6560dfbeee0f9b4b0111ae54d", "lon": -77.02257733333333, "rental_uris": {"ios": "https://dc.lft.to/lastmile_qr_scan", "android": "https://dc.lft.to/lastmile_qr_scan"}}, {"name": "9052a03fbbd5914a6cd041581f45ff2e", "fusion_lat": 0.0, "type": "electric_bike", "lat": 38.84274216666667, "is_reserved": 0, "is_disabled": 0, "fusion_lon": 0.0, "bike_id": "9052a03fbbd5914a6cd041581f45ff2e", "lon": -76.98841883333333, "rental_uris": {"ios": "https://dc.lft.to/lastmile_qr_scan", "android": "https://dc.lft.to/lastmile_qr_scan"}}, {"name": "f063693da132077b5589430cb8de8a34", "fusion_lat": 0.0, "type": "electric_scooter", "lat": 38.917120833333335, "is_reserved": 0, "is_disabled": 0, "fusion_lon": 0.0, "bike_id": "f063693da132077b5589430cb8de8a34", "lon": -77.027955, "rental_uris": {"ios": "https://dc.lft.to/lastmile_qr_scan", "android": "https://dc.lft.to/lastmile_qr_scan"}}, {"name": "f1b7d1bd4f0e8430c6532164201afa30", "fusion_lat": 0.0, "type": "electric_scooter", "lat": 38.900570333333334, "is_reserved": 0, "is_disabled": 0, "fusion_lon": 0.0, "bike_id": "f1b7d1bd4f0e8430c6532164201afa30", "lon": -77.00225716666667, "rental_uris": {"ios": "https://dc.lft.to/lastmile_qr_scan", "android": "https://dc.lft.to/lastmile_qr_scan"}}, {"name": "a3ba6c94233a9392e95fd62c513a7674", "fusion_lat": 0.0, "type": "electric_scooter", "lat": 38.925786, "is_reserved": 0, "is_disabled": 0, "fusion_lon": 0.0, "bike_id": "a3ba6c94233a9392e95fd62c513a7674", "lon": -76.99492066666667, "rental_uris": {"ios": "https://dc.lft.to/lastmile_qr_scan", "android": "https://dc.lft.to/lastmile_qr_scan"}}, {"name": "ddc920cbf8dd585c5244b26627b20b89", "fusion_lat": 0.0, "type": "electric_bike", "lat": 38.96009883333333, "is_reserved": 0, "is_disabled": 0, "fusion_lon": 0.0, "bike_id": "ddc920cbf8dd585c5244b26627b20b89", "lon": -76.99866633333333, "rental_uris": {"ios": "https://dc.lft.to/lastmile_qr_scan", "android": "https://dc.lft.to/lastmile_qr_scan"}}, {"name": "d771d8cdc4e7c9f86ace1dab7e44cf0d", "fusion_lat": 0.0, "type": "electric_scooter", "lat": 38.9037145, "is_reserved": 0, "is_disabled": 0, "fusion_lon": 0.0, "bike_id": "d771d8cdc4e7c9f86ace1dab7e44cf0d", "lon": -77.02604033333333, "rental_uris": {"ios": "https://dc.lft.to/lastmile_qr_scan", "android": "https://dc.lft.to/lastmile_qr_scan"}}, {"name": "a16c84de9aa8f42beed5c3b19bac0ec9", "fusion_lat": 0.0, "type": "electric_bike", "lat": 38.881217, "is_reserved": 0, "is_disabled": 0, "fusion_lon": 0.0, "bike_id": "a16c84de9aa8f42beed5c3b19bac0ec9", "lon": -77.01347733333333, "rental_uris": {"ios": "https://dc.lft.to/lastmile_qr_scan", "android": "https://dc.lft.to/lastmile_qr_scan"}}, {"name": "05f7732253b755277824bda9ac37a0d3", "fusion_lat": 0.0, "type": "electric_scooter", "lat": 38.92433583333333, "is_reserved": 0, "is_disabled": 0, "fusion_lon": 0.0, "bike_id": "05f7732253b755277824bda9ac37a0d3", "lon": -77.04228766666667, "rental_uris": {"ios": "https://dc.lft.to/lastmile_qr_scan", "android": "https://dc.lft.to/lastmile_qr_scan"}}, {"name": "e4e226db9c1d44225b10484ba6c09799", "fusion_lat": 0.0, "type": "electric_scooter", "lat": 38.9077115, "is_reserved": 0, "is_disabled": 0, "fusion_lon": 0.0, "bike_id": "e4e226db9c1d44225b10484ba6c09799", "lon": -77.03581783333334, "rental_uris": {"ios": "https://dc.lft.to/lastmile_qr_scan", "android": "https://dc.lft.to/lastmile_qr_scan"}}, {"name": "80b4f9011f198fb87368db6391bbf93e", "fusion_lat": 0.0, "type": "electric_scooter", "lat": 38.88483016666667, "is_reserved": 0, "is_disabled": 0, "fusion_lon": 0.0, "bike_id": "80b4f9011f198fb87368db6391bbf93e", "lon": -77.020988, "rental_uris": {"ios": "https://dc.lft.to/lastmile_qr_scan", "android": "https://dc.lft.to/lastmile_qr_scan"}}, {"name": "1dd43fdccba0374b8e3db8693b8d429b", "fusion_lat": 0.0, "type": "electric_scooter", "lat": 38.924364833333335, "is_reserved": 0, "is_disabled": 0, "fusion_lon": 0.0, "bike_id": "1dd43fdccba0374b8e3db8693b8d429b", "lon": -77.04246733333333, "rental_uris": {"ios": "https://dc.lft.to/lastmile_qr_scan", "android": "https://dc.lft.to/lastmile_qr_scan"}}, {"name": "a3ab342768d4c9b273026cea819cdab5", "fusion_lat": 0.0, "type": "electric_scooter", "lat": 38.8665965, "is_reserved": 0, "is_disabled": 0, "fusion_lon": 0.0, "bike_id": "a3ab342768d4c9b273026cea819cdab5", "lon": -76.98892216666667, "rental_uris": {"ios": "https://dc.lft.to/lastmile_qr_scan", "android": "https://dc.lft.to/lastmile_qr_scan"}}, {"name": "5159268f154f3fa6984e4512c3754cca", "fusion_lat": 0.0, "type": "electric_scooter", "lat": 38.91999583333333, "is_reserved": 0, "is_disabled": 0, "fusion_lon": 0.0, "bike_id": "5159268f154f3fa6984e4512c3754cca", "lon": -77.032029, "rental_uris": {"ios": "https://dc.lft.to/lastmile_qr_scan", "android": "https://dc.lft.to/lastmile_qr_scan"}}, {"name": "19c03cabcc7124f87b2f38ab20eda3f8", "fusion_lat": 0.0, "type": "electric_scooter", "lat": 38.90688, "is_reserved": 0, "is_disabled": 0, "fusion_lon": 0.0, "bike_id": "19c03cabcc7124f87b2f38ab20eda3f8", "lon": -77.0109265, "rental_uris": {"ios": "https://dc.lft.to/lastmile_qr_scan", "android": "https://dc.lft.to/lastmile_qr_scan"}}, {"name": "fa1dfe2994779b8851183d751d6d20f5", "fusion_lat": 0.0, "type": "electric_scooter", "lat": 38.9125095, "is_reserved": 0, "is_disabled": 0, "fusion_lon": 0.0, "bike_id": "fa1dfe2994779b8851183d751d6d20f5", "lon": -77.03844083333334, "rental_uris": {"ios": "https://dc.lft.to/lastmile_qr_scan", "android": "https://dc.lft.to/lastmile_qr_scan"}}, {"name": "4d8d180fc2020962034087ad427bf9ea", "fusion_lat": 0.0, "type": "electric_scooter", "lat": 38.89861233333333, "is_reserved": 0, "is_disabled": 0, "fusion_lon": 0.0, "bike_id": "4d8d180fc2020962034087ad427bf9ea", "lon": -76.99032766666667, "rental_uris": {"ios": "https://dc.lft.to/lastmile_qr_scan", "android": "https://dc.lft.to/lastmile_qr_scan"}}, {"name": "8fbbc6cc0f38b075716ea62834703db0", "fusion_lat": 0.0, "type": "electric_scooter", "lat": 38.9115185, "is_reserved": 0, "is_disabled": 0, "fusion_lon": 0.0, "bike_id": "8fbbc6cc0f38b075716ea62834703db0", "lon": -77.0219525, "rental_uris": {"ios": "https://dc.lft.to/lastmile_qr_scan", "android": "https://dc.lft.to/lastmile_qr_scan"}}, {"name": "bdf3233d99ce5f2899a7a4db3c0002d9", "fusion_lat": 0.0, "type": "electric_scooter", "lat": 38.90377383333333, "is_reserved": 0, "is_disabled": 0, "fusion_lon": 0.0, "bike_id": "bdf3233d99ce5f2899a7a4db3c0002d9", "lon": -77.01768016666666, "rental_uris": {"ios": "https://dc.lft.to/lastmile_qr_scan", "android": "https://dc.lft.to/lastmile_qr_scan"}}, {"name": "1390146db7b543ca4c3453ae48ea9574", "fusion_lat": 0.0, "type": "electric_scooter", "lat": 38.90337133333333, "is_reserved": 0, "is_disabled": 0, "fusion_lon": 0.0, "bike_id": "1390146db7b543ca4c3453ae48ea9574", "lon": -76.99853116666667, "rental_uris": {"ios": "https://dc.lft.to/lastmile_qr_scan", "android": "https://dc.lft.to/lastmile_qr_scan"}}, {"name": "a4c46b94a7f906ed4f9ea8e1cea26cac", "fusion_lat": 0.0, "type": "electric_scooter", "lat": 38.9004245, "is_reserved": 0, "is_disabled": 0, "fusion_lon": 0.0, "bike_id": "a4c46b94a7f906ed4f9ea8e1cea26cac", "lon": -77.01688783333333, "rental_uris": {"ios": "https://dc.lft.to/lastmile_qr_scan", "android": "https://dc.lft.to/lastmile_qr_scan"}}, {"name": "bcdf9e6f9728fa766d25fc88d91a33a4", "fusion_lat": 0.0, "type": "electric_scooter", "lat": 38.90063516666667, "is_reserved": 0, "is_disabled": 0, "fusion_lon": 0.0, "bike_id": "bcdf9e6f9728fa766d25fc88d91a33a4", "lon": -77.05005383333334, "rental_uris": {"ios": "https://dc.lft.to/lastmile_qr_scan", "android": "https://dc.lft.to/lastmile_qr_scan"}}, {"name": "7d4512f5d539c13e9f56177b8b3537b0", "fusion_lat": 0.0, "type": "electric_bike", "lat": 38.906970666666666, "is_reserved": 0, "is_disabled": 0, "fusion_lon": 0.0, "bike_id": "7d4512f5d539c13e9f56177b8b3537b0", "lon": -76.95183, "rental_uris": {"ios": "https://dc.lft.to/lastmile_qr_scan", "android": "https://dc.lft.to/lastmile_qr_scan"}}, {"name": "f234bd0adc883fb51fcca20565da8192", "fusion_lat": 0.0, "type": "electric_scooter", "lat": 38.938944666666664, "is_reserved": 0, "is_disabled": 0, "fusion_lon": 0.0, "bike_id": "f234bd0adc883fb51fcca20565da8192", "lon": -77.02468483333334, "rental_uris": {"ios": "https://dc.lft.to/lastmile_qr_scan", "android": "https://dc.lft.to/lastmile_qr_scan"}}, {"name": "81e9f3e5a5eb7cf0f1556f2ea2b135b4", "fusion_lat": 0.0, "type": "electric_bike", "lat": 38.80230383333333, "is_reserved": 0, "is_disabled": 0, "fusion_lon": 0.0, "bike_id": "81e9f3e5a5eb7cf0f1556f2ea2b135b4", "lon": -77.07912516666667, "rental_uris": {"ios": "https://dc.lft.to/lastmile_qr_scan", "android": "https://dc.lft.to/lastmile_qr_scan"}}, {"name": "0b9a219a28ad2a317fbd07d1328d87ff", "fusion_lat": 0.0, "type": "electric_scooter", "lat": 38.907457666666666, "is_reserved": 0, "is_disabled": 0, "fusion_lon": 0.0, "bike_id": "0b9a219a28ad2a317fbd07d1328d87ff", "lon": -77.03216566666667, "rental_uris": {"ios": "https://dc.lft.to/lastmile_qr_scan", "android": "https://dc.lft.to/lastmile_qr_scan"}}, {"name": "f2881178f567b57a883173db627fe8c9", "fusion_lat": 0.0, "type": "electric_scooter", "lat": 38.89726316666667, "is_reserved": 0, "is_disabled": 0, "fusion_lon": 0.0, "bike_id": "f2881178f567b57a883173db627fe8c9", "lon": -77.03104483333334, "rental_uris": {"ios": "https://dc.lft.to/lastmile_qr_scan", "android": "https://dc.lft.to/lastmile_qr_scan"}}, {"name": "0ab0e4195227c0b5ebc3dee0b4c91020", "fusion_lat": 0.0, "type": "electric_scooter", "lat": 38.895323, "is_reserved": 0, "is_disabled": 0, "fusion_lon": 0.0, "bike_id": "0ab0e4195227c0b5ebc3dee0b4c91020", "lon": -77.04291183333333, "rental_uris": {"ios": "https://dc.lft.to/lastmile_qr_scan", "android": "https://dc.lft.to/lastmile_qr_scan"}}, {"name": "483f452a9e7c92c4203b41df56556b6c", "fusion_lat": 0.0, "type": "electric_scooter", "lat": 38.903776666666666, "is_reserved": 0, "is_disabled": 0, "fusion_lon": 0.0, "bike_id": "483f452a9e7c92c4203b41df56556b6c", "lon": -77.01101216666666, "rental_uris": {"ios": "https://dc.lft.to/lastmile_qr_scan", "android": "https://dc.lft.to/lastmile_qr_scan"}}, {"name": "6bd0b7843e0d49153c4499e2783d2900", "fusion_lat": 0.0, "type": "electric_scooter", "lat": 38.89241716666667, "is_reserved": 0, "is_disabled": 0, "fusion_lon": 0.0, "bike_id": "6bd0b7843e0d49153c4499e2783d2900", "lon": -77.03185483333333, "rental_uris": {"ios": "https://dc.lft.to/lastmile_qr_scan", "android": "https://dc.lft.to/lastmile_qr_scan"}}, {"name": "d2f7248e65c0fead282bf02807585a33", "fusion_lat": 0.0, "type": "electric_scooter", "lat": 38.907411833333335, "is_reserved": 0, "is_disabled": 0, "fusion_lon": 0.0, "bike_id": "d2f7248e65c0fead282bf02807585a33", "lon": -77.04670666666667, "rental_uris": {"ios": "https://dc.lft.to/lastmile_qr_scan", "android": "https://dc.lft.to/lastmile_qr_scan"}}, {"name": "bd5a513b23d3465d3a18d1723a551475", "fusion_lat": 0.0, "type": "electric_scooter", "lat": 38.911890166666666, "is_reserved": 0, "is_disabled": 0, "fusion_lon": 0.0, "bike_id": "bd5a513b23d3465d3a18d1723a551475", "lon": -77.00729133333333, "rental_uris": {"ios": "https://dc.lft.to/lastmile_qr_scan", "android": "https://dc.lft.to/lastmile_qr_scan"}}, {"name": "4842cb1cc98f65cfc112a8db37c2838c", "fusion_lat": 0.0, "type": "electric_scooter", "lat": 38.9111055, "is_reserved": 0, "is_disabled": 0, "fusion_lon": 0.0, "bike_id": "4842cb1cc98f65cfc112a8db37c2838c", "lon": -77.01061216666666, "rental_uris": {"ios": "https://dc.lft.to/lastmile_qr_scan", "android": "https://dc.lft.to/lastmile_qr_scan"}}, {"name": "d5a0af6b14932e5c5f529b6bee274198", "fusion_lat": 0.0, "type": "electric_scooter", "lat": 38.92546933333333, "is_reserved": 0, "is_disabled": 0, "fusion_lon": 0.0, "bike_id": "d5a0af6b14932e5c5f529b6bee274198", "lon": -77.03269416666667, "rental_uris": {"ios": "https://dc.lft.to/lastmile_qr_scan", "android": "https://dc.lft.to/lastmile_qr_scan"}}, {"name": "9707fbeb1b00b8df0db69c5bd5b7cd18", "fusion_lat": 0.0, "type": "electric_scooter", "lat": 38.93108266666667, "is_reserved": 0, "is_disabled": 0, "fusion_lon": 0.0, "bike_id": "9707fbeb1b00b8df0db69c5bd5b7cd18", "lon": -77.03845916666667, "rental_uris": {"ios": "https://dc.lft.to/lastmile_qr_scan", "android": "https://dc.lft.to/lastmile_qr_scan"}}, {"name": "df88d315e991acd995ece27c79a75bdd", "fusion_lat": 0.0, "type": "electric_scooter", "lat": 38.92319116666667, "is_reserved": 0, "is_disabled": 0, "fusion_lon": 0.0, "bike_id": "df88d315e991acd995ece27c79a75bdd", "lon": -77.03954016666667, "rental_uris": {"ios": "https://dc.lft.to/lastmile_qr_scan", "android": "https://dc.lft.to/lastmile_qr_scan"}}, {"name": "07488a2821b2f8618544ee0a75848722", "fusion_lat": 0.0, "type": "electric_scooter", "lat": 38.9394455, "is_reserved": 0, "is_disabled": 0, "fusion_lon": 0.0, "bike_id": "07488a2821b2f8618544ee0a75848722", "lon": -77.03620233333334, "rental_uris": {"ios": "https://dc.lft.to/lastmile_qr_scan", "android": "https://dc.lft.to/lastmile_qr_scan"}}, {"name": "0de625ee7fa2aa30b5f5e0a458f5d7ca", "fusion_lat": 0.0, "type": "electric_scooter", "lat": 38.90249283333333, "is_reserved": 0, "is_disabled": 0, "fusion_lon": 0.0, "bike_id": "0de625ee7fa2aa30b5f5e0a458f5d7ca", "lon": -77.01521633333333, "rental_uris": {"ios": "https://dc.lft.to/lastmile_qr_scan", "android": "https://dc.lft.to/lastmile_qr_scan"}}, {"name": "ba9cefc82f71b8daf6766f1372576ebd", "fusion_lat": 0.0, "type": "electric_scooter", "lat": 38.90540933333333, "is_reserved": 0, "is_disabled": 0, "fusion_lon": 0.0, "bike_id": "ba9cefc82f71b8daf6766f1372576ebd", "lon": -77.06271933333333, "rental_uris": {"ios": "https://dc.lft.to/lastmile_qr_scan", "android": "https://dc.lft.to/lastmile_qr_scan"}}, {"name": "5726c8b3dc3a1949a9c2ec8c1300ec79", "fusion_lat": 0.0, "type": "electric_scooter", "lat": 38.89572033333334, "is_reserved": 0, "is_disabled": 0, "fusion_lon": 0.0, "bike_id": "5726c8b3dc3a1949a9c2ec8c1300ec79", "lon": -77.011132, "rental_uris": {"ios": "https://dc.lft.to/lastmile_qr_scan", "android": "https://dc.lft.to/lastmile_qr_scan"}}, {"name": "c5bd7b094ca7ef1a6f43b609f167c7c8", "fusion_lat": 0.0, "type": "electric_scooter", "lat": 38.938716166666666, "is_reserved": 0, "is_disabled": 0, "fusion_lon": 0.0, "bike_id": "c5bd7b094ca7ef1a6f43b609f167c7c8", "lon": -77.03216366666666, "rental_uris": {"ios": "https://dc.lft.to/lastmile_qr_scan", "android": "https://dc.lft.to/lastmile_qr_scan"}}, {"name": "d77809786e0270a286dbb0aa3b236a52", "fusion_lat": 0.0, "type": "electric_scooter", "lat": 38.905068166666666, "is_reserved": 0, "is_disabled": 0, "fusion_lon": 0.0, "bike_id": "d77809786e0270a286dbb0aa3b236a52", "lon": -77.06938483333333, "rental_uris": {"ios": "https://dc.lft.to/lastmile_qr_scan", "android": "https://dc.lft.to/lastmile_qr_scan"}}, {"name": "85a9cc172b37cc653f3a32e248fe26d6", "fusion_lat": 0.0, "type": "electric_scooter", "lat": 38.920539166666664, "is_reserved": 0, "is_disabled": 0, "fusion_lon": 0.0, "bike_id": "85a9cc172b37cc653f3a32e248fe26d6", "lon": -77.01691666666666, "rental_uris": {"ios": "https://dc.lft.to/lastmile_qr_scan", "android": "https://dc.lft.to/lastmile_qr_scan"}}, {"name": "df03aa20560201150d2d7df7b40a60c1", "fusion_lat": 0.0, "type": "electric_scooter", "lat": 38.904652, "is_reserved": 0, "is_disabled": 0, "fusion_lon": 0.0, "bike_id": "df03aa20560201150d2d7df7b40a60c1", "lon": -77.00739166666666, "rental_uris": {"ios": "https://dc.lft.to/lastmile_qr_scan", "android": "https://dc.lft.to/lastmile_qr_scan"}}, {"name": "6e5f838eca23c76fa434f879168ef2e5", "fusion_lat": 0.0, "type": "electric_scooter", "lat": 38.931101, "is_reserved": 0, "is_disabled": 0, "fusion_lon": 0.0, "bike_id": "6e5f838eca23c76fa434f879168ef2e5", "lon": -77.02401733333333, "rental_uris": {"ios": "https://dc.lft.to/lastmile_qr_scan", "android": "https://dc.lft.to/lastmile_qr_scan"}}, {"name": "dea8d76b898161ec690dcebc2bd8f9f8", "fusion_lat": 0.0, "type": "electric_scooter", "lat": 38.91762333333333, "is_reserved": 0, "is_disabled": 0, "fusion_lon": 0.0, "bike_id": "dea8d76b898161ec690dcebc2bd8f9f8", "lon": -77.0187215, "rental_uris": {"ios": "https://dc.lft.to/lastmile_qr_scan", "android": "https://dc.lft.to/lastmile_qr_scan"}}, {"name": "73956412dab28595f4ed993c36fd2bf9", "fusion_lat": 0.0, "type": "electric_scooter", "lat": 38.9141825, "is_reserved": 0, "is_disabled": 0, "fusion_lon": 0.0, "bike_id": "73956412dab28595f4ed993c36fd2bf9", "lon": -77.03173216666667, "rental_uris": {"ios": "https://dc.lft.to/lastmile_qr_scan", "android": "https://dc.lft.to/lastmile_qr_scan"}}, {"name": "8c4a8f9e29b8d6bde8c89d117da8fe15", "fusion_lat": 0.0, "type": "electric_bike", "lat": 38.961255666666666, "is_reserved": 0, "is_disabled": 0, "fusion_lon": 0.0, "bike_id": "8c4a8f9e29b8d6bde8c89d117da8fe15", "lon": -77.03276516666666, "rental_uris": {"ios": "https://dc.lft.to/lastmile_qr_scan", "android": "https://dc.lft.to/lastmile_qr_scan"}}, {"name": "164f21e6d665c6a01e2dc3b3f2ef9dd0", "fusion_lat": 0.0, "type": "electric_scooter", "lat": 38.938999, "is_reserved": 0, "is_disabled": 0, "fusion_lon": 0.0, "bike_id": "164f21e6d665c6a01e2dc3b3f2ef9dd0", "lon": -77.03266066666667, "rental_uris": {"ios": "https://dc.lft.to/lastmile_qr_scan", "android": "https://dc.lft.to/lastmile_qr_scan"}}, {"name": "c473fd197c58b2926a065ac90d8f293a", "fusion_lat": 0.0, "type": "electric_scooter", "lat": 38.92447033333333, "is_reserved": 0, "is_disabled": 0, "fusion_lon": 0.0, "bike_id": "c473fd197c58b2926a065ac90d8f293a", "lon": -76.99336516666666, "rental_uris": {"ios": "https://dc.lft.to/lastmile_qr_scan", "android": "https://dc.lft.to/lastmile_qr_scan"}}, {"name": "65fb2c22103ea0aced76531290873cea", "fusion_lat": 0.0, "type": "electric_scooter", "lat": 38.9038165, "is_reserved": 0, "is_disabled": 0, "fusion_lon": 0.0, "bike_id": "65fb2c22103ea0aced76531290873cea", "lon": -77.01761966666666, "rental_uris": {"ios": "https://dc.lft.to/lastmile_qr_scan", "android": "https://dc.lft.to/lastmile_qr_scan"}}, {"name": "86acfe34569f4fa76df2b3e1567f311d", "fusion_lat": 0.0, "type": "electric_scooter", "lat": 38.898767166666666, "is_reserved": 0, "is_disabled": 0, "fusion_lon": 0.0, "bike_id": "86acfe34569f4fa76df2b3e1567f311d", "lon": -76.93159083333333, "rental_uris": {"ios": "https://dc.lft.to/lastmile_qr_scan", "android": "https://dc.lft.to/lastmile_qr_scan"}}, {"name": "98f44dbf6c062fa58659dd7f6ff9a9bd", "fusion_lat": 0.0, "type": "electric_scooter", "lat": 38.903141833333336, "is_reserved": 0, "is_disabled": 0, "fusion_lon": 0.0, "bike_id": "98f44dbf6c062fa58659dd7f6ff9a9bd", "lon": -77.02430666666666, "rental_uris": {"ios": "https://dc.lft.to/lastmile_qr_scan", "android": "https://dc.lft.to/lastmile_qr_scan"}}, {"name": "7e275d65f4f398d24f1354ed2fedce9d", "fusion_lat": 0.0, "type": "electric_scooter", "lat": 38.912715166666665, "is_reserved": 0, "is_disabled": 0, "fusion_lon": 0.0, "bike_id": "7e275d65f4f398d24f1354ed2fedce9d", "lon": -77.03543133333334, "rental_uris": {"ios": "https://dc.lft.to/lastmile_qr_scan", "android": "https://dc.lft.to/lastmile_qr_scan"}}, {"name": "66f2614522b807954c20b8b783a31fd8", "fusion_lat": 0.0, "type": "electric_scooter", "lat": 38.9181795, "is_reserved": 0, "is_disabled": 0, "fusion_lon": 0.0, "bike_id": "66f2614522b807954c20b8b783a31fd8", "lon": -77.04003033333333, "rental_uris": {"ios": "https://dc.lft.to/lastmile_qr_scan", "android": "https://dc.lft.to/lastmile_qr_scan"}}, {"name": "daa3b92fea9dd92aa1d13fc09bd70484", "fusion_lat": 0.0, "type": "electric_scooter", "lat": 38.92362166666667, "is_reserved": 0, "is_disabled": 0, "fusion_lon": 0.0, "bike_id": "daa3b92fea9dd92aa1d13fc09bd70484", "lon": -77.05237266666667, "rental_uris": {"ios": "https://dc.lft.to/lastmile_qr_scan", "android": "https://dc.lft.to/lastmile_qr_scan"}}, {"name": "218e0c4d855c5224ba3b4a1f88ed04d4", "fusion_lat": 0.0, "type": "electric_scooter", "lat": 38.90398533333333, "is_reserved": 0, "is_disabled": 0, "fusion_lon": 0.0, "bike_id": "218e0c4d855c5224ba3b4a1f88ed04d4", "lon": -77.06404066666667, "rental_uris": {"ios": "https://dc.lft.to/lastmile_qr_scan", "android": "https://dc.lft.to/lastmile_qr_scan"}}, {"name": "f483c6016a04801cd8fda11cf1bec17c", "fusion_lat": 0.0, "type": "electric_scooter", "lat": 38.92796533333333, "is_reserved": 0, "is_disabled": 0, "fusion_lon": 0.0, "bike_id": "f483c6016a04801cd8fda11cf1bec17c", "lon": -77.039776, "rental_uris": {"ios": "https://dc.lft.to/lastmile_qr_scan", "android": "https://dc.lft.to/lastmile_qr_scan"}}, {"name": "608a25c8ec379cb5b7d250d7720ee178", "fusion_lat": 0.0, "type": "electric_scooter", "lat": 38.919298, "is_reserved": 0, "is_disabled": 0, "fusion_lon": 0.0, "bike_id": "608a25c8ec379cb5b7d250d7720ee178", "lon": -77.0450695, "rental_uris": {"ios": "https://dc.lft.to/lastmile_qr_scan", "android": "https://dc.lft.to/lastmile_qr_scan"}}, {"name": "b7803a0ec677255d52df982c11c29767", "fusion_lat": 0.0, "type": "electric_scooter", "lat": 38.861462833333334, "is_reserved": 0, "is_disabled": 0, "fusion_lon": 0.0, "bike_id": "b7803a0ec677255d52df982c11c29767", "lon": -76.98911983333333, "rental_uris": {"ios": "https://dc.lft.to/lastmile_qr_scan", "android": "https://dc.lft.to/lastmile_qr_scan"}}, {"name": "1b222239a2a821cf3f1f4c13f65ff4e0", "fusion_lat": 0.0, "type": "electric_scooter", "lat": 38.917319166666665, "is_reserved": 0, "is_disabled": 0, "fusion_lon": 0.0, "bike_id": "1b222239a2a821cf3f1f4c13f65ff4e0", "lon": -77.01025883333334, "rental_uris": {"ios": "https://dc.lft.to/lastmile_qr_scan", "android": "https://dc.lft.to/lastmile_qr_scan"}}, {"name": "77663d621d6b307521f7649e4de4f032", "fusion_lat": 0.0, "type": "electric_scooter", "lat": 38.905838833333334, "is_reserved": 0, "is_disabled": 0, "fusion_lon": 0.0, "bike_id": "77663d621d6b307521f7649e4de4f032", "lon": -77.02230316666666, "rental_uris": {"ios": "https://dc.lft.to/lastmile_qr_scan", "android": "https://dc.lft.to/lastmile_qr_scan"}}, {"name": "98b78a90655e99b98874127f0d4be58b", "fusion_lat": 0.0, "type": "electric_scooter", "lat": 38.908919, "is_reserved": 0, "is_disabled": 0, "fusion_lon": 0.0, "bike_id": "98b78a90655e99b98874127f0d4be58b", "lon": -77.00575233333333, "rental_uris": {"ios": "https://dc.lft.to/lastmile_qr_scan", "android": "https://dc.lft.to/lastmile_qr_scan"}}, {"name": "8b40b1d3d409e0e86f1cb3509defd200", "fusion_lat": 0.0, "type": "electric_scooter", "lat": 38.9181195, "is_reserved": 0, "is_disabled": 0, "fusion_lon": 0.0, "bike_id": "8b40b1d3d409e0e86f1cb3509defd200", "lon": -77.03455283333334, "rental_uris": {"ios": "https://dc.lft.to/lastmile_qr_scan", "android": "https://dc.lft.to/lastmile_qr_scan"}}, {"name": "241558f6570f256cdd4c5273fc717109", "fusion_lat": 0.0, "type": "electric_scooter", "lat": 38.896696166666665, "is_reserved": 0, "is_disabled": 0, "fusion_lon": 0.0, "bike_id": "241558f6570f256cdd4c5273fc717109", "lon": -76.9473225, "rental_uris": {"ios": "https://dc.lft.to/lastmile_qr_scan", "android": "https://dc.lft.to/lastmile_qr_scan"}}, {"name": "b5297f8e77ac8c54a84b71a18474f5d7", "fusion_lat": 0.0, "type": "electric_scooter", "lat": 38.9141305, "is_reserved": 0, "is_disabled": 0, "fusion_lon": 0.0, "bike_id": "b5297f8e77ac8c54a84b71a18474f5d7", "lon": -77.009751, "rental_uris": {"ios": "https://dc.lft.to/lastmile_qr_scan", "android": "https://dc.lft.to/lastmile_qr_scan"}}, {"name": "278e9c318d0ae9e36de2ca59749b29df", "fusion_lat": 0.0, "type": "electric_scooter", "lat": 38.915533333333336, "is_reserved": 0, "is_disabled": 0, "fusion_lon": 0.0, "bike_id": "278e9c318d0ae9e36de2ca59749b29df", "lon": -77.03855716666666, "rental_uris": {"ios": "https://dc.lft.to/lastmile_qr_scan", "android": "https://dc.lft.to/lastmile_qr_scan"}}, {"name": "356a28095e6a4a9ae7822bb62261acb1", "fusion_lat": 0.0, "type": "electric_bike", "lat": 38.868722166666664, "is_reserved": 0, "is_disabled": 0, "fusion_lon": 0.0, "bike_id": "356a28095e6a4a9ae7822bb62261acb1", "lon": -76.91665183333333, "rental_uris": {"ios": "https://dc.lft.to/lastmile_qr_scan", "android": "https://dc.lft.to/lastmile_qr_scan"}}, {"name": "fa267dff051375503b6572e41d527459", "fusion_lat": 0.0, "type": "electric_scooter", "lat": 38.90398116666667, "is_reserved": 0, "is_disabled": 0, "fusion_lon": 0.0, "bike_id": "fa267dff051375503b6572e41d527459", "lon": -76.98944966666667, "rental_uris": {"ios": "https://dc.lft.to/lastmile_qr_scan", "android": "https://dc.lft.to/lastmile_qr_scan"}}, {"name": "f2d8a7d69d029ad50455b04c2f91f3c4", "fusion_lat": 0.0, "type": "electric_bike", "lat": 38.89652, "is_reserved": 0, "is_disabled": 0, "fusion_lon": 0.0, "bike_id": "f2d8a7d69d029ad50455b04c2f91f3c4", "lon": -77.10454366666667, "rental_uris": {"ios": "https://dc.lft.to/lastmile_qr_scan", "android": "https://dc.lft.to/lastmile_qr_scan"}}, {"name": "e41d9b8a7d7a983b1fd940bdad440980", "fusion_lat": 0.0, "type": "electric_scooter", "lat": 38.9186475, "is_reserved": 0, "is_disabled": 0, "fusion_lon": 0.0, "bike_id": "e41d9b8a7d7a983b1fd940bdad440980", "lon": -77.044498, "rental_uris": {"ios": "https://dc.lft.to/lastmile_qr_scan", "android": "https://dc.lft.to/lastmile_qr_scan"}}, {"name": "481075c26c4c423e86834a831425f491", "fusion_lat": 0.0, "type": "electric_scooter", "lat": 38.878720666666666, "is_reserved": 0, "is_disabled": 0, "fusion_lon": 0.0, "bike_id": "481075c26c4c423e86834a831425f491", "lon": -77.02299566666667, "rental_uris": {"ios": "https://dc.lft.to/lastmile_qr_scan", "android": "https://dc.lft.to/lastmile_qr_scan"}}, {"name": "2cdaa6826e8dc9ae3a3aaa3152001580", "fusion_lat": 0.0, "type": "electric_scooter", "lat": 38.908597, "is_reserved": 0, "is_disabled": 0, "fusion_lon": 0.0, "bike_id": "2cdaa6826e8dc9ae3a3aaa3152001580", "lon": -76.999586, "rental_uris": {"ios": "https://dc.lft.to/lastmile_qr_scan", "android": "https://dc.lft.to/lastmile_qr_scan"}}, {"name": "e18d1e38125f0532afcc6440134b079d", "fusion_lat": 0.0, "type": "electric_scooter", "lat": 38.922449, "is_reserved": 0, "is_disabled": 0, "fusion_lon": 0.0, "bike_id": "e18d1e38125f0532afcc6440134b079d", "lon": -77.0366695, "rental_uris": {"ios": "https://dc.lft.to/lastmile_qr_scan", "android": "https://dc.lft.to/lastmile_qr_scan"}}, {"name": "6e14066b3815f987a337bcf90f681925", "fusion_lat": 0.0, "type": "electric_scooter", "lat": 38.9231365, "is_reserved": 0, "is_disabled": 0, "fusion_lon": 0.0, "bike_id": "6e14066b3815f987a337bcf90f681925", "lon": -77.02974733333333, "rental_uris": {"ios": "https://dc.lft.to/lastmile_qr_scan", "android": "https://dc.lft.to/lastmile_qr_scan"}}, {"name": "d8bbf4c90aa936d9152ad30aa278fa59", "fusion_lat": 0.0, "type": "electric_scooter", "lat": 38.9430275, "is_reserved": 0, "is_disabled": 0, "fusion_lon": 0.0, "bike_id": "d8bbf4c90aa936d9152ad30aa278fa59", "lon": -77.068078, "rental_uris": {"ios": "https://dc.lft.to/lastmile_qr_scan", "android": "https://dc.lft.to/lastmile_qr_scan"}}, {"name": "7535aebcd607f5cba3d7657447dc2944", "fusion_lat": 0.0, "type": "electric_bike", "lat": 39.030491, "is_reserved": 0, "is_disabled": 0, "fusion_lon": 0.0, "bike_id": "7535aebcd607f5cba3d7657447dc2944", "lon": -77.09482566666667, "rental_uris": {"ios": "https://dc.lft.to/lastmile_qr_scan", "android": "https://dc.lft.to/lastmile_qr_scan"}}, {"name": "6e6d6e7729dedd93a6df4e4cacfbeea9", "fusion_lat": 0.0, "type": "electric_scooter", "lat": 38.96387333333333, "is_reserved": 0, "is_disabled": 0, "fusion_lon": 0.0, "bike_id": "6e6d6e7729dedd93a6df4e4cacfbeea9", "lon": -77.03505683333333, "rental_uris": {"ios": "https://dc.lft.to/lastmile_qr_scan", "android": "https://dc.lft.to/lastmile_qr_scan"}}, {"name": "f52e441807e4961ae444ca95d88577e3", "fusion_lat": 0.0, "type": "electric_scooter", "lat": 38.92267016666667, "is_reserved": 0, "is_disabled": 0, "fusion_lon": 0.0, "bike_id": "f52e441807e4961ae444ca95d88577e3", "lon": -77.03405883333333, "rental_uris": {"ios": "https://dc.lft.to/lastmile_qr_scan", "android": "https://dc.lft.to/lastmile_qr_scan"}}, {"name": "a10a51201d4fa0e7fcd8191d28b21162", "fusion_lat": 0.0, "type": "electric_scooter", "lat": 38.899454666666664, "is_reserved": 0, "is_disabled": 0, "fusion_lon": 0.0, "bike_id": "a10a51201d4fa0e7fcd8191d28b21162", "lon": -77.041022, "rental_uris": {"ios": "https://dc.lft.to/lastmile_qr_scan", "android": "https://dc.lft.to/lastmile_qr_scan"}}, {"name": "dd73ec84c370a0aead09f9b472429079", "fusion_lat": 0.0, "type": "electric_scooter", "lat": 38.9123455, "is_reserved": 0, "is_disabled": 0, "fusion_lon": 0.0, "bike_id": "dd73ec84c370a0aead09f9b472429079", "lon": -77.0511, "rental_uris": {"ios": "https://dc.lft.to/lastmile_qr_scan", "android": "https://dc.lft.to/lastmile_qr_scan"}}, {"name": "6abc115ff4319c9ccd4cfa45c5892223", "fusion_lat": 0.0, "type": "electric_scooter", "lat": 38.91598333333334, "is_reserved": 0, "is_disabled": 0, "fusion_lon": 0.0, "bike_id": "6abc115ff4319c9ccd4cfa45c5892223", "lon": -77.04354733333334, "rental_uris": {"ios": "https://dc.lft.to/lastmile_qr_scan", "android": "https://dc.lft.to/lastmile_qr_scan"}}, {"name": "1cb5c8b55faf338200a9aec9197df8c8", "fusion_lat": 0.0, "type": "electric_bike", "lat": 38.84347916666667, "is_reserved": 0, "is_disabled": 0, "fusion_lon": 0.0, "bike_id": "1cb5c8b55faf338200a9aec9197df8c8", "lon": -77.06343033333333, "rental_uris": {"ios": "https://dc.lft.to/lastmile_qr_scan", "android": "https://dc.lft.to/lastmile_qr_scan"}}, {"name": "98456d28121f3bc1859e51f12ec35623", "fusion_lat": 0.0, "type": "electric_scooter", "lat": 38.9012145, "is_reserved": 0, "is_disabled": 0, "fusion_lon": 0.0, "bike_id": "98456d28121f3bc1859e51f12ec35623", "lon": -77.02496116666667, "rental_uris": {"ios": "https://dc.lft.to/lastmile_qr_scan", "android": "https://dc.lft.to/lastmile_qr_scan"}}, {"name": "46e20e95e7d01e10514fed2d1945e4df", "fusion_lat": 0.0, "type": "electric_scooter", "lat": 38.92487033333333, "is_reserved": 0, "is_disabled": 0, "fusion_lon": 0.0, "bike_id": "46e20e95e7d01e10514fed2d1945e4df", "lon": -77.02716066666666, "rental_uris": {"ios": "https://dc.lft.to/lastmile_qr_scan", "android": "https://dc.lft.to/lastmile_qr_scan"}}, {"name": "ba0ef2852de0017b7f6e0067d75013eb", "fusion_lat": 0.0, "type": "electric_scooter", "lat": 38.8973755, "is_reserved": 0, "is_disabled": 0, "fusion_lon": 0.0, "bike_id": "ba0ef2852de0017b7f6e0067d75013eb", "lon": -77.04338066666666, "rental_uris": {"ios": "https://dc.lft.to/lastmile_qr_scan", "android": "https://dc.lft.to/lastmile_qr_scan"}}, {"name": "a424a75f36e5d5c180ea33b05425c265", "fusion_lat": 0.0, "type": "electric_scooter", "lat": 38.93012383333333, "is_reserved": 0, "is_disabled": 0, "fusion_lon": 0.0, "bike_id": "a424a75f36e5d5c180ea33b05425c265", "lon": -77.02323533333333, "rental_uris": {"ios": "https://dc.lft.to/lastmile_qr_scan", "android": "https://dc.lft.to/lastmile_qr_scan"}}, {"name": "c347632a8831e2bb0a2c379e1b8cd997", "fusion_lat": 0.0, "type": "electric_scooter", "lat": 38.907279, "is_reserved": 0, "is_disabled": 0, "fusion_lon": 0.0, "bike_id": "c347632a8831e2bb0a2c379e1b8cd997", "lon": -77.0335705, "rental_uris": {"ios": "https://dc.lft.to/lastmile_qr_scan", "android": "https://dc.lft.to/lastmile_qr_scan"}}, {"name": "1e0d728b9c276706417548233f93f2cb", "fusion_lat": 0.0, "type": "electric_scooter", "lat": 38.89240083333333, "is_reserved": 0, "is_disabled": 0, "fusion_lon": 0.0, "bike_id": "1e0d728b9c276706417548233f93f2cb", "lon": -77.03183633333333, "rental_uris": {"ios": "https://dc.lft.to/lastmile_qr_scan", "android": "https://dc.lft.to/lastmile_qr_scan"}}, {"name": "fb622712a2b0e2d0da37820d76e1a604", "fusion_lat": 0.0, "type": "electric_scooter", "lat": 38.909813666666665, "is_reserved": 0, "is_disabled": 0, "fusion_lon": 0.0, "bike_id": "fb622712a2b0e2d0da37820d76e1a604", "lon": -77.04877833333333, "rental_uris": {"ios": "https://dc.lft.to/lastmile_qr_scan", "android": "https://dc.lft.to/lastmile_qr_scan"}}, {"name": "fc3a1bdb5fae6d05ee2a1863c8a3bdb3", "fusion_lat": 0.0, "type": "electric_scooter", "lat": 38.9171775, "is_reserved": 0, "is_disabled": 0, "fusion_lon": 0.0, "bike_id": "fc3a1bdb5fae6d05ee2a1863c8a3bdb3", "lon": -77.02897416666667, "rental_uris": {"ios": "https://dc.lft.to/lastmile_qr_scan", "android": "https://dc.lft.to/lastmile_qr_scan"}}, {"name": "6162e5dcd32d787410af7e3db1c3977b", "fusion_lat": 0.0, "type": "electric_scooter", "lat": 38.905226666666664, "is_reserved": 0, "is_disabled": 0, "fusion_lon": 0.0, "bike_id": "6162e5dcd32d787410af7e3db1c3977b", "lon": -77.04741883333334, "rental_uris": {"ios": "https://dc.lft.to/lastmile_qr_scan", "android": "https://dc.lft.to/lastmile_qr_scan"}}, {"name": "9cd3aaf2da86e9c3f4a79552559d9a7a", "fusion_lat": 0.0, "type": "electric_bike", "lat": 38.955623, "is_reserved": 0, "is_disabled": 0, "fusion_lon": 0.0, "bike_id": "9cd3aaf2da86e9c3f4a79552559d9a7a", "lon": -76.935435, "rental_uris": {"ios": "https://dc.lft.to/lastmile_qr_scan", "android": "https://dc.lft.to/lastmile_qr_scan"}}, {"name": "33a010a72f36b3a9c379fab5f10cacde", "fusion_lat": 0.0, "type": "electric_scooter", "lat": 38.905382, "is_reserved": 0, "is_disabled": 0, "fusion_lon": 0.0, "bike_id": "33a010a72f36b3a9c379fab5f10cacde", "lon": -77.05047483333334, "rental_uris": {"ios": "https://dc.lft.to/lastmile_qr_scan", "android": "https://dc.lft.to/lastmile_qr_scan"}}, {"name": "91796ac0462b12851797e5f498a8fd58", "fusion_lat": 0.0, "type": "electric_scooter", "lat": 38.91604433333333, "is_reserved": 0, "is_disabled": 0, "fusion_lon": 0.0, "bike_id": "91796ac0462b12851797e5f498a8fd58", "lon": -77.04157333333333, "rental_uris": {"ios": "https://dc.lft.to/lastmile_qr_scan", "android": "https://dc.lft.to/lastmile_qr_scan"}}, {"name": "62697a79f5f540fcf082024f17408ef8", "fusion_lat": 0.0, "type": "electric_scooter", "lat": 38.9111785, "is_reserved": 0, "is_disabled": 0, "fusion_lon": 0.0, "bike_id": "62697a79f5f540fcf082024f17408ef8", "lon": -77.04926566666667, "rental_uris": {"ios": "https://dc.lft.to/lastmile_qr_scan", "android": "https://dc.lft.to/lastmile_qr_scan"}}, {"name": "9722e197c99bb493e36f3eb420dbe6bb", "fusion_lat": 0.0, "type": "electric_scooter", "lat": 38.9086575, "is_reserved": 0, "is_disabled": 0, "fusion_lon": 0.0, "bike_id": "9722e197c99bb493e36f3eb420dbe6bb", "lon": -76.99956033333333, "rental_uris": {"ios": "https://dc.lft.to/lastmile_qr_scan", "android": "https://dc.lft.to/lastmile_qr_scan"}}, {"name": "5ae3da2508a1a646a6326b7f099c6ebb", "fusion_lat": 0.0, "type": "electric_scooter", "lat": 38.92181866666667, "is_reserved": 0, "is_disabled": 0, "fusion_lon": 0.0, "bike_id": "5ae3da2508a1a646a6326b7f099c6ebb", "lon": -77.042551, "rental_uris": {"ios": "https://dc.lft.to/lastmile_qr_scan", "android": "https://dc.lft.to/lastmile_qr_scan"}}, {"name": "eb9bfefdd97698095d9096fbf0dfe1ee", "fusion_lat": 0.0, "type": "electric_scooter", "lat": 38.91919816666667, "is_reserved": 0, "is_disabled": 0, "fusion_lon": 0.0, "bike_id": "eb9bfefdd97698095d9096fbf0dfe1ee", "lon": -77.03432383333333, "rental_uris": {"ios": "https://dc.lft.to/lastmile_qr_scan", "android": "https://dc.lft.to/lastmile_qr_scan"}}, {"name": "bd014412640913aae1c17ad24dad51c0", "fusion_lat": 0.0, "type": "electric_scooter", "lat": 38.93603866666667, "is_reserved": 0, "is_disabled": 0, "fusion_lon": 0.0, "bike_id": "bd014412640913aae1c17ad24dad51c0", "lon": -77.036554, "rental_uris": {"ios": "https://dc.lft.to/lastmile_qr_scan", "android": "https://dc.lft.to/lastmile_qr_scan"}}, {"name": "222e902c1ddc3da01a71f8bdb047591e", "fusion_lat": 0.0, "type": "electric_scooter", "lat": 38.90466983333334, "is_reserved": 0, "is_disabled": 0, "fusion_lon": 0.0, "bike_id": "222e902c1ddc3da01a71f8bdb047591e", "lon": -77.03853566666666, "rental_uris": {"ios": "https://dc.lft.to/lastmile_qr_scan", "android": "https://dc.lft.to/lastmile_qr_scan"}}, {"name": "c657fd0e5a653aa067ac35aa47e9fa38", "fusion_lat": 0.0, "type": "electric_scooter", "lat": 38.90144433333333, "is_reserved": 0, "is_disabled": 0, "fusion_lon": 0.0, "bike_id": "c657fd0e5a653aa067ac35aa47e9fa38", "lon": -77.05923883333334, "rental_uris": {"ios": "https://dc.lft.to/lastmile_qr_scan", "android": "https://dc.lft.to/lastmile_qr_scan"}}, {"name": "b8b60bccf407f0029ea55e7c247ce457", "fusion_lat": 0.0, "type": "electric_bike", "lat": 38.8918795, "is_reserved": 0, "is_disabled": 0, "fusion_lon": 0.0, "bike_id": "b8b60bccf407f0029ea55e7c247ce457", "lon": -77.12264466666667, "rental_uris": {"ios": "https://dc.lft.to/lastmile_qr_scan", "android": "https://dc.lft.to/lastmile_qr_scan"}}, {"name": "00836de90185284301307933045cfbc4", "fusion_lat": 0.0, "type": "electric_bike", "lat": 38.8151515, "is_reserved": 0, "is_disabled": 0, "fusion_lon": 0.0, "bike_id": "00836de90185284301307933045cfbc4", "lon": -77.12658266666666, "rental_uris": {"ios": "https://dc.lft.to/lastmile_qr_scan", "android": "https://dc.lft.to/lastmile_qr_scan"}}, {"name": "25facbd97d27cd5c0c095a87b3225f2e", "fusion_lat": 0.0, "type": "electric_scooter", "lat": 38.90672633333333, "is_reserved": 0, "is_disabled": 0, "fusion_lon": 0.0, "bike_id": "25facbd97d27cd5c0c095a87b3225f2e", "lon": -76.97816, "rental_uris": {"ios": "https://dc.lft.to/lastmile_qr_scan", "android": "https://dc.lft.to/lastmile_qr_scan"}}, {"name": "ed0da68bb6ebf7a6c4931cac191203fb", "fusion_lat": 0.0, "type": "electric_scooter", "lat": 38.8961895, "is_reserved": 0, "is_disabled": 0, "fusion_lon": 0.0, "bike_id": "ed0da68bb6ebf7a6c4931cac191203fb", "lon": -77.04688016666667, "rental_uris": {"ios": "https://dc.lft.to/lastmile_qr_scan", "android": "https://dc.lft.to/lastmile_qr_scan"}}, {"name": "3cb42fc1b80da4c9db3c4cb6b4c785dd", "fusion_lat": 0.0, "type": "electric_scooter", "lat": 38.933638, "is_reserved": 0, "is_disabled": 0, "fusion_lon": 0.0, "bike_id": "3cb42fc1b80da4c9db3c4cb6b4c785dd", "lon": -77.03721033333333, "rental_uris": {"ios": "https://dc.lft.to/lastmile_qr_scan", "android": "https://dc.lft.to/lastmile_qr_scan"}}, {"name": "3f10c2942cfeca51ecddcf0d10d18477", "fusion_lat": 0.0, "type": "electric_scooter", "lat": 38.91232733333333, "is_reserved": 0, "is_disabled": 0, "fusion_lon": 0.0, "bike_id": "3f10c2942cfeca51ecddcf0d10d18477", "lon": -77.038413, "rental_uris": {"ios": "https://dc.lft.to/lastmile_qr_scan", "android": "https://dc.lft.to/lastmile_qr_scan"}}, {"name": "7fa575c82195ac81d46fc6835cca126d", "fusion_lat": 0.0, "type": "electric_bike", "lat": 38.83193216666667, "is_reserved": 0, "is_disabled": 0, "fusion_lon": 0.0, "bike_id": "7fa575c82195ac81d46fc6835cca126d", "lon": -77.0768825, "rental_uris": {"ios": "https://dc.lft.to/lastmile_qr_scan", "android": "https://dc.lft.to/lastmile_qr_scan"}}, {"name": "570bfd805b13af9e7dbc991c04025eac", "fusion_lat": 0.0, "type": "electric_scooter", "lat": 38.8949345, "is_reserved": 0, "is_disabled": 0, "fusion_lon": 0.0, "bike_id": "570bfd805b13af9e7dbc991c04025eac", "lon": -77.01010466666666, "rental_uris": {"ios": "https://dc.lft.to/lastmile_qr_scan", "android": "https://dc.lft.to/lastmile_qr_scan"}}, {"name": "49ba5cf3490db1c0b566896dae345bec", "fusion_lat": 0.0, "type": "electric_scooter", "lat": 38.91716516666666, "is_reserved": 0, "is_disabled": 0, "fusion_lon": 0.0, "bike_id": "49ba5cf3490db1c0b566896dae345bec", "lon": -77.02892266666667, "rental_uris": {"ios": "https://dc.lft.to/lastmile_qr_scan", "android": "https://dc.lft.to/lastmile_qr_scan"}}, {"name": "07b6603276699662ef1c713089bf90ab", "fusion_lat": 0.0, "type": "electric_scooter", "lat": 38.90280833333333, "is_reserved": 0, "is_disabled": 0, "fusion_lon": 0.0, "bike_id": "07b6603276699662ef1c713089bf90ab", "lon": -77.03842233333333, "rental_uris": {"ios": "https://dc.lft.to/lastmile_qr_scan", "android": "https://dc.lft.to/lastmile_qr_scan"}}, {"name": "4b3f7f9bcad237aace1677a68ab8153c", "fusion_lat": 0.0, "type": "electric_scooter", "lat": 38.92161633333333, "is_reserved": 0, "is_disabled": 0, "fusion_lon": 0.0, "bike_id": "4b3f7f9bcad237aace1677a68ab8153c", "lon": -77.03322516666667, "rental_uris": {"ios": "https://dc.lft.to/lastmile_qr_scan", "android": "https://dc.lft.to/lastmile_qr_scan"}}, {"name": "7f1d4ce85b877ad6a792d7e4e5fd0e44", "fusion_lat": 0.0, "type": "electric_scooter", "lat": 38.88397783333333, "is_reserved": 0, "is_disabled": 0, "fusion_lon": 0.0, "bike_id": "7f1d4ce85b877ad6a792d7e4e5fd0e44", "lon": -76.93043416666667, "rental_uris": {"ios": "https://dc.lft.to/lastmile_qr_scan", "android": "https://dc.lft.to/lastmile_qr_scan"}}, {"name": "f67bed822f11934f7c6321316ed56305", "fusion_lat": 0.0, "type": "electric_bike", "lat": 38.886162, "is_reserved": 0, "is_disabled": 0, "fusion_lon": 0.0, "bike_id": "f67bed822f11934f7c6321316ed56305", "lon": -77.1075565, "rental_uris": {"ios": "https://dc.lft.to/lastmile_qr_scan", "android": "https://dc.lft.to/lastmile_qr_scan"}}, {"name": "c667829489a23f58d8ea115c364d7e31", "fusion_lat": 0.0, "type": "electric_scooter", "lat": 38.93891816666667, "is_reserved": 0, "is_disabled": 0, "fusion_lon": 0.0, "bike_id": "c667829489a23f58d8ea115c364d7e31", "lon": -77.02463116666667, "rental_uris": {"ios": "https://dc.lft.to/lastmile_qr_scan", "android": "https://dc.lft.to/lastmile_qr_scan"}}, {"name": "c2d91440242e04e635ddc3635e21ddec", "fusion_lat": 0.0, "type": "electric_scooter", "lat": 38.887568, "is_reserved": 0, "is_disabled": 0, "fusion_lon": 0.0, "bike_id": "c2d91440242e04e635ddc3635e21ddec", "lon": -76.97985516666667, "rental_uris": {"ios": "https://dc.lft.to/lastmile_qr_scan", "android": "https://dc.lft.to/lastmile_qr_scan"}}, {"name": "47f60b40a0f320ab2b38c012394dae60", "fusion_lat": 0.0, "type": "electric_bike", "lat": 38.922172833333335, "is_reserved": 0, "is_disabled": 0, "fusion_lon": 0.0, "bike_id": "47f60b40a0f320ab2b38c012394dae60", "lon": -76.9879725, "rental_uris": {"ios": "https://dc.lft.to/lastmile_qr_scan", "android": "https://dc.lft.to/lastmile_qr_scan"}}, {"name": "f5db23a71318248e73d67b9a52eb58b8", "fusion_lat": 0.0, "type": "electric_scooter", "lat": 38.9247725, "is_reserved": 0, "is_disabled": 0, "fusion_lon": 0.0, "bike_id": "f5db23a71318248e73d67b9a52eb58b8", "lon": -77.03133466666667, "rental_uris": {"ios": "https://dc.lft.to/lastmile_qr_scan", "android": "https://dc.lft.to/lastmile_qr_scan"}}, {"name": "4048aea9f4fb4a39ceee14825ffcb5cc", "fusion_lat": 0.0, "type": "electric_scooter", "lat": 38.86264083333333, "is_reserved": 0, "is_disabled": 0, "fusion_lon": 0.0, "bike_id": "4048aea9f4fb4a39ceee14825ffcb5cc", "lon": -76.98721883333333, "rental_uris": {"ios": "https://dc.lft.to/lastmile_qr_scan", "android": "https://dc.lft.to/lastmile_qr_scan"}}, {"name": "6e999861c35ecce48ef7c89adffa80e1", "fusion_lat": 0.0, "type": "electric_scooter", "lat": 38.90313616666667, "is_reserved": 0, "is_disabled": 0, "fusion_lon": 0.0, "bike_id": "6e999861c35ecce48ef7c89adffa80e1", "lon": -77.04983416666667, "rental_uris": {"ios": "https://dc.lft.to/lastmile_qr_scan", "android": "https://dc.lft.to/lastmile_qr_scan"}}, {"name": "1a7fa3a49ebc25e117511c1b4cb0e420", "fusion_lat": 0.0, "type": "electric_scooter", "lat": 38.9339475, "is_reserved": 0, "is_disabled": 0, "fusion_lon": 0.0, "bike_id": "1a7fa3a49ebc25e117511c1b4cb0e420", "lon": -77.0738055, "rental_uris": {"ios": "https://dc.lft.to/lastmile_qr_scan", "android": "https://dc.lft.to/lastmile_qr_scan"}}, {"name": "9bee4ae83a1936e97cb1c1fda6a636ab", "fusion_lat": 0.0, "type": "electric_scooter", "lat": 38.902935, "is_reserved": 0, "is_disabled": 0, "fusion_lon": 0.0, "bike_id": "9bee4ae83a1936e97cb1c1fda6a636ab", "lon": -77.03828033333333, "rental_uris": {"ios": "https://dc.lft.to/lastmile_qr_scan", "android": "https://dc.lft.to/lastmile_qr_scan"}}, {"name": "2efae6c0b5e113e8d9ec014553176c2f", "fusion_lat": 0.0, "type": "electric_scooter", "lat": 38.917657, "is_reserved": 0, "is_disabled": 0, "fusion_lon": 0.0, "bike_id": "2efae6c0b5e113e8d9ec014553176c2f", "lon": -77.01495616666666, "rental_uris": {"ios": "https://dc.lft.to/lastmile_qr_scan", "android": "https://dc.lft.to/lastmile_qr_scan"}},