{"data": {"bikes": [{"bike_id": "29c3b04084abbdb89b502ace9098599b", "lat": 38.86245816666667, "is_disabled": 0, "lon": -76.99500766666667, "fusion_lon": 0.0, "is_reserved": 0, "fusion_lat": 0.0, "rental_uris": {"android": "https://dc.lft.to/lastmile_qr_scan", "ios": "https://dc.lft.to/lastmile_qr_scan"}, "type": "electric_scooter", "name": "29c3b04084abbdb89b502ace9098599b"}, {"bike_id": "a46f17e49ff8a588ccd070e72bfd7807", "lat": 38.902381, "is_disabled": 0, "lon": -77.04103916666666, "fusion_lon": 0.0, "is_reserved": 0, "fusion_lat": 0.0, "rental_uris": {"android": "https://dc.lft.to/lastmile_qr_scan", "ios": "https://dc.lft.to/lastmile_qr_scan"}, "type": "electric_scooter", "name": "a46f17e49ff8a588ccd070e72bfd7807"}, {"bike_id": "bbea15f72c66cf8ef2c051a5f46585f7", "lat": 38.90388466666667, "is_disabled": 0, "lon": -77.03198, "fusion_lon": 0.0, "is_reserved": 0, "fusion_lat": 0.0, "rental_uris": {"android": "https://dc.lft.to/lastmile_qr_scan", "ios": "https://dc.lft.to/lastmile_qr_scan"}, "type": "electric_scooter", "name": "bbea15f72c66cf8ef2c051a5f46585f7"}, {"bike_id": "ef31d0362f1d2e5a7175d3264b316e07", "lat": 38.9003645, "is_disabled": 0, "lon": -77.03976616666667, "fusion_lon": 0.0, "is_reserved": 0, "fusion_lat": 0.0, "rental_uris": {"android": "https://dc.lft.to/lastmile_qr_scan", "ios": "https://dc.lft.to/lastmile_qr_scan"}, "type": "electric_scooter", "name": "ef31d0362f1d2e5a7175d3264b316e07"}, {"bike_id": "4b61817cdfec98d84f1006474f100677", "lat": 38.91002566666667, "is_disabled": 0, "lon": -77.03186266666667, "fusion_lon": 0.0, "is_reserved": 0, "fusion_lat": 0.0, "rental_uris": {"android": "https://dc.lft.to/lastmile_qr_scan", "ios": "https://dc.lft.to/lastmile_qr_scan"}, "type": "electric_scooter", "name": "4b61817cdfec98d84f1006474f100677"}, {"bike_id": "3a06fce5edf30e94b9035f0088e6bf73", "lat": 38.92404, "is_disabled": 0, "lon": -77.0203425, "fusion_lon": 0.0, "is_reserved": 0, "fusion_lat": 0.0, "rental_uris": {"android": "https://dc.lft.to/lastmile_qr_scan", "ios": "https://dc.lft.to/lastmile_qr_scan"}, "type": "electric_scooter", "name": "3a06fce5edf30e94b9035f0088e6bf73"}, {"bike_id": "0b548c64f908ac9904ce11209cef07fc", "lat": 38.915022666666665, "is_disabled": 0, "lon": -77.03191533333333, "fusion_lon": 0.0, "is_reserved": 0, "fusion_lat": 0.0, "rental_uris": {"android": "https://dc.lft.to/lastmile_qr_scan", "ios": "https://dc.lft.to/lastmile_qr_scan"}, "type": "electric_scooter", "name": "0b548c64f908ac9904ce11209cef07fc"}, {"bike_id": "ba546ffed4b234855b3e4d5e56bd8506", "lat": 38.90239233333333, "is_disabled": 0, "lon": -77.00194833333333, "fusion_lon": 0.0, "is_reserved": 0, "fusion_lat": 0.0, "rental_uris": {"android": "https://dc.lft.to/lastmile_qr_scan", "ios": "https://dc.lft.to/lastmile_qr_scan"}, "type": "electric_scooter", "name": "ba546ffed4b234855b3e4d5e56bd8506"}, {"bike_id": "0ed8dad89a50aa76e01c5399591fdfe3", "lat": 38.91567933333333, "is_disabled": 0, "lon": -77.0417475, "fusion_lon": 0.0, "is_reserved": 0, "fusion_lat": 0.0, "rental_uris": {"android": "https://dc.lft.to/lastmile_qr_scan", "ios": "https://dc.lft.to/lastmile_qr_scan"}, "type": "electric_scooter", "name": "0ed8dad89a50aa76e01c5399591fdfe3"}, {"bike_id": "c43dfdf1cabaf724099f660392cce762", "lat": 38.92453583333333, "is_disabled": 0, "lon": -77.029715, "fusion_lon": 0.0, "is_reserved": 0, "fusion_lat": 0.0, "rental_uris": {"android": "https://dc.lft.to/lastmile_qr_scan", "ios": "https://dc.lft.to/lastmile_qr_scan"}, "type": "electric_scooter", "name": "c43dfdf1cabaf724099f660392cce762"}, {"bike_id": "5d942d52b305df066371b4ddce61e14b", "lat": 38.9417875, "is_disabled": 0, "lon": -76.994358, "fusion_lon": 0.0, "is_reserved": 0, "fusion_lat": 0.0, "rental_uris": {"android": "https://dc.lft.to/lastmile_qr_scan", "ios": "https://dc.lft.to/lastmile_qr_scan"}, "type": "electric_scooter", "name": "5d942d52b305df066371b4ddce61e14b"}, {"bike_id": "dff833e8c4721fd429b28f7c11d63f54", "lat": 38.8948515, "is_disabled": 0, "lon": -77.023213, "fusion_lon": 0.0, "is_reserved": 0, "fusion_lat": 0.0, "rental_uris": {"android": "https://dc.lft.to/lastmile_qr_scan", "ios": "https://dc.lft.to/lastmile_qr_scan"}, "type": "electric_scooter", "name": "dff833e8c4721fd429b28f7c11d63f54"}, {"bike_id": "efb619e534c22a87f676ba75c95b59e5", "lat": 38.8628395, "is_disabled": 0, "lon": -76.992349, "fusion_lon": 0.0, "is_reserved": 0, "fusion_lat": 0.0, "rental_uris": {"android": "https://dc.lft.to/lastmile_qr_scan", "ios": "https://dc.lft.to/lastmile_qr_scan"}, "type": "electric_scooter", "name": "efb619e534c22a87f676ba75c95b59e5"}, {"bike_id": "de6b2ee0d9bd5ce7f2c3a1606f7c0f50", "lat": 38.90054083333333, "is_disabled": 0, "lon": -77.043371, "fusion_lon": 0.0, "is_reserved": 0, "fusion_lat": 0.0, "rental_uris": {"android": "https://dc.lft.to/lastmile_qr_scan", "ios": "https://dc.lft.to/lastmile_qr_scan"}, "type": "electric_scooter", "name": "de6b2ee0d9bd5ce7f2c3a1606f7c0f50"}, {"bike_id": "d19adca6bb2179736137ccb3fdabb7e3", "lat": 38.92335683333334, "is_disabled": 0, "lon": -77.02294216666667, "fusion_lon": 0.0, "is_reserved": 0, "fusion_lat": 0.0, "rental_uris": {"android": "https://dc.lft.to/lastmile_qr_scan", "ios": "https://dc.lft.to/lastmile_qr_scan"}, "type": "electric_scooter", "name": "d19adca6bb2179736137ccb3fdabb7e3"}, {"bike_id": "a5048b615b4db238c89f69c329facb82", "lat": 38.94890433333333, "is_disabled": 0, "lon": -77.01858433333334, "fusion_lon": 0.0, "is_reserved": 0, "fusion_lat": 0.0, "rental_uris": {"android": "https://dc.lft.to/lastmile_qr_scan", "ios": "https://dc.lft.to/lastmile_qr_scan"}, "type": "electric_scooter", "name": "a5048b615b4db238c89f69c329facb82"}, {"bike_id": "125c56144bb8ba2cd840c6c7f7ae1639", "lat": 38.898443666666665, "is_disabled": 0, "lon": -77.02869183333334, "fusion_lon": 0.0, "is_reserved": 0, "fusion_lat": 0.0, "rental_uris": {"android": "https://dc.lft.to/lastmile_qr_scan", "ios": "https://dc.lft.to/lastmile_qr_scan"}, "type": "electric_scooter", "name": "125c56144bb8ba2cd840c6c7f7ae1639"}, {"bike_id": "86215721bb7f7e351ec39c6987052cfe", "lat": 38.8761785, "is_disabled": 0, "lon": -77.00305166666666, "fusion_lon": 0.0, "is_reserved": 0, "fusion_lat": 0.0, "rental_uris": {"android": "https://dc.lft.to/lastmile_qr_scan", "ios": "https://dc.lft.to/lastmile_qr_scan"}, "type": "electric_scooter", "name": "86215721bb7f7e351ec39c6987052cfe"}, {"bike_id": "82fe6dcef88b28a936e1541c204385a3", "lat": 38.917843166666664, "is_disabled": 0, "lon": -77.023438, "fusion_lon": 0.0, "is_reserved": 0, "fusion_lat": 0.0, "rental_uris": {"android": "https://dc.lft.to/lastmile_qr_scan", "ios": "https://dc.lft.to/lastmile_qr_scan"}, "type": "electric_scooter", "name": "82fe6dcef88b28a936e1541c204385a3"}, {"bike_id": "9ee3fa6267c9db071d14d2e1b150f8d8", "lat": 38.92132016666667, "is_disabled": 0, "lon": -77.04216283333334, "fusion_lon": 0.0, "is_reserved": 0, "fusion_lat": 0.0, "rental_uris": {"android": "https://dc.lft.to/lastmile_qr_scan", "ios": "https://dc.lft.to/lastmile_qr_scan"}, "type": "electric_scooter", "name": "9ee3fa6267c9db071d14d2e1b150f8d8"}, {"bike_id": "aba5697e371fef7db97b5a8bce25a1bb", "lat": 38.927490166666665, "is_disabled": 0, "lon": -76.95553666666666, "fusion_lon": 0.0, "is_reserved": 0, "fusion_lat": 0.0, "rental_uris": {"android": "https://dc.lft.to/lastmile_qr_scan", "ios": "https://dc.lft.to/lastmile_qr_scan"}, "type": "electric_scooter", "name": "aba5697e371fef7db97b5a8bce25a1bb"}, {"bike_id": "fd8739a35c4ce0e036d4b586de115398", "lat": 38.90239716666667, "is_disabled": 0, "lon": -77.002009, "fusion_lon": 0.0, "is_reserved": 0, "fusion_lat": 0.0, "rental_uris": {"android": "https://dc.lft.to/lastmile_qr_scan", "ios": "https://dc.lft.to/lastmile_qr_scan"}, "type": "electric_scooter", "name": "fd8739a35c4ce0e036d4b586de115398"}, {"bike_id": "066ac701761ebce7cab4abfcb2c07763", "lat": 38.9238465, "is_disabled": 0, "lon": -77.03778383333334, "fusion_lon": 0.0, "is_reserved": 0, "fusion_lat": 0.0, "rental_uris": {"android": "https://dc.lft.to/lastmile_qr_scan", "ios": "https://dc.lft.to/lastmile_qr_scan"}, "type": "electric_scooter", "name": "066ac701761ebce7cab4abfcb2c07763"}, {"bike_id": "d7a5f68929fbfe4ffffde5a9d2b392aa", "lat": 38.90052883333333, "is_disabled": 0, "lon": -76.98826833333334, "fusion_lon": 0.0, "is_reserved": 0, "fusion_lat": 0.0, "rental_uris": {"android": "https://dc.lft.to/lastmile_qr_scan", "ios": "https://dc.lft.to/lastmile_qr_scan"}, "type": "electric_scooter", "name": "d7a5f68929fbfe4ffffde5a9d2b392aa"}, {"bike_id": "0fc84debd1c73bc4d44032c387540b5b", "lat": 38.92039416666667, "is_disabled": 0, "lon": -77.07154833333334, "fusion_lon": 0.0, "is_reserved": 0, "fusion_lat": 0.0, "rental_uris": {"android": "https://dc.lft.to/lastmile_qr_scan", "ios": "https://dc.lft.to/lastmile_qr_scan"}, "type": "electric_bike", "name": "0fc84debd1c73bc4d44032c387540b5b"}, {"bike_id": "b3ef20358fc5ea75d2669b31f803cf4e", "lat": 38.9070695, "is_disabled": 0, "lon": -77.03439516666667, "fusion_lon": 0.0, "is_reserved": 0, "fusion_lat": 0.0, "rental_uris": {"android": "https://dc.lft.to/lastmile_qr_scan", "ios": "https://dc.lft.to/lastmile_qr_scan"}, "type": "electric_scooter", "name": "b3ef20358fc5ea75d2669b31f803cf4e"}, {"bike_id": "d553049a6185ba4e799f959a0dd41904", "lat": 38.89735833333334, "is_disabled": 0, "lon": -77.05531066666667, "fusion_lon": 0.0, "is_reserved": 0, "fusion_lat": 0.0, "rental_uris": {"android": "https://dc.lft.to/lastmile_qr_scan", "ios": "https://dc.lft.to/lastmile_qr_scan"}, "type": "electric_scooter", "name": "d553049a6185ba4e799f959a0dd41904"}, {"bike_id": "429f950112bf9fc459588fa08afb49f1", "lat": 38.907379166666665, "is_disabled": 0, "lon": -77.0280865, "fusion_lon": 0.0, "is_reserved": 0, "fusion_lat": 0.0, "rental_uris": {"android": "https://dc.lft.to/lastmile_qr_scan", "ios": "https://dc.lft.to/lastmile_qr_scan"}, "type": "electric_scooter", "name": "429f950112bf9fc459588fa08afb49f1"}, {"bike_id": "be3f56d4b39e8547992900eddada3739", "lat": 38.87833633333334, "is_disabled": 0, "lon": -77.0003385, "fusion_lon": 0.0, "is_reserved": 0, "fusion_lat": 0.0, "rental_uris": {"android": "https://dc.lft.to/lastmile_qr_scan", "ios": "https://dc.lft.to/lastmile_qr_scan"}, "type": "electric_scooter", "name": "be3f56d4b39e8547992900eddada3739"}, {"bike_id": "7949b040f5e8b5d6660561f0c3557140", "lat": 38.932304333333335, "is_disabled": 0, "lon": -77.03863733333333, "fusion_lon": 0.0, "is_reserved": 0, "fusion_lat": 0.0, "rental_uris": {"android": "https://dc.lft.to/lastmile_qr_scan", "ios": "https://dc.lft.to/lastmile_qr_scan"}, "type": "electric_scooter", "name": "7949b040f5e8b5d6660561f0c3557140"}, {"bike_id": "19b04f8238e1bf1b37a1831cc32b1af0", "lat": 38.918166666666664, "is_disabled": 0, "lon": -77.0288465, "fusion_lon": 0.0, "is_reserved": 0, "fusion_lat": 0.0, "rental_uris": {"android": "https://dc.lft.to/lastmile_qr_scan", "ios": "https://dc.lft.to/lastmile_qr_scan"}, "type": "electric_scooter", "name": "19b04f8238e1bf1b37a1831cc32b1af0"}, {"bike_id": "d43bc9928177b884fe0f216edcc23af7", "lat": 38.9092105, "is_disabled": 0, "lon": -77.04407716666667, "fusion_lon": 0.0, "is_reserved": 0, "fusion_lat": 0.0, "rental_uris": {"android": "https://dc.lft.to/lastmile_qr_scan", "ios": "https://dc.lft.to/lastmile_qr_scan"}, "type": "electric_scooter", "name": "d43bc9928177b884fe0f216edcc23af7"}, {"bike_id": "2479c0deacf566fe88aa989bf705a6ce", "lat": 38.96130183333333, "is_disabled": 0, "lon": -77.00064266666666, "fusion_lon": 0.0, "is_reserved": 0, "fusion_lat": 0.0, "rental_uris": {"android": "https://dc.lft.to/lastmile_qr_scan", "ios": "https://dc.lft.to/lastmile_qr_scan"}, "type": "electric_scooter", "name": "2479c0deacf566fe88aa989bf705a6ce"}, {"bike_id": "0ef1e0a7c70c287cee42488f5476c90d", "lat": 38.87583033333333, "is_disabled": 0, "lon": -77.234107, "fusion_lon": 0.0, "is_reserved": 0, "fusion_lat": 0.0, "rental_uris": {"android": "https://dc.lft.to/lastmile_qr_scan", "ios": "https://dc.lft.to/lastmile_qr_scan"}, "type": "electric_bike", "name": "0ef1e0a7c70c287cee42488f5476c90d"}, {"bike_id": "fd39e89e0794057dc4426eefad6a9e1f", "lat": 38.920941666666664, "is_disabled": 0, "lon": -77.047047, "fusion_lon": 0.0, "is_reserved": 0, "fusion_lat": 0.0, "rental_uris": {"android": "https://dc.lft.to/lastmile_qr_scan", "ios": "https://dc.lft.to/lastmile_qr_scan"}, "type": "electric_scooter", "name": "fd39e89e0794057dc4426eefad6a9e1f"}, {"bike_id": "6cee8bf03fc1826b6dbcf706bc833e2c", "lat": 38.89504266666667, "is_disabled": 0, "lon": -76.93475666666667, "fusion_lon": 0.0, "is_reserved": 0, "fusion_lat": 0.0, "rental_uris": {"android": "https://dc.lft.to/lastmile_qr_scan", "ios": "https://dc.lft.to/lastmile_qr_scan"}, "type": "electric_scooter", "name": "6cee8bf03fc1826b6dbcf706bc833e2c"}, {"bike_id": "866b81dc3c3b55b85245bca702074143", "lat": 38.90350633333333, "is_disabled": 0, "lon": -77.034847, "fusion_lon": 0.0, "is_reserved": 0, "fusion_lat": 0.0, "rental_uris": {"android": "https://dc.lft.to/lastmile_qr_scan", "ios": "https://dc.lft.to/lastmile_qr_scan"}, "type": "electric_scooter", "name": "866b81dc3c3b55b85245bca702074143"}, {"bike_id": "a0a378606709cfbcd9dabfaa6f660400", "lat": 38.930507166666665, "is_disabled": 0, "lon": -77.0320905, "fusion_lon": 0.0, "is_reserved": 0, "fusion_lat": 0.0, "rental_uris": {"android": "https://dc.lft.to/lastmile_qr_scan", "ios": "https://dc.lft.to/lastmile_qr_scan"}, "type": "electric_scooter", "name": "a0a378606709cfbcd9dabfaa6f660400"}, {"bike_id": "201699773377ab1662d3923adb3b4025", "lat": 38.897288, "is_disabled": 0, "lon": -77.03014716666667, "fusion_lon": 0.0, "is_reserved": 0, "fusion_lat": 0.0, "rental_uris": {"android": "https://dc.lft.to/lastmile_qr_scan", "ios": "https://dc.lft.to/lastmile_qr_scan"}, "type": "electric_scooter", "name": "201699773377ab1662d3923adb3b4025"}, {"bike_id": "56734c396a22651ec2d6142914153ea4", "lat": 38.90567433333333, "is_disabled": 0, "lon": -77.0077855, "fusion_lon": 0.0, "is_reserved": 0, "fusion_lat": 0.0, "rental_uris": {"android": "https://dc.lft.to/lastmile_qr_scan", "ios": "https://dc.lft.to/lastmile_qr_scan"}, "type": "electric_scooter", "name": "56734c396a22651ec2d6142914153ea4"}, {"bike_id": "7ce201269a34374833234aec0ab11435", "lat": 38.88550033333333, "is_disabled": 0, "lon": -77.15647833333334, "fusion_lon": 0.0, "is_reserved": 0, "fusion_lat": 0.0, "rental_uris": {"android": "https://dc.lft.to/lastmile_qr_scan", "ios": "https://dc.lft.to/lastmile_qr_scan"}, "type": "electric_bike", "name": "7ce201269a34374833234aec0ab11435"}, {"bike_id": "22aef03da49bdd7cbaa961256fcfa51c", "lat": 38.90035316666667, "is_disabled": 0, "lon": -76.98959866666667, "fusion_lon": 0.0, "is_reserved": 0, "fusion_lat": 0.0, "rental_uris": {"android": "https://dc.lft.to/lastmile_qr_scan", "ios": "https://dc.lft.to/lastmile_qr_scan"}, "type": "electric_scooter", "name": "22aef03da49bdd7cbaa961256fcfa51c"}, {"bike_id": "4f6adae4483769fcc23c105f6d9454bd", "lat": 38.90018583333333, "is_disabled": 0, "lon": -76.98276666666666, "fusion_lon": 0.0, "is_reserved": 0, "fusion_lat": 0.0, "rental_uris": {"android": "https://dc.lft.to/lastmile_qr_scan", "ios": "https://dc.lft.to/lastmile_qr_scan"}, "type": "electric_scooter", "name": "4f6adae4483769fcc23c105f6d9454bd"}, {"bike_id": "58f25d0d5df9ce2b2c1eeb8b342782a8", "lat": 38.8978415, "is_disabled": 0, "lon": -77.013545, "fusion_lon": 0.0, "is_reserved": 0, "fusion_lat": 0.0, "rental_uris": {"android": "https://dc.lft.to/lastmile_qr_scan", "ios": "https://dc.lft.to/lastmile_qr_scan"}, "type": "electric_bike", "name": "58f25d0d5df9ce2b2c1eeb8b342782a8"}, {"bike_id": "b3251814c07210ecad5fda6c2c8c55ec", "lat": 38.920729, "is_disabled": 0, "lon": -76.997439, "fusion_lon": 0.0, "is_reserved": 0, "fusion_lat": 0.0, "rental_uris": {"android": "https://dc.lft.to/lastmile_qr_scan", "ios": "https://dc.lft.to/lastmile_qr_scan"}, "type": "electric_scooter", "name": "b3251814c07210ecad5fda6c2c8c55ec"}, {"bike_id": "0417819482b60351fe29d8be76213209", "lat": 38.89237833333333, "is_disabled": 0, "lon": -77.0467495, "fusion_lon": 0.0, "is_reserved": 0, "fusion_lat": 0.0, "rental_uris": {"android": "https://dc.lft.to/lastmile_qr_scan", "ios": "https://dc.lft.to/lastmile_qr_scan"}, "type": "electric_scooter", "name": "0417819482b60351fe29d8be76213209"}, {"bike_id": "58142afc6e6b5fa3b5e8c08199db875d", "lat": 38.87925833333333, "is_disabled": 0, "lon": -77.00533233333333, "fusion_lon": 0.0, "is_reserved": 0, "fusion_lat": 0.0, "rental_uris": {"android": "https://dc.lft.to/lastmile_qr_scan", "ios": "https://dc.lft.to/lastmile_qr_scan"}, "type": "electric_scooter", "name": "58142afc6e6b5fa3b5e8c08199db875d"}, {"bike_id": "47fce4aee893670002facad36b764702", "lat": 38.9169205, "is_disabled": 0, "lon": -77.02958, "fusion_lon": 0.0, "is_reserved": 0, "fusion_lat": 0.0, "rental_uris": {"android": "https://dc.lft.to/lastmile_qr_scan", "ios": "https://dc.lft.to/lastmile_qr_scan"}, "type": "electric_scooter", "name": "47fce4aee893670002facad36b764702"}, {"bike_id": "dec2b259531b56072810b9985051631b", "lat": 38.91727566666667, "is_disabled": 0, "lon": -77.04177683333333, "fusion_lon": 0.0, "is_reserved": 0, "fusion_lat": 0.0, "rental_uris": {"android": "https://dc.lft.to/lastmile_qr_scan", "ios": "https://dc.lft.to/lastmile_qr_scan"}, "type": "electric_scooter", "name": "dec2b259531b56072810b9985051631b"}, {"bike_id": "87616f4f090eb8e44b66ff0191c93238", "lat": 38.923294166666665, "is_disabled": 0, "lon": -77.01956433333334, "fusion_lon": 0.0, "is_reserved": 0, "fusion_lat": 0.0, "rental_uris": {"android": "https://dc.lft.to/lastmile_qr_scan", "ios": "https://dc.lft.to/lastmile_qr_scan"}, "type": "electric_scooter", "name": "87616f4f090eb8e44b66ff0191c93238"}, {"bike_id": "945d8b46145a42922a64cf18999c610b", "lat": 38.906819166666665, "is_disabled": 0, "lon": -77.0460135, "fusion_lon": 0.0, "is_reserved": 0, "fusion_lat": 0.0, "rental_uris": {"android": "https://dc.lft.to/lastmile_qr_scan", "ios": "https://dc.lft.to/lastmile_qr_scan"}, "type": "electric_scooter", "name": "945d8b46145a42922a64cf18999c610b"}, {"bike_id": "2c5fc3e13f111babacf09eaa18d2838b", "lat": 38.886603666666666, "is_disabled": 0, "lon": -77.1624005, "fusion_lon": 0.0, "is_reserved": 0, "fusion_lat": 0.0, "rental_uris": {"android": "https://dc.lft.to/lastmile_qr_scan", "ios": "https://dc.lft.to/lastmile_qr_scan"}, "type": "electric_bike", "name": "2c5fc3e13f111babacf09eaa18d2838b"}, {"bike_id": "effc4cb652c1a9be7d4dd9e5583bc173", "lat": 38.912809333333335, "is_disabled": 0, "lon": -77.038613, "fusion_lon": 0.0, "is_reserved": 0, "fusion_lat": 0.0, "rental_uris": {"android": "https://dc.lft.to/lastmile_qr_scan", "ios": "https://dc.lft.to/lastmile_qr_scan"}, "type": "electric_scooter", "name": "effc4cb652c1a9be7d4dd9e5583bc173"}, {"bike_id": "d085eb56c627e416e0ee5ea8a46ea06d", "lat": 38.8851555, "is_disabled": 0, "lon": -77.005881, "fusion_lon": 0.0, "is_reserved": 0, "fusion_lat": 0.0, "rental_uris": {"android": "https://dc.lft.to/lastmile_qr_scan", "ios": "https://dc.lft.to/lastmile_qr_scan"}, "type": "electric_scooter", "name": "d085eb56c627e416e0ee5ea8a46ea06d"}, {"bike_id": "c9c7b79f95704a584e740a04b311682d", "lat": 38.9207615, "is_disabled": 0, "lon": -77.024955, "fusion_lon": 0.0, "is_reserved": 0, "fusion_lat": 0.0, "rental_uris": {"android": "https://dc.lft.to/lastmile_qr_scan", "ios": "https://dc.lft.to/lastmile_qr_scan"}, "type": "electric_scooter", "name": "c9c7b79f95704a584e740a04b311682d"}, {"bike_id": "4bc4ddcb421a7d56e5bdda797abfb77f", "lat": 38.938486166666664, "is_disabled": 0, "lon": -77.03394566666667, "fusion_lon": 0.0, "is_reserved": 0, "fusion_lat": 0.0, "rental_uris": {"android": "https://dc.lft.to/lastmile_qr_scan", "ios": "https://dc.lft.to/lastmile_qr_scan"}, "type": "electric_scooter", "name": "4bc4ddcb421a7d56e5bdda797abfb77f"}, {"bike_id": "a18ffe6fd9018f4859de63de7b4d375a", "lat": 38.9076615, "is_disabled": 0, "lon": -77.00926916666667, "fusion_lon": 0.0, "is_reserved": 0, "fusion_lat": 0.0, "rental_uris": {"android": "https://dc.lft.to/lastmile_qr_scan", "ios": "https://dc.lft.to/lastmile_qr_scan"}, "type": "electric_scooter", "name": "a18ffe6fd9018f4859de63de7b4d375a"}, {"bike_id": "49b501848a42072b1e41e8d74f58625e", "lat": 38.90008183333333, "is_disabled": 0, "lon": -76.9828455, "fusion_lon": 0.0, "is_reserved": 0, "fusion_lat": 0.0, "rental_uris": {"android": "https://dc.lft.to/lastmile_qr_scan", "ios": "https://dc.lft.to/lastmile_qr_scan"}, "type": "electric_scooter", "name": "49b501848a42072b1e41e8d74f58625e"}, {"bike_id": "3c37010c9adbaa9f5d4f88b34d223ebd", "lat": 38.885186166666664, "is_disabled": 0, "lon": -77.02819466666666, "fusion_lon": 0.0, "is_reserved": 0, "fusion_lat": 0.0, "rental_uris": {"android": "https://dc.lft.to/lastmile_qr_scan", "ios": "https://dc.lft.to/lastmile_qr_scan"}, "type": "electric_scooter", "name": "3c37010c9adbaa9f5d4f88b34d223ebd"}, {"bike_id": "7f919c65a003d71ba60d3406e9056eda", "lat": 38.89942583333333, "is_disabled": 0, "lon": -77.04161166666667, "fusion_lon": 0.0, "is_reserved": 0, "fusion_lat": 0.0, "rental_uris": {"android": "https://dc.lft.to/lastmile_qr_scan", "ios": "https://dc.lft.to/lastmile_qr_scan"}, "type": "electric_scooter", "name": "7f919c65a003d71ba60d3406e9056eda"}, {"bike_id": "5fbbab30684a6182a3a01b2bdd47d1c8", "lat": 38.9248285, "is_disabled": 0, "lon": -77.03911583333333, "fusion_lon": 0.0, "is_reserved": 0, "fusion_lat": 0.0, "rental_uris": {"android": "https://dc.lft.to/lastmile_qr_scan", "ios": "https://dc.lft.to/lastmile_qr_scan"}, "type": "electric_scooter", "name": "5fbbab30684a6182a3a01b2bdd47d1c8"}, {"bike_id": "42e759280b2b1d08210f0833f3762b5c", "lat": 38.92846, "is_disabled": 0, "lon": -77.03283533333334, "fusion_lon": 0.0, "is_reserved": 0, "fusion_lat": 0.0, "rental_uris": {"android": "https://dc.lft.to/lastmile_qr_scan", "ios": "https://dc.lft.to/lastmile_qr_scan"}, "type": "electric_scooter", "name": "42e759280b2b1d08210f0833f3762b5c"}, {"bike_id": "c925d87ec30cdafab1317790795be59e", "lat": 38.96612616666667, "is_disabled": 0, "lon": -77.02745466666667, "fusion_lon": 0.0, "is_reserved": 0, "fusion_lat": 0.0, "rental_uris": {"android": "https://dc.lft.to/lastmile_qr_scan", "ios": "https://dc.lft.to/lastmile_qr_scan"}, "type": "electric_scooter", "name": "c925d87ec30cdafab1317790795be59e"}, {"bike_id": "ed59210d3da8b7cded7ef7627eb0cd53", "lat": 38.90569433333334, "is_disabled": 0, "lon": -77.026541, "fusion_lon": 0.0, "is_reserved": 0, "fusion_lat": 0.0, "rental_uris": {"android": "https://dc.lft.to/lastmile_qr_scan", "ios": "https://dc.lft.to/lastmile_qr_scan"}, "type": "electric_scooter", "name": "ed59210d3da8b7cded7ef7627eb0cd53"}, {"bike_id": "6d05a27ddea5d727cf8efd9b7ff40654", "lat": 38.83790666666667, "is_disabled": 0, "lon": -77.004533, "fusion_lon": 0.0, "is_reserved": 0, "fusion_lat": 0.0, "rental_uris": {"android": "https://dc.lft.to/lastmile_qr_scan", "ios": "https://dc.lft.to/lastmile_qr_scan"}, "type": "electric_scooter", "name": "6d05a27ddea5d727cf8efd9b7ff40654"}, {"bike_id": "3d9712b532a35a97660246625e1b7ed0", "lat": 38.87726883333333, "is_disabled": 0, "lon": -77.0175845, "fusion_lon": 0.0, "is_reserved": 0, "fusion_lat": 0.0, "rental_uris": {"android": "https://dc.lft.to/lastmile_qr_scan", "ios": "https://dc.lft.to/lastmile_qr_scan"}, "type": "electric_scooter", "name": "3d9712b532a35a97660246625e1b7ed0"}, {"bike_id": "2609d73411ba6a09ba31ae935fb28e50", "lat": 38.892209333333334, "is_disabled": 0, "lon": -77.0436905, "fusion_lon": 0.0, "is_reserved": 0, "fusion_lat": 0.0, "rental_uris": {"android": "https://dc.lft.to/lastmile_qr_scan", "ios": "https://dc.lft.to/lastmile_qr_scan"}, "type": "electric_scooter", "name": "2609d73411ba6a09ba31ae935fb28e50"}, {"bike_id": "81ad64187e1c9057ceeeda9f038326bd", "lat": 38.92346216666667, "is_disabled": 0, "lon": -77.00017816666667, "fusion_lon": 0.0, "is_reserved": 0, "fusion_lat": 0.0, "rental_uris": {"android": "https://dc.lft.to/lastmile_qr_scan", "ios": "https://dc.lft.to/lastmile_qr_scan"}, "type": "electric_bike", "name": "81ad64187e1c9057ceeeda9f038326bd"}, {"bike_id": "4472685966ba69dec435cc1a4ac09849", "lat": 38.90058783333333, "is_disabled": 0, "lon": -77.02391616666667, "fusion_lon": 0.0, "is_reserved": 0, "fusion_lat": 0.0, "rental_uris": {"android": "https://dc.lft.to/lastmile_qr_scan", "ios": "https://dc.lft.to/lastmile_qr_scan"}, "type": "electric_scooter", "name": "4472685966ba69dec435cc1a4ac09849"}, {"bike_id": "0cf4b2b6462823174902c8c9fb8acbbb", "lat": 38.86236016666667, "is_disabled": 0, "lon": -76.995949, "fusion_lon": 0.0, "is_reserved": 0, "fusion_lat": 0.0, "rental_uris": {"android": "https://dc.lft.to/lastmile_qr_scan", "ios": "https://dc.lft.to/lastmile_qr_scan"}, "type": "electric_bike", "name": "0cf4b2b6462823174902c8c9fb8acbbb"}, {"bike_id": "062d77a817312f2b36be81ff7520529b", "lat": 38.8767325, "is_disabled": 0, "lon": -77.00936333333334, "fusion_lon": 0.0, "is_reserved": 0, "fusion_lat": 0.0, "rental_uris": {"android": "https://dc.lft.to/lastmile_qr_scan", "ios": "https://dc.lft.to/lastmile_qr_scan"}, "type": "electric_scooter", "name": "062d77a817312f2b36be81ff7520529b"}, {"bike_id": "cdedd92b802a585f4597e09e0e69a5da", "lat": 38.919811, "is_disabled": 0, "lon": -77.02510866666667, "fusion_lon": 0.0, "is_reserved": 0, "fusion_lat": 0.0, "rental_uris": {"android": "https://dc.lft.to/lastmile_qr_scan", "ios": "https://dc.lft.to/lastmile_qr_scan"}, "type": "electric_scooter", "name": "cdedd92b802a585f4597e09e0e69a5da"}, {"bike_id": "584943bc4fc92ab973fed87fd2e1ea86", "lat": 38.91761366666667, "is_disabled": 0, "lon": -77.023426, "fusion_lon": 0.0, "is_reserved": 0, "fusion_lat": 0.0, "rental_uris": {"android": "https://dc.lft.to/lastmile_qr_scan", "ios": "https://dc.lft.to/lastmile_qr_scan"}, "type": "electric_scooter", "name": "584943bc4fc92ab973fed87fd2e1ea86"}, {"bike_id": "7ac7993f36207657e59ef4a7f339862b", "lat": 38.88558333333334, "is_disabled": 0, "lon": -76.9980125, "fusion_lon": 0.0, "is_reserved": 0, "fusion_lat": 0.0, "rental_uris": {"android": "https://dc.lft.to/lastmile_qr_scan", "ios": "https://dc.lft.to/lastmile_qr_scan"}, "type": "electric_scooter", "name": "7ac7993f36207657e59ef4a7f339862b"}, {"bike_id": "f0e66cef12f8f45e171bd82404540fa9", "lat": 38.8626565, "is_disabled": 0, "lon": -76.983488, "fusion_lon": 0.0, "is_reserved": 0, "fusion_lat": 0.0, "rental_uris": {"android": "https://dc.lft.to/lastmile_qr_scan", "ios": "https://dc.lft.to/lastmile_qr_scan"}, "type": "electric_bike", "name": "f0e66cef12f8f45e171bd82404540fa9"}, {"bike_id": "4297bd61cb0204c6abb7bb87c7eff7bb", "lat": 38.92246633333333, "is_disabled": 0, "lon": -77.0729885, "fusion_lon": 0.0, "is_reserved": 0, "fusion_lat": 0.0, "rental_uris": {"android": "https://dc.lft.to/lastmile_qr_scan", "ios": "https://dc.lft.to/lastmile_qr_scan"}, "type": "electric_scooter", "name": "4297bd61cb0204c6abb7bb87c7eff7bb"}, {"bike_id": "dfc8d80fdbe9dd8e2e51471a621a92b2", "lat": 38.9056435, "is_disabled": 0, "lon": -77.04600233333333, "fusion_lon": 0.0, "is_reserved": 0, "fusion_lat": 0.0, "rental_uris": {"android": "https://dc.lft.to/lastmile_qr_scan", "ios": "https://dc.lft.to/lastmile_qr_scan"}, "type": "electric_scooter", "name": "dfc8d80fdbe9dd8e2e51471a621a92b2"}, {"bike_id": "22d424d022b293b9d26114eeef0a4114", "lat": 38.897349, "is_disabled": 0, "lon": -77.03973716666667, "fusion_lon": 0.0, "is_reserved": 0, "fusion_lat": 0.0, "rental_uris": {"android": "https://dc.lft.to/lastmile_qr_scan", "ios": "https://dc.lft.to/lastmile_qr_scan"}, "type": "electric_scooter", "name": "22d424d022b293b9d26114eeef0a4114"}, {"bike_id": "3e4ecee2fed80937abb1d5e7fcfdace3", "lat": 38.9202845, "is_disabled": 0, "lon": -77.02973733333333, "fusion_lon": 0.0, "is_reserved": 0, "fusion_lat": 0.0, "rental_uris": {"android": "https://dc.lft.to/lastmile_qr_scan", "ios": "https://dc.lft.to/lastmile_qr_scan"}, "type": "electric_scooter", "name": "3e4ecee2fed80937abb1d5e7fcfdace3"}, {"bike_id": "3fd6deb28166b7000d755d79b08e61e6", "lat": 38.922534166666665, "is_disabled": 0, "lon": -77.020545, "fusion_lon": 0.0, "is_reserved": 0, "fusion_lat": 0.0, "rental_uris": {"android": "https://dc.lft.to/lastmile_qr_scan", "ios": "https://dc.lft.to/lastmile_qr_scan"}, "type": "electric_scooter", "name": "3fd6deb28166b7000d755d79b08e61e6"}, {"bike_id": "9701eaba87a3a786e97c641c64405e18", "lat": 38.9170955, "is_disabled": 0, "lon": -77.033426, "fusion_lon": 0.0, "is_reserved": 0, "fusion_lat": 0.0, "rental_uris": {"android": "https://dc.lft.to/lastmile_qr_scan", "ios": "https://dc.lft.to/lastmile_qr_scan"}, "type": "electric_scooter", "name": "9701eaba87a3a786e97c641c64405e18"}, {"bike_id": "a4e2961e9df8f56f271232471e23008a", "lat": 38.877839333333334, "is_disabled": 0, "lon": -76.99408933333333, "fusion_lon": 0.0, "is_reserved": 0, "fusion_lat": 0.0, "rental_uris": {"android": "https://dc.lft.to/lastmile_qr_scan", "ios": "https://dc.lft.to/lastmile_qr_scan"}, "type": "electric_scooter", "name": "a4e2961e9df8f56f271232471e23008a"}, {"bike_id": "4b76d4bb94763e2dae45ce5f5181d770", "lat": 38.927706666666666, "is_disabled": 0, "lon": -77.040614, "fusion_lon": 0.0, "is_reserved": 0, "fusion_lat": 0.0, "rental_uris": {"android": "https://dc.lft.to/lastmile_qr_scan", "ios": "https://dc.lft.to/lastmile_qr_scan"}, "type": "electric_scooter", "name": "4b76d4bb94763e2dae45ce5f5181d770"}, {"bike_id": "2b4a3ce5910005f691d1e18445fe08cd", "lat": 38.88779516666666, "is_disabled": 0, "lon": -77.033228, "fusion_lon": 0.0, "is_reserved": 0, "fusion_lat": 0.0, "rental_uris": {"android": "https://dc.lft.to/lastmile_qr_scan", "ios": "https://dc.lft.to/lastmile_qr_scan"}, "type": "electric_scooter", "name": "2b4a3ce5910005f691d1e18445fe08cd"}, {"bike_id": "ccb66412d7a0a43e197a4cd431a878f6", "lat": 38.892227, "is_disabled": 0, "lon": -77.04198516666666, "fusion_lon": 0.0, "is_reserved": 0, "fusion_lat": 0.0, "rental_uris": {"android": "https://dc.lft.to/lastmile_qr_scan", "ios": "https://dc.lft.to/lastmile_qr_scan"}, "type": "electric_scooter", "name": "ccb66412d7a0a43e197a4cd431a878f6"}, {"bike_id": "3aa4c9d4522ff83f1022570bef14729e", "lat": 38.881808666666664, "is_disabled": 0, "lon": -76.99260116666666, "fusion_lon": 0.0, "is_reserved": 0, "fusion_lat": 0.0, "rental_uris": {"android": "https://dc.lft.to/lastmile_qr_scan", "ios": "https://dc.lft.to/lastmile_qr_scan"}, "type": "electric_scooter", "name": "3aa4c9d4522ff83f1022570bef14729e"}, {"bike_id": "7aeae3f1acc343c58b30c27bfc97dcb4", "lat": 38.898490333333335, "is_disabled": 0, "lon": -77.00738, "fusion_lon": 0.0, "is_reserved": 0, "fusion_lat": 0.0, "rental_uris": {"android": "https://dc.lft.to/lastmile_qr_scan", "ios": "https://dc.lft.to/lastmile_qr_scan"}, "type": "electric_scooter", "name": "7aeae3f1acc343c58b30c27bfc97dcb4"}, {"bike_id": "532d55499051d5949728a8f5e4c4e272", "lat": 38.9357395, "is_disabled": 0, "lon": -76.99304816666667, "fusion_lon": 0.0, "is_reserved": 0, "fusion_lat": 0.0, "rental_uris": {"android": "https://dc.lft.to/lastmile_qr_scan", "ios": "https://dc.lft.to/lastmile_qr_scan"}, "type": "electric_scooter", "name": "532d55499051d5949728a8f5e4c4e272"}, {"bike_id": "b4681f1110b5a910805a70716e8657bb", "lat": 38.90796816666667, "is_disabled": 0, "lon": -77.0394755, "fusion_lon": 0.0, "is_reserved": 0, "fusion_lat": 0.0, "rental_uris": {"android": "https://dc.lft.to/lastmile_qr_scan", "ios": "https://dc.lft.to/lastmile_qr_scan"}, "type": "electric_scooter", "name": "b4681f1110b5a910805a70716e8657bb"}, {"bike_id": "c5548238fb213a92b18030c4347f3044", "lat": 38.894883, "is_disabled": 0, "lon": -77.0029315, "fusion_lon": 0.0, "is_reserved": 0, "fusion_lat": 0.0, "rental_uris": {"android": "https://dc.lft.to/lastmile_qr_scan", "ios": "https://dc.lft.to/lastmile_qr_scan"}, "type": "electric_scooter", "name": "c5548238fb213a92b18030c4347f3044"}, {"bike_id": "2093d37173f37600e3e1b61acf2dd7ec", "lat": 38.923464, "is_disabled": 0, "lon": -77.03531966666667, "fusion_lon": 0.0, "is_reserved": 0, "fusion_lat": 0.0, "rental_uris": {"android": "https://dc.lft.to/lastmile_qr_scan", "ios": "https://dc.lft.to/lastmile_qr_scan"}, "type": "electric_scooter", "name": "2093d37173f37600e3e1b61acf2dd7ec"}, {"bike_id": "c53d4c6b4ae047bf00cf819088762c5f", "lat": 38.895329833333335, "is_disabled": 0, "lon": -77.04649933333333, "fusion_lon": 0.0, "is_reserved": 0, "fusion_lat": 0.0, "rental_uris": {"android": "https://dc.lft.to/lastmile_qr_scan", "ios": "https://dc.lft.to/lastmile_qr_scan"}, "type": "electric_scooter", "name": "c53d4c6b4ae047bf00cf819088762c5f"}, {"bike_id": "223a1e6f3f0670fe0be3e8cc83cbe490", "lat": 38.924729666666664, "is_disabled": 0, "lon": -77.022188, "fusion_lon": 0.0, "is_reserved": 0, "fusion_lat": 0.0, "rental_uris": {"android": "https://dc.lft.to/lastmile_qr_scan", "ios": "https://dc.lft.to/lastmile_qr_scan"}, "type": "electric_scooter", "name": "223a1e6f3f0670fe0be3e8cc83cbe490"}, {"bike_id": "6b85f8e27e50520305ae4704c2a34a4e", "lat": 38.914213333333336, "is_disabled": 0, "lon": -77.044951, "fusion_lon": 0.0, "is_reserved": 0, "fusion_lat": 0.0, "rental_uris": {"android": "https://dc.lft.to/lastmile_qr_scan", "ios": "https://dc.lft.to/lastmile_qr_scan"}, "type": "electric_scooter", "name": "6b85f8e27e50520305ae4704c2a34a4e"}, {"bike_id": "459e53b2acb34fc09f74d2a9dc4a6f3d", "lat": 38.9126405, "is_disabled": 0, "lon": -77.02253533333334, "fusion_lon": 0.0, "is_reserved": 0, "fusion_lat": 0.0, "rental_uris": {"android": "https://dc.lft.to/lastmile_qr_scan", "ios": "https://dc.lft.to/lastmile_qr_scan"}, "type": "electric_scooter", "name": "459e53b2acb34fc09f74d2a9dc4a6f3d"}, {"bike_id": "f7e4f1ca17fc78b656d548ad41cc4196", "lat": 38.9056545, "is_disabled": 0, "lon": -77.0179225, "fusion_lon": 0.0, "is_reserved": 0, "fusion_lat": 0.0, "rental_uris": {"android": "https://dc.lft.to/lastmile_qr_scan", "ios": "https://dc.lft.to/lastmile_qr_scan"}, "type": "electric_scooter", "name": "f7e4f1ca17fc78b656d548ad41cc4196"}, {"bike_id": "80901c87cdfe628138726ba33dc29b7a", "lat": 38.911164, "is_disabled": 0, "lon": -77.045435, "fusion_lon": 0.0, "is_reserved": 0, "fusion_lat": 0.0, "rental_uris": {"android": "https://dc.lft.to/lastmile_qr_scan", "ios": "https://dc.lft.to/lastmile_qr_scan"}, "type": "electric_scooter", "name": "80901c87cdfe628138726ba33dc29b7a"}, {"bike_id": "1d26e84852af9f523e1004070ffc600f", "lat": 38.89841933333334, "is_disabled": 0, "lon": -76.94252783333333, "fusion_lon": 0.0, "is_reserved": 0, "fusion_lat": 0.0, "rental_uris": {"android": "https://dc.lft.to/lastmile_qr_scan", "ios": "https://dc.lft.to/lastmile_qr_scan"}, "type": "electric_scooter", "name": "1d26e84852af9f523e1004070ffc600f"}, {"bike_id": "25869aa7c24e381450b484048b1f8c45", "lat": 38.92137066666667, "is_disabled": 0, "lon": -77.0180095, "fusion_lon": 0.0, "is_reserved": 0, "fusion_lat": 0.0, "rental_uris": {"android": "https://dc.lft.to/lastmile_qr_scan", "ios": "https://dc.lft.to/lastmile_qr_scan"}, "type": "electric_scooter", "name": "25869aa7c24e381450b484048b1f8c45"}, {"bike_id": "1594bba77a5052581db093c52d84e9a9", "lat": 38.904131666666665, "is_disabled": 0, "lon": -76.97329866666666, "fusion_lon": 0.0, "is_reserved": 0, "fusion_lat": 0.0, "rental_uris": {"android": "https://dc.lft.to/lastmile_qr_scan", "ios": "https://dc.lft.to/lastmile_qr_scan"}, "type": "electric_scooter", "name": "1594bba77a5052581db093c52d84e9a9"}, {"bike_id": "04d594158f091d390ee355e4a74615e4", "lat": 38.90840516666667, "is_disabled": 0, "lon": -77.03190566666666, "fusion_lon": 0.0, "is_reserved": 0, "fusion_lat": 0.0, "rental_uris": {"android": "https://dc.lft.to/lastmile_qr_scan", "ios": "https://dc.lft.to/lastmile_qr_scan"}, "type": "electric_scooter", "name": "04d594158f091d390ee355e4a74615e4"}, {"bike_id": "f71c393c848646e841d6de68b257d1ed", "lat": 38.927522, "is_disabled": 0, "lon": -77.0253705, "fusion_lon": 0.0, "is_reserved": 0, "fusion_lat": 0.0, "rental_uris": {"android": "https://dc.lft.to/lastmile_qr_scan", "ios": "https://dc.lft.to/lastmile_qr_scan"}, "type": "electric_scooter", "name": "f71c393c848646e841d6de68b257d1ed"}, {"bike_id": "53fc907c20fe3cf7067b9de048e77fa2", "lat": 38.861258166666666, "is_disabled": 0, "lon": -76.98378833333334, "fusion_lon": 0.0, "is_reserved": 0, "fusion_lat": 0.0, "rental_uris": {"android": "https://dc.lft.to/lastmile_qr_scan", "ios": "https://dc.lft.to/lastmile_qr_scan"}, "type": "electric_scooter", "name": "53fc907c20fe3cf7067b9de048e77fa2"}, {"bike_id": "f531cda3938b095ddab10d77ed743945", "lat": 38.909184333333336, "is_disabled": 0, "lon": -77.07273333333333, "fusion_lon": 0.0, "is_reserved": 0, "fusion_lat": 0.0, "rental_uris": {"android": "https://dc.lft.to/lastmile_qr_scan", "ios": "https://dc.lft.to/lastmile_qr_scan"}, "type": "electric_scooter", "name": "f531cda3938b095ddab10d77ed743945"}, {"bike_id": "675d95642d53703a26a3cff77d2dc2c6", "lat": 38.91925616666666, "is_disabled": 0, "lon": -77.013618, "fusion_lon": 0.0, "is_reserved": 0, "fusion_lat": 0.0, "rental_uris": {"android": "https://dc.lft.to/lastmile_qr_scan", "ios": "https://dc.lft.to/lastmile_qr_scan"}, "type": "electric_scooter", "name": "675d95642d53703a26a3cff77d2dc2c6"}, {"bike_id": "5a6c8cfbb330feec49b09321cc40df6b", "lat": 38.8984615, "is_disabled": 0, "lon": -77.03313916666667, "fusion_lon": 0.0, "is_reserved": 0, "fusion_lat": 0.0, "rental_uris": {"android": "https://dc.lft.to/lastmile_qr_scan", "ios": "https://dc.lft.to/lastmile_qr_scan"}, "type": "electric_scooter", "name": "5a6c8cfbb330feec49b09321cc40df6b"}, {"bike_id": "1c0d9c7c86c2715e4293645a7a3262cd", "lat": 38.901242833333335, "is_disabled": 0, "lon": -77.04410166666666, "fusion_lon": 0.0, "is_reserved": 0, "fusion_lat": 0.0, "rental_uris": {"android": "https://dc.lft.to/lastmile_qr_scan", "ios": "https://dc.lft.to/lastmile_qr_scan"}, "type": "electric_scooter", "name": "1c0d9c7c86c2715e4293645a7a3262cd"}, {"bike_id": "bb37de0c05bfdb0057a6fba29df87db1", "lat": 38.90965033333333, "is_disabled": 0, "lon": -77.03415066666666, "fusion_lon": 0.0, "is_reserved": 0, "fusion_lat": 0.0, "rental_uris": {"android": "https://dc.lft.to/lastmile_qr_scan", "ios": "https://dc.lft.to/lastmile_qr_scan"}, "type": "electric_scooter", "name": "bb37de0c05bfdb0057a6fba29df87db1"}, {"bike_id": "fcbd1ee7afc0f3fa51552dc79149d4d0", "lat": 38.92486383333333, "is_disabled": 0, "lon": -77.030461, "fusion_lon": 0.0, "is_reserved": 0, "fusion_lat": 0.0, "rental_uris": {"android": "https://dc.lft.to/lastmile_qr_scan", "ios": "https://dc.lft.to/lastmile_qr_scan"}, "type": "electric_scooter", "name": "fcbd1ee7afc0f3fa51552dc79149d4d0"}, {"bike_id": "c79425d7d65b3b31770e3fbb33d95574", "lat": 38.92002166666666, "is_disabled": 0, "lon": -77.03220483333334, "fusion_lon": 0.0, "is_reserved": 0, "fusion_lat": 0.0, "rental_uris": {"android": "https://dc.lft.to/lastmile_qr_scan", "ios": "https://dc.lft.to/lastmile_qr_scan"}, "type": "electric_scooter", "name": "c79425d7d65b3b31770e3fbb33d95574"}, {"bike_id": "d6c865f4c825dd09f65dacbe9dfb2224", "lat": 38.91746233333333, "is_disabled": 0, "lon": -77.02821383333334, "fusion_lon": 0.0, "is_reserved": 0, "fusion_lat": 0.0, "rental_uris": {"android": "https://dc.lft.to/lastmile_qr_scan", "ios": "https://dc.lft.to/lastmile_qr_scan"}, "type": "electric_scooter", "name": "d6c865f4c825dd09f65dacbe9dfb2224"}, {"bike_id": "193d25fd351665a52e44bc5bc3bb8356", "lat": 38.8427485, "is_disabled": 0, "lon": -76.98841783333333, "fusion_lon": 0.0, "is_reserved": 0, "fusion_lat": 0.0, "rental_uris": {"android": "https://dc.lft.to/lastmile_qr_scan", "ios": "https://dc.lft.to/lastmile_qr_scan"}, "type": "electric_bike", "name": "193d25fd351665a52e44bc5bc3bb8356"}, {"bike_id": "6289579839d647a3c6012ce66b7bfd08", "lat": 38.9273775, "is_disabled": 0, "lon": -77.05255616666666, "fusion_lon": 0.0, "is_reserved": 0, "fusion_lat": 0.0, "rental_uris": {"android": "https://dc.lft.to/lastmile_qr_scan", "ios": "https://dc.lft.to/lastmile_qr_scan"}, "type": "electric_scooter", "name": "6289579839d647a3c6012ce66b7bfd08"}, {"bike_id": "efff2005e3ede83e496aad265fa7c3a1", "lat": 38.92448516666666, "is_disabled": 0, "lon": -77.02023733333333, "fusion_lon": 0.0, "is_reserved": 0, "fusion_lat": 0.0, "rental_uris": {"android": "https://dc.lft.to/lastmile_qr_scan", "ios": "https://dc.lft.to/lastmile_qr_scan"}, "type": "electric_scooter", "name": "efff2005e3ede83e496aad265fa7c3a1"}, {"bike_id": "326f24c4165c76b4fcd1c30d01c53191", "lat": 38.9051295, "is_disabled": 0, "lon": -77.02578333333334, "fusion_lon": 0.0, "is_reserved": 0, "fusion_lat": 0.0, "rental_uris": {"android": "https://dc.lft.to/lastmile_qr_scan", "ios": "https://dc.lft.to/lastmile_qr_scan"}, "type": "electric_scooter", "name": "326f24c4165c76b4fcd1c30d01c53191"}, {"bike_id": "6619dfe00ea56898ea6c80a50a989f22", "lat": 38.905918, "is_disabled": 0, "lon": -77.04724516666667, "fusion_lon": 0.0, "is_reserved": 0, "fusion_lat": 0.0, "rental_uris": {"android": "https://dc.lft.to/lastmile_qr_scan", "ios": "https://dc.lft.to/lastmile_qr_scan"}, "type": "electric_scooter", "name": "6619dfe00ea56898ea6c80a50a989f22"}, {"bike_id": "e8cd8c07fe02d2a53b3c037613d1fa49", "lat": 38.93727466666667, "is_disabled": 0, "lon": -77.03262966666667, "fusion_lon": 0.0, "is_reserved": 0, "fusion_lat": 0.0, "rental_uris": {"android": "https://dc.lft.to/lastmile_qr_scan", "ios": "https://dc.lft.to/lastmile_qr_scan"}, "type": "electric_scooter", "name": "e8cd8c07fe02d2a53b3c037613d1fa49"}, {"bike_id": "3b3aed71c81e669356c247c883ee9ddb", "lat": 38.799819, "is_disabled": 0, "lon": -77.12981516666666, "fusion_lon": 0.0, "is_reserved": 0, "fusion_lat": 0.0, "rental_uris": {"android": "https://dc.lft.to/lastmile_qr_scan", "ios": "https://dc.lft.to/lastmile_qr_scan"}, "type": "electric_bike", "name": "3b3aed71c81e669356c247c883ee9ddb"}, {"bike_id": "54616f6aaa93ba82b88842fd43c1d48c", "lat": 38.87686133333333, "is_disabled": 0, "lon": -77.01789316666667, "fusion_lon": 0.0, "is_reserved": 0, "fusion_lat": 0.0, "rental_uris": {"android": "https://dc.lft.to/lastmile_qr_scan", "ios": "https://dc.lft.to/lastmile_qr_scan"}, "type": "electric_scooter", "name": "54616f6aaa93ba82b88842fd43c1d48c"}, {"bike_id": "7a13db9f417ccef51fb09fb3d0310f42", "lat": 38.901373, "is_disabled": 0, "lon": -77.03966566666666, "fusion_lon": 0.0, "is_reserved": 0, "fusion_lat": 0.0, "rental_uris": {"android": "https://dc.lft.to/lastmile_qr_scan", "ios": "https://dc.lft.to/lastmile_qr_scan"}, "type": "electric_scooter", "name": "7a13db9f417ccef51fb09fb3d0310f42"}, {"bike_id": "2e000d6a611c7e5e6d3e90e8d006d33a", "lat": 38.81907983333333, "is_disabled": 0, "lon": -77.1264975, "fusion_lon": 0.0, "is_reserved": 0, "fusion_lat": 0.0, "rental_uris": {"android": "https://dc.lft.to/lastmile_qr_scan", "ios": "https://dc.lft.to/lastmile_qr_scan"}, "type": "electric_bike", "name": "2e000d6a611c7e5e6d3e90e8d006d33a"}, {"bike_id": "473aea0c02d66d78f42a5eb25ab6d5d9", "lat": 38.95019816666667, "is_disabled": 0, "lon": -77.06733616666666, "fusion_lon": 0.0, "is_reserved": 0, "fusion_lat": 0.0, "rental_uris": {"android": "https://dc.lft.to/lastmile_qr_scan", "ios": "https://dc.lft.to/lastmile_qr_scan"}, "type": "electric_scooter", "name": "473aea0c02d66d78f42a5eb25ab6d5d9"}, {"bike_id": "f40b3450f87d86fbc38283f98f6fad1a", "lat": 38.90691983333333, "is_disabled": 0, "lon": -76.9525695, "fusion_lon": 0.0, "is_reserved": 0, "fusion_lat": 0.0, "rental_uris": {"android": "https://dc.lft.to/lastmile_qr_scan", "ios": "https://dc.lft.to/lastmile_qr_scan"}, "type": "electric_bike", "name": "f40b3450f87d86fbc38283f98f6fad1a"}, {"bike_id": "22fa0f9f9ab95961caab66c3805aeca2", "lat": 38.914169, "is_disabled": 0, "lon": -77.0414945, "fusion_lon": 0.0, "is_reserved": 0, "fusion_lat": 0.0, "rental_uris": {"android": "https://dc.lft.to/lastmile_qr_scan", "ios": "https://dc.lft.to/lastmile_qr_scan"}, "type": "electric_scooter", "name": "22fa0f9f9ab95961caab66c3805aeca2"}, {"bike_id": "ad2e50e863cc89b7b3ced01bc1356397", "lat": 38.921202, "is_disabled": 0, "lon": -77.012118, "fusion_lon": 0.0, "is_reserved": 0, "fusion_lat": 0.0, "rental_uris": {"android": "https://dc.lft.to/lastmile_qr_scan", "ios": "https://dc.lft.to/lastmile_qr_scan"}, "type": "electric_scooter", "name": "ad2e50e863cc89b7b3ced01bc1356397"}, {"bike_id": "3196e4edd6522757ac5142be204a5f2e", "lat": 38.9069035, "is_disabled": 0, "lon": -77.04200266666666, "fusion_lon": 0.0, "is_reserved": 0, "fusion_lat": 0.0, "rental_uris": {"android": "https://dc.lft.to/lastmile_qr_scan", "ios": "https://dc.lft.to/lastmile_qr_scan"}, "type": "electric_scooter", "name": "3196e4edd6522757ac5142be204a5f2e"}, {"bike_id": "4b05e321e12befc0a826ee48702c9b16", "lat": 38.935626666666664, "is_disabled": 0, "lon": -77.0637305, "fusion_lon": 0.0, "is_reserved": 0, "fusion_lat": 0.0, "rental_uris": {"android": "https://dc.lft.to/lastmile_qr_scan", "ios": "https://dc.lft.to/lastmile_qr_scan"}, "type": "electric_scooter", "name": "4b05e321e12befc0a826ee48702c9b16"}, {"bike_id": "b43d09d1696d2d781d266531f92eca3f", "lat": 38.901784166666665, "is_disabled": 0, "lon": -76.92824833333333, "fusion_lon": 0.0, "is_reserved": 0, "fusion_lat": 0.0, "rental_uris": {"android": "https://dc.lft.to/lastmile_qr_scan", "ios": "https://dc.lft.to/lastmile_qr_scan"}, "type": "electric_scooter", "name": "b43d09d1696d2d781d266531f92eca3f"}, {"bike_id": "d0588a166dd954dafc512c8564c9913e", "lat": 38.9079145, "is_disabled": 0, "lon": -77.038315, "fusion_lon": 0.0, "is_reserved": 0, "fusion_lat": 0.0, "rental_uris": {"android": "https://dc.lft.to/lastmile_qr_scan", "ios": "https://dc.lft.to/lastmile_qr_scan"}, "type": "electric_scooter", "name": "d0588a166dd954dafc512c8564c9913e"}, {"bike_id": "abab96f76228221eb9e7838b59a572dc", "lat": 38.89362, "is_disabled": 0, "lon": -76.94749066666667, "fusion_lon": 0.0, "is_reserved": 0, "fusion_lat": 0.0, "rental_uris": {"android": "https://dc.lft.to/lastmile_qr_scan", "ios": "https://dc.lft.to/lastmile_qr_scan"}, "type": "electric_scooter", "name": "abab96f76228221eb9e7838b59a572dc"}, {"bike_id": "be92796a83fac542ac41a0eb384c4d86", "lat": 38.902313, "is_disabled": 0, "lon": -77.002077, "fusion_lon": 0.0, "is_reserved": 0, "fusion_lat": 0.0, "rental_uris": {"android": "https://dc.lft.to/lastmile_qr_scan", "ios": "https://dc.lft.to/lastmile_qr_scan"}, "type": "electric_scooter", "name": "be92796a83fac542ac41a0eb384c4d86"}, {"bike_id": "2e43c68b6077628d14f768c4559bcc1a", "lat": 38.8919225, "is_disabled": 0, "lon": -76.95275733333334, "fusion_lon": 0.0, "is_reserved": 0, "fusion_lat": 0.0, "rental_uris": {"android": "https://dc.lft.to/lastmile_qr_scan", "ios": "https://dc.lft.to/lastmile_qr_scan"}, "type": "electric_scooter", "name": "2e43c68b6077628d14f768c4559bcc1a"}, {"bike_id": "07071f24d287b9034b649eabbe7acbaf", "lat": 38.89224983333333, "is_disabled": 0, "lon": -77.03336216666666, "fusion_lon": 0.0, "is_reserved": 0, "fusion_lat": 0.0, "rental_uris": {"android": "https://dc.lft.to/lastmile_qr_scan", "ios": "https://dc.lft.to/lastmile_qr_scan"}, "type": "electric_scooter", "name": "07071f24d287b9034b649eabbe7acbaf"}, {"bike_id": "5d6c719096a6d7a924b0cb5202cc5ba4", "lat": 38.89223283333333, "is_disabled": 0, "lon": -77.04686933333333, "fusion_lon": 0.0, "is_reserved": 0, "fusion_lat": 0.0, "rental_uris": {"android": "https://dc.lft.to/lastmile_qr_scan", "ios": "https://dc.lft.to/lastmile_qr_scan"}, "type": "electric_scooter", "name": "5d6c719096a6d7a924b0cb5202cc5ba4"}, {"bike_id": "979aad3e12f91518e13345009c62b47a", "lat": 38.92283366666667, "is_disabled": 0, "lon": -77.0199825, "fusion_lon": 0.0, "is_reserved": 0, "fusion_lat": 0.0, "rental_uris": {"android": "https://dc.lft.to/lastmile_qr_scan", "ios": "https://dc.lft.to/lastmile_qr_scan"}, "type": "electric_scooter", "name": "979aad3e12f91518e13345009c62b47a"}, {"bike_id": "441daee387bb141ba30f07a81a7440b2", "lat": 38.88385666666667, "is_disabled": 0, "lon": -77.04609366666666, "fusion_lon": 0.0, "is_reserved": 0, "fusion_lat": 0.0, "rental_uris": {"android": "https://dc.lft.to/lastmile_qr_scan", "ios": "https://dc.lft.to/lastmile_qr_scan"}, "type": "electric_scooter", "name": "441daee387bb141ba30f07a81a7440b2"}, {"bike_id": "62edc91d9cdb83154b3abe1e91f9a5f1", "lat": 38.920461833333334, "is_disabled": 0, "lon": -76.97969716666667, "fusion_lon": 0.0, "is_reserved": 0, "fusion_lat": 0.0, "rental_uris": {"android": "https://dc.lft.to/lastmile_qr_scan", "ios": "https://dc.lft.to/lastmile_qr_scan"}, "type": "electric_bike", "name": "62edc91d9cdb83154b3abe1e91f9a5f1"}, {"bike_id": "f34051a62cc3a1651e566454a9531abe", "lat": 38.893455833333334, "is_disabled": 0, "lon": -76.93428366666667, "fusion_lon": 0.0, "is_reserved": 0, "fusion_lat": 0.0, "rental_uris": {"android": "https://dc.lft.to/lastmile_qr_scan", "ios": "https://dc.lft.to/lastmile_qr_scan"}, "type": "electric_scooter", "name": "f34051a62cc3a1651e566454a9531abe"}, {"bike_id": "060293dec1977a547625635535e5155f", "lat": 38.95079166666667, "is_disabled": 0, "lon": -77.012233, "fusion_lon": 0.0, "is_reserved": 0, "fusion_lat": 0.0, "rental_uris": {"android": "https://dc.lft.to/lastmile_qr_scan", "ios": "https://dc.lft.to/lastmile_qr_scan"}, "type": "electric_bike", "name": "060293dec1977a547625635535e5155f"}, {"bike_id": "1c291331495782a22c67be8df217eb2f", "lat": 38.83821433333333, "is_disabled": 0, "lon": -76.9967865, "fusion_lon": 0.0, "is_reserved": 0, "fusion_lat": 0.0, "rental_uris": {"android": "https://dc.lft.to/lastmile_qr_scan", "ios": "https://dc.lft.to/lastmile_qr_scan"}, "type": "electric_bike", "name": "1c291331495782a22c67be8df217eb2f"}, {"bike_id": "e958f81059b90154bb065c645312036f", "lat": 38.904000333333336, "is_disabled": 0, "lon": -77.02004733333334, "fusion_lon": 0.0, "is_reserved": 0, "fusion_lat": 0.0, "rental_uris": {"android": "https://dc.lft.to/lastmile_qr_scan", "ios": "https://dc.lft.to/lastmile_qr_scan"}, "type": "electric_scooter", "name": "e958f81059b90154bb065c645312036f"}, {"bike_id": "1f7ab2880989ca4121dc51a14c1fd1de", "lat": 38.897164333333336, "is_disabled": 0, "lon": -77.00798383333333, "fusion_lon": 0.0, "is_reserved": 0, "fusion_lat": 0.0, "rental_uris": {"android": "https://dc.lft.to/lastmile_qr_scan", "ios": "https://dc.lft.to/lastmile_qr_scan"}, "type": "electric_scooter", "name": "1f7ab2880989ca4121dc51a14c1fd1de"}, {"bike_id": "d8ca63fe8af2135efa73292ad91fdf0b", "lat": 38.90378233333333, "is_disabled": 0, "lon": -77.04799433333334, "fusion_lon": 0.0, "is_reserved": 0, "fusion_lat": 0.0, "rental_uris": {"android": "https://dc.lft.to/lastmile_qr_scan", "ios": "https://dc.lft.to/lastmile_qr_scan"}, "type": "electric_scooter", "name": "d8ca63fe8af2135efa73292ad91fdf0b"}, {"bike_id": "60c122db8364b0a8db9318d954278af8", "lat": 38.83994366666667, "is_disabled": 0, "lon": -76.97699283333333, "fusion_lon": 0.0, "is_reserved": 0, "fusion_lat": 0.0, "rental_uris": {"android": "https://dc.lft.to/lastmile_qr_scan", "ios": "https://dc.lft.to/lastmile_qr_scan"}, "type": "electric_bike", "name": "60c122db8364b0a8db9318d954278af8"}, {"bike_id": "a8203cd6256f0a2c8e7187357f4e9131", "lat": 38.898953666666664, "is_disabled": 0, "lon": -77.009042, "fusion_lon": 0.0, "is_reserved": 0, "fusion_lat": 0.0, "rental_uris": {"android": "https://dc.lft.to/lastmile_qr_scan", "ios": "https://dc.lft.to/lastmile_qr_scan"}, "type": "electric_scooter", "name": "a8203cd6256f0a2c8e7187357f4e9131"}, {"bike_id": "1410565e64d5244a99e4432961eeb87a", "lat": 38.89061733333333, "is_disabled": 0, "lon": -77.0254825, "fusion_lon": 0.0, "is_reserved": 0, "fusion_lat": 0.0, "rental_uris": {"android": "https://dc.lft.to/lastmile_qr_scan", "ios": "https://dc.lft.to/lastmile_qr_scan"}, "type": "electric_scooter", "name": "1410565e64d5244a99e4432961eeb87a"}, {"bike_id": "a1db8b435e967d32f620d2eddb329f76", "lat": 38.90661716666666, "is_disabled": 0, "lon": -76.979383, "fusion_lon": 0.0, "is_reserved": 0, "fusion_lat": 0.0, "rental_uris": {"android": "https://dc.lft.to/lastmile_qr_scan", "ios": "https://dc.lft.to/lastmile_qr_scan"}, "type": "electric_scooter", "name": "a1db8b435e967d32f620d2eddb329f76"}, {"bike_id": "abdc7f39460fea8eace426654d1ab14a", "lat": 38.899784, "is_disabled": 0, "lon": -77.02311816666666, "fusion_lon": 0.0, "is_reserved": 0, "fusion_lat": 0.0, "rental_uris": {"android": "https://dc.lft.to/lastmile_qr_scan", "ios": "https://dc.lft.to/lastmile_qr_scan"}, "type": "electric_scooter", "name": "abdc7f39460fea8eace426654d1ab14a"}, {"bike_id": "e5fcb7e24b0cfe9ff3c24e09df160985", "lat": 38.913383833333334, "is_disabled": 0, "lon": -77.03335133333333, "fusion_lon": 0.0, "is_reserved": 0, "fusion_lat": 0.0, "rental_uris": {"android": "https://dc.lft.to/lastmile_qr_scan", "ios": "https://dc.lft.to/lastmile_qr_scan"}, "type": "electric_scooter", "name": "e5fcb7e24b0cfe9ff3c24e09df160985"}, {"bike_id": "58b83be27ba4f03ca21c4ca898275a3d", "lat": 38.9176985, "is_disabled": 0, "lon": -77.01456516666667, "fusion_lon": 0.0, "is_reserved": 0, "fusion_lat": 0.0, "rental_uris": {"android": "https://dc.lft.to/lastmile_qr_scan", "ios": "https://dc.lft.to/lastmile_qr_scan"}, "type": "electric_scooter", "name": "58b83be27ba4f03ca21c4ca898275a3d"}, {"bike_id": "82ee5850c87293d0c80f1e501133f8b8", "lat": 38.91694316666667, "is_disabled": 0, "lon": -77.02598266666666, "fusion_lon": 0.0, "is_reserved": 0, "fusion_lat": 0.0, "rental_uris": {"android": "https://dc.lft.to/lastmile_qr_scan", "ios": "https://dc.lft.to/lastmile_qr_scan"}, "type": "electric_scooter", "name": "82ee5850c87293d0c80f1e501133f8b8"}, {"bike_id": "1502d71f10a3baa5c2962fd90fbd849f", "lat": 38.878662, "is_disabled": 0, "lon": -76.96259333333333, "fusion_lon": 0.0, "is_reserved": 0, "fusion_lat": 0.0, "rental_uris": {"android": "https://dc.lft.to/lastmile_qr_scan", "ios": "https://dc.lft.to/lastmile_qr_scan"}, "type": "electric_scooter", "name": "1502d71f10a3baa5c2962fd90fbd849f"}, {"bike_id": "7d5e606dcc9b9b3a878bd61d1bab6390", "lat": 38.894784, "is_disabled": 0, "lon": -77.02173366666666, "fusion_lon": 0.0, "is_reserved": 0, "fusion_lat": 0.0, "rental_uris": {"android": "https://dc.lft.to/lastmile_qr_scan", "ios": "https://dc.lft.to/lastmile_qr_scan"}, "type": "electric_scooter", "name": "7d5e606dcc9b9b3a878bd61d1bab6390"}, {"bike_id": "e95ba27f7dd08e5642a24d84e39eb725", "lat": 38.90487516666666, "is_disabled": 0, "lon": -77.03465383333334, "fusion_lon": 0.0, "is_reserved": 0, "fusion_lat": 0.0, "rental_uris": {"android": "https://dc.lft.to/lastmile_qr_scan", "ios": "https://dc.lft.to/lastmile_qr_scan"}, "type": "electric_scooter", "name": "e95ba27f7dd08e5642a24d84e39eb725"}, {"bike_id": "3e27c1ef69149fb427b288c0eef54138", "lat": 38.90469, "is_disabled": 0, "lon": -77.04043716666666, "fusion_lon": 0.0, "is_reserved": 0, "fusion_lat": 0.0, "rental_uris": {"android": "https://dc.lft.to/lastmile_qr_scan", "ios": "https://dc.lft.to/lastmile_qr_scan"}, "type": "electric_scooter", "name": "3e27c1ef69149fb427b288c0eef54138"}, {"bike_id": "128542ee6b22f3e215910c68d80889a7", "lat": 38.9347125, "is_disabled": 0, "lon": -77.04137166666666, "fusion_lon": 0.0, "is_reserved": 0, "fusion_lat": 0.0, "rental_uris": {"android": "https://dc.lft.to/lastmile_qr_scan", "ios": "https://dc.lft.to/lastmile_qr_scan"}, "type": "electric_scooter", "name": "128542ee6b22f3e215910c68d80889a7"}, {"bike_id": "e216088d4d6eed7a33d1259c89542df3", "lat": 38.905364666666664, "is_disabled": 0, "lon": -77.039815, "fusion_lon": 0.0, "is_reserved": 0, "fusion_lat": 0.0, "rental_uris": {"android": "https://dc.lft.to/lastmile_qr_scan", "ios": "https://dc.lft.to/lastmile_qr_scan"}, "type": "electric_scooter", "name": "e216088d4d6eed7a33d1259c89542df3"}, {"bike_id": "dfd14971d1571fb6e6af76e04e9cd2a2", "lat": 38.90962833333333, "is_disabled": 0, "lon": -77.0446025, "fusion_lon": 0.0, "is_reserved": 0, "fusion_lat": 0.0, "rental_uris": {"android": "https://dc.lft.to/lastmile_qr_scan", "ios": "https://dc.lft.to/lastmile_qr_scan"}, "type": "electric_scooter", "name": "dfd14971d1571fb6e6af76e04e9cd2a2"}, {"bike_id": "af5442a22c3e6256bf72d764ac27d00d", "lat": 38.900793666666665, "is_disabled": 0, "lon": -77.0497925, "fusion_lon": 0.0, "is_reserved": 0, "fusion_lat": 0.0, "rental_uris": {"android": "https://dc.lft.to/lastmile_qr_scan", "ios": "https://dc.lft.to/lastmile_qr_scan"}, "type": "electric_scooter", "name": "af5442a22c3e6256bf72d764ac27d00d"}, {"bike_id": "cf12d01ff11282c243cde7edb6e283a1", "lat": 38.925676, "is_disabled": 0, "lon": -76.95979683333333, "fusion_lon": 0.0, "is_reserved": 0, "fusion_lat": 0.0, "rental_uris": {"android": "https://dc.lft.to/lastmile_qr_scan", "ios": "https://dc.lft.to/lastmile_qr_scan"}, "type": "electric_bike", "name": "cf12d01ff11282c243cde7edb6e283a1"}, {"bike_id": "adb0125e1a5b3b330236495f71e0a4df", "lat": 38.919939166666666, "is_disabled": 0, "lon": -77.03225, "fusion_lon": 0.0, "is_reserved": 0, "fusion_lat": 0.0, "rental_uris": {"android": "https://dc.lft.to/lastmile_qr_scan", "ios": "https://dc.lft.to/lastmile_qr_scan"}, "type": "electric_scooter", "name": "adb0125e1a5b3b330236495f71e0a4df"}, {"bike_id": "511eacad3a7fc79872071a2cd4590570", "lat": 38.93558433333333, "is_disabled": 0, "lon": -77.03703266666666, "fusion_lon": 0.0, "is_reserved": 0, "fusion_lat": 0.0, "rental_uris": {"android": "https://dc.lft.to/lastmile_qr_scan", "ios": "https://dc.lft.to/lastmile_qr_scan"}, "type": "electric_bike", "name": "511eacad3a7fc79872071a2cd4590570"}, {"bike_id": "4d698b4749d4662c36d61c37966fa154", "lat": 38.881428, "is_disabled": 0, "lon": -77.02702733333334, "fusion_lon": 0.0, "is_reserved": 0, "fusion_lat": 0.0, "rental_uris": {"android": "https://dc.lft.to/lastmile_qr_scan", "ios": "https://dc.lft.to/lastmile_qr_scan"}, "type": "electric_scooter", "name": "4d698b4749d4662c36d61c37966fa154"}, {"bike_id": "6cc28762b764a0d4d98d0f02e6a6b860", "lat": 38.9055935, "is_disabled": 0, "lon": -77.00672766666666, "fusion_lon": 0.0, "is_reserved": 0, "fusion_lat": 0.0, "rental_uris": {"android": "https://dc.lft.to/lastmile_qr_scan", "ios": "https://dc.lft.to/lastmile_qr_scan"}, "type": "electric_scooter", "name": "6cc28762b764a0d4d98d0f02e6a6b860"}, {"bike_id": "e3caf2761b5654ccf91653a639d4176b", "lat": 38.884070333333334, "is_disabled": 0, "lon": -77.02948833333333, "fusion_lon": 0.0, "is_reserved": 0, "fusion_lat": 0.0, "rental_uris": {"android": "https://dc.lft.to/lastmile_qr_scan", "ios": "https://dc.lft.to/lastmile_qr_scan"}, "type": "electric_scooter", "name": "e3caf2761b5654ccf91653a639d4176b"}, {"bike_id": "ba39c92aed5a798f2eb718809d6217ea", "lat": 38.927057, "is_disabled": 0, "lon": -77.03764316666667, "fusion_lon": 0.0, "is_reserved": 0, "fusion_lat": 0.0, "rental_uris": {"android": "https://dc.lft.to/lastmile_qr_scan", "ios": "https://dc.lft.to/lastmile_qr_scan"}, "type": "electric_scooter", "name": "ba39c92aed5a798f2eb718809d6217ea"}, {"bike_id": "8ed95a4eabcc15be186b71cfcbeaaf5b", "lat": 38.9266285, "is_disabled": 0, "lon": -77.042909, "fusion_lon": 0.0, "is_reserved": 0, "fusion_lat": 0.0, "rental_uris": {"android": "https://dc.lft.to/lastmile_qr_scan", "ios": "https://dc.lft.to/lastmile_qr_scan"}, "type": "electric_scooter", "name": "8ed95a4eabcc15be186b71cfcbeaaf5b"}, {"bike_id": "86fa37d3dd6c56886c411907e9f69358", "lat": 38.92229733333333, "is_disabled": 0, "lon": -77.04723633333333, "fusion_lon": 0.0, "is_reserved": 0, "fusion_lat": 0.0, "rental_uris": {"android": "https://dc.lft.to/lastmile_qr_scan", "ios": "https://dc.lft.to/lastmile_qr_scan"}, "type": "electric_scooter", "name": "86fa37d3dd6c56886c411907e9f69358"}, {"bike_id": "3412ad3aede1b16eba0aa4c0153c6662", "lat": 38.91267166666667, "is_disabled": 0, "lon": -77.022537, "fusion_lon": 0.0, "is_reserved": 0, "fusion_lat": 0.0, "rental_uris": {"android": "https://dc.lft.to/lastmile_qr_scan", "ios": "https://dc.lft.to/lastmile_qr_scan"}, "type": "electric_scooter", "name": "3412ad3aede1b16eba0aa4c0153c6662"}, {"bike_id": "f44d137e755965cf0e1c045089eceeb8", "lat": 38.912774166666665, "is_disabled": 0, "lon": -77.04500133333333, "fusion_lon": 0.0, "is_reserved": 0, "fusion_lat": 0.0, "rental_uris": {"android": "https://dc.lft.to/lastmile_qr_scan", "ios": "https://dc.lft.to/lastmile_qr_scan"}, "type": "electric_bike", "name": "f44d137e755965cf0e1c045089eceeb8"}, {"bike_id": "c68a0ee8c170b706c4e4e2162f73444b", "lat": 38.900548666666666, "is_disabled": 0, "lon": -76.99841816666667, "fusion_lon": 0.0, "is_reserved": 0, "fusion_lat": 0.0, "rental_uris": {"android": "https://dc.lft.to/lastmile_qr_scan", "ios": "https://dc.lft.to/lastmile_qr_scan"}, "type": "electric_scooter", "name": "c68a0ee8c170b706c4e4e2162f73444b"}, {"bike_id": "cc553746ec46a28d8ff3070a182b4bdd", "lat": 38.885417333333336, "is_disabled": 0, "lon": -77.01101816666667, "fusion_lon": 0.0, "is_reserved": 0, "fusion_lat": 0.0, "rental_uris": {"android": "https://dc.lft.to/lastmile_qr_scan", "ios": "https://dc.lft.to/lastmile_qr_scan"}, "type": "electric_scooter", "name": "cc553746ec46a28d8ff3070a182b4bdd"}, {"bike_id": "0b69096cde1f3845865a6dc59e1afa98", "lat": 38.8956655, "is_disabled": 0, "lon": -77.0090375, "fusion_lon": 0.0, "is_reserved": 0, "fusion_lat": 0.0, "rental_uris": {"android": "https://dc.lft.to/lastmile_qr_scan", "ios": "https://dc.lft.to/lastmile_qr_scan"}, "type": "electric_scooter", "name": "0b69096cde1f3845865a6dc59e1afa98"}, {"bike_id": "3d309e0d750630222a5329d33cdc8b52", "lat": 38.89226416666666, "is_disabled": 0, "lon": -77.0486495, "fusion_lon": 0.0, "is_reserved": 0, "fusion_lat": 0.0, "rental_uris": {"android": "https://dc.lft.to/lastmile_qr_scan", "ios": "https://dc.lft.to/lastmile_qr_scan"}, "type": "electric_scooter", "name": "3d309e0d750630222a5329d33cdc8b52"}, {"bike_id": "e5291823b5ce01be360c9bcdb3407d17", "lat": 38.892677, "is_disabled": 0, "lon": -77.04203583333333, "fusion_lon": 0.0, "is_reserved": 0, "fusion_lat": 0.0, "rental_uris": {"android": "https://dc.lft.to/lastmile_qr_scan", "ios": "https://dc.lft.to/lastmile_qr_scan"}, "type": "electric_scooter", "name": "e5291823b5ce01be360c9bcdb3407d17"}, {"bike_id": "be3280c34ba20df9616f9b8a0f6f206f", "lat": 38.880842666666666, "is_disabled": 0, "lon": -76.9850765, "fusion_lon": 0.0, "is_reserved": 0, "fusion_lat": 0.0, "rental_uris": {"android": "https://dc.lft.to/lastmile_qr_scan", "ios": "https://dc.lft.to/lastmile_qr_scan"}, "type": "electric_scooter", "name": "be3280c34ba20df9616f9b8a0f6f206f"}, {"bike_id": "bbce5abae4701cc12d66d20fd4892f77", "lat": 38.914230833333335, "is_disabled": 0, "lon": -77.0450125, "fusion_lon": 0.0, "is_reserved": 0, "fusion_lat": 0.0, "rental_uris": {"android": "https://dc.lft.to/lastmile_qr_scan", "ios": "https://dc.lft.to/lastmile_qr_scan"}, "type": "electric_scooter", "name": "bbce5abae4701cc12d66d20fd4892f77"}, {"bike_id": "4df1677360fa9c4753d27ed2994129ee", "lat": 38.90006866666667, "is_disabled": 0, "lon": -76.98272966666667, "fusion_lon": 0.0, "is_reserved": 0, "fusion_lat": 0.0, "rental_uris": {"android": "https://dc.lft.to/lastmile_qr_scan", "ios": "https://dc.lft.to/lastmile_qr_scan"}, "type": "electric_scooter", "name": "4df1677360fa9c4753d27ed2994129ee"}, {"bike_id": "14430312aaf7ad121e63690ca4ebf255", "lat": 38.897154666666665, "is_disabled": 0, "lon": -77.02462583333333, "fusion_lon": 0.0, "is_reserved": 0, "fusion_lat": 0.0, "rental_uris": {"android": "https://dc.lft.to/lastmile_qr_scan", "ios": "https://dc.lft.to/lastmile_qr_scan"}, "type": "electric_scooter", "name": "14430312aaf7ad121e63690ca4ebf255"}, {"bike_id": "ae0b06e4799471c92f3ab1dd4a3405c7", "lat": 38.92238566666666, "is_disabled": 0, "lon": -77.02091883333334, "fusion_lon": 0.0, "is_reserved": 0, "fusion_lat": 0.0, "rental_uris": {"android": "https://dc.lft.to/lastmile_qr_scan", "ios": "https://dc.lft.to/lastmile_qr_scan"}, "type": "electric_scooter", "name": "ae0b06e4799471c92f3ab1dd4a3405c7"}, {"bike_id": "d0820f98759f99cef55f27cbb2316c51", "lat": 38.90963883333333, "is_disabled": 0, "lon": -77.04603133333333, "fusion_lon": 0.0, "is_reserved": 0, "fusion_lat": 0.0, "rental_uris": {"android": "https://dc.lft.to/lastmile_qr_scan", "ios": "https://dc.lft.to/lastmile_qr_scan"}, "type": "electric_scooter", "name": "d0820f98759f99cef55f27cbb2316c51"}, {"bike_id": "543f9ef1d139dcec8b976beb794e3c23", "lat": 38.914386, "is_disabled": 0, "lon": -77.04177166666666, "fusion_lon": 0.0, "is_reserved": 0, "fusion_lat": 0.0, "rental_uris": {"android": "https://dc.lft.to/lastmile_qr_scan", "ios": "https://dc.lft.to/lastmile_qr_scan"}, "type": "electric_scooter", "name": "543f9ef1d139dcec8b976beb794e3c23"}, {"bike_id": "fe80a18054323784dafe77158dd3544e", "lat": 38.9199605, "is_disabled": 0, "lon": -77.0213815, "fusion_lon": 0.0, "is_reserved": 0, "fusion_lat": 0.0, "rental_uris": {"android": "https://dc.lft.to/lastmile_qr_scan", "ios": "https://dc.lft.to/lastmile_qr_scan"}, "type": "electric_scooter", "name": "fe80a18054323784dafe77158dd3544e"}, {"bike_id": "8ae17417d4269aa3462bfc8694ad04d9", "lat": 38.910251833333334, "is_disabled": 0, "lon": -77.0487075, "fusion_lon": 0.0, "is_reserved": 0, "fusion_lat": 0.0, "rental_uris": {"android": "https://dc.lft.to/lastmile_qr_scan", "ios": "https://dc.lft.to/lastmile_qr_scan"}, "type": "electric_scooter", "name": "8ae17417d4269aa3462bfc8694ad04d9"}, {"bike_id": "7bd8271be84d9f382e8cddfc3df4b8e4", "lat": 38.881479666666664, "is_disabled": 0, "lon": -77.02711516666666, "fusion_lon": 0.0, "is_reserved": 0, "fusion_lat": 0.0, "rental_uris": {"android": "https://dc.lft.to/lastmile_qr_scan", "ios": "https://dc.lft.to/lastmile_qr_scan"}, "type": "electric_scooter", "name": "7bd8271be84d9f382e8cddfc3df4b8e4"}, {"bike_id": "fe9c2e504ebfd9b7f99b4875ecd6b208", "lat": 38.89832283333333, "is_disabled": 0, "lon": -77.028549, "fusion_lon": 0.0, "is_reserved": 0, "fusion_lat": 0.0, "rental_uris": {"android": "https://dc.lft.to/lastmile_qr_scan", "ios": "https://dc.lft.to/lastmile_qr_scan"}, "type": "electric_scooter", "name": "fe9c2e504ebfd9b7f99b4875ecd6b208"}, {"bike_id": "6aa3bf0e9b8d6d9dfcd0cd151fe2bd61", "lat": 38.885294, "is_disabled": 0, "lon": -76.997965, "fusion_lon": 0.0, "is_reserved": 0, "fusion_lat": 0.0, "rental_uris": {"android": "https://dc.lft.to/lastmile_qr_scan", "ios": "https://dc.lft.to/lastmile_qr_scan"}, "type": "electric_scooter", "name": "6aa3bf0e9b8d6d9dfcd0cd151fe2bd61"}, {"bike_id": "9ae8b316d71f50490c8090622d22b64b", "lat": 38.8956775, "is_disabled": 0, "lon": -77.021658, "fusion_lon": 0.0, "is_reserved": 0, "fusion_lat": 0.0, "rental_uris": {"android": "https://dc.lft.to/lastmile_qr_scan", "ios": "https://dc.lft.to/lastmile_qr_scan"}, "type": "electric_scooter", "name": "9ae8b316d71f50490c8090622d22b64b"}, {"bike_id": "70bcc878b2fcce421420ca08fedba574", "lat": 38.920109833333335, "is_disabled": 0, "lon": -77.02168033333334, "fusion_lon": 0.0, "is_reserved": 0, "fusion_lat": 0.0, "rental_uris": {"android": "https://dc.lft.to/lastmile_qr_scan", "ios": "https://dc.lft.to/lastmile_qr_scan"}, "type": "electric_scooter", "name": "70bcc878b2fcce421420ca08fedba574"}, {"bike_id": "c684d499d1555eae0dc73c444685e469", "lat": 38.915966166666664, "is_disabled": 0, "lon": -77.01673183333334, "fusion_lon": 0.0, "is_reserved": 0, "fusion_lat": 0.0, "rental_uris": {"android": "https://dc.lft.to/lastmile_qr_scan", "ios": "https://dc.lft.to/lastmile_qr_scan"}, "type": "electric_scooter", "name": "c684d499d1555eae0dc73c444685e469"}, {"bike_id": "22c122bad4cf57da0b583da4442cc918", "lat": 38.896527666666664, "is_disabled": 0, "lon": -77.04008383333333, "fusion_lon": 0.0, "is_reserved": 0, "fusion_lat": 0.0, "rental_uris": {"android": "https://dc.lft.to/lastmile_qr_scan", "ios": "https://dc.lft.to/lastmile_qr_scan"}, "type": "electric_scooter", "name": "22c122bad4cf57da0b583da4442cc918"}, {"bike_id": "10a35925e996ec05221b75429c05eae6", "lat": 38.88492816666667, "is_disabled": 0, "lon": -77.00714383333333, "fusion_lon": 0.0, "is_reserved": 0, "fusion_lat": 0.0, "rental_uris": {"android": "https://dc.lft.to/lastmile_qr_scan", "ios": "https://dc.lft.to/lastmile_qr_scan"}, "type": "electric_scooter", "name": "10a35925e996ec05221b75429c05eae6"}, {"bike_id": "a96dd8f37a88ed4c8b74a73318c36849", "lat": 38.926364, "is_disabled": 0, "lon": -76.99615833333333, "fusion_lon": 0.0, "is_reserved": 0, "fusion_lat": 0.0, "rental_uris": {"android": "https://dc.lft.to/lastmile_qr_scan", "ios": "https://dc.lft.to/lastmile_qr_scan"}, "type": "electric_scooter", "name": "a96dd8f37a88ed4c8b74a73318c36849"}, {"bike_id": "e7d06c0735b1eb1c8701e957f3e4a69f", "lat": 38.8875395, "is_disabled": 0, "lon": -76.99230816666666, "fusion_lon": 0.0, "is_reserved": 0, "fusion_lat": 0.0, "rental_uris": {"android": "https://dc.lft.to/lastmile_qr_scan", "ios": "https://dc.lft.to/lastmile_qr_scan"}, "type": "electric_scooter", "name": "e7d06c0735b1eb1c8701e957f3e4a69f"}, {"bike_id": "384b2f26bce7527f694fcdd1dbaa90a0", "lat": 38.90190283333333, "is_disabled": 0, "lon": -77.02158966666667, "fusion_lon": 0.0, "is_reserved": 0, "fusion_lat": 0.0, "rental_uris": {"android": "https://dc.lft.to/lastmile_qr_scan", "ios": "https://dc.lft.to/lastmile_qr_scan"}, "type": "electric_scooter", "name": "384b2f26bce7527f694fcdd1dbaa90a0"}, {"bike_id": "ed2d1a22d9fb435f9e810216c5cbf8c6", "lat": 38.90532433333333, "is_disabled": 0, "lon": -77.0572495, "fusion_lon": 0.0, "is_reserved": 0, "fusion_lat": 0.0, "rental_uris": {"android": "https://dc.lft.to/lastmile_qr_scan", "ios": "https://dc.lft.to/lastmile_qr_scan"}, "type": "electric_scooter", "name": "ed2d1a22d9fb435f9e810216c5cbf8c6"}, {"bike_id": "4bb654fc78527ac5c46a2b270f09a231", "lat": 38.897607666666666, "is_disabled": 0, "lon": -76.986423, "fusion_lon": 0.0, "is_reserved": 0, "fusion_lat": 0.0, "rental_uris": {"android": "https://dc.lft.to/lastmile_qr_scan", "ios": "https://dc.lft.to/lastmile_qr_scan"}, "type": "electric_scooter", "name": "4bb654fc78527ac5c46a2b270f09a231"}, {"bike_id": "281f05cf32609e862efe106391ecc313", "lat": 38.896167, "is_disabled": 0, "lon": -76.90734583333334, "fusion_lon": 0.0, "is_reserved": 0, "fusion_lat": 0.0, "rental_uris": {"android": "https://dc.lft.to/lastmile_qr_scan", "ios": "https://dc.lft.to/lastmile_qr_scan"}, "type": "electric_bike", "name": "281f05cf32609e862efe106391ecc313"}, {"bike_id": "c0ba010cd459d4bd9ae385192007917c", "lat": 38.920252833333336, "is_disabled": 0, "lon": -76.9957315, "fusion_lon": 0.0, "is_reserved": 0, "fusion_lat": 0.0, "rental_uris": {"android": "https://dc.lft.to/lastmile_qr_scan", "ios": "https://dc.lft.to/lastmile_qr_scan"}, "type": "electric_scooter", "name": "c0ba010cd459d4bd9ae385192007917c"}, {"bike_id": "fd640970fb0ce2bd40a3011487a22beb", "lat": 38.90032433333333, "is_disabled": 0, "lon": -77.00207, "fusion_lon": 0.0, "is_reserved": 0, "fusion_lat": 0.0, "rental_uris": {"android": "https://dc.lft.to/lastmile_qr_scan", "ios": "https://dc.lft.to/lastmile_qr_scan"}, "type": "electric_scooter", "name": "fd640970fb0ce2bd40a3011487a22beb"}, {"bike_id": "5a24d5f482eb1056d71a7162dd5a4596", "lat": 38.899158666666665, "is_disabled": 0, "lon": -76.93380166666667, "fusion_lon": 0.0, "is_reserved": 0, "fusion_lat": 0.0, "rental_uris": {"android": "https://dc.lft.to/lastmile_qr_scan", "ios": "https://dc.lft.to/lastmile_qr_scan"}, "type": "electric_scooter", "name": "5a24d5f482eb1056d71a7162dd5a4596"}, {"bike_id": "8390cb140e8b76e3ad91e866c4feb5d8", "lat": 38.91514016666667, "is_disabled": 0, "lon": -76.9807155, "fusion_lon": 0.0, "is_reserved": 0, "fusion_lat": 0.0, "rental_uris": {"android": "https://dc.lft.to/lastmile_qr_scan", "ios": "https://dc.lft.to/lastmile_qr_scan"}, "type": "electric_scooter", "name": "8390cb140e8b76e3ad91e866c4feb5d8"}, {"bike_id": "dab0ee677877baa479a2355b894fbf8b", "lat": 38.90564883333333, "is_disabled": 0, "lon": -77.042378, "fusion_lon": 0.0, "is_reserved": 0, "fusion_lat": 0.0, "rental_uris": {"android": "https://dc.lft.to/lastmile_qr_scan", "ios": "https://dc.lft.to/lastmile_qr_scan"}, "type": "electric_scooter", "name": "dab0ee677877baa479a2355b894fbf8b"}, {"bike_id": "3fda306c70cc8b5ea6ff745d3d16380e", "lat": 38.937740166666664, "is_disabled": 0, "lon": -77.02297483333334, "fusion_lon": 0.0, "is_reserved": 0, "fusion_lat": 0.0, "rental_uris": {"android": "https://dc.lft.to/lastmile_qr_scan", "ios": "https://dc.lft.to/lastmile_qr_scan"}, "type": "electric_scooter", "name": "3fda306c70cc8b5ea6ff745d3d16380e"}, {"bike_id": "a87548fc7c55fd00fbee0a0b642875a3", "lat": 38.880661333333336, "is_disabled": 0, "lon": -77.02554566666667, "fusion_lon": 0.0, "is_reserved": 0, "fusion_lat": 0.0, "rental_uris": {"android": "https://dc.lft.to/lastmile_qr_scan", "ios": "https://dc.lft.to/lastmile_qr_scan"}, "type": "electric_bike", "name": "a87548fc7c55fd00fbee0a0b642875a3"}, {"bike_id": "6a299d09de86a97b2997ef88a8b130ff", "lat": 38.894698, "is_disabled": 0, "lon": -77.01859733333333, "fusion_lon": 0.0, "is_reserved": 0, "fusion_lat": 0.0, "rental_uris": {"android": "https://dc.lft.to/lastmile_qr_scan", "ios": "https://dc.lft.to/lastmile_qr_scan"}, "type": "electric_scooter", "name": "6a299d09de86a97b2997ef88a8b130ff"}, {"bike_id": "7bef4c7ac6ddd7584ea1429c16a2f218", "lat": 38.87886116666667, "is_disabled": 0, "lon": -77.00758416666666, "fusion_lon": 0.0, "is_reserved": 0, "fusion_lat": 0.0, "rental_uris": {"android": "https://dc.lft.to/lastmile_qr_scan", "ios": "https://dc.lft.to/lastmile_qr_scan"}, "type": "electric_scooter", "name": "7bef4c7ac6ddd7584ea1429c16a2f218"}, {"bike_id": "fd18ec3f289cf0d3e069e0ac9da0b21e", "lat": 38.997853666666664, "is_disabled": 0, "lon": -77.007569, "fusion_lon": 0.0, "is_reserved": 0, "fusion_lat": 0.0, "rental_uris": {"android": "https://dc.lft.to/lastmile_qr_scan", "ios": "https://dc.lft.to/lastmile_qr_scan"}, "type": "electric_bike", "name": "fd18ec3f289cf0d3e069e0ac9da0b21e"}, {"bike_id": "3f09e1d68723ddc383acf41bb358f7cf", "lat": 38.89298566666667, "is_disabled": 0, "lon": -77.002027, "fusion_lon": 0.0, "is_reserved": 0, "fusion_lat": 0.0, "rental_uris": {"android": "https://dc.lft.to/lastmile_qr_scan", "ios": "https://dc.lft.to/lastmile_qr_scan"}, "type": "electric_scooter", "name": "3f09e1d68723ddc383acf41bb358f7cf"}, {"bike_id": "f83d5325cb43b016dfe38dca3336006c", "lat": 38.892207666666664, "is_disabled": 0, "lon": -77.02780516666667, "fusion_lon": 0.0, "is_reserved": 0, "fusion_lat": 0.0, "rental_uris": {"android": "https://dc.lft.to/lastmile_qr_scan", "ios": "https://dc.lft.to/lastmile_qr_scan"}, "type": "electric_scooter", "name": "f83d5325cb43b016dfe38dca3336006c"}, {"bike_id": "840f6dccc82a3373a23f790b626b9d79", "lat": 38.91138466666666, "is_disabled": 0, "lon": -77.046651, "fusion_lon": 0.0, "is_reserved": 0, "fusion_lat": 0.0, "rental_uris": {"android": "https://dc.lft.to/lastmile_qr_scan", "ios": "https://dc.lft.to/lastmile_qr_scan"}, "type": "electric_scooter", "name": "840f6dccc82a3373a23f790b626b9d79"}, {"bike_id": "c35707df1eff7bfac867d812c981bea7", "lat": 38.90570533333333, "is_disabled": 0, "lon": -77.0335105, "fusion_lon": 0.0, "is_reserved": 0, "fusion_lat": 0.0, "rental_uris": {"android": "https://dc.lft.to/lastmile_qr_scan", "ios": "https://dc.lft.to/lastmile_qr_scan"}, "type": "electric_scooter", "name": "c35707df1eff7bfac867d812c981bea7"}, {"bike_id": "1834586ce8133ccff67c8c87dc07db2a", "lat": 38.902468999999996, "is_disabled": 0, "lon": -77.03581966666667, "fusion_lon": 0.0, "is_reserved": 0, "fusion_lat": 0.0, "rental_uris": {"android": "https://dc.lft.to/lastmile_qr_scan", "ios": "https://dc.lft.to/lastmile_qr_scan"}, "type": "electric_scooter", "name": "1834586ce8133ccff67c8c87dc07db2a"}, {"bike_id": "801d3905e378e7daf155924984c646f9", "lat": 38.910011, "is_disabled": 0, "lon": -77.04007366666667, "fusion_lon": 0.0, "is_reserved": 0, "fusion_lat": 0.0, "rental_uris": {"android": "https://dc.lft.to/lastmile_qr_scan", "ios": "https://dc.lft.to/lastmile_qr_scan"}, "type": "electric_scooter", "name": "801d3905e378e7daf155924984c646f9"}, {"bike_id": "ddbf5f86870394e4bfe10ef9bd32239d", "lat": 38.903309, "is_disabled": 0, "lon": -77.01086066666667, "fusion_lon": 0.0, "is_reserved": 0, "fusion_lat": 0.0, "rental_uris": {"android": "https://dc.lft.to/lastmile_qr_scan", "ios": "https://dc.lft.to/lastmile_qr_scan"}, "type": "electric_scooter", "name": "ddbf5f86870394e4bfe10ef9bd32239d"}, {"bike_id": "90c116e4c4152c88e1f064fa4a1bfcbc", "lat": 38.8925555, "is_disabled": 0, "lon": -77.04502933333333, "fusion_lon": 0.0, "is_reserved": 0, "fusion_lat": 0.0, "rental_uris": {"android": "https://dc.lft.to/lastmile_qr_scan", "ios": "https://dc.lft.to/lastmile_qr_scan"}, "type": "electric_scooter", "name": "90c116e4c4152c88e1f064fa4a1bfcbc"}, {"bike_id": "463e0af147e08d4453a9d77a353ce05e", "lat": 38.889887, "is_disabled": 0, "lon": -77.00325133333334, "fusion_lon": 0.0, "is_reserved": 0, "fusion_lat": 0.0, "rental_uris": {"android": "https://dc.lft.to/lastmile_qr_scan", "ios": "https://dc.lft.to/lastmile_qr_scan"}, "type": "electric_scooter", "name": "463e0af147e08d4453a9d77a353ce05e"}, {"bike_id": "b457068828b96febcdb5cb62924548a9", "lat": 38.910537166666664, "is_disabled": 0, "lon": -77.02214233333333, "fusion_lon": 0.0, "is_reserved": 0, "fusion_lat": 0.0, "rental_uris": {"android": "https://dc.lft.to/lastmile_qr_scan", "ios": "https://dc.lft.to/lastmile_qr_scan"}, "type": "electric_scooter", "name": "b457068828b96febcdb5cb62924548a9"}, {"bike_id": "c7edee1058bd3adc8a4ea300cd8b1f8a", "lat": 38.936992833333335, "is_disabled": 0, "lon": -77.056009, "fusion_lon": 0.0, "is_reserved": 0, "fusion_lat": 0.0, "rental_uris": {"android": "https://dc.lft.to/lastmile_qr_scan", "ios": "https://dc.lft.to/lastmile_qr_scan"}, "type": "electric_scooter", "name": "c7edee1058bd3adc8a4ea300cd8b1f8a"}, {"bike_id": "96d36b9e8b1cfc9d0dd69ad123f29f15", "lat": 38.8878205, "is_disabled": 0, "lon": -77.03321883333334, "fusion_lon": 0.0, "is_reserved": 0, "fusion_lat": 0.0, "rental_uris": {"android": "https://dc.lft.to/lastmile_qr_scan", "ios": "https://dc.lft.to/lastmile_qr_scan"}, "type": "electric_scooter", "name": "96d36b9e8b1cfc9d0dd69ad123f29f15"}, {"bike_id": "0474319580d9d29f1b555291fa072047", "lat": 38.92676, "is_disabled": 0, "lon": -76.99502066666666, "fusion_lon": 0.0, "is_reserved": 0, "fusion_lat": 0.0, "rental_uris": {"android": "https://dc.lft.to/lastmile_qr_scan", "ios": "https://dc.lft.to/lastmile_qr_scan"}, "type": "electric_scooter", "name": "0474319580d9d29f1b555291fa072047"}, {"bike_id": "c915fdbda50da2383211330c0e01d431", "lat": 38.943096833333335, "is_disabled": 0, "lon": -77.05928916666667, "fusion_lon": 0.0, "is_reserved": 0, "fusion_lat": 0.0, "rental_uris": {"android": "https://dc.lft.to/lastmile_qr_scan", "ios": "https://dc.lft.to/lastmile_qr_scan"}, "type": "electric_scooter", "name": "c915fdbda50da2383211330c0e01d431"}, {"bike_id": "410d1bacdf59c59743687e7fbf2c3f2e", "lat": 38.9241265, "is_disabled": 0, "lon": -76.998003, "fusion_lon": 0.0, "is_reserved": 0, "fusion_lat": 0.0, "rental_uris": {"android": "https://dc.lft.to/lastmile_qr_scan", "ios": "https://dc.lft.to/lastmile_qr_scan"}, "type": "electric_scooter", "name": "410d1bacdf59c59743687e7fbf2c3f2e"}, {"bike_id": "c999daf6ac7a8df1701764ae10f0cc4d", "lat": 38.87427566666667, "is_disabled": 0, "lon": -77.085712, "fusion_lon": 0.0, "is_reserved": 0, "fusion_lat": 0.0, "rental_uris": {"android": "https://dc.lft.to/lastmile_qr_scan", "ios": "https://dc.lft.to/lastmile_qr_scan"}, "type": "electric_bike", "name": "c999daf6ac7a8df1701764ae10f0cc4d"}, {"bike_id": "8a92fdc54b52a6fcd8e39a83ea680758", "lat": 38.8766925, "is_disabled": 0, "lon": -77.00065033333334, "fusion_lon": 0.0, "is_reserved": 0, "fusion_lat": 0.0, "rental_uris": {"android": "https://dc.lft.to/lastmile_qr_scan", "ios": "https://dc.lft.to/lastmile_qr_scan"}, "type": "electric_scooter", "name": "8a92fdc54b52a6fcd8e39a83ea680758"}, {"bike_id": "3d7f2577a2d378df56a2ef964e25f754", "lat": 38.898277666666665, "is_disabled": 0, "lon": -77.02899566666666, "fusion_lon": 0.0, "is_reserved": 0, "fusion_lat": 0.0, "rental_uris": {"android": "https://dc.lft.to/lastmile_qr_scan", "ios": "https://dc.lft.to/lastmile_qr_scan"}, "type": "electric_scooter", "name": "3d7f2577a2d378df56a2ef964e25f754"}, {"bike_id": "4a19faaaf1606b3a6cfe4c37f6c0cf45", "lat": 38.95708116666667, "is_disabled": 0, "lon": -77.02403616666666, "fusion_lon": 0.0, "is_reserved": 0, "fusion_lat": 0.0, "rental_uris": {"android": "https://dc.lft.to/lastmile_qr_scan", "ios": "https://dc.lft.to/lastmile_qr_scan"}, "type": "electric_scooter", "name": "4a19faaaf1606b3a6cfe4c37f6c0cf45"}, {"bike_id": "3a5b2729e4e68bf5485a5bd02481d7f2", "lat": 38.95113083333333, "is_disabled": 0, "lon": -77.03356866666667, "fusion_lon": 0.0, "is_reserved": 0, "fusion_lat": 0.0, "rental_uris": {"android": "https://dc.lft.to/lastmile_qr_scan", "ios": "https://dc.lft.to/lastmile_qr_scan"}, "type": "electric_scooter", "name": "3a5b2729e4e68bf5485a5bd02481d7f2"}, {"bike_id": "ab45e355b9b681e04a3a8e3947b9dc33", "lat": 38.892151, "is_disabled": 0, "lon": -77.03168183333334, "fusion_lon": 0.0, "is_reserved": 0, "fusion_lat": 0.0, "rental_uris": {"android": "https://dc.lft.to/lastmile_qr_scan", "ios": "https://dc.lft.to/lastmile_qr_scan"}, "type": "electric_scooter", "name": "ab45e355b9b681e04a3a8e3947b9dc33"}, {"bike_id": "2e161a3a2fea52d0837df9c031165b1e", "lat": 38.93598716666666, "is_disabled": 0, "lon": -77.038082, "fusion_lon": 0.0, "is_reserved": 0, "fusion_lat": 0.0, "rental_uris": {"android": "https://dc.lft.to/lastmile_qr_scan", "ios": "https://dc.lft.to/lastmile_qr_scan"}, "type": "electric_scooter", "name": "2e161a3a2fea52d0837df9c031165b1e"}, {"bike_id": "498adcd3caf09ae0bc328593c14dad43", "lat": 38.8075565, "is_disabled": 0, "lon": -77.094529, "fusion_lon": 0.0, "is_reserved": 0, "fusion_lat": 0.0, "rental_uris": {"android": "https://dc.lft.to/lastmile_qr_scan", "ios": "https://dc.lft.to/lastmile_qr_scan"}, "type": "electric_bike", "name": "498adcd3caf09ae0bc328593c14dad43"}, {"bike_id": "1f87b5ee33f66d866533be0079d6ff8c", "lat": 38.94615366666667, "is_disabled": 0, "lon": -77.0787565, "fusion_lon": 0.0, "is_reserved": 0, "fusion_lat": 0.0, "rental_uris": {"android": "https://dc.lft.to/lastmile_qr_scan", "ios": "https://dc.lft.to/lastmile_qr_scan"}, "type": "electric_scooter", "name": "1f87b5ee33f66d866533be0079d6ff8c"}, {"bike_id": "410851b61107242550b6ec710262a540", "lat": 38.92320183333333, "is_disabled": 0, "lon": -77.01994083333334, "fusion_lon": 0.0, "is_reserved": 0, "fusion_lat": 0.0, "rental_uris": {"android": "https://dc.lft.to/lastmile_qr_scan", "ios": "https://dc.lft.to/lastmile_qr_scan"}, "type": "electric_scooter", "name": "410851b61107242550b6ec710262a540"}, {"bike_id": "3a6a4f7e20f9aad4c5548f8c30d78c34", "lat": 38.9072775, "is_disabled": 0, "lon": -77.002937, "fusion_lon": 0.0, "is_reserved": 0, "fusion_lat": 0.0, "rental_uris": {"android": "https://dc.lft.to/lastmile_qr_scan", "ios": "https://dc.lft.to/lastmile_qr_scan"}, "type": "electric_scooter", "name": "3a6a4f7e20f9aad4c5548f8c30d78c34"}, {"bike_id": "5fc2f65369203820689b72fde501bd58", "lat": 38.85445033333333, "is_disabled": 0, "lon": -76.97229066666667, "fusion_lon": 0.0, "is_reserved": 0, "fusion_lat": 0.0, "rental_uris": {"android": "https://dc.lft.to/lastmile_qr_scan", "ios": "https://dc.lft.to/lastmile_qr_scan"}, "type": "electric_scooter", "name": "5fc2f65369203820689b72fde501bd58"}, {"bike_id": "2779ade0f2d6f4d6cf67cfb7c0b7a3d3", "lat": 38.901075666666664, "is_disabled": 0, "lon": -77.02464166666667, "fusion_lon": 0.0, "is_reserved": 0, "fusion_lat": 0.0, "rental_uris": {"android": "https://dc.lft.to/lastmile_qr_scan", "ios": "https://dc.lft.to/lastmile_qr_scan"}, "type": "electric_scooter", "name": "2779ade0f2d6f4d6cf67cfb7c0b7a3d3"}, {"bike_id": "c0c536ca41598b7aa7c3673e1d1db6e8", "lat": 38.819109, "is_disabled": 0, "lon": -77.126524, "fusion_lon": 0.0, "is_reserved": 0, "fusion_lat": 0.0, "rental_uris": {"android": "https://dc.lft.to/lastmile_qr_scan", "ios": "https://dc.lft.to/lastmile_qr_scan"}, "type": "electric_bike", "name": "c0c536ca41598b7aa7c3673e1d1db6e8"}, {"bike_id": "78e3d082e605b83fc1fda95ef71b6eb7", "lat": 38.892194, "is_disabled": 0, "lon": -77.04368533333333, "fusion_lon": 0.0, "is_reserved": 0, "fusion_lat": 0.0, "rental_uris": {"android": "https://dc.lft.to/lastmile_qr_scan", "ios": "https://dc.lft.to/lastmile_qr_scan"}, "type": "electric_scooter", "name": "78e3d082e605b83fc1fda95ef71b6eb7"}, {"bike_id": "7a8bd884d016bcb548aefb9746b3b5a4", "lat": 38.916289666666664, "is_disabled": 0, "lon": -77.04593683333333, "fusion_lon": 0.0, "is_reserved": 0, "fusion_lat": 0.0, "rental_uris": {"android": "https://dc.lft.to/lastmile_qr_scan", "ios": "https://dc.lft.to/lastmile_qr_scan"}, "type": "electric_scooter", "name": "7a8bd884d016bcb548aefb9746b3b5a4"}, {"bike_id": "138856a93643113480d1eb2cd923c2a8", "lat": 38.9330415, "is_disabled": 0, "lon": -77.03589416666667, "fusion_lon": 0.0, "is_reserved": 0, "fusion_lat": 0.0, "rental_uris": {"android": "https://dc.lft.to/lastmile_qr_scan", "ios": "https://dc.lft.to/lastmile_qr_scan"}, "type": "electric_scooter", "name": "138856a93643113480d1eb2cd923c2a8"}, {"bike_id": "988b4cbd26a5496adebe9404285ab21f", "lat": 38.93057316666667, "is_disabled": 0, "lon": -77.02321916666666, "fusion_lon": 0.0, "is_reserved": 0, "fusion_lat": 0.0, "rental_uris": {"android": "https://dc.lft.to/lastmile_qr_scan", "ios": "https://dc.lft.to/lastmile_qr_scan"}, "type": "electric_scooter", "name": "988b4cbd26a5496adebe9404285ab21f"}, {"bike_id": "191abcd5c61134c092cf81abadb8bfae", "lat": 38.9279495, "is_disabled": 0, "lon": -77.031487, "fusion_lon": 0.0, "is_reserved": 0, "fusion_lat": 0.0, "rental_uris": {"android": "https://dc.lft.to/lastmile_qr_scan", "ios": "https://dc.lft.to/lastmile_qr_scan"}, "type": "electric_scooter", "name": "191abcd5c61134c092cf81abadb8bfae"}, {"bike_id": "52e4620b280b3297f31a8dc5507cec76", "lat": 38.958386, "is_disabled": 0, "lon": -77.084772, "fusion_lon": 0.0, "is_reserved": 0, "fusion_lat": 0.0, "rental_uris": {"android": "https://dc.lft.to/lastmile_qr_scan", "ios": "https://dc.lft.to/lastmile_qr_scan"}, "type": "electric_scooter", "name": "52e4620b280b3297f31a8dc5507cec76"}, {"bike_id": "1763a9d616e335bc504a6449d7ce8341", "lat": 38.898956, "is_disabled": 0, "lon": -77.0487555, "fusion_lon": 0.0, "is_reserved": 0, "fusion_lat": 0.0, "rental_uris": {"android": "https://dc.lft.to/lastmile_qr_scan", "ios": "https://dc.lft.to/lastmile_qr_scan"}, "type": "electric_scooter", "name": "1763a9d616e335bc504a6449d7ce8341"}, {"bike_id": "59570231bd1139138ebabec0721204a5", "lat": 38.87649, "is_disabled": 0, "lon": -76.96506683333334, "fusion_lon": 0.0, "is_reserved": 0, "fusion_lat": 0.0, "rental_uris": {"android": "https://dc.lft.to/lastmile_qr_scan", "ios": "https://dc.lft.to/lastmile_qr_scan"}, "type": "electric_scooter", "name": "59570231bd1139138ebabec0721204a5"}, {"bike_id": "4d224549b57209fc0143e7a66ba609c0", "lat": 38.873837333333334, "is_disabled": 0, "lon": -76.96984666666667, "fusion_lon": 0.0, "is_reserved": 0, "fusion_lat": 0.0, "rental_uris": {"android": "https://dc.lft.to/lastmile_qr_scan", "ios": "https://dc.lft.to/lastmile_qr_scan"}, "type": "electric_scooter", "name": "4d224549b57209fc0143e7a66ba609c0"}, {"bike_id": "e1e00ae52cee3fda7fc635e1df77a004", "lat": 38.929495, "is_disabled": 0, "lon": -77.04405716666666, "fusion_lon": 0.0, "is_reserved": 0, "fusion_lat": 0.0, "rental_uris": {"android": "https://dc.lft.to/lastmile_qr_scan", "ios": "https://dc.lft.to/lastmile_qr_scan"}, "type": "electric_scooter", "name": "e1e00ae52cee3fda7fc635e1df77a004"}, {"bike_id": "4927c89e1f9c4bba19d1ed973b4c70fe", "lat": 38.890241333333336, "is_disabled": 0, "lon": -76.93708433333333, "fusion_lon": 0.0, "is_reserved": 0, "fusion_lat": 0.0, "rental_uris": {"android": "https://dc.lft.to/lastmile_qr_scan", "ios": "https://dc.lft.to/lastmile_qr_scan"}, "type": "electric_scooter", "name": "4927c89e1f9c4bba19d1ed973b4c70fe"}, {"bike_id": "78050fed688cb27d0a8adbcfb7c671a3", "lat": 38.9389705, "is_disabled": 0, "lon": -77.01763583333333, "fusion_lon": 0.0, "is_reserved": 0, "fusion_lat": 0.0, "rental_uris": {"android": "https://dc.lft.to/lastmile_qr_scan", "ios": "https://dc.lft.to/lastmile_qr_scan"}, "type": "electric_scooter", "name": "78050fed688cb27d0a8adbcfb7c671a3"}, {"bike_id": "da15034e55bbced5e5e9daf554e541ad", "lat": 38.8922325, "is_disabled": 0, "lon": -77.04504033333333, "fusion_lon": 0.0, "is_reserved": 0, "fusion_lat": 0.0, "rental_uris": {"android": "https://dc.lft.to/lastmile_qr_scan", "ios": "https://dc.lft.to/lastmile_qr_scan"}, "type": "electric_scooter", "name": "da15034e55bbced5e5e9daf554e541ad"}, {"bike_id": "f48f53796d6dedb1537c5c6bd34bdda0", "lat": 38.84109516666667, "is_disabled": 0, "lon": -77.07014733333334, "fusion_lon": 0.0, "is_reserved": 0, "fusion_lat": 0.0, "rental_uris": {"android": "https://dc.lft.to/lastmile_qr_scan", "ios": "https://dc.lft.to/lastmile_qr_scan"}, "type": "electric_bike", "name": "f48f53796d6dedb1537c5c6bd34bdda0"}, {"bike_id": "3cd2df9a57f7611fe367fc3423e98815", "lat": 38.90018533333333, "is_disabled": 0, "lon": -77.011771, "fusion_lon": 0.0, "is_reserved": 0, "fusion_lat": 0.0, "rental_uris": {"android": "https://dc.lft.to/lastmile_qr_scan", "ios": "https://dc.lft.to/lastmile_qr_scan"}, "type": "electric_scooter", "name": "3cd2df9a57f7611fe367fc3423e98815"}, {"bike_id": "15bc2ad74dc9957d647aefa7abac1114", "lat": 38.89502933333333, "is_disabled": 0, "lon": -77.0021725, "fusion_lon": 0.0, "is_reserved": 0, "fusion_lat": 0.0, "rental_uris": {"android": "https://dc.lft.to/lastmile_qr_scan", "ios": "https://dc.lft.to/lastmile_qr_scan"}, "type": "electric_scooter", "name": "15bc2ad74dc9957d647aefa7abac1114"}, {"bike_id": "bd3cf9ae26c332653c3939eda64401fc", "lat": 38.813628, "is_disabled": 0, "lon": -77.07242983333333, "fusion_lon": 0.0, "is_reserved": 0, "fusion_lat": 0.0, "rental_uris": {"android": "https://dc.lft.to/lastmile_qr_scan", "ios": "https://dc.lft.to/lastmile_qr_scan"}, "type": "electric_bike", "name": "bd3cf9ae26c332653c3939eda64401fc"}, {"bike_id": "a9c834b4617ecdef9a9f0d6c87583753", "lat": 38.919874166666666, "is_disabled": 0, "lon": -77.02470916666667, "fusion_lon": 0.0, "is_reserved": 0, "fusion_lat": 0.0, "rental_uris": {"android": "https://dc.lft.to/lastmile_qr_scan", "ios": "https://dc.lft.to/lastmile_qr_scan"}, "type": "electric_scooter", "name": "a9c834b4617ecdef9a9f0d6c87583753"}, {"bike_id": "6ca673cd68ff18b29af15e11d891857b", "lat": 38.90390683333333, "is_disabled": 0, "lon": -77.0319385, "fusion_lon": 0.0, "is_reserved": 0, "fusion_lat": 0.0, "rental_uris": {"android": "https://dc.lft.to/lastmile_qr_scan", "ios": "https://dc.lft.to/lastmile_qr_scan"}, "type": "electric_scooter", "name": "6ca673cd68ff18b29af15e11d891857b"}, {"bike_id": "95a974799455e7027039067a79f0f967", "lat": 38.91936616666667, "is_disabled": 0, "lon": -77.07087433333334, "fusion_lon": 0.0, "is_reserved": 0, "fusion_lat": 0.0, "rental_uris": {"android": "https://dc.lft.to/lastmile_qr_scan", "ios": "https://dc.lft.to/lastmile_qr_scan"}, "type": "electric_scooter", "name": "95a974799455e7027039067a79f0f967"}, {"bike_id": "a4d423fc96e2fe91eb2c06a27893cd48", "lat": 38.896517333333335, "is_disabled": 0, "lon": -77.03375416666667, "fusion_lon": 0.0, "is_reserved": 0, "fusion_lat": 0.0, "rental_uris": {"android": "https://dc.lft.to/lastmile_qr_scan", "ios": "https://dc.lft.to/lastmile_qr_scan"}, "type": "electric_scooter", "name": "a4d423fc96e2fe91eb2c06a27893cd48"}, {"bike_id": "3a035e8ae686e269d66c0cb6677c6a8b", "lat": 38.892254666666666, "is_disabled": 0, "lon": -77.02370533333334, "fusion_lon": 0.0, "is_reserved": 0, "fusion_lat": 0.0, "rental_uris": {"android": "https://dc.lft.to/lastmile_qr_scan", "ios": "https://dc.lft.to/lastmile_qr_scan"}, "type": "electric_scooter", "name": "3a035e8ae686e269d66c0cb6677c6a8b"}, {"bike_id": "1f7a724d812bf189b873bbfead3d076c", "lat": 38.9297815, "is_disabled": 0, "lon": -77.02523483333333, "fusion_lon": 0.0, "is_reserved": 0, "fusion_lat": 0.0, "rental_uris": {"android": "https://dc.lft.to/lastmile_qr_scan", "ios": "https://dc.lft.to/lastmile_qr_scan"}, "type": "electric_scooter", "name": "1f7a724d812bf189b873bbfead3d076c"}, {"bike_id": "db729e8fc62657e3a1c4cabe877e922f", "lat": 38.91119783333333, "is_disabled": 0, "lon": -77.02221583333333, "fusion_lon": 0.0, "is_reserved": 0, "fusion_lat": 0.0, "rental_uris": {"android": "https://dc.lft.to/lastmile_qr_scan", "ios": "https://dc.lft.to/lastmile_qr_scan"}, "type": "electric_scooter", "name": "db729e8fc62657e3a1c4cabe877e922f"}, {"bike_id": "6ec70abf93ebff4cfae6b8eee09f9e56", "lat": 38.87919183333333, "is_disabled": 0, "lon": -76.94321516666666, "fusion_lon": 0.0, "is_reserved": 0, "fusion_lat": 0.0, "rental_uris": {"android": "https://dc.lft.to/lastmile_qr_scan", "ios": "https://dc.lft.to/lastmile_qr_scan"}, "type": "electric_scooter", "name": "6ec70abf93ebff4cfae6b8eee09f9e56"}, {"bike_id": "a34b15a6b10f0d9d3deba8161b2e8411", "lat": 38.90052683333333, "is_disabled": 0, "lon": -76.998462, "fusion_lon": 0.0, "is_reserved": 0, "fusion_lat": 0.0, "rental_uris": {"android": "https://dc.lft.to/lastmile_qr_scan", "ios": "https://dc.lft.to/lastmile_qr_scan"}, "type": "electric_scooter", "name": "a34b15a6b10f0d9d3deba8161b2e8411"}, {"bike_id": "20f90a5de7e5a46135009bb57d54fe43", "lat": 38.91690833333333, "is_disabled": 0, "lon": -77.02595633333334, "fusion_lon": 0.0, "is_reserved": 0, "fusion_lat": 0.0, "rental_uris": {"android": "https://dc.lft.to/lastmile_qr_scan", "ios": "https://dc.lft.to/lastmile_qr_scan"}, "type": "electric_scooter", "name": "20f90a5de7e5a46135009bb57d54fe43"}, {"bike_id": "9edf536874893ad67f5131e5025c8bd5", "lat": 38.921065666666664, "is_disabled": 0, "lon": -77.01755133333333, "fusion_lon": 0.0, "is_reserved": 0, "fusion_lat": 0.0, "rental_uris": {"android": "https://dc.lft.to/lastmile_qr_scan", "ios": "https://dc.lft.to/lastmile_qr_scan"}, "type": "electric_scooter", "name": "9edf536874893ad67f5131e5025c8bd5"}, {"bike_id": "12015706d59b0a87c9170f417eae17dc", "lat": 38.92457783333333, "is_disabled": 0, "lon": -77.0403975, "fusion_lon": 0.0, "is_reserved": 0, "fusion_lat": 0.0, "rental_uris": {"android": "https://dc.lft.to/lastmile_qr_scan", "ios": "https://dc.lft.to/lastmile_qr_scan"}, "type": "electric_scooter", "name": "12015706d59b0a87c9170f417eae17dc"}, {"bike_id": "fd39c1f004afb8e09613a481b59c48f1", "lat": 38.917311166666664, "is_disabled": 0, "lon": -77.02714016666667, "fusion_lon": 0.0, "is_reserved": 0, "fusion_lat": 0.0, "rental_uris": {"android": "https://dc.lft.to/lastmile_qr_scan", "ios": "https://dc.lft.to/lastmile_qr_scan"}, "type": "electric_scooter", "name": "fd39c1f004afb8e09613a481b59c48f1"}, {"bike_id": "92fab5f9380b3c90295ca8c6b3e9fce3", "lat": 38.8073785, "is_disabled": 0, "lon": -77.09722983333333, "fusion_lon": 0.0, "is_reserved": 0, "fusion_lat": 0.0, "rental_uris": {"android": "https://dc.lft.to/lastmile_qr_scan", "ios": "https://dc.lft.to/lastmile_qr_scan"}, "type": "electric_bike", "name": "92fab5f9380b3c90295ca8c6b3e9fce3"}, {"bike_id": "c1f3961ff35c2dff3df1f1f0109bea1d", "lat": 38.88196633333333, "is_disabled": 0, "lon": -77.02196616666667, "fusion_lon": 0.0, "is_reserved": 0, "fusion_lat": 0.0, "rental_uris": {"android": "https://dc.lft.to/lastmile_qr_scan", "ios": "https://dc.lft.to/lastmile_qr_scan"}, "type": "electric_scooter", "name": "c1f3961ff35c2dff3df1f1f0109bea1d"}, {"bike_id": "260f36e89a6ed4cffc00270457c35fd5", "lat": 38.916126166666665, "is_disabled": 0, "lon": -77.04875683333333, "fusion_lon": 0.0, "is_reserved": 0, "fusion_lat": 0.0, "rental_uris": {"android": "https://dc.lft.to/lastmile_qr_scan", "ios": "https://dc.lft.to/lastmile_qr_scan"}, "type": "electric_scooter", "name": "260f36e89a6ed4cffc00270457c35fd5"}, {"bike_id": "8bdfaeae6157aa512e23ed6f176cb913", "lat": 38.86265233333334, "is_disabled": 0, "lon": -76.98349466666667, "fusion_lon": 0.0, "is_reserved": 0, "fusion_lat": 0.0, "rental_uris": {"android": "https://dc.lft.to/lastmile_qr_scan", "ios": "https://dc.lft.to/lastmile_qr_scan"}, "type": "electric_bike", "name": "8bdfaeae6157aa512e23ed6f176cb913"}, {"bike_id": "538937c2c64a4e83616509da10104850", "lat": 38.920563666666666, "is_disabled": 0, "lon": -77.02358566666666, "fusion_lon": 0.0, "is_reserved": 0, "fusion_lat": 0.0, "rental_uris": {"android": "https://dc.lft.to/lastmile_qr_scan", "ios": "https://dc.lft.to/lastmile_qr_scan"}, "type": "electric_scooter", "name": "538937c2c64a4e83616509da10104850"}, {"bike_id": "e78ebd9782f7ea01dd22233ceed6a600", "lat": 38.956612166666666, "is_disabled": 0, "lon": -77.01317533333334, "fusion_lon": 0.0, "is_reserved": 0, "fusion_lat": 0.0, "rental_uris": {"android": "https://dc.lft.to/lastmile_qr_scan", "ios": "https://dc.lft.to/lastmile_qr_scan"}, "type": "electric_bike", "name": "e78ebd9782f7ea01dd22233ceed6a600"}, {"bike_id": "6aeaaa17295e444dd9dfc077302689d9", "lat": 38.932831666666665, "is_disabled": 0, "lon": -77.0370145, "fusion_lon": 0.0, "is_reserved": 0, "fusion_lat": 0.0, "rental_uris": {"android": "https://dc.lft.to/lastmile_qr_scan", "ios": "https://dc.lft.to/lastmile_qr_scan"}, "type": "electric_scooter", "name": "6aeaaa17295e444dd9dfc077302689d9"}, {"bike_id": "7470f51a27cc4762dcf0c2b6250c3241", "lat": 38.92012066666667, "is_disabled": 0, "lon": -77.0320275, "fusion_lon": 0.0, "is_reserved": 0, "fusion_lat": 0.0, "rental_uris": {"android": "https://dc.lft.to/lastmile_qr_scan", "ios": "https://dc.lft.to/lastmile_qr_scan"}, "type": "electric_scooter", "name": "7470f51a27cc4762dcf0c2b6250c3241"}, {"bike_id": "c697bcb5261a03f268745aa68fdf86b3", "lat": 38.93349166666667, "is_disabled": 0, "lon": -77.05705166666667, "fusion_lon": 0.0, "is_reserved": 0, "fusion_lat": 0.0, "rental_uris": {"android": "https://dc.lft.to/lastmile_qr_scan", "ios": "https://dc.lft.to/lastmile_qr_scan"}, "type": "electric_scooter", "name": "c697bcb5261a03f268745aa68fdf86b3"}, {"bike_id": "79fa2cbd5743187b83f714e33e388447", "lat": 38.909035333333335, "is_disabled": 0, "lon": -77.03193433333334, "fusion_lon": 0.0, "is_reserved": 0, "fusion_lat": 0.0, "rental_uris": {"android": "https://dc.lft.to/lastmile_qr_scan", "ios": "https://dc.lft.to/lastmile_qr_scan"}, "type": "electric_scooter", "name": "79fa2cbd5743187b83f714e33e388447"}, {"bike_id": "884315c1031805c72c8f2de89565a25c", "lat": 38.90989166666667, "is_disabled": 0, "lon": -77.0383535, "fusion_lon": 0.0, "is_reserved": 0, "fusion_lat": 0.0, "rental_uris": {"android": "https://dc.lft.to/lastmile_qr_scan", "ios": "https://dc.lft.to/lastmile_qr_scan"}, "type": "electric_scooter", "name": "884315c1031805c72c8f2de89565a25c"}, {"bike_id": "61254a90907ec7fcfc5aa4c1c94c1df8", "lat": 38.9058775, "is_disabled": 0, "lon": -77.06521583333334, "fusion_lon": 0.0, "is_reserved": 0, "fusion_lat": 0.0, "rental_uris": {"android": "https://dc.lft.to/lastmile_qr_scan", "ios": "https://dc.lft.to/lastmile_qr_scan"}, "type": "electric_scooter", "name": "61254a90907ec7fcfc5aa4c1c94c1df8"}, {"bike_id": "11fb75c747de734523f7f7d18a8db4b2", "lat": 38.8929955, "is_disabled": 0, "lon": -76.95091366666666, "fusion_lon": 0.0, "is_reserved": 0, "fusion_lat": 0.0, "rental_uris": {"android": "https://dc.lft.to/lastmile_qr_scan", "ios": "https://dc.lft.to/lastmile_qr_scan"}, "type": "electric_scooter", "name": "11fb75c747de734523f7f7d18a8db4b2"}, {"bike_id": "69d228cde728f044147cc7b1d486d96e", "lat": 38.922716666666666, "is_disabled": 0, "lon": -77.0191545, "fusion_lon": 0.0, "is_reserved": 0, "fusion_lat": 0.0, "rental_uris": {"android": "https://dc.lft.to/lastmile_qr_scan", "ios": "https://dc.lft.to/lastmile_qr_scan"}, "type": "electric_scooter", "name": "69d228cde728f044147cc7b1d486d96e"}, {"bike_id": "fed631f88b7e25bbc382bd6d3fdab6de", "lat": 38.905138666666666, "is_disabled": 0, "lon": -77.059191, "fusion_lon": 0.0, "is_reserved": 0, "fusion_lat": 0.0, "rental_uris": {"android": "https://dc.lft.to/lastmile_qr_scan", "ios": "https://dc.lft.to/lastmile_qr_scan"}, "type": "electric_scooter", "name": "fed631f88b7e25bbc382bd6d3fdab6de"}, {"bike_id": "2ae2bbfb7ac7ecbe1e324e98e6f9c548", "lat": 38.928455166666666, "is_disabled": 0, "lon": -77.032696, "fusion_lon": 0.0, "is_reserved": 0, "fusion_lat": 0.0, "rental_uris": {"android": "https://dc.lft.to/lastmile_qr_scan", "ios": "https://dc.lft.to/lastmile_qr_scan"},