{"data": {"bikes": [{"is_disabled": 0, "fusion_lon": 0.0, "fusion_lat": 0.0, "lat": 38.865007166666665, "type": "electric_scooter", "lon": -76.99002166666666, "bike_id": "7e4bfbe6ec8cfa204cb73950f5b68015", "rental_uris": {"android": "https://dc.lft.to/lastmile_qr_scan", "ios": "https://dc.lft.to/lastmile_qr_scan"}, "name": "7e4bfbe6ec8cfa204cb73950f5b68015", "is_reserved": 0}, {"is_disabled": 0, "fusion_lon": 0.0, "fusion_lat": 0.0, "lat": 38.992234333333336, "type": "electric_bike", "lon": -76.8777445, "bike_id": "0de9a1338af92c1e9391bdabc2a90e09", "rental_uris": {"android": "https://dc.lft.to/lastmile_qr_scan", "ios": "https://dc.lft.to/lastmile_qr_scan"}, "name": "0de9a1338af92c1e9391bdabc2a90e09", "is_reserved": 0}, {"is_disabled": 0, "fusion_lon": 0.0, "fusion_lat": 0.0, "lat": 38.928998166666666, "type": "electric_scooter", "lon": -77.0163615, "bike_id": "376723217b7039aed10fc4a9151ea8a6", "rental_uris": {"android": "https://dc.lft.to/lastmile_qr_scan", "ios": "https://dc.lft.to/lastmile_qr_scan"}, "name": "376723217b7039aed10fc4a9151ea8a6", "is_reserved": 0}, {"is_disabled": 0, "fusion_lon": 0.0, "fusion_lat": 0.0, "lat": 38.887369666666665, "type": "electric_scooter", "lon": -77.028612, "bike_id": "f58dd25977711a518877d188c9c0b45f", "rental_uris": {"android": "https://dc.lft.to/lastmile_qr_scan", "ios": "https://dc.lft.to/lastmile_qr_scan"}, "name": "f58dd25977711a518877d188c9c0b45f", "is_reserved": 0}, {"is_disabled": 0, "fusion_lon": 0.0, "fusion_lat": 0.0, "lat": 38.907740833333335, "type": "electric_scooter", "lon": -77.03241766666666, "bike_id": "e6a60fc7e9001ea5bee0613257ffc925", "rental_uris": {"android": "https://dc.lft.to/lastmile_qr_scan", "ios": "https://dc.lft.to/lastmile_qr_scan"}, "name": "e6a60fc7e9001ea5bee0613257ffc925", "is_reserved": 0}, {"is_disabled": 0, "fusion_lon": 0.0, "fusion_lat": 0.0, "lat": 38.90721116666667, "type": "electric_scooter", "lon": -77.02369933333334, "bike_id": "efabffd5f14698d7e7b799dc3311949d", "rental_uris": {"android": "https://dc.lft.to/lastmile_qr_scan", "ios": "https://dc.lft.to/lastmile_qr_scan"}, "name": "efabffd5f14698d7e7b799dc3311949d", "is_reserved": 0}, {"is_disabled": 0, "fusion_lon": 0.0, "fusion_lat": 0.0, "lat": 38.88966, "type": "electric_bike", "lon": -76.948641, "bike_id": "1a160ebf2697c40202c8102e6b7f2c94", "rental_uris": {"android": "https://dc.lft.to/lastmile_qr_scan", "ios": "https://dc.lft.to/lastmile_qr_scan"}, "name": "1a160ebf2697c40202c8102e6b7f2c94", "is_reserved": 0}, {"is_disabled": 0, "fusion_lon": 0.0, "fusion_lat": 0.0, "lat": 38.97571383333333, "type": "electric_bike", "lon": -76.96405533333333, "bike_id": "818bf4fc2ecdc8504ed584c62a276700", "rental_uris": {"android": "https://dc.lft.to/lastmile_qr_scan", "ios": "https://dc.lft.to/lastmile_qr_scan"}, "name": "818bf4fc2ecdc8504ed584c62a276700", "is_reserved": 0}, {"is_disabled": 0, "fusion_lon": 0.0, "fusion_lat": 0.0, "lat": 38.903821, "type": "electric_scooter", "lon": -77.04362083333334, "bike_id": "a98df66d67534cecf1911de70909d113", "rental_uris": {"android": "https://dc.lft.to/lastmile_qr_scan", "ios": "https://dc.lft.to/lastmile_qr_scan"}, "name": "a98df66d67534cecf1911de70909d113", "is_reserved": 0}, {"is_disabled": 0, "fusion_lon": 0.0, "fusion_lat": 0.0, "lat": 38.88826233333333, "type": "electric_bike", "lon": -77.12741183333333, "bike_id": "e1993501b249bc72236c1da21736984f", "rental_uris": {"android": "https://dc.lft.to/lastmile_qr_scan", "ios": "https://dc.lft.to/lastmile_qr_scan"}, "name": "e1993501b249bc72236c1da21736984f", "is_reserved": 0}, {"is_disabled": 0, "fusion_lon": 0.0, "fusion_lat": 0.0, "lat": 38.89217433333334, "type": "electric_scooter", "lon": -77.022195, "bike_id": "dcf09bd80d12e868dc3b13b7209cdd92", "rental_uris": {"android": "https://dc.lft.to/lastmile_qr_scan", "ios": "https://dc.lft.to/lastmile_qr_scan"}, "name": "dcf09bd80d12e868dc3b13b7209cdd92", "is_reserved": 0}, {"is_disabled": 0, "fusion_lon": 0.0, "fusion_lat": 0.0, "lat": 38.89528333333333, "type": "electric_scooter", "lon": -77.032132, "bike_id": "93520a4e9168d755795b23353b41254e", "rental_uris": {"android": "https://dc.lft.to/lastmile_qr_scan", "ios": "https://dc.lft.to/lastmile_qr_scan"}, "name": "93520a4e9168d755795b23353b41254e", "is_reserved": 0}, {"is_disabled": 0, "fusion_lon": 0.0, "fusion_lat": 0.0, "lat": 38.921220166666664, "type": "electric_scooter", "lon": -77.0438205, "bike_id": "8ffe28df09991eae987b28d787a4346c", "rental_uris": {"android": "https://dc.lft.to/lastmile_qr_scan", "ios": "https://dc.lft.to/lastmile_qr_scan"}, "name": "8ffe28df09991eae987b28d787a4346c", "is_reserved": 0}, {"is_disabled": 0, "fusion_lon": 0.0, "fusion_lat": 0.0, "lat": 38.906557, "type": "electric_scooter", "lon": -77.0091235, "bike_id": "910f9fea611a3a5efc46e9c2d1e485ba", "rental_uris": {"android": "https://dc.lft.to/lastmile_qr_scan", "ios": "https://dc.lft.to/lastmile_qr_scan"}, "name": "910f9fea611a3a5efc46e9c2d1e485ba", "is_reserved": 0}, {"is_disabled": 0, "fusion_lon": 0.0, "fusion_lat": 0.0, "lat": 38.901922, "type": "electric_scooter", "lon": -77.05056416666666, "bike_id": "2cdb09d018a4a0227657cbca34c6f5bf", "rental_uris": {"android": "https://dc.lft.to/lastmile_qr_scan", "ios": "https://dc.lft.to/lastmile_qr_scan"}, "name": "2cdb09d018a4a0227657cbca34c6f5bf", "is_reserved": 0}, {"is_disabled": 0, "fusion_lon": 0.0, "fusion_lat": 0.0, "lat": 38.924384333333336, "type": "electric_scooter", "lon": -77.02611466666667, "bike_id": "47b5e77c85a3202127a9c21697371221", "rental_uris": {"android": "https://dc.lft.to/lastmile_qr_scan", "ios": "https://dc.lft.to/lastmile_qr_scan"}, "name": "47b5e77c85a3202127a9c21697371221", "is_reserved": 0}, {"is_disabled": 0, "fusion_lon": 0.0, "fusion_lat": 0.0, "lat": 38.906280833333334, "type": "electric_scooter", "lon": -77.0388525, "bike_id": "f01056030a52acd77c19ddb10e709283", "rental_uris": {"android": "https://dc.lft.to/lastmile_qr_scan", "ios": "https://dc.lft.to/lastmile_qr_scan"}, "name": "f01056030a52acd77c19ddb10e709283", "is_reserved": 0}, {"is_disabled": 0, "fusion_lon": 0.0, "fusion_lat": 0.0, "lat": 38.923803666666664, "type": "electric_scooter", "lon": -77.02904216666667, "bike_id": "2861b7b20dc8ad7fe45f3d5d4d3b2e37", "rental_uris": {"android": "https://dc.lft.to/lastmile_qr_scan", "ios": "https://dc.lft.to/lastmile_qr_scan"}, "name": "2861b7b20dc8ad7fe45f3d5d4d3b2e37", "is_reserved": 0}, {"is_disabled": 0, "fusion_lon": 0.0, "fusion_lat": 0.0, "lat": 38.8964925, "type": "electric_scooter", "lon": -77.05018733333333, "bike_id": "23db27f16ba1a3055c3bcf0d460752aa", "rental_uris": {"android": "https://dc.lft.to/lastmile_qr_scan", "ios": "https://dc.lft.to/lastmile_qr_scan"}, "name": "23db27f16ba1a3055c3bcf0d460752aa", "is_reserved": 0}, {"is_disabled": 0, "fusion_lon": 0.0, "fusion_lat": 0.0, "lat": 38.96732266666667, "type": "electric_scooter", "lon": -77.027585, "bike_id": "b8cd8fbb32b69b9fea462a6abdd49c80", "rental_uris": {"android": "https://dc.lft.to/lastmile_qr_scan", "ios": "https://dc.lft.to/lastmile_qr_scan"}, "name": "b8cd8fbb32b69b9fea462a6abdd49c80", "is_reserved": 0}, {"is_disabled": 0, "fusion_lon": 0.0, "fusion_lat": 0.0, "lat": 38.91216333333333, "type": "electric_scooter", "lon": -77.0271975, "bike_id": "2d70581b5e49739a063817de84051380", "rental_uris": {"android": "https://dc.lft.to/lastmile_qr_scan", "ios": "https://dc.lft.to/lastmile_qr_scan"}, "name": "2d70581b5e49739a063817de84051380", "is_reserved": 0}, {"is_disabled": 0, "fusion_lon": 0.0, "fusion_lat": 0.0, "lat": 38.9024, "type": "electric_scooter", "lon": -77.02418616666667, "bike_id": "4f90fb6b4fc0fea545ca127deacc1b31", "rental_uris": {"android": "https://dc.lft.to/lastmile_qr_scan", "ios": "https://dc.lft.to/lastmile_qr_scan"}, "name": "4f90fb6b4fc0fea545ca127deacc1b31", "is_reserved": 0}, {"is_disabled": 0, "fusion_lon": 0.0, "fusion_lat": 0.0, "lat": 38.893946, "type": "electric_scooter", "lon": -76.95001033333334, "bike_id": "8ed697212f4f30bd340ed67043e44d76", "rental_uris": {"android": "https://dc.lft.to/lastmile_qr_scan", "ios": "https://dc.lft.to/lastmile_qr_scan"}, "name": "8ed697212f4f30bd340ed67043e44d76", "is_reserved": 0}, {"is_disabled": 0, "fusion_lon": 0.0, "fusion_lat": 0.0, "lat": 38.865338, "type": "electric_scooter", "lon": -76.98710083333333, "bike_id": "6923bac2cee331c6329748febb4781cd", "rental_uris": {"android": "https://dc.lft.to/lastmile_qr_scan", "ios": "https://dc.lft.to/lastmile_qr_scan"}, "name": "6923bac2cee331c6329748febb4781cd", "is_reserved": 0}, {"is_disabled": 0, "fusion_lon": 0.0, "fusion_lat": 0.0, "lat": 38.90042616666667, "type": "electric_scooter", "lon": -77.00196566666666, "bike_id": "b26229cec89f3c3306e50baa004ac3c7", "rental_uris": {"android": "https://dc.lft.to/lastmile_qr_scan", "ios": "https://dc.lft.to/lastmile_qr_scan"}, "name": "b26229cec89f3c3306e50baa004ac3c7", "is_reserved": 0}, {"is_disabled": 0, "fusion_lon": 0.0, "fusion_lat": 0.0, "lat": 38.865017, "type": "electric_scooter", "lon": -76.99005783333334, "bike_id": "5b93a83d6c0cbec8116534a5795b0155", "rental_uris": {"android": "https://dc.lft.to/lastmile_qr_scan", "ios": "https://dc.lft.to/lastmile_qr_scan"}, "name": "5b93a83d6c0cbec8116534a5795b0155", "is_reserved": 0}, {"is_disabled": 0, "fusion_lon": 0.0, "fusion_lat": 0.0, "lat": 38.93342483333333, "type": "electric_scooter", "lon": -77.059479, "bike_id": "38697a687a72f001adb02cec78cb8f20", "rental_uris": {"android": "https://dc.lft.to/lastmile_qr_scan", "ios": "https://dc.lft.to/lastmile_qr_scan"}, "name": "38697a687a72f001adb02cec78cb8f20", "is_reserved": 0}, {"is_disabled": 0, "fusion_lon": 0.0, "fusion_lat": 0.0, "lat": 38.910708, "type": "electric_scooter", "lon": -77.0416025, "bike_id": "17b6f125584a7200b776395780747304", "rental_uris": {"android": "https://dc.lft.to/lastmile_qr_scan", "ios": "https://dc.lft.to/lastmile_qr_scan"}, "name": "17b6f125584a7200b776395780747304", "is_reserved": 0}, {"is_disabled": 0, "fusion_lon": 0.0, "fusion_lat": 0.0, "lat": 38.90503283333334, "type": "electric_scooter", "lon": -77.05392216666667, "bike_id": "48862e2e63a8702376e91d121e5ee775", "rental_uris": {"android": "https://dc.lft.to/lastmile_qr_scan", "ios": "https://dc.lft.to/lastmile_qr_scan"}, "name": "48862e2e63a8702376e91d121e5ee775", "is_reserved": 0}, {"is_disabled": 0, "fusion_lon": 0.0, "fusion_lat": 0.0, "lat": 38.911764, "type": "electric_scooter", "lon": -77.039201, "bike_id": "e99faddd76e98bbfca29489677f38d52", "rental_uris": {"android": "https://dc.lft.to/lastmile_qr_scan", "ios": "https://dc.lft.to/lastmile_qr_scan"}, "name": "e99faddd76e98bbfca29489677f38d52", "is_reserved": 0}, {"is_disabled": 0, "fusion_lon": 0.0, "fusion_lat": 0.0, "lat": 38.911926, "type": "electric_scooter", "lon": -77.0416195, "bike_id": "b070dbc9968d32d5757ffe2a9d4a205d", "rental_uris": {"android": "https://dc.lft.to/lastmile_qr_scan", "ios": "https://dc.lft.to/lastmile_qr_scan"}, "name": "b070dbc9968d32d5757ffe2a9d4a205d", "is_reserved": 0}, {"is_disabled": 0, "fusion_lon": 0.0, "fusion_lat": 0.0, "lat": 38.867285, "type": "electric_scooter", "lon": -76.97940416666667, "bike_id": "f757feb98033a2703b13f5dd2a1f8cbd", "rental_uris": {"android": "https://dc.lft.to/lastmile_qr_scan", "ios": "https://dc.lft.to/lastmile_qr_scan"}, "name": "f757feb98033a2703b13f5dd2a1f8cbd", "is_reserved": 0}, {"is_disabled": 0, "fusion_lon": 0.0, "fusion_lat": 0.0, "lat": 38.923177833333334, "type": "electric_scooter", "lon": -77.046207, "bike_id": "5531f8c9851be314d58028017052d9a6", "rental_uris": {"android": "https://dc.lft.to/lastmile_qr_scan", "ios": "https://dc.lft.to/lastmile_qr_scan"}, "name": "5531f8c9851be314d58028017052d9a6", "is_reserved": 0}, {"is_disabled": 0, "fusion_lon": 0.0, "fusion_lat": 0.0, "lat": 38.9035865, "type": "electric_scooter", "lon": -77.04515833333333, "bike_id": "50284a0e19d8d7198f2e8458fa0673fe", "rental_uris": {"android": "https://dc.lft.to/lastmile_qr_scan", "ios": "https://dc.lft.to/lastmile_qr_scan"}, "name": "50284a0e19d8d7198f2e8458fa0673fe", "is_reserved": 0}, {"is_disabled": 0, "fusion_lon": 0.0, "fusion_lat": 0.0, "lat": 38.924381, "type": "electric_scooter", "lon": -77.03534083333334, "bike_id": "0d1115ba9a4fa85ea912bfb99dd12277", "rental_uris": {"android": "https://dc.lft.to/lastmile_qr_scan", "ios": "https://dc.lft.to/lastmile_qr_scan"}, "name": "0d1115ba9a4fa85ea912bfb99dd12277", "is_reserved": 0}, {"is_disabled": 0, "fusion_lon": 0.0, "fusion_lat": 0.0, "lat": 38.931809666666666, "type": "electric_scooter", "lon": -77.02353716666667, "bike_id": "f704383f59a54816410dbb250218b3c1", "rental_uris": {"android": "https://dc.lft.to/lastmile_qr_scan", "ios": "https://dc.lft.to/lastmile_qr_scan"}, "name": "f704383f59a54816410dbb250218b3c1", "is_reserved": 0}, {"is_disabled": 0, "fusion_lon": 0.0, "fusion_lat": 0.0, "lat": 38.89882566666667, "type": "electric_scooter", "lon": -77.03264866666666, "bike_id": "e86ef07a1394914bef3bdfbc60e55540", "rental_uris": {"android": "https://dc.lft.to/lastmile_qr_scan", "ios": "https://dc.lft.to/lastmile_qr_scan"}, "name": "e86ef07a1394914bef3bdfbc60e55540", "is_reserved": 0}, {"is_disabled": 0, "fusion_lon": 0.0, "fusion_lat": 0.0, "lat": 38.92141133333333, "type": "electric_scooter", "lon": -77.02961666666667, "bike_id": "d42d17f570b5a65f7b628c51b7817666", "rental_uris": {"android": "https://dc.lft.to/lastmile_qr_scan", "ios": "https://dc.lft.to/lastmile_qr_scan"}, "name": "d42d17f570b5a65f7b628c51b7817666", "is_reserved": 0}, {"is_disabled": 0, "fusion_lon": 0.0, "fusion_lat": 0.0, "lat": 38.885360666666664, "type": "electric_scooter", "lon": -76.92704783333333, "bike_id": "463678e2c6639d34151e1ebeb51c4ba6", "rental_uris": {"android": "https://dc.lft.to/lastmile_qr_scan", "ios": "https://dc.lft.to/lastmile_qr_scan"}, "name": "463678e2c6639d34151e1ebeb51c4ba6", "is_reserved": 0}, {"is_disabled": 0, "fusion_lon": 0.0, "fusion_lat": 0.0, "lat": 38.89937033333333, "type": "electric_scooter", "lon": -77.02783433333333, "bike_id": "96736df376144a32a8e471c8a65da6d6", "rental_uris": {"android": "https://dc.lft.to/lastmile_qr_scan", "ios": "https://dc.lft.to/lastmile_qr_scan"}, "name": "96736df376144a32a8e471c8a65da6d6", "is_reserved": 0}, {"is_disabled": 0, "fusion_lon": 0.0, "fusion_lat": 0.0, "lat": 38.93331283333333, "type": "electric_scooter", "lon": -77.041335, "bike_id": "deb7e81ab15b14bb845a65118c4d840b", "rental_uris": {"android": "https://dc.lft.to/lastmile_qr_scan", "ios": "https://dc.lft.to/lastmile_qr_scan"}, "name": "deb7e81ab15b14bb845a65118c4d840b", "is_reserved": 0}, {"is_disabled": 0, "fusion_lon": 0.0, "fusion_lat": 0.0, "lat": 38.926025, "type": "electric_scooter", "lon": -77.02418983333334, "bike_id": "d4e48af889e951cf443d5cdfc29de7d4", "rental_uris": {"android": "https://dc.lft.to/lastmile_qr_scan", "ios": "https://dc.lft.to/lastmile_qr_scan"}, "name": "d4e48af889e951cf443d5cdfc29de7d4", "is_reserved": 0}, {"is_disabled": 0, "fusion_lon": 0.0, "fusion_lat": 0.0, "lat": 38.91186883333334, "type": "electric_scooter", "lon": -77.0019515, "bike_id": "376a5e101d1d90c6ebc7314ec1db6778", "rental_uris": {"android": "https://dc.lft.to/lastmile_qr_scan", "ios": "https://dc.lft.to/lastmile_qr_scan"}, "name": "376a5e101d1d90c6ebc7314ec1db6778", "is_reserved": 0}, {"is_disabled": 0, "fusion_lon": 0.0, "fusion_lat": 0.0, "lat": 38.91564483333333, "type": "electric_scooter", "lon": -77.04696783333333, "bike_id": "ac2fe23859f55cf9e72f27c0baf6f393", "rental_uris": {"android": "https://dc.lft.to/lastmile_qr_scan", "ios": "https://dc.lft.to/lastmile_qr_scan"}, "name": "ac2fe23859f55cf9e72f27c0baf6f393", "is_reserved": 0}, {"is_disabled": 0, "fusion_lon": 0.0, "fusion_lat": 0.0, "lat": 38.91264533333333, "type": "electric_scooter", "lon": -77.04156433333333, "bike_id": "253373366d7210de316b46fb64a747fd", "rental_uris": {"android": "https://dc.lft.to/lastmile_qr_scan", "ios": "https://dc.lft.to/lastmile_qr_scan"}, "name": "253373366d7210de316b46fb64a747fd", "is_reserved": 0}, {"is_disabled": 0, "fusion_lon": 0.0, "fusion_lat": 0.0, "lat": 38.92980383333333, "type": "electric_scooter", "lon": -77.02590716666667, "bike_id": "62245ad4fe91dbb8258d828d85880121", "rental_uris": {"android": "https://dc.lft.to/lastmile_qr_scan", "ios": "https://dc.lft.to/lastmile_qr_scan"}, "name": "62245ad4fe91dbb8258d828d85880121", "is_reserved": 0}, {"is_disabled": 0, "fusion_lon": 0.0, "fusion_lat": 0.0, "lat": 38.9057235, "type": "electric_scooter", "lon": -77.00594666666667, "bike_id": "acb127b9904a3a095650c5c2a720758a", "rental_uris": {"android": "https://dc.lft.to/lastmile_qr_scan", "ios": "https://dc.lft.to/lastmile_qr_scan"}, "name": "acb127b9904a3a095650c5c2a720758a", "is_reserved": 0}, {"is_disabled": 0, "fusion_lon": 0.0, "fusion_lat": 0.0, "lat": 38.91815316666667, "type": "electric_scooter", "lon": -77.01397516666667, "bike_id": "474f63c718217f761bae8c7b9fbc2415", "rental_uris": {"android": "https://dc.lft.to/lastmile_qr_scan", "ios": "https://dc.lft.to/lastmile_qr_scan"}, "name": "474f63c718217f761bae8c7b9fbc2415", "is_reserved": 0}, {"is_disabled": 0, "fusion_lon": 0.0, "fusion_lat": 0.0, "lat": 38.919052666666666, "type": "electric_scooter", "lon": -77.01748233333333, "bike_id": "1187d5a8a067e50db1a809d31b1a28d9", "rental_uris": {"android": "https://dc.lft.to/lastmile_qr_scan", "ios": "https://dc.lft.to/lastmile_qr_scan"}, "name": "1187d5a8a067e50db1a809d31b1a28d9", "is_reserved": 0}, {"is_disabled": 0, "fusion_lon": 0.0, "fusion_lat": 0.0, "lat": 38.9204775, "type": "electric_scooter", "lon": -77.02610266666667, "bike_id": "791c0ab345f13d7919f0897ec1ea6969", "rental_uris": {"android": "https://dc.lft.to/lastmile_qr_scan", "ios": "https://dc.lft.to/lastmile_qr_scan"}, "name": "791c0ab345f13d7919f0897ec1ea6969", "is_reserved": 0}, {"is_disabled": 0, "fusion_lon": 0.0, "fusion_lat": 0.0, "lat": 38.89627566666667, "type": "electric_scooter", "lon": -77.02796816666667, "bike_id": "b6a5cc0238686bd0b86eebd9d2427511", "rental_uris": {"android": "https://dc.lft.to/lastmile_qr_scan", "ios": "https://dc.lft.to/lastmile_qr_scan"}, "name": "b6a5cc0238686bd0b86eebd9d2427511", "is_reserved": 0}, {"is_disabled": 0, "fusion_lon": 0.0, "fusion_lat": 0.0, "lat": 38.862090333333335, "type": "electric_scooter", "lon": -76.99473583333334, "bike_id": "566258ab07e43d1b7573d7a909ce99d9", "rental_uris": {"android": "https://dc.lft.to/lastmile_qr_scan", "ios": "https://dc.lft.to/lastmile_qr_scan"}, "name": "566258ab07e43d1b7573d7a909ce99d9", "is_reserved": 0}, {"is_disabled": 0, "fusion_lon": 0.0, "fusion_lat": 0.0, "lat": 38.9036105, "type": "electric_scooter", "lon": -77.06268516666667, "bike_id": "0e67f87c47629cc5786a13e0d523dfa9", "rental_uris": {"android": "https://dc.lft.to/lastmile_qr_scan", "ios": "https://dc.lft.to/lastmile_qr_scan"}, "name": "0e67f87c47629cc5786a13e0d523dfa9", "is_reserved": 0}, {"is_disabled": 0, "fusion_lon": 0.0, "fusion_lat": 0.0, "lat": 38.90552533333333, "type": "electric_scooter", "lon": -77.00393883333334, "bike_id": "a320b9481944e270200b7dd895f5ea18", "rental_uris": {"android": "https://dc.lft.to/lastmile_qr_scan", "ios": "https://dc.lft.to/lastmile_qr_scan"}, "name": "a320b9481944e270200b7dd895f5ea18", "is_reserved": 0}, {"is_disabled": 0, "fusion_lon": 0.0, "fusion_lat": 0.0, "lat": 38.8870555, "type": "electric_scooter", "lon": -77.01365, "bike_id": "2c5d0aacce8ea49b8d4f2779fff0600b", "rental_uris": {"android": "https://dc.lft.to/lastmile_qr_scan", "ios": "https://dc.lft.to/lastmile_qr_scan"}, "name": "2c5d0aacce8ea49b8d4f2779fff0600b", "is_reserved": 0}, {"is_disabled": 0, "fusion_lon": 0.0, "fusion_lat": 0.0, "lat": 38.9195805, "type": "electric_scooter", "lon": -77.0318635, "bike_id": "ff360e7cba1b1ee52d039269f14b2a46", "rental_uris": {"android": "https://dc.lft.to/lastmile_qr_scan", "ios": "https://dc.lft.to/lastmile_qr_scan"}, "name": "ff360e7cba1b1ee52d039269f14b2a46", "is_reserved": 0}, {"is_disabled": 0, "fusion_lon": 0.0, "fusion_lat": 0.0, "lat": 38.901126166666664, "type": "electric_scooter", "lon": -77.01779483333334, "bike_id": "80170050d2d64e3140a80fe35aa73361", "rental_uris": {"android": "https://dc.lft.to/lastmile_qr_scan", "ios": "https://dc.lft.to/lastmile_qr_scan"}, "name": "80170050d2d64e3140a80fe35aa73361", "is_reserved": 0}, {"is_disabled": 0, "fusion_lon": 0.0, "fusion_lat": 0.0, "lat": 38.9056875, "type": "electric_scooter", "lon": -77.00547, "bike_id": "832ef2956a0820f1f8ca2a5cf0045e3e", "rental_uris": {"android": "https://dc.lft.to/lastmile_qr_scan", "ios": "https://dc.lft.to/lastmile_qr_scan"}, "name": "832ef2956a0820f1f8ca2a5cf0045e3e", "is_reserved": 0}, {"is_disabled": 0, "fusion_lon": 0.0, "fusion_lat": 0.0, "lat": 38.90814916666667, "type": "electric_scooter", "lon": -77.0395015, "bike_id": "f63d67edcb47914b52c46abe6060eb2c", "rental_uris": {"android": "https://dc.lft.to/lastmile_qr_scan", "ios": "https://dc.lft.to/lastmile_qr_scan"}, "name": "f63d67edcb47914b52c46abe6060eb2c", "is_reserved": 0}, {"is_disabled": 0, "fusion_lon": 0.0, "fusion_lat": 0.0, "lat": 38.9083485, "type": "electric_scooter", "lon": -76.996953, "bike_id": "fde02f9970d763f202218a7d44d3074e", "rental_uris": {"android": "https://dc.lft.to/lastmile_qr_scan", "ios": "https://dc.lft.to/lastmile_qr_scan"}, "name": "fde02f9970d763f202218a7d44d3074e", "is_reserved": 0}, {"is_disabled": 0, "fusion_lon": 0.0, "fusion_lat": 0.0, "lat": 38.905988666666666, "type": "electric_scooter", "lon": -77.03943966666667, "bike_id": "d40d6444a6dfe3a14ba2f77d82b58db5", "rental_uris": {"android": "https://dc.lft.to/lastmile_qr_scan", "ios": "https://dc.lft.to/lastmile_qr_scan"}, "name": "d40d6444a6dfe3a14ba2f77d82b58db5", "is_reserved": 0}, {"is_disabled": 0, "fusion_lon": 0.0, "fusion_lat": 0.0, "lat": 38.84515566666666, "type": "electric_bike", "lon": -77.07800733333333, "bike_id": "91d5b731b8b8e57833bcbef9f6a5846d", "rental_uris": {"android": "https://dc.lft.to/lastmile_qr_scan", "ios": "https://dc.lft.to/lastmile_qr_scan"}, "name": "91d5b731b8b8e57833bcbef9f6a5846d", "is_reserved": 0}, {"is_disabled": 0, "fusion_lon": 0.0, "fusion_lat": 0.0, "lat": 38.924662833333336, "type": "electric_scooter", "lon": -77.02988516666667, "bike_id": "90b88e5e75eb6e27039799ecf72d25bb", "rental_uris": {"android": "https://dc.lft.to/lastmile_qr_scan", "ios": "https://dc.lft.to/lastmile_qr_scan"}, "name": "90b88e5e75eb6e27039799ecf72d25bb", "is_reserved": 0}, {"is_disabled": 0, "fusion_lon": 0.0, "fusion_lat": 0.0, "lat": 38.862393833333336, "type": "electric_scooter", "lon": -76.99493266666667, "bike_id": "1b4ae503e297f16e16891af4fee42afa", "rental_uris": {"android": "https://dc.lft.to/lastmile_qr_scan", "ios": "https://dc.lft.to/lastmile_qr_scan"}, "name": "1b4ae503e297f16e16891af4fee42afa", "is_reserved": 0}, {"is_disabled": 0, "fusion_lon": 0.0, "fusion_lat": 0.0, "lat": 38.894482833333335, "type": "electric_bike", "lon": -77.15827666666667, "bike_id": "a61a1254c35e67a81d02d2aec90979e2", "rental_uris": {"android": "https://dc.lft.to/lastmile_qr_scan", "ios": "https://dc.lft.to/lastmile_qr_scan"}, "name": "a61a1254c35e67a81d02d2aec90979e2", "is_reserved": 0}, {"is_disabled": 0, "fusion_lon": 0.0, "fusion_lat": 0.0, "lat": 38.921555166666664, "type": "electric_scooter", "lon": -77.0345235, "bike_id": "85d83fe51ee98abcba10918d74f51225", "rental_uris": {"android": "https://dc.lft.to/lastmile_qr_scan", "ios": "https://dc.lft.to/lastmile_qr_scan"}, "name": "85d83fe51ee98abcba10918d74f51225", "is_reserved": 0}, {"is_disabled": 0, "fusion_lon": 0.0, "fusion_lat": 0.0, "lat": 38.92500033333334, "type": "electric_scooter", "lon": -77.05220916666667, "bike_id": "4052f2bd11b720e26f08e4fb234e38f7", "rental_uris": {"android": "https://dc.lft.to/lastmile_qr_scan", "ios": "https://dc.lft.to/lastmile_qr_scan"}, "name": "4052f2bd11b720e26f08e4fb234e38f7", "is_reserved": 0}, {"is_disabled": 0, "fusion_lon": 0.0, "fusion_lat": 0.0, "lat": 38.911945, "type": "electric_scooter", "lon": -77.03858416666667, "bike_id": "94086362c6168a0e947467edb9a2ec55", "rental_uris": {"android": "https://dc.lft.to/lastmile_qr_scan", "ios": "https://dc.lft.to/lastmile_qr_scan"}, "name": "94086362c6168a0e947467edb9a2ec55", "is_reserved": 0}, {"is_disabled": 0, "fusion_lon": 0.0, "fusion_lat": 0.0, "lat": 38.935597333333334, "type": "electric_scooter", "lon": -77.03482483333333, "bike_id": "0deba4d4613fe5f2e1926eec3d7be46a", "rental_uris": {"android": "https://dc.lft.to/lastmile_qr_scan", "ios": "https://dc.lft.to/lastmile_qr_scan"}, "name": "0deba4d4613fe5f2e1926eec3d7be46a", "is_reserved": 0}, {"is_disabled": 0, "fusion_lon": 0.0, "fusion_lat": 0.0, "lat": 38.913222833333336, "type": "electric_scooter", "lon": -77.0318795, "bike_id": "ff0d0bdf958c00fd9737e717b4f44e4d", "rental_uris": {"android": "https://dc.lft.to/lastmile_qr_scan", "ios": "https://dc.lft.to/lastmile_qr_scan"}, "name": "ff0d0bdf958c00fd9737e717b4f44e4d", "is_reserved": 0}, {"is_disabled": 0, "fusion_lon": 0.0, "fusion_lat": 0.0, "lat": 38.839319833333334, "type": "electric_bike", "lon": -77.07897416666667, "bike_id": "511eb11ee9b129b049df28f2676e3d20", "rental_uris": {"android": "https://dc.lft.to/lastmile_qr_scan", "ios": "https://dc.lft.to/lastmile_qr_scan"}, "name": "511eb11ee9b129b049df28f2676e3d20", "is_reserved": 0}, {"is_disabled": 0, "fusion_lon": 0.0, "fusion_lat": 0.0, "lat": 38.914898666666666, "type": "electric_scooter", "lon": -76.98352733333333, "bike_id": "48a6c2a0295edc889c4a01d7ebb965c2", "rental_uris": {"android": "https://dc.lft.to/lastmile_qr_scan", "ios": "https://dc.lft.to/lastmile_qr_scan"}, "name": "48a6c2a0295edc889c4a01d7ebb965c2", "is_reserved": 0}, {"is_disabled": 0, "fusion_lon": 0.0, "fusion_lat": 0.0, "lat": 38.92841, "type": "electric_scooter", "lon": -77.05622683333333, "bike_id": "4bc433601bae8850e495435649ebc424", "rental_uris": {"android": "https://dc.lft.to/lastmile_qr_scan", "ios": "https://dc.lft.to/lastmile_qr_scan"}, "name": "4bc433601bae8850e495435649ebc424", "is_reserved": 0}, {"is_disabled": 0, "fusion_lon": 0.0, "fusion_lat": 0.0, "lat": 38.918585, "type": "electric_bike", "lon": -76.96085733333334, "bike_id": "85267322f7aff7bfdda88f538ee7de4c", "rental_uris": {"android": "https://dc.lft.to/lastmile_qr_scan", "ios": "https://dc.lft.to/lastmile_qr_scan"}, "name": "85267322f7aff7bfdda88f538ee7de4c", "is_reserved": 0}, {"is_disabled": 0, "fusion_lon": 0.0, "fusion_lat": 0.0, "lat": 38.905585, "type": "electric_scooter", "lon": -77.04674116666666, "bike_id": "6cd0d48f5dda7606672fd8553d3750fd", "rental_uris": {"android": "https://dc.lft.to/lastmile_qr_scan", "ios": "https://dc.lft.to/lastmile_qr_scan"}, "name": "6cd0d48f5dda7606672fd8553d3750fd", "is_reserved": 0}, {"is_disabled": 0, "fusion_lon": 0.0, "fusion_lat": 0.0, "lat": 38.900894666666666, "type": "electric_scooter", "lon": -77.0503205, "bike_id": "63458f7662a16fccd49b20af767793c8", "rental_uris": {"android": "https://dc.lft.to/lastmile_qr_scan", "ios": "https://dc.lft.to/lastmile_qr_scan"}, "name": "63458f7662a16fccd49b20af767793c8", "is_reserved": 0}, {"is_disabled": 0, "fusion_lon": 0.0, "fusion_lat": 0.0, "lat": 38.91086133333334, "type": "electric_scooter", "lon": -77.08771316666666, "bike_id": "e9a9f9a9c2623e1cfbda9f1872605ea4", "rental_uris": {"android": "https://dc.lft.to/lastmile_qr_scan", "ios": "https://dc.lft.to/lastmile_qr_scan"}, "name": "e9a9f9a9c2623e1cfbda9f1872605ea4", "is_reserved": 0}, {"is_disabled": 0, "fusion_lon": 0.0, "fusion_lat": 0.0, "lat": 38.907858, "type": "electric_scooter", "lon": -77.03831316666667, "bike_id": "6d77afee1ca2c3882de3d0954491ab35", "rental_uris": {"android": "https://dc.lft.to/lastmile_qr_scan", "ios": "https://dc.lft.to/lastmile_qr_scan"}, "name": "6d77afee1ca2c3882de3d0954491ab35", "is_reserved": 0}, {"is_disabled": 0, "fusion_lon": 0.0, "fusion_lat": 0.0, "lat": 38.917305999999996, "type": "electric_scooter", "lon": -76.9917965, "bike_id": "b216fe04b4b88f8dd47dbdcec9479b84", "rental_uris": {"android": "https://dc.lft.to/lastmile_qr_scan", "ios": "https://dc.lft.to/lastmile_qr_scan"}, "name": "b216fe04b4b88f8dd47dbdcec9479b84", "is_reserved": 0}, {"is_disabled": 0, "fusion_lon": 0.0, "fusion_lat": 0.0, "lat": 38.917913666666664, "type": "electric_scooter", "lon": -77.03450766666667, "bike_id": "9c5cb282137390ea388dd917afb15950", "rental_uris": {"android": "https://dc.lft.to/lastmile_qr_scan", "ios": "https://dc.lft.to/lastmile_qr_scan"}, "name": "9c5cb282137390ea388dd917afb15950", "is_reserved": 0}, {"is_disabled": 0, "fusion_lon": 0.0, "fusion_lat": 0.0, "lat": 38.8856535, "type": "electric_scooter", "lon": -77.00068016666667, "bike_id": "61b61b7d44366a51b029a83f6c779256", "rental_uris": {"android": "https://dc.lft.to/lastmile_qr_scan", "ios": "https://dc.lft.to/lastmile_qr_scan"}, "name": "61b61b7d44366a51b029a83f6c779256", "is_reserved": 0}, {"is_disabled": 0, "fusion_lon": 0.0, "fusion_lat": 0.0, "lat": 38.97054816666667, "type": "electric_bike", "lon": -76.96064716666666, "bike_id": "4d675bc2154654b11fc219c779e68200", "rental_uris": {"android": "https://dc.lft.to/lastmile_qr_scan", "ios": "https://dc.lft.to/lastmile_qr_scan"}, "name": "4d675bc2154654b11fc219c779e68200", "is_reserved": 0}, {"is_disabled": 0, "fusion_lon": 0.0, "fusion_lat": 0.0, "lat": 38.90005983333333, "type": "electric_scooter", "lon": -76.99592416666667, "bike_id": "08e44c739ac83f1db74c2efd553e78e0", "rental_uris": {"android": "https://dc.lft.to/lastmile_qr_scan", "ios": "https://dc.lft.to/lastmile_qr_scan"}, "name": "08e44c739ac83f1db74c2efd553e78e0", "is_reserved": 0}, {"is_disabled": 0, "fusion_lon": 0.0, "fusion_lat": 0.0, "lat": 38.915665833333335, "type": "electric_scooter", "lon": -77.04672866666667, "bike_id": "b032ebb0505f54e9fb36f2a247087983", "rental_uris": {"android": "https://dc.lft.to/lastmile_qr_scan", "ios": "https://dc.lft.to/lastmile_qr_scan"}, "name": "b032ebb0505f54e9fb36f2a247087983", "is_reserved": 0}, {"is_disabled": 0, "fusion_lon": 0.0, "fusion_lat": 0.0, "lat": 38.921643, "type": "electric_scooter", "lon": -77.04345766666667, "bike_id": "1468c4ecc88a15582c8220ec04eb92ff", "rental_uris": {"android": "https://dc.lft.to/lastmile_qr_scan", "ios": "https://dc.lft.to/lastmile_qr_scan"}, "name": "1468c4ecc88a15582c8220ec04eb92ff", "is_reserved": 0}, {"is_disabled": 0, "fusion_lon": 0.0, "fusion_lat": 0.0, "lat": 38.915792333333336, "type": "electric_scooter", "lon": -77.01998783333333, "bike_id": "a77b604cbffb19dc4e28f810a1e02003", "rental_uris": {"android": "https://dc.lft.to/lastmile_qr_scan", "ios": "https://dc.lft.to/lastmile_qr_scan"}, "name": "a77b604cbffb19dc4e28f810a1e02003", "is_reserved": 0}, {"is_disabled": 0, "fusion_lon": 0.0, "fusion_lat": 0.0, "lat": 38.892180333333336, "type": "electric_scooter", "lon": -77.02221316666666, "bike_id": "48f078f588128e6600996f906c424e33", "rental_uris": {"android": "https://dc.lft.to/lastmile_qr_scan", "ios": "https://dc.lft.to/lastmile_qr_scan"}, "name": "48f078f588128e6600996f906c424e33", "is_reserved": 0}, {"is_disabled": 0, "fusion_lon": 0.0, "fusion_lat": 0.0, "lat": 38.91198683333333, "type": "electric_scooter", "lon": -76.9848165, "bike_id": "a2de3a6da2b8b3de9e621f9ecd6636dd", "rental_uris": {"android": "https://dc.lft.to/lastmile_qr_scan", "ios": "https://dc.lft.to/lastmile_qr_scan"}, "name": "a2de3a6da2b8b3de9e621f9ecd6636dd", "is_reserved": 0}, {"is_disabled": 0, "fusion_lon": 0.0, "fusion_lat": 0.0, "lat": 38.90682483333333, "type": "electric_scooter", "lon": -77.03476916666666, "bike_id": "b4ca5e6e58bc07bb89698564f17625a0", "rental_uris": {"android": "https://dc.lft.to/lastmile_qr_scan", "ios": "https://dc.lft.to/lastmile_qr_scan"}, "name": "b4ca5e6e58bc07bb89698564f17625a0", "is_reserved": 0}, {"is_disabled": 0, "fusion_lon": 0.0, "fusion_lat": 0.0, "lat": 38.90723966666667, "type": "electric_scooter", "lon": -77.0237, "bike_id": "79fba67e75fa85b3e802791bb8a42763", "rental_uris": {"android": "https://dc.lft.to/lastmile_qr_scan", "ios": "https://dc.lft.to/lastmile_qr_scan"}, "name": "79fba67e75fa85b3e802791bb8a42763", "is_reserved": 0}, {"is_disabled": 0, "fusion_lon": 0.0, "fusion_lat": 0.0, "lat": 38.891993, "type": "electric_scooter", "lon": -77.03176066666667, "bike_id": "e9704596325613d9469ee30d7012b5ac", "rental_uris": {"android": "https://dc.lft.to/lastmile_qr_scan", "ios": "https://dc.lft.to/lastmile_qr_scan"}, "name": "e9704596325613d9469ee30d7012b5ac", "is_reserved": 0}, {"is_disabled": 0, "fusion_lon": 0.0, "fusion_lat": 0.0, "lat": 38.90423716666667, "type": "electric_scooter", "lon": -77.02573533333333, "bike_id": "dcf5d422ae79321291efe61a2688a87f", "rental_uris": {"android": "https://dc.lft.to/lastmile_qr_scan", "ios": "https://dc.lft.to/lastmile_qr_scan"}, "name": "dcf5d422ae79321291efe61a2688a87f", "is_reserved": 0}, {"is_disabled": 0, "fusion_lon": 0.0, "fusion_lat": 0.0, "lat": 38.88748283333334, "type": "electric_bike", "lon": -76.90087283333334, "bike_id": "b1ca4890bf02b5e8c2fe7f6a0f168ad7", "rental_uris": {"android": "https://dc.lft.to/lastmile_qr_scan", "ios": "https://dc.lft.to/lastmile_qr_scan"}, "name": "b1ca4890bf02b5e8c2fe7f6a0f168ad7", "is_reserved": 0}, {"is_disabled": 0, "fusion_lon": 0.0, "fusion_lat": 0.0, "lat": 38.896055, "type": "electric_scooter", "lon": -77.02377966666667, "bike_id": "a49e6118f1c5a595d0fc20b6a9013d22", "rental_uris": {"android": "https://dc.lft.to/lastmile_qr_scan", "ios": "https://dc.lft.to/lastmile_qr_scan"}, "name": "a49e6118f1c5a595d0fc20b6a9013d22", "is_reserved": 0}, {"is_disabled": 0, "fusion_lon": 0.0, "fusion_lat": 0.0, "lat": 38.91532733333333, "type": "electric_scooter", "lon": -77.01964316666667, "bike_id": "514be4256c14bdc5e0df0c9012753905", "rental_uris": {"android": "https://dc.lft.to/lastmile_qr_scan", "ios": "https://dc.lft.to/lastmile_qr_scan"}, "name": "514be4256c14bdc5e0df0c9012753905", "is_reserved": 0}, {"is_disabled": 0, "fusion_lon": 0.0, "fusion_lat": 0.0, "lat": 39.10563966666667, "type": "electric_bike", "lon": -77.15266933333334, "bike_id": "61f33bdae108750889e77f2655027a93", "rental_uris": {"android": "https://dc.lft.to/lastmile_qr_scan", "ios": "https://dc.lft.to/lastmile_qr_scan"}, "name": "61f33bdae108750889e77f2655027a93", "is_reserved": 0}, {"is_disabled": 0, "fusion_lon": 0.0, "fusion_lat": 0.0, "lat": 38.88047133333333, "type": "electric_bike", "lon": -77.02517866666666, "bike_id": "771b79dabb48ca5756cce3462d76b787", "rental_uris": {"android": "https://dc.lft.to/lastmile_qr_scan", "ios": "https://dc.lft.to/lastmile_qr_scan"}, "name": "771b79dabb48ca5756cce3462d76b787", "is_reserved": 0}, {"is_disabled": 0, "fusion_lon": 0.0, "fusion_lat": 0.0, "lat": 38.92446666666667, "type": "electric_bike", "lon": -76.96836366666666, "bike_id": "eff4ca7eb066c18da691a82abf6185d2", "rental_uris": {"android": "https://dc.lft.to/lastmile_qr_scan", "ios": "https://dc.lft.to/lastmile_qr_scan"}, "name": "eff4ca7eb066c18da691a82abf6185d2", "is_reserved": 0}, {"is_disabled": 0, "fusion_lon": 0.0, "fusion_lat": 0.0, "lat": 38.87461533333333, "type": "electric_scooter", "lon": -77.0096075, "bike_id": "04e202d94fe6ffe2687eb262be8ca1b6", "rental_uris": {"android": "https://dc.lft.to/lastmile_qr_scan", "ios": "https://dc.lft.to/lastmile_qr_scan"}, "name": "04e202d94fe6ffe2687eb262be8ca1b6", "is_reserved": 0}, {"is_disabled": 0, "fusion_lon": 0.0, "fusion_lat": 0.0, "lat": 38.92547616666667, "type": "electric_scooter", "lon": -77.0330265, "bike_id": "0dd78cd559947e7689396ee9a9aa71d0", "rental_uris": {"android": "https://dc.lft.to/lastmile_qr_scan", "ios": "https://dc.lft.to/lastmile_qr_scan"}, "name": "0dd78cd559947e7689396ee9a9aa71d0", "is_reserved": 0}, {"is_disabled": 0, "fusion_lon": 0.0, "fusion_lat": 0.0, "lat": 38.8937525, "type": "electric_scooter", "lon": -76.950001, "bike_id": "3a77527eedef2682cf08dccde853c5d4", "rental_uris": {"android": "https://dc.lft.to/lastmile_qr_scan", "ios": "https://dc.lft.to/lastmile_qr_scan"}, "name": "3a77527eedef2682cf08dccde853c5d4", "is_reserved": 0}, {"is_disabled": 0, "fusion_lon": 0.0, "fusion_lat": 0.0, "lat": 38.936372, "type": "electric_scooter", "lon": -77.03262783333334, "bike_id": "48116b92cf23337dc88dbc17e3ca3216", "rental_uris": {"android": "https://dc.lft.to/lastmile_qr_scan", "ios": "https://dc.lft.to/lastmile_qr_scan"}, "name": "48116b92cf23337dc88dbc17e3ca3216", "is_reserved": 0}, {"is_disabled": 0, "fusion_lon": 0.0, "fusion_lat": 0.0, "lat": 38.91737416666667, "type": "electric_scooter", "lon": -77.0366135, "bike_id": "f11b0a886af271c52c2dd1319481d3ac", "rental_uris": {"android": "https://dc.lft.to/lastmile_qr_scan", "ios": "https://dc.lft.to/lastmile_qr_scan"}, "name": "f11b0a886af271c52c2dd1319481d3ac", "is_reserved": 0}, {"is_disabled": 0, "fusion_lon": 0.0, "fusion_lat": 0.0, "lat": 38.909170833333334, "type": "electric_scooter", "lon": -77.01527133333333, "bike_id": "f1df91bb406ab9aad54e54af57b34e97", "rental_uris": {"android": "https://dc.lft.to/lastmile_qr_scan", "ios": "https://dc.lft.to/lastmile_qr_scan"}, "name": "f1df91bb406ab9aad54e54af57b34e97", "is_reserved": 0}, {"is_disabled": 0, "fusion_lon": 0.0, "fusion_lat": 0.0, "lat": 38.91869483333333, "type": "electric_scooter", "lon": -77.04180533333333, "bike_id": "198d354977a5b827a0c12471520888d1", "rental_uris": {"android": "https://dc.lft.to/lastmile_qr_scan", "ios": "https://dc.lft.to/lastmile_qr_scan"}, "name": "198d354977a5b827a0c12471520888d1", "is_reserved": 0}, {"is_disabled": 0, "fusion_lon": 0.0, "fusion_lat": 0.0, "lat": 38.9216265, "type": "electric_scooter", "lon": -77.03255583333333, "bike_id": "e2d098be398979fb18a7c7bb7df35d1e", "rental_uris": {"android": "https://dc.lft.to/lastmile_qr_scan", "ios": "https://dc.lft.to/lastmile_qr_scan"}, "name": "e2d098be398979fb18a7c7bb7df35d1e", "is_reserved": 0}, {"is_disabled": 0, "fusion_lon": 0.0, "fusion_lat": 0.0, "lat": 38.8991355, "type": "electric_scooter", "lon": -76.9337325, "bike_id": "2b4c5ec434fd5bfc3f9ea214a0b4b86d", "rental_uris": {"android": "https://dc.lft.to/lastmile_qr_scan", "ios": "https://dc.lft.to/lastmile_qr_scan"}, "name": "2b4c5ec434fd5bfc3f9ea214a0b4b86d", "is_reserved": 0}, {"is_disabled": 0, "fusion_lon": 0.0, "fusion_lat": 0.0, "lat": 38.93712216666667, "type": "electric_scooter", "lon": -77.032613, "bike_id": "0aa2f573f703faf817575b43bf48dd12", "rental_uris": {"android": "https://dc.lft.to/lastmile_qr_scan", "ios": "https://dc.lft.to/lastmile_qr_scan"}, "name": "0aa2f573f703faf817575b43bf48dd12", "is_reserved": 0}, {"is_disabled": 0, "fusion_lon": 0.0, "fusion_lat": 0.0, "lat": 38.88638916666667, "type": "electric_scooter", "lon": -77.02253483333334, "bike_id": "3584c670b8cc4463f5cb646c501df8fe", "rental_uris": {"android": "https://dc.lft.to/lastmile_qr_scan", "ios": "https://dc.lft.to/lastmile_qr_scan"}, "name": "3584c670b8cc4463f5cb646c501df8fe", "is_reserved": 0}, {"is_disabled": 0, "fusion_lon": 0.0, "fusion_lat": 0.0, "lat": 38.89260016666667, "type": "electric_scooter", "lon": -76.9415825, "bike_id": "411f12a0f5c4aac7661719c7586d6a2d", "rental_uris": {"android": "https://dc.lft.to/lastmile_qr_scan", "ios": "https://dc.lft.to/lastmile_qr_scan"}, "name": "411f12a0f5c4aac7661719c7586d6a2d", "is_reserved": 0}, {"is_disabled": 0, "fusion_lon": 0.0, "fusion_lat": 0.0, "lat": 38.87629366666667, "type": "electric_scooter", "lon": -76.9652695, "bike_id": "de17d4300a351e4894ebcd9ed6ec8e03", "rental_uris": {"android": "https://dc.lft.to/lastmile_qr_scan", "ios": "https://dc.lft.to/lastmile_qr_scan"}, "name": "de17d4300a351e4894ebcd9ed6ec8e03", "is_reserved": 0}, {"is_disabled": 0, "fusion_lon": 0.0, "fusion_lat": 0.0, "lat": 38.86503066666667, "type": "electric_scooter", "lon": -76.9900195, "bike_id": "d3ab11f9686c2bf55ab93db472c28d05", "rental_uris": {"android": "https://dc.lft.to/lastmile_qr_scan", "ios": "https://dc.lft.to/lastmile_qr_scan"}, "name": "d3ab11f9686c2bf55ab93db472c28d05", "is_reserved": 0}, {"is_disabled": 0, "fusion_lon": 0.0, "fusion_lat": 0.0, "lat": 38.901463666666665, "type": "electric_scooter", "lon": -77.0163885, "bike_id": "643c99b646fa4d3360eb14d906019a97", "rental_uris": {"android": "https://dc.lft.to/lastmile_qr_scan", "ios": "https://dc.lft.to/lastmile_qr_scan"}, "name": "643c99b646fa4d3360eb14d906019a97", "is_reserved": 0}, {"is_disabled": 0, "fusion_lon": 0.0, "fusion_lat": 0.0, "lat": 38.94513933333333, "type": "electric_scooter", "lon": -77.02982866666666, "bike_id": "02cd450ec659ffa47b7d8af161a6d1dc", "rental_uris": {"android": "https://dc.lft.to/lastmile_qr_scan", "ios": "https://dc.lft.to/lastmile_qr_scan"}, "name": "02cd450ec659ffa47b7d8af161a6d1dc", "is_reserved": 0}, {"is_disabled": 0, "fusion_lon": 0.0, "fusion_lat": 0.0, "lat": 38.89824616666667, "type": "electric_scooter", "lon": -77.03117066666667, "bike_id": "f55e373706ecc85e2980be336ef547fe", "rental_uris": {"android": "https://dc.lft.to/lastmile_qr_scan", "ios": "https://dc.lft.to/lastmile_qr_scan"}, "name": "f55e373706ecc85e2980be336ef547fe", "is_reserved": 0}, {"is_disabled": 0, "fusion_lon": 0.0, "fusion_lat": 0.0, "lat": 38.9060015, "type": "electric_scooter", "lon": -77.0637845, "bike_id": "2639115d116d5c034865c1dde62160f4", "rental_uris": {"android": "https://dc.lft.to/lastmile_qr_scan", "ios": "https://dc.lft.to/lastmile_qr_scan"}, "name": "2639115d116d5c034865c1dde62160f4", "is_reserved": 0}, {"is_disabled": 0, "fusion_lon": 0.0, "fusion_lat": 0.0, "lat": 38.91012883333333, "type": "electric_scooter", "lon": -77.03647816666667, "bike_id": "f5b2ca981e104bf29baee9f9755f5dfa", "rental_uris": {"android": "https://dc.lft.to/lastmile_qr_scan", "ios": "https://dc.lft.to/lastmile_qr_scan"}, "name": "f5b2ca981e104bf29baee9f9755f5dfa", "is_reserved": 0}, {"is_disabled": 0, "fusion_lon": 0.0, "fusion_lat": 0.0, "lat": 38.883698833333334, "type": "electric_scooter", "lon": -76.92373783333333, "bike_id": "c5cb807d933b664038502f8359222b36", "rental_uris": {"android": "https://dc.lft.to/lastmile_qr_scan", "ios": "https://dc.lft.to/lastmile_qr_scan"}, "name": "c5cb807d933b664038502f8359222b36", "is_reserved": 0}, {"is_disabled": 0, "fusion_lon": 0.0, "fusion_lat": 0.0, "lat": 38.902565333333335, "type": "electric_scooter", "lon": -77.03629483333333, "bike_id": "46f28a595fd2f95e74853f63cc90c873", "rental_uris": {"android": "https://dc.lft.to/lastmile_qr_scan", "ios": "https://dc.lft.to/lastmile_qr_scan"}, "name": "46f28a595fd2f95e74853f63cc90c873", "is_reserved": 0}, {"is_disabled": 0, "fusion_lon": 0.0, "fusion_lat": 0.0, "lat": 38.905056333333334, "type": "electric_scooter", "lon": -77.04081783333334, "bike_id": "be698592dbc7616b7d7193582b7d7366", "rental_uris": {"android": "https://dc.lft.to/lastmile_qr_scan", "ios": "https://dc.lft.to/lastmile_qr_scan"}, "name": "be698592dbc7616b7d7193582b7d7366", "is_reserved": 0}, {"is_disabled": 0, "fusion_lon": 0.0, "fusion_lat": 0.0, "lat": 38.924254166666664, "type": "electric_scooter", "lon": -76.99736966666667, "bike_id": "56db6720dd6cacca244d18b8a6b73c73", "rental_uris": {"android": "https://dc.lft.to/lastmile_qr_scan", "ios": "https://dc.lft.to/lastmile_qr_scan"}, "name": "56db6720dd6cacca244d18b8a6b73c73", "is_reserved": 0}, {"is_disabled": 0, "fusion_lon": 0.0, "fusion_lat": 0.0, "lat": 38.90205666666667, "type": "electric_scooter", "lon": -76.981982, "bike_id": "6d41153d9fa7cef3a8e2261f8df07aef", "rental_uris": {"android": "https://dc.lft.to/lastmile_qr_scan", "ios": "https://dc.lft.to/lastmile_qr_scan"}, "name": "6d41153d9fa7cef3a8e2261f8df07aef", "is_reserved": 0}, {"is_disabled": 0, "fusion_lon": 0.0, "fusion_lat": 0.0, "lat": 38.84618783333333, "type": "electric_scooter", "lon": -76.99629683333333, "bike_id": "5b66d09e23ac89072a57124bf32eda21", "rental_uris": {"android": "https://dc.lft.to/lastmile_qr_scan", "ios": "https://dc.lft.to/lastmile_qr_scan"}, "name": "5b66d09e23ac89072a57124bf32eda21", "is_reserved": 0}, {"is_disabled": 0, "fusion_lon": 0.0, "fusion_lat": 0.0, "lat": 38.905347, "type": "electric_scooter", "lon": -77.04178766666666, "bike_id": "8c135c872f092878ea6b2d12e272c843", "rental_uris": {"android": "https://dc.lft.to/lastmile_qr_scan", "ios": "https://dc.lft.to/lastmile_qr_scan"}, "name": "8c135c872f092878ea6b2d12e272c843", "is_reserved": 0}, {"is_disabled": 0, "fusion_lon": 0.0, "fusion_lat": 0.0, "lat": 38.987415, "type": "electric_bike", "lon": -77.02711916666667, "bike_id": "46160ca883f6c3c315b49eb7bd8882fd", "rental_uris": {"android": "https://dc.lft.to/lastmile_qr_scan", "ios": "https://dc.lft.to/lastmile_qr_scan"}, "name": "46160ca883f6c3c315b49eb7bd8882fd", "is_reserved": 0}, {"is_disabled": 0, "fusion_lon": 0.0, "fusion_lat": 0.0, "lat": 38.89796183333333, "type": "electric_scooter", "lon": -76.93050466666666, "bike_id": "617434863568522ff6f8f7e3c5f32ebb", "rental_uris": {"android": "https://dc.lft.to/lastmile_qr_scan", "ios": "https://dc.lft.to/lastmile_qr_scan"}, "name": "617434863568522ff6f8f7e3c5f32ebb", "is_reserved": 0}, {"is_disabled": 0, "fusion_lon": 0.0, "fusion_lat": 0.0, "lat": 38.89504433333333, "type": "electric_scooter", "lon": -77.02200766666667, "bike_id": "b30f23ed8bc45755272c408fc10e0732", "rental_uris": {"android": "https://dc.lft.to/lastmile_qr_scan", "ios": "https://dc.lft.to/lastmile_qr_scan"}, "name": "b30f23ed8bc45755272c408fc10e0732", "is_reserved": 0}, {"is_disabled": 0, "fusion_lon": 0.0, "fusion_lat": 0.0, "lat": 38.8945545, "type": "electric_scooter", "lon": -77.02250033333333, "bike_id": "ad704dd2461e78b5817e4b7c4274eb1c", "rental_uris": {"android": "https://dc.lft.to/lastmile_qr_scan", "ios": "https://dc.lft.to/lastmile_qr_scan"}, "name": "ad704dd2461e78b5817e4b7c4274eb1c", "is_reserved": 0}, {"is_disabled": 0, "fusion_lon": 0.0, "fusion_lat": 0.0, "lat": 38.952696333333336, "type": "electric_bike", "lon": -77.069807, "bike_id": "8b44e5afbeb92eebdcaa0c7a97039975", "rental_uris": {"android": "https://dc.lft.to/lastmile_qr_scan", "ios": "https://dc.lft.to/lastmile_qr_scan"}, "name": "8b44e5afbeb92eebdcaa0c7a97039975", "is_reserved": 0}, {"is_disabled": 0, "fusion_lon": 0.0, "fusion_lat": 0.0, "lat": 38.918413, "type": "electric_scooter", "lon": -77.03211883333333, "bike_id": "0d4095b7c900772006ceda0600116709", "rental_uris": {"android": "https://dc.lft.to/lastmile_qr_scan", "ios": "https://dc.lft.to/lastmile_qr_scan"}, "name": "0d4095b7c900772006ceda0600116709", "is_reserved": 0}, {"is_disabled": 0, "fusion_lon": 0.0, "fusion_lat": 0.0, "lat": 38.846175833333334, "type": "electric_scooter", "lon": -76.9963035, "bike_id": "72c4a9752ecf9657b6531689d4a915e6", "rental_uris": {"android": "https://dc.lft.to/lastmile_qr_scan", "ios": "https://dc.lft.to/lastmile_qr_scan"}, "name": "72c4a9752ecf9657b6531689d4a915e6", "is_reserved": 0}, {"is_disabled": 0, "fusion_lon": 0.0, "fusion_lat": 0.0, "lat": 38.909475666666665, "type": "electric_scooter", "lon": -77.023842, "bike_id": "7a9dcb69a2b3f669d9cbf7dff2010eba", "rental_uris": {"android": "https://dc.lft.to/lastmile_qr_scan", "ios": "https://dc.lft.to/lastmile_qr_scan"}, "name": "7a9dcb69a2b3f669d9cbf7dff2010eba", "is_reserved": 0}, {"is_disabled": 0, "fusion_lon": 0.0, "fusion_lat": 0.0, "lat": 38.8994415, "type": "electric_scooter", "lon": -77.014971, "bike_id": "1ef106e42ebc7555493b2c3d3c7cfae4", "rental_uris": {"android": "https://dc.lft.to/lastmile_qr_scan", "ios": "https://dc.lft.to/lastmile_qr_scan"}, "name": "1ef106e42ebc7555493b2c3d3c7cfae4", "is_reserved": 0}, {"is_disabled": 0, "fusion_lon": 0.0, "fusion_lat": 0.0, "lat": 38.912269, "type": "electric_scooter", "lon": -77.03189033333334, "bike_id": "d662b61cf3ad96bbae5bc41f64024a70", "rental_uris": {"android": "https://dc.lft.to/lastmile_qr_scan", "ios": "https://dc.lft.to/lastmile_qr_scan"}, "name": "d662b61cf3ad96bbae5bc41f64024a70", "is_reserved": 0}, {"is_disabled": 0, "fusion_lon": 0.0, "fusion_lat": 0.0, "lat": 38.8865205, "type": "electric_bike", "lon": -77.16233966666667, "bike_id": "2f92ac8f3df216be95916d4a41d44db8", "rental_uris": {"android": "https://dc.lft.to/lastmile_qr_scan", "ios": "https://dc.lft.to/lastmile_qr_scan"}, "name": "2f92ac8f3df216be95916d4a41d44db8", "is_reserved": 0}, {"is_disabled": 0, "fusion_lon": 0.0, "fusion_lat": 0.0, "lat": 38.892421166666665, "type": "electric_scooter", "lon": -77.046612, "bike_id": "eb4908d30a92f168824e18f97c241579", "rental_uris": {"android": "https://dc.lft.to/lastmile_qr_scan", "ios": "https://dc.lft.to/lastmile_qr_scan"}, "name": "eb4908d30a92f168824e18f97c241579", "is_reserved": 0}, {"is_disabled": 0, "fusion_lon": 0.0, "fusion_lat": 0.0, "lat": 38.94983216666667, "type": "electric_scooter", "lon": -77.02701783333333, "bike_id": "419d0437230dd277e6b361cdcfd35528", "rental_uris": {"android": "https://dc.lft.to/lastmile_qr_scan", "ios": "https://dc.lft.to/lastmile_qr_scan"}, "name": "419d0437230dd277e6b361cdcfd35528", "is_reserved": 0}, {"is_disabled": 0, "fusion_lon": 0.0, "fusion_lat": 0.0, "lat": 38.953073833333335, "type": "electric_scooter", "lon": -77.03599916666667, "bike_id": "e94b547accf21a466468ecfc6fffbcad", "rental_uris": {"android": "https://dc.lft.to/lastmile_qr_scan", "ios": "https://dc.lft.to/lastmile_qr_scan"}, "name": "e94b547accf21a466468ecfc6fffbcad", "is_reserved": 0}, {"is_disabled": 0, "fusion_lon": 0.0, "fusion_lat": 0.0, "lat": 38.895093333333335, "type": "electric_scooter", "lon": -76.94886183333334, "bike_id": "17211359a3cf7474ff2f3083dcd222b7", "rental_uris": {"android": "https://dc.lft.to/lastmile_qr_scan", "ios": "https://dc.lft.to/lastmile_qr_scan"}, "name": "17211359a3cf7474ff2f3083dcd222b7", "is_reserved": 0}, {"is_disabled": 0, "fusion_lon": 0.0, "fusion_lat": 0.0, "lat": 38.99930233333333, "type": "electric_bike", "lon": -77.00123466666666, "bike_id": "1db9f2437653ab72ff81a4da57534197", "rental_uris": {"android": "https://dc.lft.to/lastmile_qr_scan", "ios": "https://dc.lft.to/lastmile_qr_scan"}, "name": "1db9f2437653ab72ff81a4da57534197", "is_reserved": 0}, {"is_disabled": 0, "fusion_lon": 0.0, "fusion_lat": 0.0, "lat": 38.89217466666667, "type": "electric_scooter", "lon": -77.0226055, "bike_id": "2330a6d983747d1901c6c6b807bf4768", "rental_uris": {"android": "https://dc.lft.to/lastmile_qr_scan", "ios": "https://dc.lft.to/lastmile_qr_scan"}, "name": "2330a6d983747d1901c6c6b807bf4768", "is_reserved": 0}, {"is_disabled": 0, "fusion_lon": 0.0, "fusion_lat": 0.0, "lat": 38.90242116666667, "type": "electric_scooter", "lon": -77.00208216666667, "bike_id": "8f58385023307b6227a7df97d17fd58c", "rental_uris": {"android": "https://dc.lft.to/lastmile_qr_scan", "ios": "https://dc.lft.to/lastmile_qr_scan"}, "name": "8f58385023307b6227a7df97d17fd58c", "is_reserved": 0}, {"is_disabled": 0, "fusion_lon": 0.0, "fusion_lat": 0.0, "lat": 38.841951, "type": "electric_bike", "lon": -77.0775045, "bike_id": "8954a060a7c1e64677f3c502983afc62", "rental_uris": {"android": "https://dc.lft.to/lastmile_qr_scan", "ios": "https://dc.lft.to/lastmile_qr_scan"}, "name": "8954a060a7c1e64677f3c502983afc62", "is_reserved": 0}, {"is_disabled": 0, "fusion_lon": 0.0, "fusion_lat": 0.0, "lat": 38.8552855, "type": "electric_bike", "lon": -77.10714383333334, "bike_id": "088b456993e3cac39940d1d392e127e2", "rental_uris": {"android": "https://dc.lft.to/lastmile_qr_scan", "ios": "https://dc.lft.to/lastmile_qr_scan"}, "name": "088b456993e3cac39940d1d392e127e2", "is_reserved": 0}, {"is_disabled": 0, "fusion_lon": 0.0, "fusion_lat": 0.0, "lat": 38.89987216666667, "type": "electric_scooter", "lon": -77.03208766666667, "bike_id": "9e4cf1bd11da00a60e1e50728033d8f4", "rental_uris": {"android": "https://dc.lft.to/lastmile_qr_scan", "ios": "https://dc.lft.to/lastmile_qr_scan"}, "name": "9e4cf1bd11da00a60e1e50728033d8f4", "is_reserved": 0}, {"is_disabled": 0, "fusion_lon": 0.0, "fusion_lat": 0.0, "lat": 38.86035566666666, "type": "electric_scooter", "lon": -76.99686216666667, "bike_id": "ffc13356b6612ee42552a0259de0c17c", "rental_uris": {"android": "https://dc.lft.to/lastmile_qr_scan", "ios": "https://dc.lft.to/lastmile_qr_scan"}, "name": "ffc13356b6612ee42552a0259de0c17c", "is_reserved": 0}, {"is_disabled": 0, "fusion_lon": 0.0, "fusion_lat": 0.0, "lat": 38.8972955, "type": "electric_scooter", "lon": -76.94700066666667, "bike_id": "4b490675b73dc18a8c8e4a076dac255e", "rental_uris": {"android": "https://dc.lft.to/lastmile_qr_scan", "ios": "https://dc.lft.to/lastmile_qr_scan"}, "name": "4b490675b73dc18a8c8e4a076dac255e", "is_reserved": 0}, {"is_disabled": 0, "fusion_lon": 0.0, "fusion_lat": 0.0, "lat": 39.09585783333333, "type": "electric_bike", "lon": -77.14777933333333, "bike_id": "200ce6f7545a73460fbf43b15fba5909", "rental_uris": {"android": "https://dc.lft.to/lastmile_qr_scan", "ios": "https://dc.lft.to/lastmile_qr_scan"}, "name": "200ce6f7545a73460fbf43b15fba5909", "is_reserved": 0}, {"is_disabled": 0, "fusion_lon": 0.0, "fusion_lat": 0.0, "lat": 38.90011283333333, "type": "electric_scooter", "lon": -76.99599733333334, "bike_id": "1cfa04728222ccd718adabe0985718bb", "rental_uris": {"android": "https://dc.lft.to/lastmile_qr_scan", "ios": "https://dc.lft.to/lastmile_qr_scan"}, "name": "1cfa04728222ccd718adabe0985718bb", "is_reserved": 0}, {"is_disabled": 0, "fusion_lon": 0.0, "fusion_lat": 0.0, "lat": 38.9155195, "type": "electric_scooter", "lon": -77.01232666666667, "bike_id": "dcae1f82135e9909ab6ed809ce34dc32", "rental_uris": {"android": "https://dc.lft.to/lastmile_qr_scan", "ios": "https://dc.lft.to/lastmile_qr_scan"}, "name": "dcae1f82135e9909ab6ed809ce34dc32", "is_reserved": 0}, {"is_disabled": 0, "fusion_lon": 0.0, "fusion_lat": 0.0, "lat": 38.907189333333335, "type": "electric_scooter", "lon": -77.033564, "bike_id": "b8d7572a6ae6f5a18277efdeeeb02df2", "rental_uris": {"android": "https://dc.lft.to/lastmile_qr_scan", "ios": "https://dc.lft.to/lastmile_qr_scan"}, "name": "b8d7572a6ae6f5a18277efdeeeb02df2", "is_reserved": 0}, {"is_disabled": 0, "fusion_lon": 0.0, "fusion_lat": 0.0, "lat": 38.898532833333334, "type": "electric_scooter", "lon": -77.03935683333333, "bike_id": "380208e9d67367868fad4ba81126786f", "rental_uris": {"android": "https://dc.lft.to/lastmile_qr_scan", "ios": "https://dc.lft.to/lastmile_qr_scan"}, "name": "380208e9d67367868fad4ba81126786f", "is_reserved": 0}, {"is_disabled": 0, "fusion_lon": 0.0, "fusion_lat": 0.0, "lat": 38.98560066666667, "type": "electric_bike", "lon": -76.9883045, "bike_id": "89ba62b3e64c1948471d1db64481c3b7", "rental_uris": {"android": "https://dc.lft.to/lastmile_qr_scan", "ios": "https://dc.lft.to/lastmile_qr_scan"}, "name": "89ba62b3e64c1948471d1db64481c3b7", "is_reserved": 0}, {"is_disabled": 0, "fusion_lon": 0.0, "fusion_lat": 0.0, "lat": 38.842909166666665, "type": "electric_scooter", "lon": -76.99950666666666, "bike_id": "12e096d49eab74d14baccd045054954c", "rental_uris": {"android": "https://dc.lft.to/lastmile_qr_scan", "ios": "https://dc.lft.to/lastmile_qr_scan"}, "name": "12e096d49eab74d14baccd045054954c", "is_reserved": 0}, {"is_disabled": 0, "fusion_lon": 0.0, "fusion_lat": 0.0, "lat": 38.94280333333333, "type": "electric_scooter", "lon": -77.02942633333333, "bike_id": "c2f05558f9c40bd74791c1b9bb101f12", "rental_uris": {"android": "https://dc.lft.to/lastmile_qr_scan", "ios": "https://dc.lft.to/lastmile_qr_scan"}, "name": "c2f05558f9c40bd74791c1b9bb101f12", "is_reserved": 0}, {"is_disabled": 0, "fusion_lon": 0.0, "fusion_lat": 0.0, "lat": 38.908294166666664, "type": "electric_scooter", "lon": -76.997023, "bike_id": "74ae2edafe8fdbcec82a15464b43eb08", "rental_uris": {"android": "https://dc.lft.to/lastmile_qr_scan", "ios": "https://dc.lft.to/lastmile_qr_scan"}, "name": "74ae2edafe8fdbcec82a15464b43eb08", "is_reserved": 0}, {"is_disabled": 0, "fusion_lon": 0.0, "fusion_lat": 0.0, "lat": 38.928881, "type": "electric_scooter", "lon": -77.032694, "bike_id": "f6309720f152f2d7cc1c2dc0df6c83ce", "rental_uris": {"android": "https://dc.lft.to/lastmile_qr_scan", "ios": "https://dc.lft.to/lastmile_qr_scan"}, "name": "f6309720f152f2d7cc1c2dc0df6c83ce", "is_reserved": 0}, {"is_disabled": 0, "fusion_lon": 0.0, "fusion_lat": 0.0, "lat": 38.91684383333333, "type": "electric_scooter", "lon": -76.980821, "bike_id": "52ea578f91290c05a3c96e09f1515d3c", "rental_uris": {"android": "https://dc.lft.to/lastmile_qr_scan", "ios": "https://dc.lft.to/lastmile_qr_scan"}, "name": "52ea578f91290c05a3c96e09f1515d3c", "is_reserved": 0}, {"is_disabled": 0, "fusion_lon": 0.0, "fusion_lat": 0.0, "lat": 38.93298733333334, "type": "electric_scooter", "lon": -77.02844216666666, "bike_id": "2ec80958a020249804bcba787bd3047a", "rental_uris": {"android": "https://dc.lft.to/lastmile_qr_scan", "ios": "https://dc.lft.to/lastmile_qr_scan"}, "name": "2ec80958a020249804bcba787bd3047a", "is_reserved": 0}, {"is_disabled": 0, "fusion_lon": 0.0, "fusion_lat": 0.0, "lat": 38.8938905, "type": "electric_scooter", "lon": -77.02180433333334, "bike_id": "92f84f01ef212fb7f37420a241d5ee8e", "rental_uris": {"android": "https://dc.lft.to/lastmile_qr_scan", "ios": "https://dc.lft.to/lastmile_qr_scan"}, "name": "92f84f01ef212fb7f37420a241d5ee8e", "is_reserved": 0}, {"is_disabled": 0, "fusion_lon": 0.0, "fusion_lat": 0.0, "lat": 39.0299495, "type": "electric_bike", "lon": -77.10651233333333, "bike_id": "d0b11741d68882f955f035f4e9bf2548", "rental_uris": {"android": "https://dc.lft.to/lastmile_qr_scan", "ios": "https://dc.lft.to/lastmile_qr_scan"}, "name": "d0b11741d68882f955f035f4e9bf2548", "is_reserved": 0}, {"is_disabled": 0, "fusion_lon": 0.0, "fusion_lat": 0.0, "lat": 38.905180666666666, "type": "electric_scooter", "lon": -77.05087466666667, "bike_id": "1a4813e4bc306d958e67d46670162330", "rental_uris": {"android": "https://dc.lft.to/lastmile_qr_scan", "ios": "https://dc.lft.to/lastmile_qr_scan"}, "name": "1a4813e4bc306d958e67d46670162330", "is_reserved": 0}, {"is_disabled": 0, "fusion_lon": 0.0, "fusion_lat": 0.0, "lat": 38.8972225, "type": "electric_scooter", "lon": -77.04667316666666, "bike_id": "609c38f3c34fb7d682e8dfad33e9672c", "rental_uris": {"android": "https://dc.lft.to/lastmile_qr_scan", "ios": "https://dc.lft.to/lastmile_qr_scan"}, "name": "609c38f3c34fb7d682e8dfad33e9672c", "is_reserved": 0}, {"is_disabled": 0, "fusion_lon": 0.0, "fusion_lat": 0.0, "lat": 38.90122316666667, "type": "electric_scooter", "lon": -77.0333585, "bike_id": "69d812b8fb66135615f345ee00413e8f", "rental_uris": {"android": "https://dc.lft.to/lastmile_qr_scan", "ios": "https://dc.lft.to/lastmile_qr_scan"}, "name": "69d812b8fb66135615f345ee00413e8f", "is_reserved": 0}, {"is_disabled": 0, "fusion_lon": 0.0, "fusion_lat": 0.0, "lat": 38.87114583333333, "type": "electric_scooter", "lon": -77.0076855, "bike_id": "e0c01a57598ebcb9e670f31e591b65a6", "rental_uris": {"android": "https://dc.lft.to/lastmile_qr_scan", "ios": "https://dc.lft.to/lastmile_qr_scan"}, "name": "e0c01a57598ebcb9e670f31e591b65a6", "is_reserved": 0}, {"is_disabled": 0, "fusion_lon": 0.0, "fusion_lat": 0.0, "lat": 38.899736, "type": "electric_scooter", "lon": -77.021744, "bike_id": "89015662ada16c6fd6a2099109d89a52", "rental_uris": {"android": "https://dc.lft.to/lastmile_qr_scan", "ios": "https://dc.lft.to/lastmile_qr_scan"}, "name": "89015662ada16c6fd6a2099109d89a52", "is_reserved": 0}, {"is_disabled": 0, "fusion_lon": 0.0, "fusion_lat": 0.0, "lat": 38.8706185, "type": "electric_scooter", "lon": -76.97983933333333, "bike_id": "926a6f1d71d1ac54bcbbdc0711263cca", "rental_uris": {"android": "https://dc.lft.to/lastmile_qr_scan", "ios": "https://dc.lft.to/lastmile_qr_scan"}, "name": "926a6f1d71d1ac54bcbbdc0711263cca", "is_reserved": 0}, {"is_disabled": 0, "fusion_lon": 0.0, "fusion_lat": 0.0, "lat": 38.90135516666667, "type": "electric_scooter", "lon": -76.95177466666667, "bike_id": "bae53d6dd7e26dfd8a0e3e264789e745", "rental_uris": {"android": "https://dc.lft.to/lastmile_qr_scan", "ios": "https://dc.lft.to/lastmile_qr_scan"}, "name": "bae53d6dd7e26dfd8a0e3e264789e745", "is_reserved": 0}, {"is_disabled": 0, "fusion_lon": 0.0, "fusion_lat": 0.0, "lat": 38.8830425, "type": "electric_scooter", "lon": -77.01635266666666, "bike_id": "56165ad402663be0ffb4d200172418ef", "rental_uris": {"android": "https://dc.lft.to/lastmile_qr_scan", "ios": "https://dc.lft.to/lastmile_qr_scan"}, "name": "56165ad402663be0ffb4d200172418ef", "is_reserved": 0}, {"is_disabled": 0, "fusion_lon": 0.0, "fusion_lat": 0.0, "lat": 38.8800745, "type": "electric_bike", "lon": -76.91593116666667, "bike_id": "3f0299498d5c90538423a8e896e0ee17", "rental_uris": {"android": "https://dc.lft.to/lastmile_qr_scan", "ios": "https://dc.lft.to/lastmile_qr_scan"}, "name": "3f0299498d5c90538423a8e896e0ee17", "is_reserved": 0}, {"is_disabled": 0, "fusion_lon": 0.0, "fusion_lat": 0.0, "lat": 38.99453116666667, "type": "electric_bike", "lon": -76.90815766666667, "bike_id": "9935abe3654190b00d83eef8f3864a19", "rental_uris": {"android": "https://dc.lft.to/lastmile_qr_scan", "ios": "https://dc.lft.to/lastmile_qr_scan"}, "name": "9935abe3654190b00d83eef8f3864a19", "is_reserved": 0}, {"is_disabled": 0, "fusion_lon": 0.0, "fusion_lat": 0.0, "lat": 38.90960316666666, "type": "electric_scooter", "lon": -77.0339185, "bike_id": "6e042bcd223597249a3ca98aeb3f8812", "rental_uris": {"android": "https://dc.lft.to/lastmile_qr_scan", "ios": "https://dc.lft.to/lastmile_qr_scan"}, "name": "6e042bcd223597249a3ca98aeb3f8812", "is_reserved": 0}, {"is_disabled": 0, "fusion_lon": 0.0, "fusion_lat": 0.0, "lat": 38.917094666666664, "type": "electric_scooter", "lon": -77.0271985, "bike_id": "27c7289002476407e4339c6bcdc4aa2e", "rental_uris": {"android": "https://dc.lft.to/lastmile_qr_scan", "ios": "https://dc.lft.to/lastmile_qr_scan"}, "name": "27c7289002476407e4339c6bcdc4aa2e", "is_reserved": 0}, {"is_disabled": 0, "fusion_lon": 0.0, "fusion_lat": 0.0, "lat": 38.901443666666665, "type": "electric_scooter", "lon": -77.0398345, "bike_id": "3586fbb1de1ce9e3b74470c7ac2c6b03", "rental_uris": {"android": "https://dc.lft.to/lastmile_qr_scan", "ios": "https://dc.lft.to/lastmile_qr_scan"}, "name": "3586fbb1de1ce9e3b74470c7ac2c6b03", "is_reserved": 0}, {"is_disabled": 0, "fusion_lon": 0.0, "fusion_lat": 0.0, "lat": 38.887405333333334, "type": "electric_scooter", "lon": -77.01529183333334, "bike_id": "b1196adebe81184669c709cfb7207b9b", "rental_uris": {"android": "https://dc.lft.to/lastmile_qr_scan", "ios": "https://dc.lft.to/lastmile_qr_scan"}, "name": "b1196adebe81184669c709cfb7207b9b", "is_reserved": 0}, {"is_disabled": 0, "fusion_lon": 0.0, "fusion_lat": 0.0, "lat": 38.893521166666666, "type": "electric_scooter", "lon": -76.98470616666667, "bike_id": "c53fc29727719ef79cc269f8798c14b2", "rental_uris": {"android": "https://dc.lft.to/lastmile_qr_scan", "ios": "https://dc.lft.to/lastmile_qr_scan"}, "name": "c53fc29727719ef79cc269f8798c14b2", "is_reserved": 0}, {"is_disabled": 0, "fusion_lon": 0.0, "fusion_lat": 0.0, "lat": 38.89220983333333, "type": "electric_scooter", "lon": -77.03183983333334, "bike_id": "f8ddf790ef4fdc856c789c3eb587d014", "rental_uris": {"android": "https://dc.lft.to/lastmile_qr_scan", "ios": "https://dc.lft.to/lastmile_qr_scan"}, "name": "f8ddf790ef4fdc856c789c3eb587d014", "is_reserved": 0}, {"is_disabled": 0, "fusion_lon": 0.0, "fusion_lat": 0.0, "lat": 38.901416, "type": "electric_scooter", "lon": -77.02568933333333, "bike_id": "6cc4a62a15bcd77e79d471ec363ed06f", "rental_uris": {"android": "https://dc.lft.to/lastmile_qr_scan", "ios": "https://dc.lft.to/lastmile_qr_scan"}, "name": "6cc4a62a15bcd77e79d471ec363ed06f", "is_reserved": 0}, {"is_disabled": 0, "fusion_lon": 0.0, "fusion_lat": 0.0, "lat": 38.918171666666666, "type": "electric_scooter", "lon": -77.02474533333333, "bike_id": "3dc7dc97884bb16cb1cbfebb06e77664", "rental_uris": {"android": "https://dc.lft.to/lastmile_qr_scan", "ios": "https://dc.lft.to/lastmile_qr_scan"}, "name": "3dc7dc97884bb16cb1cbfebb06e77664", "is_reserved": 0}, {"is_disabled": 0, "fusion_lon": 0.0, "fusion_lat": 0.0, "lat": 38.91411733333333, "type": "electric_scooter", "lon": -77.03999266666666, "bike_id": "84e6ffdad310725ac7345f5db4c703df", "rental_uris": {"android": "https://dc.lft.to/lastmile_qr_scan", "ios": "https://dc.lft.to/lastmile_qr_scan"}, "name": "84e6ffdad310725ac7345f5db4c703df", "is_reserved": 0}, {"is_disabled": 0, "fusion_lon": 0.0, "fusion_lat": 0.0, "lat": 38.90733516666667, "type": "electric_scooter", "lon": -77.0344615, "bike_id": "0320b2d7e6650fb8818a44b09529379d", "rental_uris": {"android": "https://dc.lft.to/lastmile_qr_scan", "ios": "https://dc.lft.to/lastmile_qr_scan"}, "name": "0320b2d7e6650fb8818a44b09529379d", "is_reserved": 0}, {"is_disabled": 0, "fusion_lon": 0.0, "fusion_lat": 0.0, "lat": 38.881939333333335, "type": "electric_bike", "lon": -77.11520016666667, "bike_id": "ec5de902fb82c7239ac35b69ff3d2a70", "rental_uris": {"android": "https://dc.lft.to/lastmile_qr_scan", "ios": "https://dc.lft.to/lastmile_qr_scan"}, "name": "ec5de902fb82c7239ac35b69ff3d2a70", "is_reserved": 0}, {"is_disabled": 0, "fusion_lon": 0.0, "fusion_lat": 0.0, "lat": 38.91671066666667, "type": "electric_scooter", "lon": -77.03687016666667, "bike_id": "71e3f55d657f4013e4eb9564b8d2450c", "rental_uris": {"android": "https://dc.lft.to/lastmile_qr_scan", "ios": "https://dc.lft.to/lastmile_qr_scan"}, "name": "71e3f55d657f4013e4eb9564b8d2450c", "is_reserved": 0}, {"is_disabled": 0, "fusion_lon": 0.0, "fusion_lat": 0.0, "lat": 38.90032733333334, "type": "electric_scooter", "lon": -77.00204766666667, "bike_id": "94163cd6bc0fee4dabb899551491ee65", "rental_uris": {"android": "https://dc.lft.to/lastmile_qr_scan", "ios": "https://dc.lft.to/lastmile_qr_scan"}, "name": "94163cd6bc0fee4dabb899551491ee65", "is_reserved": 0}, {"is_disabled": 0, "fusion_lon": 0.0, "fusion_lat": 0.0, "lat": 38.90506333333333, "type": "electric_scooter", "lon": -77.03446933333333, "bike_id": "7ee3d0ef7a1576aa4858760dac9cd781", "rental_uris": {"android": "https://dc.lft.to/lastmile_qr_scan", "ios": "https://dc.lft.to/lastmile_qr_scan"}, "name": "7ee3d0ef7a1576aa4858760dac9cd781", "is_reserved": 0}, {"is_disabled": 0, "fusion_lon": 0.0, "fusion_lat": 0.0, "lat": 38.914193166666664, "type": "electric_scooter", "lon": -77.03903083333333, "bike_id": "899ccdd37e18d824cfefdc8aa8c54119", "rental_uris": {"android": "https://dc.lft.to/lastmile_qr_scan", "ios": "https://dc.lft.to/lastmile_qr_scan"}, "name": "899ccdd37e18d824cfefdc8aa8c54119", "is_reserved": 0}, {"is_disabled": 0, "fusion_lon": 0.0, "fusion_lat": 0.0, "lat": 38.919051333333336, "type": "electric_scooter", "lon": -77.04183966666666, "bike_id": "2434fcc5fb7036e983ab1977c76e350a", "rental_uris": {"android": "https://dc.lft.to/lastmile_qr_scan", "ios": "https://dc.lft.to/lastmile_qr_scan"}, "name": "2434fcc5fb7036e983ab1977c76e350a", "is_reserved": 0}, {"is_disabled": 0, "fusion_lon": 0.0, "fusion_lat": 0.0, "lat": 38.91441966666667, "type": "electric_bike", "lon": -77.00464, "bike_id": "688fadd73c8bb3ecc04c9dbec3e1fae6", "rental_uris": {"android": "https://dc.lft.to/lastmile_qr_scan", "ios": "https://dc.lft.to/lastmile_qr_scan"}, "name": "688fadd73c8bb3ecc04c9dbec3e1fae6", "is_reserved": 0}, {"is_disabled": 0, "fusion_lon": 0.0, "fusion_lat": 0.0, "lat": 38.897439166666665, "type": "electric_scooter", "lon": -77.03340933333334, "bike_id": "b150f3a47bddd031587c655423722eae", "rental_uris": {"android": "https://dc.lft.to/lastmile_qr_scan", "ios": "https://dc.lft.to/lastmile_qr_scan"}, "name": "b150f3a47bddd031587c655423722eae", "is_reserved": 0}, {"is_disabled": 0, "fusion_lon": 0.0, "fusion_lat": 0.0, "lat": 38.9181405, "type": "electric_scooter", "lon": -77.034561, "bike_id": "fa8d6acfd8d1d90349738a1c2e9c9e55", "rental_uris": {"android": "https://dc.lft.to/lastmile_qr_scan", "ios": "https://dc.lft.to/lastmile_qr_scan"}, "name": "fa8d6acfd8d1d90349738a1c2e9c9e55", "is_reserved": 0}, {"is_disabled": 0, "fusion_lon": 0.0, "fusion_lat": 0.0, "lat": 38.91039683333333, "type": "electric_scooter", "lon": -77.014864, "bike_id": "0922fa328d16ea01b354412aef40c313", "rental_uris": {"android": "https://dc.lft.to/lastmile_qr_scan", "ios": "https://dc.lft.to/lastmile_qr_scan"}, "name": "0922fa328d16ea01b354412aef40c313", "is_reserved": 0}, {"is_disabled": 0, "fusion_lon": 0.0, "fusion_lat": 0.0, "lat": 38.909546, "type": "electric_scooter", "lon": -77.023885, "bike_id": "bf96eeedecdbbff056110178f98b6033", "rental_uris": {"android": "https://dc.lft.to/lastmile_qr_scan", "ios": "https://dc.lft.to/lastmile_qr_scan"}, "name": "bf96eeedecdbbff056110178f98b6033", "is_reserved": 0}, {"is_disabled": 0, "fusion_lon": 0.0, "fusion_lat": 0.0, "lat": 38.922309166666665, "type": "electric_scooter", "lon": -76.9753585, "bike_id": "d736620df6103dbc7e9a224893f0abc3", "rental_uris": {"android": "https://dc.lft.to/lastmile_qr_scan", "ios": "https://dc.lft.to/lastmile_qr_scan"}, "name": "d736620df6103dbc7e9a224893f0abc3", "is_reserved": 0}, {"is_disabled": 0, "fusion_lon": 0.0, "fusion_lat": 0.0, "lat": 38.901223333333334, "type": "electric_scooter", "lon": -77.03239983333333, "bike_id": "d20c62201d87e80444d9b83c0e0a4579", "rental_uris": {"android": "https://dc.lft.to/lastmile_qr_scan", "ios": "https://dc.lft.to/lastmile_qr_scan"}, "name": "d20c62201d87e80444d9b83c0e0a4579", "is_reserved": 0}, {"is_disabled": 0, "fusion_lon": 0.0, "fusion_lat": 0.0, "lat": 38.911857833333336, "type": "electric_scooter", "lon": -77.03974066666666, "bike_id": "1041ea8d906f2a5c7736dae5f590d979", "rental_uris": {"android": "https://dc.lft.to/lastmile_qr_scan", "ios": "https://dc.lft.to/lastmile_qr_scan"}, "name": "1041ea8d906f2a5c7736dae5f590d979", "is_reserved": 0}, {"is_disabled": 0, "fusion_lon": 0.0, "fusion_lat": 0.0, "lat": 38.8974015, "type": "electric_scooter", "lon": -77.01319983333333, "bike_id": "f7538e4a69be45e8f3cd22cb2649f5ac", "rental_uris": {"android": "https://dc.lft.to/lastmile_qr_scan", "ios": "https://dc.lft.to/lastmile_qr_scan"}, "name": "f7538e4a69be45e8f3cd22cb2649f5ac", "is_reserved": 0}, {"is_disabled": 0, "fusion_lon": 0.0, "fusion_lat": 0.0, "lat": 38.884944833333336, "type": "electric_scooter", "lon": -77.01530333333334, "bike_id": "2acf9774fc18707fa6c87f7e8777eb52", "rental_uris": {"android": "https://dc.lft.to/lastmile_qr_scan", "ios": "https://dc.lft.to/lastmile_qr_scan"}, "name": "2acf9774fc18707fa6c87f7e8777eb52", "is_reserved": 0}, {"is_disabled": 0, "fusion_lon": 0.0, "fusion_lat": 0.0, "lat": 38.916753, "type": "electric_scooter", "lon": -77.0317465, "bike_id": "4abf568cd9158d61432280b8f50e8177", "rental_uris": {"android": "https://dc.lft.to/lastmile_qr_scan", "ios": "https://dc.lft.to/lastmile_qr_scan"}, "name": "4abf568cd9158d61432280b8f50e8177", "is_reserved": 0}, {"is_disabled": 0, "fusion_lon": 0.0, "fusion_lat": 0.0, "lat": 38.919108666666666, "type": "electric_scooter", "lon": -77.0213635, "bike_id": "de2056cbfde3b1a94f9c3f55c1f997d8", "rental_uris": {"android": "https://dc.lft.to/lastmile_qr_scan", "ios": "https://dc.lft.to/lastmile_qr_scan"}, "name": "de2056cbfde3b1a94f9c3f55c1f997d8", "is_reserved": 0}, {"is_disabled": 0, "fusion_lon": 0.0, "fusion_lat": 0.0, "lat": 38.89968433333333, "type": "electric_scooter", "lon": -77.046123, "bike_id": "416d4504f7b50148632c54782dc7b125", "rental_uris": {"android": "https://dc.lft.to/lastmile_qr_scan", "ios": "https://dc.lft.to/lastmile_qr_scan"}, "name": "416d4504f7b50148632c54782dc7b125", "is_reserved": 0}, {"is_disabled": 0, "fusion_lon": 0.0, "fusion_lat": 0.0, "lat": 38.898408, "type": "electric_scooter", "lon": -76.94633333333333, "bike_id": "59376dbb3f9cf55968d8d6fe6df2a84f", "rental_uris": {"android": "https://dc.lft.to/lastmile_qr_scan", "ios": "https://dc.lft.to/lastmile_qr_scan"}, "name": "59376dbb3f9cf55968d8d6fe6df2a84f", "is_reserved": 0}, {"is_disabled": 0, "fusion_lon": 0.0, "fusion_lat": 0.0, "lat": 38.89293933333333, "type": "electric_scooter", "lon": -77.01226883333334, "bike_id": "15577564feb3db63e38bf47af3094ec3", "rental_uris": {"android": "https://dc.lft.to/lastmile_qr_scan", "ios": "https://dc.lft.to/lastmile_qr_scan"}, "name": "15577564feb3db63e38bf47af3094ec3", "is_reserved": 0}, {"is_disabled": 0, "fusion_lon": 0.0, "fusion_lat": 0.0, "lat": 38.901603, "type": "electric_scooter", "lon": -77.02193833333334, "bike_id": "ec31440d4f6c3b11d262f1890613d942", "rental_uris": {"android": "https://dc.lft.to/lastmile_qr_scan", "ios": "https://dc.lft.to/lastmile_qr_scan"}, "name": "ec31440d4f6c3b11d262f1890613d942", "is_reserved": 0}, {"is_disabled": 0, "fusion_lon": 0.0, "fusion_lat": 0.0, "lat": 38.912156333333336, "type": "electric_scooter", "lon": -77.03176783333333, "bike_id": "7f9a021a3eea0622b842456ab534d7c3", "rental_uris": {"android": "https://dc.lft.to/lastmile_qr_scan", "ios": "https://dc.lft.to/lastmile_qr_scan"}, "name": "7f9a021a3eea0622b842456ab534d7c3", "is_reserved": 0}, {"is_disabled": 0, "fusion_lon": 0.0, "fusion_lat": 0.0, "lat": 38.91992716666667, "type": "electric_scooter", "lon": -77.02406, "bike_id": "b82173cee38f48b332e49c86ab496ea5", "rental_uris": {"android": "https://dc.lft.to/lastmile_qr_scan", "ios": "https://dc.lft.to/lastmile_qr_scan"}, "name": "b82173cee38f48b332e49c86ab496ea5", "is_reserved": 0}, {"is_disabled": 0, "fusion_lon": 0.0, "fusion_lat": 0.0, "lat": 38.92114333333333, "type": "electric_scooter", "lon": -77.04681966666666, "bike_id": "58f9223550de3ffb86d75ee5ae2c6c87", "rental_uris": {"android": "https://dc.lft.to/lastmile_qr_scan", "ios": "https://dc.lft.to/lastmile_qr_scan"}, "name": "58f9223550de3ffb86d75ee5ae2c6c87", "is_reserved": 0}, {"is_disabled": 0, "fusion_lon": 0.0, "fusion_lat": 0.0, "lat": 38.90242383333333, "type": "electric_scooter", "lon": -77.002099, "bike_id": "44804bccecd7d532970e62a1b1f5245b", "rental_uris": {"android": "https://dc.lft.to/lastmile_qr_scan", "ios": "https://dc.lft.to/lastmile_qr_scan"}, "name": "44804bccecd7d532970e62a1b1f5245b", "is_reserved": 0}, {"is_disabled": 0, "fusion_lon": 0.0, "fusion_lat": 0.0, "lat": 38.921045166666666, "type": "electric_scooter", "lon": -77.03050566666667, "bike_id": "7a3755251237b4ceb779a8dc75a3e1b9", "rental_uris": {"android": "https://dc.lft.to/lastmile_qr_scan", "ios": "https://dc.lft.to/lastmile_qr_scan"}, "name": "7a3755251237b4ceb779a8dc75a3e1b9", "is_reserved": 0}, {"is_disabled": 0, "fusion_lon": 0.0, "fusion_lat": 0.0, "lat": 38.91083616666667, "type": "electric_scooter", "lon": -77.03850183333333, "bike_id": "dc80da7f8465c9a91db975449750157c", "rental_uris": {"android": "https://dc.lft.to/lastmile_qr_scan", "ios": "https://dc.lft.to/lastmile_qr_scan"}, "name": "dc80da7f8465c9a91db975449750157c", "is_reserved": 0}, {"is_disabled": 0, "fusion_lon": 0.0, "fusion_lat": 0.0, "lat": 38.953086166666665, "type": "electric_scooter", "lon": -77.03596583333334, "bike_id": "190f68b079370032702c9515ba46c40a", "rental_uris": {"android": "https://dc.lft.to/lastmile_qr_scan", "ios": "https://dc.lft.to/lastmile_qr_scan"}, "name": "190f68b079370032702c9515ba46c40a", "is_reserved": 0}, {"is_disabled": 0, "fusion_lon": 0.0, "fusion_lat": 0.0, "lat": 38.90804466666667, "type": "electric_scooter", "lon": -77.0415785, "bike_id": "35ca6a3ae06948e238febad26c9ace5b", "rental_uris": {"android": "https://dc.lft.to/lastmile_qr_scan", "ios": "https://dc.lft.to/lastmile_qr_scan"}, "name": "35ca6a3ae06948e238febad26c9ace5b", "is_reserved": 0}, {"is_disabled": 0, "fusion_lon": 0.0, "fusion_lat": 0.0, "lat": 38.87655133333333, "type": "electric_scooter", "lon": -77.01570266666667, "bike_id": "1ef831ba473b67423c5783d3bd678694", "rental_uris": {"android": "https://dc.lft.to/lastmile_qr_scan", "ios": "https://dc.lft.to/lastmile_qr_scan"}, "name": "1ef831ba473b67423c5783d3bd678694", "is_reserved": 0}, {"is_disabled": 0, "fusion_lon": 0.0, "fusion_lat": 0.0, "lat": 38.93144266666667, "type": "electric_scooter", "lon": -77.034535, "bike_id": "9c938eb5600b1696028c2974523f1e63", "rental_uris": {"android": "https://dc.lft.to/lastmile_qr_scan", "ios": "https://dc.lft.to/lastmile_qr_scan"}, "name": "9c938eb5600b1696028c2974523f1e63", "is_reserved": 0}, {"is_disabled": 0, "fusion_lon": 0.0, "fusion_lat": 0.0, "lat": 38.903923666666664, "type": "electric_scooter", "lon": -77.028053, "bike_id": "fc9398ad4273d78edc7b36ea6cd12e94", "rental_uris": {"android": "https://dc.lft.to/lastmile_qr_scan", "ios": "https://dc.lft.to/lastmile_qr_scan"}, "name": "fc9398ad4273d78edc7b36ea6cd12e94", "is_reserved": 0}, {"is_disabled": 0, "fusion_lon": 0.0, "fusion_lat": 0.0, "lat": 38.893359833333335, "type": "electric_bike", "lon": -77.12404733333334, "bike_id": "5aa3c3404b91d96c0df35c837809285a", "rental_uris": {"android": "https://dc.lft.to/lastmile_qr_scan", "ios": "https://dc.lft.to/lastmile_qr_scan"}, "name": "5aa3c3404b91d96c0df35c837809285a", "is_reserved": 0}, {"is_disabled": 0, "fusion_lon": 0.0, "fusion_lat": 0.0, "lat": 38.917872333333335, "type": "electric_scooter", "lon": -77.02133733333334, "bike_id": "0b5844657c93b7d3f8d8487087558219", "rental_uris": {"android": "https://dc.lft.to/lastmile_qr_scan", "ios": "https://dc.lft.to/lastmile_qr_scan"}, "name": "0b5844657c93b7d3f8d8487087558219", "is_reserved": 0}, {"is_disabled": 0, "fusion_lon": 0.0, "fusion_lat": 0.0, "lat": 38.91469466666667, "type": "electric_scooter", "lon": -77.003462, "bike_id": "befccc02c269cf3a9289ad7751c07a31", "rental_uris": {"android": "https://dc.lft.to/lastmile_qr_scan", "ios": "https://dc.lft.to/lastmile_qr_scan"}, "name": "befccc02c269cf3a9289ad7751c07a31", "is_reserved": 0}, {"is_disabled": 0, "fusion_lon": 0.0, "fusion_lat": 0.0, "lat": 39.0103695, "type": "electric_bike", "lon": -76.91120133333334, "bike_id": "41985fffc58919d8ae005a0633faf1fe", "rental_uris": {"android": "https://dc.lft.to/lastmile_qr_scan", "ios": "https://dc.lft.to/lastmile_qr_scan"}, "name": "41985fffc58919d8ae005a0633faf1fe", "is_reserved": 0}, {"is_disabled": 0, "fusion_lon": 0.0, "fusion_lat": 0.0, "lat": 38.8757635, "type": "electric_scooter", "lon": -77.00608516666667, "bike_id": "49a1a82b25c26bcc3e2e8fb1faff5842", "rental_uris": {"android": "https://dc.lft.to/lastmile_qr_scan", "ios": "https://dc.lft.to/lastmile_qr_scan"}, "name": "49a1a82b25c26bcc3e2e8fb1faff5842", "is_reserved": 0}, {"is_disabled": 0, "fusion_lon": 0.0, "fusion_lat": 0.0, "lat": 38.90424216666667, "type": "electric_scooter", "lon": -77.05334866666666, "bike_id": "c578e4220eca3ec2f3c3a4fd5537da4d", "rental_uris": {"android": "https://dc.lft.to/lastmile_qr_scan", "ios": "https://dc.lft.to/lastmile_qr_scan"}, "name": "c578e4220eca3ec2f3c3a4fd5537da4d", "is_reserved": 0}, {"is_disabled": 0, "fusion_lon": 0.0, "fusion_lat": 0.0, "lat": 38.904157833333336, "type": "electric_scooter", "lon": -76.990655, "bike_id": "f1c140ab06355626f23f21ff2a2ebf4b", "rental_uris": {"android": "https://dc.lft.to/lastmile_qr_scan", "ios": "https://dc.lft.to/lastmile_qr_scan"}, "name": "f1c140ab06355626f23f21ff2a2ebf4b", "is_reserved": 0}, {"is_disabled": 0, "fusion_lon": 0.0, "fusion_lat": 0.0, "lat": 38.911097, "type": "electric_scooter", "lon": -77.02236883333333, "bike_id": "0d8a3ae18c7525db3792a8fcd677b387", "rental_uris": {"android": "https://dc.lft.to/lastmile_qr_scan", "ios": "https://dc.lft.to/lastmile_qr_scan"}, "name": "0d8a3ae18c7525db3792a8fcd677b387", "is_reserved": 0}, {"is_disabled": 0, "fusion_lon": 0.0, "fusion_lat": 0.0, "lat": 38.921780166666665, "type": "electric_scooter", "lon": -76.99700683333333, "bike_id": "17e75cb53fc6e6c256461ad3c510e7aa", "rental_uris": {"android": "https://dc.lft.to/lastmile_qr_scan", "ios": "https://dc.lft.to/lastmile_qr_scan"}, "name": "17e75cb53fc6e6c256461ad3c510e7aa", "is_reserved": 0}, {"is_disabled": 0, "fusion_lon": 0.0, "fusion_lat": 0.0, "lat": 38.941955666666665, "type": "electric_scooter", "lon": -77.02580816666666, "bike_id": "46e2b5b2c5463e5524007fead2b06cc9", "rental_uris": {"android": "https://dc.lft.to/lastmile_qr_scan", "ios": "https://dc.lft.to/lastmile_qr_scan"}, "name": "46e2b5b2c5463e5524007fead2b06cc9", "is_reserved": 0}, {"is_disabled": 0, "fusion_lon": 0.0, "fusion_lat": 0.0, "lat": 38.930862166666664, "type": "electric_scooter", "lon": -77.027939, "bike_id": "af08dd552af734517417fc0ccb10189c", "rental_uris": {"android": "https://dc.lft.to/lastmile_qr_scan", "ios": "https://dc.lft.to/lastmile_qr_scan"}, "name": "af08dd552af734517417fc0ccb10189c", "is_reserved": 0}, {"is_disabled": 0, "fusion_lon": 0.0, "fusion_lat": 0.0, "lat": 38.90159233333333, "type": "electric_scooter", "lon": -77.04172116666666, "bike_id": "f2f299e7f38de363fcfad70c37b69b76", "rental_uris": {"android": "https://dc.lft.to/lastmile_qr_scan", "ios": "https://dc.lft.to/lastmile_qr_scan"}, "name": "f2f299e7f38de363fcfad70c37b69b76", "is_reserved": 0}, {"is_disabled": 0, "fusion_lon": 0.0, "fusion_lat": 0.0, "lat": 38.85803766666667, "type": "electric_scooter", "lon": -76.98654, "bike_id": "e2668a2805c3de5e14bee2dcd82eabb6", "rental_uris": {"android": "https://dc.lft.to/lastmile_qr_scan", "ios": "https://dc.lft.to/lastmile_qr_scan"}, "name": "e2668a2805c3de5e14bee2dcd82eabb6", "is_reserved": 0}, {"is_disabled": 0, "fusion_lon": 0.0, "fusion_lat": 0.0, "lat": 38.90665166666667, "type": "electric_scooter", "lon": -77.03763316666667, "bike_id": "adeb2bbbb8c8fa2108132d488217881f", "rental_uris": {"android": "https://dc.lft.to/lastmile_qr_scan", "ios": "https://dc.lft.to/lastmile_qr_scan"}, "name": "adeb2bbbb8c8fa2108132d488217881f", "is_reserved": 0}, {"is_disabled": 0, "fusion_lon": 0.0, "fusion_lat": 0.0, "lat": 38.92822733333333, "type": "electric_scooter", "lon": -77.02253566666667, "bike_id": "f8c86259ecc4064cf63409a7e6481877", "rental_uris": {"android": "https://dc.lft.to/lastmile_qr_scan", "ios": "https://dc.lft.to/lastmile_qr_scan"}, "name": "f8c86259ecc4064cf63409a7e6481877", "is_reserved": 0}, {"is_disabled": 0, "fusion_lon": 0.0, "fusion_lat": 0.0, "lat": 38.895188, "type": "electric_scooter", "lon": -77.02948866666667, "bike_id": "f717f34f643f24dc12602f7e064b7977", "rental_uris": {"android": "https://dc.lft.to/lastmile_qr_scan", "ios": "https://dc.lft.to/lastmile_qr_scan"}, "name": "f717f34f643f24dc12602f7e064b7977", "is_reserved": 0}, {"is_disabled": 0, "fusion_lon": 0.0, "fusion_lat": 0.0, "lat": 38.96759433333333, "type": "electric_bike", "lon": -77.09157416666666, "bike_id": "17fce619907e90000bc023fdd3e7f675", "rental_uris": {"android": "https://dc.lft.to/lastmile_qr_scan", "ios": "https://dc.lft.to/lastmile_qr_scan"}, "name": "17fce619907e90000bc023fdd3e7f675", "is_reserved": 0}, {"is_disabled": 0, "fusion_lon": 0.0, "fusion_lat": 0.0, "lat": 38.9012275, "type": "electric_scooter", "lon": -77.01197833333333, "bike_id": "01eff63fd36b086aa45cd36d0cda6847", "rental_uris": {"android": "https://dc.lft.to/lastmile_qr_scan", "ios": "https://dc.lft.to/lastmile_qr_scan"}, "name": "01eff63fd36b086aa45cd36d0cda6847", "is_reserved": 0}, {"is_disabled": 0, "fusion_lon": 0.0, "fusion_lat": 0.0, "lat": 38.912578, "type": "electric_scooter", "lon": -77.01694766666667, "bike_id": "99e64a2bb70a087e12700ae2bff187be", "rental_uris": {"android": "https://dc.lft.to/lastmile_qr_scan", "ios": "https://dc.lft.to/lastmile_qr_scan"}, "name": "99e64a2bb70a087e12700ae2bff187be", "is_reserved": 0}, {"is_disabled": 0, "fusion_lon": 0.0, "fusion_lat": 0.0, "lat": 38.916845333333335, "type": "electric_scooter", "lon": -77.04660983333333, "bike_id": "bd122100c02ac383b184da3ea59f2301", "rental_uris": {"android": "https://dc.lft.to/lastmile_qr_scan", "ios": "https://dc.lft.to/lastmile_qr_scan"}, "name": "bd122100c02ac383b184da3ea59f2301", "is_reserved": 0}, {"is_disabled": 0, "fusion_lon": 0.0, "fusion_lat": 0.0, "lat": 38.8922405, "type": "electric_scooter", "lon": -77.04658416666666, "bike_id": "782725c330ae02d154a40021c479c4ac", "rental_uris": {"android": "https://dc.lft.to/lastmile_qr_scan", "ios": "https://dc.lft.to/lastmile_qr_scan"}, "name": "782725c330ae02d154a40021c479c4ac", "is_reserved": 0}, {"is_disabled": 0, "fusion_lon": 0.0, "fusion_lat": 0.0, "lat": 38.888911, "type": "electric_scooter", "lon": -77.0154905, "bike_id": "893fadd7efcd6734248ba516fbafe45d", "rental_uris": {"android": "https://dc.lft.to/lastmile_qr_scan", "ios": "https://dc.lft.to/lastmile_qr_scan"}, "name": "893fadd7efcd6734248ba516fbafe45d", "is_reserved": 0}, {"is_disabled": 0, "fusion_lon": 0.0, "fusion_lat": 0.0, "lat": 38.905054166666666, "type": "electric_bike", "lon": -77.0569225, "bike_id": "1dbd5c1bdbbc65abd4a8259ee08f06ef", "rental_uris": {"android": "https://dc.lft.to/lastmile_qr_scan", "ios": "https://dc.lft.to/lastmile_qr_scan"}, "name": "1dbd5c1bdbbc65abd4a8259ee08f06ef", "is_reserved": 0}, {"is_disabled": 0, "fusion_lon": 0.0, "fusion_lat": 0.0, "lat": 38.998542, "type": "electric_bike", "lon": -77.02885033333334, "bike_id": "1e90a4a1a4e60b83c6249c41c8268e7f", "rental_uris": {"android": "https://dc.lft.to/lastmile_qr_scan", "ios": "https://dc.lft.to/lastmile_qr_scan"}, "name": "1e90a4a1a4e60b83c6249c41c8268e7f", "is_reserved": 0}, {"is_disabled": 0, "fusion_lon": 0.0, "fusion_lat": 0.0, "lat": 38.90237883333333, "type": "electric_scooter", "lon": -77.03338116666667, "bike_id": "f5a24228ccc0a084267c38f1bade9fb6", "rental_uris": {"android": "https://dc.lft.to/lastmile_qr_scan", "ios": "https://dc.lft.to/lastmile_qr_scan"}, "name": "f5a24228ccc0a084267c38f1bade9fb6", "is_reserved": 0}, {"is_disabled": 0, "fusion_lon": 0.0, "fusion_lat": 0.0, "lat": 38.9178945, "type": "electric_scooter", "lon": -77.03191816666667, "bike_id": "bf4d5777376b07e4ac61772e25d6e30a", "rental_uris": {"android": "https://dc.lft.to/lastmile_qr_scan", "ios": "https://dc.lft.to/lastmile_qr_scan"}, "name": "bf4d5777376b07e4ac61772e25d6e30a", "is_reserved": 0}, {"is_disabled": 0, "fusion_lon": 0.0, "fusion_lat": 0.0, "lat": 38.9308365, "type": "electric_scooter", "lon": -77.0279415, "bike_id": "80069f82ae5e77776ba6854ad0eaf919", "rental_uris": {"android": "https://dc.lft.to/lastmile_qr_scan", "ios": "https://dc.lft.to/lastmile_qr_scan"}, "name": "80069f82ae5e77776ba6854ad0eaf919", "is_reserved": 0}, {"is_disabled": 0, "fusion_lon": 0.0, "fusion_lat": 0.0, "lat": 38.90564233333333, "type": "electric_scooter", "lon": -77.007553, "bike_id": "df3fad8d73827cdb8a67951fc5320a1b", "rental_uris": {"android": "https://dc.lft.to/lastmile_qr_scan", "ios": "https://dc.lft.to/lastmile_qr_scan"}, "name": "df3fad8d73827cdb8a67951fc5320a1b", "is_reserved": 0}, {"is_disabled": 0, "fusion_lon": 0.0, "fusion_lat": 0.0, "lat": 38.9328845, "type": "electric_scooter", "lon": -77.02448383333333, "bike_id": "39fbe8793f2923bc22cdc2f39408ecd4", "rental_uris": {"android": "https://dc.lft.to/lastmile_qr_scan", "ios": "https://dc.lft.to/lastmile_qr_scan"}, "name": "39fbe8793f2923bc22cdc2f39408ecd4", "is_reserved": 0}, {"is_disabled": 0, "fusion_lon": 0.0, "fusion_lat": 0.0, "lat": 38.867090833333336, "type": "electric_scooter", "lon": -76.98729466666667, "bike_id": "322c4b0d285ba1d46cb59bbd54bd3225", "rental_uris": {"android": "https://dc.lft.to/lastmile_qr_scan", "ios": "https://dc.lft.to/lastmile_qr_scan"}, "name": "322c4b0d285ba1d46cb59bbd54bd3225", "is_reserved": 0}, {"is_disabled": 0, "fusion_lon": 0.0, "fusion_lat": 0.0, "lat": 38.908718666666665, "type": "electric_scooter", "lon": -77.0447935, "bike_id": "8c63ad7c70cac50b77d0dca819925e54", "rental_uris": {"android": "https://dc.lft.to/lastmile_qr_scan", "ios": "https://dc.lft.to/lastmile_qr_scan"}, "name": "8c63ad7c70cac50b77d0dca819925e54", "is_reserved": 0}, {"is_disabled": 0, "fusion_lon": 0.0, "fusion_lat": 0.0, "lat": 38.928196166666666, "type": "electric_scooter", "lon": -77.03594816666667, "bike_id": "0c23971a551ce8fd08b171350c20897b", "rental_uris": {"android": "https://dc.lft.to/lastmile_qr_scan", "ios": "https://dc.lft.to/lastmile_qr_scan"}, "name": "0c23971a551ce8fd08b171350c20897b", "is_reserved": 0}, {"is_disabled": 0, "fusion_lon": 0.0, "fusion_lat": 0.0, "lat": 38.910479333333335, "type": "electric_scooter", "lon": -77.04333866666667, "bike_id": "40a2b80d23f458d47629b6d645df52c7", "rental_uris": {"android": "https://dc.lft.to/lastmile_qr_scan", "ios": "https://dc.lft.to/lastmile_qr_scan"}, "name": "40a2b80d23f458d47629b6d645df52c7", "is_reserved": 0}, {"is_disabled": 0, "fusion_lon": 0.0, "fusion_lat": 0.0, "lat": 38.9036965, "type": "electric_scooter", "lon": -77.033314, "bike_id": "df07e562acdc6257ff2a1fefcabb7f7c", "rental_uris": {"android": "https://dc.lft.to/lastmile_qr_scan", "ios": "https://dc.lft.to/lastmile_qr_scan"}, "name": "df07e562acdc6257ff2a1fefcabb7f7c", "is_reserved": 0}, {"is_disabled": 0, "fusion_lon": 0.0, "fusion_lat": 0.0, "lat": 38.905536, "type": "electric_scooter", "lon": -77.04081933333333, "bike_id": "dd80647e066a9eb8fe6ded32ed9e767c", "rental_uris": {"android": "https://dc.lft.to/lastmile_qr_scan", "ios": "https://dc.lft.to/lastmile_qr_scan"}, "name": "dd80647e066a9eb8fe6ded32ed9e767c", "is_reserved": 0}, {"is_disabled": 0, "fusion_lon": 0.0, "fusion_lat": 0.0, "lat": 38.902443833333336, "type": "electric_scooter", "lon": -76.989661, "bike_id": "f4446fb502ff164784b704cdebc3c10a", "rental_uris": {"android": "https://dc.lft.to/lastmile_qr_scan", "ios": "https://dc.lft.to/lastmile_qr_scan"}, "name": "f4446fb502ff164784b704cdebc3c10a", "is_reserved": 0}, {"is_disabled": 0, "fusion_lon": 0.0, "fusion_lat": 0.0, "lat": 38.916751833333336, "type": "electric_scooter", "lon": -77.022925, "bike_id": "26af6da5be6f5309ca1e8f25c7d6d11d", "rental_uris": {"android": "https://dc.lft.to/lastmile_qr_scan", "ios": "https://dc.lft.to/lastmile_qr_scan"}, "name": "26af6da5be6f5309ca1e8f25c7d6d11d", "is_reserved": 0}, {"is_disabled": 0, "fusion_lon": 0.0, "fusion_lat": 0.0, "lat": 39.09997383333334, "type": "electric_bike", "lon": -77.186518, "bike_id": "24afbc368706d533dc686aaa2544e667", "rental_uris": {"android": "https://dc.lft.to/lastmile_qr_scan", "ios": "https://dc.lft.to/lastmile_qr_scan"}, "name": "24afbc368706d533dc686aaa2544e667", "is_reserved": 0}, {"is_disabled": 0, "fusion_lon": 0.0, "fusion_lat": 0.0, "lat": 38.838085, "type": "electric_scooter", "lon": -77.00432866666667, "bike_id": "f8990f7077e369a0da1d95ea090c57ae", "rental_uris": {"android": "https://dc.lft.to/lastmile_qr_scan", "ios": "https://dc.lft.to/lastmile_qr_scan"}, "name": "f8990f7077e369a0da1d95ea090c57ae", "is_reserved": 0}, {"is_disabled": 0, "fusion_lon": 0.0, "fusion_lat": 0.0, "lat": 38.886094, "type": "electric_scooter", "lon": -76.99504183333333, "bike_id": "804330234e619316a57ce385f792ce00", "rental_uris": {"android": "https://dc.lft.to/lastmile_qr_scan", "ios": "https://dc.lft.to/lastmile_qr_scan"}, "name": "804330234e619316a57ce385f792ce00", "is_reserved": 0}, {"is_disabled": 0, "fusion_lon": 0.0, "fusion_lat": 0.0, "lat": 38.9013055, "type": "electric_scooter", "lon": -77.04398966666666, "bike_id": "62fcb3579dc5811d2ae7f172213b69b9", "rental_uris": {"android": "https://dc.lft.to/lastmile_qr_scan", "ios": "https://dc.lft.to/lastmile_qr_scan"}, "name": "62fcb3579dc5811d2ae7f172213b69b9", "is_reserved": 0}, {"is_disabled": 0, "fusion_lon": 0.0, "fusion_lat": 0.0, "lat": 38.9350085, "type": "electric_bike", "lon": -76.94951183333333, "bike_id": "781cd654e4654e3d6a03fd6bbaa6540e", "rental_uris": {"android": "https://dc.lft.to/lastmile_qr_scan", "ios": "https://dc.lft.to/lastmile_qr_scan"}, "name": "781cd654e4654e3d6a03fd6bbaa6540e", "is_reserved": 0}, {"is_disabled": 0, "fusion_lon": 0.0, "fusion_lat": 0.0, "lat": 38.842835, "type": "electric_scooter", "lon": -76.99960266666666, "bike_id": "4ab3bd215b4e8bfbde359d203372b4d1", "rental_uris": {"android": "https://dc.lft.to/lastmile_qr_scan", "ios": "https://dc.lft.to/lastmile_qr_scan"}, "name": "4ab3bd215b4e8bfbde359d203372b4d1", "is_reserved": 0}, {"is_disabled": 0, "fusion_lon": 0.0, "fusion_lat": 0.0, "lat": 38.91564316666667, "type": "electric_scooter", "lon": -77.0417295, "bike_id": "7f0fa35f55c6c3aa1a57e6c0f3eca1da", "rental_uris": {"android": "https://dc.lft.to/lastmile_qr_scan", "ios": "https://dc.lft.to/lastmile_qr_scan"}, "name": "7f0fa35f55c6c3aa1a57e6c0f3eca1da", "is_reserved": 0}, {"is_disabled": 0, "fusion_lon": 0.0, "fusion_lat": 0.0, "lat": 38.911894, "type": "electric_scooter", "lon": -77.04164083333333, "bike_id": "80f2ed8799dd3b805b673c5d267e174c", "rental_uris": {"android": "https://dc.lft.to/lastmile_qr_scan", "ios": "https://dc.lft.to/lastmile_qr_scan"}, "name": "80f2ed8799dd3b805b673c5d267e174c", "is_reserved": 0}, {"is_disabled": 0, "fusion_lon": 0.0, "fusion_lat": 0.0, "lat": 38.904976, "type": "electric_scooter", "lon": -77.02965233333333, "bike_id": "e0d3fc2ba08f3dea67a4b13e224f9b53", "rental_uris": {"android": "https://dc.lft.to/lastmile_qr_scan", "ios": "https://dc.lft.to/lastmile_qr_scan"}, "name": "e0d3fc2ba08f3dea67a4b13e224f9b53", "is_reserved": 0}, {"is_disabled": 0, "fusion_lon": 0.0, "fusion_lat": 0.0, "lat": 38.83811166666667, "type": "electric_scooter", "lon": -77.00433333333334, "bike_id": "51c69f5896f048b52faca419ded69641", "rental_uris": {"android": "https://dc.lft.to/lastmile_qr_scan", "ios": "https://dc.lft.to/lastmile_qr_scan"}, "name": "51c69f5896f048b52faca419ded69641", "is_reserved": 0}, {"is_disabled": 0, "fusion_lon": 0.0, "fusion_lat": 0.0, "lat": 38.9369885, "type": "electric_scooter", "lon": -77.06099916666666, "bike_id": "56d123a6657ddd00d26b3a06b4ea9711", "rental_uris": {"android": "https://dc.lft.to/lastmile_qr_scan", "ios": "https://dc.lft.to/lastmile_qr_scan"}, "name": "56d123a6657ddd00d26b3a06b4ea9711", "is_reserved": 0}, {"is_disabled": 0, "fusion_lon": 0.0, "fusion_lat": 0.0, "lat": 38.92096266666667, "type": "electric_scooter", "lon": -77.017964, "bike_id": "b632900d3f8e208d45ed3dbc7d75a70d", "rental_uris": {"android": "https://dc.lft.to/lastmile_qr_scan", "ios": "https://dc.lft.to/lastmile_qr_scan"}, "name": "b632900d3f8e208d45ed3dbc7d75a70d", "is_reserved": 0}, {"is_disabled": 0, "fusion_lon": 0.0, "fusion_lat": 0.0, "lat": 38.937292666666664, "type": "electric_scooter", "lon": -77.024168, "bike_id": "7ce12cb8701989540a5b4223688abfc4", "rental_uris": {"android": "https://dc.lft.to/lastmile_qr_scan", "ios": "https://dc.lft.to/lastmile_qr_scan"}, "name": "7ce12cb8701989540a5b4223688abfc4", "is_reserved": 0}, {"is_disabled": 0, "fusion_lon": 0.0, "fusion_lat": 0.0, "lat": 38.89716283333333, "type": "electric_scooter", "lon": -77.00795933333333, "bike_id": "d09a4f7608ad82d650a4b336144ef6a3", "rental_uris": {"android": "https://dc.lft.to/lastmile_qr_scan", "ios": "https://dc.lft.to/lastmile_qr_scan"}, "name": "d09a4f7608ad82d650a4b336144ef6a3", "is_reserved": 0}, {"is_disabled": 0, "fusion_lon": 0.0, "fusion_lat": 0.0, "lat": 38.892166333333336, "type": "electric_scooter", "lon": -77.04357466666667, "bike_id": "a188eaa08f0075d8500e5e364d1d2837", "rental_uris": {"android": "https://dc.lft.to/lastmile_qr_scan", "ios": "https://dc.lft.to/lastmile_qr_scan"}, "name": "a188eaa08f0075d8500e5e364d1d2837", "is_reserved": 0}, {"is_disabled": 0, "fusion_lon": 0.0, "fusion_lat": 0.0, "lat": 38.8942055, "type": "electric_scooter", "lon": -76.91222333333333, "bike_id": "9f85c338ba4db0ea76b1a40397ce2482", "rental_uris": {"android": "https://dc.lft.to/lastmile_qr_scan", "ios": "https://dc.lft.to/lastmile_qr_scan"}, "name": "9f85c338ba4db0ea76b1a40397ce2482", "is_reserved": 0}, {"is_disabled": 0, "fusion_lon": 0.0, "fusion_lat": 0.0, "lat": 38.92603966666667, "type": "electric_scooter", "lon": -77.02155383333333, "bike_id": "d766f5c241b07b7ed393008af388eb51", "rental_uris": {"android": "https://dc.lft.to/lastmile_qr_scan", "ios": "https://dc.lft.to/lastmile_qr_scan"}, "name": "d766f5c241b07b7ed393008af388eb51", "is_reserved": 0}, {"is_disabled": 0, "fusion_lon": 0.0, "fusion_lat": 0.0, "lat": 38.89810133333334, "type": "electric_scooter", "lon": -77.02780566666667, "bike_id": "1ba40cde3fc79bd7f667ef4fe0221738", "rental_uris": {"android": "https://dc.lft.to/lastmile_qr_scan", "ios": "https://dc.lft.to/lastmile_qr_scan"}, "name": "1ba40cde3fc79bd7f667ef4fe0221738", "is_reserved": 0}, {"is_disabled": 0, "fusion_lon": 0.0, "fusion_lat": 0.0, "lat": 38.92479, "type": "electric_scooter", "lon": -77.029973, "bike_id": "6ac1b884c73a35d1787823468465af01", "rental_uris": {"android": "https://dc.lft.to/lastmile_qr_scan", "ios": "https://dc.lft.to/lastmile_qr_scan"}, "name": "6ac1b884c73a35d1787823468465af01", "is_reserved": 0}, {"is_disabled": 0, "fusion_lon": 0.0, "fusion_lat": 0.0, "lat": 38.92786666666667, "type": "electric_scooter", "lon": -77.02740716666666, "bike_id": "0a37e01b9a51f3b30f01752530e2be6d", "rental_uris": {"android": "https://dc.lft.to/lastmile_qr_scan", "ios": "https://dc.lft.to/lastmile_qr_scan"}, "name": "0a37e01b9a51f3b30f01752530e2be6d", "is_reserved": 0}, {"is_disabled": 0, "fusion_lon": 0.0, "fusion_lat": 0.0, "lat": 38.934583, "type": "electric_scooter", "lon": -77.024185, "bike_id": "a0d4c7775169ecb6279ca2f8f8367320", "rental_uris": {"android": "https://dc.lft.to/lastmile_qr_scan", "ios": "https://dc.lft.to/lastmile_qr_scan"}, "name": "a0d4c7775169ecb6279ca2f8f8367320", "is_reserved": 0}, {"is_disabled": 0, "fusion_lon": 0.0, "fusion_lat": 0.0, "lat": 38.918017666666664, "type": "electric_scooter", "lon": -77.0355935, "bike_id": "d0265b6aee711547c38f41b7c1f158a7", "rental_uris": {"android": "https://dc.lft.to/lastmile_qr_scan", "ios": "https://dc.lft.to/lastmile_qr_scan"}, "name": "d0265b6aee711547c38f41b7c1f158a7", "is_reserved": 0}, {"is_disabled": 0, "fusion_lon": 0.0, "fusion_lat": 0.0, "lat": 38.916068, "type": "electric_scooter", "lon": -77.02296233333334, "bike_id": "e48757d83b7bc6d397fd9af8c45cb3d6", "rental_uris": {"android": "https://dc.lft.to/lastmile_qr_scan", "ios": "https://dc.lft.to/lastmile_qr_scan"}, "name": "e48757d83b7bc6d397fd9af8c45cb3d6", "is_reserved": 0}, {"is_disabled": 0, "fusion_lon": 0.0, "fusion_lat": 0.0, "lat": 38.90172366666667, "type": "electric_bike", "lon": -77.0509055, "bike_id": "767834476374ce590eaeb65ec69e8f09", "rental_uris": {"android": "https://dc.lft.to/lastmile_qr_scan", "ios": "https://dc.lft.to/lastmile_qr_scan"}, "name": "767834476374ce590eaeb65ec69e8f09", "is_reserved": 0}, {"is_disabled": 0, "fusion_lon": 0.0, "fusion_lat": 0.0, "lat": 38.90976533333333, "type": "electric_scooter", "lon": -77.03847266666666, "bike_id": "8f70089af8a33c294d2a562629f88b80", "rental_uris": {"android": "https://dc.lft.to/lastmile_qr_scan", "ios": "https://dc.lft.to/lastmile_qr_scan"}, "name": "8f70089af8a33c294d2a562629f88b80", "is_reserved": 0}, {"is_disabled": 0, "fusion_lon": 0.0, "fusion_lat": 0.0, "lat": 38.802940666666665, "type": "electric_bike", "lon": -77.03986216666667, "bike_id": "6e6b9ad12559098664bd6e1caa2887e6", "rental_uris": {"android": "https://dc.lft.to/lastmile_qr_scan", "ios": "https://dc.lft.to/lastmile_qr_scan"}, "name": "6e6b9ad12559098664bd6e1caa2887e6", "is_reserved": 0}, {"is_disabled": 0, "fusion_lon": 0.0, "fusion_lat": 0.0, "lat": 38.92899583333333, "type": "electric_scooter", "lon": -77.03275333333333, "bike_id": "6bce6d0fccba663b3a36184385af0b29", "rental_uris": {"android": "https://dc.lft.to/lastmile_qr_scan", "ios": "https://dc.lft.to/lastmile_qr_scan"}, "name": "6bce6d0fccba663b3a36184385af0b29", "is_reserved": 0}, {"is_disabled": 0, "fusion_lon": 0.0, "fusion_lat": 0.0, "lat": 38.916746, "type": "electric_bike", "lon": -77.0957695, "bike_id": "5565a4749d87c2df4c67a107086a99b8", "rental_uris": {"android": "https://dc.lft.to/lastmile_qr_scan", "ios": "https://dc.lft.to/lastmile_qr_scan"}, "name": "5565a4749d87c2df4c67a107086a99b8", "is_reserved": 0}, {"is_disabled": 0, "fusion_lon": 0.0, "fusion_lat": 0.0, "lat": 38.887413333333335, "type": "electric_scooter", "lon": -77.01533133333334, "bike_id": "003fb3b342a664553e46cb51449c0f68", "rental_uris": {"android": "https://dc.lft.to/lastmile_qr_scan", "ios": "https://dc.lft.to/lastmile_qr_scan"}, "name": "003fb3b342a664553e46cb51449c0f68", "is_reserved": 0}, {"is_disabled": 0, "fusion_lon": 0.0, "fusion_lat": 0.0, "lat": 38.9147015, "type": "electric_scooter", "lon": -76.98448283333333, "bike_id": "d6064cd58654a02535b9ffd24163b227", "rental_uris": {"android": "https://dc.lft.to/lastmile_qr_scan", "ios": "https://dc.lft.to/lastmile_qr_scan"}, "name": "d6064cd58654a02535b9ffd24163b227", "is_reserved": 0}, {"is_disabled": 0, "fusion_lon": 0.0, "fusion_lat": 0.0, "lat": 38.87758933333333, "type": "electric_bike", "lon": -76.979948, "bike_id": "ab6a82a08723b0e548287a39cd9e62a1", "rental_uris": {"android": "https://dc.lft.to/lastmile_qr_scan", "ios": "https://dc.lft.to/lastmile_qr_scan"}, "name": "ab6a82a08723b0e548287a39cd9e62a1", "is_reserved": 0},