{"data": {"bikes": [{"is_disabled": 0, "rental_uris": {"android": "https://dc.lft.to/lastmile_qr_scan", "ios": "https://dc.lft.to/lastmile_qr_scan"}, "is_reserved": 0, "name": "f009b99cd5d82343d9fa06afae7c193f", "lon": -77.04306683333333, "type": "electric_scooter", "bike_id": "f009b99cd5d82343d9fa06afae7c193f", "fusion_lon": 0.0, "lat": 38.911080166666665, "fusion_lat": 0.0}, {"is_disabled": 0, "rental_uris": {"android": "https://dc.lft.to/lastmile_qr_scan", "ios": "https://dc.lft.to/lastmile_qr_scan"}, "is_reserved": 0, "name": "c93680b1714ed3d447afe97d68d517a9", "lon": -77.04008766666666, "type": "electric_scooter", "bike_id": "c93680b1714ed3d447afe97d68d517a9", "fusion_lon": 0.0, "lat": 38.9103495, "fusion_lat": 0.0}, {"is_disabled": 0, "rental_uris": {"android": "https://dc.lft.to/lastmile_qr_scan", "ios": "https://dc.lft.to/lastmile_qr_scan"}, "is_reserved": 0, "name": "72a80c899dc4b9fe6c342185eb6fa0aa", "lon": -77.0344785, "type": "electric_scooter", "bike_id": "72a80c899dc4b9fe6c342185eb6fa0aa", "fusion_lon": 0.0, "lat": 38.90245766666666, "fusion_lat": 0.0}, {"is_disabled": 0, "rental_uris": {"android": "https://dc.lft.to/lastmile_qr_scan", "ios": "https://dc.lft.to/lastmile_qr_scan"}, "is_reserved": 0, "name": "818f095d32e408ed8e0cb2f201e5ca37", "lon": -76.99902033333333, "type": "electric_scooter", "bike_id": "818f095d32e408ed8e0cb2f201e5ca37", "fusion_lon": 0.0, "lat": 38.95652783333333, "fusion_lat": 0.0}, {"is_disabled": 0, "rental_uris": {"android": "https://dc.lft.to/lastmile_qr_scan", "ios": "https://dc.lft.to/lastmile_qr_scan"}, "is_reserved": 0, "name": "6aba73045802519ecab39d83d373aa75", "lon": -77.02383533333334, "type": "electric_scooter", "bike_id": "6aba73045802519ecab39d83d373aa75", "fusion_lon": 0.0, "lat": 38.90586916666667, "fusion_lat": 0.0}, {"is_disabled": 0, "rental_uris": {"android": "https://dc.lft.to/lastmile_qr_scan", "ios": "https://dc.lft.to/lastmile_qr_scan"}, "is_reserved": 0, "name": "3e120a0b6012cd676949be56224b8f42", "lon": -77.03441516666666, "type": "electric_scooter", "bike_id": "3e120a0b6012cd676949be56224b8f42", "fusion_lon": 0.0, "lat": 38.909730833333334, "fusion_lat": 0.0}, {"is_disabled": 0, "rental_uris": {"android": "https://dc.lft.to/lastmile_qr_scan", "ios": "https://dc.lft.to/lastmile_qr_scan"}, "is_reserved": 0, "name": "7ce0d5cb47dea4bcf5302e301647b781", "lon": -77.02382116666666, "type": "electric_scooter", "bike_id": "7ce0d5cb47dea4bcf5302e301647b781", "fusion_lon": 0.0, "lat": 38.907077, "fusion_lat": 0.0}, {"is_disabled": 0, "rental_uris": {"android": "https://dc.lft.to/lastmile_qr_scan", "ios": "https://dc.lft.to/lastmile_qr_scan"}, "is_reserved": 0, "name": "f35b85c496b3d5657eb4331d35c7a8a4", "lon": -77.02797316666667, "type": "electric_scooter", "bike_id": "f35b85c496b3d5657eb4331d35c7a8a4", "fusion_lon": 0.0, "lat": 38.930808, "fusion_lat": 0.0}, {"is_disabled": 0, "rental_uris": {"android": "https://dc.lft.to/lastmile_qr_scan", "ios": "https://dc.lft.to/lastmile_qr_scan"}, "is_reserved": 0, "name": "8ae066892b9232d27d0a4c9ccf1e4c8c", "lon": -77.03169716666666, "type": "electric_scooter", "bike_id": "8ae066892b9232d27d0a4c9ccf1e4c8c", "fusion_lon": 0.0, "lat": 38.9212365, "fusion_lat": 0.0}, {"is_disabled": 0, "rental_uris": {"android": "https://dc.lft.to/lastmile_qr_scan", "ios": "https://dc.lft.to/lastmile_qr_scan"}, "is_reserved": 0, "name": "bda85133926cd388503453e2d8c0326d", "lon": -77.0091165, "type": "electric_scooter", "bike_id": "bda85133926cd388503453e2d8c0326d", "fusion_lon": 0.0, "lat": 38.8955385, "fusion_lat": 0.0}, {"is_disabled": 0, "rental_uris": {"android": "https://dc.lft.to/lastmile_qr_scan", "ios": "https://dc.lft.to/lastmile_qr_scan"}, "is_reserved": 0, "name": "1ed8122be18be02b764f99e6d81c5055", "lon": -76.9934445, "type": "electric_scooter", "bike_id": "1ed8122be18be02b764f99e6d81c5055", "fusion_lon": 0.0, "lat": 38.8990155, "fusion_lat": 0.0}, {"is_disabled": 0, "rental_uris": {"android": "https://dc.lft.to/lastmile_qr_scan", "ios": "https://dc.lft.to/lastmile_qr_scan"}, "is_reserved": 0, "name": "642c50d39e9415d28074618c7bfac261", "lon": -76.9865525, "type": "electric_scooter", "bike_id": "642c50d39e9415d28074618c7bfac261", "fusion_lon": 0.0, "lat": 38.913078, "fusion_lat": 0.0}, {"is_disabled": 0, "rental_uris": {"android": "https://dc.lft.to/lastmile_qr_scan", "ios": "https://dc.lft.to/lastmile_qr_scan"}, "is_reserved": 0, "name": "3a370dbf92eab8d9bc3be77a545dfcc4", "lon": -77.0340045, "type": "electric_scooter", "bike_id": "3a370dbf92eab8d9bc3be77a545dfcc4", "fusion_lon": 0.0, "lat": 38.93225733333333, "fusion_lat": 0.0}, {"is_disabled": 0, "rental_uris": {"android": "https://dc.lft.to/lastmile_qr_scan", "ios": "https://dc.lft.to/lastmile_qr_scan"}, "is_reserved": 0, "name": "4816a7d11d9d4ecee7bb6444f98b9544", "lon": -77.0342905, "type": "electric_scooter", "bike_id": "4816a7d11d9d4ecee7bb6444f98b9544", "fusion_lon": 0.0, "lat": 38.91760266666667, "fusion_lat": 0.0}, {"is_disabled": 0, "rental_uris": {"android": "https://dc.lft.to/lastmile_qr_scan", "ios": "https://dc.lft.to/lastmile_qr_scan"}, "is_reserved": 0, "name": "93a901ed59eae8e43670f2162b61ef50", "lon": -77.0317855, "type": "electric_scooter", "bike_id": "93a901ed59eae8e43670f2162b61ef50", "fusion_lon": 0.0, "lat": 38.88345, "fusion_lat": 0.0}, {"is_disabled": 0, "rental_uris": {"android": "https://dc.lft.to/lastmile_qr_scan", "ios": "https://dc.lft.to/lastmile_qr_scan"}, "is_reserved": 0, "name": "fb53f0bdcf3aa33feff9acdff1d68f9e", "lon": -76.94893383333333, "type": "electric_scooter", "bike_id": "fb53f0bdcf3aa33feff9acdff1d68f9e", "fusion_lon": 0.0, "lat": 38.89530966666667, "fusion_lat": 0.0}, {"is_disabled": 0, "rental_uris": {"android": "https://dc.lft.to/lastmile_qr_scan", "ios": "https://dc.lft.to/lastmile_qr_scan"}, "is_reserved": 0, "name": "d299989af249cf697ff5a3216dbf55e9", "lon": -76.98650766666667, "type": "electric_scooter", "bike_id": "d299989af249cf697ff5a3216dbf55e9", "fusion_lon": 0.0, "lat": 38.858022, "fusion_lat": 0.0}, {"is_disabled": 0, "rental_uris": {"android": "https://dc.lft.to/lastmile_qr_scan", "ios": "https://dc.lft.to/lastmile_qr_scan"}, "is_reserved": 0, "name": "add3f880a2335fa35b3f5eadd5cefcb8", "lon": -77.03087216666667, "type": "electric_scooter", "bike_id": "add3f880a2335fa35b3f5eadd5cefcb8", "fusion_lon": 0.0, "lat": 38.909694, "fusion_lat": 0.0}, {"is_disabled": 0, "rental_uris": {"android": "https://dc.lft.to/lastmile_qr_scan", "ios": "https://dc.lft.to/lastmile_qr_scan"}, "is_reserved": 0, "name": "8b4e842c29734e13efecd7edc23ad0e4", "lon": -77.02588166666666, "type": "electric_scooter", "bike_id": "8b4e842c29734e13efecd7edc23ad0e4", "fusion_lon": 0.0, "lat": 38.94200166666667, "fusion_lat": 0.0}, {"is_disabled": 0, "rental_uris": {"android": "https://dc.lft.to/lastmile_qr_scan", "ios": "https://dc.lft.to/lastmile_qr_scan"}, "is_reserved": 0, "name": "c92c042b2bb2bbb9967056b2256dd4d2", "lon": -76.98021683333333, "type": "electric_bike", "bike_id": "c92c042b2bb2bbb9967056b2256dd4d2", "fusion_lon": 0.0, "lat": 38.88750116666667, "fusion_lat": 0.0}, {"is_disabled": 0, "rental_uris": {"android": "https://dc.lft.to/lastmile_qr_scan", "ios": "https://dc.lft.to/lastmile_qr_scan"}, "is_reserved": 0, "name": "106b523ec01243662f20fabfee103bfc", "lon": -77.0385835, "type": "electric_scooter", "bike_id": "106b523ec01243662f20fabfee103bfc", "fusion_lon": 0.0, "lat": 38.9171675, "fusion_lat": 0.0}, {"is_disabled": 0, "rental_uris": {"android": "https://dc.lft.to/lastmile_qr_scan", "ios": "https://dc.lft.to/lastmile_qr_scan"}, "is_reserved": 0, "name": "d94c3e54573d4d01fe9e6e734c07224a", "lon": -76.96523733333333, "type": "electric_scooter", "bike_id": "d94c3e54573d4d01fe9e6e734c07224a", "fusion_lon": 0.0, "lat": 38.876284, "fusion_lat": 0.0}, {"is_disabled": 0, "rental_uris": {"android": "https://dc.lft.to/lastmile_qr_scan", "ios": "https://dc.lft.to/lastmile_qr_scan"}, "is_reserved": 0, "name": "d417f5d9ddac17d9bba041b047621ae2", "lon": -76.933475, "type": "electric_scooter", "bike_id": "d417f5d9ddac17d9bba041b047621ae2", "fusion_lon": 0.0, "lat": 38.89903233333333, "fusion_lat": 0.0}, {"is_disabled": 0, "rental_uris": {"android": "https://dc.lft.to/lastmile_qr_scan", "ios": "https://dc.lft.to/lastmile_qr_scan"}, "is_reserved": 0, "name": "26d12ff7b509e8721648d817cd7eb3bc", "lon": -77.01115616666667, "type": "electric_scooter", "bike_id": "26d12ff7b509e8721648d817cd7eb3bc", "fusion_lon": 0.0, "lat": 38.9035915, "fusion_lat": 0.0}, {"is_disabled": 0, "rental_uris": {"android": "https://dc.lft.to/lastmile_qr_scan", "ios": "https://dc.lft.to/lastmile_qr_scan"}, "is_reserved": 0, "name": "2546a59d0f722ba39c3266ec917116bd", "lon": -77.02430316666667, "type": "electric_scooter", "bike_id": "2546a59d0f722ba39c3266ec917116bd", "fusion_lon": 0.0, "lat": 38.912502833333335, "fusion_lat": 0.0}, {"is_disabled": 0, "rental_uris": {"android": "https://dc.lft.to/lastmile_qr_scan", "ios": "https://dc.lft.to/lastmile_qr_scan"}, "is_reserved": 0, "name": "070b670de5ed9bcbb9f7013682b6e177", "lon": -77.031489, "type": "electric_scooter", "bike_id": "070b670de5ed9bcbb9f7013682b6e177", "fusion_lon": 0.0, "lat": 38.887448, "fusion_lat": 0.0}, {"is_disabled": 0, "rental_uris": {"android": "https://dc.lft.to/lastmile_qr_scan", "ios": "https://dc.lft.to/lastmile_qr_scan"}, "is_reserved": 0, "name": "559fec83ed44fea6204dd8c034e046ba", "lon": -77.005969, "type": "electric_scooter", "bike_id": "559fec83ed44fea6204dd8c034e046ba", "fusion_lon": 0.0, "lat": 38.905684, "fusion_lat": 0.0}, {"is_disabled": 0, "rental_uris": {"android": "https://dc.lft.to/lastmile_qr_scan", "ios": "https://dc.lft.to/lastmile_qr_scan"}, "is_reserved": 0, "name": "3aae0803fd86942cf62a27a6bc11eb3a", "lon": -77.085256, "type": "electric_bike", "bike_id": "3aae0803fd86942cf62a27a6bc11eb3a", "fusion_lon": 0.0, "lat": 38.856475, "fusion_lat": 0.0}, {"is_disabled": 0, "rental_uris": {"android": "https://dc.lft.to/lastmile_qr_scan", "ios": "https://dc.lft.to/lastmile_qr_scan"}, "is_reserved": 0, "name": "cd503db874ee0a7297393a214113296a", "lon": -76.99407466666666, "type": "electric_scooter", "bike_id": "cd503db874ee0a7297393a214113296a", "fusion_lon": 0.0, "lat": 38.877851666666665, "fusion_lat": 0.0}, {"is_disabled": 0, "rental_uris": {"android": "https://dc.lft.to/lastmile_qr_scan", "ios": "https://dc.lft.to/lastmile_qr_scan"}, "is_reserved": 0, "name": "534ee50e5a496031ca8126a61dfc5c1a", "lon": -77.041685, "type": "electric_scooter", "bike_id": "534ee50e5a496031ca8126a61dfc5c1a", "fusion_lon": 0.0, "lat": 38.91502233333333, "fusion_lat": 0.0}, {"is_disabled": 0, "rental_uris": {"android": "https://dc.lft.to/lastmile_qr_scan", "ios": "https://dc.lft.to/lastmile_qr_scan"}, "is_reserved": 0, "name": "537333d1fba0d16c7a85b8c8268eed79", "lon": -77.02720833333333, "type": "electric_scooter", "bike_id": "537333d1fba0d16c7a85b8c8268eed79", "fusion_lon": 0.0, "lat": 38.90854483333333, "fusion_lat": 0.0}, {"is_disabled": 0, "rental_uris": {"android": "https://dc.lft.to/lastmile_qr_scan", "ios": "https://dc.lft.to/lastmile_qr_scan"}, "is_reserved": 0, "name": "e0ecf1448e7a5783e2201af6bb9f56fc", "lon": -77.022244, "type": "electric_scooter", "bike_id": "e0ecf1448e7a5783e2201af6bb9f56fc", "fusion_lon": 0.0, "lat": 38.89220366666667, "fusion_lat": 0.0}, {"is_disabled": 0, "rental_uris": {"android": "https://dc.lft.to/lastmile_qr_scan", "ios": "https://dc.lft.to/lastmile_qr_scan"}, "is_reserved": 0, "name": "74883e53d485ac25065b4f237a747c82", "lon": -77.01010566666666, "type": "electric_scooter", "bike_id": "74883e53d485ac25065b4f237a747c82", "fusion_lon": 0.0, "lat": 38.87965116666667, "fusion_lat": 0.0}, {"is_disabled": 0, "rental_uris": {"android": "https://dc.lft.to/lastmile_qr_scan", "ios": "https://dc.lft.to/lastmile_qr_scan"}, "is_reserved": 0, "name": "05c76dde6f4ef451faac4c8f1e0d7ce2", "lon": -77.00579666666667, "type": "electric_scooter", "bike_id": "05c76dde6f4ef451faac4c8f1e0d7ce2", "fusion_lon": 0.0, "lat": 38.928137666666665, "fusion_lat": 0.0}, {"is_disabled": 0, "rental_uris": {"android": "https://dc.lft.to/lastmile_qr_scan", "ios": "https://dc.lft.to/lastmile_qr_scan"}, "is_reserved": 0, "name": "80b4eb5e9323e7a4f7a64356ca7efb2f", "lon": -76.99514783333333, "type": "electric_scooter", "bike_id": "80b4eb5e9323e7a4f7a64356ca7efb2f", "fusion_lon": 0.0, "lat": 38.89483966666667, "fusion_lat": 0.0}, {"is_disabled": 0, "rental_uris": {"android": "https://dc.lft.to/lastmile_qr_scan", "ios": "https://dc.lft.to/lastmile_qr_scan"}, "is_reserved": 0, "name": "6eb944b6d364c3217e86b0d6aca806c0", "lon": -77.04804883333334, "type": "electric_scooter", "bike_id": "6eb944b6d364c3217e86b0d6aca806c0", "fusion_lon": 0.0, "lat": 38.8995705, "fusion_lat": 0.0}, {"is_disabled": 0, "rental_uris": {"android": "https://dc.lft.to/lastmile_qr_scan", "ios": "https://dc.lft.to/lastmile_qr_scan"}, "is_reserved": 0, "name": "c153bc6a146737359ca2ab75b8d19bf1", "lon": -76.99054, "type": "electric_scooter", "bike_id": "c153bc6a146737359ca2ab75b8d19bf1", "fusion_lon": 0.0, "lat": 38.86352866666667, "fusion_lat": 0.0}, {"is_disabled": 0, "rental_uris": {"android": "https://dc.lft.to/lastmile_qr_scan", "ios": "https://dc.lft.to/lastmile_qr_scan"}, "is_reserved": 0, "name": "bde8adb9c0bb689d0c84e95753848a06", "lon": -76.99388183333333, "type": "electric_scooter", "bike_id": "bde8adb9c0bb689d0c84e95753848a06", "fusion_lon": 0.0, "lat": 38.91008466666667, "fusion_lat": 0.0}, {"is_disabled": 0, "rental_uris": {"android": "https://dc.lft.to/lastmile_qr_scan", "ios": "https://dc.lft.to/lastmile_qr_scan"}, "is_reserved": 0, "name": "a17e12f9ccc4f3778b6fc911b091b6b9", "lon": -77.049982, "type": "electric_scooter", "bike_id": "a17e12f9ccc4f3778b6fc911b091b6b9", "fusion_lon": 0.0, "lat": 38.9053125, "fusion_lat": 0.0}, {"is_disabled": 0, "rental_uris": {"android": "https://dc.lft.to/lastmile_qr_scan", "ios": "https://dc.lft.to/lastmile_qr_scan"}, "is_reserved": 0, "name": "932a6d34f2a303aec7fffac97b708a83", "lon": -77.03210633333333, "type": "electric_scooter", "bike_id": "932a6d34f2a303aec7fffac97b708a83", "fusion_lon": 0.0, "lat": 38.9003295, "fusion_lat": 0.0}, {"is_disabled": 0, "rental_uris": {"android": "https://dc.lft.to/lastmile_qr_scan", "ios": "https://dc.lft.to/lastmile_qr_scan"}, "is_reserved": 0, "name": "4c71bb228500671ffc02da27c79dc9f4", "lon": -76.994043, "type": "electric_scooter", "bike_id": "4c71bb228500671ffc02da27c79dc9f4", "fusion_lon": 0.0, "lat": 38.89468766666667, "fusion_lat": 0.0}, {"is_disabled": 0, "rental_uris": {"android": "https://dc.lft.to/lastmile_qr_scan", "ios": "https://dc.lft.to/lastmile_qr_scan"}, "is_reserved": 0, "name": "bde5bdbfee1ef2c29a1f0187e071c194", "lon": -77.03849433333333, "type": "electric_scooter", "bike_id": "bde5bdbfee1ef2c29a1f0187e071c194", "fusion_lon": 0.0, "lat": 38.931982, "fusion_lat": 0.0}, {"is_disabled": 0, "rental_uris": {"android": "https://dc.lft.to/lastmile_qr_scan", "ios": "https://dc.lft.to/lastmile_qr_scan"}, "is_reserved": 0, "name": "c6a1aa5d99f22bb64745b952060518e2", "lon": -77.05209416666666, "type": "electric_scooter", "bike_id": "c6a1aa5d99f22bb64745b952060518e2", "fusion_lon": 0.0, "lat": 38.92474083333333, "fusion_lat": 0.0}, {"is_disabled": 0, "rental_uris": {"android": "https://dc.lft.to/lastmile_qr_scan", "ios": "https://dc.lft.to/lastmile_qr_scan"}, "is_reserved": 0, "name": "6fee787baee895cdb92d394793122119", "lon": -77.04230983333333, "type": "electric_scooter", "bike_id": "6fee787baee895cdb92d394793122119", "fusion_lon": 0.0, "lat": 38.907612, "fusion_lat": 0.0}, {"is_disabled": 0, "rental_uris": {"android": "https://dc.lft.to/lastmile_qr_scan", "ios": "https://dc.lft.to/lastmile_qr_scan"}, "is_reserved": 0, "name": "3debf92d0a09f3d42f5819f562deaf69", "lon": -76.94630716666667, "type": "electric_scooter", "bike_id": "3debf92d0a09f3d42f5819f562deaf69", "fusion_lon": 0.0, "lat": 38.898345166666665, "fusion_lat": 0.0}, {"is_disabled": 0, "rental_uris": {"android": "https://dc.lft.to/lastmile_qr_scan", "ios": "https://dc.lft.to/lastmile_qr_scan"}, "is_reserved": 0, "name": "0e0411e66276c00d0083961f9fcfa450", "lon": -77.03252383333333, "type": "electric_scooter", "bike_id": "0e0411e66276c00d0083961f9fcfa450", "fusion_lon": 0.0, "lat": 38.9370325, "fusion_lat": 0.0}, {"is_disabled": 0, "rental_uris": {"android": "https://dc.lft.to/lastmile_qr_scan", "ios": "https://dc.lft.to/lastmile_qr_scan"}, "is_reserved": 0, "name": "d26374ac157a8799e164d41a6ee157f3", "lon": -77.059389, "type": "electric_scooter", "bike_id": "d26374ac157a8799e164d41a6ee157f3", "fusion_lon": 0.0, "lat": 38.9367235, "fusion_lat": 0.0}, {"is_disabled": 0, "rental_uris": {"android": "https://dc.lft.to/lastmile_qr_scan", "ios": "https://dc.lft.to/lastmile_qr_scan"}, "is_reserved": 0, "name": "3528614a32fdac7208f47c0850a9d7c7", "lon": -77.03398716666666, "type": "electric_scooter", "bike_id": "3528614a32fdac7208f47c0850a9d7c7", "fusion_lon": 0.0, "lat": 38.903784, "fusion_lat": 0.0}, {"is_disabled": 0, "rental_uris": {"android": "https://dc.lft.to/lastmile_qr_scan", "ios": "https://dc.lft.to/lastmile_qr_scan"}, "is_reserved": 0, "name": "a855ddc4933b70302b0818929a0af7cf", "lon": -77.04539916666667, "type": "electric_scooter", "bike_id": "a855ddc4933b70302b0818929a0af7cf", "fusion_lon": 0.0, "lat": 38.91305883333333, "fusion_lat": 0.0}, {"is_disabled": 0, "rental_uris": {"android": "https://dc.lft.to/lastmile_qr_scan", "ios": "https://dc.lft.to/lastmile_qr_scan"}, "is_reserved": 0, "name": "84ad3ad557d39195f20d608bdeaf6367", "lon": -77.02969716666666, "type": "electric_scooter", "bike_id": "84ad3ad557d39195f20d608bdeaf6367", "fusion_lon": 0.0, "lat": 38.89842016666667, "fusion_lat": 0.0}, {"is_disabled": 0, "rental_uris": {"android": "https://dc.lft.to/lastmile_qr_scan", "ios": "https://dc.lft.to/lastmile_qr_scan"}, "is_reserved": 0, "name": "5f86b16f1e474fa6c7853d7630b8aa83", "lon": -76.99852266666667, "type": "electric_scooter", "bike_id": "5f86b16f1e474fa6c7853d7630b8aa83", "fusion_lon": 0.0, "lat": 38.9001325, "fusion_lat": 0.0}, {"is_disabled": 0, "rental_uris": {"android": "https://dc.lft.to/lastmile_qr_scan", "ios": "https://dc.lft.to/lastmile_qr_scan"}, "is_reserved": 0, "name": "cd0c917a76fc7593203cfc813d91a76f", "lon": -77.01212733333334, "type": "electric_scooter", "bike_id": "cd0c917a76fc7593203cfc813d91a76f", "fusion_lon": 0.0, "lat": 38.897032333333335, "fusion_lat": 0.0}, {"is_disabled": 0, "rental_uris": {"android": "https://dc.lft.to/lastmile_qr_scan", "ios": "https://dc.lft.to/lastmile_qr_scan"}, "is_reserved": 0, "name": "3b4efa2156764cc4824128783b602fdf", "lon": -77.03852933333333, "type": "electric_scooter", "bike_id": "3b4efa2156764cc4824128783b602fdf", "fusion_lon": 0.0, "lat": 38.918339, "fusion_lat": 0.0}, {"is_disabled": 0, "rental_uris": {"android": "https://dc.lft.to/lastmile_qr_scan", "ios": "https://dc.lft.to/lastmile_qr_scan"}, "is_reserved": 0, "name": "f34378a20a7671b226dfc7ce252648f1", "lon": -77.03310633333334, "type": "electric_scooter", "bike_id": "f34378a20a7671b226dfc7ce252648f1", "fusion_lon": 0.0, "lat": 38.91816466666667, "fusion_lat": 0.0}, {"is_disabled": 0, "rental_uris": {"android": "https://dc.lft.to/lastmile_qr_scan", "ios": "https://dc.lft.to/lastmile_qr_scan"}, "is_reserved": 0, "name": "ebcdda50bdf104cafaf78ccd2c5f9df3", "lon": -77.02575083333333, "type": "electric_scooter", "bike_id": "ebcdda50bdf104cafaf78ccd2c5f9df3", "fusion_lon": 0.0, "lat": 38.92031016666667, "fusion_lat": 0.0}, {"is_disabled": 0, "rental_uris": {"android": "https://dc.lft.to/lastmile_qr_scan", "ios": "https://dc.lft.to/lastmile_qr_scan"}, "is_reserved": 0, "name": "94920ecbe54d9611491cd1f33285d822", "lon": -76.9985015, "type": "electric_scooter", "bike_id": "94920ecbe54d9611491cd1f33285d822", "fusion_lon": 0.0, "lat": 38.908854, "fusion_lat": 0.0}, {"is_disabled": 0, "rental_uris": {"android": "https://dc.lft.to/lastmile_qr_scan", "ios": "https://dc.lft.to/lastmile_qr_scan"}, "is_reserved": 0, "name": "5ad890dd1c9a8d3119db0a35191fb168", "lon": -77.04354016666667, "type": "electric_scooter", "bike_id": "5ad890dd1c9a8d3119db0a35191fb168", "fusion_lon": 0.0, "lat": 38.89842933333333, "fusion_lat": 0.0}, {"is_disabled": 0, "rental_uris": {"android": "https://dc.lft.to/lastmile_qr_scan", "ios": "https://dc.lft.to/lastmile_qr_scan"}, "is_reserved": 0, "name": "15115d2a854eac1e813a1c0d4c592890", "lon": -77.00331633333333, "type": "electric_scooter", "bike_id": "15115d2a854eac1e813a1c0d4c592890", "fusion_lon": 0.0, "lat": 38.8935355, "fusion_lat": 0.0}, {"is_disabled": 0, "rental_uris": {"android": "https://dc.lft.to/lastmile_qr_scan", "ios": "https://dc.lft.to/lastmile_qr_scan"}, "is_reserved": 0, "name": "92decd54145b258a9a36f8a2f628d636", "lon": -77.00331733333333, "type": "electric_scooter", "bike_id": "92decd54145b258a9a36f8a2f628d636", "fusion_lon": 0.0, "lat": 38.90462133333333, "fusion_lat": 0.0}, {"is_disabled": 0, "rental_uris": {"android": "https://dc.lft.to/lastmile_qr_scan", "ios": "https://dc.lft.to/lastmile_qr_scan"}, "is_reserved": 0, "name": "8d36449e9316c87bb90fbf0aa625f96d", "lon": -77.0788775, "type": "electric_bike", "bike_id": "8d36449e9316c87bb90fbf0aa625f96d", "fusion_lon": 0.0, "lat": 38.83935016666667, "fusion_lat": 0.0}, {"is_disabled": 0, "rental_uris": {"android": "https://dc.lft.to/lastmile_qr_scan", "ios": "https://dc.lft.to/lastmile_qr_scan"}, "is_reserved": 0, "name": "a53cced96194252c805e2c7a826bfe6e", "lon": -77.036642, "type": "electric_scooter", "bike_id": "a53cced96194252c805e2c7a826bfe6e", "fusion_lon": 0.0, "lat": 38.922572833333334, "fusion_lat": 0.0}, {"is_disabled": 0, "rental_uris": {"android": "https://dc.lft.to/lastmile_qr_scan", "ios": "https://dc.lft.to/lastmile_qr_scan"}, "is_reserved": 0, "name": "d6473aa7169ab42a330f2cf569e94233", "lon": -77.03467533333334, "type": "electric_scooter", "bike_id": "d6473aa7169ab42a330f2cf569e94233", "fusion_lon": 0.0, "lat": 38.92154033333333, "fusion_lat": 0.0}, {"is_disabled": 0, "rental_uris": {"android": "https://dc.lft.to/lastmile_qr_scan", "ios": "https://dc.lft.to/lastmile_qr_scan"}, "is_reserved": 0, "name": "a6e0e6388e38db31881e6cb90289f17c", "lon": -77.0511055, "type": "electric_scooter", "bike_id": "a6e0e6388e38db31881e6cb90289f17c", "fusion_lon": 0.0, "lat": 38.923625, "fusion_lat": 0.0}, {"is_disabled": 0, "rental_uris": {"android": "https://dc.lft.to/lastmile_qr_scan", "ios": "https://dc.lft.to/lastmile_qr_scan"}, "is_reserved": 0, "name": "ba6709dac5f72243deee8680a054903a", "lon": -77.05134116666666, "type": "electric_scooter", "bike_id": "ba6709dac5f72243deee8680a054903a", "fusion_lon": 0.0, "lat": 38.90594766666667, "fusion_lat": 0.0}, {"is_disabled": 0, "rental_uris": {"android": "https://dc.lft.to/lastmile_qr_scan", "ios": "https://dc.lft.to/lastmile_qr_scan"}, "is_reserved": 0, "name": "42f815b2583e47565d2cfddec8ee0b70", "lon": -76.95209566666666, "type": "electric_scooter", "bike_id": "42f815b2583e47565d2cfddec8ee0b70", "fusion_lon": 0.0, "lat": 38.892468666666666, "fusion_lat": 0.0}, {"is_disabled": 0, "rental_uris": {"android": "https://dc.lft.to/lastmile_qr_scan", "ios": "https://dc.lft.to/lastmile_qr_scan"}, "is_reserved": 0, "name": "26c708984c5a88ff67a6137284f5e702", "lon": -77.0445355, "type": "electric_scooter", "bike_id": "26c708984c5a88ff67a6137284f5e702", "fusion_lon": 0.0, "lat": 38.918687, "fusion_lat": 0.0}, {"is_disabled": 0, "rental_uris": {"android": "https://dc.lft.to/lastmile_qr_scan", "ios": "https://dc.lft.to/lastmile_qr_scan"}, "is_reserved": 0, "name": "beba3b0f83a4fcac72892031fb9a3a01", "lon": -77.00863816666667, "type": "electric_bike", "bike_id": "beba3b0f83a4fcac72892031fb9a3a01", "fusion_lon": 0.0, "lat": 38.8273265, "fusion_lat": 0.0}, {"is_disabled": 0, "rental_uris": {"android": "https://dc.lft.to/lastmile_qr_scan", "ios": "https://dc.lft.to/lastmile_qr_scan"}, "is_reserved": 0, "name": "ce8f0536b57b502eb9e324af19797571", "lon": -77.04153933333333, "type": "electric_scooter", "bike_id": "ce8f0536b57b502eb9e324af19797571", "fusion_lon": 0.0, "lat": 38.898543333333336, "fusion_lat": 0.0}, {"is_disabled": 0, "rental_uris": {"android": "https://dc.lft.to/lastmile_qr_scan", "ios": "https://dc.lft.to/lastmile_qr_scan"}, "is_reserved": 0, "name": "5a701bbfa3b06c06fbe9fc68bf19649f", "lon": -77.0385505, "type": "electric_scooter", "bike_id": "5a701bbfa3b06c06fbe9fc68bf19649f", "fusion_lon": 0.0, "lat": 38.917140333333336, "fusion_lat": 0.0}, {"is_disabled": 0, "rental_uris": {"android": "https://dc.lft.to/lastmile_qr_scan", "ios": "https://dc.lft.to/lastmile_qr_scan"}, "is_reserved": 0, "name": "5698506e32c74a48f5496d5dea3371c0", "lon": -77.02942133333333, "type": "electric_scooter", "bike_id": "5698506e32c74a48f5496d5dea3371c0", "fusion_lon": 0.0, "lat": 38.91702516666667, "fusion_lat": 0.0}, {"is_disabled": 0, "rental_uris": {"android": "https://dc.lft.to/lastmile_qr_scan", "ios": "https://dc.lft.to/lastmile_qr_scan"}, "is_reserved": 0, "name": "f1d23141ab357ccf329b5fe37befac4e", "lon": -77.04195416666667, "type": "electric_scooter", "bike_id": "f1d23141ab357ccf329b5fe37befac4e", "fusion_lon": 0.0, "lat": 38.916713666666666, "fusion_lat": 0.0}, {"is_disabled": 0, "rental_uris": {"android": "https://dc.lft.to/lastmile_qr_scan", "ios": "https://dc.lft.to/lastmile_qr_scan"}, "is_reserved": 0, "name": "4db43bcc3a7a4ab23f1a57f07f547b80", "lon": -77.04318283333333, "type": "electric_bike", "bike_id": "4db43bcc3a7a4ab23f1a57f07f547b80", "fusion_lon": 0.0, "lat": 38.8312405, "fusion_lat": 0.0}, {"is_disabled": 0, "rental_uris": {"android": "https://dc.lft.to/lastmile_qr_scan", "ios": "https://dc.lft.to/lastmile_qr_scan"}, "is_reserved": 0, "name": "ecdc16cecaf6bb03b7b3cb51f055edab", "lon": -77.02971283333333, "type": "electric_scooter", "bike_id": "ecdc16cecaf6bb03b7b3cb51f055edab", "fusion_lon": 0.0, "lat": 38.89831366666667, "fusion_lat": 0.0}, {"is_disabled": 0, "rental_uris": {"android": "https://dc.lft.to/lastmile_qr_scan", "ios": "https://dc.lft.to/lastmile_qr_scan"}, "is_reserved": 0, "name": "5d83ed72631bccadc27c84e06f8c9131", "lon": -77.025348, "type": "electric_scooter", "bike_id": "5d83ed72631bccadc27c84e06f8c9131", "fusion_lon": 0.0, "lat": 38.90091116666667, "fusion_lat": 0.0}, {"is_disabled": 0, "rental_uris": {"android": "https://dc.lft.to/lastmile_qr_scan", "ios": "https://dc.lft.to/lastmile_qr_scan"}, "is_reserved": 0, "name": "08442dd054e8bb476d6925bec061dec6", "lon": -77.03992316666667, "type": "electric_scooter", "bike_id": "08442dd054e8bb476d6925bec061dec6", "fusion_lon": 0.0, "lat": 38.91802783333333, "fusion_lat": 0.0}, {"is_disabled": 0, "rental_uris": {"android": "https://dc.lft.to/lastmile_qr_scan", "ios": "https://dc.lft.to/lastmile_qr_scan"}, "is_reserved": 0, "name": "ae516f201b34d2202673f173581f8d03", "lon": -77.012872, "type": "electric_scooter", "bike_id": "ae516f201b34d2202673f173581f8d03", "fusion_lon": 0.0, "lat": 38.899963, "fusion_lat": 0.0}, {"is_disabled": 0, "rental_uris": {"android": "https://dc.lft.to/lastmile_qr_scan", "ios": "https://dc.lft.to/lastmile_qr_scan"}, "is_reserved": 0, "name": "895309acac78125f8b0de345cd5b92d3", "lon": -76.96519133333334, "type": "electric_scooter", "bike_id": "895309acac78125f8b0de345cd5b92d3", "fusion_lon": 0.0, "lat": 38.85079183333333, "fusion_lat": 0.0}, {"is_disabled": 0, "rental_uris": {"android": "https://dc.lft.to/lastmile_qr_scan", "ios": "https://dc.lft.to/lastmile_qr_scan"}, "is_reserved": 0, "name": "3a339ddf54fe171552259a717092952e", "lon": -77.03817816666667, "type": "electric_scooter", "bike_id": "3a339ddf54fe171552259a717092952e", "fusion_lon": 0.0, "lat": 38.90963083333333, "fusion_lat": 0.0}, {"is_disabled": 0, "rental_uris": {"android": "https://dc.lft.to/lastmile_qr_scan", "ios": "https://dc.lft.to/lastmile_qr_scan"}, "is_reserved": 0, "name": "8dd9719616fa6a81d2cd6e6a4e325a66", "lon": -77.03193416666667, "type": "electric_scooter", "bike_id": "8dd9719616fa6a81d2cd6e6a4e325a66", "fusion_lon": 0.0, "lat": 38.905297166666664, "fusion_lat": 0.0}, {"is_disabled": 0, "rental_uris": {"android": "https://dc.lft.to/lastmile_qr_scan", "ios": "https://dc.lft.to/lastmile_qr_scan"}, "is_reserved": 0, "name": "c46337613b77c45d8e9d22cb356e4fea", "lon": -77.0269235, "type": "electric_scooter", "bike_id": "c46337613b77c45d8e9d22cb356e4fea", "fusion_lon": 0.0, "lat": 38.91136083333333, "fusion_lat": 0.0}, {"is_disabled": 0, "rental_uris": {"android": "https://dc.lft.to/lastmile_qr_scan", "ios": "https://dc.lft.to/lastmile_qr_scan"}, "is_reserved": 0, "name": "1828fabfe12c409d6904f1e84a1fdf38", "lon": -77.0075985, "type": "electric_scooter", "bike_id": "1828fabfe12c409d6904f1e84a1fdf38", "fusion_lon": 0.0, "lat": 38.91029233333333, "fusion_lat": 0.0}, {"is_disabled": 0, "rental_uris": {"android": "https://dc.lft.to/lastmile_qr_scan", "ios": "https://dc.lft.to/lastmile_qr_scan"}, "is_reserved": 0, "name": "15b6d72b0dc72799bf869eea485ac5a7", "lon": -77.041517, "type": "electric_scooter", "bike_id": "15b6d72b0dc72799bf869eea485ac5a7", "fusion_lon": 0.0, "lat": 38.90139883333333, "fusion_lat": 0.0}, {"is_disabled": 0, "rental_uris": {"android": "https://dc.lft.to/lastmile_qr_scan", "ios": "https://dc.lft.to/lastmile_qr_scan"}, "is_reserved": 0, "name": "002f32766f2fb462c06e1c3b68fb1990", "lon": -77.01755316666667, "type": "electric_scooter", "bike_id": "002f32766f2fb462c06e1c3b68fb1990", "fusion_lon": 0.0, "lat": 38.877206, "fusion_lat": 0.0}, {"is_disabled": 0, "rental_uris": {"android": "https://dc.lft.to/lastmile_qr_scan", "ios": "https://dc.lft.to/lastmile_qr_scan"}, "is_reserved": 0, "name": "b5072f5ab2da08180bf5edd50e9c1c8b", "lon": -76.98331433333334, "type": "electric_scooter", "bike_id": "b5072f5ab2da08180bf5edd50e9c1c8b", "fusion_lon": 0.0, "lat": 38.895455166666665, "fusion_lat": 0.0}, {"is_disabled": 0, "rental_uris": {"android": "https://dc.lft.to/lastmile_qr_scan", "ios": "https://dc.lft.to/lastmile_qr_scan"}, "is_reserved": 0, "name": "7c9c6132ab0f6a8d6f7c4ea92d107434", "lon": -77.05329016666667, "type": "electric_scooter", "bike_id": "7c9c6132ab0f6a8d6f7c4ea92d107434", "fusion_lon": 0.0, "lat": 38.923147166666666, "fusion_lat": 0.0}, {"is_disabled": 0, "rental_uris": {"android": "https://dc.lft.to/lastmile_qr_scan", "ios": "https://dc.lft.to/lastmile_qr_scan"}, "is_reserved": 0, "name": "33d4565241cc4f3e75ad9ff67ee194f7", "lon": -77.02927183333334, "type": "electric_scooter", "bike_id": "33d4565241cc4f3e75ad9ff67ee194f7", "fusion_lon": 0.0, "lat": 38.882164333333336, "fusion_lat": 0.0}, {"is_disabled": 0, "rental_uris": {"android": "https://dc.lft.to/lastmile_qr_scan", "ios": "https://dc.lft.to/lastmile_qr_scan"}, "is_reserved": 0, "name": "54948de48b15af89d79219aeb4d45f87", "lon": -77.04869366666667, "type": "electric_scooter", "bike_id": "54948de48b15af89d79219aeb4d45f87", "fusion_lon": 0.0, "lat": 38.909494, "fusion_lat": 0.0}, {"is_disabled": 0, "rental_uris": {"android": "https://dc.lft.to/lastmile_qr_scan", "ios": "https://dc.lft.to/lastmile_qr_scan"}, "is_reserved": 0, "name": "7523c6931ec59b251136d07878a4a7c5", "lon": -77.01763016666666, "type": "electric_scooter", "bike_id": "7523c6931ec59b251136d07878a4a7c5", "fusion_lon": 0.0, "lat": 38.906449, "fusion_lat": 0.0}, {"is_disabled": 0, "rental_uris": {"android": "https://dc.lft.to/lastmile_qr_scan", "ios": "https://dc.lft.to/lastmile_qr_scan"}, "is_reserved": 0, "name": "da63f5ea3bcc7ecc50649f8b16bee8f3", "lon": -77.00736666666667, "type": "electric_scooter", "bike_id": "da63f5ea3bcc7ecc50649f8b16bee8f3", "fusion_lon": 0.0, "lat": 38.9154905, "fusion_lat": 0.0}, {"is_disabled": 0, "rental_uris": {"android": "https://dc.lft.to/lastmile_qr_scan", "ios": "https://dc.lft.to/lastmile_qr_scan"}, "is_reserved": 0, "name": "2edf04032f1d89037eceb366e9a32bf3", "lon": -77.00336233333333, "type": "electric_scooter", "bike_id": "2edf04032f1d89037eceb366e9a32bf3", "fusion_lon": 0.0, "lat": 38.8935655, "fusion_lat": 0.0}, {"is_disabled": 0, "rental_uris": {"android": "https://dc.lft.to/lastmile_qr_scan", "ios": "https://dc.lft.to/lastmile_qr_scan"}, "is_reserved": 0, "name": "40786443d5049b5a022a22cc16cfa13e", "lon": -77.0295585, "type": "electric_scooter", "bike_id": "40786443d5049b5a022a22cc16cfa13e", "fusion_lon": 0.0, "lat": 38.8922655, "fusion_lat": 0.0}, {"is_disabled": 0, "rental_uris": {"android": "https://dc.lft.to/lastmile_qr_scan", "ios": "https://dc.lft.to/lastmile_qr_scan"}, "is_reserved": 0, "name": "ad3d66622a23b22040ffaa73151a6c07", "lon": -77.12627016666667, "type": "electric_bike", "bike_id": "ad3d66622a23b22040ffaa73151a6c07", "fusion_lon": 0.0, "lat": 39.058091833333336, "fusion_lat": 0.0}, {"is_disabled": 0, "rental_uris": {"android": "https://dc.lft.to/lastmile_qr_scan", "ios": "https://dc.lft.to/lastmile_qr_scan"}, "is_reserved": 0, "name": "332d394fdf19f03bf4ee9318948c064b", "lon": -77.03250233333333, "type": "electric_scooter", "bike_id": "332d394fdf19f03bf4ee9318948c064b", "fusion_lon": 0.0, "lat": 38.928832666666665, "fusion_lat": 0.0}, {"is_disabled": 0, "rental_uris": {"android": "https://dc.lft.to/lastmile_qr_scan", "ios": "https://dc.lft.to/lastmile_qr_scan"}, "is_reserved": 0, "name": "8934111cdabc41be34e2cfb58472d509", "lon": -77.02121066666666, "type": "electric_scooter", "bike_id": "8934111cdabc41be34e2cfb58472d509", "fusion_lon": 0.0, "lat": 38.887432833333335, "fusion_lat": 0.0}, {"is_disabled": 0, "rental_uris": {"android": "https://dc.lft.to/lastmile_qr_scan", "ios": "https://dc.lft.to/lastmile_qr_scan"}, "is_reserved": 0, "name": "28af249a391b8001890cb080c9a0c481", "lon": -77.022265, "type": "electric_scooter", "bike_id": "28af249a391b8001890cb080c9a0c481", "fusion_lon": 0.0, "lat": 38.8874505, "fusion_lat": 0.0}, {"is_disabled": 0, "rental_uris": {"android": "https://dc.lft.to/lastmile_qr_scan", "ios": "https://dc.lft.to/lastmile_qr_scan"}, "is_reserved": 0, "name": "3f8c6a14c9c74f86f68e4d690249d75c", "lon": -77.03201216666666, "type": "electric_scooter", "bike_id": "3f8c6a14c9c74f86f68e4d690249d75c", "fusion_lon": 0.0, "lat": 38.91998183333333, "fusion_lat": 0.0}, {"is_disabled": 0, "rental_uris": {"android": "https://dc.lft.to/lastmile_qr_scan", "ios": "https://dc.lft.to/lastmile_qr_scan"}, "is_reserved": 0, "name": "307fe86ded29d1003bdf681b5bff4734", "lon": -77.04149883333334, "type": "electric_scooter", "bike_id": "307fe86ded29d1003bdf681b5bff4734", "fusion_lon": 0.0, "lat": 38.91022866666667, "fusion_lat": 0.0}, {"is_disabled": 0, "rental_uris": {"android": "https://dc.lft.to/lastmile_qr_scan", "ios": "https://dc.lft.to/lastmile_qr_scan"}, "is_reserved": 0, "name": "cd5a2ce6f0ce030e1364352de3048ac9", "lon": -77.06147033333333, "type": "electric_scooter", "bike_id": "cd5a2ce6f0ce030e1364352de3048ac9", "fusion_lon": 0.0, "lat": 38.90502433333333, "fusion_lat": 0.0}, {"is_disabled": 0, "rental_uris": {"android": "https://dc.lft.to/lastmile_qr_scan", "ios": "https://dc.lft.to/lastmile_qr_scan"}, "is_reserved": 0, "name": "f4c2382ed1c7740e53bf2631f86c6ae5", "lon": -77.026544, "type": "electric_bike", "bike_id": "f4c2382ed1c7740e53bf2631f86c6ae5", "fusion_lon": 0.0, "lat": 38.988150833333336, "fusion_lat": 0.0}, {"is_disabled": 0, "rental_uris": {"android": "https://dc.lft.to/lastmile_qr_scan", "ios": "https://dc.lft.to/lastmile_qr_scan"}, "is_reserved": 0, "name": "7eff3e5fe0cd28980badcb668b15f0aa", "lon": -77.17523066666666, "type": "electric_bike", "bike_id": "7eff3e5fe0cd28980badcb668b15f0aa", "fusion_lon": 0.0, "lat": 39.09598366666667, "fusion_lat": 0.0}, {"is_disabled": 0, "rental_uris": {"android": "https://dc.lft.to/lastmile_qr_scan", "ios": "https://dc.lft.to/lastmile_qr_scan"}, "is_reserved": 0, "name": "1215fce6f08ed7a7b701a2707cb27bce", "lon": -77.04158016666666, "type": "electric_scooter", "bike_id": "1215fce6f08ed7a7b701a2707cb27bce", "fusion_lon": 0.0, "lat": 38.915741, "fusion_lat": 0.0}, {"is_disabled": 0, "rental_uris": {"android": "https://dc.lft.to/lastmile_qr_scan", "ios": "https://dc.lft.to/lastmile_qr_scan"}, "is_reserved": 0, "name": "361f1c82b3a8877f271f7e1cb07f2a1b", "lon": -77.021157, "type": "electric_scooter", "bike_id": "361f1c82b3a8877f271f7e1cb07f2a1b", "fusion_lon": 0.0, "lat": 38.91738683333333, "fusion_lat": 0.0}, {"is_disabled": 0, "rental_uris": {"android": "https://dc.lft.to/lastmile_qr_scan", "ios": "https://dc.lft.to/lastmile_qr_scan"}, "is_reserved": 0, "name": "334cd6ef00d850ba5b9c6865551f09ca", "lon": -77.03325183333334, "type": "electric_scooter", "bike_id": "334cd6ef00d850ba5b9c6865551f09ca", "fusion_lon": 0.0, "lat": 38.89843583333333, "fusion_lat": 0.0}, {"is_disabled": 0, "rental_uris": {"android": "https://dc.lft.to/lastmile_qr_scan", "ios": "https://dc.lft.to/lastmile_qr_scan"}, "is_reserved": 0, "name": "88b7a228b18ad98974df44c25afac08b", "lon": -77.02678233333333, "type": "electric_scooter", "bike_id": "88b7a228b18ad98974df44c25afac08b", "fusion_lon": 0.0, "lat": 38.89526866666667, "fusion_lat": 0.0}, {"is_disabled": 0, "rental_uris": {"android": "https://dc.lft.to/lastmile_qr_scan", "ios": "https://dc.lft.to/lastmile_qr_scan"}, "is_reserved": 0, "name": "34daf35371257b12bfa5a755a3329a7a", "lon": -77.0637405, "type": "electric_bike", "bike_id": "34daf35371257b12bfa5a755a3329a7a", "fusion_lon": 0.0, "lat": 39.01729433333333, "fusion_lat": 0.0}, {"is_disabled": 0, "rental_uris": {"android": "https://dc.lft.to/lastmile_qr_scan", "ios": "https://dc.lft.to/lastmile_qr_scan"}, "is_reserved": 0, "name": "278724e43e994adb94b483f8048583e8", "lon": -77.0020065, "type": "electric_bike", "bike_id": "278724e43e994adb94b483f8048583e8", "fusion_lon": 0.0, "lat": 38.819415166666666, "fusion_lat": 0.0}, {"is_disabled": 0, "rental_uris": {"android": "https://dc.lft.to/lastmile_qr_scan", "ios": "https://dc.lft.to/lastmile_qr_scan"}, "is_reserved": 0, "name": "d331b05c43a09df404a0239199004cbe", "lon": -76.960873, "type": "electric_bike", "bike_id": "d331b05c43a09df404a0239199004cbe", "fusion_lon": 0.0, "lat": 38.918584, "fusion_lat": 0.0}, {"is_disabled": 0, "rental_uris": {"android": "https://dc.lft.to/lastmile_qr_scan", "ios": "https://dc.lft.to/lastmile_qr_scan"}, "is_reserved": 0, "name": "107a90d76d84fffe463b3718bcbb5612", "lon": -77.05215633333333, "type": "electric_scooter", "bike_id": "107a90d76d84fffe463b3718bcbb5612", "fusion_lon": 0.0, "lat": 38.89798833333333, "fusion_lat": 0.0}, {"is_disabled": 0, "rental_uris": {"android": "https://dc.lft.to/lastmile_qr_scan", "ios": "https://dc.lft.to/lastmile_qr_scan"}, "is_reserved": 0, "name": "9f7fb2f000e1cec21c170caf836ac9a3", "lon": -77.0105715, "type": "electric_scooter", "bike_id": "9f7fb2f000e1cec21c170caf836ac9a3", "fusion_lon": 0.0, "lat": 38.866706666666666, "fusion_lat": 0.0}, {"is_disabled": 0, "rental_uris": {"android": "https://dc.lft.to/lastmile_qr_scan", "ios": "https://dc.lft.to/lastmile_qr_scan"}, "is_reserved": 0, "name": "c8d49ed78033a29703d04c7bbb17dee9", "lon": -77.026773, "type": "electric_scooter", "bike_id": "c8d49ed78033a29703d04c7bbb17dee9", "fusion_lon": 0.0, "lat": 38.91263466666667, "fusion_lat": 0.0}, {"is_disabled": 0, "rental_uris": {"android": "https://dc.lft.to/lastmile_qr_scan", "ios": "https://dc.lft.to/lastmile_qr_scan"}, "is_reserved": 0, "name": "1c289cc0d3c674f9031aeadf14893eee", "lon": -76.92755283333334, "type": "electric_bike", "bike_id": "1c289cc0d3c674f9031aeadf14893eee", "fusion_lon": 0.0, "lat": 38.960332, "fusion_lat": 0.0}, {"is_disabled": 0, "rental_uris": {"android": "https://dc.lft.to/lastmile_qr_scan", "ios": "https://dc.lft.to/lastmile_qr_scan"}, "is_reserved": 0, "name": "1cf4f401c30179a833de98e4acab3463", "lon": -77.06696566666666, "type": "electric_scooter", "bike_id": "1cf4f401c30179a833de98e4acab3463", "fusion_lon": 0.0, "lat": 38.95587183333333, "fusion_lat": 0.0}, {"is_disabled": 0, "rental_uris": {"android": "https://dc.lft.to/lastmile_qr_scan", "ios": "https://dc.lft.to/lastmile_qr_scan"}, "is_reserved": 0, "name": "73a788d7f874d3d54ba73adbe3f2a01d", "lon": -76.988807, "type": "electric_scooter", "bike_id": "73a788d7f874d3d54ba73adbe3f2a01d", "fusion_lon": 0.0, "lat": 38.866696166666664, "fusion_lat": 0.0}, {"is_disabled": 0, "rental_uris": {"android": "https://dc.lft.to/lastmile_qr_scan", "ios": "https://dc.lft.to/lastmile_qr_scan"}, "is_reserved": 0, "name": "3ce24e4c48e3701211611be6ae97f8dc", "lon": -77.003656, "type": "electric_scooter", "bike_id": "3ce24e4c48e3701211611be6ae97f8dc", "fusion_lon": 0.0, "lat": 38.877581666666664, "fusion_lat": 0.0}, {"is_disabled": 0, "rental_uris": {"android": "https://dc.lft.to/lastmile_qr_scan", "ios": "https://dc.lft.to/lastmile_qr_scan"}, "is_reserved": 0, "name": "de75871e1f70c8789aa9a29160abac38", "lon": -77.0358235, "type": "electric_scooter", "bike_id": "de75871e1f70c8789aa9a29160abac38", "fusion_lon": 0.0, "lat": 38.907594833333334, "fusion_lat": 0.0}, {"is_disabled": 0, "rental_uris": {"android": "https://dc.lft.to/lastmile_qr_scan", "ios": "https://dc.lft.to/lastmile_qr_scan"}, "is_reserved": 0, "name": "f26fca62e774a770e2f3017e6c80c209", "lon": -77.0282975, "type": "electric_scooter", "bike_id": "f26fca62e774a770e2f3017e6c80c209", "fusion_lon": 0.0, "lat": 38.931897166666666, "fusion_lat": 0.0}, {"is_disabled": 0, "rental_uris": {"android": "https://dc.lft.to/lastmile_qr_scan", "ios": "https://dc.lft.to/lastmile_qr_scan"}, "is_reserved": 0, "name": "6bc8a3b479b19d9c78a235b839c3bdf5", "lon": -77.04083966666667, "type": "electric_bike", "bike_id": "6bc8a3b479b19d9c78a235b839c3bdf5", "fusion_lon": 0.0, "lat": 38.90394583333333, "fusion_lat": 0.0}, {"is_disabled": 0, "rental_uris": {"android": "https://dc.lft.to/lastmile_qr_scan", "ios": "https://dc.lft.to/lastmile_qr_scan"}, "is_reserved": 0, "name": "6840b3770796ae1b7ded66141b18aa1f", "lon": -77.04991116666666, "type": "electric_scooter", "bike_id": "6840b3770796ae1b7ded66141b18aa1f", "fusion_lon": 0.0, "lat": 38.897722333333334, "fusion_lat": 0.0}, {"is_disabled": 0, "rental_uris": {"android": "https://dc.lft.to/lastmile_qr_scan", "ios": "https://dc.lft.to/lastmile_qr_scan"}, "is_reserved": 0, "name": "654aaf3122cfd1b43469efe1850f571e", "lon": -77.0414985, "type": "electric_scooter", "bike_id": "654aaf3122cfd1b43469efe1850f571e", "fusion_lon": 0.0, "lat": 38.901349333333336, "fusion_lat": 0.0}, {"is_disabled": 0, "rental_uris": {"android": "https://dc.lft.to/lastmile_qr_scan", "ios": "https://dc.lft.to/lastmile_qr_scan"}, "is_reserved": 0, "name": "e3379c203b257222cf5beb7915cec164", "lon": -76.98885766666666, "type": "electric_scooter", "bike_id": "e3379c203b257222cf5beb7915cec164", "fusion_lon": 0.0, "lat": 38.866750833333334, "fusion_lat": 0.0}, {"is_disabled": 0, "rental_uris": {"android": "https://dc.lft.to/lastmile_qr_scan", "ios": "https://dc.lft.to/lastmile_qr_scan"}, "is_reserved": 0, "name": "96b2c47a26a56a85f5b3d4e5ec3bded4", "lon": -77.04610133333334, "type": "electric_scooter", "bike_id": "96b2c47a26a56a85f5b3d4e5ec3bded4", "fusion_lon": 0.0, "lat": 38.9155015, "fusion_lat": 0.0}, {"is_disabled": 0, "rental_uris": {"android": "https://dc.lft.to/lastmile_qr_scan", "ios": "https://dc.lft.to/lastmile_qr_scan"}, "is_reserved": 0, "name": "e714da6c848e38d33b0b45c9a5cae4da", "lon": -77.03293416666666, "type": "electric_scooter", "bike_id": "e714da6c848e38d33b0b45c9a5cae4da", "fusion_lon": 0.0, "lat": 38.92052183333333, "fusion_lat": 0.0}, {"is_disabled": 0, "rental_uris": {"android": "https://dc.lft.to/lastmile_qr_scan", "ios": "https://dc.lft.to/lastmile_qr_scan"}, "is_reserved": 0, "name": "8986d1b4be1874a61dcd871cbccc1c3b", "lon": -77.02194016666667, "type": "electric_scooter", "bike_id": "8986d1b4be1874a61dcd871cbccc1c3b", "fusion_lon": 0.0, "lat": 38.896107, "fusion_lat": 0.0}, {"is_disabled": 0, "rental_uris": {"android": "https://dc.lft.to/lastmile_qr_scan", "ios": "https://dc.lft.to/lastmile_qr_scan"}, "is_reserved": 0, "name": "f999a0a9687185375d805aa72fa09ce9", "lon": -77.1779725, "type": "electric_bike", "bike_id": "f999a0a9687185375d805aa72fa09ce9", "fusion_lon": 0.0, "lat": 39.08840083333333, "fusion_lat": 0.0}, {"is_disabled": 0, "rental_uris": {"android": "https://dc.lft.to/lastmile_qr_scan", "ios": "https://dc.lft.to/lastmile_qr_scan"}, "is_reserved": 0, "name": "e2a2ebca1b8be8f84226923076734172", "lon": -77.0326595, "type": "electric_scooter", "bike_id": "e2a2ebca1b8be8f84226923076734172", "fusion_lon": 0.0, "lat": 38.913334166666665, "fusion_lat": 0.0}, {"is_disabled": 0, "rental_uris": {"android": "https://dc.lft.to/lastmile_qr_scan", "ios": "https://dc.lft.to/lastmile_qr_scan"}, "is_reserved": 0, "name": "2979b296ced3c18e6711b9d9eb505d9f", "lon": -76.95398983333334, "type": "electric_scooter", "bike_id": "2979b296ced3c18e6711b9d9eb505d9f", "fusion_lon": 0.0, "lat": 38.884292, "fusion_lat": 0.0}, {"is_disabled": 0, "rental_uris": {"android": "https://dc.lft.to/lastmile_qr_scan", "ios": "https://dc.lft.to/lastmile_qr_scan"}, "is_reserved": 0, "name": "948c2ff0cc6edeabbae9b989561df96a", "lon": -76.99598433333334, "type": "electric_scooter", "bike_id": "948c2ff0cc6edeabbae9b989561df96a", "fusion_lon": 0.0, "lat": 38.900364333333336, "fusion_lat": 0.0}, {"is_disabled": 0, "rental_uris": {"android": "https://dc.lft.to/lastmile_qr_scan", "ios": "https://dc.lft.to/lastmile_qr_scan"}, "is_reserved": 0, "name": "0d882774143992809e45983b472530da", "lon": -76.99002583333333, "type": "electric_scooter", "bike_id": "0d882774143992809e45983b472530da", "fusion_lon": 0.0, "lat": 38.8650535, "fusion_lat": 0.0}, {"is_disabled": 0, "rental_uris": {"android": "https://dc.lft.to/lastmile_qr_scan", "ios": "https://dc.lft.to/lastmile_qr_scan"}, "is_reserved": 0, "name": "2a925a1716158f67a6aadeaa1f00a1f3", "lon": -77.03329583333333, "type": "electric_scooter", "bike_id": "2a925a1716158f67a6aadeaa1f00a1f3", "fusion_lon": 0.0, "lat": 38.89845016666666, "fusion_lat": 0.0}, {"is_disabled": 0, "rental_uris": {"android": "https://dc.lft.to/lastmile_qr_scan", "ios": "https://dc.lft.to/lastmile_qr_scan"}, "is_reserved": 0, "name": "957ba55440bf2980da0caf9b9bf36b3f", "lon": -77.041425, "type": "electric_scooter", "bike_id": "957ba55440bf2980da0caf9b9bf36b3f", "fusion_lon": 0.0, "lat": 38.910234333333335, "fusion_lat": 0.0}, {"is_disabled": 0, "rental_uris": {"android": "https://dc.lft.to/lastmile_qr_scan", "ios": "https://dc.lft.to/lastmile_qr_scan"}, "is_reserved": 0, "name": "41f9dd497e1f4b339ff97cf1c6a83d16", "lon": -77.05244633333334, "type": "electric_scooter", "bike_id": "41f9dd497e1f4b339ff97cf1c6a83d16", "fusion_lon": 0.0, "lat": 38.9273025, "fusion_lat": 0.0}, {"is_disabled": 0, "rental_uris": {"android": "https://dc.lft.to/lastmile_qr_scan", "ios": "https://dc.lft.to/lastmile_qr_scan"}, "is_reserved": 0, "name": "03ce07d0ad51330738581aa1149aaec6", "lon": -77.03232366666667, "type": "electric_scooter", "bike_id": "03ce07d0ad51330738581aa1149aaec6", "fusion_lon": 0.0, "lat": 38.928959666666664, "fusion_lat": 0.0}, {"is_disabled": 0, "rental_uris": {"android": "https://dc.lft.to/lastmile_qr_scan", "ios": "https://dc.lft.to/lastmile_qr_scan"}, "is_reserved": 0, "name": "da8b1d94ba276a792149b1ac77e9c342", "lon": -77.011375, "type": "electric_bike", "bike_id": "da8b1d94ba276a792149b1ac77e9c342", "fusion_lon": 0.0, "lat": 38.953375, "fusion_lat": 0.0}, {"is_disabled": 0, "rental_uris": {"android": "https://dc.lft.to/lastmile_qr_scan", "ios": "https://dc.lft.to/lastmile_qr_scan"}, "is_reserved": 0, "name": "da46064dee636c215c8a1c08b99c69e7", "lon": -77.05285266666667, "type": "electric_scooter", "bike_id": "da46064dee636c215c8a1c08b99c69e7", "fusion_lon": 0.0, "lat": 38.90337566666667, "fusion_lat": 0.0}, {"is_disabled": 0, "rental_uris": {"android": "https://dc.lft.to/lastmile_qr_scan", "ios": "https://dc.lft.to/lastmile_qr_scan"}, "is_reserved": 0, "name": "5fe18b3d54f25f925de8f369d5be43f7", "lon": -76.99111033333334, "type": "electric_bike", "bike_id": "5fe18b3d54f25f925de8f369d5be43f7", "fusion_lon": 0.0, "lat": 38.94496916666667, "fusion_lat": 0.0}, {"is_disabled": 0, "rental_uris": {"android": "https://dc.lft.to/lastmile_qr_scan", "ios": "https://dc.lft.to/lastmile_qr_scan"}, "is_reserved": 0, "name": "7a730e1cbcaf3269136fbf8c63e4d68b", "lon": -76.987038, "type": "electric_scooter", "bike_id": "7a730e1cbcaf3269136fbf8c63e4d68b", "fusion_lon": 0.0, "lat": 38.86697083333333, "fusion_lat": 0.0}, {"is_disabled": 0, "rental_uris": {"android": "https://dc.lft.to/lastmile_qr_scan", "ios": "https://dc.lft.to/lastmile_qr_scan"}, "is_reserved": 0, "name": "f56b65af1381d87bda7a60f6f9459714", "lon": -77.00577116666666, "type": "electric_scooter", "bike_id": "f56b65af1381d87bda7a60f6f9459714", "fusion_lon": 0.0, "lat": 38.905711, "fusion_lat": 0.0}, {"is_disabled": 0, "rental_uris": {"android": "https://dc.lft.to/lastmile_qr_scan", "ios": "https://dc.lft.to/lastmile_qr_scan"}, "is_reserved": 0, "name": "fa353050da183e5ffecd1c46a876a5fd", "lon": -77.02691616666667, "type": "electric_scooter", "bike_id": "fa353050da183e5ffecd1c46a876a5fd", "fusion_lon": 0.0, "lat": 38.9073385, "fusion_lat": 0.0}, {"is_disabled": 0, "rental_uris": {"android": "https://dc.lft.to/lastmile_qr_scan", "ios": "https://dc.lft.to/lastmile_qr_scan"}, "is_reserved": 0, "name": "c816da9d8f7fbf615b46292f5ccb0e7d", "lon": -77.00921216666667, "type": "electric_scooter", "bike_id": "c816da9d8f7fbf615b46292f5ccb0e7d", "fusion_lon": 0.0, "lat": 38.8978435, "fusion_lat": 0.0}, {"is_disabled": 0, "rental_uris": {"android": "https://dc.lft.to/lastmile_qr_scan", "ios": "https://dc.lft.to/lastmile_qr_scan"}, "is_reserved": 0, "name": "a1d8501ba7557b9e2ae8704eb6c183a2", "lon": -77.0419795, "type": "electric_scooter", "bike_id": "a1d8501ba7557b9e2ae8704eb6c183a2", "fusion_lon": 0.0, "lat": 38.92969816666667, "fusion_lat": 0.0}, {"is_disabled": 0, "rental_uris": {"android": "https://dc.lft.to/lastmile_qr_scan", "ios": "https://dc.lft.to/lastmile_qr_scan"}, "is_reserved": 0, "name": "fb7cb339f6e9219d2df74a071a64d09f", "lon": -77.022646, "type": "electric_scooter", "bike_id": "fb7cb339f6e9219d2df74a071a64d09f", "fusion_lon": 0.0, "lat": 38.92741916666667, "fusion_lat": 0.0}, {"is_disabled": 0, "rental_uris": {"android": "https://dc.lft.to/lastmile_qr_scan", "ios": "https://dc.lft.to/lastmile_qr_scan"}, "is_reserved": 0, "name": "e09ceffff2028b40e5fb89314311be60", "lon": -77.03439033333333, "type": "electric_scooter", "bike_id": "e09ceffff2028b40e5fb89314311be60", "fusion_lon": 0.0, "lat": 38.918100333333335, "fusion_lat": 0.0}, {"is_disabled": 0, "rental_uris": {"android": "https://dc.lft.to/lastmile_qr_scan", "ios": "https://dc.lft.to/lastmile_qr_scan"}, "is_reserved": 0, "name": "84b7da64ad0729beddc1d96bec78b501", "lon": -77.044308, "type": "electric_scooter", "bike_id": "84b7da64ad0729beddc1d96bec78b501", "fusion_lon": 0.0, "lat": 38.90078366666667, "fusion_lat": 0.0}, {"is_disabled": 0, "rental_uris": {"android": "https://dc.lft.to/lastmile_qr_scan", "ios": "https://dc.lft.to/lastmile_qr_scan"}, "is_reserved": 0, "name": "57e04924fcb1b5607c3c49b67f0f7b71", "lon": -76.980222, "type": "electric_bike", "bike_id": "57e04924fcb1b5607c3c49b67f0f7b71", "fusion_lon": 0.0, "lat": 38.9575385, "fusion_lat": 0.0}, {"is_disabled": 0, "rental_uris": {"android": "https://dc.lft.to/lastmile_qr_scan", "ios": "https://dc.lft.to/lastmile_qr_scan"}, "is_reserved": 0, "name": "740ab9af16e587ea7d564f28b70d8f5e", "lon": -77.03624516666666, "type": "electric_scooter", "bike_id": "740ab9af16e587ea7d564f28b70d8f5e", "fusion_lon": 0.0, "lat": 38.936802, "fusion_lat": 0.0}, {"is_disabled": 0, "rental_uris": {"android": "https://dc.lft.to/lastmile_qr_scan", "ios": "https://dc.lft.to/lastmile_qr_scan"}, "is_reserved": 0, "name": "9fe4fcfd8f2a7bba1b900d454b80c779", "lon": -77.05508983333333, "type": "electric_scooter", "bike_id": "9fe4fcfd8f2a7bba1b900d454b80c779", "fusion_lon": 0.0, "lat": 38.944128666666664, "fusion_lat": 0.0}, {"is_disabled": 0, "rental_uris": {"android": "https://dc.lft.to/lastmile_qr_scan", "ios": "https://dc.lft.to/lastmile_qr_scan"}, "is_reserved": 0, "name": "f545fa5d3c840450392ccb8a778c38e6", "lon": -77.032764, "type": "electric_scooter", "bike_id": "f545fa5d3c840450392ccb8a778c38e6", "fusion_lon": 0.0, "lat": 38.932501333333335, "fusion_lat": 0.0}, {"is_disabled": 0, "rental_uris": {"android": "https://dc.lft.to/lastmile_qr_scan", "ios": "https://dc.lft.to/lastmile_qr_scan"}, "is_reserved": 0, "name": "15666fa6ab2fcce85c366a483af2e060", "lon": -77.031451, "type": "electric_scooter", "bike_id": "15666fa6ab2fcce85c366a483af2e060", "fusion_lon": 0.0, "lat": 38.88759133333333, "fusion_lat": 0.0}, {"is_disabled": 0, "rental_uris": {"android": "https://dc.lft.to/lastmile_qr_scan", "ios": "https://dc.lft.to/lastmile_qr_scan"}, "is_reserved": 0, "name": "5f8e698da649cb84f7f01570b082296b", "lon": -77.048413, "type": "electric_scooter", "bike_id": "5f8e698da649cb84f7f01570b082296b", "fusion_lon": 0.0, "lat": 38.904292, "fusion_lat": 0.0}, {"is_disabled": 0, "rental_uris": {"android": "https://dc.lft.to/lastmile_qr_scan", "ios": "https://dc.lft.to/lastmile_qr_scan"}, "is_reserved": 0, "name": "711b84defdf459da1e7759006afb4dfe", "lon": -77.00924966666666, "type": "electric_scooter", "bike_id": "711b84defdf459da1e7759006afb4dfe", "fusion_lon": 0.0, "lat": 38.896055, "fusion_lat": 0.0}, {"is_disabled": 0, "rental_uris": {"android": "https://dc.lft.to/lastmile_qr_scan", "ios": "https://dc.lft.to/lastmile_qr_scan"}, "is_reserved": 0, "name": "73bcf675582f3130d95708fa8d487961", "lon": -77.02382783333333, "type": "electric_scooter", "bike_id": "73bcf675582f3130d95708fa8d487961", "fusion_lon": 0.0, "lat": 38.908172, "fusion_lat": 0.0}, {"is_disabled": 0, "rental_uris": {"android": "https://dc.lft.to/lastmile_qr_scan", "ios": "https://dc.lft.to/lastmile_qr_scan"}, "is_reserved": 0, "name": "81b416cac78a462234e58d6ecbd7deca", "lon": -77.04156566666667, "type": "electric_scooter", "bike_id": "81b416cac78a462234e58d6ecbd7deca", "fusion_lon": 0.0, "lat": 38.90515966666667, "fusion_lat": 0.0}, {"is_disabled": 0, "rental_uris": {"android": "https://dc.lft.to/lastmile_qr_scan", "ios": "https://dc.lft.to/lastmile_qr_scan"}, "is_reserved": 0, "name": "21320afa7b18bb917e17fb48672372b9", "lon": -76.9318665, "type": "electric_scooter", "bike_id": "21320afa7b18bb917e17fb48672372b9", "fusion_lon": 0.0, "lat": 38.898784166666665, "fusion_lat": 0.0}, {"is_disabled": 0, "rental_uris": {"android": "https://dc.lft.to/lastmile_qr_scan", "ios": "https://dc.lft.to/lastmile_qr_scan"}, "is_reserved": 0, "name": "b259e045d499a42fdf4148d817957a0e", "lon": -77.0572485, "type": "electric_scooter", "bike_id": "b259e045d499a42fdf4148d817957a0e", "fusion_lon": 0.0, "lat": 38.93365883333333, "fusion_lat": 0.0}, {"is_disabled": 0, "rental_uris": {"android": "https://dc.lft.to/lastmile_qr_scan", "ios": "https://dc.lft.to/lastmile_qr_scan"}, "is_reserved": 0, "name": "f1d0e92e190f0b02b015abe4d2864609", "lon": -77.04615816666667, "type": "electric_scooter", "bike_id": "f1d0e92e190f0b02b015abe4d2864609", "fusion_lon": 0.0, "lat": 38.89962216666667, "fusion_lat": 0.0}, {"is_disabled": 0, "rental_uris": {"android": "https://dc.lft.to/lastmile_qr_scan", "ios": "https://dc.lft.to/lastmile_qr_scan"}, "is_reserved": 0, "name": "2babbd643bbd6d93e11a64a123bdc528", "lon": -77.02933, "type": "electric_scooter", "bike_id": "2babbd643bbd6d93e11a64a123bdc528", "fusion_lon": 0.0, "lat": 38.9297525, "fusion_lat": 0.0}, {"is_disabled": 0, "rental_uris": {"android": "https://dc.lft.to/lastmile_qr_scan", "ios": "https://dc.lft.to/lastmile_qr_scan"}, "is_reserved": 0, "name": "babf9ce3ce546bb1effd597b6c1cfad8", "lon": -77.0272225, "type": "electric_scooter", "bike_id": "babf9ce3ce546bb1effd597b6c1cfad8", "fusion_lon": 0.0, "lat": 38.924804333333334, "fusion_lat": 0.0}, {"is_disabled": 0, "rental_uris": {"android": "https://dc.lft.to/lastmile_qr_scan", "ios": "https://dc.lft.to/lastmile_qr_scan"}, "is_reserved": 0, "name": "d78bf8b1bf3f7e804315205f5857cd6f", "lon": -77.031854, "type": "electric_scooter", "bike_id": "d78bf8b1bf3f7e804315205f5857cd6f", "fusion_lon": 0.0, "lat": 38.910629666666665, "fusion_lat": 0.0}, {"is_disabled": 0, "rental_uris": {"android": "https://dc.lft.to/lastmile_qr_scan", "ios": "https://dc.lft.to/lastmile_qr_scan"}, "is_reserved": 0, "name": "678adc071c4a890dee60e98cba45cf56", "lon": -76.94892183333333, "type": "electric_scooter", "bike_id": "678adc071c4a890dee60e98cba45cf56", "fusion_lon": 0.0, "lat": 38.8952995, "fusion_lat": 0.0}, {"is_disabled": 0, "rental_uris": {"android": "https://dc.lft.to/lastmile_qr_scan", "ios": "https://dc.lft.to/lastmile_qr_scan"}, "is_reserved": 0, "name": "c56703917212b9f9caac8211a1ed04ef", "lon": -77.0293505, "type": "electric_scooter", "bike_id": "c56703917212b9f9caac8211a1ed04ef", "fusion_lon": 0.0, "lat": 38.89532, "fusion_lat": 0.0}, {"is_disabled": 0, "rental_uris": {"android": "https://dc.lft.to/lastmile_qr_scan", "ios": "https://dc.lft.to/lastmile_qr_scan"}, "is_reserved": 0, "name": "be19db758670af070311875a6a05d301", "lon": -77.01939833333333, "type": "electric_scooter", "bike_id": "be19db758670af070311875a6a05d301", "fusion_lon": 0.0, "lat": 38.94698566666667, "fusion_lat": 0.0}, {"is_disabled": 0, "rental_uris": {"android": "https://dc.lft.to/lastmile_qr_scan", "ios": "https://dc.lft.to/lastmile_qr_scan"}, "is_reserved": 0, "name": "9af76109356329f293144fcb0aec8cd0", "lon": -77.03634816666667, "type": "electric_scooter", "bike_id": "9af76109356329f293144fcb0aec8cd0", "fusion_lon": 0.0, "lat": 38.902805666666666, "fusion_lat": 0.0}, {"is_disabled": 0, "rental_uris": {"android": "https://dc.lft.to/lastmile_qr_scan", "ios": "https://dc.lft.to/lastmile_qr_scan"}, "is_reserved": 0, "name": "cec0fce47cd5f582e4d2da5356bf44df", "lon": -76.915939, "type": "electric_bike", "bike_id": "cec0fce47cd5f582e4d2da5356bf44df", "fusion_lon": 0.0, "lat": 38.880098333333336, "fusion_lat": 0.0}, {"is_disabled": 0, "rental_uris": {"android": "https://dc.lft.to/lastmile_qr_scan", "ios": "https://dc.lft.to/lastmile_qr_scan"}, "is_reserved": 0, "name": "7d27c531554d9319bf7ac1065d317441", "lon": -77.03442216666667, "type": "electric_scooter", "bike_id": "7d27c531554d9319bf7ac1065d317441", "fusion_lon": 0.0, "lat": 38.91498933333333, "fusion_lat": 0.0}, {"is_disabled": 0, "rental_uris": {"android": "https://dc.lft.to/lastmile_qr_scan", "ios": "https://dc.lft.to/lastmile_qr_scan"}, "is_reserved": 0, "name": "6b652b7bbac07383b2e8b5dcd039b56d", "lon": -77.00335233333334, "type": "electric_scooter", "bike_id": "6b652b7bbac07383b2e8b5dcd039b56d", "fusion_lon": 0.0, "lat": 38.88314533333333, "fusion_lat": 0.0}, {"is_disabled": 0, "rental_uris": {"android": "https://dc.lft.to/lastmile_qr_scan", "ios": "https://dc.lft.to/lastmile_qr_scan"}, "is_reserved": 0, "name": "9667f481b4600cf51a8e516417b930a4", "lon": -77.03752733333333, "type": "electric_scooter", "bike_id": "9667f481b4600cf51a8e516417b930a4", "fusion_lon": 0.0, "lat": 38.91186033333334, "fusion_lat": 0.0}, {"is_disabled": 0, "rental_uris": {"android": "https://dc.lft.to/lastmile_qr_scan", "ios": "https://dc.lft.to/lastmile_qr_scan"}, "is_reserved": 0, "name": "6e7c47c83179c902ade993b0b3693e2b", "lon": -76.98336233333333, "type": "electric_scooter", "bike_id": "6e7c47c83179c902ade993b0b3693e2b", "fusion_lon": 0.0, "lat": 38.912709166666666, "fusion_lat": 0.0}, {"is_disabled": 0, "rental_uris": {"android": "https://dc.lft.to/lastmile_qr_scan", "ios": "https://dc.lft.to/lastmile_qr_scan"}, "is_reserved": 0, "name": "b593a78936ce47e470d81700e102c202", "lon": -76.97893133333334, "type": "electric_bike", "bike_id": "b593a78936ce47e470d81700e102c202", "fusion_lon": 0.0, "lat": 38.854861, "fusion_lat": 0.0}, {"is_disabled": 0, "rental_uris": {"android": "https://dc.lft.to/lastmile_qr_scan", "ios": "https://dc.lft.to/lastmile_qr_scan"}, "is_reserved": 0, "name": "2da37330a9650f362b68a66d05f36bff", "lon": -76.908142, "type": "electric_bike", "bike_id": "2da37330a9650f362b68a66d05f36bff", "fusion_lon": 0.0, "lat": 38.994542, "fusion_lat": 0.0}, {"is_disabled": 0, "rental_uris": {"android": "https://dc.lft.to/lastmile_qr_scan", "ios": "https://dc.lft.to/lastmile_qr_scan"}, "is_reserved": 0, "name": "ff1be386bfc4cf041eeca6a1b72ec91a", "lon": -77.016627, "type": "electric_scooter", "bike_id": "ff1be386bfc4cf041eeca6a1b72ec91a", "fusion_lon": 0.0, "lat": 38.88321216666667, "fusion_lat": 0.0}, {"is_disabled": 0, "rental_uris": {"android": "https://dc.lft.to/lastmile_qr_scan", "ios": "https://dc.lft.to/lastmile_qr_scan"}, "is_reserved": 0, "name": "5775981c9b23c94d792c18d451df2c28", "lon": -76.99845866666666, "type": "electric_scooter", "bike_id": "5775981c9b23c94d792c18d451df2c28", "fusion_lon": 0.0, "lat": 38.900122, "fusion_lat": 0.0}, {"is_disabled": 0, "rental_uris": {"android": "https://dc.lft.to/lastmile_qr_scan", "ios": "https://dc.lft.to/lastmile_qr_scan"}, "is_reserved": 0, "name": "b45deb8e10e855d4114fb0ecc8ae2cc6", "lon": -77.007654, "type": "electric_scooter", "bike_id": "b45deb8e10e855d4114fb0ecc8ae2cc6", "fusion_lon": 0.0, "lat": 38.871128166666665, "fusion_lat": 0.0}, {"is_disabled": 0, "rental_uris": {"android": "https://dc.lft.to/lastmile_qr_scan", "ios": "https://dc.lft.to/lastmile_qr_scan"}, "is_reserved": 0, "name": "71487656372c6e171aeb772680eb75cf", "lon": -77.04019366666667, "type": "electric_scooter", "bike_id": "71487656372c6e171aeb772680eb75cf", "fusion_lon": 0.0, "lat": 38.9241315, "fusion_lat": 0.0}, {"is_disabled": 0, "rental_uris": {"android": "https://dc.lft.to/lastmile_qr_scan", "ios": "https://dc.lft.to/lastmile_qr_scan"}, "is_reserved": 0, "name": "5ecc8e6efa6507723f4a5cdba3b6b1b9", "lon": -76.99530383333334, "type": "electric_scooter", "bike_id": "5ecc8e6efa6507723f4a5cdba3b6b1b9", "fusion_lon": 0.0, "lat": 38.862492833333334, "fusion_lat": 0.0}, {"is_disabled": 0, "rental_uris": {"android": "https://dc.lft.to/lastmile_qr_scan", "ios": "https://dc.lft.to/lastmile_qr_scan"}, "is_reserved": 0, "name": "203020a8963ff1bd7dbd661b718443d0", "lon": -77.05090383333334, "type": "electric_scooter", "bike_id": "203020a8963ff1bd7dbd661b718443d0", "fusion_lon": 0.0, "lat": 38.923374833333334, "fusion_lat": 0.0}, {"is_disabled": 0, "rental_uris": {"android": "https://dc.lft.to/lastmile_qr_scan", "ios": "https://dc.lft.to/lastmile_qr_scan"}, "is_reserved": 0, "name": "0569c8bb1c1ccfe027f7c4986a4d52de", "lon": -77.01978, "type": "electric_scooter", "bike_id": "0569c8bb1c1ccfe027f7c4986a4d52de", "fusion_lon": 0.0, "lat": 38.91195416666667, "fusion_lat": 0.0}, {"is_disabled": 0, "rental_uris": {"android": "https://dc.lft.to/lastmile_qr_scan", "ios": "https://dc.lft.to/lastmile_qr_scan"}, "is_reserved": 0, "name": "747acc00b733abcb39669aa1518e9229", "lon": -77.02461366666667, "type": "electric_bike", "bike_id": "747acc00b733abcb39669aa1518e9229", "fusion_lon": 0.0, "lat": 38.955758833333334, "fusion_lat": 0.0}, {"is_disabled": 0, "rental_uris": {"android": "https://dc.lft.to/lastmile_qr_scan", "ios": "https://dc.lft.to/lastmile_qr_scan"}, "is_reserved": 0, "name": "cca4980046c0527c7d3e8042aa1e20c3", "lon": -77.0405955, "type": "electric_scooter", "bike_id": "cca4980046c0527c7d3e8042aa1e20c3", "fusion_lon": 0.0, "lat": 38.91034283333333, "fusion_lat": 0.0}, {"is_disabled": 0, "rental_uris": {"android": "https://dc.lft.to/lastmile_qr_scan", "ios": "https://dc.lft.to/lastmile_qr_scan"}, "is_reserved": 0, "name": "99e27a244a15326cc5271788c27047af", "lon": -77.02785816666666, "type": "electric_scooter", "bike_id": "99e27a244a15326cc5271788c27047af", "fusion_lon": 0.0, "lat": 38.96126533333333, "fusion_lat": 0.0}, {"is_disabled": 0, "rental_uris": {"android": "https://dc.lft.to/lastmile_qr_scan", "ios": "https://dc.lft.to/lastmile_qr_scan"}, "is_reserved": 0, "name": "9cab8b7801010c6e4945082d551fb692", "lon": -77.0385635, "type": "electric_scooter", "bike_id": "9cab8b7801010c6e4945082d551fb692", "fusion_lon": 0.0, "lat": 38.907832, "fusion_lat": 0.0}, {"is_disabled": 0, "rental_uris": {"android": "https://dc.lft.to/lastmile_qr_scan", "ios": "https://dc.lft.to/lastmile_qr_scan"}, "is_reserved": 0, "name": "4a7804aae1132da51053f746375cb70e", "lon": -77.02806166666667, "type": "electric_scooter", "bike_id": "4a7804aae1132da51053f746375cb70e", "fusion_lon": 0.0, "lat": 38.93082783333333, "fusion_lat": 0.0}, {"is_disabled": 0, "rental_uris": {"android": "https://dc.lft.to/lastmile_qr_scan", "ios": "https://dc.lft.to/lastmile_qr_scan"}, "is_reserved": 0, "name": "49411b8a5407bb5ab841a9c29d6d55e3", "lon": -77.057066, "type": "electric_scooter", "bike_id": "49411b8a5407bb5ab841a9c29d6d55e3", "fusion_lon": 0.0, "lat": 38.92623483333333, "fusion_lat": 0.0}, {"is_disabled": 0, "rental_uris": {"android": "https://dc.lft.to/lastmile_qr_scan", "ios": "https://dc.lft.to/lastmile_qr_scan"}, "is_reserved": 0, "name": "6eb5c70114110de31ee34cca0ec4b57d", "lon": -77.028065, "type": "electric_scooter", "bike_id": "6eb5c70114110de31ee34cca0ec4b57d", "fusion_lon": 0.0, "lat": 38.930831, "fusion_lat": 0.0}, {"is_disabled": 0, "rental_uris": {"android": "https://dc.lft.to/lastmile_qr_scan", "ios": "https://dc.lft.to/lastmile_qr_scan"}, "is_reserved": 0, "name": "6eaa5b0c12f24213f7e5f5e611ad17eb", "lon": -76.9334815, "type": "electric_scooter", "bike_id": "6eaa5b0c12f24213f7e5f5e611ad17eb", "fusion_lon": 0.0, "lat": 38.89902033333333, "fusion_lat": 0.0}, {"is_disabled": 0, "rental_uris": {"android": "https://dc.lft.to/lastmile_qr_scan", "ios": "https://dc.lft.to/lastmile_qr_scan"}, "is_reserved": 0, "name": "3d7e63f0a5e905d0a546059dc826b265", "lon": -77.0238765, "type": "electric_scooter", "bike_id": "3d7e63f0a5e905d0a546059dc826b265", "fusion_lon": 0.0, "lat": 38.90576266666667, "fusion_lat": 0.0}, {"is_disabled": 0, "rental_uris": {"android": "https://dc.lft.to/lastmile_qr_scan", "ios": "https://dc.lft.to/lastmile_qr_scan"}, "is_reserved": 0, "name": "b8946dc9b615aebb8f2fa0515d045fa9", "lon": -76.95673933333333, "type": "electric_scooter", "bike_id": "b8946dc9b615aebb8f2fa0515d045fa9", "fusion_lon": 0.0, "lat": 38.887655333333335, "fusion_lat": 0.0}, {"is_disabled": 0, "rental_uris": {"android": "https://dc.lft.to/lastmile_qr_scan", "ios": "https://dc.lft.to/lastmile_qr_scan"}, "is_reserved": 0, "name": "0c2fc93cf257b7878bf97001938e3980", "lon": -76.9815445, "type": "electric_bike", "bike_id": "0c2fc93cf257b7878bf97001938e3980", "fusion_lon": 0.0, "lat": 38.959572, "fusion_lat": 0.0}, {"is_disabled": 0, "rental_uris": {"android": "https://dc.lft.to/lastmile_qr_scan", "ios": "https://dc.lft.to/lastmile_qr_scan"}, "is_reserved": 0, "name": "9ce0f0589e8eddd72e9ee3453bae59e3", "lon": -77.04145433333333, "type": "electric_scooter", "bike_id": "9ce0f0589e8eddd72e9ee3453bae59e3", "fusion_lon": 0.0, "lat": 38.912660833333334, "fusion_lat": 0.0}, {"is_disabled": 0, "rental_uris": {"android": "https://dc.lft.to/lastmile_qr_scan", "ios": "https://dc.lft.to/lastmile_qr_scan"}, "is_reserved": 0, "name": "286061005ad5aa24af029bbecb905b30", "lon": -77.03280516666666, "type": "electric_scooter", "bike_id": "286061005ad5aa24af029bbecb905b30", "fusion_lon": 0.0, "lat": 38.9354075, "fusion_lat": 0.0}, {"is_disabled": 0, "rental_uris": {"android": "https://dc.lft.to/lastmile_qr_scan", "ios": "https://dc.lft.to/lastmile_qr_scan"}, "is_reserved": 0, "name": "a5ba0fc45b8fd821df1214ed3c56bc30", "lon": -77.0049705, "type": "electric_scooter", "bike_id": "a5ba0fc45b8fd821df1214ed3c56bc30", "fusion_lon": 0.0, "lat": 38.89687766666667, "fusion_lat": 0.0}, {"is_disabled": 0, "rental_uris": {"android": "https://dc.lft.to/lastmile_qr_scan", "ios": "https://dc.lft.to/lastmile_qr_scan"}, "is_reserved": 0, "name": "befd8728e739a8f894b85b4815b905aa", "lon": -77.048672, "type": "electric_scooter", "bike_id": "befd8728e739a8f894b85b4815b905aa", "fusion_lon": 0.0, "lat": 38.90831566666667, "fusion_lat": 0.0}, {"is_disabled": 0, "rental_uris": {"android": "https://dc.lft.to/lastmile_qr_scan", "ios": "https://dc.lft.to/lastmile_qr_scan"}, "is_reserved": 0, "name": "8ffe7e8b8dfa055f546e41a10552a664", "lon": -77.0326275, "type": "electric_scooter", "bike_id": "8ffe7e8b8dfa055f546e41a10552a664", "fusion_lon": 0.0, "lat": 38.90963833333333, "fusion_lat": 0.0}, {"is_disabled": 0, "rental_uris": {"android": "https://dc.lft.to/lastmile_qr_scan", "ios": "https://dc.lft.to/lastmile_qr_scan"}, "is_reserved": 0, "name": "e5c4a691587fde9e7654450d27928db9", "lon": -76.99823183333334, "type": "electric_scooter", "bike_id": "e5c4a691587fde9e7654450d27928db9", "fusion_lon": 0.0, "lat": 38.9087415, "fusion_lat": 0.0}, {"is_disabled": 0, "rental_uris": {"android": "https://dc.lft.to/lastmile_qr_scan", "ios": "https://dc.lft.to/lastmile_qr_scan"}, "is_reserved": 0, "name": "a0fb9c825e95c28ed4d5f7cdf4aa653a", "lon": -77.07273416666666, "type": "electric_scooter", "bike_id": "a0fb9c825e95c28ed4d5f7cdf4aa653a", "fusion_lon": 0.0, "lat": 38.934696833333334, "fusion_lat": 0.0}, {"is_disabled": 0, "rental_uris": {"android": "https://dc.lft.to/lastmile_qr_scan", "ios": "https://dc.lft.to/lastmile_qr_scan"}, "is_reserved": 0, "name": "4668df5c2a2b6ebc2bef71201ac8229e", "lon": -77.03404583333334, "type": "electric_scooter", "bike_id": "4668df5c2a2b6ebc2bef71201ac8229e", "fusion_lon": 0.0, "lat": 38.92155833333333, "fusion_lat": 0.0}, {"is_disabled": 0, "rental_uris": {"android": "https://dc.lft.to/lastmile_qr_scan", "ios": "https://dc.lft.to/lastmile_qr_scan"}, "is_reserved": 0, "name": "6697ea20e22c66aa5adbe27ba704313a", "lon": -77.02545116666667, "type": "electric_scooter", "bike_id": "6697ea20e22c66aa5adbe27ba704313a", "fusion_lon": 0.0, "lat": 38.94837016666666, "fusion_lat": 0.0}, {"is_disabled": 0, "rental_uris": {"android": "https://dc.lft.to/lastmile_qr_scan", "ios": "https://dc.lft.to/lastmile_qr_scan"}, "is_reserved": 0, "name": "398189c18e60627270ebffeac9c94bcc", "lon": -77.02581, "type": "electric_scooter", "bike_id": "398189c18e60627270ebffeac9c94bcc", "fusion_lon": 0.0, "lat": 38.92033433333334, "fusion_lat": 0.0}, {"is_disabled": 0, "rental_uris": {"android": "https://dc.lft.to/lastmile_qr_scan", "ios": "https://dc.lft.to/lastmile_qr_scan"}, "is_reserved": 0, "name": "452b2b80092568bd50027feb0c7495d0", "lon": -77.00307233333334, "type": "electric_scooter", "bike_id": "452b2b80092568bd50027feb0c7495d0", "fusion_lon": 0.0, "lat": 38.892284833333335, "fusion_lat": 0.0}, {"is_disabled": 0, "rental_uris": {"android": "https://dc.lft.to/lastmile_qr_scan", "ios": "https://dc.lft.to/lastmile_qr_scan"}, "is_reserved": 0, "name": "d9ce6441cca1d0ef0d661b89d954b8c3", "lon": -76.9142135, "type": "electric_bike", "bike_id": "d9ce6441cca1d0ef0d661b89d954b8c3", "fusion_lon": 0.0, "lat": 38.898306833333336, "fusion_lat": 0.0}, {"is_disabled": 0, "rental_uris": {"android": "https://dc.lft.to/lastmile_qr_scan", "ios": "https://dc.lft.to/lastmile_qr_scan"}, "is_reserved": 0, "name": "ee203da961d25bb237d4625e0f58c013", "lon": -77.059867, "type": "electric_scooter", "bike_id": "ee203da961d25bb237d4625e0f58c013", "fusion_lon": 0.0, "lat": 38.911862, "fusion_lat": 0.0}, {"is_disabled": 0, "rental_uris": {"android": "https://dc.lft.to/lastmile_qr_scan", "ios": "https://dc.lft.to/lastmile_qr_scan"}, "is_reserved": 0, "name": "cf43272323de16fdf670ea8c5256e9a4", "lon": -77.0185895, "type": "electric_scooter", "bike_id": "cf43272323de16fdf670ea8c5256e9a4", "fusion_lon": 0.0, "lat": 38.91568266666667, "fusion_lat": 0.0}, {"is_disabled": 0, "rental_uris": {"android": "https://dc.lft.to/lastmile_qr_scan", "ios": "https://dc.lft.to/lastmile_qr_scan"}, "is_reserved": 0, "name": "a7395ccc4b129b659f26fdbe83d7b77a", "lon": -76.91878666666666, "type": "electric_scooter", "bike_id": "a7395ccc4b129b659f26fdbe83d7b77a", "fusion_lon": 0.0, "lat": 38.89084066666667, "fusion_lat": 0.0}, {"is_disabled": 0, "rental_uris": {"android": "https://dc.lft.to/lastmile_qr_scan", "ios": "https://dc.lft.to/lastmile_qr_scan"}, "is_reserved": 0, "name": "63455cdaa0c1ab6d1ce404f41f59b72c", "lon": -77.04059866666667, "type": "electric_scooter", "bike_id": "63455cdaa0c1ab6d1ce404f41f59b72c", "fusion_lon": 0.0, "lat": 38.90154366666667, "fusion_lat": 0.0}, {"is_disabled": 0, "rental_uris": {"android": "https://dc.lft.to/lastmile_qr_scan", "ios": "https://dc.lft.to/lastmile_qr_scan"}, "is_reserved": 0, "name": "ebcc56d3330daa8215d8780a8ad7c6f6", "lon": -77.03919516666667, "type": "electric_scooter", "bike_id": "ebcc56d3330daa8215d8780a8ad7c6f6", "fusion_lon": 0.0, "lat": 38.908156, "fusion_lat": 0.0}, {"is_disabled": 0, "rental_uris": {"android": "https://dc.lft.to/lastmile_qr_scan", "ios": "https://dc.lft.to/lastmile_qr_scan"}, "is_reserved": 0, "name": "ae4baf5f83a04148669464dd437afaf4", "lon": -76.99959566666666, "type": "electric_scooter", "bike_id": "ae4baf5f83a04148669464dd437afaf4", "fusion_lon": 0.0, "lat": 38.9010875, "fusion_lat": 0.0}, {"is_disabled": 0, "rental_uris": {"android": "https://dc.lft.to/lastmile_qr_scan", "ios": "https://dc.lft.to/lastmile_qr_scan"}, "is_reserved": 0, "name": "df2ca76be4dedf1be88d6c284600e8fe", "lon": -77.039733, "type": "electric_scooter", "bike_id": "df2ca76be4dedf1be88d6c284600e8fe", "fusion_lon": 0.0, "lat": 38.898976, "fusion_lat": 0.0}, {"is_disabled": 0, "rental_uris": {"android": "https://dc.lft.to/lastmile_qr_scan", "ios": "https://dc.lft.to/lastmile_qr_scan"}, "is_reserved": 0, "name": "5e39ab8cff480e950b01aaaaddb7da89", "lon": -77.02157383333333, "type": "electric_scooter", "bike_id": "5e39ab8cff480e950b01aaaaddb7da89", "fusion_lon": 0.0, "lat": 38.88626033333333, "fusion_lat": 0.0}, {"is_disabled": 0, "rental_uris": {"android": "https://dc.lft.to/lastmile_qr_scan", "ios": "https://dc.lft.to/lastmile_qr_scan"}, "is_reserved": 0, "name": "0911a91719897107c1c5078a8c80a888", "lon": -77.048892, "type": "electric_scooter", "bike_id": "0911a91719897107c1c5078a8c80a888", "fusion_lon": 0.0, "lat": 38.898105666666666, "fusion_lat": 0.0}, {"is_disabled": 0, "rental_uris": {"android": "https://dc.lft.to/lastmile_qr_scan", "ios": "https://dc.lft.to/lastmile_qr_scan"}, "is_reserved": 0, "name": "5dddfeb062e59bcb4dfdfef560777f66", "lon": -77.00600466666667, "type": "electric_scooter", "bike_id": "5dddfeb062e59bcb4dfdfef560777f66", "fusion_lon": 0.0, "lat": 38.90567933333333, "fusion_lat": 0.0}, {"is_disabled": 0, "rental_uris": {"android": "https://dc.lft.to/lastmile_qr_scan", "ios": "https://dc.lft.to/lastmile_qr_scan"}, "is_reserved": 0, "name": "8921f277bac0a1ebda8dadd929b5e489", "lon": -76.9301995, "type": "electric_bike", "bike_id": "8921f277bac0a1ebda8dadd929b5e489", "fusion_lon": 0.0, "lat": 38.9664535, "fusion_lat": 0.0}, {"is_disabled": 0, "rental_uris": {"android": "https://dc.lft.to/lastmile_qr_scan", "ios": "https://dc.lft.to/lastmile_qr_scan"}, "is_reserved": 0, "name": "b27ceb90d9f0b08ab215deb255eecdef", "lon": -76.9938535, "type": "electric_scooter", "bike_id": "b27ceb90d9f0b08ab215deb255eecdef", "fusion_lon": 0.0, "lat": 38.91013433333333, "fusion_lat": 0.0}, {"is_disabled": 0, "rental_uris": {"android": "https://dc.lft.to/lastmile_qr_scan", "ios": "https://dc.lft.to/lastmile_qr_scan"}, "is_reserved": 0, "name": "01729b868f49e863b1bc6d9bea605437", "lon": -77.05229016666667, "type": "electric_scooter", "bike_id": "01729b868f49e863b1bc6d9bea605437", "fusion_lon": 0.0, "lat": 38.92460233333333, "fusion_lat": 0.0}, {"is_disabled": 0, "rental_uris": {"android": "https://dc.lft.to/lastmile_qr_scan", "ios": "https://dc.lft.to/lastmile_qr_scan"}, "is_reserved": 0, "name": "626b6574f63438ab654e798d6eb5b313", "lon": -77.00831983333333, "type": "electric_scooter", "bike_id": "626b6574f63438ab654e798d6eb5b313", "fusion_lon": 0.0, "lat": 38.91263983333333, "fusion_lat": 0.0}, {"is_disabled": 0, "rental_uris": {"android": "https://dc.lft.to/lastmile_qr_scan", "ios": "https://dc.lft.to/lastmile_qr_scan"}, "is_reserved": 0, "name": "d78e4a7518663a5c5c3d108bf5a85f87", "lon": -77.01399666666667, "type": "electric_scooter", "bike_id": "d78e4a7518663a5c5c3d108bf5a85f87", "fusion_lon": 0.0, "lat": 38.92783, "fusion_lat": 0.0}, {"is_disabled": 0, "rental_uris": {"android": "https://dc.lft.to/lastmile_qr_scan", "ios": "https://dc.lft.to/lastmile_qr_scan"}, "is_reserved": 0, "name": "2491e19067672432ff0480aa6760562d", "lon": -76.88901516666667, "type": "electric_bike", "bike_id": "2491e19067672432ff0480aa6760562d", "fusion_lon": 0.0, "lat": 38.925918, "fusion_lat": 0.0}, {"is_disabled": 0, "rental_uris": {"android": "https://dc.lft.to/lastmile_qr_scan", "ios": "https://dc.lft.to/lastmile_qr_scan"}, "is_reserved": 0, "name": "e4c6d8fbab6de13684eb0fc1689c599c", "lon": -76.952179, "type": "electric_bike", "bike_id": "e4c6d8fbab6de13684eb0fc1689c599c", "fusion_lon": 0.0, "lat": 38.89230666666667, "fusion_lat": 0.0}, {"is_disabled": 0, "rental_uris": {"android": "https://dc.lft.to/lastmile_qr_scan", "ios": "https://dc.lft.to/lastmile_qr_scan"}, "is_reserved": 0, "name": "4c1f0e271ab041bbefbb598f3e1cc2e8", "lon": -77.0092105, "type": "electric_scooter", "bike_id": "4c1f0e271ab041bbefbb598f3e1cc2e8", "fusion_lon": 0.0, "lat": 38.896188333333335, "fusion_lat": 0.0}, {"is_disabled": 0, "rental_uris": {"android": "https://dc.lft.to/lastmile_qr_scan", "ios": "https://dc.lft.to/lastmile_qr_scan"}, "is_reserved": 0, "name": "77ed89e94e32e25c2a6cd004e4e4239c", "lon": -77.001999, "type": "electric_scooter", "bike_id": "77ed89e94e32e25c2a6cd004e4e4239c", "fusion_lon": 0.0, "lat": 38.900515666666664, "fusion_lat": 0.0}, {"is_disabled": 0, "rental_uris": {"android": "https://dc.lft.to/lastmile_qr_scan", "ios": "https://dc.lft.to/lastmile_qr_scan"}, "is_reserved": 0, "name": "fb2b19d38d72df6707f4c0eaf5a5d94d", "lon": -77.010749, "type": "electric_scooter", "bike_id": "fb2b19d38d72df6707f4c0eaf5a5d94d", "fusion_lon": 0.0, "lat": 38.91814633333333, "fusion_lat": 0.0}, {"is_disabled": 0, "rental_uris": {"android": "https://dc.lft.to/lastmile_qr_scan", "ios": "https://dc.lft.to/lastmile_qr_scan"}, "is_reserved": 0, "name": "156ff0ee48de76a877055903dfdf9656", "lon": -77.05415016666667, "type": "electric_scooter", "bike_id": "156ff0ee48de76a877055903dfdf9656", "fusion_lon": 0.0, "lat": 38.8991575, "fusion_lat": 0.0}, {"is_disabled": 0, "rental_uris": {"android": "https://dc.lft.to/lastmile_qr_scan", "ios": "https://dc.lft.to/lastmile_qr_scan"}, "is_reserved": 0, "name": "efdd2894ea6daef4150ffc01feb1d6fe", "lon": -76.9716635, "type": "electric_bike", "bike_id": "efdd2894ea6daef4150ffc01feb1d6fe", "fusion_lon": 0.0, "lat": 38.976780166666664, "fusion_lat": 0.0}, {"is_disabled": 0, "rental_uris": {"android": "https://dc.lft.to/lastmile_qr_scan", "ios": "https://dc.lft.to/lastmile_qr_scan"}, "is_reserved": 0, "name": "78b0719805f7bb1ed5f9f87725b8141c", "lon": -77.020795, "type": "electric_scooter", "bike_id": "78b0719805f7bb1ed5f9f87725b8141c", "fusion_lon": 0.0, "lat": 38.9300445, "fusion_lat": 0.0}, {"is_disabled": 0, "rental_uris": {"android": "https://dc.lft.to/lastmile_qr_scan", "ios": "https://dc.lft.to/lastmile_qr_scan"}, "is_reserved": 0, "name": "1f58082cd504c95f7ce881d97c184511", "lon": -77.051278, "type": "electric_scooter", "bike_id": "1f58082cd504c95f7ce881d97c184511", "fusion_lon": 0.0, "lat": 38.90574633333333, "fusion_lat": 0.0}, {"is_disabled": 0, "rental_uris": {"android": "https://dc.lft.to/lastmile_qr_scan", "ios": "https://dc.lft.to/lastmile_qr_scan"}, "is_reserved": 0, "name": "c39e16e50e1b33da488b6ff559f2f4a6", "lon": -77.0367555, "type": "electric_scooter", "bike_id": "c39e16e50e1b33da488b6ff559f2f4a6", "fusion_lon": 0.0, "lat": 38.91806916666667, "fusion_lat": 0.0}, {"is_disabled": 0, "rental_uris": {"android": "https://dc.lft.to/lastmile_qr_scan", "ios": "https://dc.lft.to/lastmile_qr_scan"}, "is_reserved": 0, "name": "aa6bda8d0bc14434f0c747e88157dc7d", "lon": -77.0336455, "type": "electric_scooter", "bike_id": "aa6bda8d0bc14434f0c747e88157dc7d", "fusion_lon": 0.0, "lat": 38.921452333333335, "fusion_lat": 0.0}, {"is_disabled": 0, "rental_uris": {"android": "https://dc.lft.to/lastmile_qr_scan", "ios": "https://dc.lft.to/lastmile_qr_scan"}, "is_reserved": 0, "name": "df26988bc905d29eae275195567c19aa", "lon": -77.02838316666667, "type": "electric_scooter", "bike_id": "df26988bc905d29eae275195567c19aa", "fusion_lon": 0.0, "lat": 38.92565183333333, "fusion_lat": 0.0}, {"is_disabled": 0, "rental_uris": {"android": "https://dc.lft.to/lastmile_qr_scan", "ios": "https://dc.lft.to/lastmile_qr_scan"}, "is_reserved": 0, "name": "f8942fa36915dab79fc87ab27de947a4", "lon": -77.02698316666667, "type": "electric_scooter", "bike_id": "f8942fa36915dab79fc87ab27de947a4", "fusion_lon": 0.0, "lat": 38.89710916666667, "fusion_lat": 0.0}, {"is_disabled": 0, "rental_uris": {"android": "https://dc.lft.to/lastmile_qr_scan", "ios": "https://dc.lft.to/lastmile_qr_scan"}, "is_reserved": 0, "name": "43c86df891c3b7fbe833b179ec6aa5ae", "lon": -77.03186283333334, "type": "electric_scooter", "bike_id": "43c86df891c3b7fbe833b179ec6aa5ae", "fusion_lon": 0.0, "lat": 38.91926183333333, "fusion_lat": 0.0}, {"is_disabled": 0, "rental_uris": {"android": "https://dc.lft.to/lastmile_qr_scan", "ios": "https://dc.lft.to/lastmile_qr_scan"}, "is_reserved": 0, "name": "e2e5e06536e4850660b267b004346d1d", "lon": -77.0412815, "type": "electric_bike", "bike_id": "e2e5e06536e4850660b267b004346d1d", "fusion_lon": 0.0, "lat": 38.94395083333333, "fusion_lat": 0.0}, {"is_disabled": 0, "rental_uris": {"android": "https://dc.lft.to/lastmile_qr_scan", "ios": "https://dc.lft.to/lastmile_qr_scan"}, "is_reserved": 0, "name": "684fc3f3f240d1403cab277c842552cd", "lon": -77.00882516666667, "type": "electric_scooter", "bike_id": "684fc3f3f240d1403cab277c842552cd", "fusion_lon": 0.0, "lat": 38.9058115, "fusion_lat": 0.0}, {"is_disabled": 0, "rental_uris": {"android": "https://dc.lft.to/lastmile_qr_scan", "ios": "https://dc.lft.to/lastmile_qr_scan"}, "is_reserved": 0, "name": "c2add36c990c4f6d36d346d18f74e048", "lon": -77.031822, "type": "electric_scooter", "bike_id": "c2add36c990c4f6d36d346d18f74e048", "fusion_lon": 0.0, "lat": 38.91635216666667, "fusion_lat": 0.0}, {"is_disabled": 0, "rental_uris": {"android": "https://dc.lft.to/lastmile_qr_scan", "ios": "https://dc.lft.to/lastmile_qr_scan"}, "is_reserved": 0, "name": "114062e167e735ee68df65f8278dc370", "lon": -77.045739, "type": "electric_scooter", "bike_id": "114062e167e735ee68df65f8278dc370", "fusion_lon": 0.0, "lat": 38.9241985, "fusion_lat": 0.0}, {"is_disabled": 0, "rental_uris": {"android": "https://dc.lft.to/lastmile_qr_scan", "ios": "https://dc.lft.to/lastmile_qr_scan"}, "is_reserved": 0, "name": "6666f77805f95517ac50618346151932", "lon": -77.038374, "type": "electric_scooter", "bike_id": "6666f77805f95517ac50618346151932", "fusion_lon": 0.0, "lat": 38.91472683333333, "fusion_lat": 0.0}, {"is_disabled": 0, "rental_uris": {"android": "https://dc.lft.to/lastmile_qr_scan", "ios": "https://dc.lft.to/lastmile_qr_scan"}, "is_reserved": 0, "name": "2e523ce5693b1408ce9b0d7cc2d22d53", "lon": -77.0150765, "type": "electric_scooter", "bike_id": "2e523ce5693b1408ce9b0d7cc2d22d53", "fusion_lon": 0.0, "lat": 38.910028, "fusion_lat": 0.0}, {"is_disabled": 0, "rental_uris": {"android": "https://dc.lft.to/lastmile_qr_scan", "ios": "https://dc.lft.to/lastmile_qr_scan"}, "is_reserved": 0, "name": "730636bfbb03a1c37c6f2602c08e58f3", "lon": -77.023859, "type": "electric_scooter", "bike_id": "730636bfbb03a1c37c6f2602c08e58f3", "fusion_lon": 0.0, "lat": 38.9279715, "fusion_lat": 0.0}, {"is_disabled": 0, "rental_uris": {"android": "https://dc.lft.to/lastmile_qr_scan", "ios": "https://dc.lft.to/lastmile_qr_scan"}, "is_reserved": 0, "name": "9011bc41337485e86170fc93db79f889", "lon": -77.03743216666666, "type": "electric_scooter", "bike_id": "9011bc41337485e86170fc93db79f889", "fusion_lon": 0.0, "lat": 38.929015166666666, "fusion_lat": 0.0}, {"is_disabled": 0, "rental_uris": {"android": "https://dc.lft.to/lastmile_qr_scan", "ios": "https://dc.lft.to/lastmile_qr_scan"}, "is_reserved": 0, "name": "8eb398330f1b048bf8de2596a3c8268a", "lon": -77.04240333333334, "type": "electric_scooter", "bike_id": "8eb398330f1b048bf8de2596a3c8268a", "fusion_lon": 0.0, "lat": 38.922191833333336, "fusion_lat": 0.0}, {"is_disabled": 0, "rental_uris": {"android": "https://dc.lft.to/lastmile_qr_scan", "ios": "https://dc.lft.to/lastmile_qr_scan"}, "is_reserved": 0, "name": "92d0f9c08ab5f743cab9ac2842d87b38", "lon": -77.02671566666666, "type": "electric_scooter", "bike_id": "92d0f9c08ab5f743cab9ac2842d87b38", "fusion_lon": 0.0, "lat": 38.912608166666665, "fusion_lat": 0.0}, {"is_disabled": 0, "rental_uris": {"android": "https://dc.lft.to/lastmile_qr_scan", "ios": "https://dc.lft.to/lastmile_qr_scan"}, "is_reserved": 0, "name": "4b6f2294534a7a3e10060b21f773c026", "lon": -76.96519333333333, "type": "electric_scooter", "bike_id": "4b6f2294534a7a3e10060b21f773c026", "fusion_lon": 0.0, "lat": 38.876260333333335, "fusion_lat": 0.0}, {"is_disabled": 0, "rental_uris": {"android": "https://dc.lft.to/lastmile_qr_scan", "ios": "https://dc.lft.to/lastmile_qr_scan"}, "is_reserved": 0, "name": "1f3c573ea54bfb0e8be4693150e615d3", "lon": -77.03033033333334, "type": "electric_scooter", "bike_id": "1f3c573ea54bfb0e8be4693150e615d3", "fusion_lon": 0.0, "lat": 38.93116116666667, "fusion_lat": 0.0}, {"is_disabled": 0, "rental_uris": {"android": "https://dc.lft.to/lastmile_qr_scan", "ios": "https://dc.lft.to/lastmile_qr_scan"}, "is_reserved": 0, "name": "d1aaded3c54eb7e091f03387b573396a", "lon": -77.04869333333333, "type": "electric_scooter", "bike_id": "d1aaded3c54eb7e091f03387b573396a", "fusion_lon": 0.0, "lat": 38.909487, "fusion_lat": 0.0}, {"is_disabled": 0, "rental_uris": {"android": "https://dc.lft.to/lastmile_qr_scan", "ios": "https://dc.lft.to/lastmile_qr_scan"}, "is_reserved": 0, "name": "67dbd6cfa8423ec88905a7146192e18a", "lon": -77.03868816666666, "type": "electric_scooter", "bike_id": "67dbd6cfa8423ec88905a7146192e18a", "fusion_lon": 0.0, "lat": 38.908052833333336, "fusion_lat": 0.0}, {"is_disabled": 0, "rental_uris": {"android": "https://dc.lft.to/lastmile_qr_scan", "ios": "https://dc.lft.to/lastmile_qr_scan"}, "is_reserved": 0, "name": "260285cc3912bf5e70ae11ba542c26d0", "lon": -77.0314265, "type": "electric_scooter", "bike_id": "260285cc3912bf5e70ae11ba542c26d0", "fusion_lon": 0.0, "lat": 38.92023116666667, "fusion_lat": 0.0}, {"is_disabled": 0, "rental_uris": {"android": "https://dc.lft.to/lastmile_qr_scan", "ios": "https://dc.lft.to/lastmile_qr_scan"}, "is_reserved": 0, "name": "c0c436d6ef777a19bde630a0e72f7d73", "lon": -77.02179416666667, "type": "electric_scooter", "bike_id": "c0c436d6ef777a19bde630a0e72f7d73", "fusion_lon": 0.0, "lat": 38.89929133333333, "fusion_lat": 0.0}, {"is_disabled": 0, "rental_uris": {"android": "https://dc.lft.to/lastmile_qr_scan", "ios": "https://dc.lft.to/lastmile_qr_scan"}, "is_reserved": 0, "name": "14f51d96866c2f62fc81ee85d73276c0", "lon": -77.0485175, "type": "electric_scooter", "bike_id": "14f51d96866c2f62fc81ee85d73276c0", "fusion_lon": 0.0, "lat": 38.91155666666667, "fusion_lat": 0.0}, {"is_disabled": 0, "rental_uris": {"android": "https://dc.lft.to/lastmile_qr_scan", "ios": "https://dc.lft.to/lastmile_qr_scan"}, "is_reserved": 0, "name": "ffe5b7fcdaf638790f17f3cc695bef4d", "lon": -77.05517683333333, "type": "electric_scooter", "bike_id": "ffe5b7fcdaf638790f17f3cc695bef4d", "fusion_lon": 0.0, "lat": 38.930093666666664, "fusion_lat": 0.0}, {"is_disabled": 0, "rental_uris": {"android": "https://dc.lft.to/lastmile_qr_scan", "ios": "https://dc.lft.to/lastmile_qr_scan"}, "is_reserved": 0, "name": "fd432c052172f2f75fbb6290704db1d3", "lon": -77.01610733333334, "type": "electric_scooter", "bike_id": "fd432c052172f2f75fbb6290704db1d3", "fusion_lon": 0.0, "lat": 38.87866016666667, "fusion_lat": 0.0}, {"is_disabled": 0, "rental_uris": {"android": "https://dc.lft.to/lastmile_qr_scan", "ios": "https://dc.lft.to/lastmile_qr_scan"}, "is_reserved": 0, "name": "431d466e8a926f9610f699879ba67c50", "lon": -77.01621816666666, "type": "electric_scooter", "bike_id": "431d466e8a926f9610f699879ba67c50", "fusion_lon": 0.0, "lat": 38.920490666666666, "fusion_lat": 0.0}, {"is_disabled": 0, "rental_uris": {"android": "https://dc.lft.to/lastmile_qr_scan", "ios": "https://dc.lft.to/lastmile_qr_scan"}, "is_reserved": 0, "name": "ae33aa318cc90f5b55083f1aa66fb9e1", "lon": -76.92684233333334, "type": "electric_scooter", "bike_id": "ae33aa318cc90f5b55083f1aa66fb9e1", "fusion_lon": 0.0, "lat": 38.88531916666667, "fusion_lat": 0.0}, {"is_disabled": 0, "rental_uris": {"android": "https://dc.lft.to/lastmile_qr_scan", "ios": "https://dc.lft.to/lastmile_qr_scan"}, "is_reserved": 0, "name": "8cf500411047354a40ed25c2a0b27e10", "lon": -77.02492966666667, "type": "electric_scooter", "bike_id": "8cf500411047354a40ed25c2a0b27e10", "fusion_lon": 0.0, "lat": 38.918070166666666, "fusion_lat": 0.0}, {"is_disabled": 0, "rental_uris": {"android": "https://dc.lft.to/lastmile_qr_scan", "ios": "https://dc.lft.to/lastmile_qr_scan"}, "is_reserved": 0, "name": "ef51564fdd0606743727969a530121cd", "lon": -77.0264115, "type": "electric_scooter", "bike_id": "ef51564fdd0606743727969a530121cd", "fusion_lon": 0.0, "lat": 38.9217575, "fusion_lat": 0.0}, {"is_disabled": 0, "rental_uris": {"android": "https://dc.lft.to/lastmile_qr_scan", "ios": "https://dc.lft.to/lastmile_qr_scan"}, "is_reserved": 0, "name": "35d0224dc20cb5f15a03ac8f9188b92a", "lon": -77.038019, "type": "electric_scooter", "bike_id": "35d0224dc20cb5f15a03ac8f9188b92a", "fusion_lon": 0.0, "lat": 38.9321985, "fusion_lat": 0.0}, {"is_disabled": 0, "rental_uris": {"android": "https://dc.lft.to/lastmile_qr_scan", "ios": "https://dc.lft.to/lastmile_qr_scan"}, "is_reserved": 0, "name": "f26ce241fbae6d483701473d609f025d", "lon": -76.98583166666667, "type": "electric_scooter", "bike_id": "f26ce241fbae6d483701473d609f025d", "fusion_lon": 0.0, "lat": 38.86055183333333, "fusion_lat": 0.0}, {"is_disabled": 0, "rental_uris": {"android": "https://dc.lft.to/lastmile_qr_scan", "ios": "https://dc.lft.to/lastmile_qr_scan"}, "is_reserved": 0, "name": "b52675a400fb650af376be787dbb11fa", "lon": -77.03838433333334, "type": "electric_scooter", "bike_id": "b52675a400fb650af376be787dbb11fa", "fusion_lon": 0.0, "lat": 38.9037685, "fusion_lat": 0.0}, {"is_disabled": 0, "rental_uris": {"android": "https://dc.lft.to/lastmile_qr_scan", "ios": "https://dc.lft.to/lastmile_qr_scan"}, "is_reserved": 0, "name": "4c0ca0961f15c7d91d37580a6f22055c", "lon": -77.04621, "type": "electric_scooter", "bike_id": "4c0ca0961f15c7d91d37580a6f22055c", "fusion_lon": 0.0, "lat": 38.92315116666666, "fusion_lat": 0.0}, {"is_disabled": 0, "rental_uris": {"android": "https://dc.lft.to/lastmile_qr_scan", "ios": "https://dc.lft.to/lastmile_qr_scan"}, "is_reserved": 0, "name": "651d6b59d50644117cb18c7009326053", "lon": -77.0420485, "type": "electric_scooter", "bike_id": "651d6b59d50644117cb18c7009326053", "fusion_lon": 0.0, "lat": 38.9170215, "fusion_lat": 0.0}, {"is_disabled": 0, "rental_uris": {"android": "https://dc.lft.to/lastmile_qr_scan", "ios": "https://dc.lft.to/lastmile_qr_scan"}, "is_reserved": 0, "name": "a2e1a74be43adf7153e20518fc01d407", "lon": -77.0395115, "type": "electric_scooter", "bike_id": "a2e1a74be43adf7153e20518fc01d407", "fusion_lon": 0.0, "lat": 38.91563933333333, "fusion_lat": 0.0}, {"is_disabled": 0, "rental_uris": {"android": "https://dc.lft.to/lastmile_qr_scan", "ios": "https://dc.lft.to/lastmile_qr_scan"}, "is_reserved": 0, "name": "ea45d3cdc736bc79e9f9907e6a4e3c14", "lon": -77.03198533333334, "type": "electric_scooter", "bike_id": "ea45d3cdc736bc79e9f9907e6a4e3c14", "fusion_lon": 0.0, "lat": 38.92275633333333, "fusion_lat": 0.0}, {"is_disabled": 0, "rental_uris": {"android": "https://dc.lft.to/lastmile_qr_scan", "ios": "https://dc.lft.to/lastmile_qr_scan"}, "is_reserved": 0, "name": "2b12ad33e9b284c5f477c945f9bbbcfa", "lon": -77.02960066666667, "type": "electric_scooter", "bike_id": "2b12ad33e9b284c5f477c945f9bbbcfa", "fusion_lon": 0.0, "lat": 38.92148533333334, "fusion_lat": 0.0}, {"is_disabled": 0, "rental_uris": {"android": "https://dc.lft.to/lastmile_qr_scan", "ios": "https://dc.lft.to/lastmile_qr_scan"}, "is_reserved": 0, "name": "3d2239e1944c959bc287250a300fdc8f", "lon": -77.05106866666667, "type": "electric_bike", "bike_id": "3d2239e1944c959bc287250a300fdc8f", "fusion_lon": 0.0, "lat": 38.9455435, "fusion_lat": 0.0}, {"is_disabled": 0, "rental_uris": {"android": "https://dc.lft.to/lastmile_qr_scan", "ios": "https://dc.lft.to/lastmile_qr_scan"}, "is_reserved": 0, "name": "5e12e5d3f10d2aff4f0181f891e7ed47", "lon": -77.107306, "type": "electric_bike", "bike_id": "5e12e5d3f10d2aff4f0181f891e7ed47", "fusion_lon": 0.0, "lat": 38.85547583333334, "fusion_lat": 0.0}, {"is_disabled": 0, "rental_uris": {"android": "https://dc.lft.to/lastmile_qr_scan", "ios": "https://dc.lft.to/lastmile_qr_scan"}, "is_reserved": 0, "name": "9857e72fe338954d7a824d58a1d61a22", "lon": -77.06362166666666, "type": "electric_scooter", "bike_id": "9857e72fe338954d7a824d58a1d61a22", "fusion_lon": 0.0, "lat": 38.9441545, "fusion_lat": 0.0}, {"is_disabled": 0, "rental_uris": {"android": "https://dc.lft.to/lastmile_qr_scan", "ios": "https://dc.lft.to/lastmile_qr_scan"}, "is_reserved": 0, "name": "4e6fbea5126bed8f2739bf15a127035e", "lon": -77.03188933333334, "type": "electric_scooter", "bike_id": "4e6fbea5126bed8f2739bf15a127035e", "fusion_lon": 0.0, "lat": 38.9307005, "fusion_lat": 0.0}, {"is_disabled": 0, "rental_uris": {"android": "https://dc.lft.to/lastmile_qr_scan", "ios": "https://dc.lft.to/lastmile_qr_scan"}, "is_reserved": 0, "name": "507e34528c3112596d6d413ad04ea7b9", "lon": -77.00210566666667, "type": "electric_scooter", "bike_id": "507e34528c3112596d6d413ad04ea7b9", "fusion_lon": 0.0, "lat": 38.89496666666667, "fusion_lat": 0.0}, {"is_disabled": 0, "rental_uris": {"android": "https://dc.lft.to/lastmile_qr_scan", "ios": "https://dc.lft.to/lastmile_qr_scan"}, "is_reserved": 0, "name": "56a05a08ffe1eac1e7a71885aa2050d4", "lon": -77.0402385, "type": "electric_scooter", "bike_id": "56a05a08ffe1eac1e7a71885aa2050d4", "fusion_lon": 0.0, "lat": 38.917827333333335, "fusion_lat": 0.0}, {"is_disabled": 0, "rental_uris": {"android": "https://dc.lft.to/lastmile_qr_scan", "ios": "https://dc.lft.to/lastmile_qr_scan"}, "is_reserved": 0, "name": "877f3bf4f9a9c8faabbb92cae827627b", "lon": -77.00884433333333, "type": "electric_scooter", "bike_id": "877f3bf4f9a9c8faabbb92cae827627b", "fusion_lon": 0.0, "lat": 38.903804666666666, "fusion_lat": 0.0}, {"is_disabled": 0, "rental_uris": {"android": "https://dc.lft.to/lastmile_qr_scan", "ios": "https://dc.lft.to/lastmile_qr_scan"}, "is_reserved": 0, "name": "d00dcad947f0a6a5ee4504e95befd250", "lon": -76.99955583333333, "type": "electric_scooter", "bike_id": "d00dcad947f0a6a5ee4504e95befd250", "fusion_lon": 0.0, "lat": 38.903323666666665, "fusion_lat": 0.0}, {"is_disabled": 0, "rental_uris": {"android": "https://dc.lft.to/lastmile_qr_scan", "ios": "https://dc.lft.to/lastmile_qr_scan"}, "is_reserved": 0, "name": "feee5854b1408dbc784e0fdc58697f54", "lon": -77.03181916666666, "type": "electric_scooter", "bike_id": "feee5854b1408dbc784e0fdc58697f54", "fusion_lon": 0.0, "lat": 38.91905716666667, "fusion_lat": 0.0}, {"is_disabled": 0, "rental_uris": {"android": "https://dc.lft.to/lastmile_qr_scan", "ios": "https://dc.lft.to/lastmile_qr_scan"}, "is_reserved": 0, "name": "4ab70ab8e2068569ebe7306c4f0262a1", "lon": -77.00645433333334, "type": "electric_bike", "bike_id": "4ab70ab8e2068569ebe7306c4f0262a1", "fusion_lon": 0.0, "lat": 38.944728833333336, "fusion_lat": 0.0}, {"is_disabled": 0, "rental_uris": {"android": "https://dc.lft.to/lastmile_qr_scan", "ios": "https://dc.lft.to/lastmile_qr_scan"}, "is_reserved": 0, "name": "862f31dc389ff6c4e964b7e0b58f25a0", "lon": -77.03875766666667, "type": "electric_scooter", "bike_id": "862f31dc389ff6c4e964b7e0b58f25a0", "fusion_lon": 0.0, "lat": 38.93428883333333, "fusion_lat": 0.0}, {"is_disabled": 0, "rental_uris": {"android": "https://dc.lft.to/lastmile_qr_scan", "ios": "https://dc.lft.to/lastmile_qr_scan"}, "is_reserved": 0, "name": "43d61720d0b035e1c42c7a4f15be0d43", "lon": -77.04345583333334, "type": "electric_scooter", "bike_id": "43d61720d0b035e1c42c7a4f15be0d43", "fusion_lon": 0.0, "lat": 38.9011785, "fusion_lat": 0.0}, {"is_disabled": 0, "rental_uris": {"android": "https://dc.lft.to/lastmile_qr_scan", "ios": "https://dc.lft.to/lastmile_qr_scan"}, "is_reserved": 0, "name": "d16df020983785b9b5d791fcc26b4338", "lon": -77.04555616666667, "type": "electric_scooter", "bike_id": "d16df020983785b9b5d791fcc26b4338", "fusion_lon": 0.0, "lat": 38.902406666666664, "fusion_lat": 0.0}, {"is_disabled": 0, "rental_uris": {"android": "https://dc.lft.to/lastmile_qr_scan", "ios": "https://dc.lft.to/lastmile_qr_scan"}, "is_reserved": 0, "name": "d8558393ed07eca7b1680116a3d0f644", "lon": -77.02194333333334, "type": "electric_scooter", "bike_id": "d8558393ed07eca7b1680116a3d0f644", "fusion_lon": 0.0, "lat": 38.897285333333336, "fusion_lat": 0.0}, {"is_disabled": 0, "rental_uris": {"android": "https://dc.lft.to/lastmile_qr_scan", "ios": "https://dc.lft.to/lastmile_qr_scan"}, "is_reserved": 0, "name": "9faea631fb95f462a5e5d4390294080d", "lon": -77.03182316666667, "type": "electric_scooter", "bike_id": "9faea631fb95f462a5e5d4390294080d", "fusion_lon": 0.0, "lat": 38.91907783333333, "fusion_lat": 0.0}, {"is_disabled": 0, "rental_uris": {"android": "https://dc.lft.to/lastmile_qr_scan", "ios": "https://dc.lft.to/lastmile_qr_scan"}, "is_reserved": 0, "name": "90fb155c0af65c6ce4651f7855290656", "lon": -77.03327416666667, "type": "electric_scooter", "bike_id": "90fb155c0af65c6ce4651f7855290656", "fusion_lon": 0.0, "lat": 38.8984745, "fusion_lat": 0.0}, {"is_disabled": 0, "rental_uris": {"android": "https://dc.lft.to/lastmile_qr_scan", "ios": "https://dc.lft.to/lastmile_qr_scan"}, "is_reserved": 0, "name": "a73c1043c8357885676130610e907ff7", "lon": -77.0279985, "type": "electric_scooter", "bike_id": "a73c1043c8357885676130610e907ff7", "fusion_lon": 0.0, "lat": 38.90391416666667, "fusion_lat": 0.0}, {"is_disabled": 0, "rental_uris": {"android": "https://dc.lft.to/lastmile_qr_scan", "ios": "https://dc.lft.to/lastmile_qr_scan"}, "is_reserved": 0, "name": "4cdfb8fed51183ef4e9b18e2048ca106", "lon": -77.03162633333334, "type": "electric_scooter", "bike_id": "4cdfb8fed51183ef4e9b18e2048ca106", "fusion_lon": 0.0, "lat": 38.91104683333333, "fusion_lat": 0.0}, {"is_disabled": 0, "rental_uris": {"android": "https://dc.lft.to/lastmile_qr_scan", "ios": "https://dc.lft.to/lastmile_qr_scan"}, "is_reserved": 0, "name": "9c3ca4c7982fc5add8722338fce2786a", "lon": -77.0162235, "type": "electric_scooter", "bike_id": "9c3ca4c7982fc5add8722338fce2786a", "fusion_lon": 0.0, "lat": 38.8953935, "fusion_lat": 0.0}, {"is_disabled": 0, "rental_uris": {"android": "https://dc.lft.to/lastmile_qr_scan", "ios": "https://dc.lft.to/lastmile_qr_scan"}, "is_reserved": 0, "name": "8ae3a0ca3dcbf504b5c614ff3f44e59a", "lon": -77.131768, "type": "electric_bike", "bike_id": "8ae3a0ca3dcbf504b5c614ff3f44e59a", "fusion_lon": 0.0, "lat": 38.86910016666667, "fusion_lat": 0.0}, {"is_disabled": 0, "rental_uris": {"android": "https://dc.lft.to/lastmile_qr_scan", "ios": "https://dc.lft.to/lastmile_qr_scan"}, "is_reserved": 0, "name": "6a4d1280c372628eeb3f7262deb5b34c", "lon": -77.04330733333333, "type": "electric_scooter", "bike_id": "6a4d1280c372628eeb3f7262deb5b34c", "fusion_lon": 0.0, "lat": 38.90312183333333, "fusion_lat": 0.0}, {"is_disabled": 0, "rental_uris": {"android": "https://dc.lft.to/lastmile_qr_scan", "ios": "https://dc.lft.to/lastmile_qr_scan"}, "is_reserved": 0, "name": "85c2debc9d9bcc4b92638e85eb397293", "lon": -77.0305225, "type": "electric_scooter", "bike_id": "85c2debc9d9bcc4b92638e85eb397293", "fusion_lon": 0.0, "lat": 38.89979116666667, "fusion_lat": 0.0}, {"is_disabled": 0, "rental_uris": {"android": "https://dc.lft.to/lastmile_qr_scan", "ios": "https://dc.lft.to/lastmile_qr_scan"}, "is_reserved": 0, "name": "d7e5774fbe277e962364e8fe010e2c5c", "lon": -77.02971833333334, "type": "electric_scooter", "bike_id": "d7e5774fbe277e962364e8fe010e2c5c", "fusion_lon": 0.0, "lat": 38.916996, "fusion_lat": 0.0}, {"is_disabled": 0, "rental_uris": {"android": "https://dc.lft.to/lastmile_qr_scan", "ios": "https://dc.lft.to/lastmile_qr_scan"},