{"data": {"bikes": [{"name": "7ec3799bb2aa830f69ff3f885ffbb25e", "type": "electric_scooter", "lat": 38.938658333333336, "is_reserved": 0, "lon": -77.02648316666667, "fusion_lon": 0.0, "is_disabled": 0, "fusion_lat": 0.0, "bike_id": "7ec3799bb2aa830f69ff3f885ffbb25e", "rental_uris": {"ios": "https://dc.lft.to/lastmile_qr_scan", "android": "https://dc.lft.to/lastmile_qr_scan"}}, {"name": "e1460e393a9c12f92ca27cd1811b2939", "type": "electric_bike", "lat": 38.95645716666667, "is_reserved": 0, "lon": -76.99748883333334, "fusion_lon": 0.0, "is_disabled": 0, "fusion_lat": 0.0, "bike_id": "e1460e393a9c12f92ca27cd1811b2939", "rental_uris": {"ios": "https://dc.lft.to/lastmile_qr_scan", "android": "https://dc.lft.to/lastmile_qr_scan"}}, {"name": "65d3d6c8746650905833faff00ca2b6e", "type": "electric_scooter", "lat": 38.9170355, "is_reserved": 0, "lon": -77.0011885, "fusion_lon": 0.0, "is_disabled": 0, "fusion_lat": 0.0, "bike_id": "65d3d6c8746650905833faff00ca2b6e", "rental_uris": {"ios": "https://dc.lft.to/lastmile_qr_scan", "android": "https://dc.lft.to/lastmile_qr_scan"}}, {"name": "535dd998b7b89b4c35ef68b77055388c", "type": "electric_scooter", "lat": 38.90507483333333, "is_reserved": 0, "lon": -77.04160566666667, "fusion_lon": 0.0, "is_disabled": 0, "fusion_lat": 0.0, "bike_id": "535dd998b7b89b4c35ef68b77055388c", "rental_uris": {"ios": "https://dc.lft.to/lastmile_qr_scan", "android": "https://dc.lft.to/lastmile_qr_scan"}}, {"name": "44341c2774ec1f60db6b6cffa0d2e616", "type": "electric_bike", "lat": 38.897917666666665, "is_reserved": 0, "lon": -77.00731433333333, "fusion_lon": 0.0, "is_disabled": 0, "fusion_lat": 0.0, "bike_id": "44341c2774ec1f60db6b6cffa0d2e616", "rental_uris": {"ios": "https://dc.lft.to/lastmile_qr_scan", "android": "https://dc.lft.to/lastmile_qr_scan"}}, {"name": "967772a9897b19419ff4c350388499bf", "type": "electric_scooter", "lat": 38.92173866666667, "is_reserved": 0, "lon": -77.04133266666666, "fusion_lon": 0.0, "is_disabled": 0, "fusion_lat": 0.0, "bike_id": "967772a9897b19419ff4c350388499bf", "rental_uris": {"ios": "https://dc.lft.to/lastmile_qr_scan", "android": "https://dc.lft.to/lastmile_qr_scan"}}, {"name": "2db8e87f13d8c78c04a81807abefca58", "type": "electric_scooter", "lat": 38.91398916666667, "is_reserved": 0, "lon": -77.03321633333333, "fusion_lon": 0.0, "is_disabled": 0, "fusion_lat": 0.0, "bike_id": "2db8e87f13d8c78c04a81807abefca58", "rental_uris": {"ios": "https://dc.lft.to/lastmile_qr_scan", "android": "https://dc.lft.to/lastmile_qr_scan"}}, {"name": "82284df12b54ef77a5a95e5238ef4dc9", "type": "electric_scooter", "lat": 38.872657833333335, "is_reserved": 0, "lon": -77.01529566666666, "fusion_lon": 0.0, "is_disabled": 0, "fusion_lat": 0.0, "bike_id": "82284df12b54ef77a5a95e5238ef4dc9", "rental_uris": {"ios": "https://dc.lft.to/lastmile_qr_scan", "android": "https://dc.lft.to/lastmile_qr_scan"}}, {"name": "0ef68aa36304d7562e71497aa81c89f4", "type": "electric_bike", "lat": 38.951846833333335, "is_reserved": 0, "lon": -76.9354335, "fusion_lon": 0.0, "is_disabled": 0, "fusion_lat": 0.0, "bike_id": "0ef68aa36304d7562e71497aa81c89f4", "rental_uris": {"ios": "https://dc.lft.to/lastmile_qr_scan", "android": "https://dc.lft.to/lastmile_qr_scan"}}, {"name": "cbe125e8100801051ea549e1ff6667a0", "type": "electric_scooter", "lat": 38.90111916666667, "is_reserved": 0, "lon": -77.0499005, "fusion_lon": 0.0, "is_disabled": 0, "fusion_lat": 0.0, "bike_id": "cbe125e8100801051ea549e1ff6667a0", "rental_uris": {"ios": "https://dc.lft.to/lastmile_qr_scan", "android": "https://dc.lft.to/lastmile_qr_scan"}}, {"name": "1527e3db9ce49dca6d26ccbc8793c4df", "type": "electric_scooter", "lat": 38.919107833333335, "is_reserved": 0, "lon": -77.030129, "fusion_lon": 0.0, "is_disabled": 0, "fusion_lat": 0.0, "bike_id": "1527e3db9ce49dca6d26ccbc8793c4df", "rental_uris": {"ios": "https://dc.lft.to/lastmile_qr_scan", "android": "https://dc.lft.to/lastmile_qr_scan"}}, {"name": "51b01b110e975d489e534356524ac376", "type": "electric_scooter", "lat": 38.89955716666667, "is_reserved": 0, "lon": -77.02986916666667, "fusion_lon": 0.0, "is_disabled": 0, "fusion_lat": 0.0, "bike_id": "51b01b110e975d489e534356524ac376", "rental_uris": {"ios": "https://dc.lft.to/lastmile_qr_scan", "android": "https://dc.lft.to/lastmile_qr_scan"}}, {"name": "e512e0cc0cbb4198e8048833fb189566", "type": "electric_scooter", "lat": 38.9028405, "is_reserved": 0, "lon": -77.03846266666666, "fusion_lon": 0.0, "is_disabled": 0, "fusion_lat": 0.0, "bike_id": "e512e0cc0cbb4198e8048833fb189566", "rental_uris": {"ios": "https://dc.lft.to/lastmile_qr_scan", "android": "https://dc.lft.to/lastmile_qr_scan"}}, {"name": "6be3ac732d73b8177f05b405f4f86ce8", "type": "electric_scooter", "lat": 38.9222105, "is_reserved": 0, "lon": -77.03746733333334, "fusion_lon": 0.0, "is_disabled": 0, "fusion_lat": 0.0, "bike_id": "6be3ac732d73b8177f05b405f4f86ce8", "rental_uris": {"ios": "https://dc.lft.to/lastmile_qr_scan", "android": "https://dc.lft.to/lastmile_qr_scan"}}, {"name": "5e6f06393f7bf33fe81c25a37bbdb8c2", "type": "electric_scooter", "lat": 38.9047935, "is_reserved": 0, "lon": -77.0418105, "fusion_lon": 0.0, "is_disabled": 0, "fusion_lat": 0.0, "bike_id": "5e6f06393f7bf33fe81c25a37bbdb8c2", "rental_uris": {"ios": "https://dc.lft.to/lastmile_qr_scan", "android": "https://dc.lft.to/lastmile_qr_scan"}}, {"name": "179a63c58d10020526c0b9ec3605bdd9", "type": "electric_scooter", "lat": 38.967246, "is_reserved": 0, "lon": -77.02344466666666, "fusion_lon": 0.0, "is_disabled": 0, "fusion_lat": 0.0, "bike_id": "179a63c58d10020526c0b9ec3605bdd9", "rental_uris": {"ios": "https://dc.lft.to/lastmile_qr_scan", "android": "https://dc.lft.to/lastmile_qr_scan"}}, {"name": "afe0e67abc003d7b893829496a4f6e2d", "type": "electric_scooter", "lat": 38.887172166666666, "is_reserved": 0, "lon": -77.0177995, "fusion_lon": 0.0, "is_disabled": 0, "fusion_lat": 0.0, "bike_id": "afe0e67abc003d7b893829496a4f6e2d", "rental_uris": {"ios": "https://dc.lft.to/lastmile_qr_scan", "android": "https://dc.lft.to/lastmile_qr_scan"}}, {"name": "c2bd3fad2af6b509c6d80fe83cb40eea", "type": "electric_scooter", "lat": 38.842941833333335, "is_reserved": 0, "lon": -76.99946116666666, "fusion_lon": 0.0, "is_disabled": 0, "fusion_lat": 0.0, "bike_id": "c2bd3fad2af6b509c6d80fe83cb40eea", "rental_uris": {"ios": "https://dc.lft.to/lastmile_qr_scan", "android": "https://dc.lft.to/lastmile_qr_scan"}}, {"name": "85d640f14e99680b79b7b83c2af623e7", "type": "electric_scooter", "lat": 38.92234833333333, "is_reserved": 0, "lon": -77.04246483333333, "fusion_lon": 0.0, "is_disabled": 0, "fusion_lat": 0.0, "bike_id": "85d640f14e99680b79b7b83c2af623e7", "rental_uris": {"ios": "https://dc.lft.to/lastmile_qr_scan", "android": "https://dc.lft.to/lastmile_qr_scan"}}, {"name": "458676e6168923da5c96589c09738beb", "type": "electric_bike", "lat": 38.852456333333336, "is_reserved": 0, "lon": -77.1142695, "fusion_lon": 0.0, "is_disabled": 0, "fusion_lat": 0.0, "bike_id": "458676e6168923da5c96589c09738beb", "rental_uris": {"ios": "https://dc.lft.to/lastmile_qr_scan", "android": "https://dc.lft.to/lastmile_qr_scan"}}, {"name": "434a8a39479839c3096f1640289249ec", "type": "electric_scooter", "lat": 38.93540016666667, "is_reserved": 0, "lon": -77.03289316666667, "fusion_lon": 0.0, "is_disabled": 0, "fusion_lat": 0.0, "bike_id": "434a8a39479839c3096f1640289249ec", "rental_uris": {"ios": "https://dc.lft.to/lastmile_qr_scan", "android": "https://dc.lft.to/lastmile_qr_scan"}}, {"name": "ad1cb7cc3100f7a03a1a9d2638d184a9", "type": "electric_scooter", "lat": 38.928648, "is_reserved": 0, "lon": -77.02610766666666, "fusion_lon": 0.0, "is_disabled": 0, "fusion_lat": 0.0, "bike_id": "ad1cb7cc3100f7a03a1a9d2638d184a9", "rental_uris": {"ios": "https://dc.lft.to/lastmile_qr_scan", "android": "https://dc.lft.to/lastmile_qr_scan"}}, {"name": "75ea38c8853b17c8707da734f7ebeb28", "type": "electric_scooter", "lat": 38.90669916666667, "is_reserved": 0, "lon": -77.026906, "fusion_lon": 0.0, "is_disabled": 0, "fusion_lat": 0.0, "bike_id": "75ea38c8853b17c8707da734f7ebeb28", "rental_uris": {"ios": "https://dc.lft.to/lastmile_qr_scan", "android": "https://dc.lft.to/lastmile_qr_scan"}}, {"name": "8a0bd2e195a1d5241d31588a8f04684d", "type": "electric_bike", "lat": 38.9395795, "is_reserved": 0, "lon": -77.36099483333334, "fusion_lon": 0.0, "is_disabled": 0, "fusion_lat": 0.0, "bike_id": "8a0bd2e195a1d5241d31588a8f04684d", "rental_uris": {"ios": "https://dc.lft.to/lastmile_qr_scan", "android": "https://dc.lft.to/lastmile_qr_scan"}}, {"name": "eff2828e7cbcba3afc4d49bb9eae3ed9", "type": "electric_scooter", "lat": 38.902746666666665, "is_reserved": 0, "lon": -77.0366255, "fusion_lon": 0.0, "is_disabled": 0, "fusion_lat": 0.0, "bike_id": "eff2828e7cbcba3afc4d49bb9eae3ed9", "rental_uris": {"ios": "https://dc.lft.to/lastmile_qr_scan", "android": "https://dc.lft.to/lastmile_qr_scan"}}, {"name": "1aa5d45a0e66792c0ccaf8a455371bf6", "type": "electric_scooter", "lat": 38.9097065, "is_reserved": 0, "lon": -77.0112025, "fusion_lon": 0.0, "is_disabled": 0, "fusion_lat": 0.0, "bike_id": "1aa5d45a0e66792c0ccaf8a455371bf6", "rental_uris": {"ios": "https://dc.lft.to/lastmile_qr_scan", "android": "https://dc.lft.to/lastmile_qr_scan"}}, {"name": "f51d015973a6df15f19d4c6250c978bb", "type": "electric_scooter", "lat": 38.8695565, "is_reserved": 0, "lon": -77.01375166666666, "fusion_lon": 0.0, "is_disabled": 0, "fusion_lat": 0.0, "bike_id": "f51d015973a6df15f19d4c6250c978bb", "rental_uris": {"ios": "https://dc.lft.to/lastmile_qr_scan", "android": "https://dc.lft.to/lastmile_qr_scan"}}, {"name": "04e7c4589b4d4c7d411dafe453acf06b", "type": "electric_scooter", "lat": 38.902664, "is_reserved": 0, "lon": -77.0385405, "fusion_lon": 0.0, "is_disabled": 0, "fusion_lat": 0.0, "bike_id": "04e7c4589b4d4c7d411dafe453acf06b", "rental_uris": {"ios": "https://dc.lft.to/lastmile_qr_scan", "android": "https://dc.lft.to/lastmile_qr_scan"}}, {"name": "2d89935475dd72483985e6bfa3090c5a", "type": "electric_scooter", "lat": 38.9749765, "is_reserved": 0, "lon": -77.01692483333333, "fusion_lon": 0.0, "is_disabled": 0, "fusion_lat": 0.0, "bike_id": "2d89935475dd72483985e6bfa3090c5a", "rental_uris": {"ios": "https://dc.lft.to/lastmile_qr_scan", "android": "https://dc.lft.to/lastmile_qr_scan"}}, {"name": "237353129724d348eda492825c0d0a12", "type": "electric_scooter", "lat": 38.9028105, "is_reserved": 0, "lon": -77.06500016666666, "fusion_lon": 0.0, "is_disabled": 0, "fusion_lat": 0.0, "bike_id": "237353129724d348eda492825c0d0a12", "rental_uris": {"ios": "https://dc.lft.to/lastmile_qr_scan", "android": "https://dc.lft.to/lastmile_qr_scan"}}, {"name": "ca2f528b7b245a2f98ca6811b6458f17", "type": "electric_bike", "lat": 38.9533435, "is_reserved": 0, "lon": -76.98252600000001, "fusion_lon": 0.0, "is_disabled": 0, "fusion_lat": 0.0, "bike_id": "ca2f528b7b245a2f98ca6811b6458f17", "rental_uris": {"ios": "https://dc.lft.to/lastmile_qr_scan", "android": "https://dc.lft.to/lastmile_qr_scan"}}, {"name": "f12bf5f6ddbfc47bb33e58e6c98b1cbf", "type": "electric_scooter", "lat": 38.912374, "is_reserved": 0, "lon": -77.04870083333333, "fusion_lon": 0.0, "is_disabled": 0, "fusion_lat": 0.0, "bike_id": "f12bf5f6ddbfc47bb33e58e6c98b1cbf", "rental_uris": {"ios": "https://dc.lft.to/lastmile_qr_scan", "android": "https://dc.lft.to/lastmile_qr_scan"}}, {"name": "332073cf7d58ff4abaf505b1008efd85", "type": "electric_bike", "lat": 38.877521, "is_reserved": 0, "lon": -76.97984983333333, "fusion_lon": 0.0, "is_disabled": 0, "fusion_lat": 0.0, "bike_id": "332073cf7d58ff4abaf505b1008efd85", "rental_uris": {"ios": "https://dc.lft.to/lastmile_qr_scan", "android": "https://dc.lft.to/lastmile_qr_scan"}}, {"name": "cfdbbdc914aaba2d37571c549c112de3", "type": "electric_bike", "lat": 38.959287333333336, "is_reserved": 0, "lon": -76.9253865, "fusion_lon": 0.0, "is_disabled": 0, "fusion_lat": 0.0, "bike_id": "cfdbbdc914aaba2d37571c549c112de3", "rental_uris": {"ios": "https://dc.lft.to/lastmile_qr_scan", "android": "https://dc.lft.to/lastmile_qr_scan"}}, {"name": "d5319c7ac7610aa3c6b1f23fa307cb52", "type": "electric_scooter", "lat": 38.915242666666664, "is_reserved": 0, "lon": -77.03194833333333, "fusion_lon": 0.0, "is_disabled": 0, "fusion_lat": 0.0, "bike_id": "d5319c7ac7610aa3c6b1f23fa307cb52", "rental_uris": {"ios": "https://dc.lft.to/lastmile_qr_scan", "android": "https://dc.lft.to/lastmile_qr_scan"}}, {"name": "b884b0123097e61c6e42479e85dfd2b4", "type": "electric_scooter", "lat": 38.898673333333335, "is_reserved": 0, "lon": -76.9463775, "fusion_lon": 0.0, "is_disabled": 0, "fusion_lat": 0.0, "bike_id": "b884b0123097e61c6e42479e85dfd2b4", "rental_uris": {"ios": "https://dc.lft.to/lastmile_qr_scan", "android": "https://dc.lft.to/lastmile_qr_scan"}}, {"name": "ad19fa58495aa36074b17c5d4299aaea", "type": "electric_scooter", "lat": 38.92907733333333, "is_reserved": 0, "lon": -77.03235666666667, "fusion_lon": 0.0, "is_disabled": 0, "fusion_lat": 0.0, "bike_id": "ad19fa58495aa36074b17c5d4299aaea", "rental_uris": {"ios": "https://dc.lft.to/lastmile_qr_scan", "android": "https://dc.lft.to/lastmile_qr_scan"}}, {"name": "1f6ea7d8f8711f82c0983f343ef9b3d6", "type": "electric_scooter", "lat": 38.926503333333336, "is_reserved": 0, "lon": -77.03729566666667, "fusion_lon": 0.0, "is_disabled": 0, "fusion_lat": 0.0, "bike_id": "1f6ea7d8f8711f82c0983f343ef9b3d6", "rental_uris": {"ios": "https://dc.lft.to/lastmile_qr_scan", "android": "https://dc.lft.to/lastmile_qr_scan"}}, {"name": "69937225f39494d7b8c839b8e16d5cb2", "type": "electric_scooter", "lat": 38.92473616666667, "is_reserved": 0, "lon": -77.03910866666666, "fusion_lon": 0.0, "is_disabled": 0, "fusion_lat": 0.0, "bike_id": "69937225f39494d7b8c839b8e16d5cb2", "rental_uris": {"ios": "https://dc.lft.to/lastmile_qr_scan", "android": "https://dc.lft.to/lastmile_qr_scan"}}, {"name": "6d3cc7740c9b175c7b8b862a6acc325f", "type": "electric_scooter", "lat": 38.91101866666666, "is_reserved": 0, "lon": -77.03665766666667, "fusion_lon": 0.0, "is_disabled": 0, "fusion_lat": 0.0, "bike_id": "6d3cc7740c9b175c7b8b862a6acc325f", "rental_uris": {"ios": "https://dc.lft.to/lastmile_qr_scan", "android": "https://dc.lft.to/lastmile_qr_scan"}}, {"name": "c49d6648e040bf3480ed5ba0f66ae5ed", "type": "electric_bike", "lat": 38.80746883333333, "is_reserved": 0, "lon": -77.09425066666667, "fusion_lon": 0.0, "is_disabled": 0, "fusion_lat": 0.0, "bike_id": "c49d6648e040bf3480ed5ba0f66ae5ed", "rental_uris": {"ios": "https://dc.lft.to/lastmile_qr_scan", "android": "https://dc.lft.to/lastmile_qr_scan"}}, {"name": "31bbabc1f3edd53d1ca7e1956e67b483", "type": "electric_scooter", "lat": 38.90542533333333, "is_reserved": 0, "lon": -77.02183516666666, "fusion_lon": 0.0, "is_disabled": 0, "fusion_lat": 0.0, "bike_id": "31bbabc1f3edd53d1ca7e1956e67b483", "rental_uris": {"ios": "https://dc.lft.to/lastmile_qr_scan", "android": "https://dc.lft.to/lastmile_qr_scan"}}, {"name": "34b3a920b6750de7d2fe9533d723e739", "type": "electric_scooter", "lat": 38.86660233333333, "is_reserved": 0, "lon": -76.98886383333334, "fusion_lon": 0.0, "is_disabled": 0, "fusion_lat": 0.0, "bike_id": "34b3a920b6750de7d2fe9533d723e739", "rental_uris": {"ios": "https://dc.lft.to/lastmile_qr_scan", "android": "https://dc.lft.to/lastmile_qr_scan"}}, {"name": "07baf9908ca475802a2b9cc1530d5541", "type": "electric_scooter", "lat": 38.91550516666667, "is_reserved": 0, "lon": -77.04160266666666, "fusion_lon": 0.0, "is_disabled": 0, "fusion_lat": 0.0, "bike_id": "07baf9908ca475802a2b9cc1530d5541", "rental_uris": {"ios": "https://dc.lft.to/lastmile_qr_scan", "android": "https://dc.lft.to/lastmile_qr_scan"}}, {"name": "f6a7b77e69e2433f071c8597e0246f1c", "type": "electric_scooter", "lat": 38.929889333333335, "is_reserved": 0, "lon": -77.03233566666667, "fusion_lon": 0.0, "is_disabled": 0, "fusion_lat": 0.0, "bike_id": "f6a7b77e69e2433f071c8597e0246f1c", "rental_uris": {"ios": "https://dc.lft.to/lastmile_qr_scan", "android": "https://dc.lft.to/lastmile_qr_scan"}}, {"name": "91c7dc41aa8abcf9eedcec5ab46d1246", "type": "electric_scooter", "lat": 38.918083333333335, "is_reserved": 0, "lon": -77.00165516666667, "fusion_lon": 0.0, "is_disabled": 0, "fusion_lat": 0.0, "bike_id": "91c7dc41aa8abcf9eedcec5ab46d1246", "rental_uris": {"ios": "https://dc.lft.to/lastmile_qr_scan", "android": "https://dc.lft.to/lastmile_qr_scan"}}, {"name": "17b54f9996964465fcc1d0713882b791", "type": "electric_bike", "lat": 39.03046833333333, "is_reserved": 0, "lon": -77.09484033333334, "fusion_lon": 0.0, "is_disabled": 0, "fusion_lat": 0.0, "bike_id": "17b54f9996964465fcc1d0713882b791", "rental_uris": {"ios": "https://dc.lft.to/lastmile_qr_scan", "android": "https://dc.lft.to/lastmile_qr_scan"}}, {"name": "ac017d57981107c2f7aab91ebb6ada6a", "type": "electric_scooter", "lat": 38.9142805, "is_reserved": 0, "lon": -77.03817816666667, "fusion_lon": 0.0, "is_disabled": 0, "fusion_lat": 0.0, "bike_id": "ac017d57981107c2f7aab91ebb6ada6a", "rental_uris": {"ios": "https://dc.lft.to/lastmile_qr_scan", "android": "https://dc.lft.to/lastmile_qr_scan"}}, {"name": "dcec8fa3d4c702d724d736dbbdc9149f", "type": "electric_scooter", "lat": 38.8837265, "is_reserved": 0, "lon": -77.01969266666667, "fusion_lon": 0.0, "is_disabled": 0, "fusion_lat": 0.0, "bike_id": "dcec8fa3d4c702d724d736dbbdc9149f", "rental_uris": {"ios": "https://dc.lft.to/lastmile_qr_scan", "android": "https://dc.lft.to/lastmile_qr_scan"}}, {"name": "5aa07d268168a5261aef63c323e67245", "type": "electric_scooter", "lat": 38.904174833333336, "is_reserved": 0, "lon": -77.01800133333333, "fusion_lon": 0.0, "is_disabled": 0, "fusion_lat": 0.0, "bike_id": "5aa07d268168a5261aef63c323e67245", "rental_uris": {"ios": "https://dc.lft.to/lastmile_qr_scan", "android": "https://dc.lft.to/lastmile_qr_scan"}}, {"name": "5f7c289ee7c6d70deabdadd2eed2f004", "type": "electric_scooter", "lat": 38.900082166666664, "is_reserved": 0, "lon": -77.01037316666667, "fusion_lon": 0.0, "is_disabled": 0, "fusion_lat": 0.0, "bike_id": "5f7c289ee7c6d70deabdadd2eed2f004", "rental_uris": {"ios": "https://dc.lft.to/lastmile_qr_scan", "android": "https://dc.lft.to/lastmile_qr_scan"}}, {"name": "6eda35052248b5796269b6b8e8d00ec9", "type": "electric_scooter", "lat": 38.92847483333333, "is_reserved": 0, "lon": -77.05426566666667, "fusion_lon": 0.0, "is_disabled": 0, "fusion_lat": 0.0, "bike_id": "6eda35052248b5796269b6b8e8d00ec9", "rental_uris": {"ios": "https://dc.lft.to/lastmile_qr_scan", "android": "https://dc.lft.to/lastmile_qr_scan"}}, {"name": "75880a0ca2d11f30755e842ad71a6ca8", "type": "electric_scooter", "lat": 38.90834616666667, "is_reserved": 0, "lon": -76.99700383333334, "fusion_lon": 0.0, "is_disabled": 0, "fusion_lat": 0.0, "bike_id": "75880a0ca2d11f30755e842ad71a6ca8", "rental_uris": {"ios": "https://dc.lft.to/lastmile_qr_scan", "android": "https://dc.lft.to/lastmile_qr_scan"}}, {"name": "a5b7d79c0beb17b4afd590dfc4b597f2", "type": "electric_scooter", "lat": 38.89592783333333, "is_reserved": 0, "lon": -77.02583066666666, "fusion_lon": 0.0, "is_disabled": 0, "fusion_lat": 0.0, "bike_id": "a5b7d79c0beb17b4afd590dfc4b597f2", "rental_uris": {"ios": "https://dc.lft.to/lastmile_qr_scan", "android": "https://dc.lft.to/lastmile_qr_scan"}}, {"name": "a900e02b9ec49fc5d86e8eb5d90c170b", "type": "electric_scooter", "lat": 38.89219416666667, "is_reserved": 0, "lon": -77.02145666666667, "fusion_lon": 0.0, "is_disabled": 0, "fusion_lat": 0.0, "bike_id": "a900e02b9ec49fc5d86e8eb5d90c170b", "rental_uris": {"ios": "https://dc.lft.to/lastmile_qr_scan", "android": "https://dc.lft.to/lastmile_qr_scan"}}, {"name": "034b41498a2da7b6996f256f08f1ae92", "type": "electric_scooter", "lat": 38.906705333333335, "is_reserved": 0, "lon": -77.02707466666666, "fusion_lon": 0.0, "is_disabled": 0, "fusion_lat": 0.0, "bike_id": "034b41498a2da7b6996f256f08f1ae92", "rental_uris": {"ios": "https://dc.lft.to/lastmile_qr_scan", "android": "https://dc.lft.to/lastmile_qr_scan"}}, {"name": "6c9aae1ed40cbb6379766d9ff66b398c", "type": "electric_scooter", "lat": 38.87680266666667, "is_reserved": 0, "lon": -77.00071433333333, "fusion_lon": 0.0, "is_disabled": 0, "fusion_lat": 0.0, "bike_id": "6c9aae1ed40cbb6379766d9ff66b398c", "rental_uris": {"ios": "https://dc.lft.to/lastmile_qr_scan", "android": "https://dc.lft.to/lastmile_qr_scan"}}, {"name": "7ca2ebe31c05f53adad1174f59ae7f02", "type": "electric_scooter", "lat": 38.905178666666664, "is_reserved": 0, "lon": -77.051344, "fusion_lon": 0.0, "is_disabled": 0, "fusion_lat": 0.0, "bike_id": "7ca2ebe31c05f53adad1174f59ae7f02", "rental_uris": {"ios": "https://dc.lft.to/lastmile_qr_scan", "android": "https://dc.lft.to/lastmile_qr_scan"}}, {"name": "153f56996bc30877add4f9a3fcc68710", "type": "electric_scooter", "lat": 38.8912905, "is_reserved": 0, "lon": -77.0034085, "fusion_lon": 0.0, "is_disabled": 0, "fusion_lat": 0.0, "bike_id": "153f56996bc30877add4f9a3fcc68710", "rental_uris": {"ios": "https://dc.lft.to/lastmile_qr_scan", "android": "https://dc.lft.to/lastmile_qr_scan"}}, {"name": "54fe3d64a838984db1f3dbf3985cac8a", "type": "electric_scooter", "lat": 38.9188405, "is_reserved": 0, "lon": -77.03462716666667, "fusion_lon": 0.0, "is_disabled": 0, "fusion_lat": 0.0, "bike_id": "54fe3d64a838984db1f3dbf3985cac8a", "rental_uris": {"ios": "https://dc.lft.to/lastmile_qr_scan", "android": "https://dc.lft.to/lastmile_qr_scan"}}, {"name": "b30f0223d29bbf864eef438538a54e51", "type": "electric_bike", "lat": 38.807796333333336, "is_reserved": 0, "lon": -77.12954766666667, "fusion_lon": 0.0, "is_disabled": 0, "fusion_lat": 0.0, "bike_id": "b30f0223d29bbf864eef438538a54e51", "rental_uris": {"ios": "https://dc.lft.to/lastmile_qr_scan", "android": "https://dc.lft.to/lastmile_qr_scan"}}, {"name": "dce53d0907f0b5ca0b9fd8fc34be3ef1", "type": "electric_scooter", "lat": 38.93455433333333, "is_reserved": 0, "lon": -77.07304666666667, "fusion_lon": 0.0, "is_disabled": 0, "fusion_lat": 0.0, "bike_id": "dce53d0907f0b5ca0b9fd8fc34be3ef1", "rental_uris": {"ios": "https://dc.lft.to/lastmile_qr_scan", "android": "https://dc.lft.to/lastmile_qr_scan"}}, {"name": "920a67209ac00b920340b0db92893cfd", "type": "electric_scooter", "lat": 38.9003675, "is_reserved": 0, "lon": -76.98834, "fusion_lon": 0.0, "is_disabled": 0, "fusion_lat": 0.0, "bike_id": "920a67209ac00b920340b0db92893cfd", "rental_uris": {"ios": "https://dc.lft.to/lastmile_qr_scan", "android": "https://dc.lft.to/lastmile_qr_scan"}}, {"name": "cc31dc4bf5fad05de687edc0e82e61fb", "type": "electric_scooter", "lat": 38.902687, "is_reserved": 0, "lon": -77.03848933333333, "fusion_lon": 0.0, "is_disabled": 0, "fusion_lat": 0.0, "bike_id": "cc31dc4bf5fad05de687edc0e82e61fb", "rental_uris": {"ios": "https://dc.lft.to/lastmile_qr_scan", "android": "https://dc.lft.to/lastmile_qr_scan"}}, {"name": "287d7ee8a07bd849127a2de0871b6439", "type": "electric_scooter", "lat": 38.89425416666667, "is_reserved": 0, "lon": -76.932442, "fusion_lon": 0.0, "is_disabled": 0, "fusion_lat": 0.0, "bike_id": "287d7ee8a07bd849127a2de0871b6439", "rental_uris": {"ios": "https://dc.lft.to/lastmile_qr_scan", "android": "https://dc.lft.to/lastmile_qr_scan"}}, {"name": "2d7f935f6de82be70ef8f862fdcdc786", "type": "electric_scooter", "lat": 38.858073, "is_reserved": 0, "lon": -76.991268, "fusion_lon": 0.0, "is_disabled": 0, "fusion_lat": 0.0, "bike_id": "2d7f935f6de82be70ef8f862fdcdc786", "rental_uris": {"ios": "https://dc.lft.to/lastmile_qr_scan", "android": "https://dc.lft.to/lastmile_qr_scan"}}, {"name": "d38b7626ab3c40492c88cfe9561b74f3", "type": "electric_scooter", "lat": 38.91676233333333, "is_reserved": 0, "lon": -77.02323883333334, "fusion_lon": 0.0, "is_disabled": 0, "fusion_lat": 0.0, "bike_id": "d38b7626ab3c40492c88cfe9561b74f3", "rental_uris": {"ios": "https://dc.lft.to/lastmile_qr_scan", "android": "https://dc.lft.to/lastmile_qr_scan"}}, {"name": "3a6efe78e30eb4cd72893e6b762fdd9e", "type": "electric_scooter", "lat": 38.906701, "is_reserved": 0, "lon": -77.0296635, "fusion_lon": 0.0, "is_disabled": 0, "fusion_lat": 0.0, "bike_id": "3a6efe78e30eb4cd72893e6b762fdd9e", "rental_uris": {"ios": "https://dc.lft.to/lastmile_qr_scan", "android": "https://dc.lft.to/lastmile_qr_scan"}}, {"name": "81cd725c19f5f931c6618890b4dc44ad", "type": "electric_bike", "lat": 39.003835, "is_reserved": 0, "lon": -77.012889, "fusion_lon": 0.0, "is_disabled": 0, "fusion_lat": 0.0, "bike_id": "81cd725c19f5f931c6618890b4dc44ad", "rental_uris": {"ios": "https://dc.lft.to/lastmile_qr_scan", "android": "https://dc.lft.to/lastmile_qr_scan"}}, {"name": "1386c33d905d8f370ddae30d35225104", "type": "electric_scooter", "lat": 38.956515, "is_reserved": 0, "lon": -77.03290116666666, "fusion_lon": 0.0, "is_disabled": 0, "fusion_lat": 0.0, "bike_id": "1386c33d905d8f370ddae30d35225104", "rental_uris": {"ios": "https://dc.lft.to/lastmile_qr_scan", "android": "https://dc.lft.to/lastmile_qr_scan"}}, {"name": "3a869cf0d39db7aaa44f9d8836d110ac", "type": "electric_scooter", "lat": 38.97236983333333, "is_reserved": 0, "lon": -77.02713016666667, "fusion_lon": 0.0, "is_disabled": 0, "fusion_lat": 0.0, "bike_id": "3a869cf0d39db7aaa44f9d8836d110ac", "rental_uris": {"ios": "https://dc.lft.to/lastmile_qr_scan", "android": "https://dc.lft.to/lastmile_qr_scan"}}, {"name": "313e5362c37e838f996007c5f7900073", "type": "electric_scooter", "lat": 38.924486, "is_reserved": 0, "lon": -77.02036883333334, "fusion_lon": 0.0, "is_disabled": 0, "fusion_lat": 0.0, "bike_id": "313e5362c37e838f996007c5f7900073", "rental_uris": {"ios": "https://dc.lft.to/lastmile_qr_scan", "android": "https://dc.lft.to/lastmile_qr_scan"}}, {"name": "cc82d2dde3c91315638edfdc5fee1906", "type": "electric_scooter", "lat": 38.85528516666667, "is_reserved": 0, "lon": -76.96919216666667, "fusion_lon": 0.0, "is_disabled": 0, "fusion_lat": 0.0, "bike_id": "cc82d2dde3c91315638edfdc5fee1906", "rental_uris": {"ios": "https://dc.lft.to/lastmile_qr_scan", "android": "https://dc.lft.to/lastmile_qr_scan"}}, {"name": "07b72ed83929c473563cb950265b5530", "type": "electric_scooter", "lat": 38.9014675, "is_reserved": 0, "lon": -77.03337033333334, "fusion_lon": 0.0, "is_disabled": 0, "fusion_lat": 0.0, "bike_id": "07b72ed83929c473563cb950265b5530", "rental_uris": {"ios": "https://dc.lft.to/lastmile_qr_scan", "android": "https://dc.lft.to/lastmile_qr_scan"}}, {"name": "0579edea558c929ff71ae46e39b3e205", "type": "electric_scooter", "lat": 38.899986166666665, "is_reserved": 0, "lon": -76.99502116666666, "fusion_lon": 0.0, "is_disabled": 0, "fusion_lat": 0.0, "bike_id": "0579edea558c929ff71ae46e39b3e205", "rental_uris": {"ios": "https://dc.lft.to/lastmile_qr_scan", "android": "https://dc.lft.to/lastmile_qr_scan"}}, {"name": "d3cc485e875e6e1d2d69bf1cf7138fe6", "type": "electric_scooter", "lat": 38.91821183333333, "is_reserved": 0, "lon": -77.03617683333333, "fusion_lon": 0.0, "is_disabled": 0, "fusion_lat": 0.0, "bike_id": "d3cc485e875e6e1d2d69bf1cf7138fe6", "rental_uris": {"ios": "https://dc.lft.to/lastmile_qr_scan", "android": "https://dc.lft.to/lastmile_qr_scan"}}, {"name": "41e07dc0df84457eabfd3853cd3ddb64", "type": "electric_scooter", "lat": 38.926149, "is_reserved": 0, "lon": -77.02163933333334, "fusion_lon": 0.0, "is_disabled": 0, "fusion_lat": 0.0, "bike_id": "41e07dc0df84457eabfd3853cd3ddb64", "rental_uris": {"ios": "https://dc.lft.to/lastmile_qr_scan", "android": "https://dc.lft.to/lastmile_qr_scan"}}, {"name": "e41724d9b0a4f3155b545eb8ce27d756", "type": "electric_scooter", "lat": 38.86415783333333, "is_reserved": 0, "lon": -76.9805265, "fusion_lon": 0.0, "is_disabled": 0, "fusion_lat": 0.0, "bike_id": "e41724d9b0a4f3155b545eb8ce27d756", "rental_uris": {"ios": "https://dc.lft.to/lastmile_qr_scan", "android": "https://dc.lft.to/lastmile_qr_scan"}}, {"name": "2972011e831a46515fe4b7f20a4c27f1", "type": "electric_bike", "lat": 38.89967766666667, "is_reserved": 0, "lon": -76.98675216666666, "fusion_lon": 0.0, "is_disabled": 0, "fusion_lat": 0.0, "bike_id": "2972011e831a46515fe4b7f20a4c27f1", "rental_uris": {"ios": "https://dc.lft.to/lastmile_qr_scan", "android": "https://dc.lft.to/lastmile_qr_scan"}}, {"name": "2eedcf9a064f6d03c044f5500d2755d3", "type": "electric_scooter", "lat": 38.94179916666667, "is_reserved": 0, "lon": -77.03393733333333, "fusion_lon": 0.0, "is_disabled": 0, "fusion_lat": 0.0, "bike_id": "2eedcf9a064f6d03c044f5500d2755d3", "rental_uris": {"ios": "https://dc.lft.to/lastmile_qr_scan", "android": "https://dc.lft.to/lastmile_qr_scan"}}, {"name": "2aa3403de896eba7322a62b1f84636b9", "type": "electric_scooter", "lat": 38.883993833333335, "is_reserved": 0, "lon": -76.98586416666667, "fusion_lon": 0.0, "is_disabled": 0, "fusion_lat": 0.0, "bike_id": "2aa3403de896eba7322a62b1f84636b9", "rental_uris": {"ios": "https://dc.lft.to/lastmile_qr_scan", "android": "https://dc.lft.to/lastmile_qr_scan"}}, {"name": "ff96dd8053321c7a1d48eb2613b6a74a", "type": "electric_scooter", "lat": 38.894026833333335, "is_reserved": 0, "lon": -76.94805733333334, "fusion_lon": 0.0, "is_disabled": 0, "fusion_lat": 0.0, "bike_id": "ff96dd8053321c7a1d48eb2613b6a74a", "rental_uris": {"ios": "https://dc.lft.to/lastmile_qr_scan", "android": "https://dc.lft.to/lastmile_qr_scan"}}, {"name": "fb06ab116a9b0c59debd0e05bce361fb", "type": "electric_scooter", "lat": 38.92487633333333, "is_reserved": 0, "lon": -77.05212733333333, "fusion_lon": 0.0, "is_disabled": 0, "fusion_lat": 0.0, "bike_id": "fb06ab116a9b0c59debd0e05bce361fb", "rental_uris": {"ios": "https://dc.lft.to/lastmile_qr_scan", "android": "https://dc.lft.to/lastmile_qr_scan"}}, {"name": "14216b2af035014810e3346fff094738", "type": "electric_scooter", "lat": 38.89758416666667, "is_reserved": 0, "lon": -77.032516, "fusion_lon": 0.0, "is_disabled": 0, "fusion_lat": 0.0, "bike_id": "14216b2af035014810e3346fff094738", "rental_uris": {"ios": "https://dc.lft.to/lastmile_qr_scan", "android": "https://dc.lft.to/lastmile_qr_scan"}}, {"name": "27fe611c345ac21f432be77f08da1b5b", "type": "electric_scooter", "lat": 38.863529666666665, "is_reserved": 0, "lon": -76.99063633333333, "fusion_lon": 0.0, "is_disabled": 0, "fusion_lat": 0.0, "bike_id": "27fe611c345ac21f432be77f08da1b5b", "rental_uris": {"ios": "https://dc.lft.to/lastmile_qr_scan", "android": "https://dc.lft.to/lastmile_qr_scan"}}, {"name": "95b0fec54e38befa3084daaebe2189c9", "type": "electric_scooter", "lat": 38.941175333333334, "is_reserved": 0, "lon": -77.0265785, "fusion_lon": 0.0, "is_disabled": 0, "fusion_lat": 0.0, "bike_id": "95b0fec54e38befa3084daaebe2189c9", "rental_uris": {"ios": "https://dc.lft.to/lastmile_qr_scan", "android": "https://dc.lft.to/lastmile_qr_scan"}}, {"name": "389e9abad60c602679e8612eada1eefa", "type": "electric_scooter", "lat": 38.90861783333333, "is_reserved": 0, "lon": -76.9862075, "fusion_lon": 0.0, "is_disabled": 0, "fusion_lat": 0.0, "bike_id": "389e9abad60c602679e8612eada1eefa", "rental_uris": {"ios": "https://dc.lft.to/lastmile_qr_scan", "android": "https://dc.lft.to/lastmile_qr_scan"}}, {"name": "650703c3d27b9b703995feb25028da67", "type": "electric_scooter", "lat": 38.9003645, "is_reserved": 0, "lon": -76.9883845, "fusion_lon": 0.0, "is_disabled": 0, "fusion_lat": 0.0, "bike_id": "650703c3d27b9b703995feb25028da67", "rental_uris": {"ios": "https://dc.lft.to/lastmile_qr_scan", "android": "https://dc.lft.to/lastmile_qr_scan"}}, {"name": "31c36afa2e7f1dedc434e2488603ed01", "type": "electric_scooter", "lat": 38.88491916666667, "is_reserved": 0, "lon": -77.02857866666666, "fusion_lon": 0.0, "is_disabled": 0, "fusion_lat": 0.0, "bike_id": "31c36afa2e7f1dedc434e2488603ed01", "rental_uris": {"ios": "https://dc.lft.to/lastmile_qr_scan", "android": "https://dc.lft.to/lastmile_qr_scan"}}, {"name": "3281d469db31441feebe19246bb8ab97", "type": "electric_scooter", "lat": 38.90511633333333, "is_reserved": 0, "lon": -77.06586416666667, "fusion_lon": 0.0, "is_disabled": 0, "fusion_lat": 0.0, "bike_id": "3281d469db31441feebe19246bb8ab97", "rental_uris": {"ios": "https://dc.lft.to/lastmile_qr_scan", "android": "https://dc.lft.to/lastmile_qr_scan"}}, {"name": "1644b75aecb94d91a809599d1c6a738e", "type": "electric_scooter", "lat": 38.93892233333333, "is_reserved": 0, "lon": -77.0246275, "fusion_lon": 0.0, "is_disabled": 0, "fusion_lat": 0.0, "bike_id": "1644b75aecb94d91a809599d1c6a738e", "rental_uris": {"ios": "https://dc.lft.to/lastmile_qr_scan", "android": "https://dc.lft.to/lastmile_qr_scan"}}, {"name": "d1d1776b2bc6b1978c5206f295ea8051", "type": "electric_scooter", "lat": 38.887520333333335, "is_reserved": 0, "lon": -76.97983983333333, "fusion_lon": 0.0, "is_disabled": 0, "fusion_lat": 0.0, "bike_id": "d1d1776b2bc6b1978c5206f295ea8051", "rental_uris": {"ios": "https://dc.lft.to/lastmile_qr_scan", "android": "https://dc.lft.to/lastmile_qr_scan"}}, {"name": "becfd9ffda06873b0f9ac5a6bf52f0c4", "type": "electric_bike", "lat": 38.922096833333335, "is_reserved": 0, "lon": -76.98808466666667, "fusion_lon": 0.0, "is_disabled": 0, "fusion_lat": 0.0, "bike_id": "becfd9ffda06873b0f9ac5a6bf52f0c4", "rental_uris": {"ios": "https://dc.lft.to/lastmile_qr_scan", "android": "https://dc.lft.to/lastmile_qr_scan"}}, {"name": "1533a670a53d070ea5cd0c4c329bdb15", "type": "electric_bike", "lat": 38.87580766666667, "is_reserved": 0, "lon": -77.1056935, "fusion_lon": 0.0, "is_disabled": 0, "fusion_lat": 0.0, "bike_id": "1533a670a53d070ea5cd0c4c329bdb15", "rental_uris": {"ios": "https://dc.lft.to/lastmile_qr_scan", "android": "https://dc.lft.to/lastmile_qr_scan"}}, {"name": "9feec8de59e987495375f476f302842c", "type": "electric_scooter", "lat": 38.88387316666667, "is_reserved": 0, "lon": -76.93058633333334, "fusion_lon": 0.0, "is_disabled": 0, "fusion_lat": 0.0, "bike_id": "9feec8de59e987495375f476f302842c", "rental_uris": {"ios": "https://dc.lft.to/lastmile_qr_scan", "android": "https://dc.lft.to/lastmile_qr_scan"}}, {"name": "9112ff598b9ad1b237af8f18a45597b5", "type": "electric_scooter", "lat": 38.896178, "is_reserved": 0, "lon": -77.0323645, "fusion_lon": 0.0, "is_disabled": 0, "fusion_lat": 0.0, "bike_id": "9112ff598b9ad1b237af8f18a45597b5", "rental_uris": {"ios": "https://dc.lft.to/lastmile_qr_scan", "android": "https://dc.lft.to/lastmile_qr_scan"}}, {"name": "9acf9280cbc6d231fb8b5aba6d6cebfb", "type": "electric_scooter", "lat": 38.915495, "is_reserved": 0, "lon": -77.0119845, "fusion_lon": 0.0, "is_disabled": 0, "fusion_lat": 0.0, "bike_id": "9acf9280cbc6d231fb8b5aba6d6cebfb", "rental_uris": {"ios": "https://dc.lft.to/lastmile_qr_scan", "android": "https://dc.lft.to/lastmile_qr_scan"}}, {"name": "fd68646428c525870f6028bf61bae813", "type": "electric_scooter", "lat": 38.90369233333333, "is_reserved": 0, "lon": -77.05026216666667, "fusion_lon": 0.0, "is_disabled": 0, "fusion_lat": 0.0, "bike_id": "fd68646428c525870f6028bf61bae813", "rental_uris": {"ios": "https://dc.lft.to/lastmile_qr_scan", "android": "https://dc.lft.to/lastmile_qr_scan"}}, {"name": "6af5c11b9baae39fc48d481234c2c156", "type": "electric_scooter", "lat": 38.92325966666667, "is_reserved": 0, "lon": -77.02962383333333, "fusion_lon": 0.0, "is_disabled": 0, "fusion_lat": 0.0, "bike_id": "6af5c11b9baae39fc48d481234c2c156", "rental_uris": {"ios": "https://dc.lft.to/lastmile_qr_scan", "android": "https://dc.lft.to/lastmile_qr_scan"}}, {"name": "bb0d7d5a964fdcab96d07f57c5722045", "type": "electric_scooter", "lat": 38.91489516666667, "is_reserved": 0, "lon": -77.0415655, "fusion_lon": 0.0, "is_disabled": 0, "fusion_lat": 0.0, "bike_id": "bb0d7d5a964fdcab96d07f57c5722045", "rental_uris": {"ios": "https://dc.lft.to/lastmile_qr_scan", "android": "https://dc.lft.to/lastmile_qr_scan"}}, {"name": "16c6b957491020bb5bbf3e755bdf4e11", "type": "electric_scooter", "lat": 38.894864, "is_reserved": 0, "lon": -77.01009083333334, "fusion_lon": 0.0, "is_disabled": 0, "fusion_lat": 0.0, "bike_id": "16c6b957491020bb5bbf3e755bdf4e11", "rental_uris": {"ios": "https://dc.lft.to/lastmile_qr_scan", "android": "https://dc.lft.to/lastmile_qr_scan"}}, {"name": "2741af354e536e8ae3fa6ec6c39332ae", "type": "electric_scooter", "lat": 38.91807766666667, "is_reserved": 0, "lon": -77.03149983333333, "fusion_lon": 0.0, "is_disabled": 0, "fusion_lat": 0.0, "bike_id": "2741af354e536e8ae3fa6ec6c39332ae", "rental_uris": {"ios": "https://dc.lft.to/lastmile_qr_scan", "android": "https://dc.lft.to/lastmile_qr_scan"}}, {"name": "a07202f68a3a6173de7b76992ffa0b6b", "type": "electric_scooter", "lat": 38.9358725, "is_reserved": 0, "lon": -77.0241545, "fusion_lon": 0.0, "is_disabled": 0, "fusion_lat": 0.0, "bike_id": "a07202f68a3a6173de7b76992ffa0b6b", "rental_uris": {"ios": "https://dc.lft.to/lastmile_qr_scan", "android": "https://dc.lft.to/lastmile_qr_scan"}}, {"name": "e11e2f04d13510485ea2be6d4736cb1c", "type": "electric_scooter", "lat": 38.894018833333334, "is_reserved": 0, "lon": -76.99361216666667, "fusion_lon": 0.0, "is_disabled": 0, "fusion_lat": 0.0, "bike_id": "e11e2f04d13510485ea2be6d4736cb1c", "rental_uris": {"ios": "https://dc.lft.to/lastmile_qr_scan", "android": "https://dc.lft.to/lastmile_qr_scan"}}, {"name": "c86dc00b53da803b794f023f188b6a02", "type": "electric_bike", "lat": 38.8747945, "is_reserved": 0, "lon": -76.96526483333334, "fusion_lon": 0.0, "is_disabled": 0, "fusion_lat": 0.0, "bike_id": "c86dc00b53da803b794f023f188b6a02", "rental_uris": {"ios": "https://dc.lft.to/lastmile_qr_scan", "android": "https://dc.lft.to/lastmile_qr_scan"}}, {"name": "f34dd92fabe6845494968cef30616c5d", "type": "electric_bike", "lat": 38.93770466666667, "is_reserved": 0, "lon": -76.99189433333333, "fusion_lon": 0.0, "is_disabled": 0, "fusion_lat": 0.0, "bike_id": "f34dd92fabe6845494968cef30616c5d", "rental_uris": {"ios": "https://dc.lft.to/lastmile_qr_scan", "android": "https://dc.lft.to/lastmile_qr_scan"}}, {"name": "6d39dd04a5f447eff92b795c1af6c8c9", "type": "electric_scooter", "lat": 38.907353666666666, "is_reserved": 0, "lon": -77.02161316666667, "fusion_lon": 0.0, "is_disabled": 0, "fusion_lat": 0.0, "bike_id": "6d39dd04a5f447eff92b795c1af6c8c9", "rental_uris": {"ios": "https://dc.lft.to/lastmile_qr_scan", "android": "https://dc.lft.to/lastmile_qr_scan"}}, {"name": "f262d6fc8bd4b281618d980efed0ad27", "type": "electric_bike", "lat": 38.942768, "is_reserved": 0, "lon": -76.98076483333334, "fusion_lon": 0.0, "is_disabled": 0, "fusion_lat": 0.0, "bike_id": "f262d6fc8bd4b281618d980efed0ad27", "rental_uris": {"ios": "https://dc.lft.to/lastmile_qr_scan", "android": "https://dc.lft.to/lastmile_qr_scan"}}, {"name": "765aa94768263fb32ce29a44f1656f07", "type": "electric_scooter", "lat": 38.909651833333335, "is_reserved": 0, "lon": -77.0342195, "fusion_lon": 0.0, "is_disabled": 0, "fusion_lat": 0.0, "bike_id": "765aa94768263fb32ce29a44f1656f07", "rental_uris": {"ios": "https://dc.lft.to/lastmile_qr_scan", "android": "https://dc.lft.to/lastmile_qr_scan"}}, {"name": "c26e58f70884b3ee3122d55173fbac22", "type": "electric_scooter", "lat": 38.946368, "is_reserved": 0, "lon": -77.01925066666666, "fusion_lon": 0.0, "is_disabled": 0, "fusion_lat": 0.0, "bike_id": "c26e58f70884b3ee3122d55173fbac22", "rental_uris": {"ios": "https://dc.lft.to/lastmile_qr_scan", "android": "https://dc.lft.to/lastmile_qr_scan"}}, {"name": "a0c6bbc1d70260d3c956a3fda4f1fd37", "type": "electric_scooter", "lat": 38.86663266666667, "is_reserved": 0, "lon": -76.98888216666667, "fusion_lon": 0.0, "is_disabled": 0, "fusion_lat": 0.0, "bike_id": "a0c6bbc1d70260d3c956a3fda4f1fd37", "rental_uris": {"ios": "https://dc.lft.to/lastmile_qr_scan", "android": "https://dc.lft.to/lastmile_qr_scan"}}, {"name": "f4573cb99c18fc06335c38af0d2f7b50", "type": "electric_scooter", "lat": 38.91015, "is_reserved": 0, "lon": -76.99390133333333, "fusion_lon": 0.0, "is_disabled": 0, "fusion_lat": 0.0, "bike_id": "f4573cb99c18fc06335c38af0d2f7b50", "rental_uris": {"ios": "https://dc.lft.to/lastmile_qr_scan", "android": "https://dc.lft.to/lastmile_qr_scan"}}, {"name": "194667ef92b66f35c088fefa9afe8a23", "type": "electric_scooter", "lat": 38.91569333333333, "is_reserved": 0, "lon": -77.04612666666667, "fusion_lon": 0.0, "is_disabled": 0, "fusion_lat": 0.0, "bike_id": "194667ef92b66f35c088fefa9afe8a23", "rental_uris": {"ios": "https://dc.lft.to/lastmile_qr_scan", "android": "https://dc.lft.to/lastmile_qr_scan"}}, {"name": "b128296c2a141f00d3d1b8d577a0f208", "type": "electric_scooter", "lat": 38.9189845, "is_reserved": 0, "lon": -77.04033716666666, "fusion_lon": 0.0, "is_disabled": 0, "fusion_lat": 0.0, "bike_id": "b128296c2a141f00d3d1b8d577a0f208", "rental_uris": {"ios": "https://dc.lft.to/lastmile_qr_scan", "android": "https://dc.lft.to/lastmile_qr_scan"}}, {"name": "a0e545f13e59ce00cafaba32c559142d", "type": "electric_scooter", "lat": 38.89627266666667, "is_reserved": 0, "lon": -77.010051, "fusion_lon": 0.0, "is_disabled": 0, "fusion_lat": 0.0, "bike_id": "a0e545f13e59ce00cafaba32c559142d", "rental_uris": {"ios": "https://dc.lft.to/lastmile_qr_scan", "android": "https://dc.lft.to/lastmile_qr_scan"}}, {"name": "e52b197ba0e6c36319f1efbe1b03972e", "type": "electric_scooter", "lat": 38.8844915, "is_reserved": 0, "lon": -77.00576866666667, "fusion_lon": 0.0, "is_disabled": 0, "fusion_lat": 0.0, "bike_id": "e52b197ba0e6c36319f1efbe1b03972e", "rental_uris": {"ios": "https://dc.lft.to/lastmile_qr_scan", "android": "https://dc.lft.to/lastmile_qr_scan"}}, {"name": "f2b5061fa734aa6360da723fcc7a1f4c", "type": "electric_scooter", "lat": 38.914166, "is_reserved": 0, "lon": -77.0130125, "fusion_lon": 0.0, "is_disabled": 0, "fusion_lat": 0.0, "bike_id": "f2b5061fa734aa6360da723fcc7a1f4c", "rental_uris": {"ios": "https://dc.lft.to/lastmile_qr_scan", "android": "https://dc.lft.to/lastmile_qr_scan"}}, {"name": "7a33ee42642c714c9dbe80743651e509", "type": "electric_scooter", "lat": 38.939438, "is_reserved": 0, "lon": -77.0612375, "fusion_lon": 0.0, "is_disabled": 0, "fusion_lat": 0.0, "bike_id": "7a33ee42642c714c9dbe80743651e509", "rental_uris": {"ios": "https://dc.lft.to/lastmile_qr_scan", "android": "https://dc.lft.to/lastmile_qr_scan"}}, {"name": "a233be72fbd3a95f40ba7bf089e74202", "type": "electric_scooter", "lat": 38.9201855, "is_reserved": 0, "lon": -77.0440475, "fusion_lon": 0.0, "is_disabled": 0, "fusion_lat": 0.0, "bike_id": "a233be72fbd3a95f40ba7bf089e74202", "rental_uris": {"ios": "https://dc.lft.to/lastmile_qr_scan", "android": "https://dc.lft.to/lastmile_qr_scan"}}, {"name": "e7e580d10877c511d13ead9cb3d33b12", "type": "electric_scooter", "lat": 38.93454583333333, "is_reserved": 0, "lon": -77.07234216666667, "fusion_lon": 0.0, "is_disabled": 0, "fusion_lat": 0.0, "bike_id": "e7e580d10877c511d13ead9cb3d33b12", "rental_uris": {"ios": "https://dc.lft.to/lastmile_qr_scan", "android": "https://dc.lft.to/lastmile_qr_scan"}}, {"name": "d2ceb6ffef670008e9bf00b34e23329e", "type": "electric_scooter", "lat": 38.91484716666667, "is_reserved": 0, "lon": -77.04081883333333, "fusion_lon": 0.0, "is_disabled": 0, "fusion_lat": 0.0, "bike_id": "d2ceb6ffef670008e9bf00b34e23329e", "rental_uris": {"ios": "https://dc.lft.to/lastmile_qr_scan", "android": "https://dc.lft.to/lastmile_qr_scan"}}, {"name": "398a15edee6aec3ed5bbe06b30099d16", "type": "electric_scooter", "lat": 38.9071675, "is_reserved": 0, "lon": -77.02504666666667, "fusion_lon": 0.0, "is_disabled": 0, "fusion_lat": 0.0, "bike_id": "398a15edee6aec3ed5bbe06b30099d16", "rental_uris": {"ios": "https://dc.lft.to/lastmile_qr_scan", "android": "https://dc.lft.to/lastmile_qr_scan"}}, {"name": "fd0cf1a490c16e998c4d3f8cfabd3e95", "type": "electric_scooter", "lat": 38.90526466666667, "is_reserved": 0, "lon": -77.06631616666667, "fusion_lon": 0.0, "is_disabled": 0, "fusion_lat": 0.0, "bike_id": "fd0cf1a490c16e998c4d3f8cfabd3e95", "rental_uris": {"ios": "https://dc.lft.to/lastmile_qr_scan", "android": "https://dc.lft.to/lastmile_qr_scan"}}, {"name": "9d6643aa889ced34aa39552591a9cd0e", "type": "electric_scooter", "lat": 38.8988405, "is_reserved": 0, "lon": -76.931769, "fusion_lon": 0.0, "is_disabled": 0, "fusion_lat": 0.0, "bike_id": "9d6643aa889ced34aa39552591a9cd0e", "rental_uris": {"ios": "https://dc.lft.to/lastmile_qr_scan", "android": "https://dc.lft.to/lastmile_qr_scan"}}, {"name": "01111697823d4e10d4191cff822b9094", "type": "electric_scooter", "lat": 38.911615, "is_reserved": 0, "lon": -77.01619683333334, "fusion_lon": 0.0, "is_disabled": 0, "fusion_lat": 0.0, "bike_id": "01111697823d4e10d4191cff822b9094", "rental_uris": {"ios": "https://dc.lft.to/lastmile_qr_scan", "android": "https://dc.lft.to/lastmile_qr_scan"}}, {"name": "5e9d248e74108ca827bc56a829324073", "type": "electric_scooter", "lat": 38.905354833333334, "is_reserved": 0, "lon": -77.05146733333333, "fusion_lon": 0.0, "is_disabled": 0, "fusion_lat": 0.0, "bike_id": "5e9d248e74108ca827bc56a829324073", "rental_uris": {"ios": "https://dc.lft.to/lastmile_qr_scan", "android": "https://dc.lft.to/lastmile_qr_scan"}}, {"name": "b857cdfe823b47f70649fa0658c0721f", "type": "electric_bike", "lat": 38.87481983333333, "is_reserved": 0, "lon": -76.96532633333334, "fusion_lon": 0.0, "is_disabled": 0, "fusion_lat": 0.0, "bike_id": "b857cdfe823b47f70649fa0658c0721f", "rental_uris": {"ios": "https://dc.lft.to/lastmile_qr_scan", "android": "https://dc.lft.to/lastmile_qr_scan"}}, {"name": "02cd9ca6268323bff56d823186eee45a", "type": "electric_scooter", "lat": 38.919663666666665, "is_reserved": 0, "lon": -77.01437066666666, "fusion_lon": 0.0, "is_disabled": 0, "fusion_lat": 0.0, "bike_id": "02cd9ca6268323bff56d823186eee45a", "rental_uris": {"ios": "https://dc.lft.to/lastmile_qr_scan", "android": "https://dc.lft.to/lastmile_qr_scan"}}, {"name": "2e6af4abfacf72c0a76f1484c0b315ab", "type": "electric_scooter", "lat": 38.90950016666667, "is_reserved": 0, "lon": -77.043208, "fusion_lon": 0.0, "is_disabled": 0, "fusion_lat": 0.0, "bike_id": "2e6af4abfacf72c0a76f1484c0b315ab", "rental_uris": {"ios": "https://dc.lft.to/lastmile_qr_scan", "android": "https://dc.lft.to/lastmile_qr_scan"}}, {"name": "9f5235d8da6eae5a146d3d6621488ffd", "type": "electric_scooter", "lat": 38.92544516666667, "is_reserved": 0, "lon": -77.03537983333334, "fusion_lon": 0.0, "is_disabled": 0, "fusion_lat": 0.0, "bike_id": "9f5235d8da6eae5a146d3d6621488ffd", "rental_uris": {"ios": "https://dc.lft.to/lastmile_qr_scan", "android": "https://dc.lft.to/lastmile_qr_scan"}}, {"name": "66d4cee0e4c9e5efcd642886f8a454a0", "type": "electric_scooter", "lat": 38.91206416666667, "is_reserved": 0, "lon": -77.0065665, "fusion_lon": 0.0, "is_disabled": 0, "fusion_lat": 0.0, "bike_id": "66d4cee0e4c9e5efcd642886f8a454a0", "rental_uris": {"ios": "https://dc.lft.to/lastmile_qr_scan", "android": "https://dc.lft.to/lastmile_qr_scan"}}, {"name": "f4177b22d32c9d6be4fa1a8b296366f7", "type": "electric_scooter", "lat": 38.921684666666664, "is_reserved": 0, "lon": -77.026795, "fusion_lon": 0.0, "is_disabled": 0, "fusion_lat": 0.0, "bike_id": "f4177b22d32c9d6be4fa1a8b296366f7", "rental_uris": {"ios": "https://dc.lft.to/lastmile_qr_scan", "android": "https://dc.lft.to/lastmile_qr_scan"}}, {"name": "ebab25b04b2fb398ef24937e9a9fba2e", "type": "electric_bike", "lat": 38.93701683333333, "is_reserved": 0, "lon": -77.0211575, "fusion_lon": 0.0, "is_disabled": 0, "fusion_lat": 0.0, "bike_id": "ebab25b04b2fb398ef24937e9a9fba2e", "rental_uris": {"ios": "https://dc.lft.to/lastmile_qr_scan", "android": "https://dc.lft.to/lastmile_qr_scan"}}, {"name": "763658f4f09704bb88133e0ba7632d2f", "type": "electric_scooter", "lat": 38.91552733333333, "is_reserved": 0, "lon": -77.031326, "fusion_lon": 0.0, "is_disabled": 0, "fusion_lat": 0.0, "bike_id": "763658f4f09704bb88133e0ba7632d2f", "rental_uris": {"ios": "https://dc.lft.to/lastmile_qr_scan", "android": "https://dc.lft.to/lastmile_qr_scan"}}, {"name": "c634b26e35428b06184886672e78ff0d", "type": "electric_scooter", "lat": 38.882071333333336, "is_reserved": 0, "lon": -77.01448383333333, "fusion_lon": 0.0, "is_disabled": 0, "fusion_lat": 0.0, "bike_id": "c634b26e35428b06184886672e78ff0d", "rental_uris": {"ios": "https://dc.lft.to/lastmile_qr_scan", "android": "https://dc.lft.to/lastmile_qr_scan"}}, {"name": "cb72c0c1d48a6577d7bb4d2b75b4fa66", "type": "electric_scooter", "lat": 38.9040255, "is_reserved": 0, "lon": -77.04342683333333, "fusion_lon": 0.0, "is_disabled": 0, "fusion_lat": 0.0, "bike_id": "cb72c0c1d48a6577d7bb4d2b75b4fa66", "rental_uris": {"ios": "https://dc.lft.to/lastmile_qr_scan", "android": "https://dc.lft.to/lastmile_qr_scan"}}, {"name": "7ee5b3122e35084a3ce34be46bd1f0e2", "type": "electric_scooter", "lat": 38.9424775, "is_reserved": 0, "lon": -77.0217735, "fusion_lon": 0.0, "is_disabled": 0, "fusion_lat": 0.0, "bike_id": "7ee5b3122e35084a3ce34be46bd1f0e2", "rental_uris": {"ios": "https://dc.lft.to/lastmile_qr_scan", "android": "https://dc.lft.to/lastmile_qr_scan"}}, {"name": "4e7b8ff0c5f4c85ad48ebc0af24dfbbc", "type": "electric_scooter", "lat": 38.91488833333333, "is_reserved": 0, "lon": -77.02181016666667, "fusion_lon": 0.0, "is_disabled": 0, "fusion_lat": 0.0, "bike_id": "4e7b8ff0c5f4c85ad48ebc0af24dfbbc", "rental_uris": {"ios": "https://dc.lft.to/lastmile_qr_scan", "android": "https://dc.lft.to/lastmile_qr_scan"}}, {"name": "1eeca8f952d7ad21d3a086d1b25cecfb", "type": "electric_scooter", "lat": 38.90724566666667, "is_reserved": 0, "lon": -76.98603016666667, "fusion_lon": 0.0, "is_disabled": 0, "fusion_lat": 0.0, "bike_id": "1eeca8f952d7ad21d3a086d1b25cecfb", "rental_uris": {"ios": "https://dc.lft.to/lastmile_qr_scan", "android": "https://dc.lft.to/lastmile_qr_scan"}}, {"name": "0c3c772824358e1d57cdfcabf6fd1d9c", "type": "electric_scooter", "lat": 38.91347833333333, "is_reserved": 0, "lon": -77.02082483333334, "fusion_lon": 0.0, "is_disabled": 0, "fusion_lat": 0.0, "bike_id": "0c3c772824358e1d57cdfcabf6fd1d9c", "rental_uris": {"ios": "https://dc.lft.to/lastmile_qr_scan", "android": "https://dc.lft.to/lastmile_qr_scan"}}, {"name": "50391c07d41b911a28d35afc23a9f7d0", "type": "electric_scooter", "lat": 38.93197966666666, "is_reserved": 0, "lon": -77.0385165, "fusion_lon": 0.0, "is_disabled": 0, "fusion_lat": 0.0, "bike_id": "50391c07d41b911a28d35afc23a9f7d0", "rental_uris": {"ios": "https://dc.lft.to/lastmile_qr_scan", "android": "https://dc.lft.to/lastmile_qr_scan"}}, {"name": "276193f9711f9696c7e2f78bdf6f0daa", "type": "electric_scooter", "lat": 38.940155833333336, "is_reserved": 0, "lon": -77.07169783333333, "fusion_lon": 0.0, "is_disabled": 0, "fusion_lat": 0.0, "bike_id": "276193f9711f9696c7e2f78bdf6f0daa", "rental_uris": {"ios": "https://dc.lft.to/lastmile_qr_scan", "android": "https://dc.lft.to/lastmile_qr_scan"}}, {"name": "7e49def2af34db12342ff1957c552088", "type": "electric_bike", "lat": 38.85059716666667, "is_reserved": 0, "lon": -76.973334, "fusion_lon": 0.0, "is_disabled": 0, "fusion_lat": 0.0, "bike_id": "7e49def2af34db12342ff1957c552088", "rental_uris": {"ios": "https://dc.lft.to/lastmile_qr_scan", "android": "https://dc.lft.to/lastmile_qr_scan"}}, {"name": "63049af4074f0d5706d93a2af77a72de", "type": "electric_scooter", "lat": 38.91695633333333, "is_reserved": 0, "lon": -77.00814633333333, "fusion_lon": 0.0, "is_disabled": 0, "fusion_lat": 0.0, "bike_id": "63049af4074f0d5706d93a2af77a72de", "rental_uris": {"ios": "https://dc.lft.to/lastmile_qr_scan", "android": "https://dc.lft.to/lastmile_qr_scan"}}, {"name": "289128230a81b4495f907687d77e6404", "type": "electric_scooter", "lat": 38.9033125, "is_reserved": 0, "lon": -77.01889416666667, "fusion_lon": 0.0, "is_disabled": 0, "fusion_lat": 0.0, "bike_id": "289128230a81b4495f907687d77e6404", "rental_uris": {"ios": "https://dc.lft.to/lastmile_qr_scan", "android": "https://dc.lft.to/lastmile_qr_scan"}}, {"name": "1e8f661b344c88d92162ebf8c5aa623b", "type": "electric_scooter", "lat": 38.89476483333333, "is_reserved": 0, "lon": -76.98594166666666, "fusion_lon": 0.0, "is_disabled": 0, "fusion_lat": 0.0, "bike_id": "1e8f661b344c88d92162ebf8c5aa623b", "rental_uris": {"ios": "https://dc.lft.to/lastmile_qr_scan", "android": "https://dc.lft.to/lastmile_qr_scan"}}, {"name": "572a2679c5dd52e214b9d517eb4db979", "type": "electric_scooter", "lat": 38.904098, "is_reserved": 0, "lon": -77.03980683333333, "fusion_lon": 0.0, "is_disabled": 0, "fusion_lat": 0.0, "bike_id": "572a2679c5dd52e214b9d517eb4db979", "rental_uris": {"ios": "https://dc.lft.to/lastmile_qr_scan", "android": "https://dc.lft.to/lastmile_qr_scan"}}, {"name": "c91feb85993c6e36489b99e497c8d427", "type": "electric_scooter", "lat": 38.89623433333333, "is_reserved": 0, "lon": -77.0279505, "fusion_lon": 0.0, "is_disabled": 0, "fusion_lat": 0.0, "bike_id": "c91feb85993c6e36489b99e497c8d427", "rental_uris": {"ios": "https://dc.lft.to/lastmile_qr_scan", "android": "https://dc.lft.to/lastmile_qr_scan"}}, {"name": "c3c2c9bab6af65edc60d9d850c77df2e", "type": "electric_scooter", "lat": 38.903321, "is_reserved": 0, "lon": -77.0366305, "fusion_lon": 0.0, "is_disabled": 0, "fusion_lat": 0.0, "bike_id": "c3c2c9bab6af65edc60d9d850c77df2e", "rental_uris": {"ios": "https://dc.lft.to/lastmile_qr_scan", "android": "https://dc.lft.to/lastmile_qr_scan"}}, {"name": "6d41e0f0ec5c19e185b942fb442f8d21", "type": "electric_scooter", "lat": 38.94986, "is_reserved": 0, "lon": -77.06705, "fusion_lon": 0.0, "is_disabled": 0, "fusion_lat": 0.0, "bike_id": "6d41e0f0ec5c19e185b942fb442f8d21", "rental_uris": {"ios": "https://dc.lft.to/lastmile_qr_scan", "android": "https://dc.lft.to/lastmile_qr_scan"}}, {"name": "314e187fbbe1e087f84dd3ae86718023", "type": "electric_bike", "lat": 38.81054316666667, "is_reserved": 0, "lon": -77.08513616666667, "fusion_lon": 0.0, "is_disabled": 0, "fusion_lat": 0.0, "bike_id": "314e187fbbe1e087f84dd3ae86718023", "rental_uris": {"ios": "https://dc.lft.to/lastmile_qr_scan", "android": "https://dc.lft.to/lastmile_qr_scan"}}, {"name": "b2942dbe0421d1c9a1901c2d2cd72312", "type": "electric_scooter", "lat": 38.89532783333333, "is_reserved": 0, "lon": -76.949322, "fusion_lon": 0.0, "is_disabled": 0, "fusion_lat": 0.0, "bike_id": "b2942dbe0421d1c9a1901c2d2cd72312", "rental_uris": {"ios": "https://dc.lft.to/lastmile_qr_scan", "android": "https://dc.lft.to/lastmile_qr_scan"}}, {"name": "ab836ce5195a9413facb4df873a2e15d", "type": "electric_bike", "lat": 38.854184333333336, "is_reserved": 0, "lon": -76.90957083333333, "fusion_lon": 0.0, "is_disabled": 0, "fusion_lat": 0.0, "bike_id": "ab836ce5195a9413facb4df873a2e15d", "rental_uris": {"ios": "https://dc.lft.to/lastmile_qr_scan", "android": "https://dc.lft.to/lastmile_qr_scan"}}, {"name": "dd312d6205611cab7772120130af6f1d", "type": "electric_scooter", "lat": 38.89225166666667, "is_reserved": 0, "lon": -77.04540333333334, "fusion_lon": 0.0, "is_disabled": 0, "fusion_lat": 0.0, "bike_id": "dd312d6205611cab7772120130af6f1d", "rental_uris": {"ios": "https://dc.lft.to/lastmile_qr_scan", "android": "https://dc.lft.to/lastmile_qr_scan"}}, {"name": "3569c615a64ba384a6d13d53f93f34b5", "type": "electric_bike", "lat": 39.02683733333333, "is_reserved": 0, "lon": -77.12602883333334, "fusion_lon": 0.0, "is_disabled": 0, "fusion_lat": 0.0, "bike_id": "3569c615a64ba384a6d13d53f93f34b5", "rental_uris": {"ios": "https://dc.lft.to/lastmile_qr_scan", "android": "https://dc.lft.to/lastmile_qr_scan"}}, {"name": "7dc04cacc2d494b60026795cd13655c4", "type": "electric_scooter", "lat": 38.92905716666667, "is_reserved": 0, "lon": -77.021659, "fusion_lon": 0.0, "is_disabled": 0, "fusion_lat": 0.0, "bike_id": "7dc04cacc2d494b60026795cd13655c4", "rental_uris": {"ios": "https://dc.lft.to/lastmile_qr_scan", "android": "https://dc.lft.to/lastmile_qr_scan"}}, {"name": "b964ef872e25ce7ef2389aa55131afe0", "type": "electric_scooter", "lat": 38.93493733333333, "is_reserved": 0, "lon": -77.02835983333334, "fusion_lon": 0.0, "is_disabled": 0, "fusion_lat": 0.0, "bike_id": "b964ef872e25ce7ef2389aa55131afe0", "rental_uris": {"ios": "https://dc.lft.to/lastmile_qr_scan", "android": "https://dc.lft.to/lastmile_qr_scan"}}, {"name": "23e13aee91331f76687df75e070f3d10", "type": "electric_scooter", "lat": 38.935395666666665, "is_reserved": 0, "lon": -77.03420316666667, "fusion_lon": 0.0, "is_disabled": 0, "fusion_lat": 0.0, "bike_id": "23e13aee91331f76687df75e070f3d10", "rental_uris": {"ios": "https://dc.lft.to/lastmile_qr_scan", "android": "https://dc.lft.to/lastmile_qr_scan"}}, {"name": "4f35f88814c122f02ccf4ca8d0823af5", "type": "electric_scooter", "lat": 38.926721666666666, "is_reserved": 0, "lon": -76.99539133333333, "fusion_lon": 0.0, "is_disabled": 0, "fusion_lat": 0.0, "bike_id": "4f35f88814c122f02ccf4ca8d0823af5", "rental_uris": {"ios": "https://dc.lft.to/lastmile_qr_scan", "android": "https://dc.lft.to/lastmile_qr_scan"}}, {"name": "10d748719a9947664a524dd1c8a5cb30", "type": "electric_scooter", "lat": 38.916715833333335, "is_reserved": 0, "lon": -77.02399866666667, "fusion_lon": 0.0, "is_disabled": 0, "fusion_lat": 0.0, "bike_id": "10d748719a9947664a524dd1c8a5cb30", "rental_uris": {"ios": "https://dc.lft.to/lastmile_qr_scan", "android": "https://dc.lft.to/lastmile_qr_scan"}}, {"name": "b75cfab6095ef1f003f7e04bd7d7f8ad", "type": "electric_scooter", "lat": 38.844243666666664, "is_reserved": 0, "lon": -76.99777816666666, "fusion_lon": 0.0, "is_disabled": 0, "fusion_lat": 0.0, "bike_id": "b75cfab6095ef1f003f7e04bd7d7f8ad", "rental_uris": {"ios": "https://dc.lft.to/lastmile_qr_scan", "android": "https://dc.lft.to/lastmile_qr_scan"}}, {"name": "c3892ae9f71792a67090cf97132a01f6", "type": "electric_scooter", "lat": 38.89986483333333, "is_reserved": 0, "lon": -76.983813, "fusion_lon": 0.0, "is_disabled": 0, "fusion_lat": 0.0, "bike_id": "c3892ae9f71792a67090cf97132a01f6", "rental_uris": {"ios": "https://dc.lft.to/lastmile_qr_scan", "android": "https://dc.lft.to/lastmile_qr_scan"}}, {"name": "e8857396c950f4062d3b5833f0d486fe", "type": "electric_scooter", "lat": 38.91195233333333, "is_reserved": 0, "lon": -77.06101166666667, "fusion_lon": 0.0, "is_disabled": 0, "fusion_lat": 0.0, "bike_id": "e8857396c950f4062d3b5833f0d486fe", "rental_uris": {"ios": "https://dc.lft.to/lastmile_qr_scan", "android": "https://dc.lft.to/lastmile_qr_scan"}}, {"name": "e57e3d0906340f850fcd1e04fee0e72a", "type": "electric_scooter", "lat": 38.878354, "is_reserved": 0, "lon": -77.00048716666667, "fusion_lon": 0.0, "is_disabled": 0, "fusion_lat": 0.0, "bike_id": "e57e3d0906340f850fcd1e04fee0e72a", "rental_uris": {"ios": "https://dc.lft.to/lastmile_qr_scan", "android": "https://dc.lft.to/lastmile_qr_scan"}}, {"name": "22a268f220afd74bdf089c6fbb13eec5", "type": "electric_scooter", "lat": 38.899183, "is_reserved": 0, "lon": -77.0328675, "fusion_lon": 0.0, "is_disabled": 0, "fusion_lat": 0.0, "bike_id": "22a268f220afd74bdf089c6fbb13eec5", "rental_uris": {"ios": "https://dc.lft.to/lastmile_qr_scan", "android": "https://dc.lft.to/lastmile_qr_scan"}}, {"name": "b2a760ce17a32b64ac133958cea48fe9", "type": "electric_scooter", "lat": 38.9163345, "is_reserved": 0, "lon": -77.032122, "fusion_lon": 0.0, "is_disabled": 0, "fusion_lat": 0.0, "bike_id": "b2a760ce17a32b64ac133958cea48fe9", "rental_uris": {"ios": "https://dc.lft.to/lastmile_qr_scan", "android": "https://dc.lft.to/lastmile_qr_scan"}}, {"name": "91e55f962476c601a265d89072a0a54d", "type": "electric_scooter", "lat": 38.89730333333333, "is_reserved": 0, "lon": -77.05575433333334, "fusion_lon": 0.0, "is_disabled": 0, "fusion_lat": 0.0, "bike_id": "91e55f962476c601a265d89072a0a54d", "rental_uris": {"ios": "https://dc.lft.to/lastmile_qr_scan", "android": "https://dc.lft.to/lastmile_qr_scan"}}, {"name": "7673969a93712982e2394eef19ca0e42", "type": "electric_scooter", "lat": 38.90795033333333, "is_reserved": 0, "lon": -76.99698583333333, "fusion_lon": 0.0, "is_disabled": 0, "fusion_lat": 0.0, "bike_id": "7673969a93712982e2394eef19ca0e42", "rental_uris": {"ios": "https://dc.lft.to/lastmile_qr_scan", "android": "https://dc.lft.to/lastmile_qr_scan"}}, {"name": "66e3147396bf3a7a0b3f278af4ac7783", "type": "electric_scooter", "lat": 38.896833, "is_reserved": 0, "lon": -76.99624983333334, "fusion_lon": 0.0, "is_disabled": 0, "fusion_lat": 0.0, "bike_id": "66e3147396bf3a7a0b3f278af4ac7783", "rental_uris": {"ios": "https://dc.lft.to/lastmile_qr_scan", "android": "https://dc.lft.to/lastmile_qr_scan"}}, {"name": "f87fb9700c3a17baa8f54f6bb7b0f9ec", "type": "electric_scooter", "lat": 38.934439833333336, "is_reserved": 0, "lon": -77.0724355, "fusion_lon": 0.0, "is_disabled": 0, "fusion_lat": 0.0, "bike_id": "f87fb9700c3a17baa8f54f6bb7b0f9ec", "rental_uris": {"ios": "https://dc.lft.to/lastmile_qr_scan", "android": "https://dc.lft.to/lastmile_qr_scan"}}, {"name": "c3ae6b47e5d895b06b5957869d969522", "type": "electric_scooter", "lat": 38.9161675, "is_reserved": 0, "lon": -77.02597383333334, "fusion_lon": 0.0, "is_disabled": 0, "fusion_lat": 0.0, "bike_id": "c3ae6b47e5d895b06b5957869d969522", "rental_uris": {"ios": "https://dc.lft.to/lastmile_qr_scan", "android": "https://dc.lft.to/lastmile_qr_scan"}}, {"name": "ff89d8a62d8e952c6eb0d50d4d52b465", "type": "electric_scooter", "lat": 38.89718283333333, "is_reserved": 0, "lon": -77.03249883333334, "fusion_lon": 0.0, "is_disabled": 0, "fusion_lat": 0.0, "bike_id": "ff89d8a62d8e952c6eb0d50d4d52b465", "rental_uris": {"ios": "https://dc.lft.to/lastmile_qr_scan", "android": "https://dc.lft.to/lastmile_qr_scan"}}, {"name": "ce3ee19d7724c89772d1bfabf84b9b2f", "type": "electric_bike", "lat": 38.95912533333333, "is_reserved": 0, "lon": -77.0015425, "fusion_lon": 0.0, "is_disabled": 0, "fusion_lat": 0.0, "bike_id": "ce3ee19d7724c89772d1bfabf84b9b2f", "rental_uris": {"ios": "https://dc.lft.to/lastmile_qr_scan", "android": "https://dc.lft.to/lastmile_qr_scan"}}, {"name": "b2f8da9d1f760c8abe912c75bcded910", "type": "electric_scooter", "lat": 38.899523333333335, "is_reserved": 0, "lon": -77.03120883333334, "fusion_lon": 0.0, "is_disabled": 0, "fusion_lat": 0.0, "bike_id": "b2f8da9d1f760c8abe912c75bcded910", "rental_uris": {"ios": "https://dc.lft.to/lastmile_qr_scan", "android": "https://dc.lft.to/lastmile_qr_scan"}}, {"name": "e5cecdf8f3e74ecc223a433800aa0960", "type": "electric_scooter", "lat": 38.932201666666664, "is_reserved": 0, "lon": -77.028448, "fusion_lon": 0.0, "is_disabled": 0, "fusion_lat": 0.0, "bike_id": "e5cecdf8f3e74ecc223a433800aa0960", "rental_uris": {"ios": "https://dc.lft.to/lastmile_qr_scan", "android": "https://dc.lft.to/lastmile_qr_scan"}}, {"name": "0eeb7448476530bc1345a8e905f0195e", "type": "electric_scooter", "lat": 38.91712166666667, "is_reserved": 0, "lon": -77.02889533333334, "fusion_lon": 0.0, "is_disabled": 0, "fusion_lat": 0.0, "bike_id": "0eeb7448476530bc1345a8e905f0195e", "rental_uris": {"ios": "https://dc.lft.to/lastmile_qr_scan", "android": "https://dc.lft.to/lastmile_qr_scan"}}, {"name": "321ef1d6a84a4f0ca05657cbca8d5416", "type": "electric_scooter", "lat": 38.91462666666666, "is_reserved": 0, "lon": -77.01987516666667, "fusion_lon": 0.0, "is_disabled": 0, "fusion_lat": 0.0, "bike_id": "321ef1d6a84a4f0ca05657cbca8d5416", "rental_uris": {"ios": "https://dc.lft.to/lastmile_qr_scan", "android": "https://dc.lft.to/lastmile_qr_scan"}}, {"name": "aa1c0e24a96c783d02c318b1f7f4dae6", "type": "electric_scooter", "lat": 38.8719735, "is_reserved": 0, "lon": -77.00578916666667, "fusion_lon": 0.0, "is_disabled": 0, "fusion_lat": 0.0, "bike_id": "aa1c0e24a96c783d02c318b1f7f4dae6", "rental_uris": {"ios": "https://dc.lft.to/lastmile_qr_scan", "android": "https://dc.lft.to/lastmile_qr_scan"}}, {"name": "df4858271a4b2d586be2e65a368ee974", "type": "electric_scooter", "lat": 38.918748666666666, "is_reserved": 0, "lon": -77.04356433333334, "fusion_lon": 0.0, "is_disabled": 0, "fusion_lat": 0.0, "bike_id": "df4858271a4b2d586be2e65a368ee974", "rental_uris": {"ios": "https://dc.lft.to/lastmile_qr_scan", "android": "https://dc.lft.to/lastmile_qr_scan"}}, {"name": "6670e9a491798a3f1c66591e65510fb4", "type": "electric_scooter", "lat": 38.92884033333333, "is_reserved": 0, "lon": -77.03762133333333, "fusion_lon": 0.0, "is_disabled": 0, "fusion_lat": 0.0, "bike_id": "6670e9a491798a3f1c66591e65510fb4", "rental_uris": {"ios": "https://dc.lft.to/lastmile_qr_scan", "android": "https://dc.lft.to/lastmile_qr_scan"}}, {"name": "2a3307e82988dfb7d1c38701f626795d", "type": "electric_scooter", "lat": 38.86240766666667, "is_reserved": 0, "lon": -76.99493066666666, "fusion_lon": 0.0, "is_disabled": 0, "fusion_lat": 0.0, "bike_id": "2a3307e82988dfb7d1c38701f626795d", "rental_uris": {"ios": "https://dc.lft.to/lastmile_qr_scan", "android": "https://dc.lft.to/lastmile_qr_scan"}}, {"name": "342e5689f4c4e54bf24762db5211134a", "type": "electric_scooter", "lat": 38.924907, "is_reserved": 0, "lon": -77.02279033333333, "fusion_lon": 0.0, "is_disabled": 0, "fusion_lat": 0.0, "bike_id": "342e5689f4c4e54bf24762db5211134a", "rental_uris": {"ios": "https://dc.lft.to/lastmile_qr_scan", "android": "https://dc.lft.to/lastmile_qr_scan"}}, {"name": "84887fe280a6ea3a13471ebaca39cd3a", "type": "electric_scooter", "lat": 38.896276, "is_reserved": 0, "lon": -77.050281, "fusion_lon": 0.0, "is_disabled": 0, "fusion_lat": 0.0, "bike_id": "84887fe280a6ea3a13471ebaca39cd3a", "rental_uris": {"ios": "https://dc.lft.to/lastmile_qr_scan", "android": "https://dc.lft.to/lastmile_qr_scan"}}, {"name": "745666b28dcc83fbe315888bbda5683a", "type": "electric_scooter", "lat": 38.914390166666664, "is_reserved": 0, "lon": -77.02207566666667, "fusion_lon": 0.0, "is_disabled": 0, "fusion_lat": 0.0, "bike_id": "745666b28dcc83fbe315888bbda5683a", "rental_uris": {"ios": "https://dc.lft.to/lastmile_qr_scan", "android": "https://dc.lft.to/lastmile_qr_scan"}}, {"name": "e5012da4e328db5d226e5dcb82c18a21", "type": "electric_scooter", "lat": 38.96115733333333, "is_reserved": 0, "lon": -77.0280845, "fusion_lon": 0.0, "is_disabled": 0, "fusion_lat": 0.0, "bike_id": "e5012da4e328db5d226e5dcb82c18a21", "rental_uris": {"ios": "https://dc.lft.to/lastmile_qr_scan", "android": "https://dc.lft.to/lastmile_qr_scan"}}, {"name": "597d198656d6fdae0cad0877689b593c", "type": "electric_scooter", "lat": 38.92065233333334, "is_reserved": 0, "lon": -77.029165, "fusion_lon": 0.0, "is_disabled": 0, "fusion_lat": 0.0, "bike_id": "597d198656d6fdae0cad0877689b593c", "rental_uris": {"ios": "https://dc.lft.to/lastmile_qr_scan", "android": "https://dc.lft.to/lastmile_qr_scan"}}, {"name": "2a739f17d1194f6aa6861248a3a01ae7", "type": "electric_scooter", "lat": 38.931709166666664, "is_reserved": 0, "lon": -77.03637183333333, "fusion_lon": 0.0, "is_disabled": 0, "fusion_lat": 0.0, "bike_id": "2a739f17d1194f6aa6861248a3a01ae7", "rental_uris": {"ios": "https://dc.lft.to/lastmile_qr_scan", "android": "https://dc.lft.to/lastmile_qr_scan"}}, {"name": "b06c47b39b57b8f505677babfccbae88", "type": "electric_scooter", "lat": 38.88336733333333, "is_reserved": 0, "lon": -77.0175175, "fusion_lon": 0.0, "is_disabled": 0, "fusion_lat": 0.0, "bike_id": "b06c47b39b57b8f505677babfccbae88", "rental_uris": {"ios": "https://dc.lft.to/lastmile_qr_scan", "android": "https://dc.lft.to/lastmile_qr_scan"}}, {"name": "84cbd20bc641728f7287a84ab7b15e69", "type": "electric_scooter", "lat": 38.921526, "is_reserved": 0, "lon": -77.035115, "fusion_lon": 0.0, "is_disabled": 0, "fusion_lat": 0.0, "bike_id": "84cbd20bc641728f7287a84ab7b15e69", "rental_uris": {"ios": "https://dc.lft.to/lastmile_qr_scan", "android": "https://dc.lft.to/lastmile_qr_scan"}}, {"name": "af8c1ef271676311d75a36edb20adce7", "type": "electric_scooter", "lat": 38.907688, "is_reserved": 0, "lon": -77.001319, "fusion_lon": 0.0, "is_disabled": 0, "fusion_lat": 0.0, "bike_id": "af8c1ef271676311d75a36edb20adce7", "rental_uris": {"ios": "https://dc.lft.to/lastmile_qr_scan", "android": "https://dc.lft.to/lastmile_qr_scan"}}, {"name": "afe425aaa468be8fdf2571131883ea94", "type": "electric_scooter", "lat": 38.92137966666667, "is_reserved": 0, "lon": -77.0435975, "fusion_lon": 0.0, "is_disabled": 0, "fusion_lat": 0.0, "bike_id": "afe425aaa468be8fdf2571131883ea94", "rental_uris": {"ios": "https://dc.lft.to/lastmile_qr_scan", "android": "https://dc.lft.to/lastmile_qr_scan"}}, {"name": "a8d14c3f6f5c8c40f35df68bd9d452ee", "type": "electric_scooter", "lat": 38.90555666666667, "is_reserved": 0, "lon": -77.04744416666666, "fusion_lon": 0.0, "is_disabled": 0, "fusion_lat": 0.0, "bike_id": "a8d14c3f6f5c8c40f35df68bd9d452ee", "rental_uris": {"ios": "https://dc.lft.to/lastmile_qr_scan", "android": "https://dc.lft.to/lastmile_qr_scan"}}, {"name": "b117c23a9dca7cf13a27f1cc9a36f9e9", "type": "electric_scooter", "lat": 38.887459666666665, "is_reserved": 0, "lon": -77.02571516666667, "fusion_lon": 0.0, "is_disabled": 0, "fusion_lat": 0.0, "bike_id": "b117c23a9dca7cf13a27f1cc9a36f9e9", "rental_uris": {"ios": "https://dc.lft.to/lastmile_qr_scan", "android": "https://dc.lft.to/lastmile_qr_scan"}}, {"name": "226125a1ff9c9ce3e13eb3941552151e", "type": "electric_scooter", "lat": 38.944415, "is_reserved": 0, "lon": -77.063463, "fusion_lon": 0.0, "is_disabled": 0, "fusion_lat": 0.0, "bike_id": "226125a1ff9c9ce3e13eb3941552151e", "rental_uris": {"ios": "https://dc.lft.to/lastmile_qr_scan", "android": "https://dc.lft.to/lastmile_qr_scan"}}, {"name": "097ad4f2379e91ead6075abeb0f0e0d6", "type": "electric_bike", "lat": 38.854925333333334, "is_reserved": 0, "lon": -77.11522683333334, "fusion_lon": 0.0, "is_disabled": 0, "fusion_lat": 0.0, "bike_id": "097ad4f2379e91ead6075abeb0f0e0d6", "rental_uris": {"ios": "https://dc.lft.to/lastmile_qr_scan", "android": "https://dc.lft.to/lastmile_qr_scan"}}, {"name": "ea87a77a2b15980359b2b8e8c753d7c4", "type": "electric_scooter", "lat": 38.899073666666666, "is_reserved": 0, "lon": -76.94557483333334, "fusion_lon": 0.0, "is_disabled": 0, "fusion_lat": 0.0, "bike_id": "ea87a77a2b15980359b2b8e8c753d7c4", "rental_uris": {"ios": "https://dc.lft.to/lastmile_qr_scan", "android": "https://dc.lft.to/lastmile_qr_scan"}}, {"name": "4327a037d56b55fb1b2ca0a21f5a986f", "type": "electric_scooter", "lat": 38.9194275, "is_reserved": 0, "lon": -77.0134985, "fusion_lon": 0.0, "is_disabled": 0, "fusion_lat": 0.0, "bike_id": "4327a037d56b55fb1b2ca0a21f5a986f", "rental_uris": {"ios": "https://dc.lft.to/lastmile_qr_scan", "android": "https://dc.lft.to/lastmile_qr_scan"}}, {"name": "fa8fc807fadf8814d5216e6af4035fd9", "type": "electric_scooter", "lat": 38.91191533333333, "is_reserved": 0, "lon": -76.99614933333334, "fusion_lon": 0.0, "is_disabled": 0, "fusion_lat": 0.0, "bike_id": "fa8fc807fadf8814d5216e6af4035fd9", "rental_uris": {"ios": "https://dc.lft.to/lastmile_qr_scan", "android": "https://dc.lft.to/lastmile_qr_scan"}}, {"name": "9d48f4d0c8ea17b53c97483822473673", "type": "electric_scooter", "lat": 38.8922455, "is_reserved": 0, "lon": -77.042676, "fusion_lon": 0.0, "is_disabled": 0, "fusion_lat": 0.0, "bike_id": "9d48f4d0c8ea17b53c97483822473673", "rental_uris": {"ios": "https://dc.lft.to/lastmile_qr_scan", "android": "https://dc.lft.to/lastmile_qr_scan"}}, {"name": "91dcab7f61f9df5a34fc5cc42f15b5d5", "type": "electric_scooter", "lat": 38.89741583333333, "is_reserved": 0, "lon": -76.938453, "fusion_lon": 0.0, "is_disabled": 0, "fusion_lat": 0.0, "bike_id": "91dcab7f61f9df5a34fc5cc42f15b5d5", "rental_uris": {"ios": "https://dc.lft.to/lastmile_qr_scan", "android": "https://dc.lft.to/lastmile_qr_scan"}}, {"name": "f9c85b0a7be0a0f64d4c0233fb516f17", "type": "electric_scooter", "lat": 38.86522816666667, "is_reserved": 0, "lon": -76.990293, "fusion_lon": 0.0, "is_disabled": 0, "fusion_lat": 0.0, "bike_id": "f9c85b0a7be0a0f64d4c0233fb516f17", "rental_uris": {"ios": "https://dc.lft.to/lastmile_qr_scan", "android": "https://dc.lft.to/lastmile_qr_scan"}}, {"name": "931f20b57bbb738d3d72a3f27f3984fb", "type": "electric_scooter", "lat": 38.89463533333333, "is_reserved": 0, "lon": -77.01910766666667, "fusion_lon": 0.0, "is_disabled": 0, "fusion_lat": 0.0, "bike_id": "931f20b57bbb738d3d72a3f27f3984fb", "rental_uris": {"ios": "https://dc.lft.to/lastmile_qr_scan", "android": "https://dc.lft.to/lastmile_qr_scan"}}, {"name": "e756457b8ed806c11bfbe039b0e272f1", "type": "electric_scooter", "lat": 38.886888666666664, "is_reserved": 0, "lon": -76.95757966666666, "fusion_lon": 0.0, "is_disabled": 0, "fusion_lat": 0.0, "bike_id": "e756457b8ed806c11bfbe039b0e272f1", "rental_uris": {"ios": "https://dc.lft.to/lastmile_qr_scan", "android": "https://dc.lft.to/lastmile_qr_scan"}}, {"name": "f5710dc9f449df75fb866434463aa4f5", "type": "electric_scooter", "lat": 38.89482733333333, "is_reserved": 0, "lon": -76.99520383333333, "fusion_lon": 0.0, "is_disabled": 0, "fusion_lat": 0.0, "bike_id": "f5710dc9f449df75fb866434463aa4f5", "rental_uris": {"ios": "https://dc.lft.to/lastmile_qr_scan", "android": "https://dc.lft.to/lastmile_qr_scan"}}, {"name": "5d3642646403cf0575fc512c16ae4d27", "type": "electric_bike", "lat": 38.83828666666667, "is_reserved": 0, "lon": -76.99684433333333, "fusion_lon": 0.0, "is_disabled": 0, "fusion_lat": 0.0, "bike_id": "5d3642646403cf0575fc512c16ae4d27", "rental_uris": {"ios": "https://dc.lft.to/lastmile_qr_scan", "android": "https://dc.lft.to/lastmile_qr_scan"}}, {"name": "34d6a97076b3093ef68a95afe9aba902", "type": "electric_scooter", "lat": 38.89242483333334, "is_reserved": 0, "lon": -77.01535783333334, "fusion_lon": 0.0, "is_disabled": 0, "fusion_lat": 0.0, "bike_id": "34d6a97076b3093ef68a95afe9aba902", "rental_uris": {"ios": "https://dc.lft.to/lastmile_qr_scan", "android": "https://dc.lft.to/lastmile_qr_scan"}}, {"name": "458fca1c31548e510a14f67672479cf4", "type": "electric_scooter", "lat": 38.92357066666667, "is_reserved": 0, "lon": -77.05318183333333, "fusion_lon": 0.0, "is_disabled": 0, "fusion_lat": 0.0, "bike_id": "458fca1c31548e510a14f67672479cf4", "rental_uris": {"ios": "https://dc.lft.to/lastmile_qr_scan", "android": "https://dc.lft.to/lastmile_qr_scan"}}, {"name": "fe2cfa79b746f488dd782a6fa62e1379", "type": "electric_scooter", "lat": 38.911810833333334, "is_reserved": 0, "lon": -77.04454183333333, "fusion_lon": 0.0, "is_disabled": 0, "fusion_lat": 0.0, "bike_id": "fe2cfa79b746f488dd782a6fa62e1379", "rental_uris": {"ios": "https://dc.lft.to/lastmile_qr_scan", "android": "https://dc.lft.to/lastmile_qr_scan"}}, {"name": "c7376238c177e5f97d9a622742b394ac", "type": "electric_scooter", "lat": 38.932876666666665, "is_reserved": 0, "lon": -77.03981833333333, "fusion_lon": 0.0, "is_disabled": 0, "fusion_lat": 0.0, "bike_id": "c7376238c177e5f97d9a622742b394ac", "rental_uris": {"ios": "https://dc.lft.to/lastmile_qr_scan", "android": "https://dc.lft.to/lastmile_qr_scan"}}, {"name": "5ffc7e0280ffa82514a3a126f90fb376", "type": "electric_scooter", "lat": 38.9126445, "is_reserved": 0, "lon": -77.02951416666667, "fusion_lon": 0.0, "is_disabled": 0, "fusion_lat": 0.0, "bike_id": "5ffc7e0280ffa82514a3a126f90fb376", "rental_uris": {"ios": "https://dc.lft.to/lastmile_qr_scan", "android": "https://dc.lft.to/lastmile_qr_scan"}}, {"name": "a1a567f0a3788424546dc18d9e25e695", "type": "electric_scooter", "lat": 38.903605166666665, "is_reserved": 0, "lon": -77.01629716666666, "fusion_lon": 0.0, "is_disabled": 0, "fusion_lat": 0.0, "bike_id": "a1a567f0a3788424546dc18d9e25e695", "rental_uris": {"ios": "https://dc.lft.to/lastmile_qr_scan", "android": "https://dc.lft.to/lastmile_qr_scan"}}, {"name": "b7f727fa7d43ea3508c37a130dea0dd6", "type": "electric_scooter", "lat": 38.92309083333333, "is_reserved": 0, "lon": -77.02975183333334, "fusion_lon": 0.0, "is_disabled": 0, "fusion_lat": 0.0, "bike_id": "b7f727fa7d43ea3508c37a130dea0dd6", "rental_uris": {"ios": "https://dc.lft.to/lastmile_qr_scan", "android": "https://dc.lft.to/lastmile_qr_scan"}}, {"name": "6ec207627366998248a9107e3477f7ca", "type": "electric_scooter", "lat": 38.908956333333336, "is_reserved": 0, "lon": -77.0866635, "fusion_lon": 0.0, "is_disabled": 0, "fusion_lat": 0.0, "bike_id": "6ec207627366998248a9107e3477f7ca", "rental_uris": {"ios": "https://dc.lft.to/lastmile_qr_scan", "android": "https://dc.lft.to/lastmile_qr_scan"}}, {"name": "491a9a178daac911526bed9467d7f08f", "type": "electric_scooter", "lat": 38.89918466666666, "is_reserved": 0, "lon": -76.93376183333334, "fusion_lon": 0.0, "is_disabled": 0, "fusion_lat": 0.0, "bike_id": "491a9a178daac911526bed9467d7f08f", "rental_uris": {"ios": "https://dc.lft.to/lastmile_qr_scan", "android": "https://dc.lft.to/lastmile_qr_scan"}}, {"name": "670efdb3a93fe17a04e8ec608b6460e9", "type": "electric_bike", "lat": 38.87979416666667, "is_reserved": 0, "lon": -76.91599683333334, "fusion_lon": 0.0, "is_disabled": 0, "fusion_lat": 0.0, "bike_id": "670efdb3a93fe17a04e8ec608b6460e9", "rental_uris": {"ios": "https://dc.lft.to/lastmile_qr_scan", "android": "https://dc.lft.to/lastmile_qr_scan"}}, {"name": "2d5e4c02a9f3ffb2dfbe6a2ff4f42a35", "type": "electric_bike", "lat": 38.8244615, "is_reserved": 0, "lon": -77.070421, "fusion_lon": 0.0, "is_disabled": 0, "fusion_lat": 0.0, "bike_id": "2d5e4c02a9f3ffb2dfbe6a2ff4f42a35", "rental_uris": {"ios": "https://dc.lft.to/lastmile_qr_scan", "android": "https://dc.lft.to/lastmile_qr_scan"}}, {"name": "2d795380cd14d01b0f5a7b5758053b91", "type": "electric_scooter", "lat": 38.91722983333333, "is_reserved": 0, "lon": -77.02291516666666, "fusion_lon": 0.0, "is_disabled": 0, "fusion_lat": 0.0, "bike_id": "2d795380cd14d01b0f5a7b5758053b91", "rental_uris": {"ios": "https://dc.lft.to/lastmile_qr_scan", "android": "https://dc.lft.to/lastmile_qr_scan"}}, {"name": "aad269f628191ef2343210d78b3be687", "type": "electric_scooter", "lat": 38.8925285, "is_reserved": 0, "lon": -77.03182116666666, "fusion_lon": 0.0, "is_disabled": 0, "fusion_lat": 0.0, "bike_id": "aad269f628191ef2343210d78b3be687", "rental_uris": {"ios": "https://dc.lft.to/lastmile_qr_scan", "android": "https://dc.lft.to/lastmile_qr_scan"}}, {"name": "5b5012c35f0942e3ed3639aa494bd901", "type": "electric_scooter", "lat": 38.9204835, "is_reserved": 0, "lon": -77.03473283333334, "fusion_lon": 0.0, "is_disabled": 0, "fusion_lat": 0.0, "bike_id": "5b5012c35f0942e3ed3639aa494bd901", "rental_uris": {"ios": "https://dc.lft.to/lastmile_qr_scan", "android": "https://dc.lft.to/lastmile_qr_scan"}}, {"name": "ad6d5e792b16a95581bb73ce7993265c", "type": "electric_bike", "lat": 38.91854883333333, "is_reserved": 0, "lon": -76.96087133333333, "fusion_lon": 0.0, "is_disabled": 0, "fusion_lat": 0.0, "bike_id": "ad6d5e792b16a95581bb73ce7993265c", "rental_uris": {"ios": "https://dc.lft.to/lastmile_qr_scan", "android": "https://dc.lft.to/lastmile_qr_scan"}}, {"name": "6a23a1aa31fde0ca55e4f923d5eaeb11", "type": "electric_scooter", "lat": 38.922522, "is_reserved": 0, "lon": -77.041264, "fusion_lon": 0.0, "is_disabled": 0, "fusion_lat": 0.0, "bike_id": "6a23a1aa31fde0ca55e4f923d5eaeb11", "rental_uris": {"ios": "https://dc.lft.to/lastmile_qr_scan", "android": "https://dc.lft.to/lastmile_qr_scan"}}, {"name": "4d5aae27e1b995bc76ae51f173041baa", "type": "electric_scooter", "lat": 38.9001805, "is_reserved": 0, "lon": -76.99741166666666, "fusion_lon": 0.0, "is_disabled": 0, "fusion_lat": 0.0, "bike_id": "4d5aae27e1b995bc76ae51f173041baa", "rental_uris": {"ios": "https://dc.lft.to/lastmile_qr_scan", "android": "https://dc.lft.to/lastmile_qr_scan"}}, {"name": "dbd91486bfe2efd115adcfe9ad1c6fd8", "type": "electric_bike", "lat": 38.92209783333333, "is_reserved": 0, "lon": -76.98833083333334, "fusion_lon": 0.0, "is_disabled": 0, "fusion_lat": 0.0, "bike_id": "dbd91486bfe2efd115adcfe9ad1c6fd8", "rental_uris": {"ios": "https://dc.lft.to/lastmile_qr_scan", "android": "https://dc.lft.to/lastmile_qr_scan"}}, {"name": "5877d472e8f5d79e96acd63569fa16ad", "type": "electric_bike", "lat": 38.969151, "is_reserved": 0, "lon": -76.95659333333333, "fusion_lon": 0.0, "is_disabled": 0, "fusion_lat": 0.0, "bike_id": "5877d472e8f5d79e96acd63569fa16ad", "rental_uris": {"ios": "https://dc.lft.to/lastmile_qr_scan", "android": "https://dc.lft.to/lastmile_qr_scan"}}, {"name": "5c80392874cedfc63aabe86d16e58a57", "type": "electric_scooter", "lat": 38.905768, "is_reserved": 0, "lon": -77.02400283333333, "fusion_lon": 0.0, "is_disabled": 0, "fusion_lat": 0.0, "bike_id": "5c80392874cedfc63aabe86d16e58a57", "rental_uris": {"ios": "https://dc.lft.to/lastmile_qr_scan", "android": "https://dc.lft.to/lastmile_qr_scan"}}, {"name": "a52172dcb30bac1b5e413718c48d14b9", "type": "electric_bike", "lat": 38.99234083333333, "is_reserved": 0, "lon": -76.878169, "fusion_lon": 0.0, "is_disabled": 0, "fusion_lat": 0.0, "bike_id": "a52172dcb30bac1b5e413718c48d14b9", "rental_uris": {"ios": "https://dc.lft.to/lastmile_qr_scan", "android": "https://dc.lft.to/lastmile_qr_scan"}}, {"name": "a99daa0022ff77eda6a8120075ef255c", "type": "electric_scooter", "lat": 38.91116616666667, "is_reserved": 0, "lon": -77.037351, "fusion_lon": 0.0, "is_disabled": 0, "fusion_lat": 0.0, "bike_id": "a99daa0022ff77eda6a8120075ef255c", "rental_uris": {"ios": "https://dc.lft.to/lastmile_qr_scan", "android": "https://dc.lft.to/lastmile_qr_scan"}}, {"name": "1dc243fb4d87b761b93e7cad94b146fd", "type": "electric_scooter", "lat": 38.842927, "is_reserved": 0, "lon": -76.99950733333333, "fusion_lon": 0.0, "is_disabled": 0, "fusion_lat": 0.0, "bike_id": "1dc243fb4d87b761b93e7cad94b146fd", "rental_uris": {"ios": "https://dc.lft.to/lastmile_qr_scan", "android": "https://dc.lft.to/lastmile_qr_scan"}}, {"name": "ab8a07b386457d810e332fbec6e8dcc1", "type": "electric_scooter", "lat": 38.900419166666666, "is_reserved": 0, "lon": -77.026081, "fusion_lon": 0.0, "is_disabled": 0, "fusion_lat": 0.0, "bike_id": "ab8a07b386457d810e332fbec6e8dcc1", "rental_uris": {"ios": "https://dc.lft.to/lastmile_qr_scan", "android": "https://dc.lft.to/lastmile_qr_scan"}}, {"name": "628a3bc625cffb565e2d800ecf6d858c", "type": "electric_scooter", "lat": 38.90275183333333, "is_reserved": 0, "lon": -77.06114783333334, "fusion_lon": 0.0, "is_disabled": 0, "fusion_lat": 0.0, "bike_id": "628a3bc625cffb565e2d800ecf6d858c", "rental_uris": {"ios": "https://dc.lft.to/lastmile_qr_scan", "android": "https://dc.lft.to/lastmile_qr_scan"}}, {"name": "9ca2396a56e617f9b66e9fe4c9db128c", "type": "electric_scooter", "lat": 38.9201695, "is_reserved": 0, "lon": -77.02528366666667, "fusion_lon": 0.0, "is_disabled": 0, "fusion_lat": 0.0, "bike_id": "9ca2396a56e617f9b66e9fe4c9db128c", "rental_uris": {"ios": "https://dc.lft.to/lastmile_qr_scan", "android": "https://dc.lft.to/lastmile_qr_scan"}}, {"name": "add6cd225f7c814887b2a073f6315098", "type": "electric_scooter", "lat": 38.9495885, "is_reserved": 0, "lon": -77.02723366666666, "fusion_lon": 0.0, "is_disabled": 0, "fusion_lat": 0.0, "bike_id": "add6cd225f7c814887b2a073f6315098", "rental_uris": {"ios": "https://dc.lft.to/lastmile_qr_scan", "android": "https://dc.lft.to/lastmile_qr_scan"}}, {"name": "6fe4afb5b69cc007fb0c799c799004e5", "type": "electric_bike", "lat": 38.839353833333334, "is_reserved": 0, "lon": -77.07896866666667, "fusion_lon": 0.0, "is_disabled": 0, "fusion_lat": 0.0, "bike_id": "6fe4afb5b69cc007fb0c799c799004e5", "rental_uris": {"ios": "https://dc.lft.to/lastmile_qr_scan", "android": "https://dc.lft.to/lastmile_qr_scan"}}, {"name": "48e0576bbea6c4cc0ae3e6987cda5e84", "type": "electric_scooter", "lat": 38.930081666666666, "is_reserved": 0, "lon": -77.0325795, "fusion_lon": 0.0, "is_disabled": 0, "fusion_lat": 0.0, "bike_id": "48e0576bbea6c4cc0ae3e6987cda5e84", "rental_uris": {"ios": "https://dc.lft.to/lastmile_qr_scan", "android": "https://dc.lft.to/lastmile_qr_scan"}}, {"name": "f91be21db575aa4c7cf3c6db8981dec5", "type": "electric_scooter", "lat": 38.89959916666667, "is_reserved": 0, "lon": -77.043584, "fusion_lon": 0.0, "is_disabled": 0, "fusion_lat": 0.0, "bike_id": "f91be21db575aa4c7cf3c6db8981dec5", "rental_uris": {"ios": "https://dc.lft.to/lastmile_qr_scan", "android": "https://dc.lft.to/lastmile_qr_scan"}}, {"name": "a19828296cefe47e45c5ca138489d966", "type": "electric_scooter", "lat": 38.913576666666664, "is_reserved": 0, "lon": -77.039586, "fusion_lon": 0.0, "is_disabled": 0, "fusion_lat": 0.0, "bike_id": "a19828296cefe47e45c5ca138489d966", "rental_uris": {"ios": "https://dc.lft.to/lastmile_qr_scan", "android": "https://dc.lft.to/lastmile_qr_scan"}}, {"name": "1216a333366219ab63c223d0152ac643", "type": "electric_scooter", "lat": 38.918237, "is_reserved": 0, "lon": -77.023166, "fusion_lon": 0.0, "is_disabled": 0, "fusion_lat": 0.0, "bike_id": "1216a333366219ab63c223d0152ac643", "rental_uris": {"ios": "https://dc.lft.to/lastmile_qr_scan", "android": "https://dc.lft.to/lastmile_qr_scan"}}, {"name": "f8cb1f475dc4f31892e46b98b962b334", "type": "electric_scooter", "lat": 38.89608666666667, "is_reserved": 0, "lon": -77.05082383333334, "fusion_lon": 0.0, "is_disabled": 0, "fusion_lat": 0.0, "bike_id": "f8cb1f475dc4f31892e46b98b962b334", "rental_uris": {"ios": "https://dc.lft.to/lastmile_qr_scan", "android": "https://dc.lft.to/lastmile_qr_scan"}}, {"name": "d4a81ca503c4ad2c7dfc41d8b09189f8", "type": "electric_scooter", "lat": 38.921847, "is_reserved": 0, "lon": -77.04286433333333, "fusion_lon": 0.0, "is_disabled": 0, "fusion_lat": 0.0, "bike_id": "d4a81ca503c4ad2c7dfc41d8b09189f8", "rental_uris": {"ios": "https://dc.lft.to/lastmile_qr_scan", "android": "https://dc.lft.to/lastmile_qr_scan"}}, {"name": "9d807998ce2ed705e2a44af536588ab3", "type": "electric_scooter", "lat": 38.91353683333333, "is_reserved": 0, "lon": -77.04341683333334, "fusion_lon": 0.0, "is_disabled": 0, "fusion_lat": 0.0, "bike_id": "9d807998ce2ed705e2a44af536588ab3", "rental_uris": {"ios": "https://dc.lft.to/lastmile_qr_scan", "android": "https://dc.lft.to/lastmile_qr_scan"}}, {"name": "a8ad87da804f4121d33d5a80e793b9d7", "type": "electric_scooter", "lat": 38.892201, "is_reserved": 0, "lon": -77.04639916666666, "fusion_lon": 0.0, "is_disabled": 0, "fusion_lat": 0.0, "bike_id": "a8ad87da804f4121d33d5a80e793b9d7", "rental_uris": {"ios": "https://dc.lft.to/lastmile_qr_scan", "android": "https://dc.lft.to/lastmile_qr_scan"}}, {"name": "e0de0acf35716a95d44716ae03a7c61a", "type": "electric_scooter", "lat": 38.92733883333333, "is_reserved": 0, "lon": -77.02492816666667, "fusion_lon": 0.0, "is_disabled": 0, "fusion_lat": 0.0, "bike_id": "e0de0acf35716a95d44716ae03a7c61a", "rental_uris": {"ios": "https://dc.lft.to/lastmile_qr_scan", "android": "https://dc.lft.to/lastmile_qr_scan"}}, {"name": "b9242fc19ff51ef53596aae34fc26465", "type": "electric_scooter", "lat": 38.89665633333333, "is_reserved": 0, "lon": -76.9484255, "fusion_lon": 0.0, "is_disabled": 0, "fusion_lat": 0.0, "bike_id": "b9242fc19ff51ef53596aae34fc26465", "rental_uris": {"ios": "https://dc.lft.to/lastmile_qr_scan", "android": "https://dc.lft.to/lastmile_qr_scan"}}, {"name": "25b4d42a13b6f38e9fde9a6511070f39", "type": "electric_scooter", "lat": 38.9100055, "is_reserved": 0, "lon": -77.03465866666667, "fusion_lon": 0.0, "is_disabled": 0, "fusion_lat": 0.0, "bike_id": "25b4d42a13b6f38e9fde9a6511070f39", "rental_uris": {"ios": "https://dc.lft.to/lastmile_qr_scan", "android": "https://dc.lft.to/lastmile_qr_scan"}}, {"name": "66ee0691973f36fe3a06ab95cc9f1467", "type": "electric_scooter", "lat": 38.93111533333333, "is_reserved": 0, "lon": -77.02098116666667, "fusion_lon": 0.0, "is_disabled": 0, "fusion_lat": 0.0, "bike_id": "66ee0691973f36fe3a06ab95cc9f1467", "rental_uris": {"ios": "https://dc.lft.to/lastmile_qr_scan", "android": "https://dc.lft.to/lastmile_qr_scan"}}, {"name": "56ee37c7e667fb5724efe0c95415aecb", "type": "electric_scooter", "lat": 38.91131816666667, "is_reserved": 0, "lon": -77.04414433333334, "fusion_lon": 0.0, "is_disabled": 0, "fusion_lat": 0.0, "bike_id": "56ee37c7e667fb5724efe0c95415aecb", "rental_uris": {"ios": "https://dc.lft.to/lastmile_qr_scan", "android": "https://dc.lft.to/lastmile_qr_scan"}}, {"name": "1c90b7d983806a9b770b02a6c1d03c5b", "type": "electric_scooter", "lat": 38.90848966666667, "is_reserved": 0, "lon": -77.0002485, "fusion_lon": 0.0, "is_disabled": 0, "fusion_lat": 0.0, "bike_id": "1c90b7d983806a9b770b02a6c1d03c5b", "rental_uris": {"ios": "https://dc.lft.to/lastmile_qr_scan", "android": "https://dc.lft.to/lastmile_qr_scan"}}, {"name": "178e602155a37259c3ba4c89f216c47d", "type": "electric_scooter", "lat": 38.9188135, "is_reserved": 0, "lon": -77.02306516666667, "fusion_lon": 0.0, "is_disabled": 0, "fusion_lat": 0.0, "bike_id": "178e602155a37259c3ba4c89f216c47d", "rental_uris": {"ios": "https://dc.lft.to/lastmile_qr_scan", "android": "https://dc.lft.to/lastmile_qr_scan"}}, {"name": "85b9e1112097ebbf8880f323a107311d", "type": "electric_scooter", "lat": 38.909837833333334, "is_reserved": 0, "lon": -77.06718216666667, "fusion_lon": 0.0, "is_disabled": 0, "fusion_lat": 0.0, "bike_id": "85b9e1112097ebbf8880f323a107311d", "rental_uris": {"ios": "https://dc.lft.to/lastmile_qr_scan", "android": "https://dc.lft.to/lastmile_qr_scan"}}, {"name": "f83436d7320a53b118cafae3f2745578", "type": "electric_scooter", "lat": 38.949265833333335, "is_reserved": 0, "lon": -77.01938483333333, "fusion_lon": 0.0, "is_disabled": 0, "fusion_lat": 0.0, "bike_id": "f83436d7320a53b118cafae3f2745578", "rental_uris": {"ios": "https://dc.lft.to/lastmile_qr_scan", "android": "https://dc.lft.to/lastmile_qr_scan"}}, {"name": "d1e5a9fcb4d384f4a1c8bbdc07dc5065", "type": "electric_scooter", "lat": 38.934877, "is_reserved": 0, "lon": -77.07249216666666, "fusion_lon": 0.0, "is_disabled": 0, "fusion_lat": 0.0, "bike_id": "d1e5a9fcb4d384f4a1c8bbdc07dc5065", "rental_uris": {"ios": "https://dc.lft.to/lastmile_qr_scan", "android": "https://dc.lft.to/lastmile_qr_scan"}}, {"name": "da613e50a291ca7e9ac39e2c94b0e274", "type": "electric_scooter", "lat": 38.917434666666665, "is_reserved": 0, "lon": -77.03467033333334, "fusion_lon": 0.0, "is_disabled": 0, "fusion_lat": 0.0, "bike_id": "da613e50a291ca7e9ac39e2c94b0e274", "rental_uris": {"ios": "https://dc.lft.to/lastmile_qr_scan", "android": "https://dc.lft.to/lastmile_qr_scan"}}, {"name": "6a2b1511e123dbc6c9fc257318b32e49", "type": "electric_scooter", "lat": 38.91593566666667, "is_reserved": 0, "lon": -76.98379516666667, "fusion_lon": 0.0, "is_disabled": 0, "fusion_lat": 0.0, "bike_id": "6a2b1511e123dbc6c9fc257318b32e49", "rental_uris": {"ios": "https://dc.lft.to/lastmile_qr_scan", "android": "https://dc.lft.to/lastmile_qr_scan"}}, {"name": "d1fb77f1373bd2d761fe2dff02bbc57d", "type": "electric_scooter", "lat": 38.923647, "is_reserved": 0, "lon": -77.050284, "fusion_lon": 0.0, "is_disabled": 0, "fusion_lat": 0.0, "bike_id": "d1fb77f1373bd2d761fe2dff02bbc57d", "rental_uris": {"ios": "https://dc.lft.to/lastmile_qr_scan", "android": "https://dc.lft.to/lastmile_qr_scan"}}, {"name": "534d3b211604c69f4cb3b73c0cba8e5a", "type": "electric_scooter", "lat": 38.89974083333333, "is_reserved": 0, "lon": -77.05083283333333, "fusion_lon": 0.0, "is_disabled": 0, "fusion_lat": 0.0, "bike_id": "534d3b211604c69f4cb3b73c0cba8e5a", "rental_uris": {"ios": "https://dc.lft.to/lastmile_qr_scan", "android": "https://dc.lft.to/lastmile_qr_scan"}}, {"name": "05a0efa3777d4e291dd59d2f1beedab2", "type": "electric_scooter", "lat": 38.9079425, "is_reserved": 0, "lon": -77.04825133333334, "fusion_lon": 0.0, "is_disabled": 0, "fusion_lat": 0.0, "bike_id": "05a0efa3777d4e291dd59d2f1beedab2", "rental_uris": {"ios": "https://dc.lft.to/lastmile_qr_scan", "android": "https://dc.lft.to/lastmile_qr_scan"}}, {"name": "a6f989f249baa1a91427ccc66d66d6d6", "type": "electric_scooter", "lat": 38.8985695, "is_reserved": 0, "lon": -77.04364383333333, "fusion_lon": 0.0, "is_disabled": 0, "fusion_lat": 0.0, "bike_id": "a6f989f249baa1a91427ccc66d66d6d6", "rental_uris": {"ios": "https://dc.lft.to/lastmile_qr_scan", "android": "https://dc.lft.to/lastmile_qr_scan"}}, {"name": "a377a0070d386352b369c4c51098e238", "type": "electric_scooter", "lat": 38.91251883333334, "is_reserved": 0, "lon": -77.03211766666666, "fusion_lon": 0.0, "is_disabled": 0, "fusion_lat": 0.0, "bike_id": "a377a0070d386352b369c4c51098e238", "rental_uris": {"ios": "https://dc.lft.to/lastmile_qr_scan", "android": "https://dc.lft.to/lastmile_qr_scan"}}, {"name": "4957bdd1374f105156486a5f07cfa7d1", "type": "electric_bike", "lat": 38.88679916666667, "is_reserved": 0, "lon": -77.16255266666667, "fusion_lon": 0.0, "is_disabled": 0, "fusion_lat": 0.0, "bike_id": "4957bdd1374f105156486a5f07cfa7d1", "rental_uris": {"ios": "https://dc.lft.to/lastmile_qr_scan", "android": "https://dc.lft.to/lastmile_qr_scan"}}, {"name": "0e4a5e2b30f186e2e60fc60bd06b4405", "type": "electric_scooter", "lat": 38.95089216666667, "is_reserved": 0, "lon": -77.02870316666667, "fusion_lon": 0.0, "is_disabled": 0, "fusion_lat": 0.0, "bike_id": "0e4a5e2b30f186e2e60fc60bd06b4405", "rental_uris": {"ios": "https://dc.lft.to/lastmile_qr_scan", "android": "https://dc.lft.to/lastmile_qr_scan"}}, {"name": "e5b6b1a27e4290ecbc23dabb56728380", "type": "electric_scooter", "lat": 38.909706, "is_reserved": 0, "lon": -77.0367715, "fusion_lon": 0.0, "is_disabled": 0, "fusion_lat": 0.0, "bike_id": "e5b6b1a27e4290ecbc23dabb56728380", "rental_uris": {"ios": "https://dc.lft.to/lastmile_qr_scan", "android": "https://dc.lft.to/lastmile_qr_scan"}}, {"name": "07582530eb0c1745cef3c8eb73f5ea20", "type": "electric_scooter", "lat": 38.90266066666667, "is_reserved": 0, "lon": -77.05321333333333, "fusion_lon": 0.0, "is_disabled": 0, "fusion_lat": 0.0, "bike_id": "07582530eb0c1745cef3c8eb73f5ea20", "rental_uris": {"ios": "https://dc.lft.to/lastmile_qr_scan", "android": "https://dc.lft.to/lastmile_qr_scan"}}, {"name": "dfd84f23389c6dc76c5c5c7059162e01", "type": "electric_scooter", "lat": 38.927515, "is_reserved": 0, "lon": -77.024796, "fusion_lon": 0.0, "is_disabled": 0, "fusion_lat": 0.0, "bike_id": "dfd84f23389c6dc76c5c5c7059162e01", "rental_uris": {"ios": "https://dc.lft.to/lastmile_qr_scan", "android": "https://dc.lft.to/lastmile_qr_scan"}}, {"name": "323846fcdbc89bf71008ae90c16eaedd", "type": "electric_scooter", "lat": 38.90963216666667, "is_reserved": 0, "lon": -77.04542683333334, "fusion_lon": 0.0, "is_disabled": 0, "fusion_lat": 0.0, "bike_id": "323846fcdbc89bf71008ae90c16eaedd", "rental_uris": {"ios": "https://dc.lft.to/lastmile_qr_scan", "android": "https://dc.lft.to/lastmile_qr_scan"}}, {"name": "44fff9c986cab4616be895481e7a9ab8", "type": "electric_scooter", "lat": 38.928773666666665, "is_reserved": 0, "lon": -77.04124683333333, "fusion_lon": 0.0, "is_disabled": 0, "fusion_lat": 0.0, "bike_id": "44fff9c986cab4616be895481e7a9ab8", "rental_uris": {"ios": "https://dc.lft.to/lastmile_qr_scan", "android": "https://dc.lft.to/lastmile_qr_scan"}}, {"name": "d90a9dcbaaf9ffaae848377fa6834afb", "type": "electric_scooter", "lat": 38.923646833333336, "is_reserved": 0, "lon": -77.05045716666666, "fusion_lon": 0.0, "is_disabled": 0, "fusion_lat": 0.0, "bike_id": "d90a9dcbaaf9ffaae848377fa6834afb", "rental_uris": {"ios": "https://dc.lft.to/lastmile_qr_scan", "android": "https://dc.lft.to/lastmile_qr_scan"}}, {"name": "13d8cea8b1d108594e78b915a78856c2", "type": "electric_scooter", "lat": 38.90586233333333, "is_reserved": 0, "lon": -77.06274433333333, "fusion_lon": 0.0, "is_disabled": 0, "fusion_lat": 0.0, "bike_id": "13d8cea8b1d108594e78b915a78856c2", "rental_uris": {"ios": "https://dc.lft.to/lastmile_qr_scan", "android": "https://dc.lft.to/lastmile_qr_scan"}}, {"name": "129ebceb8acb53360b7aa0806bea36ab", "type": "electric_scooter", "lat": 38.933604, "is_reserved": 0, "lon": -77.05722016666667, "fusion_lon": 0.0, "is_disabled": 0, "fusion_lat": 0.0, "bike_id": "129ebceb8acb53360b7aa0806bea36ab", "rental_uris": {"ios": "https://dc.lft.to/lastmile_qr_scan", "android": "https://dc.lft.to/lastmile_qr_scan"}}, {"name": "8448008ea056763a019334d145a3d260", "type": "electric_scooter", "lat": 38.863552166666665, "is_reserved": 0, "lon": -76.9906395, "fusion_lon": 0.0, "is_disabled": 0, "fusion_lat": 0.0, "bike_id": "8448008ea056763a019334d145a3d260", "rental_uris": {"ios": "https://dc.lft.to/lastmile_qr_scan", "android": "https://dc.lft.to/lastmile_qr_scan"}}, {"name": "d5787a429ca4421bec817ef6ea57209a", "type": "electric_scooter", "lat": 38.904720166666664, "is_reserved": 0, "lon": -77.04153316666667, "fusion_lon": 0.0, "is_disabled": 0, "fusion_lat": 0.0, "bike_id": "d5787a429ca4421bec817ef6ea57209a", "rental_uris": {"ios": "https://dc.lft.to/lastmile_qr_scan", "android": "https://dc.lft.to/lastmile_qr_scan"}}, {"name": "f2d0decb9f7227484942e764699292b3", "type": "electric_scooter", "lat": 38.907549833333334, "is_reserved": 0, "lon": -77.023976, "fusion_lon": 0.0, "is_disabled": 0, "fusion_lat": 0.0, "bike_id": "f2d0decb9f7227484942e764699292b3", "rental_uris": {"ios": "https://dc.lft.to/lastmile_qr_scan", "android": "https://dc.lft.to/lastmile_qr_scan"}}, {"name": "5c11c3b8a25c05c87124539f87eac37d", "type": "electric_scooter", "lat": 38.91482833333333, "is_reserved": 0, "lon": -77.00946733333333, "fusion_lon": 0.0, "is_disabled": 0, "fusion_lat": 0.0, "bike_id": "5c11c3b8a25c05c87124539f87eac37d", "rental_uris": {"ios": "https://dc.lft.to/lastmile_qr_scan", "android": "https://dc.lft.to/lastmile_qr_scan"}}, {"name": "e8b2747fe15375dc1066ea6814ba15cc", "type": "electric_scooter", "lat": 38.91798383333333, "is_reserved": 0, "lon": -77.02708333333334, "fusion_lon": 0.0, "is_disabled": 0, "fusion_lat": 0.0, "bike_id": "e8b2747fe15375dc1066ea6814ba15cc", "rental_uris": {"ios": "https://dc.lft.to/lastmile_qr_scan", "android": "https://dc.lft.to/lastmile_qr_scan"}}, {"name": "b690e23accfaba827d631f977fc445b9", "type": "electric_bike", "lat": 38.95482116666667, "is_reserved": 0, "lon": -77.0823955, "fusion_lon": 0.0, "is_disabled": 0, "fusion_lat": 0.0, "bike_id": "b690e23accfaba827d631f977fc445b9", "rental_uris": {"ios": "https://dc.lft.to/lastmile_qr_scan", "android": "https://dc.lft.to/lastmile_qr_scan"}}, {"name": "2ac2898f9c6dd4270cfbef897bc61dd6", "type": "electric_scooter", "lat": 38.92424066666667, "is_reserved": 0, "lon": -77.0194955, "fusion_lon": 0.0, "is_disabled": 0, "fusion_lat": 0.0, "bike_id": "2ac2898f9c6dd4270cfbef897bc61dd6", "rental_uris": {"ios": "https://dc.lft.to/lastmile_qr_scan", "android": "https://dc.lft.to/lastmile_qr_scan"}}, {"name": "4d541aaeab09b2a509f3c7e21ebb09b5", "type": "electric_scooter", "lat": 38.894867833333336, "is_reserved": 0, "lon": -77.01096916666667, "fusion_lon": 0.0, "is_disabled": 0, "fusion_lat": 0.0, "bike_id": "4d541aaeab09b2a509f3c7e21ebb09b5", "rental_uris": {"ios": "https://dc.lft.to/lastmile_qr_scan", "android": "https://dc.lft.to/lastmile_qr_scan"}}, {"name": "0e9b84bd9326d4770ca5c85dc3c90d0f", "type": "electric_scooter", "lat": 38.91105966666667, "is_reserved": 0, "lon": -77.01058433333333, "fusion_lon": 0.0, "is_disabled": 0, "fusion_lat": 0.0, "bike_id": "0e9b84bd9326d4770ca5c85dc3c90d0f", "rental_uris": {"ios": "https://dc.lft.to/lastmile_qr_scan", "android": "https://dc.lft.to/lastmile_qr_scan"}}, {"name": "fef27ab079894cb8e0bbb5f9acccf47a", "type": "electric_scooter", "lat": 38.9009125, "is_reserved": 0, "lon": -77.04905266666667, "fusion_lon": 0.0, "is_disabled": 0, "fusion_lat": 0.0, "bike_id": "fef27ab079894cb8e0bbb5f9acccf47a", "rental_uris": {"ios": "https://dc.lft.to/lastmile_qr_scan", "android": "https://dc.lft.to/lastmile_qr_scan"}}, {"name": "2631245b5c7d0727a336d6eea4b37026", "type": "electric_scooter", "lat": 38.922398, "is_reserved": 0, "lon": -77.03088683333333, "fusion_lon": 0.0, "is_disabled": 0, "fusion_lat": 0.0, "bike_id": "2631245b5c7d0727a336d6eea4b37026", "rental_uris": {"ios": "https://dc.lft.to/lastmile_qr_scan", "android": "https://dc.lft.to/lastmile_qr_scan"}}, {"name": "251bfd0058b064b84da05a89dbbe5424", "type": "electric_scooter", "lat": 38.892360833333335, "is_reserved": 0, "lon": -77.03185033333334, "fusion_lon": 0.0, "is_disabled": 0, "fusion_lat": 0.0, "bike_id": "251bfd0058b064b84da05a89dbbe5424", "rental_uris": {"ios": "https://dc.lft.to/lastmile_qr_scan", "android": "https://dc.lft.to/lastmile_qr_scan"}}, {"name": "70d2f7d7dcc9ad05084ac52a8d09e1d6", "type": "electric_bike", "lat": 38.89461883333333, "is_reserved": 0, "lon": -77.07601066666666, "fusion_lon": 0.0, "is_disabled": 0, "fusion_lat": 0.0, "bike_id": "70d2f7d7dcc9ad05084ac52a8d09e1d6", "rental_uris": {"ios": "https://dc.lft.to/lastmile_qr_scan", "android": "https://dc.lft.to/lastmile_qr_scan"}}, {"name": "c2c5b2e96a81a200468a6a2518ab3892", "type": "electric_scooter", "lat": 38.905157333333335, "is_reserved": 0, "lon": -77.06936583333334, "fusion_lon": 0.0, "is_disabled": 0, "fusion_lat": 0.0, "bike_id": "c2c5b2e96a81a200468a6a2518ab3892", "rental_uris": {"ios": "https://dc.lft.to/lastmile_qr_scan", "android": "https://dc.lft.to/lastmile_qr_scan"}},