{"data": {"bikes": [{"is_disabled": 0, "rental_uris": {"ios": "https://dc.lft.to/lastmile_qr_scan", "android": "https://dc.lft.to/lastmile_qr_scan"}, "is_reserved": 0, "fusion_lon": 0.0, "lat": 38.8220825, "type": "electric_bike", "name": "22488be3c21ab635167d126b28cbac8c", "bike_id": "22488be3c21ab635167d126b28cbac8c", "fusion_lat": 0.0, "lon": -76.9771055}, {"is_disabled": 0, "rental_uris": {"ios": "https://dc.lft.to/lastmile_qr_scan", "android": "https://dc.lft.to/lastmile_qr_scan"}, "is_reserved": 0, "fusion_lon": 0.0, "lat": 38.917125, "type": "electric_scooter", "name": "46df137ab387297fc0e85e1289e88b6c", "bike_id": "46df137ab387297fc0e85e1289e88b6c", "fusion_lat": 0.0, "lon": -77.02896333333334}, {"is_disabled": 0, "rental_uris": {"ios": "https://dc.lft.to/lastmile_qr_scan", "android": "https://dc.lft.to/lastmile_qr_scan"}, "is_reserved": 0, "fusion_lon": 0.0, "lat": 38.906941833333335, "type": "electric_bike", "name": "0f1282aac338547eb931edddbb3d7ccb", "bike_id": "0f1282aac338547eb931edddbb3d7ccb", "fusion_lat": 0.0, "lon": -76.95256166666667}, {"is_disabled": 0, "rental_uris": {"ios": "https://dc.lft.to/lastmile_qr_scan", "android": "https://dc.lft.to/lastmile_qr_scan"}, "is_reserved": 0, "fusion_lon": 0.0, "lat": 38.9190305, "type": "electric_scooter", "name": "20f8867ffefafc95fae1866a519c523a", "bike_id": "20f8867ffefafc95fae1866a519c523a", "fusion_lat": 0.0, "lon": -77.0007215}, {"is_disabled": 0, "rental_uris": {"ios": "https://dc.lft.to/lastmile_qr_scan", "android": "https://dc.lft.to/lastmile_qr_scan"}, "is_reserved": 0, "fusion_lon": 0.0, "lat": 38.894814, "type": "electric_scooter", "name": "8b649e0a6e16986d97cf30a771a9ca9d", "bike_id": "8b649e0a6e16986d97cf30a771a9ca9d", "fusion_lat": 0.0, "lon": -77.02670766666667}, {"is_disabled": 0, "rental_uris": {"ios": "https://dc.lft.to/lastmile_qr_scan", "android": "https://dc.lft.to/lastmile_qr_scan"}, "is_reserved": 0, "fusion_lon": 0.0, "lat": 38.89630366666667, "type": "electric_scooter", "name": "43f048f5307e728b4f7b33938adf2871", "bike_id": "43f048f5307e728b4f7b33938adf2871", "fusion_lat": 0.0, "lon": -77.03995416666666}, {"is_disabled": 0, "rental_uris": {"ios": "https://dc.lft.to/lastmile_qr_scan", "android": "https://dc.lft.to/lastmile_qr_scan"}, "is_reserved": 0, "fusion_lon": 0.0, "lat": 38.89224566666667, "type": "electric_scooter", "name": "ffc0564693e0a691a31010c63a6560cb", "bike_id": "ffc0564693e0a691a31010c63a6560cb", "fusion_lat": 0.0, "lon": -77.04340533333334}, {"is_disabled": 0, "rental_uris": {"ios": "https://dc.lft.to/lastmile_qr_scan", "android": "https://dc.lft.to/lastmile_qr_scan"}, "is_reserved": 0, "fusion_lon": 0.0, "lat": 38.8721115, "type": "electric_scooter", "name": "1fb4d057601ef2e3e857e53aabe97512", "bike_id": "1fb4d057601ef2e3e857e53aabe97512", "fusion_lat": 0.0, "lon": -77.00982683333334}, {"is_disabled": 0, "rental_uris": {"ios": "https://dc.lft.to/lastmile_qr_scan", "android": "https://dc.lft.to/lastmile_qr_scan"}, "is_reserved": 0, "fusion_lon": 0.0, "lat": 38.90039216666667, "type": "electric_scooter", "name": "3bac871fb6c58b021e7beb7b05f7c148", "bike_id": "3bac871fb6c58b021e7beb7b05f7c148", "fusion_lat": 0.0, "lon": -77.0118645}, {"is_disabled": 0, "rental_uris": {"ios": "https://dc.lft.to/lastmile_qr_scan", "android": "https://dc.lft.to/lastmile_qr_scan"}, "is_reserved": 0, "fusion_lon": 0.0, "lat": 38.9074255, "type": "electric_scooter", "name": "60c969588c8f7c5b12f6a53ad40882f4", "bike_id": "60c969588c8f7c5b12f6a53ad40882f4", "fusion_lat": 0.0, "lon": -77.00508416666666}, {"is_disabled": 0, "rental_uris": {"ios": "https://dc.lft.to/lastmile_qr_scan", "android": "https://dc.lft.to/lastmile_qr_scan"}, "is_reserved": 0, "fusion_lon": 0.0, "lat": 38.92585316666667, "type": "electric_scooter", "name": "249df041db2dd773119c136392473da6", "bike_id": "249df041db2dd773119c136392473da6", "fusion_lat": 0.0, "lon": -77.044113}, {"is_disabled": 0, "rental_uris": {"ios": "https://dc.lft.to/lastmile_qr_scan", "android": "https://dc.lft.to/lastmile_qr_scan"}, "is_reserved": 0, "fusion_lon": 0.0, "lat": 38.9355235, "type": "electric_scooter", "name": "adfc2aed48da7676728e5b01bf2c9c0b", "bike_id": "adfc2aed48da7676728e5b01bf2c9c0b", "fusion_lat": 0.0, "lon": -77.07712683333334}, {"is_disabled": 0, "rental_uris": {"ios": "https://dc.lft.to/lastmile_qr_scan", "android": "https://dc.lft.to/lastmile_qr_scan"}, "is_reserved": 0, "fusion_lon": 0.0, "lat": 38.91417883333333, "type": "electric_scooter", "name": "f12a92f116ced6c7338d0eb0e2314b5e", "bike_id": "f12a92f116ced6c7338d0eb0e2314b5e", "fusion_lat": 0.0, "lon": -77.0317575}, {"is_disabled": 0, "rental_uris": {"ios": "https://dc.lft.to/lastmile_qr_scan", "android": "https://dc.lft.to/lastmile_qr_scan"}, "is_reserved": 0, "fusion_lon": 0.0, "lat": 38.923327666666665, "type": "electric_scooter", "name": "d73ef996a149e4794524858b2a7f60b6", "bike_id": "d73ef996a149e4794524858b2a7f60b6", "fusion_lat": 0.0, "lon": -77.05682716666666}, {"is_disabled": 0, "rental_uris": {"ios": "https://dc.lft.to/lastmile_qr_scan", "android": "https://dc.lft.to/lastmile_qr_scan"}, "is_reserved": 0, "fusion_lon": 0.0, "lat": 38.8988775, "type": "electric_scooter", "name": "9ac1d44f5292f9b80d826e6b02725507", "bike_id": "9ac1d44f5292f9b80d826e6b02725507", "fusion_lat": 0.0, "lon": -77.04048366666666}, {"is_disabled": 0, "rental_uris": {"ios": "https://dc.lft.to/lastmile_qr_scan", "android": "https://dc.lft.to/lastmile_qr_scan"}, "is_reserved": 0, "fusion_lon": 0.0, "lat": 38.930713833333336, "type": "electric_scooter", "name": "3de3f35c00e5fc183c5025b1ce4be727", "bike_id": "3de3f35c00e5fc183c5025b1ce4be727", "fusion_lat": 0.0, "lon": -77.0336775}, {"is_disabled": 0, "rental_uris": {"ios": "https://dc.lft.to/lastmile_qr_scan", "android": "https://dc.lft.to/lastmile_qr_scan"}, "is_reserved": 0, "fusion_lon": 0.0, "lat": 38.90513383333333, "type": "electric_scooter", "name": "6706850cbb5365bfe39d55c38e009dff", "bike_id": "6706850cbb5365bfe39d55c38e009dff", "fusion_lat": 0.0, "lon": -77.0605035}, {"is_disabled": 0, "rental_uris": {"ios": "https://dc.lft.to/lastmile_qr_scan", "android": "https://dc.lft.to/lastmile_qr_scan"}, "is_reserved": 0, "fusion_lon": 0.0, "lat": 38.8951115, "type": "electric_scooter", "name": "384c9b867abb40ce38f444a35ceb5260", "bike_id": "384c9b867abb40ce38f444a35ceb5260", "fusion_lat": 0.0, "lon": -77.04679583333333}, {"is_disabled": 0, "rental_uris": {"ios": "https://dc.lft.to/lastmile_qr_scan", "android": "https://dc.lft.to/lastmile_qr_scan"}, "is_reserved": 0, "fusion_lon": 0.0, "lat": 38.93859116666667, "type": "electric_scooter", "name": "31a91d935f8e542430923baed98be7bc", "bike_id": "31a91d935f8e542430923baed98be7bc", "fusion_lat": 0.0, "lon": -76.99440033333333}, {"is_disabled": 0, "rental_uris": {"ios": "https://dc.lft.to/lastmile_qr_scan", "android": "https://dc.lft.to/lastmile_qr_scan"}, "is_reserved": 0, "fusion_lon": 0.0, "lat": 38.916988, "type": "electric_scooter", "name": "b4c40116a0f7473d2fd7d10023a56b3b", "bike_id": "b4c40116a0f7473d2fd7d10023a56b3b", "fusion_lat": 0.0, "lon": -77.03796}, {"is_disabled": 0, "rental_uris": {"ios": "https://dc.lft.to/lastmile_qr_scan", "android": "https://dc.lft.to/lastmile_qr_scan"}, "is_reserved": 0, "fusion_lon": 0.0, "lat": 38.90225133333333, "type": "electric_scooter", "name": "3c9f29bfc84aec8e191b637dda364071", "bike_id": "3c9f29bfc84aec8e191b637dda364071", "fusion_lat": 0.0, "lon": -77.026837}, {"is_disabled": 0, "rental_uris": {"ios": "https://dc.lft.to/lastmile_qr_scan", "android": "https://dc.lft.to/lastmile_qr_scan"}, "is_reserved": 0, "fusion_lon": 0.0, "lat": 38.90237066666667, "type": "electric_scooter", "name": "1e03b40e465a95c4d2ca8c4af9731203", "bike_id": "1e03b40e465a95c4d2ca8c4af9731203", "fusion_lat": 0.0, "lon": -77.002027}, {"is_disabled": 0, "rental_uris": {"ios": "https://dc.lft.to/lastmile_qr_scan", "android": "https://dc.lft.to/lastmile_qr_scan"}, "is_reserved": 0, "fusion_lon": 0.0, "lat": 38.86476483333333, "type": "electric_bike", "name": "bbc87b6daf4b23687df940013f030821", "bike_id": "bbc87b6daf4b23687df940013f030821", "fusion_lat": 0.0, "lon": -76.97742033333333}, {"is_disabled": 0, "rental_uris": {"ios": "https://dc.lft.to/lastmile_qr_scan", "android": "https://dc.lft.to/lastmile_qr_scan"}, "is_reserved": 0, "fusion_lon": 0.0, "lat": 38.90029166666667, "type": "electric_scooter", "name": "89311596f22a9804d3feaae040aa8600", "bike_id": "89311596f22a9804d3feaae040aa8600", "fusion_lat": 0.0, "lon": -77.039833}, {"is_disabled": 0, "rental_uris": {"ios": "https://dc.lft.to/lastmile_qr_scan", "android": "https://dc.lft.to/lastmile_qr_scan"}, "is_reserved": 0, "fusion_lon": 0.0, "lat": 38.89617416666667, "type": "electric_scooter", "name": "25aafe58038ee7486744a2a37402d82f", "bike_id": "25aafe58038ee7486744a2a37402d82f", "fusion_lat": 0.0, "lon": -77.04418666666666}, {"is_disabled": 0, "rental_uris": {"ios": "https://dc.lft.to/lastmile_qr_scan", "android": "https://dc.lft.to/lastmile_qr_scan"}, "is_reserved": 0, "fusion_lon": 0.0, "lat": 38.87630433333333, "type": "electric_scooter", "name": "46af875c82babac47f72786f16ee5ff1", "bike_id": "46af875c82babac47f72786f16ee5ff1", "fusion_lat": 0.0, "lon": -77.00958316666667}, {"is_disabled": 0, "rental_uris": {"ios": "https://dc.lft.to/lastmile_qr_scan", "android": "https://dc.lft.to/lastmile_qr_scan"}, "is_reserved": 0, "fusion_lon": 0.0, "lat": 38.924782666666665, "type": "electric_scooter", "name": "86143fb8f5c0439bab14251f050db383", "bike_id": "86143fb8f5c0439bab14251f050db383", "fusion_lat": 0.0, "lon": -77.02213333333333}, {"is_disabled": 0, "rental_uris": {"ios": "https://dc.lft.to/lastmile_qr_scan", "android": "https://dc.lft.to/lastmile_qr_scan"}, "is_reserved": 0, "fusion_lon": 0.0, "lat": 38.910516333333334, "type": "electric_scooter", "name": "30cb8411b50650b02b492c24ec83617f", "bike_id": "30cb8411b50650b02b492c24ec83617f", "fusion_lat": 0.0, "lon": -77.02303666666667}, {"is_disabled": 0, "rental_uris": {"ios": "https://dc.lft.to/lastmile_qr_scan", "android": "https://dc.lft.to/lastmile_qr_scan"}, "is_reserved": 0, "fusion_lon": 0.0, "lat": 38.89392266666667, "type": "electric_scooter", "name": "30ae14e78f9e8f2bfd9d0fb58c7bd4f3", "bike_id": "30ae14e78f9e8f2bfd9d0fb58c7bd4f3", "fusion_lat": 0.0, "lon": -77.0466875}, {"is_disabled": 0, "rental_uris": {"ios": "https://dc.lft.to/lastmile_qr_scan", "android": "https://dc.lft.to/lastmile_qr_scan"}, "is_reserved": 0, "fusion_lon": 0.0, "lat": 38.902633, "type": "electric_scooter", "name": "a91c7f7c133cb186e53450c6b59191d2", "bike_id": "a91c7f7c133cb186e53450c6b59191d2", "fusion_lat": 0.0, "lon": -77.038995}, {"is_disabled": 0, "rental_uris": {"ios": "https://dc.lft.to/lastmile_qr_scan", "android": "https://dc.lft.to/lastmile_qr_scan"}, "is_reserved": 0, "fusion_lon": 0.0, "lat": 38.9041775, "type": "electric_scooter", "name": "04214aca579e446858606a94029a458a", "bike_id": "04214aca579e446858606a94029a458a", "fusion_lat": 0.0, "lon": -77.02595183333334}, {"is_disabled": 0, "rental_uris": {"ios": "https://dc.lft.to/lastmile_qr_scan", "android": "https://dc.lft.to/lastmile_qr_scan"}, "is_reserved": 0, "fusion_lon": 0.0, "lat": 38.903455666666666, "type": "electric_scooter", "name": "2c674f346ecc5bcf16d11317c33d1a9e", "bike_id": "2c674f346ecc5bcf16d11317c33d1a9e", "fusion_lat": 0.0, "lon": -77.03188483333334}, {"is_disabled": 0, "rental_uris": {"ios": "https://dc.lft.to/lastmile_qr_scan", "android": "https://dc.lft.to/lastmile_qr_scan"}, "is_reserved": 0, "fusion_lon": 0.0, "lat": 38.88546066666667, "type": "electric_scooter", "name": "d16b055f063d2d4917aa44835d7ebd5a", "bike_id": "d16b055f063d2d4917aa44835d7ebd5a", "fusion_lat": 0.0, "lon": -76.997707}, {"is_disabled": 0, "rental_uris": {"ios": "https://dc.lft.to/lastmile_qr_scan", "android": "https://dc.lft.to/lastmile_qr_scan"}, "is_reserved": 0, "fusion_lon": 0.0, "lat": 38.919949333333335, "type": "electric_scooter", "name": "a88fb0454447711ca149653e2b08c1c2", "bike_id": "a88fb0454447711ca149653e2b08c1c2", "fusion_lat": 0.0, "lon": -77.01787583333333}, {"is_disabled": 0, "rental_uris": {"ios": "https://dc.lft.to/lastmile_qr_scan", "android": "https://dc.lft.to/lastmile_qr_scan"}, "is_reserved": 0, "fusion_lon": 0.0, "lat": 38.89824866666667, "type": "electric_scooter", "name": "43c9bad17275c7026007a7bd46e74ace", "bike_id": "43c9bad17275c7026007a7bd46e74ace", "fusion_lat": 0.0, "lon": -77.03172316666667}, {"is_disabled": 0, "rental_uris": {"ios": "https://dc.lft.to/lastmile_qr_scan", "android": "https://dc.lft.to/lastmile_qr_scan"}, "is_reserved": 0, "fusion_lon": 0.0, "lat": 38.87161233333333, "type": "electric_scooter", "name": "6387c0e205b7f917abc6ee0220f42cc3", "bike_id": "6387c0e205b7f917abc6ee0220f42cc3", "fusion_lat": 0.0, "lon": -77.013608}, {"is_disabled": 0, "rental_uris": {"ios": "https://dc.lft.to/lastmile_qr_scan", "android": "https://dc.lft.to/lastmile_qr_scan"}, "is_reserved": 0, "fusion_lon": 0.0, "lat": 38.8960895, "type": "electric_scooter", "name": "fad8364740d0fece2f08ab2f40efc3ea", "bike_id": "fad8364740d0fece2f08ab2f40efc3ea", "fusion_lat": 0.0, "lon": -77.04375366666666}, {"is_disabled": 0, "rental_uris": {"ios": "https://dc.lft.to/lastmile_qr_scan", "android": "https://dc.lft.to/lastmile_qr_scan"}, "is_reserved": 0, "fusion_lon": 0.0, "lat": 38.908522, "type": "electric_scooter", "name": "ce38c4a71736cfc148b4253dcc07787d", "bike_id": "ce38c4a71736cfc148b4253dcc07787d", "fusion_lat": 0.0, "lon": -77.02352016666667}, {"is_disabled": 0, "rental_uris": {"ios": "https://dc.lft.to/lastmile_qr_scan", "android": "https://dc.lft.to/lastmile_qr_scan"}, "is_reserved": 0, "fusion_lon": 0.0, "lat": 38.90082266666667, "type": "electric_scooter", "name": "67fcc30ae12acfbb1304085c051fb1c7", "bike_id": "67fcc30ae12acfbb1304085c051fb1c7", "fusion_lat": 0.0, "lon": -76.99486}, {"is_disabled": 0, "rental_uris": {"ios": "https://dc.lft.to/lastmile_qr_scan", "android": "https://dc.lft.to/lastmile_qr_scan"}, "is_reserved": 0, "fusion_lon": 0.0, "lat": 38.896289833333334, "type": "electric_scooter", "name": "3fadfae52d44b1f330d502948aa32633", "bike_id": "3fadfae52d44b1f330d502948aa32633", "fusion_lat": 0.0, "lon": -77.02203816666666}, {"is_disabled": 0, "rental_uris": {"ios": "https://dc.lft.to/lastmile_qr_scan", "android": "https://dc.lft.to/lastmile_qr_scan"}, "is_reserved": 0, "fusion_lon": 0.0, "lat": 38.884251666666664, "type": "electric_scooter", "name": "b213d528e9781de1b3e04a3c25b5960a", "bike_id": "b213d528e9781de1b3e04a3c25b5960a", "fusion_lat": 0.0, "lon": -77.0291165}, {"is_disabled": 0, "rental_uris": {"ios": "https://dc.lft.to/lastmile_qr_scan", "android": "https://dc.lft.to/lastmile_qr_scan"}, "is_reserved": 0, "fusion_lon": 0.0, "lat": 38.91286183333333, "type": "electric_scooter", "name": "9029c70f7dc935f4fd0753a0f06cddee", "bike_id": "9029c70f7dc935f4fd0753a0f06cddee", "fusion_lat": 0.0, "lon": -77.04512566666666}, {"is_disabled": 0, "rental_uris": {"ios": "https://dc.lft.to/lastmile_qr_scan", "android": "https://dc.lft.to/lastmile_qr_scan"}, "is_reserved": 0, "fusion_lon": 0.0, "lat": 38.923492833333334, "type": "electric_scooter", "name": "a7ba90e7c57c0ec59adbe96db87e1921", "bike_id": "a7ba90e7c57c0ec59adbe96db87e1921", "fusion_lat": 0.0, "lon": -77.0338035}, {"is_disabled": 0, "rental_uris": {"ios": "https://dc.lft.to/lastmile_qr_scan", "android": "https://dc.lft.to/lastmile_qr_scan"}, "is_reserved": 0, "fusion_lon": 0.0, "lat": 38.92486483333333, "type": "electric_scooter", "name": "efa412b4a1194dc6dcb537e70aa0c625", "bike_id": "efa412b4a1194dc6dcb537e70aa0c625", "fusion_lat": 0.0, "lon": -77.02702916666667}, {"is_disabled": 0, "rental_uris": {"ios": "https://dc.lft.to/lastmile_qr_scan", "android": "https://dc.lft.to/lastmile_qr_scan"}, "is_reserved": 0, "fusion_lon": 0.0, "lat": 38.90392833333333, "type": "electric_scooter", "name": "2550e6627b12371608624a6d89f18b75", "bike_id": "2550e6627b12371608624a6d89f18b75", "fusion_lat": 0.0, "lon": -77.028195}, {"is_disabled": 0, "rental_uris": {"ios": "https://dc.lft.to/lastmile_qr_scan", "android": "https://dc.lft.to/lastmile_qr_scan"}, "is_reserved": 0, "fusion_lon": 0.0, "lat": 38.904613166666664, "type": "electric_scooter", "name": "362fc15924669df4e023c3a689ba7d6d", "bike_id": "362fc15924669df4e023c3a689ba7d6d", "fusion_lat": 0.0, "lon": -77.00360383333333}, {"is_disabled": 0, "rental_uris": {"ios": "https://dc.lft.to/lastmile_qr_scan", "android": "https://dc.lft.to/lastmile_qr_scan"}, "is_reserved": 0, "fusion_lon": 0.0, "lat": 38.91259733333333, "type": "electric_scooter", "name": "cb4c6a8f23b261addcd8520b676d3ea6", "bike_id": "cb4c6a8f23b261addcd8520b676d3ea6", "fusion_lat": 0.0, "lon": -77.0428375}, {"is_disabled": 0, "rental_uris": {"ios": "https://dc.lft.to/lastmile_qr_scan", "android": "https://dc.lft.to/lastmile_qr_scan"}, "is_reserved": 0, "fusion_lon": 0.0, "lat": 38.9111785, "type": "electric_scooter", "name": "575b3cf524597428ca6be1699d91b3a8", "bike_id": "575b3cf524597428ca6be1699d91b3a8", "fusion_lat": 0.0, "lon": -77.04363883333333}, {"is_disabled": 0, "rental_uris": {"ios": "https://dc.lft.to/lastmile_qr_scan", "android": "https://dc.lft.to/lastmile_qr_scan"}, "is_reserved": 0, "fusion_lon": 0.0, "lat": 38.89625183333333, "type": "electric_scooter", "name": "cc4cf6ec3ea1f59513224115b4bc60d3", "bike_id": "cc4cf6ec3ea1f59513224115b4bc60d3", "fusion_lat": 0.0, "lon": -77.04340766666667}, {"is_disabled": 0, "rental_uris": {"ios": "https://dc.lft.to/lastmile_qr_scan", "android": "https://dc.lft.to/lastmile_qr_scan"}, "is_reserved": 0, "fusion_lon": 0.0, "lat": 38.92051083333333, "type": "electric_scooter", "name": "d80c796b7a96317342f41c92ba46e91e", "bike_id": "d80c796b7a96317342f41c92ba46e91e", "fusion_lat": 0.0, "lon": -77.02426883333334}, {"is_disabled": 0, "rental_uris": {"ios": "https://dc.lft.to/lastmile_qr_scan", "android": "https://dc.lft.to/lastmile_qr_scan"}, "is_reserved": 0, "fusion_lon": 0.0, "lat": 38.88739733333333, "type": "electric_scooter", "name": "abb422f99c6e27abc4c6b4a46a3ef9ce", "bike_id": "abb422f99c6e27abc4c6b4a46a3ef9ce", "fusion_lat": 0.0, "lon": -77.02227683333334}, {"is_disabled": 0, "rental_uris": {"ios": "https://dc.lft.to/lastmile_qr_scan", "android": "https://dc.lft.to/lastmile_qr_scan"}, "is_reserved": 0, "fusion_lon": 0.0, "lat": 38.924823333333336, "type": "electric_scooter", "name": "3e5fb944c90cff4ccec2a0ddfe1547c1", "bike_id": "3e5fb944c90cff4ccec2a0ddfe1547c1", "fusion_lat": 0.0, "lon": -77.021419}, {"is_disabled": 0, "rental_uris": {"ios": "https://dc.lft.to/lastmile_qr_scan", "android": "https://dc.lft.to/lastmile_qr_scan"}, "is_reserved": 0, "fusion_lon": 0.0, "lat": 38.88121916666667, "type": "electric_bike", "name": "fc2a5a3bfbde7b216a4724b5a7ad1567", "bike_id": "fc2a5a3bfbde7b216a4724b5a7ad1567", "fusion_lat": 0.0, "lon": -77.016853}, {"is_disabled": 0, "rental_uris": {"ios": "https://dc.lft.to/lastmile_qr_scan", "android": "https://dc.lft.to/lastmile_qr_scan"}, "is_reserved": 0, "fusion_lon": 0.0, "lat": 38.902345833333335, "type": "electric_scooter", "name": "38926576fb9ce2e1b4290b6b78fbf0ce", "bike_id": "38926576fb9ce2e1b4290b6b78fbf0ce", "fusion_lat": 0.0, "lon": -77.0268975}, {"is_disabled": 0, "rental_uris": {"ios": "https://dc.lft.to/lastmile_qr_scan", "android": "https://dc.lft.to/lastmile_qr_scan"}, "is_reserved": 0, "fusion_lon": 0.0, "lat": 38.898359, "type": "electric_scooter", "name": "b001ed825f3eff1256330ac5864b6839", "bike_id": "b001ed825f3eff1256330ac5864b6839", "fusion_lat": 0.0, "lon": -76.98114233333334}, {"is_disabled": 0, "rental_uris": {"ios": "https://dc.lft.to/lastmile_qr_scan", "android": "https://dc.lft.to/lastmile_qr_scan"}, "is_reserved": 0, "fusion_lon": 0.0, "lat": 38.912558833333335, "type": "electric_scooter", "name": "a90db3f9fa337a9d164d56fef8f62cdc", "bike_id": "a90db3f9fa337a9d164d56fef8f62cdc", "fusion_lat": 0.0, "lon": -76.937418}, {"is_disabled": 0, "rental_uris": {"ios": "https://dc.lft.to/lastmile_qr_scan", "android": "https://dc.lft.to/lastmile_qr_scan"}, "is_reserved": 0, "fusion_lon": 0.0, "lat": 38.918571166666666, "type": "electric_scooter", "name": "8c4c9ef079de1133cfac608d2143bd59", "bike_id": "8c4c9ef079de1133cfac608d2143bd59", "fusion_lat": 0.0, "lon": -77.04169883333333}, {"is_disabled": 0, "rental_uris": {"ios": "https://dc.lft.to/lastmile_qr_scan", "android": "https://dc.lft.to/lastmile_qr_scan"}, "is_reserved": 0, "fusion_lon": 0.0, "lat": 38.942909666666665, "type": "electric_scooter", "name": "4114896255cb073d85fb35e59708d3dd", "bike_id": "4114896255cb073d85fb35e59708d3dd", "fusion_lat": 0.0, "lon": -77.07698483333333}, {"is_disabled": 0, "rental_uris": {"ios": "https://dc.lft.to/lastmile_qr_scan", "android": "https://dc.lft.to/lastmile_qr_scan"}, "is_reserved": 0, "fusion_lon": 0.0, "lat": 38.9162435, "type": "electric_scooter", "name": "2b61f01be8d61f9e105c36b849c9771d", "bike_id": "2b61f01be8d61f9e105c36b849c9771d", "fusion_lat": 0.0, "lon": -77.0506695}, {"is_disabled": 0, "rental_uris": {"ios": "https://dc.lft.to/lastmile_qr_scan", "android": "https://dc.lft.to/lastmile_qr_scan"}, "is_reserved": 0, "fusion_lon": 0.0, "lat": 38.86518366666667, "type": "electric_scooter", "name": "8f31a63442f837af9c2163e3f580bafe", "bike_id": "8f31a63442f837af9c2163e3f580bafe", "fusion_lat": 0.0, "lon": -76.973462}, {"is_disabled": 0, "rental_uris": {"ios": "https://dc.lft.to/lastmile_qr_scan", "android": "https://dc.lft.to/lastmile_qr_scan"}, "is_reserved": 0, "fusion_lon": 0.0, "lat": 38.914830333333335, "type": "electric_scooter", "name": "494c762a14704b659b872f29eabc2697", "bike_id": "494c762a14704b659b872f29eabc2697", "fusion_lat": 0.0, "lon": -77.03470833333333}, {"is_disabled": 0, "rental_uris": {"ios": "https://dc.lft.to/lastmile_qr_scan", "android": "https://dc.lft.to/lastmile_qr_scan"}, "is_reserved": 0, "fusion_lon": 0.0, "lat": 38.896156166666664, "type": "electric_scooter", "name": "971d271a776d9686f1dd846ded0497c5", "bike_id": "971d271a776d9686f1dd846ded0497c5", "fusion_lat": 0.0, "lon": -77.044084}, {"is_disabled": 0, "rental_uris": {"ios": "https://dc.lft.to/lastmile_qr_scan", "android": "https://dc.lft.to/lastmile_qr_scan"}, "is_reserved": 0, "fusion_lon": 0.0, "lat": 38.929377833333334, "type": "electric_scooter", "name": "9d7535af8b5fda51c01465634de0b06d", "bike_id": "9d7535af8b5fda51c01465634de0b06d", "fusion_lat": 0.0, "lon": -77.03294066666666}, {"is_disabled": 0, "rental_uris": {"ios": "https://dc.lft.to/lastmile_qr_scan", "android": "https://dc.lft.to/lastmile_qr_scan"}, "is_reserved": 0, "fusion_lon": 0.0, "lat": 38.9384225, "type": "electric_scooter", "name": "2a0915cdc0a58033a19dec3632ba5e54", "bike_id": "2a0915cdc0a58033a19dec3632ba5e54", "fusion_lat": 0.0, "lon": -77.03392183333334}, {"is_disabled": 0, "rental_uris": {"ios": "https://dc.lft.to/lastmile_qr_scan", "android": "https://dc.lft.to/lastmile_qr_scan"}, "is_reserved": 0, "fusion_lon": 0.0, "lat": 38.903128833333334, "type": "electric_scooter", "name": "ed670fd73e35bdd33934afd9a69f7594", "bike_id": "ed670fd73e35bdd33934afd9a69f7594", "fusion_lat": 0.0, "lon": -77.05145516666667}, {"is_disabled": 0, "rental_uris": {"ios": "https://dc.lft.to/lastmile_qr_scan", "android": "https://dc.lft.to/lastmile_qr_scan"}, "is_reserved": 0, "fusion_lon": 0.0, "lat": 38.89978933333333, "type": "electric_scooter", "name": "15bcdb0bf086fd23cf3a279c62934990", "bike_id": "15bcdb0bf086fd23cf3a279c62934990", "fusion_lat": 0.0, "lon": -77.0308285}, {"is_disabled": 0, "rental_uris": {"ios": "https://dc.lft.to/lastmile_qr_scan", "android": "https://dc.lft.to/lastmile_qr_scan"}, "is_reserved": 0, "fusion_lon": 0.0, "lat": 38.9225715, "type": "electric_scooter", "name": "e76365f0ed06c690c59e9511412e38fd", "bike_id": "e76365f0ed06c690c59e9511412e38fd", "fusion_lat": 0.0, "lon": -77.01924133333333}, {"is_disabled": 0, "rental_uris": {"ios": "https://dc.lft.to/lastmile_qr_scan", "android": "https://dc.lft.to/lastmile_qr_scan"}, "is_reserved": 0, "fusion_lon": 0.0, "lat": 38.89565433333333, "type": "electric_bike", "name": "4ae499c527166794d9b1232724889efa", "bike_id": "4ae499c527166794d9b1232724889efa", "fusion_lat": 0.0, "lon": -77.127378}, {"is_disabled": 0, "rental_uris": {"ios": "https://dc.lft.to/lastmile_qr_scan", "android": "https://dc.lft.to/lastmile_qr_scan"}, "is_reserved": 0, "fusion_lon": 0.0, "lat": 38.927917666666666, "type": "electric_scooter", "name": "e6bdfb61e65ecbd94eb4d08cb7c6790b", "bike_id": "e6bdfb61e65ecbd94eb4d08cb7c6790b", "fusion_lat": 0.0, "lon": -77.05253233333333}, {"is_disabled": 0, "rental_uris": {"ios": "https://dc.lft.to/lastmile_qr_scan", "android": "https://dc.lft.to/lastmile_qr_scan"}, "is_reserved": 0, "fusion_lon": 0.0, "lat": 38.902359, "type": "electric_scooter", "name": "1c7cd39dc34b665a5900eaa600358bb5", "bike_id": "1c7cd39dc34b665a5900eaa600358bb5", "fusion_lat": 0.0, "lon": -77.02689283333333}, {"is_disabled": 0, "rental_uris": {"ios": "https://dc.lft.to/lastmile_qr_scan", "android": "https://dc.lft.to/lastmile_qr_scan"}, "is_reserved": 0, "fusion_lon": 0.0, "lat": 38.9023015, "type": "electric_scooter", "name": "d2d32271673f6e84cdf56cec9b4be82f", "bike_id": "d2d32271673f6e84cdf56cec9b4be82f", "fusion_lat": 0.0, "lon": -77.037693}, {"is_disabled": 0, "rental_uris": {"ios": "https://dc.lft.to/lastmile_qr_scan", "android": "https://dc.lft.to/lastmile_qr_scan"}, "is_reserved": 0, "fusion_lon": 0.0, "lat": 38.92552366666666, "type": "electric_scooter", "name": "1ab10dca904f41888f15e7f96007ba90", "bike_id": "1ab10dca904f41888f15e7f96007ba90", "fusion_lat": 0.0, "lon": -76.98312016666667}, {"is_disabled": 0, "rental_uris": {"ios": "https://dc.lft.to/lastmile_qr_scan", "android": "https://dc.lft.to/lastmile_qr_scan"}, "is_reserved": 0, "fusion_lon": 0.0, "lat": 38.91467333333333, "type": "electric_scooter", "name": "a94db6d4e520558e26e7899d64b0265e", "bike_id": "a94db6d4e520558e26e7899d64b0265e", "fusion_lat": 0.0, "lon": -77.01716433333333}, {"is_disabled": 0, "rental_uris": {"ios": "https://dc.lft.to/lastmile_qr_scan", "android": "https://dc.lft.to/lastmile_qr_scan"}, "is_reserved": 0, "fusion_lon": 0.0, "lat": 38.9239105, "type": "electric_scooter", "name": "e77a57e506bb80b7e0491ed3c5f9a870", "bike_id": "e77a57e506bb80b7e0491ed3c5f9a870", "fusion_lat": 0.0, "lon": -77.00071266666667}, {"is_disabled": 0, "rental_uris": {"ios": "https://dc.lft.to/lastmile_qr_scan", "android": "https://dc.lft.to/lastmile_qr_scan"}, "is_reserved": 0, "fusion_lon": 0.0, "lat": 38.89961366666667, "type": "electric_scooter", "name": "1be646370fe05d50880307c93443fd08", "bike_id": "1be646370fe05d50880307c93443fd08", "fusion_lat": 0.0, "lon": -77.02081266666667}, {"is_disabled": 0, "rental_uris": {"ios": "https://dc.lft.to/lastmile_qr_scan", "android": "https://dc.lft.to/lastmile_qr_scan"}, "is_reserved": 0, "fusion_lon": 0.0, "lat": 38.950859666666666, "type": "electric_bike", "name": "321c0ccfa5edcb842172bea47de74d10", "bike_id": "321c0ccfa5edcb842172bea47de74d10", "fusion_lat": 0.0, "lon": -76.99796366666666}, {"is_disabled": 0, "rental_uris": {"ios": "https://dc.lft.to/lastmile_qr_scan", "android": "https://dc.lft.to/lastmile_qr_scan"}, "is_reserved": 0, "fusion_lon": 0.0, "lat": 39.04232666666667, "type": "electric_bike", "name": "c48aedf6f1b8d8c213c82547997fa107", "bike_id": "c48aedf6f1b8d8c213c82547997fa107", "fusion_lat": 0.0, "lon": -76.99735733333333}, {"is_disabled": 0, "rental_uris": {"ios": "https://dc.lft.to/lastmile_qr_scan", "android": "https://dc.lft.to/lastmile_qr_scan"}, "is_reserved": 0, "fusion_lon": 0.0, "lat": 38.910333666666666, "type": "electric_scooter", "name": "c8462e87c30243c4143ed1f76f40ab6b", "bike_id": "c8462e87c30243c4143ed1f76f40ab6b", "fusion_lat": 0.0, "lon": -76.99340016666666}, {"is_disabled": 0, "rental_uris": {"ios": "https://dc.lft.to/lastmile_qr_scan", "android": "https://dc.lft.to/lastmile_qr_scan"}, "is_reserved": 0, "fusion_lon": 0.0, "lat": 38.99850466666667, "type": "electric_bike", "name": "250fd2eb10b424b1c7d375bbd1f25cdd", "bike_id": "250fd2eb10b424b1c7d375bbd1f25cdd", "fusion_lat": 0.0, "lon": -77.00251533333333}, {"is_disabled": 0, "rental_uris": {"ios": "https://dc.lft.to/lastmile_qr_scan", "android": "https://dc.lft.to/lastmile_qr_scan"}, "is_reserved": 0, "fusion_lon": 0.0, "lat": 38.870365, "type": "electric_scooter", "name": "7dc359128e5f0d072def316e0eb88785", "bike_id": "7dc359128e5f0d072def316e0eb88785", "fusion_lat": 0.0, "lon": -76.9804105}, {"is_disabled": 0, "rental_uris": {"ios": "https://dc.lft.to/lastmile_qr_scan", "android": "https://dc.lft.to/lastmile_qr_scan"}, "is_reserved": 0, "fusion_lon": 0.0, "lat": 38.8865025, "type": "electric_scooter", "name": "2b32882b434289f69756a2a3dd73be50", "bike_id": "2b32882b434289f69756a2a3dd73be50", "fusion_lat": 0.0, "lon": -77.00192216666666}, {"is_disabled": 0, "rental_uris": {"ios": "https://dc.lft.to/lastmile_qr_scan", "android": "https://dc.lft.to/lastmile_qr_scan"}, "is_reserved": 0, "fusion_lon": 0.0, "lat": 38.9247525, "type": "electric_scooter", "name": "7e5cb9a345324e4aa6a1674f91197a1a", "bike_id": "7e5cb9a345324e4aa6a1674f91197a1a", "fusion_lat": 0.0, "lon": -77.02222566666667}, {"is_disabled": 0, "rental_uris": {"ios": "https://dc.lft.to/lastmile_qr_scan", "android": "https://dc.lft.to/lastmile_qr_scan"}, "is_reserved": 0, "fusion_lon": 0.0, "lat": 38.93069783333333, "type": "electric_scooter", "name": "fc327d97cb24ced2155728a5689c3ea6", "bike_id": "fc327d97cb24ced2155728a5689c3ea6", "fusion_lat": 0.0, "lon": -77.02178733333334}, {"is_disabled": 0, "rental_uris": {"ios": "https://dc.lft.to/lastmile_qr_scan", "android": "https://dc.lft.to/lastmile_qr_scan"}, "is_reserved": 0, "fusion_lon": 0.0, "lat": 38.8851025, "type": "electric_bike", "name": "7ff2204c11f88bfd2d43fcb2f973e8f0", "bike_id": "7ff2204c11f88bfd2d43fcb2f973e8f0", "fusion_lat": 0.0, "lon": -77.02519583333333}, {"is_disabled": 0, "rental_uris": {"ios": "https://dc.lft.to/lastmile_qr_scan", "android": "https://dc.lft.to/lastmile_qr_scan"}, "is_reserved": 0, "fusion_lon": 0.0, "lat": 38.905087333333334, "type": "electric_scooter", "name": "8ed39a23aa1b3054acb9371e704dc9aa", "bike_id": "8ed39a23aa1b3054acb9371e704dc9aa", "fusion_lat": 0.0, "lon": -77.06717733333333}, {"is_disabled": 0, "rental_uris": {"ios": "https://dc.lft.to/lastmile_qr_scan", "android": "https://dc.lft.to/lastmile_qr_scan"}, "is_reserved": 0, "fusion_lon": 0.0, "lat": 38.92231866666667, "type": "electric_scooter", "name": "e13286962d31165ea1d7397b9baccc8b", "bike_id": "e13286962d31165ea1d7397b9baccc8b", "fusion_lat": 0.0, "lon": -77.02205416666666}, {"is_disabled": 0, "rental_uris": {"ios": "https://dc.lft.to/lastmile_qr_scan", "android": "https://dc.lft.to/lastmile_qr_scan"}, "is_reserved": 0, "fusion_lon": 0.0, "lat": 39.074661666666664, "type": "electric_bike", "name": "55291ae7ff3a50f33829608f6f984512", "bike_id": "55291ae7ff3a50f33829608f6f984512", "fusion_lat": 0.0, "lon": -77.11531033333333}, {"is_disabled": 0, "rental_uris": {"ios": "https://dc.lft.to/lastmile_qr_scan", "android": "https://dc.lft.to/lastmile_qr_scan"}, "is_reserved": 0, "fusion_lon": 0.0, "lat": 38.856021, "type": "electric_bike", "name": "40e6558ea8fdea0c2ceea53601ea3bc0", "bike_id": "40e6558ea8fdea0c2ceea53601ea3bc0", "fusion_lat": 0.0, "lon": -76.972863}, {"is_disabled": 0, "rental_uris": {"ios": "https://dc.lft.to/lastmile_qr_scan", "android": "https://dc.lft.to/lastmile_qr_scan"}, "is_reserved": 0, "fusion_lon": 0.0, "lat": 38.899901, "type": "electric_scooter", "name": "6f7e5f10290f8b8c83cdfc86783c9cf2", "bike_id": "6f7e5f10290f8b8c83cdfc86783c9cf2", "fusion_lat": 0.0, "lon": -77.02720283333333}, {"is_disabled": 0, "rental_uris": {"ios": "https://dc.lft.to/lastmile_qr_scan", "android": "https://dc.lft.to/lastmile_qr_scan"}, "is_reserved": 0, "fusion_lon": 0.0, "lat": 38.8063485, "type": "electric_bike", "name": "2f7e00a749597bfa9fb963278b841d68", "bike_id": "2f7e00a749597bfa9fb963278b841d68", "fusion_lat": 0.0, "lon": -77.0626485}, {"is_disabled": 0, "rental_uris": {"ios": "https://dc.lft.to/lastmile_qr_scan", "android": "https://dc.lft.to/lastmile_qr_scan"}, "is_reserved": 0, "fusion_lon": 0.0, "lat": 38.9154685, "type": "electric_scooter", "name": "b5f6db2ecd6301752f4decca83718f0d", "bike_id": "b5f6db2ecd6301752f4decca83718f0d", "fusion_lat": 0.0, "lon": -77.02331183333334}, {"is_disabled": 0, "rental_uris": {"ios": "https://dc.lft.to/lastmile_qr_scan", "android": "https://dc.lft.to/lastmile_qr_scan"}, "is_reserved": 0, "fusion_lon": 0.0, "lat": 38.91640783333333, "type": "electric_scooter", "name": "9f47ab11c3076f322260a929c6b35943", "bike_id": "9f47ab11c3076f322260a929c6b35943", "fusion_lat": 0.0, "lon": -77.03216516666667}, {"is_disabled": 0, "rental_uris": {"ios": "https://dc.lft.to/lastmile_qr_scan", "android": "https://dc.lft.to/lastmile_qr_scan"}, "is_reserved": 0, "fusion_lon": 0.0, "lat": 38.91708216666667, "type": "electric_scooter", "name": "b685c5d1d1a3d61cf6a03050d4dc3b00", "bike_id": "b685c5d1d1a3d61cf6a03050d4dc3b00", "fusion_lat": 0.0, "lon": -77.031997}, {"is_disabled": 0, "rental_uris": {"ios": "https://dc.lft.to/lastmile_qr_scan", "android": "https://dc.lft.to/lastmile_qr_scan"}, "is_reserved": 0, "fusion_lon": 0.0, "lat": 38.947498333333336, "type": "electric_scooter", "name": "bb8e4339db11d1aab6364c15b02f0af1", "bike_id": "bb8e4339db11d1aab6364c15b02f0af1", "fusion_lat": 0.0, "lon": -77.02355233333333}, {"is_disabled": 0, "rental_uris": {"ios": "https://dc.lft.to/lastmile_qr_scan", "android": "https://dc.lft.to/lastmile_qr_scan"}, "is_reserved": 0, "fusion_lon": 0.0, "lat": 38.91568566666667, "type": "electric_scooter", "name": "ab5bcffd38c105248161b6f6f04619e6", "bike_id": "ab5bcffd38c105248161b6f6f04619e6", "fusion_lat": 0.0, "lon": -77.0228945}, {"is_disabled": 0, "rental_uris": {"ios": "https://dc.lft.to/lastmile_qr_scan", "android": "https://dc.lft.to/lastmile_qr_scan"}, "is_reserved": 0, "fusion_lon": 0.0, "lat": 38.8925225, "type": "electric_scooter", "name": "5a3a941b6407bddf8d8eea1e5b0281b5", "bike_id": "5a3a941b6407bddf8d8eea1e5b0281b5", "fusion_lat": 0.0, "lon": -77.04664233333334}, {"is_disabled": 0, "rental_uris": {"ios": "https://dc.lft.to/lastmile_qr_scan", "android": "https://dc.lft.to/lastmile_qr_scan"}, "is_reserved": 0, "fusion_lon": 0.0, "lat": 38.88088, "type": "electric_scooter", "name": "e387649db6b05e1c5418ab433d05f8bd", "bike_id": "e387649db6b05e1c5418ab433d05f8bd", "fusion_lat": 0.0, "lon": -77.01748816666667}, {"is_disabled": 0, "rental_uris": {"ios": "https://dc.lft.to/lastmile_qr_scan", "android": "https://dc.lft.to/lastmile_qr_scan"}, "is_reserved": 0, "fusion_lon": 0.0, "lat": 38.899609, "type": "electric_scooter", "name": "b550aa278e36129dcbaf4499223ea46f", "bike_id": "b550aa278e36129dcbaf4499223ea46f", "fusion_lat": 0.0, "lon": -77.01620816666667}, {"is_disabled": 0, "rental_uris": {"ios": "https://dc.lft.to/lastmile_qr_scan", "android": "https://dc.lft.to/lastmile_qr_scan"}, "is_reserved": 0, "fusion_lon": 0.0, "lat": 38.90453683333333, "type": "electric_scooter", "name": "6a41ab53ea69a5a0d971f0300c2e00b7", "bike_id": "6a41ab53ea69a5a0d971f0300c2e00b7", "fusion_lat": 0.0, "lon": -77.05017983333333}, {"is_disabled": 0, "rental_uris": {"ios": "https://dc.lft.to/lastmile_qr_scan", "android": "https://dc.lft.to/lastmile_qr_scan"}, "is_reserved": 0, "fusion_lon": 0.0, "lat": 38.947284333333336, "type": "electric_scooter", "name": "a320d825cbd6fb6f68b6e2ea97468f73", "bike_id": "a320d825cbd6fb6f68b6e2ea97468f73", "fusion_lat": 0.0, "lon": -77.06547183333333}, {"is_disabled": 0, "rental_uris": {"ios": "https://dc.lft.to/lastmile_qr_scan", "android": "https://dc.lft.to/lastmile_qr_scan"}, "is_reserved": 0, "fusion_lon": 0.0, "lat": 38.900690833333336, "type": "electric_scooter", "name": "bb7a3c8b2b738ae597798a875c9edbdb", "bike_id": "bb7a3c8b2b738ae597798a875c9edbdb", "fusion_lat": 0.0, "lon": -77.0217255}, {"is_disabled": 0, "rental_uris": {"ios": "https://dc.lft.to/lastmile_qr_scan", "android": "https://dc.lft.to/lastmile_qr_scan"}, "is_reserved": 0, "fusion_lon": 0.0, "lat": 38.897391166666665, "type": "electric_scooter", "name": "1d5c0c4a4602662f69668231a64f82d2", "bike_id": "1d5c0c4a4602662f69668231a64f82d2", "fusion_lat": 0.0, "lon": -76.990402}, {"is_disabled": 0, "rental_uris": {"ios": "https://dc.lft.to/lastmile_qr_scan", "android": "https://dc.lft.to/lastmile_qr_scan"}, "is_reserved": 0, "fusion_lon": 0.0, "lat": 38.8950465, "type": "electric_scooter", "name": "74b377293b3a3110abb62b1b5211e133", "bike_id": "74b377293b3a3110abb62b1b5211e133", "fusion_lat": 0.0, "lon": -77.02210666666667}, {"is_disabled": 0, "rental_uris": {"ios": "https://dc.lft.to/lastmile_qr_scan", "android": "https://dc.lft.to/lastmile_qr_scan"}, "is_reserved": 0, "fusion_lon": 0.0, "lat": 38.898009, "type": "electric_scooter", "name": "05e60ac27970e7da9d1bf908ef553ed2", "bike_id": "05e60ac27970e7da9d1bf908ef553ed2", "fusion_lat": 0.0, "lon": -77.033911}, {"is_disabled": 0, "rental_uris": {"ios": "https://dc.lft.to/lastmile_qr_scan", "android": "https://dc.lft.to/lastmile_qr_scan"}, "is_reserved": 0, "fusion_lon": 0.0, "lat": 38.90372, "type": "electric_scooter", "name": "fc2e6e85436b6b23e591ef419bd710e9", "bike_id": "fc2e6e85436b6b23e591ef419bd710e9", "fusion_lat": 0.0, "lon": -77.0372025}, {"is_disabled": 0, "rental_uris": {"ios": "https://dc.lft.to/lastmile_qr_scan", "android": "https://dc.lft.to/lastmile_qr_scan"}, "is_reserved": 0, "fusion_lon": 0.0, "lat": 38.909622, "type": "electric_scooter", "name": "7c159de022057a9f88ce8a99024996e7", "bike_id": "7c159de022057a9f88ce8a99024996e7", "fusion_lat": 0.0, "lon": -77.03502716666667}, {"is_disabled": 0, "rental_uris": {"ios": "https://dc.lft.to/lastmile_qr_scan", "android": "https://dc.lft.to/lastmile_qr_scan"}, "is_reserved": 0, "fusion_lon": 0.0, "lat": 38.924401333333336, "type": "electric_scooter", "name": "4b5218e6139bdbb2b2b0ae6a2cf7fb7b", "bike_id": "4b5218e6139bdbb2b2b0ae6a2cf7fb7b", "fusion_lat": 0.0, "lon": -77.02022516666666}, {"is_disabled": 0, "rental_uris": {"ios": "https://dc.lft.to/lastmile_qr_scan", "android": "https://dc.lft.to/lastmile_qr_scan"}, "is_reserved": 0, "fusion_lon": 0.0, "lat": 38.90601266666667, "type": "electric_scooter", "name": "54c6a3f5220a70156f3273559efc8cce", "bike_id": "54c6a3f5220a70156f3273559efc8cce", "fusion_lat": 0.0, "lon": -77.0569305}, {"is_disabled": 0, "rental_uris": {"ios": "https://dc.lft.to/lastmile_qr_scan", "android": "https://dc.lft.to/lastmile_qr_scan"}, "is_reserved": 0, "fusion_lon": 0.0, "lat": 38.90242966666667, "type": "electric_scooter", "name": "284f3e1d0febc0a36edbe34cffb8b17c", "bike_id": "284f3e1d0febc0a36edbe34cffb8b17c", "fusion_lat": 0.0, "lon": -77.03734916666667}, {"is_disabled": 0, "rental_uris": {"ios": "https://dc.lft.to/lastmile_qr_scan", "android": "https://dc.lft.to/lastmile_qr_scan"}, "is_reserved": 0, "fusion_lon": 0.0, "lat": 38.905487, "type": "electric_scooter", "name": "7241a59c0cf6f4982c36afb149c8ad18", "bike_id": "7241a59c0cf6f4982c36afb149c8ad18", "fusion_lat": 0.0, "lon": -77.04467216666667}, {"is_disabled": 0, "rental_uris": {"ios": "https://dc.lft.to/lastmile_qr_scan", "android": "https://dc.lft.to/lastmile_qr_scan"}, "is_reserved": 0, "fusion_lon": 0.0, "lat": 38.923571, "type": "electric_scooter", "name": "bf81387d8311c2b1e9adbf96e61329a1", "bike_id": "bf81387d8311c2b1e9adbf96e61329a1", "fusion_lat": 0.0, "lon": -77.05033066666667}, {"is_disabled": 0, "rental_uris": {"ios": "https://dc.lft.to/lastmile_qr_scan", "android": "https://dc.lft.to/lastmile_qr_scan"}, "is_reserved": 0, "fusion_lon": 0.0, "lat": 38.89992083333333, "type": "electric_scooter", "name": "ef7218f8daf61af381418673da42ad89", "bike_id": "ef7218f8daf61af381418673da42ad89", "fusion_lat": 0.0, "lon": -77.03187716666666}, {"is_disabled": 0, "rental_uris": {"ios": "https://dc.lft.to/lastmile_qr_scan", "android": "https://dc.lft.to/lastmile_qr_scan"}, "is_reserved": 0, "fusion_lon": 0.0, "lat": 38.89638466666667, "type": "electric_scooter", "name": "f8ea48f289295977f8640496f637a99c", "bike_id": "f8ea48f289295977f8640496f637a99c", "fusion_lat": 0.0, "lon": -76.92803033333334}, {"is_disabled": 0, "rental_uris": {"ios": "https://dc.lft.to/lastmile_qr_scan", "android": "https://dc.lft.to/lastmile_qr_scan"}, "is_reserved": 0, "fusion_lon": 0.0, "lat": 38.889691, "type": "electric_scooter", "name": "303d260606afaec1df52d6ee904b869f", "bike_id": "303d260606afaec1df52d6ee904b869f", "fusion_lat": 0.0, "lon": -76.98182233333333}, {"is_disabled": 0, "rental_uris": {"ios": "https://dc.lft.to/lastmile_qr_scan", "android": "https://dc.lft.to/lastmile_qr_scan"}, "is_reserved": 0, "fusion_lon": 0.0, "lat": 38.91625833333333, "type": "electric_scooter", "name": "603a6482fa5e7129df8a04a6812a47c5", "bike_id": "603a6482fa5e7129df8a04a6812a47c5", "fusion_lat": 0.0, "lon": -77.04816083333333}, {"is_disabled": 0, "rental_uris": {"ios": "https://dc.lft.to/lastmile_qr_scan", "android": "https://dc.lft.to/lastmile_qr_scan"}, "is_reserved": 0, "fusion_lon": 0.0, "lat": 38.942956833333334, "type": "electric_bike", "name": "7717df44dcb81b81bf1f356e9dfdc6af", "bike_id": "7717df44dcb81b81bf1f356e9dfdc6af", "fusion_lat": 0.0, "lon": -77.00310066666667}, {"is_disabled": 0, "rental_uris": {"ios": "https://dc.lft.to/lastmile_qr_scan", "android": "https://dc.lft.to/lastmile_qr_scan"}, "is_reserved": 0, "fusion_lon": 0.0, "lat": 38.916449, "type": "electric_scooter", "name": "5e74300b66931b6abfeb20d154c40094", "bike_id": "5e74300b66931b6abfeb20d154c40094", "fusion_lat": 0.0, "lon": -77.03237933333334}, {"is_disabled": 0, "rental_uris": {"ios": "https://dc.lft.to/lastmile_qr_scan", "android": "https://dc.lft.to/lastmile_qr_scan"}, "is_reserved": 0, "fusion_lon": 0.0, "lat": 38.9496515, "type": "electric_scooter", "name": "5481b05ec76ac4df96643fa6e32926d0", "bike_id": "5481b05ec76ac4df96643fa6e32926d0", "fusion_lat": 0.0, "lon": -77.06648583333333}, {"is_disabled": 0, "rental_uris": {"ios": "https://dc.lft.to/lastmile_qr_scan", "android": "https://dc.lft.to/lastmile_qr_scan"}, "is_reserved": 0, "fusion_lon": 0.0, "lat": 38.898833333333336, "type": "electric_scooter", "name": "4d64e157777178f3153cffadf2304217", "bike_id": "4d64e157777178f3153cffadf2304217", "fusion_lat": 0.0, "lon": -76.9868795}, {"is_disabled": 0, "rental_uris": {"ios": "https://dc.lft.to/lastmile_qr_scan", "android": "https://dc.lft.to/lastmile_qr_scan"}, "is_reserved": 0, "fusion_lon": 0.0, "lat": 38.921104166666666, "type": "electric_scooter", "name": "95012fc847a705ffcfe25beffec3a765", "bike_id": "95012fc847a705ffcfe25beffec3a765", "fusion_lat": 0.0, "lon": -77.031905}, {"is_disabled": 0, "rental_uris": {"ios": "https://dc.lft.to/lastmile_qr_scan", "android": "https://dc.lft.to/lastmile_qr_scan"}, "is_reserved": 0, "fusion_lon": 0.0, "lat": 38.915546, "type": "electric_scooter", "name": "193c4afb8a7717de3b9293f0ae9a8ab3", "bike_id": "193c4afb8a7717de3b9293f0ae9a8ab3", "fusion_lat": 0.0, "lon": -77.03945233333333}, {"is_disabled": 0, "rental_uris": {"ios": "https://dc.lft.to/lastmile_qr_scan", "android": "https://dc.lft.to/lastmile_qr_scan"}, "is_reserved": 0, "fusion_lon": 0.0, "lat": 38.894803833333334, "type": "electric_scooter", "name": "8f5c9a5b7e9cd435b61ba8c4ba4ac8b0", "bike_id": "8f5c9a5b7e9cd435b61ba8c4ba4ac8b0", "fusion_lat": 0.0, "lon": -77.04169533333334}, {"is_disabled": 0, "rental_uris": {"ios": "https://dc.lft.to/lastmile_qr_scan", "android": "https://dc.lft.to/lastmile_qr_scan"}, "is_reserved": 0, "fusion_lon": 0.0, "lat": 38.9237275, "type": "electric_scooter", "name": "982c248cacf235154b2f03972a6c0645", "bike_id": "982c248cacf235154b2f03972a6c0645", "fusion_lat": 0.0, "lon": -77.01902983333333}, {"is_disabled": 0, "rental_uris": {"ios": "https://dc.lft.to/lastmile_qr_scan", "android": "https://dc.lft.to/lastmile_qr_scan"}, "is_reserved": 0, "fusion_lon": 0.0, "lat": 38.916163166666664, "type": "electric_scooter", "name": "feac9550768dbf87c3bcf2b3a81676d6", "bike_id": "feac9550768dbf87c3bcf2b3a81676d6", "fusion_lat": 0.0, "lon": -77.04864933333333}, {"is_disabled": 0, "rental_uris": {"ios": "https://dc.lft.to/lastmile_qr_scan", "android": "https://dc.lft.to/lastmile_qr_scan"}, "is_reserved": 0, "fusion_lon": 0.0, "lat": 38.932477666666664, "type": "electric_scooter", "name": "5dc924711439f62a5b523d1e3025e943", "bike_id": "5dc924711439f62a5b523d1e3025e943", "fusion_lat": 0.0, "lon": -77.02947}, {"is_disabled": 0, "rental_uris": {"ios": "https://dc.lft.to/lastmile_qr_scan", "android": "https://dc.lft.to/lastmile_qr_scan"}, "is_reserved": 0, "fusion_lon": 0.0, "lat": 38.85560983333333, "type": "electric_bike", "name": "f89e4986d532b8cb0147603eb6892784", "bike_id": "f89e4986d532b8cb0147603eb6892784", "fusion_lat": 0.0, "lon": -77.06333416666666}, {"is_disabled": 0, "rental_uris": {"ios": "https://dc.lft.to/lastmile_qr_scan", "android": "https://dc.lft.to/lastmile_qr_scan"}, "is_reserved": 0, "fusion_lon": 0.0, "lat": 38.91109633333333, "type": "electric_scooter", "name": "a7de3ed497098b736450bdc9ff848915", "bike_id": "a7de3ed497098b736450bdc9ff848915", "fusion_lat": 0.0, "lon": -77.02604316666667}, {"is_disabled": 0, "rental_uris": {"ios": "https://dc.lft.to/lastmile_qr_scan", "android": "https://dc.lft.to/lastmile_qr_scan"}, "is_reserved": 0, "fusion_lon": 0.0, "lat": 38.923346, "type": "electric_scooter", "name": "eb5254eabf57325b07f787720eb517a0", "bike_id": "eb5254eabf57325b07f787720eb517a0", "fusion_lat": 0.0, "lon": -77.056835}, {"is_disabled": 0, "rental_uris": {"ios": "https://dc.lft.to/lastmile_qr_scan", "android": "https://dc.lft.to/lastmile_qr_scan"}, "is_reserved": 0, "fusion_lon": 0.0, "lat": 38.90518, "type": "electric_scooter", "name": "9988978c90fca46107782b3406a4c7e0", "bike_id": "9988978c90fca46107782b3406a4c7e0", "fusion_lat": 0.0, "lon": -77.06097616666666}, {"is_disabled": 0, "rental_uris": {"ios": "https://dc.lft.to/lastmile_qr_scan", "android": "https://dc.lft.to/lastmile_qr_scan"}, "is_reserved": 0, "fusion_lon": 0.0, "lat": 38.94299216666667, "type": "electric_scooter", "name": "887f3a96010ccde0ea8d01453a760187", "bike_id": "887f3a96010ccde0ea8d01453a760187", "fusion_lat": 0.0, "lon": -77.0594105}, {"is_disabled": 0, "rental_uris": {"ios": "https://dc.lft.to/lastmile_qr_scan", "android": "https://dc.lft.to/lastmile_qr_scan"}, "is_reserved": 0, "fusion_lon": 0.0, "lat": 38.907012, "type": "electric_scooter", "name": "ca46f6f23d7cd2a5ba9b14feee4501f0", "bike_id": "ca46f6f23d7cd2a5ba9b14feee4501f0", "fusion_lat": 0.0, "lon": -77.02979433333333}, {"is_disabled": 0, "rental_uris": {"ios": "https://dc.lft.to/lastmile_qr_scan", "android": "https://dc.lft.to/lastmile_qr_scan"}, "is_reserved": 0, "fusion_lon": 0.0, "lat": 38.846969, "type": "electric_scooter", "name": "808a11c57eed8214da555115dc0008d3", "bike_id": "808a11c57eed8214da555115dc0008d3", "fusion_lat": 0.0, "lon": -76.99628333333334}, {"is_disabled": 0, "rental_uris": {"ios": "https://dc.lft.to/lastmile_qr_scan", "android": "https://dc.lft.to/lastmile_qr_scan"}, "is_reserved": 0, "fusion_lon": 0.0, "lat": 38.9180685, "type": "electric_scooter", "name": "024e93fc43e356a1e73723ecc6bdd436", "bike_id": "024e93fc43e356a1e73723ecc6bdd436", "fusion_lat": 0.0, "lon": -77.034458}, {"is_disabled": 0, "rental_uris": {"ios": "https://dc.lft.to/lastmile_qr_scan", "android": "https://dc.lft.to/lastmile_qr_scan"}, "is_reserved": 0, "fusion_lon": 0.0, "lat": 38.84220783333333, "type": "electric_bike", "name": "e1c32497255ddd7fc955c0c1266b5da8", "bike_id": "e1c32497255ddd7fc955c0c1266b5da8", "fusion_lat": 0.0, "lon": -76.94895116666666}, {"is_disabled": 0, "rental_uris": {"ios": "https://dc.lft.to/lastmile_qr_scan", "android": "https://dc.lft.to/lastmile_qr_scan"}, "is_reserved": 0, "fusion_lon": 0.0, "lat": 38.89226416666666, "type": "electric_scooter", "name": "e0c34b0c3aaaf7ef529a286620a83156", "bike_id": "e0c34b0c3aaaf7ef529a286620a83156", "fusion_lat": 0.0, "lon": -77.05004466666666}, {"is_disabled": 0, "rental_uris": {"ios": "https://dc.lft.to/lastmile_qr_scan", "android": "https://dc.lft.to/lastmile_qr_scan"}, "is_reserved": 0, "fusion_lon": 0.0, "lat": 38.9836785, "type": "electric_bike", "name": "c1a6a857b6ffab2ad2ea873fe615d5ee", "bike_id": "c1a6a857b6ffab2ad2ea873fe615d5ee", "fusion_lat": 0.0, "lon": -76.98856066666667}, {"is_disabled": 0, "rental_uris": {"ios": "https://dc.lft.to/lastmile_qr_scan", "android": "https://dc.lft.to/lastmile_qr_scan"}, "is_reserved": 0, "fusion_lon": 0.0, "lat": 38.924927333333336, "type": "electric_scooter", "name": "5b6a7de2f80e178dab60f6e85d496785", "bike_id": "5b6a7de2f80e178dab60f6e85d496785", "fusion_lat": 0.0, "lon": -77.02275116666667}, {"is_disabled": 0, "rental_uris": {"ios": "https://dc.lft.to/lastmile_qr_scan", "android": "https://dc.lft.to/lastmile_qr_scan"}, "is_reserved": 0, "fusion_lon": 0.0, "lat": 38.901729833333334, "type": "electric_scooter", "name": "124a76e56a8e4602787178d76bdb242f", "bike_id": "124a76e56a8e4602787178d76bdb242f", "fusion_lat": 0.0, "lon": -76.980711}, {"is_disabled": 0, "rental_uris": {"ios": "https://dc.lft.to/lastmile_qr_scan", "android": "https://dc.lft.to/lastmile_qr_scan"}, "is_reserved": 0, "fusion_lon": 0.0, "lat": 38.924723666666665, "type": "electric_scooter", "name": "d7b4163525ad9b705076a6ccf23e8419", "bike_id": "d7b4163525ad9b705076a6ccf23e8419", "fusion_lat": 0.0, "lon": -77.0272045}, {"is_disabled": 0, "rental_uris": {"ios": "https://dc.lft.to/lastmile_qr_scan", "android": "https://dc.lft.to/lastmile_qr_scan"}, "is_reserved": 0, "fusion_lon": 0.0, "lat": 38.915925, "type": "electric_scooter", "name": "577859e8acb900ddb544b6f5bd5cc18a", "bike_id": "577859e8acb900ddb544b6f5bd5cc18a", "fusion_lat": 0.0, "lon": -77.03185033333334}, {"is_disabled": 0, "rental_uris": {"ios": "https://dc.lft.to/lastmile_qr_scan", "android": "https://dc.lft.to/lastmile_qr_scan"}, "is_reserved": 0, "fusion_lon": 0.0, "lat": 38.92437133333333, "type": "electric_scooter", "name": "a21020755fe9835f62a3206fd9cdb6eb", "bike_id": "a21020755fe9835f62a3206fd9cdb6eb", "fusion_lat": 0.0, "lon": -77.02031516666666}, {"is_disabled": 0, "rental_uris": {"ios": "https://dc.lft.to/lastmile_qr_scan", "android": "https://dc.lft.to/lastmile_qr_scan"}, "is_reserved": 0, "fusion_lon": 0.0, "lat": 38.89764666666667, "type": "electric_scooter", "name": "301a29d6932531b79d1289ecf45d5ea0", "bike_id": "301a29d6932531b79d1289ecf45d5ea0", "fusion_lat": 0.0, "lon": -77.01179116666667}, {"is_disabled": 0, "rental_uris": {"ios": "https://dc.lft.to/lastmile_qr_scan", "android": "https://dc.lft.to/lastmile_qr_scan"}, "is_reserved": 0, "fusion_lon": 0.0, "lat": 38.9517595, "type": "electric_bike", "name": "f28cbab32c5d53f9726eea52438b985d", "bike_id": "f28cbab32c5d53f9726eea52438b985d", "fusion_lat": 0.0, "lon": -77.03163383333333}, {"is_disabled": 0, "rental_uris": {"ios": "https://dc.lft.to/lastmile_qr_scan", "android": "https://dc.lft.to/lastmile_qr_scan"}, "is_reserved": 0, "fusion_lon": 0.0, "lat": 38.903632, "type": "electric_scooter", "name": "d8d0e68dbba447c74f632dad6a4530d0", "bike_id": "d8d0e68dbba447c74f632dad6a4530d0", "fusion_lat": 0.0, "lon": -77.03990166666667}, {"is_disabled": 0, "rental_uris": {"ios": "https://dc.lft.to/lastmile_qr_scan", "android": "https://dc.lft.to/lastmile_qr_scan"}, "is_reserved": 0, "fusion_lon": 0.0, "lat": 38.899608, "type": "electric_scooter", "name": "6509b1230d2af54cc4f7003353ba5cfa", "bike_id": "6509b1230d2af54cc4f7003353ba5cfa", "fusion_lat": 0.0, "lon": -77.04516533333333}, {"is_disabled": 0, "rental_uris": {"ios": "https://dc.lft.to/lastmile_qr_scan", "android": "https://dc.lft.to/lastmile_qr_scan"}, "is_reserved": 0, "fusion_lon": 0.0, "lat": 38.807304333333335, "type": "electric_bike", "name": "4a1f5ad3ad31ce0ecbb195db5e6441f3", "bike_id": "4a1f5ad3ad31ce0ecbb195db5e6441f3", "fusion_lat": 0.0, "lon": -76.9925485}, {"is_disabled": 0, "rental_uris": {"ios": "https://dc.lft.to/lastmile_qr_scan", "android": "https://dc.lft.to/lastmile_qr_scan"}, "is_reserved": 0, "fusion_lon": 0.0, "lat": 38.905677, "type": "electric_scooter", "name": "4994a5b5fb33c364990edf842d6ec857", "bike_id": "4994a5b5fb33c364990edf842d6ec857", "fusion_lat": 0.0, "lon": -77.02413333333334}, {"is_disabled": 0, "rental_uris": {"ios": "https://dc.lft.to/lastmile_qr_scan", "android": "https://dc.lft.to/lastmile_qr_scan"}, "is_reserved": 0, "fusion_lon": 0.0, "lat": 38.90473033333333, "type": "electric_scooter", "name": "7845189d7af0929bc5105b146b7003bd", "bike_id": "7845189d7af0929bc5105b146b7003bd", "fusion_lat": 0.0, "lon": -76.95054}, {"is_disabled": 0, "rental_uris": {"ios": "https://dc.lft.to/lastmile_qr_scan", "android": "https://dc.lft.to/lastmile_qr_scan"}, "is_reserved": 0, "fusion_lon": 0.0, "lat": 38.917589166666666, "type": "electric_scooter", "name": "d7bb1d7e177436ccacc0d4c4089dbfa8", "bike_id": "d7bb1d7e177436ccacc0d4c4089dbfa8", "fusion_lat": 0.0, "lon": -77.02408333333334}, {"is_disabled": 0, "rental_uris": {"ios": "https://dc.lft.to/lastmile_qr_scan", "android": "https://dc.lft.to/lastmile_qr_scan"}, "is_reserved": 0, "fusion_lon": 0.0, "lat": 38.91617766666667, "type": "electric_scooter", "name": "bad402c2909fb2b75bdc354bb3077dd4", "bike_id": "bad402c2909fb2b75bdc354bb3077dd4", "fusion_lat": 0.0, "lon": -77.03213883333333}, {"is_disabled": 0, "rental_uris": {"ios": "https://dc.lft.to/lastmile_qr_scan", "android": "https://dc.lft.to/lastmile_qr_scan"}, "is_reserved": 0, "fusion_lon": 0.0, "lat": 38.85530816666667, "type": "electric_scooter", "name": "7d855e572c342c43c5f4e66f41fe2bd8", "bike_id": "7d855e572c342c43c5f4e66f41fe2bd8", "fusion_lat": 0.0, "lon": -76.99183183333334}, {"is_disabled": 0, "rental_uris": {"ios": "https://dc.lft.to/lastmile_qr_scan", "android": "https://dc.lft.to/lastmile_qr_scan"}, "is_reserved": 0, "fusion_lon": 0.0, "lat": 38.87513083333333, "type": "electric_bike", "name": "c4d6d64bb69d48317bf0b8a0b5a47eb9", "bike_id": "c4d6d64bb69d48317bf0b8a0b5a47eb9", "fusion_lat": 0.0, "lon": -77.11762966666667}, {"is_disabled": 0, "rental_uris": {"ios": "https://dc.lft.to/lastmile_qr_scan", "android": "https://dc.lft.to/lastmile_qr_scan"}, "is_reserved": 0, "fusion_lon": 0.0, "lat": 38.98564066666667, "type": "electric_bike", "name": "32a41abed7c6e78692884bff98a85256", "bike_id": "32a41abed7c6e78692884bff98a85256", "fusion_lat": 0.0, "lon": -77.08750983333333}, {"is_disabled": 0, "rental_uris": {"ios": "https://dc.lft.to/lastmile_qr_scan", "android": "https://dc.lft.to/lastmile_qr_scan"}, "is_reserved": 0, "fusion_lon": 0.0, "lat": 38.9199095, "type": "electric_scooter", "name": "ff7ce9f3864211f0697c6d6719e80324", "bike_id": "ff7ce9f3864211f0697c6d6719e80324", "fusion_lat": 0.0, "lon": -77.04170933333333}, {"is_disabled": 0, "rental_uris": {"ios": "https://dc.lft.to/lastmile_qr_scan", "android": "https://dc.lft.to/lastmile_qr_scan"}, "is_reserved": 0, "fusion_lon": 0.0, "lat": 38.92351433333333, "type": "electric_scooter", "name": "343e4bf85d9350846bb4a16ba9cdafac", "bike_id": "343e4bf85d9350846bb4a16ba9cdafac", "fusion_lat": 0.0, "lon": -77.03476783333333}, {"is_disabled": 0, "rental_uris": {"ios": "https://dc.lft.to/lastmile_qr_scan", "android": "https://dc.lft.to/lastmile_qr_scan"}, "is_reserved": 0, "fusion_lon": 0.0, "lat": 38.908944166666664, "type": "electric_scooter", "name": "22ef9d08e121cc35b6972dd09abd8c05", "bike_id": "22ef9d08e121cc35b6972dd09abd8c05", "fusion_lat": 0.0, "lon": -77.04396466666667}, {"is_disabled": 0, "rental_uris": {"ios": "https://dc.lft.to/lastmile_qr_scan", "android": "https://dc.lft.to/lastmile_qr_scan"}, "is_reserved": 0, "fusion_lon": 0.0, "lat": 38.909731, "type": "electric_scooter", "name": "a779556862638e9f061101931189519a", "bike_id": "a779556862638e9f061101931189519a", "fusion_lat": 0.0, "lon": -77.02392633333334}, {"is_disabled": 0, "rental_uris": {"ios": "https://dc.lft.to/lastmile_qr_scan", "android": "https://dc.lft.to/lastmile_qr_scan"}, "is_reserved": 0, "fusion_lon": 0.0, "lat": 38.92690566666667, "type": "electric_scooter", "name": "2fe78c28d1092d2ee1afdd7536abaa82", "bike_id": "2fe78c28d1092d2ee1afdd7536abaa82", "fusion_lat": 0.0, "lon": -77.00775766666666}, {"is_disabled": 0, "rental_uris": {"ios": "https://dc.lft.to/lastmile_qr_scan", "android": "https://dc.lft.to/lastmile_qr_scan"}, "is_reserved": 0, "fusion_lon": 0.0, "lat": 38.892226666666666, "type": "electric_scooter", "name": "19056a2ddc033a822b6cf4152f01d879", "bike_id": "19056a2ddc033a822b6cf4152f01d879", "fusion_lat": 0.0, "lon": -77.0277855}, {"is_disabled": 0, "rental_uris": {"ios": "https://dc.lft.to/lastmile_qr_scan", "android": "https://dc.lft.to/lastmile_qr_scan"}, "is_reserved": 0, "fusion_lon": 0.0, "lat": 38.91427183333333, "type": "electric_bike", "name": "35a50c72542f3d13b7a46360fcbac0b5", "bike_id": "35a50c72542f3d13b7a46360fcbac0b5", "fusion_lat": 0.0, "lon": -77.031889}, {"is_disabled": 0, "rental_uris": {"ios": "https://dc.lft.to/lastmile_qr_scan", "android": "https://dc.lft.to/lastmile_qr_scan"}, "is_reserved": 0, "fusion_lon": 0.0, "lat": 38.8988775, "type": "electric_scooter", "name": "248b1da38393c4eb139f0bea6205f7da", "bike_id": "248b1da38393c4eb139f0bea6205f7da", "fusion_lat": 0.0, "lon": -77.02815866666667}, {"is_disabled": 0, "rental_uris": {"ios": "https://dc.lft.to/lastmile_qr_scan", "android": "https://dc.lft.to/lastmile_qr_scan"}, "is_reserved": 0, "fusion_lon": 0.0, "lat": 38.905634, "type": "electric_scooter", "name": "c516ee232f5f00e5a2676d6e6762ac26", "bike_id": "c516ee232f5f00e5a2676d6e6762ac26", "fusion_lat": 0.0, "lon": -77.0265545}, {"is_disabled": 0, "rental_uris": {"ios": "https://dc.lft.to/lastmile_qr_scan", "android": "https://dc.lft.to/lastmile_qr_scan"}, "is_reserved": 0, "fusion_lon": 0.0, "lat": 38.9087035, "type": "electric_scooter", "name": "2cf722485e9edeae06902841cfaa4f68", "bike_id": "2cf722485e9edeae06902841cfaa4f68", "fusion_lat": 0.0, "lon": -77.071502}, {"is_disabled": 0, "rental_uris": {"ios": "https://dc.lft.to/lastmile_qr_scan", "android": "https://dc.lft.to/lastmile_qr_scan"}, "is_reserved": 0, "fusion_lon": 0.0, "lat": 38.90235933333334, "type": "electric_scooter", "name": "1c2cb30230210307584cf09cad394981", "bike_id": "1c2cb30230210307584cf09cad394981", "fusion_lat": 0.0, "lon": -77.01600483333333}, {"is_disabled": 0, "rental_uris": {"ios": "https://dc.lft.to/lastmile_qr_scan", "android": "https://dc.lft.to/lastmile_qr_scan"}, "is_reserved": 0, "fusion_lon": 0.0, "lat": 38.90819833333333, "type": "electric_scooter", "name": "4ad622863ca206f6c248efde54348662", "bike_id": "4ad622863ca206f6c248efde54348662", "fusion_lat": 0.0, "lon": -77.0422405}, {"is_disabled": 0, "rental_uris": {"ios": "https://dc.lft.to/lastmile_qr_scan", "android": "https://dc.lft.to/lastmile_qr_scan"}, "is_reserved": 0, "fusion_lon": 0.0, "lat": 38.911736833333336, "type": "electric_scooter", "name": "8996dcb067fbb269e306b853ed0c8819", "bike_id": "8996dcb067fbb269e306b853ed0c8819", "fusion_lat": 0.0, "lon": -77.03868833333334}, {"is_disabled": 0, "rental_uris": {"ios": "https://dc.lft.to/lastmile_qr_scan", "android": "https://dc.lft.to/lastmile_qr_scan"}, "is_reserved": 0, "fusion_lon": 0.0, "lat": 38.91268933333333, "type": "electric_scooter", "name": "91c844e9440368747e935168d676c83d", "bike_id": "91c844e9440368747e935168d676c83d", "fusion_lat": 0.0, "lon": -77.04660316666667}, {"is_disabled": 0, "rental_uris": {"ios": "https://dc.lft.to/lastmile_qr_scan", "android": "https://dc.lft.to/lastmile_qr_scan"}, "is_reserved": 0, "fusion_lon": 0.0, "lat": 38.9190825, "type": "electric_scooter", "name": "338bf96fcd20e3807ef0a5f5ba0d12c7", "bike_id": "338bf96fcd20e3807ef0a5f5ba0d12c7", "fusion_lat": 0.0, "lon": -77.0344445}, {"is_disabled": 0, "rental_uris": {"ios": "https://dc.lft.to/lastmile_qr_scan", "android": "https://dc.lft.to/lastmile_qr_scan"}, "is_reserved": 0, "fusion_lon": 0.0, "lat": 38.920928333333336, "type": "electric_scooter", "name": "54cecddc69a9bdbcabfc83301a4f7487", "bike_id": "54cecddc69a9bdbcabfc83301a4f7487", "fusion_lat": 0.0, "lon": -77.0412925}, {"is_disabled": 0, "rental_uris": {"ios": "https://dc.lft.to/lastmile_qr_scan", "android": "https://dc.lft.to/lastmile_qr_scan"}, "is_reserved": 0, "fusion_lon": 0.0, "lat": 38.89365033333333, "type": "electric_scooter", "name": "6f445edab657f654065d4d8b3dc25a38", "bike_id": "6f445edab657f654065d4d8b3dc25a38", "fusion_lat": 0.0, "lon": -77.04673233333334}, {"is_disabled": 0, "rental_uris": {"ios": "https://dc.lft.to/lastmile_qr_scan", "android": "https://dc.lft.to/lastmile_qr_scan"}, "is_reserved": 0, "fusion_lon": 0.0, "lat": 38.897215833333334, "type": "electric_scooter", "name": "40a9e6cff96245aaf07497a4eb85e8ce", "bike_id": "40a9e6cff96245aaf07497a4eb85e8ce", "fusion_lat": 0.0, "lon": -77.024692}, {"is_disabled": 0, "rental_uris": {"ios": "https://dc.lft.to/lastmile_qr_scan", "android": "https://dc.lft.to/lastmile_qr_scan"}, "is_reserved": 0, "fusion_lon": 0.0, "lat": 38.966178166666666, "type": "electric_bike", "name": "4b9cab70354aab07edc8bb521616042b", "bike_id": "4b9cab70354aab07edc8bb521616042b", "fusion_lat": 0.0, "lon": -77.03433766666667}, {"is_disabled": 0, "rental_uris": {"ios": "https://dc.lft.to/lastmile_qr_scan", "android": "https://dc.lft.to/lastmile_qr_scan"}, "is_reserved": 0, "fusion_lon": 0.0, "lat": 38.89886533333333, "type": "electric_scooter", "name": "b264412a3c9e6780ee98de09b0db9d19", "bike_id": "b264412a3c9e6780ee98de09b0db9d19", "fusion_lat": 0.0, "lon": -77.03950816666666}, {"is_disabled": 0, "rental_uris": {"ios": "https://dc.lft.to/lastmile_qr_scan", "android": "https://dc.lft.to/lastmile_qr_scan"}, "is_reserved": 0, "fusion_lon": 0.0, "lat": 38.92429533333333, "type": "electric_scooter", "name": "0005ba3b7ebee16e6606952f4fae0002", "bike_id": "0005ba3b7ebee16e6606952f4fae0002", "fusion_lat": 0.0, "lon": -77.00325316666667}, {"is_disabled": 0, "rental_uris": {"ios": "https://dc.lft.to/lastmile_qr_scan", "android": "https://dc.lft.to/lastmile_qr_scan"}, "is_reserved": 0, "fusion_lon": 0.0, "lat": 38.911161666666665, "type": "electric_scooter", "name": "e9b4cba98b1708e6e96540de5b1d48a6", "bike_id": "e9b4cba98b1708e6e96540de5b1d48a6", "fusion_lat": 0.0, "lon": -77.04363516666666}, {"is_disabled": 0, "rental_uris": {"ios": "https://dc.lft.to/lastmile_qr_scan", "android": "https://dc.lft.to/lastmile_qr_scan"}, "is_reserved": 0, "fusion_lon": 0.0, "lat": 38.85946216666667, "type": "electric_scooter", "name": "48be389ccd912a9c8c1f5b4b64ce4027", "bike_id": "48be389ccd912a9c8c1f5b4b64ce4027", "fusion_lat": 0.0, "lon": -76.9868635}, {"is_disabled": 0, "rental_uris": {"ios": "https://dc.lft.to/lastmile_qr_scan", "android": "https://dc.lft.to/lastmile_qr_scan"}, "is_reserved": 0, "fusion_lon": 0.0, "lat": 38.884042, "type": "electric_scooter", "name": "f0aea9b7c1636ed5d52ec4e3f6e7e3b4", "bike_id": "f0aea9b7c1636ed5d52ec4e3f6e7e3b4", "fusion_lat": 0.0, "lon": -76.99626233333333}, {"is_disabled": 0, "rental_uris": {"ios": "https://dc.lft.to/lastmile_qr_scan", "android": "https://dc.lft.to/lastmile_qr_scan"}, "is_reserved": 0, "fusion_lon": 0.0, "lat": 38.898477, "type": "electric_scooter", "name": "5a199fdd8ee9132cb40ed42b79e0fad9", "bike_id": "5a199fdd8ee9132cb40ed42b79e0fad9", "fusion_lat": 0.0, "lon": -77.02375816666667}, {"is_disabled": 0, "rental_uris": {"ios": "https://dc.lft.to/lastmile_qr_scan", "android": "https://dc.lft.to/lastmile_qr_scan"}, "is_reserved": 0, "fusion_lon": 0.0, "lat": 38.927928, "type": "electric_scooter", "name": "5c8a788c0e6f6be7903355b7cef6c836", "bike_id": "5c8a788c0e6f6be7903355b7cef6c836", "fusion_lat": 0.0, "lon": -77.05331416666667}, {"is_disabled": 0, "rental_uris": {"ios": "https://dc.lft.to/lastmile_qr_scan", "android": "https://dc.lft.to/lastmile_qr_scan"}, "is_reserved": 0, "fusion_lon": 0.0, "lat": 38.89684466666667, "type": "electric_scooter", "name": "cefc251ede72d7ebe48d39d9b5c500c5", "bike_id": "cefc251ede72d7ebe48d39d9b5c500c5", "fusion_lat": 0.0, "lon": -76.93909733333334}, {"is_disabled": 0, "rental_uris": {"ios": "https://dc.lft.to/lastmile_qr_scan", "android": "https://dc.lft.to/lastmile_qr_scan"}, "is_reserved": 0, "fusion_lon": 0.0, "lat": 38.91014766666667, "type": "electric_scooter", "name": "7d244cf98aad43b107f04e66109f9271", "bike_id": "7d244cf98aad43b107f04e66109f9271", "fusion_lat": 0.0, "lon": -77.04454883333334}, {"is_disabled": 0, "rental_uris": {"ios": "https://dc.lft.to/lastmile_qr_scan", "android": "https://dc.lft.to/lastmile_qr_scan"}, "is_reserved": 0, "fusion_lon": 0.0, "lat": 38.928794, "type": "electric_scooter", "name": "27e7eb6c4160d5e79da7601f8caaacb0", "bike_id": "27e7eb6c4160d5e79da7601f8caaacb0", "fusion_lat": 0.0, "lon": -77.03339766666667}, {"is_disabled": 0, "rental_uris": {"ios": "https://dc.lft.to/lastmile_qr_scan", "android": "https://dc.lft.to/lastmile_qr_scan"}, "is_reserved": 0, "fusion_lon": 0.0, "lat": 38.89487416666667, "type": "electric_scooter", "name": "d36aec4f026c4fb07cd8129f11afb76c", "bike_id": "d36aec4f026c4fb07cd8129f11afb76c", "fusion_lat": 0.0, "lon": -77.021067}, {"is_disabled": 0, "rental_uris": {"ios": "https://dc.lft.to/lastmile_qr_scan", "android": "https://dc.lft.to/lastmile_qr_scan"}, "is_reserved": 0, "fusion_lon": 0.0, "lat": 38.92464833333333, "type": "electric_scooter", "name": "b92afc6b32b0f93407555b2648c46cde", "bike_id": "b92afc6b32b0f93407555b2648c46cde", "fusion_lat": 0.0, "lon": -77.03074566666666}, {"is_disabled": 0, "rental_uris": {"ios": "https://dc.lft.to/lastmile_qr_scan", "android": "https://dc.lft.to/lastmile_qr_scan"}, "is_reserved": 0, "fusion_lon": 0.0, "lat": 38.952479333333336, "type": "electric_scooter", "name": "936b54114f3de38a72073561e7e6f3a0", "bike_id": "936b54114f3de38a72073561e7e6f3a0", "fusion_lat": 0.0, "lon": -77.08170266666667}, {"is_disabled": 0, "rental_uris": {"ios": "https://dc.lft.to/lastmile_qr_scan", "android": "https://dc.lft.to/lastmile_qr_scan"}, "is_reserved": 0, "fusion_lon": 0.0, "lat": 38.9119155, "type": "electric_scooter", "name": "51b82ea52d10e8b8d047bd801a5a79c1", "bike_id": "51b82ea52d10e8b8d047bd801a5a79c1", "fusion_lat": 0.0, "lon": -77.04049033333334}, {"is_disabled": 0, "rental_uris": {"ios": "https://dc.lft.to/lastmile_qr_scan", "android": "https://dc.lft.to/lastmile_qr_scan"}, "is_reserved": 0, "fusion_lon": 0.0, "lat": 38.960453, "type": "electric_scooter", "name": "22f3ac50f05ae5b2f58c0b1140f018a4", "bike_id": "22f3ac50f05ae5b2f58c0b1140f018a4", "fusion_lat": 0.0, "lon": -77.00513283333333}, {"is_disabled": 0, "rental_uris": {"ios": "https://dc.lft.to/lastmile_qr_scan", "android": "https://dc.lft.to/lastmile_qr_scan"}, "is_reserved": 0, "fusion_lon": 0.0, "lat": 38.93059866666667, "type": "electric_scooter", "name": "3c2fe0d19d5bf5c61e498c5cf90565fc", "bike_id": "3c2fe0d19d5bf5c61e498c5cf90565fc", "fusion_lat": 0.0, "lon": -77.04338483333333}, {"is_disabled": 0, "rental_uris": {"ios": "https://dc.lft.to/lastmile_qr_scan", "android": "https://dc.lft.to/lastmile_qr_scan"}, "is_reserved": 0, "fusion_lon": 0.0, "lat": 38.9055795, "type": "electric_scooter", "name": "541ba25950d3034d4105147e5e4c5301", "bike_id": "541ba25950d3034d4105147e5e4c5301", "fusion_lat": 0.0, "lon": -77.02494833333333}, {"is_disabled": 0, "rental_uris": {"ios": "https://dc.lft.to/lastmile_qr_scan", "android": "https://dc.lft.to/lastmile_qr_scan"}, "is_reserved": 0, "fusion_lon": 0.0, "lat": 38.929548, "type": "electric_scooter", "name": "10d77ff328811147cac8ce9e5d63603a", "bike_id": "10d77ff328811147cac8ce9e5d63603a", "fusion_lat": 0.0, "lon": -77.027796}, {"is_disabled": 0, "rental_uris": {"ios": "https://dc.lft.to/lastmile_qr_scan", "android": "https://dc.lft.to/lastmile_qr_scan"}, "is_reserved": 0, "fusion_lon": 0.0, "lat": 38.90783866666666, "type": "electric_scooter", "name": "ae87269e9962abb1c9c6a93d9d057a1b", "bike_id": "ae87269e9962abb1c9c6a93d9d057a1b", "fusion_lat": 0.0, "lon": -76.997065}, {"is_disabled": 0, "rental_uris": {"ios": "https://dc.lft.to/lastmile_qr_scan", "android": "https://dc.lft.to/lastmile_qr_scan"}, "is_reserved": 0, "fusion_lon": 0.0, "lat": 38.93658816666667, "type": "electric_scooter", "name": "a3314adf296def12102773db94e3fd46", "bike_id": "a3314adf296def12102773db94e3fd46", "fusion_lat": 0.0, "lon": -77.066115}, {"is_disabled": 0, "rental_uris": {"ios": "https://dc.lft.to/lastmile_qr_scan", "android": "https://dc.lft.to/lastmile_qr_scan"}, "is_reserved": 0, "fusion_lon": 0.0, "lat": 38.8922095, "type": "electric_scooter", "name": "d4990c434eb04117c1ef7da668e850b8", "bike_id": "d4990c434eb04117c1ef7da668e850b8", "fusion_lat": 0.0, "lon": -77.03341}, {"is_disabled": 0, "rental_uris": {"ios": "https://dc.lft.to/lastmile_qr_scan", "android": "https://dc.lft.to/lastmile_qr_scan"}, "is_reserved": 0, "fusion_lon": 0.0, "lat": 38.892565166666664, "type": "electric_scooter", "name": "0f61729cc25df0331faffdb4ea0605b8", "bike_id": "0f61729cc25df0331faffdb4ea0605b8", "fusion_lat": 0.0, "lon": -77.04661166666666}, {"is_disabled": 0, "rental_uris": {"ios": "https://dc.lft.to/lastmile_qr_scan", "android": "https://dc.lft.to/lastmile_qr_scan"}, "is_reserved": 0, "fusion_lon": 0.0, "lat": 38.89403083333333, "type": "electric_scooter", "name": "f393de767e3b4d4409dabce9929001e3", "bike_id": "f393de767e3b4d4409dabce9929001e3", "fusion_lat": 0.0, "lon": -77.03217}, {"is_disabled": 0, "rental_uris": {"ios": "https://dc.lft.to/lastmile_qr_scan", "android": "https://dc.lft.to/lastmile_qr_scan"}, "is_reserved": 0, "fusion_lon": 0.0, "lat": 38.91442633333333, "type": "electric_scooter", "name": "33d7ddfeb5772c8b72c4a7a2fa71b6d4", "bike_id": "33d7ddfeb5772c8b72c4a7a2fa71b6d4", "fusion_lat": 0.0, "lon": -77.03677966666666}, {"is_disabled": 0, "rental_uris": {"ios": "https://dc.lft.to/lastmile_qr_scan", "android": "https://dc.lft.to/lastmile_qr_scan"}, "is_reserved": 0, "fusion_lon": 0.0, "lat": 38.99896066666667, "type": "electric_bike", "name": "7d5095338656522303b4e6c29f63b6d5", "bike_id": "7d5095338656522303b4e6c29f63b6d5", "fusion_lat": 0.0, "lon": -76.911275}, {"is_disabled": 0, "rental_uris": {"ios": "https://dc.lft.to/lastmile_qr_scan", "android": "https://dc.lft.to/lastmile_qr_scan"}, "is_reserved": 0, "fusion_lon": 0.0, "lat": 38.94272, "type": "electric_scooter", "name": "9814b27a79b29461b89adfa10bca6d97", "bike_id": "9814b27a79b29461b89adfa10bca6d97", "fusion_lat": 0.0, "lon": -77.06711433333334}, {"is_disabled": 0, "rental_uris": {"ios": "https://dc.lft.to/lastmile_qr_scan", "android": "https://dc.lft.to/lastmile_qr_scan"}, "is_reserved": 0, "fusion_lon": 0.0, "lat": 38.898258166666665, "type": "electric_scooter", "name": "af4406415e0e3dbccb52df84d02de1fb", "bike_id": "af4406415e0e3dbccb52df84d02de1fb", "fusion_lat": 0.0, "lon": -77.04332166666667}, {"is_disabled": 0, "rental_uris": {"ios": "https://dc.lft.to/lastmile_qr_scan", "android": "https://dc.lft.to/lastmile_qr_scan"}, "is_reserved": 0, "fusion_lon": 0.0, "lat": 38.92686666666667, "type": "electric_scooter", "name": "d1ea9d8ad54704bab6f58c0db72a4afd", "bike_id": "d1ea9d8ad54704bab6f58c0db72a4afd", "fusion_lat": 0.0, "lon": -77.02304366666667}, {"is_disabled": 0, "rental_uris": {"ios": "https://dc.lft.to/lastmile_qr_scan", "android": "https://dc.lft.to/lastmile_qr_scan"}, "is_reserved": 0, "fusion_lon": 0.0, "lat": 38.904387666666665, "type": "electric_bike", "name": "4b8835f4ea658e379bec7b8899d2ddc1", "bike_id": "4b8835f4ea658e379bec7b8899d2ddc1", "fusion_lat": 0.0, "lon": -76.97232433333333}, {"is_disabled": 0, "rental_uris": {"ios": "https://dc.lft.to/lastmile_qr_scan", "android": "https://dc.lft.to/lastmile_qr_scan"}, "is_reserved": 0, "fusion_lon": 0.0, "lat": 38.92484666666667, "type": "electric_scooter", "name": "434fc6cebfd8af40a8915fe62225b14e", "bike_id": "434fc6cebfd8af40a8915fe62225b14e", "fusion_lat": 0.0, "lon": -77.0216025}, {"is_disabled": 0, "rental_uris": {"ios": "https://dc.lft.to/lastmile_qr_scan", "android": "https://dc.lft.to/lastmile_qr_scan"}, "is_reserved": 0, "fusion_lon": 0.0, "lat": 38.9102975, "type": "electric_scooter", "name": "a167113f23d9fd4e5a3e33575ddb6a75", "bike_id": "a167113f23d9fd4e5a3e33575ddb6a75", "fusion_lat": 0.0, "lon": -77.0415505}, {"is_disabled": 0, "rental_uris": {"ios": "https://dc.lft.to/lastmile_qr_scan", "android": "https://dc.lft.to/lastmile_qr_scan"}, "is_reserved": 0, "fusion_lon": 0.0, "lat": 38.89620266666667, "type": "electric_scooter", "name": "22e65798f52bde985d0f6b10ceba02a2", "bike_id": "22e65798f52bde985d0f6b10ceba02a2", "fusion_lat": 0.0, "lon": -77.04462533333333}, {"is_disabled": 0, "rental_uris": {"ios": "https://dc.lft.to/lastmile_qr_scan", "android": "https://dc.lft.to/lastmile_qr_scan"}, "is_reserved": 0, "fusion_lon": 0.0, "lat": 38.91812016666667, "type": "electric_scooter", "name": "5700cf88f5c6d3369d3a2fc63313993b", "bike_id": "5700cf88f5c6d3369d3a2fc63313993b", "fusion_lat": 0.0, "lon": -77.03793016666667}, {"is_disabled": 0, "rental_uris": {"ios": "https://dc.lft.to/lastmile_qr_scan", "android": "https://dc.lft.to/lastmile_qr_scan"}, "is_reserved": 0, "fusion_lon": 0.0, "lat": 38.90582583333333, "type": "electric_scooter", "name": "3070d2379d95bbaff35108e7b4440e52", "bike_id": "3070d2379d95bbaff35108e7b4440e52", "fusion_lat": 0.0, "lon": -77.04387916666667}, {"is_disabled": 0, "rental_uris": {"ios": "https://dc.lft.to/lastmile_qr_scan", "android": "https://dc.lft.to/lastmile_qr_scan"}, "is_reserved": 0, "fusion_lon": 0.0, "lat": 38.904774, "type": "electric_scooter", "name": "8f63b9d056b046257cff93df74f0ee08", "bike_id": "8f63b9d056b046257cff93df74f0ee08", "fusion_lat": 0.0, "lon": -77.01707966666666}, {"is_disabled": 0, "rental_uris": {"ios": "https://dc.lft.to/lastmile_qr_scan", "android": "https://dc.lft.to/lastmile_qr_scan"}, "is_reserved": 0, "fusion_lon": 0.0, "lat": 38.925830833333336, "type": "electric_scooter", "name": "e2c86bb911518fa0d41c061497917525", "bike_id": "e2c86bb911518fa0d41c061497917525", "fusion_lat": 0.0, "lon": -77.030415}, {"is_disabled": 0, "rental_uris": {"ios": "https://dc.lft.to/lastmile_qr_scan", "android": "https://dc.lft.to/lastmile_qr_scan"}, "is_reserved": 0, "fusion_lon": 0.0, "lat": 38.995476, "type": "electric_bike", "name": "d894b0e70fe128d06fcc5227fffa28e8", "bike_id": "d894b0e70fe128d06fcc5227fffa28e8", "fusion_lat": 0.0, "lon": -77.074683}, {"is_disabled": 0, "rental_uris": {"ios": "https://dc.lft.to/lastmile_qr_scan", "android": "https://dc.lft.to/lastmile_qr_scan"}, "is_reserved": 0, "fusion_lon": 0.0, "lat": 38.93050266666667, "type": "electric_scooter", "name": "3b78f38b30a300f1ad02d67f244bdf00", "bike_id": "3b78f38b30a300f1ad02d67f244bdf00", "fusion_lat": 0.0, "lon": -77.04054016666667}, {"is_disabled": 0, "rental_uris": {"ios": "https://dc.lft.to/lastmile_qr_scan", "android": "https://dc.lft.to/lastmile_qr_scan"}, "is_reserved": 0, "fusion_lon": 0.0, "lat": 38.909631, "type": "electric_scooter", "name": "d9a7c5e4d9cc7f6370412a109f8b706b", "bike_id": "d9a7c5e4d9cc7f6370412a109f8b706b", "fusion_lat": 0.0, "lon": -77.0451965}, {"is_disabled": 0, "rental_uris": {"ios": "https://dc.lft.to/lastmile_qr_scan", "android": "https://dc.lft.to/lastmile_qr_scan"}, "is_reserved": 0, "fusion_lon": 0.0, "lat": 39.007243333333335, "type": "electric_bike", "name": "02bb07948243f1b5717024dd7962fc02", "bike_id": "02bb07948243f1b5717024dd7962fc02", "fusion_lat": 0.0, "lon": -76.98147166666666}, {"is_disabled": 0, "rental_uris": {"ios": "https://dc.lft.to/lastmile_qr_scan", "android": "https://dc.lft.to/lastmile_qr_scan"}, "is_reserved": 0, "fusion_lon": 0.0, "lat": 38.8678205, "type": "electric_bike", "name": "80ba2178229910d690badc5963952019", "bike_id": "80ba2178229910d690badc5963952019", "fusion_lat": 0.0, "lon": -77.066271}, {"is_disabled": 0, "rental_uris": {"ios": "https://dc.lft.to/lastmile_qr_scan", "android": "https://dc.lft.to/lastmile_qr_scan"}, "is_reserved": 0, "fusion_lon": 0.0, "lat": 38.93397366666667, "type": "electric_scooter", "name": "4ab4c449daee73ea4a9f753467d9a412", "bike_id": "4ab4c449daee73ea4a9f753467d9a412", "fusion_lat": 0.0, "lon": -77.05745483333334}, {"is_disabled": 0, "rental_uris": {"ios": "https://dc.lft.to/lastmile_qr_scan", "android": "https://dc.lft.to/lastmile_qr_scan"}, "is_reserved": 0, "fusion_lon": 0.0, "lat": 38.89831683333333, "type": "electric_scooter", "name": "8a3c3e27011dbba757cce2ea4c13fa53", "bike_id": "8a3c3e27011dbba757cce2ea4c13fa53", "fusion_lat": 0.0, "lon": -77.02721616666666}, {"is_disabled": 0, "rental_uris": {"ios": "https://dc.lft.to/lastmile_qr_scan", "android": "https://dc.lft.to/lastmile_qr_scan"}, "is_reserved": 0, "fusion_lon": 0.0, "lat": 38.8920855, "type": "electric_scooter", "name": "39b63715b3a6e36648b96fcc4eb9f05e", "bike_id": "39b63715b3a6e36648b96fcc4eb9f05e", "fusion_lat": 0.0, "lon": -76.998399}, {"is_disabled": 0, "rental_uris": {"ios": "https://dc.lft.to/lastmile_qr_scan", "android": "https://dc.lft.to/lastmile_qr_scan"}, "is_reserved": 0, "fusion_lon": 0.0, "lat": 38.9181405, "type": "electric_scooter", "name": "28618a3b95a92086478495d74b7019bb", "bike_id": "28618a3b95a92086478495d74b7019bb", "fusion_lat": 0.0, "lon": -77.040033}, {"is_disabled": 0, "rental_uris": {"ios": "https://dc.lft.to/lastmile_qr_scan", "android": "https://dc.lft.to/lastmile_qr_scan"}, "is_reserved": 0, "fusion_lon": 0.0, "lat": 38.9079655, "type": "electric_scooter", "name": "613c06dd1bafd90e7f5bd28ba80514ce", "bike_id": "613c06dd1bafd90e7f5bd28ba80514ce", "fusion_lat": 0.0, "lon": -77.04989933333333}, {"is_disabled": 0, "rental_uris": {"ios": "https://dc.lft.to/lastmile_qr_scan", "android": "https://dc.lft.to/lastmile_qr_scan"}, "is_reserved": 0, "fusion_lon": 0.0, "lat": 38.936271833333336, "type": "electric_scooter", "name": "5b73d33d66ec080321d2d6a8c7c5ad31", "bike_id": "5b73d33d66ec080321d2d6a8c7c5ad31", "fusion_lat": 0.0, "lon": -77.07305383333333}, {"is_disabled": 0, "rental_uris": {"ios": "https://dc.lft.to/lastmile_qr_scan", "android": "https://dc.lft.to/lastmile_qr_scan"}, "is_reserved": 0, "fusion_lon": 0.0, "lat": 38.904245833333334, "type": "electric_scooter", "name": "dcecf200bae16c7802d8c582f4211e75", "bike_id": "dcecf200bae16c7802d8c582f4211e75", "fusion_lat": 0.0, "lon": -77.0271755}, {"is_disabled": 0, "rental_uris": {"ios": "https://dc.lft.to/lastmile_qr_scan", "android": "https://dc.lft.to/lastmile_qr_scan"}, "is_reserved": 0, "fusion_lon": 0.0, "lat": 38.915505833333334, "type": "electric_scooter", "name": "1330506d673fa8d7b3c99a22c64485a9", "bike_id": "1330506d673fa8d7b3c99a22c64485a9", "fusion_lat": 0.0, "lon": -77.01187266666666}, {"is_disabled": 0, "rental_uris": {"ios": "https://dc.lft.to/lastmile_qr_scan", "android": "https://dc.lft.to/lastmile_qr_scan"}, "is_reserved": 0, "fusion_lon": 0.0, "lat": 38.93531383333333, "type": "electric_scooter", "name": "d6bc4323ebc0f93109a0f2fb24f2f6c7", "bike_id": "d6bc4323ebc0f93109a0f2fb24f2f6c7", "fusion_lat": 0.0, "lon": -77.07269816666667}, {"is_disabled": 0, "rental_uris": {"ios": "https://dc.lft.to/lastmile_qr_scan", "android": "https://dc.lft.to/lastmile_qr_scan"}, "is_reserved": 0, "fusion_lon": 0.0, "lat": 38.88120283333333, "type": "electric_scooter", "name": "1e8d58adb533a44c66f5af5ec8860a09", "bike_id": "1e8d58adb533a44c66f5af5ec8860a09", "fusion_lat": 0.0, "lon": -76.99300833333334}, {"is_disabled": 0, "rental_uris": {"ios": "https://dc.lft.to/lastmile_qr_scan", "android": "https://dc.lft.to/lastmile_qr_scan"}, "is_reserved": 0, "fusion_lon": 0.0, "lat": 38.935326333333336, "type": "electric_scooter", "name": "9c8f42356c3f16c68f354d8ebdaeb872", "bike_id": "9c8f42356c3f16c68f354d8ebdaeb872", "fusion_lat": 0.0, "lon": -77.0234895}, {"is_disabled": 0, "rental_uris": {"ios": "https://dc.lft.to/lastmile_qr_scan", "android": "https://dc.lft.to/lastmile_qr_scan"}, "is_reserved": 0, "fusion_lon": 0.0, "lat": 38.91415666666666, "type": "electric_scooter", "name": "440dec51459a5816881830e9752301a7", "bike_id": "440dec51459a5816881830e9752301a7", "fusion_lat": 0.0, "lon": -77.026782}, {"is_disabled": 0, "rental_uris": {"ios": "https://dc.lft.to/lastmile_qr_scan", "android": "https://dc.lft.to/lastmile_qr_scan"}, "is_reserved": 0, "fusion_lon": 0.0, "lat": 38.91641383333334, "type": "electric_scooter", "name": "ab018616353e8f55e0624dbfe5ad96e9", "bike_id": "ab018616353e8f55e0624dbfe5ad96e9", "fusion_lat": 0.0, "lon": -77.03216716666667}, {"is_disabled": 0, "rental_uris": {"ios": "https://dc.lft.to/lastmile_qr_scan", "android": "https://dc.lft.to/lastmile_qr_scan"}, "is_reserved": 0, "fusion_lon": 0.0, "lat": 38.912680333333334, "type": "electric_scooter", "name": "134617b43355b8da652cc11416ae9f21", "bike_id": "134617b43355b8da652cc11416ae9f21", "fusion_lat": 0.0, "lon": -77.04754333333334}, {"is_disabled": 0, "rental_uris": {"ios": "https://dc.lft.to/lastmile_qr_scan", "android": "https://dc.lft.to/lastmile_qr_scan"}, "is_reserved": 0, "fusion_lon": 0.0, "lat": 38.93039433333333, "type": "electric_scooter", "name": "c59eb2a5ba380ebaa612a90a5b124b54", "bike_id": "c59eb2a5ba380ebaa612a90a5b124b54", "fusion_lat": 0.0, "lon": -77.03217416666666}, {"is_disabled": 0, "rental_uris": {"ios": "https://dc.lft.to/lastmile_qr_scan", "android": "https://dc.lft.to/lastmile_qr_scan"}, "is_reserved": 0, "fusion_lon": 0.0, "lat": 38.90024433333333, "type": "electric_scooter", "name": "2d2b9beaf3825d23720617c1f726d1e9", "bike_id": "2d2b9beaf3825d23720617c1f726d1e9", "fusion_lat": 0.0, "lon": -76.9882105}, {"is_disabled": 0, "rental_uris": {"ios": "https://dc.lft.to/lastmile_qr_scan", "android": "https://dc.lft.to/lastmile_qr_scan"}, "is_reserved": 0, "fusion_lon": 0.0, "lat": 38.9497665, "type": "electric_scooter", "name": "b4febe0a4308f54aad813bc2d57fb4ff", "bike_id": "b4febe0a4308f54aad813bc2d57fb4ff", "fusion_lat": 0.0, "lon": -77.06751283333334}, {"is_disabled": 0, "rental_uris": {"ios": "https://dc.lft.to/lastmile_qr_scan", "android": "https://dc.lft.to/lastmile_qr_scan"}, "is_reserved": 0, "fusion_lon": 0.0, "lat": 38.90851383333333, "type": "electric_scooter", "name": "475b677aab4781295922e0111a6fa2f9", "bike_id": "475b677aab4781295922e0111a6fa2f9", "fusion_lat": 0.0, "lon": -77.02834216666666}, {"is_disabled": 0, "rental_uris": {"ios": "https://dc.lft.to/lastmile_qr_scan", "android": "https://dc.lft.to/lastmile_qr_scan"}, "is_reserved": 0, "fusion_lon": 0.0, "lat": 38.91285583333333, "type": "electric_scooter", "name": "150f2d8d0fd6c107ce9b4291c1ce3fd3", "bike_id": "150f2d8d0fd6c107ce9b4291c1ce3fd3", "fusion_lat": 0.0, "lon": -77.03864533333333}, {"is_disabled": 0, "rental_uris": {"ios": "https://dc.lft.to/lastmile_qr_scan", "android": "https://dc.lft.to/lastmile_qr_scan"}, "is_reserved": 0, "fusion_lon": 0.0, "lat": 38.956855, "type": "electric_scooter", "name": "f252528c58e47a1a11031dc50df91a8f", "bike_id": "f252528c58e47a1a11031dc50df91a8f", "fusion_lat": 0.0, "lon": -77.02232066666667}, {"is_disabled": 0, "rental_uris": {"ios": "https://dc.lft.to/lastmile_qr_scan", "android": "https://dc.lft.to/lastmile_qr_scan"}, "is_reserved": 0, "fusion_lon": 0.0, "lat": 38.95733333333333, "type": "electric_scooter", "name": "ec98d3583da994ab4259df37f30b35eb", "bike_id": "ec98d3583da994ab4259df37f30b35eb", "fusion_lat": 0.0, "lon": -77.0240805}, {"is_disabled": 0, "rental_uris": {"ios": "https://dc.lft.to/lastmile_qr_scan", "android": "https://dc.lft.to/lastmile_qr_scan"}, "is_reserved": 0, "fusion_lon": 0.0, "lat": 38.829061333333335, "type": "electric_bike", "name": "6fbac77a98378a27652e6c24c1c69911", "bike_id": "6fbac77a98378a27652e6c24c1c69911", "fusion_lat": 0.0, "lon": -77.07282316666667}, {"is_disabled": 0, "rental_uris": {"ios": "https://dc.lft.to/lastmile_qr_scan", "android": "https://dc.lft.to/lastmile_qr_scan"}, "is_reserved": 0, "fusion_lon": 0.0, "lat": 38.858111666666666, "type": "electric_scooter", "name": "f422fedd44444621816c851030826fca", "bike_id": "f422fedd44444621816c851030826fca", "fusion_lat": 0.0, "lon": -76.989911}, {"is_disabled": 0, "rental_uris": {"ios": "https://dc.lft.to/lastmile_qr_scan", "android": "https://dc.lft.to/lastmile_qr_scan"}, "is_reserved": 0, "fusion_lon": 0.0, "lat": 38.9122015, "type": "electric_scooter", "name": "55729ce8fa1472cca635f41e10ea065b", "bike_id": "55729ce8fa1472cca635f41e10ea065b", "fusion_lat": 0.0, "lon": -77.03206516666667}, {"is_disabled": 0, "rental_uris": {"ios": "https://dc.lft.to/lastmile_qr_scan", "android": "https://dc.lft.to/lastmile_qr_scan"}, "is_reserved": 0, "fusion_lon": 0.0, "lat": 38.88014033333333, "type": "electric_scooter", "name": "0653842cdfe53715d5d174faf82840d1", "bike_id": "0653842cdfe53715d5d174faf82840d1", "fusion_lat": 0.0, "lon": -76.98573183333333}, {"is_disabled": 0, "rental_uris": {"ios": "https://dc.lft.to/lastmile_qr_scan", "android": "https://dc.lft.to/lastmile_qr_scan"}, "is_reserved": 0, "fusion_lon": 0.0, "lat": 38.92434883333333, "type": "electric_scooter", "name": "c4d4f0a03fd75fdd288c50a5af02e6c8", "bike_id": "c4d4f0a03fd75fdd288c50a5af02e6c8", "fusion_lat": 0.0, "lon": -77.00073433333333}, {"is_disabled": 0, "rental_uris": {"ios": "https://dc.lft.to/lastmile_qr_scan", "android": "https://dc.lft.to/lastmile_qr_scan"}, "is_reserved": 0, "fusion_lon": 0.0, "lat": 38.910438666666664, "type": "electric_scooter", "name": "ded382aaebdceecc90cc8360e38dc9b1", "bike_id": "ded382aaebdceecc90cc8360e38dc9b1", "fusion_lat": 0.0, "lon": -77.0218765}, {"is_disabled": 0, "rental_uris": {"ios": "https://dc.lft.to/lastmile_qr_scan", "android": "https://dc.lft.to/lastmile_qr_scan"}, "is_reserved": 0, "fusion_lon": 0.0, "lat": 38.876857666666666, "type": "electric_scooter", "name": "b290e3e200839c9611c06df26148d9f4", "bike_id": "b290e3e200839c9611c06df26148d9f4", "fusion_lat": 0.0, "lon": -77.00068166666667}, {"is_disabled": 0, "rental_uris": {"ios": "https://dc.lft.to/lastmile_qr_scan", "android": "https://dc.lft.to/lastmile_qr_scan"}, "is_reserved": 0, "fusion_lon": 0.0, "lat": 38.92462166666667, "type": "electric_scooter", "name": "05ababe82a0dc3c44a56e67fb3e993db", "bike_id": "05ababe82a0dc3c44a56e67fb3e993db", "fusion_lat": 0.0, "lon": -77.02195166666667}, {"is_disabled": 0, "rental_uris": {"ios": "https://dc.lft.to/lastmile_qr_scan", "android": "https://dc.lft.to/lastmile_qr_scan"}, "is_reserved": 0, "fusion_lon": 0.0, "lat": 38.921113166666665, "type": "electric_scooter", "name": "2507c6326d1ba5413e8e37230de89823", "bike_id": "2507c6326d1ba5413e8e37230de89823", "fusion_lat": 0.0, "lon": -77.02066633333334}, {"is_disabled": 0, "rental_uris": {"ios": "https://dc.lft.to/lastmile_qr_scan", "android": "https://dc.lft.to/lastmile_qr_scan"}, "is_reserved": 0, "fusion_lon": 0.0, "lat": 38.94278, "type": "electric_scooter", "name": "0d1db5f665814d4b9bd205e3c0d4d488", "bike_id": "0d1db5f665814d4b9bd205e3c0d4d488", "fusion_lat": 0.0, "lon": -77.02929216666666}, {"is_disabled": 0, "rental_uris": {"ios": "https://dc.lft.to/lastmile_qr_scan", "android": "https://dc.lft.to/lastmile_qr_scan"}, "is_reserved": 0, "fusion_lon": 0.0, "lat": 38.87738083333333, "type": "electric_scooter", "name": "b0ebc399e35283209185f2ab3dead164", "bike_id": "b0ebc399e35283209185f2ab3dead164", "fusion_lat": 0.0, "lon": -77.017557}, {"is_disabled": 0, "rental_uris": {"ios": "https://dc.lft.to/lastmile_qr_scan", "android": "https://dc.lft.to/lastmile_qr_scan"}, "is_reserved": 0, "fusion_lon": 0.0, "lat": 38.89248533333333, "type": "electric_scooter", "name": "aa4db8f33f8172a9dd73fada3de50f24", "bike_id": "aa4db8f33f8172a9dd73fada3de50f24", "fusion_lat": 0.0, "lon": -77.04661516666667}, {"is_disabled": 0, "rental_uris": {"ios": "https://dc.lft.to/lastmile_qr_scan", "android": "https://dc.lft.to/lastmile_qr_scan"}, "is_reserved": 0, "fusion_lon": 0.0, "lat": 38.88353216666667, "type": "electric_scooter", "name": "175294cc484585cb57d48791bdf60932", "bike_id": "175294cc484585cb57d48791bdf60932", "fusion_lat": 0.0, "lon": -77.026058}, {"is_disabled": 0, "rental_uris": {"ios": "https://dc.lft.to/lastmile_qr_scan", "android": "https://dc.lft.to/lastmile_qr_scan"}, "is_reserved": 0, "fusion_lon": 0.0, "lat": 38.884902, "type": "electric_scooter", "name": "6967b29ff25e401389cef2af5f2c911b", "bike_id": "6967b29ff25e401389cef2af5f2c911b", "fusion_lat": 0.0, "lon": -77.00711516666667}, {"is_disabled": 0, "rental_uris": {"ios": "https://dc.lft.to/lastmile_qr_scan", "android": "https://dc.lft.to/lastmile_qr_scan"}, "is_reserved": 0, "fusion_lon": 0.0, "lat": 38.907979166666664, "type": "electric_scooter", "name": "454c907d90127f226846870f69671988", "bike_id": "454c907d90127f226846870f69671988", "fusion_lat": 0.0, "lon": -77.03836666666666}, {"is_disabled": 0, "rental_uris": {"ios": "https://dc.lft.to/lastmile_qr_scan", "android": "https://dc.lft.to/lastmile_qr_scan"}, "is_reserved": 0, "fusion_lon": 0.0, "lat": 38.92486016666667, "type": "electric_scooter", "name": "df38df118d5b7e66b2d215d5e057fd58", "bike_id": "df38df118d5b7e66b2d215d5e057fd58", "fusion_lat": 0.0, "lon": -77.0216615}, {"is_disabled": 0, "rental_uris": {"ios": "https://dc.lft.to/lastmile_qr_scan", "android": "https://dc.lft.to/lastmile_qr_scan"}, "is_reserved": 0, "fusion_lon": 0.0, "lat": 38.9184445, "type": "electric_scooter", "name": "aee0b97404719a1910870ddc64a32a0c", "bike_id": "aee0b97404719a1910870ddc64a32a0c", "fusion_lat": 0.0, "lon": -77.04021383333334}, {"is_disabled": 0, "rental_uris": {"ios": "https://dc.lft.to/lastmile_qr_scan", "android": "https://dc.lft.to/lastmile_qr_scan"}, "is_reserved": 0, "fusion_lon": 0.0, "lat": 38.93192616666666, "type": "electric_scooter", "name": "6eb4532e7401fc0e0d9e87f71ab26ec2", "bike_id": "6eb4532e7401fc0e0d9e87f71ab26ec2", "fusion_lat": 0.0, "lon": -77.02022683333334}, {"is_disabled": 0, "rental_uris": {"ios": "https://dc.lft.to/lastmile_qr_scan", "android": "https://dc.lft.to/lastmile_qr_scan"}, "is_reserved": 0, "fusion_lon": 0.0, "lat": 38.90013183333333, "type": "electric_scooter", "name": "d7b11ea0fae09abda6cde4b846c6864d", "bike_id": "d7b11ea0fae09abda6cde4b846c6864d", "fusion_lat": 0.0, "lon": -77.04496966666666}, {"is_disabled": 0, "rental_uris": {"ios": "https://dc.lft.to/lastmile_qr_scan", "android": "https://dc.lft.to/lastmile_qr_scan"}, "is_reserved": 0, "fusion_lon": 0.0, "lat": 38.916031333333336, "type": "electric_bike", "name": "47c6101a6976fd58517f50b2417369c4", "bike_id": "47c6101a6976fd58517f50b2417369c4", "fusion_lat": 0.0, "lon": -77.03204983333333}, {"is_disabled": 0, "rental_uris": {"ios": "https://dc.lft.to/lastmile_qr_scan", "android": "https://dc.lft.to/lastmile_qr_scan"}, "is_reserved": 0, "fusion_lon": 0.0, "lat": 39.084926333333335, "type": "electric_bike", "name": "76c51258efc4cb2e9675b31c2b0e906f", "bike_id": "76c51258efc4cb2e9675b31c2b0e906f", "fusion_lat": 0.0, "lon": -76.95056966666667}, {"is_disabled": 0, "rental_uris": {"ios": "https://dc.lft.to/lastmile_qr_scan", "android": "https://dc.lft.to/lastmile_qr_scan"}, "is_reserved": 0, "fusion_lon": 0.0, "lat": 38.905643166666664, "type": "electric_scooter", "name": "110397ab71667f6b78f729ee696d8cb9", "bike_id": "110397ab71667f6b78f729ee696d8cb9", "fusion_lat": 0.0, "lon": -77.00940066666666}, {"is_disabled": 0, "rental_uris": {"ios": "https://dc.lft.to/lastmile_qr_scan", "android": "https://dc.lft.to/lastmile_qr_scan"}, "is_reserved": 0, "fusion_lon": 0.0, "lat": 38.900687166666664, "type": "electric_scooter", "name": "c0c4f3eaf99faa322b33d4c041f5af4f", "bike_id": "c0c4f3eaf99faa322b33d4c041f5af4f", "fusion_lat": 0.0, "lon": -77.048772}, {"is_disabled": 0, "rental_uris": {"ios": "https://dc.lft.to/lastmile_qr_scan", "android": "https://dc.lft.to/lastmile_qr_scan"}, "is_reserved": 0, "fusion_lon": 0.0, "lat": 38.89196666666667, "type": "electric_scooter", "name": "05072d26e8e61a20b3c79ac3f466ef42", "bike_id": "05072d26e8e61a20b3c79ac3f466ef42", "fusion_lat": 0.0, "lon": -77.02474833333333}, {"is_disabled": 0, "rental_uris": {"ios": "https://dc.lft.to/lastmile_qr_scan", "android": "https://dc.lft.to/lastmile_qr_scan"}, "is_reserved": 0, "fusion_lon": 0.0, "lat": 38.917779833333334, "type": "electric_scooter", "name": "069bf33c66ce08c461f0730003476165", "bike_id": "069bf33c66ce08c461f0730003476165", "fusion_lat": 0.0, "lon": -77.03179866666666}, {"is_disabled": 0, "rental_uris": {"ios": "https://dc.lft.to/lastmile_qr_scan", "android": "https://dc.lft.to/lastmile_qr_scan"}, "is_reserved": 0, "fusion_lon": 0.0, "lat": 38.95347, "type": "electric_scooter", "name": "bfb2ef674fa68eb40428ed8fd0eb3e27", "bike_id": "bfb2ef674fa68eb40428ed8fd0eb3e27", "fusion_lat": 0.0, "lon": -77.08146683333334}, {"is_disabled": 0, "rental_uris": {"ios": "https://dc.lft.to/lastmile_qr_scan", "android": "https://dc.lft.to/lastmile_qr_scan"}, "is_reserved": 0, "fusion_lon": 0.0, "lat": 38.896133, "type": "electric_scooter", "name": "b53917eeb15a44d469d469ae2497da62", "bike_id": "b53917eeb15a44d469d469ae2497da62", "fusion_lat": 0.0, "lon": -77.0239135}, {"is_disabled": 0, "rental_uris": {"ios": "https://dc.lft.to/lastmile_qr_scan", "android": "https://dc.lft.to/lastmile_qr_scan"}, "is_reserved": 0, "fusion_lon": 0.0, "lat": 39.034733333333335, "type": "electric_bike", "name": "2c2165e1f13f1e08889b80cc312175ac", "bike_id": "2c2165e1f13f1e08889b80cc312175ac", "fusion_lat": 0.0, "lon": -77.01662766666666}, {"is_disabled": 0, "rental_uris": {"ios": "https://dc.lft.to/lastmile_qr_scan", "android": "https://dc.lft.to/lastmile_qr_scan"}, "is_reserved": 0, "fusion_lon": 0.0, "lat": 38.92437983333333, "type": "electric_scooter", "name": "5d3d523f70f3a9ffb6412547bc8ccf94", "bike_id": "5d3d523f70f3a9ffb6412547bc8ccf94", "fusion_lat": 0.0, "lon": -77.034058}, {"is_disabled": 0, "rental_uris": {"ios": "https://dc.lft.to/lastmile_qr_scan", "android": "https://dc.lft.to/lastmile_qr_scan"}, "is_reserved": 0, "fusion_lon": 0.0, "lat": 38.892608333333335, "type": "electric_scooter", "name": "a790bfa92b9eb4d6be70b3af72b2a327", "bike_id": "a790bfa92b9eb4d6be70b3af72b2a327", "fusion_lat": 0.0, "lon": -77.042031}, {"is_disabled": 0, "rental_uris": {"ios": "https://dc.lft.to/lastmile_qr_scan", "android": "https://dc.lft.to/lastmile_qr_scan"}, "is_reserved": 0, "fusion_lon": 0.0, "lat": 38.914890666666665, "type": "electric_scooter", "name": "b8b7427ec05d42f9850aae6fc078c35a", "bike_id": "b8b7427ec05d42f9850aae6fc078c35a", "fusion_lat": 0.0, "lon": -77.00955766666667}, {"is_disabled": 0, "rental_uris": {"ios": "https://dc.lft.to/lastmile_qr_scan", "android": "https://dc.lft.to/lastmile_qr_scan"}, "is_reserved": 0, "fusion_lon": 0.0, "lat": 38.91141666666667, "type": "electric_scooter", "name": "14fde78744f27f098e2e2d9d16ff9a5c", "bike_id": "14fde78744f27f098e2e2d9d16ff9a5c", "fusion_lat": 0.0, "lon": -77.03846166666666}, {"is_disabled": 0, "rental_uris": {"ios": "https://dc.lft.to/lastmile_qr_scan", "android": "https://dc.lft.to/lastmile_qr_scan"}, "is_reserved": 0, "fusion_lon": 0.0, "lat": 38.899642166666666, "type": "electric_scooter", "name": "c122868546644c313ebfcf7773e114c5", "bike_id": "c122868546644c313ebfcf7773e114c5", "fusion_lat": 0.0, "lon": -77.04652416666667}, {"is_disabled": 0, "rental_uris": {"ios": "https://dc.lft.to/lastmile_qr_scan", "android": "https://dc.lft.to/lastmile_qr_scan"}, "is_reserved": 0, "fusion_lon": 0.0, "lat": 38.996785833333334, "type": "electric_bike", "name": "6aa3acadd562391350ab39fefdc7c914", "bike_id": "6aa3acadd562391350ab39fefdc7c914", "fusion_lat": 0.0, "lon": -77.03789816666666}, {"is_disabled": 0, "rental_uris": {"ios": "https://dc.lft.to/lastmile_qr_scan", "android": "https://dc.lft.to/lastmile_qr_scan"}, "is_reserved": 0, "fusion_lon": 0.0, "lat": 38.898745, "type": "electric_scooter", "name": "fa73ce71a81091e4354a09c47a162aed", "bike_id": "fa73ce71a81091e4354a09c47a162aed", "fusion_lat": 0.0, "lon": -77.02968666666666}, {"is_disabled": 0, "rental_uris": {"ios": "https://dc.lft.to/lastmile_qr_scan", "android": "https://dc.lft.to/lastmile_qr_scan"}, "is_reserved": 0, "fusion_lon": 0.0, "lat": 38.9197585, "type": "electric_bike", "name": "6c6549e5492a143aef2b51bb0769190d", "bike_id": "6c6549e5492a143aef2b51bb0769190d", "fusion_lat": 0.0, "lon": -77.04224166666667}, {"is_disabled": 0, "rental_uris": {"ios": "https://dc.lft.to/lastmile_qr_scan", "android": "https://dc.lft.to/lastmile_qr_scan"}, "is_reserved": 0, "fusion_lon": 0.0, "lat": 38.90528116666667, "type": "electric_scooter", "name": "92fc3babf89f65bdad119e6a4091144f", "bike_id": "92fc3babf89f65bdad119e6a4091144f", "fusion_lat": 0.0, "lon": -77.06523966666667}, {"is_disabled": 0, "rental_uris": {"ios": "https://dc.lft.to/lastmile_qr_scan", "android": "https://dc.lft.to/lastmile_qr_scan"}, "is_reserved": 0, "fusion_lon": 0.0, "lat": 38.9510435, "type": "electric_scooter", "name": "193b76b8d2f091c656ae6d727ae0726f", "bike_id": "193b76b8d2f091c656ae6d727ae0726f", "fusion_lat": 0.0, "lon": -77.01581383333334}, {"is_disabled": 0, "rental_uris": {"ios": "https://dc.lft.to/lastmile_qr_scan", "android": "https://dc.lft.to/lastmile_qr_scan"}, "is_reserved": 0, "fusion_lon": 0.0, "lat": 38.918891333333335, "type": "electric_scooter", "name": "2cea3125b51cde6f1c9c10d8bf20eb2c", "bike_id": "2cea3125b51cde6f1c9c10d8bf20eb2c", "fusion_lat": 0.0, "lon": -77.04035783333333}, {"is_disabled": 0, "rental_uris": {"ios": "https://dc.lft.to/lastmile_qr_scan", "android": "https://dc.lft.to/lastmile_qr_scan"}, "is_reserved": 0, "fusion_lon": 0.0, "lat": 38.91731866666667, "type": "electric_scooter", "name": "24017bc28e334a368d0b699a67264e85", "bike_id": "24017bc28e334a368d0b699a67264e85", "fusion_lat": 0.0, "lon": -77.01458083333333}, {"is_disabled": 0, "rental_uris": {"ios": "https://dc.lft.to/lastmile_qr_scan", "android": "https://dc.lft.to/lastmile_qr_scan"}, "is_reserved": 0, "fusion_lon": 0.0, "lat": 38.934480666666666, "type": "electric_scooter", "name": "cecc08c64fbdf5e7248d060ee4c94c52", "bike_id": "cecc08c64fbdf5e7248d060ee4c94c52", "fusion_lat": 0.0, "lon": -77.089624}, {"is_disabled": 0, "rental_uris": {"ios": "https://dc.lft.to/lastmile_qr_scan", "android": "https://dc.lft.to/lastmile_qr_scan"}, "is_reserved": 0, "fusion_lon": 0.0, "lat": 38.9073445, "type": "electric_scooter", "name": "da856bef9941ae61175e450aa7ab7ff7", "bike_id": "da856bef9941ae61175e450aa7ab7ff7", "fusion_lat": 0.0, "lon": -77.03072816666666}, {"is_disabled": 0, "rental_uris": {"ios": "https://dc.lft.to/lastmile_qr_scan", "android": "https://dc.lft.to/lastmile_qr_scan"}, "is_reserved": 0, "fusion_lon": 0.0, "lat": 38.896149666666666, "type": "electric_scooter", "name": "141ce3d3ae3b3e50b646e7032882a5b6", "bike_id": "141ce3d3ae3b3e50b646e7032882a5b6", "fusion_lat": 0.0, "lon": -77.02723666666667}, {"is_disabled": 0, "rental_uris": {"ios": "https://dc.lft.to/lastmile_qr_scan", "android": "https://dc.lft.to/lastmile_qr_scan"}, "is_reserved": 0, "fusion_lon": 0.0, "lat": 38.908490666666665, "type": "electric_scooter", "name": "cd4b8997e3a3f86e1975ec9e14859bee", "bike_id": "cd4b8997e3a3f86e1975ec9e14859bee", "fusion_lat": 0.0, "lon": -77.00211766666666}, {"is_disabled": 0, "rental_uris": {"ios": "https://dc.lft.to/lastmile_qr_scan", "android": "https://dc.lft.to/lastmile_qr_scan"}, "is_reserved": 0, "fusion_lon": 0.0, "lat": 38.892283666666664, "type": "electric_scooter", "name": "9b1ac5bc2ec6a84f0044c98bae5bc75e", "bike_id": "9b1ac5bc2ec6a84f0044c98bae5bc75e", "fusion_lat": 0.0, "lon": -77.05000233333334}, {"is_disabled": 0, "rental_uris": {"ios": "https://dc.lft.to/lastmile_qr_scan", "android": "https://dc.lft.to/lastmile_qr_scan"}, "is_reserved": 0, "fusion_lon": 0.0, "lat": 38.895095166666664, "type": "electric_scooter", "name": "bc86a9099c80d578fae8f73b57f99a6b", "bike_id": "bc86a9099c80d578fae8f73b57f99a6b", "fusion_lat": 0.0, "lon": -76.97730566666667}, {"is_disabled": 0, "rental_uris": {"ios": "https://dc.lft.to/lastmile_qr_scan", "android": "https://dc.lft.to/lastmile_qr_scan"}, "is_reserved": 0, "fusion_lon": 0.0, "lat": 38.91267233333333, "type": "electric_scooter", "name": "b5c12c0352b86c8197160da9b213b5a0", "bike_id": "b5c12c0352b86c8197160da9b213b5a0", "fusion_lat": 0.0, "lon": -77.02450433333334}, {"is_disabled": 0, "rental_uris": {"ios": "https://dc.lft.to/lastmile_qr_scan", "android": "https://dc.lft.to/lastmile_qr_scan"}, "is_reserved": 0, "fusion_lon": 0.0, "lat": 38.93057066666667, "type": "electric_scooter", "name": "ad85ea343b9152931fa0b0d3483925c6", "bike_id": "ad85ea343b9152931fa0b0d3483925c6", "fusion_lat": 0.0, "lon": -77.02850483333333},