{"data": {"bikes": [{"is_reserved": 0, "type": "electric_scooter", "bike_id": "6b18024ed80694b460c0184bee9cb8d4", "lat": 38.905706333333335, "lon": -77.01852916666667, "rental_uris": {"android": "https://dc.lft.to/lastmile_qr_scan", "ios": "https://dc.lft.to/lastmile_qr_scan"}, "is_disabled": 0, "fusion_lat": 0.0, "name": "6b18024ed80694b460c0184bee9cb8d4", "fusion_lon": 0.0}, {"is_reserved": 0, "type": "electric_bike", "bike_id": "11144ed3e6c9bb6b543c2205b6674157", "lat": 38.867558833333334, "lon": -76.9452885, "rental_uris": {"android": "https://dc.lft.to/lastmile_qr_scan", "ios": "https://dc.lft.to/lastmile_qr_scan"}, "is_disabled": 0, "fusion_lat": 0.0, "name": "11144ed3e6c9bb6b543c2205b6674157", "fusion_lon": 0.0}, {"is_reserved": 0, "type": "electric_scooter", "bike_id": "c40bf86aa4f5021acbf830321e72b38e", "lat": 38.895880166666664, "lon": -77.02179016666666, "rental_uris": {"android": "https://dc.lft.to/lastmile_qr_scan", "ios": "https://dc.lft.to/lastmile_qr_scan"}, "is_disabled": 0, "fusion_lat": 0.0, "name": "c40bf86aa4f5021acbf830321e72b38e", "fusion_lon": 0.0}, {"is_reserved": 0, "type": "electric_scooter", "bike_id": "df8eebbe8a98d502efe29a382914623a", "lat": 38.88775316666667, "lon": -76.9326285, "rental_uris": {"android": "https://dc.lft.to/lastmile_qr_scan", "ios": "https://dc.lft.to/lastmile_qr_scan"}, "is_disabled": 0, "fusion_lat": 0.0, "name": "df8eebbe8a98d502efe29a382914623a", "fusion_lon": 0.0}, {"is_reserved": 0, "type": "electric_scooter", "bike_id": "a40c9083df22964c96201fa76923fbbd", "lat": 38.881201, "lon": -77.01974983333334, "rental_uris": {"android": "https://dc.lft.to/lastmile_qr_scan", "ios": "https://dc.lft.to/lastmile_qr_scan"}, "is_disabled": 0, "fusion_lat": 0.0, "name": "a40c9083df22964c96201fa76923fbbd", "fusion_lon": 0.0}, {"is_reserved": 0, "type": "electric_bike", "bike_id": "fb67106cfb586c3c25d43febaf5f1668", "lat": 38.9386475, "lon": -77.02649283333334, "rental_uris": {"android": "https://dc.lft.to/lastmile_qr_scan", "ios": "https://dc.lft.to/lastmile_qr_scan"}, "is_disabled": 0, "fusion_lat": 0.0, "name": "fb67106cfb586c3c25d43febaf5f1668", "fusion_lon": 0.0}, {"is_reserved": 0, "type": "electric_scooter", "bike_id": "0f4d97ecce2c0807320696505bf08661", "lat": 38.9214175, "lon": -77.04484466666666, "rental_uris": {"android": "https://dc.lft.to/lastmile_qr_scan", "ios": "https://dc.lft.to/lastmile_qr_scan"}, "is_disabled": 0, "fusion_lat": 0.0, "name": "0f4d97ecce2c0807320696505bf08661", "fusion_lon": 0.0}, {"is_reserved": 0, "type": "electric_scooter", "bike_id": "a5e7c2843f3c1c18519d7499d94c7863", "lat": 38.920667333333334, "lon": -77.04195683333333, "rental_uris": {"android": "https://dc.lft.to/lastmile_qr_scan", "ios": "https://dc.lft.to/lastmile_qr_scan"}, "is_disabled": 0, "fusion_lat": 0.0, "name": "a5e7c2843f3c1c18519d7499d94c7863", "fusion_lon": 0.0}, {"is_reserved": 0, "type": "electric_scooter", "bike_id": "49df1554efefa100e1b285a467b42886", "lat": 38.905108166666665, "lon": -77.06770833333333, "rental_uris": {"android": "https://dc.lft.to/lastmile_qr_scan", "ios": "https://dc.lft.to/lastmile_qr_scan"}, "is_disabled": 0, "fusion_lat": 0.0, "name": "49df1554efefa100e1b285a467b42886", "fusion_lon": 0.0}, {"is_reserved": 0, "type": "electric_bike", "bike_id": "5d908166017d58eee146498363ceff5f", "lat": 38.99491366666667, "lon": -77.02892383333334, "rental_uris": {"android": "https://dc.lft.to/lastmile_qr_scan", "ios": "https://dc.lft.to/lastmile_qr_scan"}, "is_disabled": 0, "fusion_lat": 0.0, "name": "5d908166017d58eee146498363ceff5f", "fusion_lon": 0.0}, {"is_reserved": 0, "type": "electric_scooter", "bike_id": "cd5167876d5446fe26c077d82914de41", "lat": 38.899348333333336, "lon": -77.03212716666667, "rental_uris": {"android": "https://dc.lft.to/lastmile_qr_scan", "ios": "https://dc.lft.to/lastmile_qr_scan"}, "is_disabled": 0, "fusion_lat": 0.0, "name": "cd5167876d5446fe26c077d82914de41", "fusion_lon": 0.0}, {"is_reserved": 0, "type": "electric_scooter", "bike_id": "ccd5e2c38ac25d11d69e02413283e9b0", "lat": 38.918461, "lon": -77.03516416666666, "rental_uris": {"android": "https://dc.lft.to/lastmile_qr_scan", "ios": "https://dc.lft.to/lastmile_qr_scan"}, "is_disabled": 0, "fusion_lat": 0.0, "name": "ccd5e2c38ac25d11d69e02413283e9b0", "fusion_lon": 0.0}, {"is_reserved": 0, "type": "electric_scooter", "bike_id": "e5dccb0159c28be38da04e739fd393a2", "lat": 38.92365983333333, "lon": -77.036607, "rental_uris": {"android": "https://dc.lft.to/lastmile_qr_scan", "ios": "https://dc.lft.to/lastmile_qr_scan"}, "is_disabled": 0, "fusion_lat": 0.0, "name": "e5dccb0159c28be38da04e739fd393a2", "fusion_lon": 0.0}, {"is_reserved": 0, "type": "electric_scooter", "bike_id": "cf5427b04e28b72bded37ea7f91451ae", "lat": 38.917765833333334, "lon": -77.02407216666667, "rental_uris": {"android": "https://dc.lft.to/lastmile_qr_scan", "ios": "https://dc.lft.to/lastmile_qr_scan"}, "is_disabled": 0, "fusion_lat": 0.0, "name": "cf5427b04e28b72bded37ea7f91451ae", "fusion_lon": 0.0}, {"is_reserved": 0, "type": "electric_bike", "bike_id": "422eaf19568433eec76829d32f192cc6", "lat": 38.840500166666665, "lon": -77.05599133333334, "rental_uris": {"android": "https://dc.lft.to/lastmile_qr_scan", "ios": "https://dc.lft.to/lastmile_qr_scan"}, "is_disabled": 0, "fusion_lat": 0.0, "name": "422eaf19568433eec76829d32f192cc6", "fusion_lon": 0.0}, {"is_reserved": 0, "type": "electric_scooter", "bike_id": "f3c3e81695c58054231c97d0ef12e15c", "lat": 38.896101333333334, "lon": -77.0226895, "rental_uris": {"android": "https://dc.lft.to/lastmile_qr_scan", "ios": "https://dc.lft.to/lastmile_qr_scan"}, "is_disabled": 0, "fusion_lat": 0.0, "name": "f3c3e81695c58054231c97d0ef12e15c", "fusion_lon": 0.0}, {"is_reserved": 0, "type": "electric_scooter", "bike_id": "39cf53491bf2ace615d52ccd64d6b59c", "lat": 38.92585733333333, "lon": -77.012191, "rental_uris": {"android": "https://dc.lft.to/lastmile_qr_scan", "ios": "https://dc.lft.to/lastmile_qr_scan"}, "is_disabled": 0, "fusion_lat": 0.0, "name": "39cf53491bf2ace615d52ccd64d6b59c", "fusion_lon": 0.0}, {"is_reserved": 0, "type": "electric_scooter", "bike_id": "6a74202f22c3885c74305bc04be5c25c", "lat": 38.9157075, "lon": -77.036391, "rental_uris": {"android": "https://dc.lft.to/lastmile_qr_scan", "ios": "https://dc.lft.to/lastmile_qr_scan"}, "is_disabled": 0, "fusion_lat": 0.0, "name": "6a74202f22c3885c74305bc04be5c25c", "fusion_lon": 0.0}, {"is_reserved": 0, "type": "electric_scooter", "bike_id": "69680e28c65cf8da8c6b90bec931d84a", "lat": 38.921803, "lon": -76.99836666666667, "rental_uris": {"android": "https://dc.lft.to/lastmile_qr_scan", "ios": "https://dc.lft.to/lastmile_qr_scan"}, "is_disabled": 0, "fusion_lat": 0.0, "name": "69680e28c65cf8da8c6b90bec931d84a", "fusion_lon": 0.0}, {"is_reserved": 0, "type": "electric_scooter", "bike_id": "ba32dcbb12ca2d90a2fc847f7fac91a0", "lat": 38.86576216666667, "lon": -76.99030583333334, "rental_uris": {"android": "https://dc.lft.to/lastmile_qr_scan", "ios": "https://dc.lft.to/lastmile_qr_scan"}, "is_disabled": 0, "fusion_lat": 0.0, "name": "ba32dcbb12ca2d90a2fc847f7fac91a0", "fusion_lon": 0.0}, {"is_reserved": 0, "type": "electric_scooter", "bike_id": "88606cb323295bc111f63f7e739fbec6", "lat": 38.903553333333335, "lon": -77.0111495, "rental_uris": {"android": "https://dc.lft.to/lastmile_qr_scan", "ios": "https://dc.lft.to/lastmile_qr_scan"}, "is_disabled": 0, "fusion_lat": 0.0, "name": "88606cb323295bc111f63f7e739fbec6", "fusion_lon": 0.0}, {"is_reserved": 0, "type": "electric_scooter", "bike_id": "b79aa757f07ed36f4df6b57d496b8e5b", "lat": 38.94032033333333, "lon": -77.02639966666666, "rental_uris": {"android": "https://dc.lft.to/lastmile_qr_scan", "ios": "https://dc.lft.to/lastmile_qr_scan"}, "is_disabled": 0, "fusion_lat": 0.0, "name": "b79aa757f07ed36f4df6b57d496b8e5b", "fusion_lon": 0.0}, {"is_reserved": 0, "type": "electric_scooter", "bike_id": "846973d73f9318a4eeef287973d8bdbe", "lat": 38.909702, "lon": -77.04501366666666, "rental_uris": {"android": "https://dc.lft.to/lastmile_qr_scan", "ios": "https://dc.lft.to/lastmile_qr_scan"}, "is_disabled": 0, "fusion_lat": 0.0, "name": "846973d73f9318a4eeef287973d8bdbe", "fusion_lon": 0.0}, {"is_reserved": 0, "type": "electric_scooter", "bike_id": "361da47b73d60517fb2826d0bdb6efaf", "lat": 38.94180866666667, "lon": -77.02530183333333, "rental_uris": {"android": "https://dc.lft.to/lastmile_qr_scan", "ios": "https://dc.lft.to/lastmile_qr_scan"}, "is_disabled": 0, "fusion_lat": 0.0, "name": "361da47b73d60517fb2826d0bdb6efaf", "fusion_lon": 0.0}, {"is_reserved": 0, "type": "electric_bike", "bike_id": "6c819fddcb65193b796dab908642ef84", "lat": 38.895627, "lon": -77.12734966666666, "rental_uris": {"android": "https://dc.lft.to/lastmile_qr_scan", "ios": "https://dc.lft.to/lastmile_qr_scan"}, "is_disabled": 0, "fusion_lat": 0.0, "name": "6c819fddcb65193b796dab908642ef84", "fusion_lon": 0.0}, {"is_reserved": 0, "type": "electric_scooter", "bike_id": "41f22da79a83c98b75b058bf5f76d64a", "lat": 38.9170155, "lon": -77.03141166666667, "rental_uris": {"android": "https://dc.lft.to/lastmile_qr_scan", "ios": "https://dc.lft.to/lastmile_qr_scan"}, "is_disabled": 0, "fusion_lat": 0.0, "name": "41f22da79a83c98b75b058bf5f76d64a", "fusion_lon": 0.0}, {"is_reserved": 0, "type": "electric_scooter", "bike_id": "5e29490f2d015ba30ef00e47e332d260", "lat": 38.92298816666667, "lon": -76.98362366666667, "rental_uris": {"android": "https://dc.lft.to/lastmile_qr_scan", "ios": "https://dc.lft.to/lastmile_qr_scan"}, "is_disabled": 0, "fusion_lat": 0.0, "name": "5e29490f2d015ba30ef00e47e332d260", "fusion_lon": 0.0}, {"is_reserved": 0, "type": "electric_scooter", "bike_id": "1f8b5a21682097cc68a89ba94fe461bc", "lat": 38.91818983333334, "lon": -77.0271185, "rental_uris": {"android": "https://dc.lft.to/lastmile_qr_scan", "ios": "https://dc.lft.to/lastmile_qr_scan"}, "is_disabled": 0, "fusion_lat": 0.0, "name": "1f8b5a21682097cc68a89ba94fe461bc", "fusion_lon": 0.0}, {"is_reserved": 0, "type": "electric_scooter", "bike_id": "28b706de6f138b5642433674ae8dc51c", "lat": 38.9209055, "lon": -77.01782566666667, "rental_uris": {"android": "https://dc.lft.to/lastmile_qr_scan", "ios": "https://dc.lft.to/lastmile_qr_scan"}, "is_disabled": 0, "fusion_lat": 0.0, "name": "28b706de6f138b5642433674ae8dc51c", "fusion_lon": 0.0}, {"is_reserved": 0, "type": "electric_scooter", "bike_id": "c27f044f1b58af9a5951cf92382240d5", "lat": 38.90627583333333, "lon": -77.05137133333334, "rental_uris": {"android": "https://dc.lft.to/lastmile_qr_scan", "ios": "https://dc.lft.to/lastmile_qr_scan"}, "is_disabled": 0, "fusion_lat": 0.0, "name": "c27f044f1b58af9a5951cf92382240d5", "fusion_lon": 0.0}, {"is_reserved": 0, "type": "electric_scooter", "bike_id": "db2e86ee64eeec2f7b450f6a920cf3ba", "lat": 38.896867, "lon": -77.004936, "rental_uris": {"android": "https://dc.lft.to/lastmile_qr_scan", "ios": "https://dc.lft.to/lastmile_qr_scan"}, "is_disabled": 0, "fusion_lat": 0.0, "name": "db2e86ee64eeec2f7b450f6a920cf3ba", "fusion_lon": 0.0}, {"is_reserved": 0, "type": "electric_scooter", "bike_id": "d18c372b736344f6bf9be634b49210b1", "lat": 38.92602766666667, "lon": -77.02153733333333, "rental_uris": {"android": "https://dc.lft.to/lastmile_qr_scan", "ios": "https://dc.lft.to/lastmile_qr_scan"}, "is_disabled": 0, "fusion_lat": 0.0, "name": "d18c372b736344f6bf9be634b49210b1", "fusion_lon": 0.0}, {"is_reserved": 0, "type": "electric_scooter", "bike_id": "a35e06b9299a8035e8b3b655c1da6659", "lat": 38.915618, "lon": -77.03105616666667, "rental_uris": {"android": "https://dc.lft.to/lastmile_qr_scan", "ios": "https://dc.lft.to/lastmile_qr_scan"}, "is_disabled": 0, "fusion_lat": 0.0, "name": "a35e06b9299a8035e8b3b655c1da6659", "fusion_lon": 0.0}, {"is_reserved": 0, "type": "electric_scooter", "bike_id": "6537c2cda5ad7e81abc39a8f2cd445b9", "lat": 38.89234533333333, "lon": -77.0218025, "rental_uris": {"android": "https://dc.lft.to/lastmile_qr_scan", "ios": "https://dc.lft.to/lastmile_qr_scan"}, "is_disabled": 0, "fusion_lat": 0.0, "name": "6537c2cda5ad7e81abc39a8f2cd445b9", "fusion_lon": 0.0}, {"is_reserved": 0, "type": "electric_scooter", "bike_id": "4abe626bd3533b756067b29654b1e392", "lat": 38.8863585, "lon": -77.012856, "rental_uris": {"android": "https://dc.lft.to/lastmile_qr_scan", "ios": "https://dc.lft.to/lastmile_qr_scan"}, "is_disabled": 0, "fusion_lat": 0.0, "name": "4abe626bd3533b756067b29654b1e392", "fusion_lon": 0.0}, {"is_reserved": 0, "type": "electric_scooter", "bike_id": "94196e15ece395341e281a8bb881f17e", "lat": 38.92574183333333, "lon": -77.07859783333333, "rental_uris": {"android": "https://dc.lft.to/lastmile_qr_scan", "ios": "https://dc.lft.to/lastmile_qr_scan"}, "is_disabled": 0, "fusion_lat": 0.0, "name": "94196e15ece395341e281a8bb881f17e", "fusion_lon": 0.0}, {"is_reserved": 0, "type": "electric_scooter", "bike_id": "21223844b5978974cbd4de9cd5148d53", "lat": 38.9291925, "lon": -77.02009433333333, "rental_uris": {"android": "https://dc.lft.to/lastmile_qr_scan", "ios": "https://dc.lft.to/lastmile_qr_scan"}, "is_disabled": 0, "fusion_lat": 0.0, "name": "21223844b5978974cbd4de9cd5148d53", "fusion_lon": 0.0}, {"is_reserved": 0, "type": "electric_scooter", "bike_id": "a0fa0b3a8e3cbf80c271fb9c524f1093", "lat": 38.92284316666667, "lon": -77.04224416666666, "rental_uris": {"android": "https://dc.lft.to/lastmile_qr_scan", "ios": "https://dc.lft.to/lastmile_qr_scan"}, "is_disabled": 0, "fusion_lat": 0.0, "name": "a0fa0b3a8e3cbf80c271fb9c524f1093", "fusion_lon": 0.0}, {"is_reserved": 0, "type": "electric_scooter", "bike_id": "cc9acb6f7c387bbc4a0434ff27eaffc0", "lat": 38.923810833333334, "lon": -77.03660216666667, "rental_uris": {"android": "https://dc.lft.to/lastmile_qr_scan", "ios": "https://dc.lft.to/lastmile_qr_scan"}, "is_disabled": 0, "fusion_lat": 0.0, "name": "cc9acb6f7c387bbc4a0434ff27eaffc0", "fusion_lon": 0.0}, {"is_reserved": 0, "type": "electric_scooter", "bike_id": "a098f38b300c1e6588b03411fb671864", "lat": 38.903746166666664, "lon": -77.03587383333333, "rental_uris": {"android": "https://dc.lft.to/lastmile_qr_scan", "ios": "https://dc.lft.to/lastmile_qr_scan"}, "is_disabled": 0, "fusion_lat": 0.0, "name": "a098f38b300c1e6588b03411fb671864", "fusion_lon": 0.0}, {"is_reserved": 0, "type": "electric_scooter", "bike_id": "6b6e4833e08de53ddf620b7285d40ed7", "lat": 38.896056, "lon": -77.04505333333333, "rental_uris": {"android": "https://dc.lft.to/lastmile_qr_scan", "ios": "https://dc.lft.to/lastmile_qr_scan"}, "is_disabled": 0, "fusion_lat": 0.0, "name": "6b6e4833e08de53ddf620b7285d40ed7", "fusion_lon": 0.0}, {"is_reserved": 0, "type": "electric_scooter", "bike_id": "ba71608ffbbb23fafa2ae487493d7bf8", "lat": 38.94439916666666, "lon": -77.02914, "rental_uris": {"android": "https://dc.lft.to/lastmile_qr_scan", "ios": "https://dc.lft.to/lastmile_qr_scan"}, "is_disabled": 0, "fusion_lat": 0.0, "name": "ba71608ffbbb23fafa2ae487493d7bf8", "fusion_lon": 0.0}, {"is_reserved": 0, "type": "electric_scooter", "bike_id": "502c90f76c3c8234120cdf94f1d68b93", "lat": 38.90041466666667, "lon": -76.98288216666667, "rental_uris": {"android": "https://dc.lft.to/lastmile_qr_scan", "ios": "https://dc.lft.to/lastmile_qr_scan"}, "is_disabled": 0, "fusion_lat": 0.0, "name": "502c90f76c3c8234120cdf94f1d68b93", "fusion_lon": 0.0}, {"is_reserved": 0, "type": "electric_scooter", "bike_id": "031eed4fb45cedf7eb0172fc251891b0", "lat": 38.905142166666664, "lon": -77.047504, "rental_uris": {"android": "https://dc.lft.to/lastmile_qr_scan", "ios": "https://dc.lft.to/lastmile_qr_scan"}, "is_disabled": 0, "fusion_lat": 0.0, "name": "031eed4fb45cedf7eb0172fc251891b0", "fusion_lon": 0.0}, {"is_reserved": 0, "type": "electric_scooter", "bike_id": "581ca0bcf1fe5bc63947500aaa7899d0", "lat": 38.90357733333333, "lon": -77.02582416666667, "rental_uris": {"android": "https://dc.lft.to/lastmile_qr_scan", "ios": "https://dc.lft.to/lastmile_qr_scan"}, "is_disabled": 0, "fusion_lat": 0.0, "name": "581ca0bcf1fe5bc63947500aaa7899d0", "fusion_lon": 0.0}, {"is_reserved": 0, "type": "electric_scooter", "bike_id": "63dcef0670a4e5f36d7f18fea6959f93", "lat": 38.900296166666664, "lon": -76.9885995, "rental_uris": {"android": "https://dc.lft.to/lastmile_qr_scan", "ios": "https://dc.lft.to/lastmile_qr_scan"}, "is_disabled": 0, "fusion_lat": 0.0, "name": "63dcef0670a4e5f36d7f18fea6959f93", "fusion_lon": 0.0}, {"is_reserved": 0, "type": "electric_scooter", "bike_id": "a08060dab18faef9b3f637f26f8e770e", "lat": 38.89480666666667, "lon": -77.04996266666667, "rental_uris": {"android": "https://dc.lft.to/lastmile_qr_scan", "ios": "https://dc.lft.to/lastmile_qr_scan"}, "is_disabled": 0, "fusion_lat": 0.0, "name": "a08060dab18faef9b3f637f26f8e770e", "fusion_lon": 0.0}, {"is_reserved": 0, "type": "electric_scooter", "bike_id": "67d81e511b44caf63e77f20d7f1a67a0", "lat": 38.9227005, "lon": -77.0366905, "rental_uris": {"android": "https://dc.lft.to/lastmile_qr_scan", "ios": "https://dc.lft.to/lastmile_qr_scan"}, "is_disabled": 0, "fusion_lat": 0.0, "name": "67d81e511b44caf63e77f20d7f1a67a0", "fusion_lon": 0.0}, {"is_reserved": 0, "type": "electric_scooter", "bike_id": "528937f23bb72044e94dddc2b79e3698", "lat": 38.88533833333334, "lon": -77.02196666666667, "rental_uris": {"android": "https://dc.lft.to/lastmile_qr_scan", "ios": "https://dc.lft.to/lastmile_qr_scan"}, "is_disabled": 0, "fusion_lat": 0.0, "name": "528937f23bb72044e94dddc2b79e3698", "fusion_lon": 0.0}, {"is_reserved": 0, "type": "electric_scooter", "bike_id": "2601f00f8199677dfe36c2234d892fb7", "lat": 38.9165765, "lon": -77.03843433333333, "rental_uris": {"android": "https://dc.lft.to/lastmile_qr_scan", "ios": "https://dc.lft.to/lastmile_qr_scan"}, "is_disabled": 0, "fusion_lat": 0.0, "name": "2601f00f8199677dfe36c2234d892fb7", "fusion_lon": 0.0}, {"is_reserved": 0, "type": "electric_scooter", "bike_id": "28bbe19429b304fc0cf69240bf68f2c1", "lat": 38.89387516666667, "lon": -77.0224945, "rental_uris": {"android": "https://dc.lft.to/lastmile_qr_scan", "ios": "https://dc.lft.to/lastmile_qr_scan"}, "is_disabled": 0, "fusion_lat": 0.0, "name": "28bbe19429b304fc0cf69240bf68f2c1", "fusion_lon": 0.0}, {"is_reserved": 0, "type": "electric_scooter", "bike_id": "840e69b3f8f7b2b5dbb0e2b85de15b58", "lat": 38.92583783333333, "lon": -77.0294205, "rental_uris": {"android": "https://dc.lft.to/lastmile_qr_scan", "ios": "https://dc.lft.to/lastmile_qr_scan"}, "is_disabled": 0, "fusion_lat": 0.0, "name": "840e69b3f8f7b2b5dbb0e2b85de15b58", "fusion_lon": 0.0}, {"is_reserved": 0, "type": "electric_scooter", "bike_id": "e2a4a8775ba7ed7af9dac9f1ddcad0fe", "lat": 38.9162585, "lon": -77.0075575, "rental_uris": {"android": "https://dc.lft.to/lastmile_qr_scan", "ios": "https://dc.lft.to/lastmile_qr_scan"}, "is_disabled": 0, "fusion_lat": 0.0, "name": "e2a4a8775ba7ed7af9dac9f1ddcad0fe", "fusion_lon": 0.0}, {"is_reserved": 0, "type": "electric_scooter", "bike_id": "d8cd63d2e899d6ba043c4b2b8a3ee172", "lat": 38.914864666666666, "lon": -77.002369, "rental_uris": {"android": "https://dc.lft.to/lastmile_qr_scan", "ios": "https://dc.lft.to/lastmile_qr_scan"}, "is_disabled": 0, "fusion_lat": 0.0, "name": "d8cd63d2e899d6ba043c4b2b8a3ee172", "fusion_lon": 0.0}, {"is_reserved": 0, "type": "electric_scooter", "bike_id": "f1812278279aeefe96bf6f1d39da1aa7", "lat": 38.900222166666666, "lon": -77.00215533333333, "rental_uris": {"android": "https://dc.lft.to/lastmile_qr_scan", "ios": "https://dc.lft.to/lastmile_qr_scan"}, "is_disabled": 0, "fusion_lat": 0.0, "name": "f1812278279aeefe96bf6f1d39da1aa7", "fusion_lon": 0.0}, {"is_reserved": 0, "type": "electric_scooter", "bike_id": "daf225956ae9ca5f720c393fa55e588b", "lat": 38.903490833333336, "lon": -77.02561616666667, "rental_uris": {"android": "https://dc.lft.to/lastmile_qr_scan", "ios": "https://dc.lft.to/lastmile_qr_scan"}, "is_disabled": 0, "fusion_lat": 0.0, "name": "daf225956ae9ca5f720c393fa55e588b", "fusion_lon": 0.0}, {"is_reserved": 0, "type": "electric_scooter", "bike_id": "925ee0fb25869c2a6929b0563a74b548", "lat": 38.89611283333333, "lon": -76.976853, "rental_uris": {"android": "https://dc.lft.to/lastmile_qr_scan", "ios": "https://dc.lft.to/lastmile_qr_scan"}, "is_disabled": 0, "fusion_lat": 0.0, "name": "925ee0fb25869c2a6929b0563a74b548", "fusion_lon": 0.0}, {"is_reserved": 0, "type": "electric_scooter", "bike_id": "ec5c29d88a2831d2a26f3d3a9496a535", "lat": 38.8966395, "lon": -76.9321015, "rental_uris": {"android": "https://dc.lft.to/lastmile_qr_scan", "ios": "https://dc.lft.to/lastmile_qr_scan"}, "is_disabled": 0, "fusion_lat": 0.0, "name": "ec5c29d88a2831d2a26f3d3a9496a535", "fusion_lon": 0.0}, {"is_reserved": 0, "type": "electric_scooter", "bike_id": "dc4bf314e297c3d04bf479673d0eaf89", "lat": 38.8839255, "lon": -76.930463, "rental_uris": {"android": "https://dc.lft.to/lastmile_qr_scan", "ios": "https://dc.lft.to/lastmile_qr_scan"}, "is_disabled": 0, "fusion_lat": 0.0, "name": "dc4bf314e297c3d04bf479673d0eaf89", "fusion_lon": 0.0}, {"is_reserved": 0, "type": "electric_scooter", "bike_id": "39d8cc518164278f89d9a141aeeaa75f", "lat": 38.887411666666665, "lon": -77.01531816666666, "rental_uris": {"android": "https://dc.lft.to/lastmile_qr_scan", "ios": "https://dc.lft.to/lastmile_qr_scan"}, "is_disabled": 0, "fusion_lat": 0.0, "name": "39d8cc518164278f89d9a141aeeaa75f", "fusion_lon": 0.0}, {"is_reserved": 0, "type": "electric_scooter", "bike_id": "1a9838c7adc1ad5dd8645f398174bbe3", "lat": 38.89268966666667, "lon": -76.92998166666666, "rental_uris": {"android": "https://dc.lft.to/lastmile_qr_scan", "ios": "https://dc.lft.to/lastmile_qr_scan"}, "is_disabled": 0, "fusion_lat": 0.0, "name": "1a9838c7adc1ad5dd8645f398174bbe3", "fusion_lon": 0.0}, {"is_reserved": 0, "type": "electric_scooter", "bike_id": "1c64a8178dbd5788600fd6567a7870e1", "lat": 38.924358166666664, "lon": -77.0201935, "rental_uris": {"android": "https://dc.lft.to/lastmile_qr_scan", "ios": "https://dc.lft.to/lastmile_qr_scan"}, "is_disabled": 0, "fusion_lat": 0.0, "name": "1c64a8178dbd5788600fd6567a7870e1", "fusion_lon": 0.0}, {"is_reserved": 0, "type": "electric_scooter", "bike_id": "1d4f7352e0c28a57b8e7c384d1b0cfa4", "lat": 38.905691, "lon": -77.00807616666667, "rental_uris": {"android": "https://dc.lft.to/lastmile_qr_scan", "ios": "https://dc.lft.to/lastmile_qr_scan"}, "is_disabled": 0, "fusion_lat": 0.0, "name": "1d4f7352e0c28a57b8e7c384d1b0cfa4", "fusion_lon": 0.0}, {"is_reserved": 0, "type": "electric_scooter", "bike_id": "226b8254001a3e85644b359ecc7e8a70", "lat": 38.89620566666667, "lon": -77.01962616666667, "rental_uris": {"android": "https://dc.lft.to/lastmile_qr_scan", "ios": "https://dc.lft.to/lastmile_qr_scan"}, "is_disabled": 0, "fusion_lat": 0.0, "name": "226b8254001a3e85644b359ecc7e8a70", "fusion_lon": 0.0}, {"is_reserved": 0, "type": "electric_scooter", "bike_id": "231eaae013ec5e3842fbffd79c0fe6c6", "lat": 38.9241495, "lon": -77.0200575, "rental_uris": {"android": "https://dc.lft.to/lastmile_qr_scan", "ios": "https://dc.lft.to/lastmile_qr_scan"}, "is_disabled": 0, "fusion_lat": 0.0, "name": "231eaae013ec5e3842fbffd79c0fe6c6", "fusion_lon": 0.0}, {"is_reserved": 0, "type": "electric_scooter", "bike_id": "2c5b83fe65ba5e4b7f5c8649b70c3d59", "lat": 38.9175005, "lon": -77.0415755, "rental_uris": {"android": "https://dc.lft.to/lastmile_qr_scan", "ios": "https://dc.lft.to/lastmile_qr_scan"}, "is_disabled": 0, "fusion_lat": 0.0, "name": "2c5b83fe65ba5e4b7f5c8649b70c3d59", "fusion_lon": 0.0}, {"is_reserved": 0, "type": "electric_bike", "bike_id": "d03719ce450d7571ef717d37705244b9", "lat": 38.871271166666666, "lon": -76.96553666666667, "rental_uris": {"android": "https://dc.lft.to/lastmile_qr_scan", "ios": "https://dc.lft.to/lastmile_qr_scan"}, "is_disabled": 0, "fusion_lat": 0.0, "name": "d03719ce450d7571ef717d37705244b9", "fusion_lon": 0.0}, {"is_reserved": 0, "type": "electric_scooter", "bike_id": "d19093b0ce6916e96df381e521b2fa22", "lat": 38.9110145, "lon": -77.0477945, "rental_uris": {"android": "https://dc.lft.to/lastmile_qr_scan", "ios": "https://dc.lft.to/lastmile_qr_scan"}, "is_disabled": 0, "fusion_lat": 0.0, "name": "d19093b0ce6916e96df381e521b2fa22", "fusion_lon": 0.0}, {"is_reserved": 0, "type": "electric_scooter", "bike_id": "416974438b306e9cbd06bb77a081f875", "lat": 38.921617499999996, "lon": -77.035112, "rental_uris": {"android": "https://dc.lft.to/lastmile_qr_scan", "ios": "https://dc.lft.to/lastmile_qr_scan"}, "is_disabled": 0, "fusion_lat": 0.0, "name": "416974438b306e9cbd06bb77a081f875", "fusion_lon": 0.0}, {"is_reserved": 0, "type": "electric_scooter", "bike_id": "4246e71ae1e65aec3f28123692f79a82", "lat": 38.90793433333333, "lon": -77.03555016666667, "rental_uris": {"android": "https://dc.lft.to/lastmile_qr_scan", "ios": "https://dc.lft.to/lastmile_qr_scan"}, "is_disabled": 0, "fusion_lat": 0.0, "name": "4246e71ae1e65aec3f28123692f79a82", "fusion_lon": 0.0}, {"is_reserved": 0, "type": "electric_scooter", "bike_id": "188fe2fe908e307fc9c7e1af54a3e820", "lat": 38.90421516666667, "lon": -77.03058, "rental_uris": {"android": "https://dc.lft.to/lastmile_qr_scan", "ios": "https://dc.lft.to/lastmile_qr_scan"}, "is_disabled": 0, "fusion_lat": 0.0, "name": "188fe2fe908e307fc9c7e1af54a3e820", "fusion_lon": 0.0}, {"is_reserved": 0, "type": "electric_scooter", "bike_id": "7c95847b6f6bd3181caccd3ba630140a", "lat": 38.882619166666665, "lon": -77.00625116666667, "rental_uris": {"android": "https://dc.lft.to/lastmile_qr_scan", "ios": "https://dc.lft.to/lastmile_qr_scan"}, "is_disabled": 0, "fusion_lat": 0.0, "name": "7c95847b6f6bd3181caccd3ba630140a", "fusion_lon": 0.0}, {"is_reserved": 0, "type": "electric_scooter", "bike_id": "6e97b5e2623337234f846fc487b377ff", "lat": 38.90853116666667, "lon": -77.01019333333333, "rental_uris": {"android": "https://dc.lft.to/lastmile_qr_scan", "ios": "https://dc.lft.to/lastmile_qr_scan"}, "is_disabled": 0, "fusion_lat": 0.0, "name": "6e97b5e2623337234f846fc487b377ff", "fusion_lon": 0.0}, {"is_reserved": 0, "type": "electric_scooter", "bike_id": "f54df4fb5dcb3b9d75387cec53d9af19", "lat": 38.924872, "lon": -77.021425, "rental_uris": {"android": "https://dc.lft.to/lastmile_qr_scan", "ios": "https://dc.lft.to/lastmile_qr_scan"}, "is_disabled": 0, "fusion_lat": 0.0, "name": "f54df4fb5dcb3b9d75387cec53d9af19", "fusion_lon": 0.0}, {"is_reserved": 0, "type": "electric_bike", "bike_id": "68c8aa76345297e25dd653694c203092", "lat": 38.91418383333333, "lon": -77.03203983333333, "rental_uris": {"android": "https://dc.lft.to/lastmile_qr_scan", "ios": "https://dc.lft.to/lastmile_qr_scan"}, "is_disabled": 0, "fusion_lat": 0.0, "name": "68c8aa76345297e25dd653694c203092", "fusion_lon": 0.0}, {"is_reserved": 0, "type": "electric_scooter", "bike_id": "11122f947c60413d9df15cc30df7413b", "lat": 38.934156, "lon": -77.04212683333333, "rental_uris": {"android": "https://dc.lft.to/lastmile_qr_scan", "ios": "https://dc.lft.to/lastmile_qr_scan"}, "is_disabled": 0, "fusion_lat": 0.0, "name": "11122f947c60413d9df15cc30df7413b", "fusion_lon": 0.0}, {"is_reserved": 0, "type": "electric_bike", "bike_id": "e7d8d027760ad099832026b0bd990e78", "lat": 39.00029633333333, "lon": -77.04741316666667, "rental_uris": {"android": "https://dc.lft.to/lastmile_qr_scan", "ios": "https://dc.lft.to/lastmile_qr_scan"}, "is_disabled": 0, "fusion_lat": 0.0, "name": "e7d8d027760ad099832026b0bd990e78", "fusion_lon": 0.0}, {"is_reserved": 0, "type": "electric_scooter", "bike_id": "9fbeeacfbe6439d41f8fb4423ba1ebb0", "lat": 38.89723166666667, "lon": -77.00315783333333, "rental_uris": {"android": "https://dc.lft.to/lastmile_qr_scan", "ios": "https://dc.lft.to/lastmile_qr_scan"}, "is_disabled": 0, "fusion_lat": 0.0, "name": "9fbeeacfbe6439d41f8fb4423ba1ebb0", "fusion_lon": 0.0}, {"is_reserved": 0, "type": "electric_scooter", "bike_id": "41a4187c7d4c8a57a1da803a5c595ee4", "lat": 38.910839, "lon": -77.021893, "rental_uris": {"android": "https://dc.lft.to/lastmile_qr_scan", "ios": "https://dc.lft.to/lastmile_qr_scan"}, "is_disabled": 0, "fusion_lat": 0.0, "name": "41a4187c7d4c8a57a1da803a5c595ee4", "fusion_lon": 0.0}, {"is_reserved": 0, "type": "electric_scooter", "bike_id": "a797eee6b0ad7b0d1aceae6a061f226d", "lat": 38.906477333333335, "lon": -77.04231516666667, "rental_uris": {"android": "https://dc.lft.to/lastmile_qr_scan", "ios": "https://dc.lft.to/lastmile_qr_scan"}, "is_disabled": 0, "fusion_lat": 0.0, "name": "a797eee6b0ad7b0d1aceae6a061f226d", "fusion_lon": 0.0}, {"is_reserved": 0, "type": "electric_scooter", "bike_id": "07da468b7c1aae75a4d69a16e04431b9", "lat": 38.9324435, "lon": -76.9949915, "rental_uris": {"android": "https://dc.lft.to/lastmile_qr_scan", "ios": "https://dc.lft.to/lastmile_qr_scan"}, "is_disabled": 0, "fusion_lat": 0.0, "name": "07da468b7c1aae75a4d69a16e04431b9", "fusion_lon": 0.0}, {"is_reserved": 0, "type": "electric_scooter", "bike_id": "7a32802d72ddbfa5c992c869425a41be", "lat": 38.921418333333335, "lon": -77.03401633333333, "rental_uris": {"android": "https://dc.lft.to/lastmile_qr_scan", "ios": "https://dc.lft.to/lastmile_qr_scan"}, "is_disabled": 0, "fusion_lat": 0.0, "name": "7a32802d72ddbfa5c992c869425a41be", "fusion_lon": 0.0}, {"is_reserved": 0, "type": "electric_scooter", "bike_id": "ac07d46615ce5a7178bbc9b75e50d408", "lat": 38.941834666666665, "lon": -77.02489583333333, "rental_uris": {"android": "https://dc.lft.to/lastmile_qr_scan", "ios": "https://dc.lft.to/lastmile_qr_scan"}, "is_disabled": 0, "fusion_lat": 0.0, "name": "ac07d46615ce5a7178bbc9b75e50d408", "fusion_lon": 0.0}, {"is_reserved": 0, "type": "electric_scooter", "bike_id": "66575c31e4b0c6b3b20f12928d732c00", "lat": 38.904272, "lon": -77.02105433333334, "rental_uris": {"android": "https://dc.lft.to/lastmile_qr_scan", "ios": "https://dc.lft.to/lastmile_qr_scan"}, "is_disabled": 0, "fusion_lat": 0.0, "name": "66575c31e4b0c6b3b20f12928d732c00", "fusion_lon": 0.0}, {"is_reserved": 0, "type": "electric_scooter", "bike_id": "3f59eb07c4135ea478ada02b9d008aba", "lat": 38.900305833333334, "lon": -77.02605716666666, "rental_uris": {"android": "https://dc.lft.to/lastmile_qr_scan", "ios": "https://dc.lft.to/lastmile_qr_scan"}, "is_disabled": 0, "fusion_lat": 0.0, "name": "3f59eb07c4135ea478ada02b9d008aba", "fusion_lon": 0.0}, {"is_reserved": 0, "type": "electric_scooter", "bike_id": "cdee31a1adc0a0d295d5f771aa3bb579", "lat": 38.900361333333336, "lon": -76.991501, "rental_uris": {"android": "https://dc.lft.to/lastmile_qr_scan", "ios": "https://dc.lft.to/lastmile_qr_scan"}, "is_disabled": 0, "fusion_lat": 0.0, "name": "cdee31a1adc0a0d295d5f771aa3bb579", "fusion_lon": 0.0}, {"is_reserved": 0, "type": "electric_scooter", "bike_id": "aed2aaf8c7a1772f3712e9f72778d8ff", "lat": 38.894037, "lon": -77.0219725, "rental_uris": {"android": "https://dc.lft.to/lastmile_qr_scan", "ios": "https://dc.lft.to/lastmile_qr_scan"}, "is_disabled": 0, "fusion_lat": 0.0, "name": "aed2aaf8c7a1772f3712e9f72778d8ff", "fusion_lon": 0.0}, {"is_reserved": 0, "type": "electric_scooter", "bike_id": "008baa587ea37b0349e59ca1874366f4", "lat": 38.89973783333333, "lon": -77.01607083333333, "rental_uris": {"android": "https://dc.lft.to/lastmile_qr_scan", "ios": "https://dc.lft.to/lastmile_qr_scan"}, "is_disabled": 0, "fusion_lat": 0.0, "name": "008baa587ea37b0349e59ca1874366f4", "fusion_lon": 0.0}, {"is_reserved": 0, "type": "electric_scooter", "bike_id": "0d2854f8cedb8af0d5980aa3687d68dd", "lat": 38.887437166666665, "lon": -77.02473383333333, "rental_uris": {"android": "https://dc.lft.to/lastmile_qr_scan", "ios": "https://dc.lft.to/lastmile_qr_scan"}, "is_disabled": 0, "fusion_lat": 0.0, "name": "0d2854f8cedb8af0d5980aa3687d68dd", "fusion_lon": 0.0}, {"is_reserved": 0, "type": "electric_scooter", "bike_id": "8ea5b61c4b5b243e656ea91d8efb3a11", "lat": 38.91794316666667, "lon": -77.04022716666667, "rental_uris": {"android": "https://dc.lft.to/lastmile_qr_scan", "ios": "https://dc.lft.to/lastmile_qr_scan"}, "is_disabled": 0, "fusion_lat": 0.0, "name": "8ea5b61c4b5b243e656ea91d8efb3a11", "fusion_lon": 0.0}, {"is_reserved": 0, "type": "electric_scooter", "bike_id": "efe51fbfab56125ba63bc0c3e9b5e27d", "lat": 38.9066385, "lon": -77.06297816666667, "rental_uris": {"android": "https://dc.lft.to/lastmile_qr_scan", "ios": "https://dc.lft.to/lastmile_qr_scan"}, "is_disabled": 0, "fusion_lat": 0.0, "name": "efe51fbfab56125ba63bc0c3e9b5e27d", "fusion_lon": 0.0}, {"is_reserved": 0, "type": "electric_scooter", "bike_id": "ef711f0d1c7332379757653a8aa54a25", "lat": 38.899475333333335, "lon": -77.02685066666666, "rental_uris": {"android": "https://dc.lft.to/lastmile_qr_scan", "ios": "https://dc.lft.to/lastmile_qr_scan"}, "is_disabled": 0, "fusion_lat": 0.0, "name": "ef711f0d1c7332379757653a8aa54a25", "fusion_lon": 0.0}, {"is_reserved": 0, "type": "electric_scooter", "bike_id": "cda3e8b626cc7b798e85de11b94fd82a", "lat": 38.923836, "lon": -77.03654616666667, "rental_uris": {"android": "https://dc.lft.to/lastmile_qr_scan", "ios": "https://dc.lft.to/lastmile_qr_scan"}, "is_disabled": 0, "fusion_lat": 0.0, "name": "cda3e8b626cc7b798e85de11b94fd82a", "fusion_lon": 0.0}, {"is_reserved": 0, "type": "electric_bike", "bike_id": "7ad5ecf1e9810754223dc9e4a2076bef", "lat": 38.99936016666667, "lon": -77.051357, "rental_uris": {"android": "https://dc.lft.to/lastmile_qr_scan", "ios": "https://dc.lft.to/lastmile_qr_scan"}, "is_disabled": 0, "fusion_lat": 0.0, "name": "7ad5ecf1e9810754223dc9e4a2076bef", "fusion_lon": 0.0}, {"is_reserved": 0, "type": "electric_bike", "bike_id": "048237ac075279290e69e297d10b93d8", "lat": 38.972637166666665, "lon": -77.14971133333333, "rental_uris": {"android": "https://dc.lft.to/lastmile_qr_scan", "ios": "https://dc.lft.to/lastmile_qr_scan"}, "is_disabled": 0, "fusion_lat": 0.0, "name": "048237ac075279290e69e297d10b93d8", "fusion_lon": 0.0}, {"is_reserved": 0, "type": "electric_scooter", "bike_id": "d946395d8094dace6549a0d59bb20b6c", "lat": 38.92337416666667, "lon": -77.01892833333333, "rental_uris": {"android": "https://dc.lft.to/lastmile_qr_scan", "ios": "https://dc.lft.to/lastmile_qr_scan"}, "is_disabled": 0, "fusion_lat": 0.0, "name": "d946395d8094dace6549a0d59bb20b6c", "fusion_lon": 0.0}, {"is_reserved": 0, "type": "electric_scooter", "bike_id": "e5b14fb0e9b70e13a38cad531e37dad0", "lat": 38.91859316666667, "lon": -77.03460983333333, "rental_uris": {"android": "https://dc.lft.to/lastmile_qr_scan", "ios": "https://dc.lft.to/lastmile_qr_scan"}, "is_disabled": 0, "fusion_lat": 0.0, "name": "e5b14fb0e9b70e13a38cad531e37dad0", "fusion_lon": 0.0}, {"is_reserved": 0, "type": "electric_scooter", "bike_id": "723d6a3d4dc15f89f516d7e9b59034eb", "lat": 38.892248, "lon": -77.04368266666667, "rental_uris": {"android": "https://dc.lft.to/lastmile_qr_scan", "ios": "https://dc.lft.to/lastmile_qr_scan"}, "is_disabled": 0, "fusion_lat": 0.0, "name": "723d6a3d4dc15f89f516d7e9b59034eb", "fusion_lon": 0.0}, {"is_reserved": 0, "type": "electric_scooter", "bike_id": "cf805aadef45537987d90a9bb45b980c", "lat": 38.905514, "lon": -77.056976, "rental_uris": {"android": "https://dc.lft.to/lastmile_qr_scan", "ios": "https://dc.lft.to/lastmile_qr_scan"}, "is_disabled": 0, "fusion_lat": 0.0, "name": "cf805aadef45537987d90a9bb45b980c", "fusion_lon": 0.0}, {"is_reserved": 0, "type": "electric_scooter", "bike_id": "266fbc1370949f903fa11934c2ef2d89", "lat": 38.898370166666666, "lon": -77.01295016666667, "rental_uris": {"android": "https://dc.lft.to/lastmile_qr_scan", "ios": "https://dc.lft.to/lastmile_qr_scan"}, "is_disabled": 0, "fusion_lat": 0.0, "name": "266fbc1370949f903fa11934c2ef2d89", "fusion_lon": 0.0}, {"is_reserved": 0, "type": "electric_scooter", "bike_id": "5dd39493c8eac1c41678ac2110ea0678", "lat": 38.91253716666667, "lon": -77.03716283333333, "rental_uris": {"android": "https://dc.lft.to/lastmile_qr_scan", "ios": "https://dc.lft.to/lastmile_qr_scan"}, "is_disabled": 0, "fusion_lat": 0.0, "name": "5dd39493c8eac1c41678ac2110ea0678", "fusion_lon": 0.0}, {"is_reserved": 0, "type": "electric_bike", "bike_id": "bd1a32f0fb070ecee1a15b92f9e20f57", "lat": 38.88243166666667, "lon": -76.96255816666667, "rental_uris": {"android": "https://dc.lft.to/lastmile_qr_scan", "ios": "https://dc.lft.to/lastmile_qr_scan"}, "is_disabled": 0, "fusion_lat": 0.0, "name": "bd1a32f0fb070ecee1a15b92f9e20f57", "fusion_lon": 0.0}, {"is_reserved": 0, "type": "electric_scooter", "bike_id": "3417f9c3037a121750164c7ae90a1951", "lat": 38.889883, "lon": -77.00076166666666, "rental_uris": {"android": "https://dc.lft.to/lastmile_qr_scan", "ios": "https://dc.lft.to/lastmile_qr_scan"}, "is_disabled": 0, "fusion_lat": 0.0, "name": "3417f9c3037a121750164c7ae90a1951", "fusion_lon": 0.0}, {"is_reserved": 0, "type": "electric_bike", "bike_id": "ddcfb5f7bb9bc7bce870dd12546745ea", "lat": 38.91858083333333, "lon": -76.96084566666667, "rental_uris": {"android": "https://dc.lft.to/lastmile_qr_scan", "ios": "https://dc.lft.to/lastmile_qr_scan"}, "is_disabled": 0, "fusion_lat": 0.0, "name": "ddcfb5f7bb9bc7bce870dd12546745ea", "fusion_lon": 0.0}, {"is_reserved": 0, "type": "electric_scooter", "bike_id": "bedde0621823466126fce5c014c41fda", "lat": 38.903975, "lon": -77.06779883333333, "rental_uris": {"android": "https://dc.lft.to/lastmile_qr_scan", "ios": "https://dc.lft.to/lastmile_qr_scan"}, "is_disabled": 0, "fusion_lat": 0.0, "name": "bedde0621823466126fce5c014c41fda", "fusion_lon": 0.0}, {"is_reserved": 0, "type": "electric_scooter", "bike_id": "9887bb7e8263aa2d114b17c90ec4ab84", "lat": 38.920881, "lon": -77.01367116666667, "rental_uris": {"android": "https://dc.lft.to/lastmile_qr_scan", "ios": "https://dc.lft.to/lastmile_qr_scan"}, "is_disabled": 0, "fusion_lat": 0.0, "name": "9887bb7e8263aa2d114b17c90ec4ab84", "fusion_lon": 0.0}, {"is_reserved": 0, "type": "electric_scooter", "bike_id": "6f2d553427f3036e929674f6794a1fff", "lat": 38.925802, "lon": -76.995097, "rental_uris": {"android": "https://dc.lft.to/lastmile_qr_scan", "ios": "https://dc.lft.to/lastmile_qr_scan"}, "is_disabled": 0, "fusion_lat": 0.0, "name": "6f2d553427f3036e929674f6794a1fff", "fusion_lon": 0.0}, {"is_reserved": 0, "type": "electric_scooter", "bike_id": "c59e388a659611f0a85f2f077248ee54", "lat": 38.916517, "lon": -77.02275483333334, "rental_uris": {"android": "https://dc.lft.to/lastmile_qr_scan", "ios": "https://dc.lft.to/lastmile_qr_scan"}, "is_disabled": 0, "fusion_lat": 0.0, "name": "c59e388a659611f0a85f2f077248ee54", "fusion_lon": 0.0}, {"is_reserved": 0, "type": "electric_scooter", "bike_id": "e5bb4962c8a2d1046f837e69a44c693f", "lat": 38.923164, "lon": -77.04127116666666, "rental_uris": {"android": "https://dc.lft.to/lastmile_qr_scan", "ios": "https://dc.lft.to/lastmile_qr_scan"}, "is_disabled": 0, "fusion_lat": 0.0, "name": "e5bb4962c8a2d1046f837e69a44c693f", "fusion_lon": 0.0}, {"is_reserved": 0, "type": "electric_scooter", "bike_id": "17bc0f5e91b1cadc8541581dd91eb1d9", "lat": 38.93525066666667, "lon": -77.01938566666666, "rental_uris": {"android": "https://dc.lft.to/lastmile_qr_scan", "ios": "https://dc.lft.to/lastmile_qr_scan"}, "is_disabled": 0, "fusion_lat": 0.0, "name": "17bc0f5e91b1cadc8541581dd91eb1d9", "fusion_lon": 0.0}, {"is_reserved": 0, "type": "electric_scooter", "bike_id": "3a9cbe578d717861ce81c3e4cc8e90b8", "lat": 38.928315166666664, "lon": -77.006008, "rental_uris": {"android": "https://dc.lft.to/lastmile_qr_scan", "ios": "https://dc.lft.to/lastmile_qr_scan"}, "is_disabled": 0, "fusion_lat": 0.0, "name": "3a9cbe578d717861ce81c3e4cc8e90b8", "fusion_lon": 0.0}, {"is_reserved": 0, "type": "electric_scooter", "bike_id": "3491ba923108a8a7d2d6c3cfdf521120", "lat": 38.908485, "lon": -77.01225066666667, "rental_uris": {"android": "https://dc.lft.to/lastmile_qr_scan", "ios": "https://dc.lft.to/lastmile_qr_scan"}, "is_disabled": 0, "fusion_lat": 0.0, "name": "3491ba923108a8a7d2d6c3cfdf521120", "fusion_lon": 0.0}, {"is_reserved": 0, "type": "electric_bike", "bike_id": "f11534dfb6296c957fd844f0ddafecfb", "lat": 38.959484833333335, "lon": -77.01985683333334, "rental_uris": {"android": "https://dc.lft.to/lastmile_qr_scan", "ios": "https://dc.lft.to/lastmile_qr_scan"}, "is_disabled": 0, "fusion_lat": 0.0, "name": "f11534dfb6296c957fd844f0ddafecfb", "fusion_lon": 0.0}, {"is_reserved": 0, "type": "electric_scooter", "bike_id": "71ecd2a0e7f7e55810c46312ed7af60c", "lat": 38.929210833333336, "lon": -77.020058, "rental_uris": {"android": "https://dc.lft.to/lastmile_qr_scan", "ios": "https://dc.lft.to/lastmile_qr_scan"}, "is_disabled": 0, "fusion_lat": 0.0, "name": "71ecd2a0e7f7e55810c46312ed7af60c", "fusion_lon": 0.0}, {"is_reserved": 0, "type": "electric_scooter", "bike_id": "221a1cc65d61eb1010247c4fbe3c2a0c", "lat": 38.884348333333335, "lon": -76.95764533333333, "rental_uris": {"android": "https://dc.lft.to/lastmile_qr_scan", "ios": "https://dc.lft.to/lastmile_qr_scan"}, "is_disabled": 0, "fusion_lat": 0.0, "name": "221a1cc65d61eb1010247c4fbe3c2a0c", "fusion_lon": 0.0}, {"is_reserved": 0, "type": "electric_bike", "bike_id": "5d249ea5400f4d592e477a4b07155286", "lat": 38.83296766666667, "lon": -77.0841345, "rental_uris": {"android": "https://dc.lft.to/lastmile_qr_scan", "ios": "https://dc.lft.to/lastmile_qr_scan"}, "is_disabled": 0, "fusion_lat": 0.0, "name": "5d249ea5400f4d592e477a4b07155286", "fusion_lon": 0.0}, {"is_reserved": 0, "type": "electric_scooter", "bike_id": "4f36d21bed449607cc2394d403316588", "lat": 38.894950333333334, "lon": -77.01780783333334, "rental_uris": {"android": "https://dc.lft.to/lastmile_qr_scan", "ios": "https://dc.lft.to/lastmile_qr_scan"}, "is_disabled": 0, "fusion_lat": 0.0, "name": "4f36d21bed449607cc2394d403316588", "fusion_lon": 0.0}, {"is_reserved": 0, "type": "electric_scooter", "bike_id": "9b0600e1c7cba53a7ecaff36e61eeddb", "lat": 38.917833, "lon": -77.03191166666667, "rental_uris": {"android": "https://dc.lft.to/lastmile_qr_scan", "ios": "https://dc.lft.to/lastmile_qr_scan"}, "is_disabled": 0, "fusion_lat": 0.0, "name": "9b0600e1c7cba53a7ecaff36e61eeddb", "fusion_lon": 0.0}, {"is_reserved": 0, "type": "electric_scooter", "bike_id": "45709e33209fb5cdaf80e038052cc126", "lat": 38.900112666666665, "lon": -77.040054, "rental_uris": {"android": "https://dc.lft.to/lastmile_qr_scan", "ios": "https://dc.lft.to/lastmile_qr_scan"}, "is_disabled": 0, "fusion_lat": 0.0, "name": "45709e33209fb5cdaf80e038052cc126", "fusion_lon": 0.0}, {"is_reserved": 0, "type": "electric_scooter", "bike_id": "96ebaa61316cac6b75704680271831a2", "lat": 38.921574666666665, "lon": -77.03375783333334, "rental_uris": {"android": "https://dc.lft.to/lastmile_qr_scan", "ios": "https://dc.lft.to/lastmile_qr_scan"}, "is_disabled": 0, "fusion_lat": 0.0, "name": "96ebaa61316cac6b75704680271831a2", "fusion_lon": 0.0}, {"is_reserved": 0, "type": "electric_scooter", "bike_id": "352ae0bff52f0d5311dcd7dc29f6ffa2", "lat": 38.9282115, "lon": -77.02846883333333, "rental_uris": {"android": "https://dc.lft.to/lastmile_qr_scan", "ios": "https://dc.lft.to/lastmile_qr_scan"}, "is_disabled": 0, "fusion_lat": 0.0, "name": "352ae0bff52f0d5311dcd7dc29f6ffa2", "fusion_lon": 0.0}, {"is_reserved": 0, "type": "electric_scooter", "bike_id": "f57b1ddd86c7616b8c5e1ce5a7fb908a", "lat": 38.9016845, "lon": -77.02481466666667, "rental_uris": {"android": "https://dc.lft.to/lastmile_qr_scan", "ios": "https://dc.lft.to/lastmile_qr_scan"}, "is_disabled": 0, "fusion_lat": 0.0, "name": "f57b1ddd86c7616b8c5e1ce5a7fb908a", "fusion_lon": 0.0}, {"is_reserved": 0, "type": "electric_scooter", "bike_id": "aad9d5b9f1c3fb6bc9d9bc0d703d1bae", "lat": 38.90089433333333, "lon": -77.02533, "rental_uris": {"android": "https://dc.lft.to/lastmile_qr_scan", "ios": "https://dc.lft.to/lastmile_qr_scan"}, "is_disabled": 0, "fusion_lat": 0.0, "name": "aad9d5b9f1c3fb6bc9d9bc0d703d1bae", "fusion_lon": 0.0}, {"is_reserved": 0, "type": "electric_scooter", "bike_id": "8265fedec198b1646e8a099e1944a8ce", "lat": 38.92971416666666, "lon": -77.02522583333334, "rental_uris": {"android": "https://dc.lft.to/lastmile_qr_scan", "ios": "https://dc.lft.to/lastmile_qr_scan"}, "is_disabled": 0, "fusion_lat": 0.0, "name": "8265fedec198b1646e8a099e1944a8ce", "fusion_lon": 0.0}, {"is_reserved": 0, "type": "electric_scooter", "bike_id": "3f4359797f0f87f4203afa8a3e76ffd1", "lat": 38.919119, "lon": -77.02181, "rental_uris": {"android": "https://dc.lft.to/lastmile_qr_scan", "ios": "https://dc.lft.to/lastmile_qr_scan"}, "is_disabled": 0, "fusion_lat": 0.0, "name": "3f4359797f0f87f4203afa8a3e76ffd1", "fusion_lon": 0.0}, {"is_reserved": 0, "type": "electric_scooter", "bike_id": "30e39c41182c0860611659659375eb92", "lat": 38.91570433333333, "lon": -77.0363985, "rental_uris": {"android": "https://dc.lft.to/lastmile_qr_scan", "ios": "https://dc.lft.to/lastmile_qr_scan"}, "is_disabled": 0, "fusion_lat": 0.0, "name": "30e39c41182c0860611659659375eb92", "fusion_lon": 0.0}, {"is_reserved": 0, "type": "electric_scooter", "bike_id": "78f60bfc69351f49eead0306cbe2a99e", "lat": 38.884594666666665, "lon": -76.92621133333333, "rental_uris": {"android": "https://dc.lft.to/lastmile_qr_scan", "ios": "https://dc.lft.to/lastmile_qr_scan"}, "is_disabled": 0, "fusion_lat": 0.0, "name": "78f60bfc69351f49eead0306cbe2a99e", "fusion_lon": 0.0}, {"is_reserved": 0, "type": "electric_scooter", "bike_id": "95db0f300aaaf9dfb53524ae3c83fb37", "lat": 38.9308975, "lon": -77.03495516666666, "rental_uris": {"android": "https://dc.lft.to/lastmile_qr_scan", "ios": "https://dc.lft.to/lastmile_qr_scan"}, "is_disabled": 0, "fusion_lat": 0.0, "name": "95db0f300aaaf9dfb53524ae3c83fb37", "fusion_lon": 0.0}, {"is_reserved": 0, "type": "electric_scooter", "bike_id": "2d0b2e3f50ff3d857829bf7ab8421c05", "lat": 38.925555333333335, "lon": -77.02281183333334, "rental_uris": {"android": "https://dc.lft.to/lastmile_qr_scan", "ios": "https://dc.lft.to/lastmile_qr_scan"}, "is_disabled": 0, "fusion_lat": 0.0, "name": "2d0b2e3f50ff3d857829bf7ab8421c05", "fusion_lon": 0.0}, {"is_reserved": 0, "type": "electric_scooter", "bike_id": "e3b06ca36180f55b04521a2f61fbc1fe", "lat": 38.92784833333333, "lon": -77.036063, "rental_uris": {"android": "https://dc.lft.to/lastmile_qr_scan", "ios": "https://dc.lft.to/lastmile_qr_scan"}, "is_disabled": 0, "fusion_lat": 0.0, "name": "e3b06ca36180f55b04521a2f61fbc1fe", "fusion_lon": 0.0}, {"is_reserved": 0, "type": "electric_scooter", "bike_id": "a799ee248dfa99b9161cb1bc46360595", "lat": 38.91062083333333, "lon": -77.0551615, "rental_uris": {"android": "https://dc.lft.to/lastmile_qr_scan", "ios": "https://dc.lft.to/lastmile_qr_scan"}, "is_disabled": 0, "fusion_lat": 0.0, "name": "a799ee248dfa99b9161cb1bc46360595", "fusion_lon": 0.0}, {"is_reserved": 0, "type": "electric_scooter", "bike_id": "529dc83cf83ee60d3fdd03bb00237e5c", "lat": 38.972975, "lon": -77.0362505, "rental_uris": {"android": "https://dc.lft.to/lastmile_qr_scan", "ios": "https://dc.lft.to/lastmile_qr_scan"}, "is_disabled": 0, "fusion_lat": 0.0, "name": "529dc83cf83ee60d3fdd03bb00237e5c", "fusion_lon": 0.0}, {"is_reserved": 0, "type": "electric_scooter", "bike_id": "a94ec1c10457d1f1823bb169cb005f63", "lat": 38.899594, "lon": -77.042463, "rental_uris": {"android": "https://dc.lft.to/lastmile_qr_scan", "ios": "https://dc.lft.to/lastmile_qr_scan"}, "is_disabled": 0, "fusion_lat": 0.0, "name": "a94ec1c10457d1f1823bb169cb005f63", "fusion_lon": 0.0}, {"is_reserved": 0, "type": "electric_scooter", "bike_id": "37c7f1933c6c518ac0b516513ea6b7bc", "lat": 38.883523833333335, "lon": -76.99489183333333, "rental_uris": {"android": "https://dc.lft.to/lastmile_qr_scan", "ios": "https://dc.lft.to/lastmile_qr_scan"}, "is_disabled": 0, "fusion_lat": 0.0, "name": "37c7f1933c6c518ac0b516513ea6b7bc", "fusion_lon": 0.0}, {"is_reserved": 0, "type": "electric_bike", "bike_id": "108085165922021a29e0377f14bf4c51", "lat": 38.898524, "lon": -76.9318695, "rental_uris": {"android": "https://dc.lft.to/lastmile_qr_scan", "ios": "https://dc.lft.to/lastmile_qr_scan"}, "is_disabled": 0, "fusion_lat": 0.0, "name": "108085165922021a29e0377f14bf4c51", "fusion_lon": 0.0}, {"is_reserved": 0, "type": "electric_bike", "bike_id": "e35304139b2d8e1185b396c85411a05b", "lat": 39.0944625, "lon": -77.13460216666667, "rental_uris": {"android": "https://dc.lft.to/lastmile_qr_scan", "ios": "https://dc.lft.to/lastmile_qr_scan"}, "is_disabled": 0, "fusion_lat": 0.0, "name": "e35304139b2d8e1185b396c85411a05b", "fusion_lon": 0.0}, {"is_reserved": 0, "type": "electric_scooter", "bike_id": "6be5af37302b7d088c6732d5c47724de", "lat": 38.90900333333333, "lon": -77.04392533333333, "rental_uris": {"android": "https://dc.lft.to/lastmile_qr_scan", "ios": "https://dc.lft.to/lastmile_qr_scan"}, "is_disabled": 0, "fusion_lat": 0.0, "name": "6be5af37302b7d088c6732d5c47724de", "fusion_lon": 0.0}, {"is_reserved": 0, "type": "electric_scooter", "bike_id": "1ee95f45e4a9e4ec95f1579d1d86fb54", "lat": 38.9230035, "lon": -77.04125816666667, "rental_uris": {"android": "https://dc.lft.to/lastmile_qr_scan", "ios": "https://dc.lft.to/lastmile_qr_scan"}, "is_disabled": 0, "fusion_lat": 0.0, "name": "1ee95f45e4a9e4ec95f1579d1d86fb54", "fusion_lon": 0.0}, {"is_reserved": 0, "type": "electric_scooter", "bike_id": "0424f735658629e936330025d5c0d9ed", "lat": 38.95628833333333, "lon": -77.0355715, "rental_uris": {"android": "https://dc.lft.to/lastmile_qr_scan", "ios": "https://dc.lft.to/lastmile_qr_scan"}, "is_disabled": 0, "fusion_lat": 0.0, "name": "0424f735658629e936330025d5c0d9ed", "fusion_lon": 0.0}, {"is_reserved": 0, "type": "electric_scooter", "bike_id": "ad88e93a10ec19e43cb32f0ee5e9a33d", "lat": 38.898496333333334, "lon": -77.028632, "rental_uris": {"android": "https://dc.lft.to/lastmile_qr_scan", "ios": "https://dc.lft.to/lastmile_qr_scan"}, "is_disabled": 0, "fusion_lat": 0.0, "name": "ad88e93a10ec19e43cb32f0ee5e9a33d", "fusion_lon": 0.0}, {"is_reserved": 0, "type": "electric_scooter", "bike_id": "3e388ed3c6075d2535c99771eab4ab7b", "lat": 38.9005955, "lon": -76.98723216666667, "rental_uris": {"android": "https://dc.lft.to/lastmile_qr_scan", "ios": "https://dc.lft.to/lastmile_qr_scan"}, "is_disabled": 0, "fusion_lat": 0.0, "name": "3e388ed3c6075d2535c99771eab4ab7b", "fusion_lon": 0.0}, {"is_reserved": 0, "type": "electric_scooter", "bike_id": "ad15ec1f21939ac40a6e502281d3ca76", "lat": 38.879551166666666, "lon": -77.01661466666667, "rental_uris": {"android": "https://dc.lft.to/lastmile_qr_scan", "ios": "https://dc.lft.to/lastmile_qr_scan"}, "is_disabled": 0, "fusion_lat": 0.0, "name": "ad15ec1f21939ac40a6e502281d3ca76", "fusion_lon": 0.0}, {"is_reserved": 0, "type": "electric_scooter", "bike_id": "ba6ad6f5437f9d69eee2f9cd643aea73", "lat": 38.8789795, "lon": -77.02205616666667, "rental_uris": {"android": "https://dc.lft.to/lastmile_qr_scan", "ios": "https://dc.lft.to/lastmile_qr_scan"}, "is_disabled": 0, "fusion_lat": 0.0, "name": "ba6ad6f5437f9d69eee2f9cd643aea73", "fusion_lon": 0.0}, {"is_reserved": 0, "type": "electric_scooter", "bike_id": "6cc7c7279f7bf40d60b4d8d2989be351", "lat": 38.91709266666667, "lon": -77.03867516666666, "rental_uris": {"android": "https://dc.lft.to/lastmile_qr_scan", "ios": "https://dc.lft.to/lastmile_qr_scan"}, "is_disabled": 0, "fusion_lat": 0.0, "name": "6cc7c7279f7bf40d60b4d8d2989be351", "fusion_lon": 0.0}, {"is_reserved": 0, "type": "electric_bike", "bike_id": "4b0151ef80f2ccf7f13e154edd70ed1b", "lat": 38.990317, "lon": -77.025444, "rental_uris": {"android": "https://dc.lft.to/lastmile_qr_scan", "ios": "https://dc.lft.to/lastmile_qr_scan"}, "is_disabled": 0, "fusion_lat": 0.0, "name": "4b0151ef80f2ccf7f13e154edd70ed1b", "fusion_lon": 0.0}, {"is_reserved": 0, "type": "electric_scooter", "bike_id": "18f7cb55db71c3311847a62a1185e662", "lat": 38.927967333333335, "lon": -77.04064783333334, "rental_uris": {"android": "https://dc.lft.to/lastmile_qr_scan", "ios": "https://dc.lft.to/lastmile_qr_scan"}, "is_disabled": 0, "fusion_lat": 0.0, "name": "18f7cb55db71c3311847a62a1185e662", "fusion_lon": 0.0}, {"is_reserved": 0, "type": "electric_scooter", "bike_id": "772a1ccb1cc404a1acdba707b9f5b3e2", "lat": 38.92018, "lon": -77.01061133333333, "rental_uris": {"android": "https://dc.lft.to/lastmile_qr_scan", "ios": "https://dc.lft.to/lastmile_qr_scan"}, "is_disabled": 0, "fusion_lat": 0.0, "name": "772a1ccb1cc404a1acdba707b9f5b3e2", "fusion_lon": 0.0}, {"is_reserved": 0, "type": "electric_scooter", "bike_id": "39db88f63f9a6dcc860e9cb18a6e5650", "lat": 38.934632666666666, "lon": -77.058083, "rental_uris": {"android": "https://dc.lft.to/lastmile_qr_scan", "ios": "https://dc.lft.to/lastmile_qr_scan"}, "is_disabled": 0, "fusion_lat": 0.0, "name": "39db88f63f9a6dcc860e9cb18a6e5650", "fusion_lon": 0.0}, {"is_reserved": 0, "type": "electric_scooter", "bike_id": "0434f8b08d58745924aa34a4660c58a7", "lat": 38.878190333333336, "lon": -77.02238783333334, "rental_uris": {"android": "https://dc.lft.to/lastmile_qr_scan", "ios": "https://dc.lft.to/lastmile_qr_scan"}, "is_disabled": 0, "fusion_lat": 0.0, "name": "0434f8b08d58745924aa34a4660c58a7", "fusion_lon": 0.0}, {"is_reserved": 0, "type": "electric_scooter", "bike_id": "601c9444a43ad8548f7a0a33faf59b96", "lat": 38.93123583333333, "lon": -77.03615833333333, "rental_uris": {"android": "https://dc.lft.to/lastmile_qr_scan", "ios": "https://dc.lft.to/lastmile_qr_scan"}, "is_disabled": 0, "fusion_lat": 0.0, "name": "601c9444a43ad8548f7a0a33faf59b96", "fusion_lon": 0.0}, {"is_reserved": 0, "type": "electric_scooter", "bike_id": "8fe78a1890e8afc1acac74bf8c0789c2", "lat": 38.923364, "lon": -77.053928, "rental_uris": {"android": "https://dc.lft.to/lastmile_qr_scan", "ios": "https://dc.lft.to/lastmile_qr_scan"}, "is_disabled": 0, "fusion_lat": 0.0, "name": "8fe78a1890e8afc1acac74bf8c0789c2", "fusion_lon": 0.0}, {"is_reserved": 0, "type": "electric_scooter", "bike_id": "d6031fa23e860f74980b5b3e907905ff", "lat": 38.93873416666667, "lon": -77.024631, "rental_uris": {"android": "https://dc.lft.to/lastmile_qr_scan", "ios": "https://dc.lft.to/lastmile_qr_scan"}, "is_disabled": 0, "fusion_lat": 0.0, "name": "d6031fa23e860f74980b5b3e907905ff", "fusion_lon": 0.0}, {"is_reserved": 0, "type": "electric_scooter", "bike_id": "320ee090b0cc2266d3bc052d907d1a74", "lat": 38.90170833333333, "lon": -77.02484416666667, "rental_uris": {"android": "https://dc.lft.to/lastmile_qr_scan", "ios": "https://dc.lft.to/lastmile_qr_scan"}, "is_disabled": 0, "fusion_lat": 0.0, "name": "320ee090b0cc2266d3bc052d907d1a74", "fusion_lon": 0.0}, {"is_reserved": 0, "type": "electric_scooter", "bike_id": "2bfc938b3d0130ed52a1623d11dfdf27", "lat": 38.9236545, "lon": -77.0412585, "rental_uris": {"android": "https://dc.lft.to/lastmile_qr_scan", "ios": "https://dc.lft.to/lastmile_qr_scan"}, "is_disabled": 0, "fusion_lat": 0.0, "name": "2bfc938b3d0130ed52a1623d11dfdf27", "fusion_lon": 0.0}, {"is_reserved": 0, "type": "electric_scooter", "bike_id": "91ee8176b946b2fb6e9d831528f12ece", "lat": 38.924042666666665, "lon": -77.0296955, "rental_uris": {"android": "https://dc.lft.to/lastmile_qr_scan", "ios": "https://dc.lft.to/lastmile_qr_scan"}, "is_disabled": 0, "fusion_lat": 0.0, "name": "91ee8176b946b2fb6e9d831528f12ece", "fusion_lon": 0.0}, {"is_reserved": 0, "type": "electric_scooter", "bike_id": "585f3936b4f10d5175a0c24f6e5ae8ac", "lat": 38.876545, "lon": -77.00725216666666, "rental_uris": {"android": "https://dc.lft.to/lastmile_qr_scan", "ios": "https://dc.lft.to/lastmile_qr_scan"}, "is_disabled": 0, "fusion_lat": 0.0, "name": "585f3936b4f10d5175a0c24f6e5ae8ac", "fusion_lon": 0.0}, {"is_reserved": 0, "type": "electric_scooter", "bike_id": "4d4b832df069406295591f22b6638658", "lat": 38.9313805, "lon": -77.078428, "rental_uris": {"android": "https://dc.lft.to/lastmile_qr_scan", "ios": "https://dc.lft.to/lastmile_qr_scan"}, "is_disabled": 0, "fusion_lat": 0.0, "name": "4d4b832df069406295591f22b6638658", "fusion_lon": 0.0}, {"is_reserved": 0, "type": "electric_scooter", "bike_id": "1aaa3c646bbf551c016444931e492e3b", "lat": 38.92019, "lon": -77.03114916666667, "rental_uris": {"android": "https://dc.lft.to/lastmile_qr_scan", "ios": "https://dc.lft.to/lastmile_qr_scan"}, "is_disabled": 0, "fusion_lat": 0.0, "name": "1aaa3c646bbf551c016444931e492e3b", "fusion_lon": 0.0}, {"is_reserved": 0, "type": "electric_scooter", "bike_id": "cddf280223ab3aef1c443b9b1bd9ad6b", "lat": 38.9159665, "lon": -77.0122615, "rental_uris": {"android": "https://dc.lft.to/lastmile_qr_scan", "ios": "https://dc.lft.to/lastmile_qr_scan"}, "is_disabled": 0, "fusion_lat": 0.0, "name": "cddf280223ab3aef1c443b9b1bd9ad6b", "fusion_lon": 0.0}, {"is_reserved": 0, "type": "electric_scooter", "bike_id": "a45353092830f0e4e7599d478785db38", "lat": 38.89959366666667, "lon": -77.0263785, "rental_uris": {"android": "https://dc.lft.to/lastmile_qr_scan", "ios": "https://dc.lft.to/lastmile_qr_scan"}, "is_disabled": 0, "fusion_lat": 0.0, "name": "a45353092830f0e4e7599d478785db38", "fusion_lon": 0.0}, {"is_reserved": 0, "type": "electric_scooter", "bike_id": "d116396ebfbfe411a9c980da6a7101cb", "lat": 38.89826733333334, "lon": -77.0491, "rental_uris": {"android": "https://dc.lft.to/lastmile_qr_scan", "ios": "https://dc.lft.to/lastmile_qr_scan"}, "is_disabled": 0, "fusion_lat": 0.0, "name": "d116396ebfbfe411a9c980da6a7101cb", "fusion_lon": 0.0}, {"is_reserved": 0, "type": "electric_scooter", "bike_id": "ef525269d7a3efbe7f24be186ccab36e", "lat": 38.893438333333336, "lon": -77.02822416666666, "rental_uris": {"android": "https://dc.lft.to/lastmile_qr_scan", "ios": "https://dc.lft.to/lastmile_qr_scan"}, "is_disabled": 0, "fusion_lat": 0.0, "name": "ef525269d7a3efbe7f24be186ccab36e", "fusion_lon": 0.0}, {"is_reserved": 0, "type": "electric_scooter", "bike_id": "6bf8c3d7e4534eb8383c72f471bf24f7", "lat": 38.90005983333333, "lon": -76.99526433333334, "rental_uris": {"android": "https://dc.lft.to/lastmile_qr_scan", "ios": "https://dc.lft.to/lastmile_qr_scan"}, "is_disabled": 0, "fusion_lat": 0.0, "name": "6bf8c3d7e4534eb8383c72f471bf24f7", "fusion_lon": 0.0}, {"is_reserved": 0, "type": "electric_scooter", "bike_id": "61100e8edb594f22c3e30cd55fb131ac", "lat": 38.897816, "lon": -77.04795833333333, "rental_uris": {"android": "https://dc.lft.to/lastmile_qr_scan", "ios": "https://dc.lft.to/lastmile_qr_scan"}, "is_disabled": 0, "fusion_lat": 0.0, "name": "61100e8edb594f22c3e30cd55fb131ac", "fusion_lon": 0.0}, {"is_reserved": 0, "type": "electric_scooter", "bike_id": "075d7103fe5f4350e23651cd92070171", "lat": 38.903805, "lon": -77.03661383333333, "rental_uris": {"android": "https://dc.lft.to/lastmile_qr_scan", "ios": "https://dc.lft.to/lastmile_qr_scan"}, "is_disabled": 0, "fusion_lat": 0.0, "name": "075d7103fe5f4350e23651cd92070171", "fusion_lon": 0.0}, {"is_reserved": 0, "type": "electric_scooter", "bike_id": "b5869cecdfc9f1ad336fa5ad86c325a7", "lat": 38.9102175, "lon": -76.993721, "rental_uris": {"android": "https://dc.lft.to/lastmile_qr_scan", "ios": "https://dc.lft.to/lastmile_qr_scan"}, "is_disabled": 0, "fusion_lat": 0.0, "name": "b5869cecdfc9f1ad336fa5ad86c325a7", "fusion_lon": 0.0}, {"is_reserved": 0, "type": "electric_scooter", "bike_id": "566120ec647ecd8bae59f2e478381433", "lat": 38.91695983333334, "lon": -77.01193733333334, "rental_uris": {"android": "https://dc.lft.to/lastmile_qr_scan", "ios": "https://dc.lft.to/lastmile_qr_scan"}, "is_disabled": 0, "fusion_lat": 0.0, "name": "566120ec647ecd8bae59f2e478381433", "fusion_lon": 0.0}, {"is_reserved": 0, "type": "electric_scooter", "bike_id": "ba48b9493a5dadd94f9d213175cbb6d6", "lat": 38.92237133333333, "lon": -77.04249316666667, "rental_uris": {"android": "https://dc.lft.to/lastmile_qr_scan", "ios": "https://dc.lft.to/lastmile_qr_scan"}, "is_disabled": 0, "fusion_lat": 0.0, "name": "ba48b9493a5dadd94f9d213175cbb6d6", "fusion_lon": 0.0}, {"is_reserved": 0, "type": "electric_scooter", "bike_id": "3d273aa57a65b56ee6e1c28cf77e196f", "lat": 38.874702166666665, "lon": -77.00333716666667, "rental_uris": {"android": "https://dc.lft.to/lastmile_qr_scan", "ios": "https://dc.lft.to/lastmile_qr_scan"}, "is_disabled": 0, "fusion_lat": 0.0, "name": "3d273aa57a65b56ee6e1c28cf77e196f", "fusion_lon": 0.0}, {"is_reserved": 0, "type": "electric_scooter", "bike_id": "a9cc20d6fbfeb79e73d3c6163f34bd83", "lat": 38.89220016666667, "lon": -77.023091, "rental_uris": {"android": "https://dc.lft.to/lastmile_qr_scan", "ios": "https://dc.lft.to/lastmile_qr_scan"}, "is_disabled": 0, "fusion_lat": 0.0, "name": "a9cc20d6fbfeb79e73d3c6163f34bd83", "fusion_lon": 0.0}, {"is_reserved": 0, "type": "electric_scooter", "bike_id": "31b1c74adeb5173214d5b3e5143a7e47", "lat": 38.915498, "lon": -77.04490416666667, "rental_uris": {"android": "https://dc.lft.to/lastmile_qr_scan", "ios": "https://dc.lft.to/lastmile_qr_scan"}, "is_disabled": 0, "fusion_lat": 0.0, "name": "31b1c74adeb5173214d5b3e5143a7e47", "fusion_lon": 0.0}, {"is_reserved": 0, "type": "electric_scooter", "bike_id": "a0c930156ef4be50ca43d637839b2e87", "lat": 38.910076833333335, "lon": -77.0442205, "rental_uris": {"android": "https://dc.lft.to/lastmile_qr_scan", "ios": "https://dc.lft.to/lastmile_qr_scan"}, "is_disabled": 0, "fusion_lat": 0.0, "name": "a0c930156ef4be50ca43d637839b2e87", "fusion_lon": 0.0}, {"is_reserved": 0, "type": "electric_scooter", "bike_id": "2368210ff5a4118c42b7ddb84230574b", "lat": 38.920255833333336, "lon": -77.03733383333334, "rental_uris": {"android": "https://dc.lft.to/lastmile_qr_scan", "ios": "https://dc.lft.to/lastmile_qr_scan"}, "is_disabled": 0, "fusion_lat": 0.0, "name": "2368210ff5a4118c42b7ddb84230574b", "fusion_lon": 0.0}, {"is_reserved": 0, "type": "electric_scooter", "bike_id": "12d3290206c9bf810dbbda40cc1c4d79", "lat": 38.92412316666667, "lon": -77.0355325, "rental_uris": {"android": "https://dc.lft.to/lastmile_qr_scan", "ios": "https://dc.lft.to/lastmile_qr_scan"}, "is_disabled": 0, "fusion_lat": 0.0, "name": "12d3290206c9bf810dbbda40cc1c4d79", "fusion_lon": 0.0}, {"is_reserved": 0, "type": "electric_scooter", "bike_id": "2e1602dd3f81b7706aa694a8e4efeb2a", "lat": 38.926023666666666, "lon": -77.05176566666667, "rental_uris": {"android": "https://dc.lft.to/lastmile_qr_scan", "ios": "https://dc.lft.to/lastmile_qr_scan"}, "is_disabled": 0, "fusion_lat": 0.0, "name": "2e1602dd3f81b7706aa694a8e4efeb2a", "fusion_lon": 0.0}, {"is_reserved": 0, "type": "electric_bike", "bike_id": "c98fc1bf7cda4c6264dc39061ac26346", "lat": 38.991027833333334, "lon": -76.88154483333334, "rental_uris": {"android": "https://dc.lft.to/lastmile_qr_scan", "ios": "https://dc.lft.to/lastmile_qr_scan"}, "is_disabled": 0, "fusion_lat": 0.0, "name": "c98fc1bf7cda4c6264dc39061ac26346", "fusion_lon": 0.0}, {"is_reserved": 0, "type": "electric_scooter", "bike_id": "63cd52016f55c95e40889bb8ddb21c3f", "lat": 38.908275833333335, "lon": -76.98720533333334, "rental_uris": {"android": "https://dc.lft.to/lastmile_qr_scan", "ios": "https://dc.lft.to/lastmile_qr_scan"}, "is_disabled": 0, "fusion_lat": 0.0, "name": "63cd52016f55c95e40889bb8ddb21c3f", "fusion_lon": 0.0}, {"is_reserved": 0, "type": "electric_scooter", "bike_id": "7dfe6418be22e3067a6edd1c0890cb62", "lat": 38.916956166666665, "lon": -77.03240266666667, "rental_uris": {"android": "https://dc.lft.to/lastmile_qr_scan", "ios": "https://dc.lft.to/lastmile_qr_scan"}, "is_disabled": 0, "fusion_lat": 0.0, "name": "7dfe6418be22e3067a6edd1c0890cb62", "fusion_lon": 0.0}, {"is_reserved": 0, "type": "electric_bike", "bike_id": "63c5833b54a1c586b608dad7c97dbd59", "lat": 38.87080816666667, "lon": -77.01191416666667, "rental_uris": {"android": "https://dc.lft.to/lastmile_qr_scan", "ios": "https://dc.lft.to/lastmile_qr_scan"}, "is_disabled": 0, "fusion_lat": 0.0, "name": "63c5833b54a1c586b608dad7c97dbd59", "fusion_lon": 0.0}, {"is_reserved": 0, "type": "electric_bike", "bike_id": "5294e089a177e3d4b5ccbc26d3f7ca3a", "lat": 38.84331133333333, "lon": -76.99737133333333, "rental_uris": {"android": "https://dc.lft.to/lastmile_qr_scan", "ios": "https://dc.lft.to/lastmile_qr_scan"}, "is_disabled": 0, "fusion_lat": 0.0, "name": "5294e089a177e3d4b5ccbc26d3f7ca3a", "fusion_lon": 0.0}, {"is_reserved": 0, "type": "electric_scooter", "bike_id": "060c011e149180e8e8792b01169fb924", "lat": 38.886287333333335, "lon": -77.0153685, "rental_uris": {"android": "https://dc.lft.to/lastmile_qr_scan", "ios": "https://dc.lft.to/lastmile_qr_scan"}, "is_disabled": 0, "fusion_lat": 0.0, "name": "060c011e149180e8e8792b01169fb924", "fusion_lon": 0.0}, {"is_reserved": 0, "type": "electric_scooter", "bike_id": "4c0cda63d1405398dd5d14184ca6a3f2", "lat": 38.886033, "lon": -77.00402333333334, "rental_uris": {"android": "https://dc.lft.to/lastmile_qr_scan", "ios": "https://dc.lft.to/lastmile_qr_scan"}, "is_disabled": 0, "fusion_lat": 0.0, "name": "4c0cda63d1405398dd5d14184ca6a3f2", "fusion_lon": 0.0}, {"is_reserved": 0, "type": "electric_scooter", "bike_id": "b6a9a0476498b4c50741afcb90a2f6d5", "lat": 38.8900935, "lon": -77.03321866666667, "rental_uris": {"android": "https://dc.lft.to/lastmile_qr_scan", "ios": "https://dc.lft.to/lastmile_qr_scan"}, "is_disabled": 0, "fusion_lat": 0.0, "name": "b6a9a0476498b4c50741afcb90a2f6d5", "fusion_lon": 0.0}, {"is_reserved": 0, "type": "electric_scooter", "bike_id": "32c8e405c3f0308af350b82f97b67264", "lat": 38.92002266666667, "lon": -76.98506433333333, "rental_uris": {"android": "https://dc.lft.to/lastmile_qr_scan", "ios": "https://dc.lft.to/lastmile_qr_scan"}, "is_disabled": 0, "fusion_lat": 0.0, "name": "32c8e405c3f0308af350b82f97b67264", "fusion_lon": 0.0}, {"is_reserved": 0, "type": "electric_scooter", "bike_id": "747e58f1b9c0288bc871901cdb071d3c", "lat": 38.880502166666666, "lon": -77.025571, "rental_uris": {"android": "https://dc.lft.to/lastmile_qr_scan", "ios": "https://dc.lft.to/lastmile_qr_scan"}, "is_disabled": 0, "fusion_lat": 0.0, "name": "747e58f1b9c0288bc871901cdb071d3c", "fusion_lon": 0.0}, {"is_reserved": 0, "type": "electric_scooter", "bike_id": "1786bd09a81f9f050398526187baa7c2", "lat": 38.8949155, "lon": -76.9955445, "rental_uris": {"android": "https://dc.lft.to/lastmile_qr_scan", "ios": "https://dc.lft.to/lastmile_qr_scan"}, "is_disabled": 0, "fusion_lat": 0.0, "name": "1786bd09a81f9f050398526187baa7c2", "fusion_lon": 0.0}, {"is_reserved": 0, "type": "electric_scooter", "bike_id": "bc97f029a6440563e118c8a3d80de7a9", "lat": 38.898527333333334, "lon": -77.02824766666667, "rental_uris": {"android": "https://dc.lft.to/lastmile_qr_scan", "ios": "https://dc.lft.to/lastmile_qr_scan"}, "is_disabled": 0, "fusion_lat": 0.0, "name": "bc97f029a6440563e118c8a3d80de7a9", "fusion_lon": 0.0}, {"is_reserved": 0, "type": "electric_scooter", "bike_id": "ad935efa484a5e6d3030cafdc8724254", "lat": 38.9006335, "lon": -77.0441985, "rental_uris": {"android": "https://dc.lft.to/lastmile_qr_scan", "ios": "https://dc.lft.to/lastmile_qr_scan"}, "is_disabled": 0, "fusion_lat": 0.0, "name": "ad935efa484a5e6d3030cafdc8724254", "fusion_lon": 0.0}, {"is_reserved": 0, "type": "electric_scooter", "bike_id": "589de82127b75549bd69850e62f90756", "lat": 38.903861166666665, "lon": -77.0532275, "rental_uris": {"android": "https://dc.lft.to/lastmile_qr_scan", "ios": "https://dc.lft.to/lastmile_qr_scan"}, "is_disabled": 0, "fusion_lat": 0.0, "name": "589de82127b75549bd69850e62f90756", "fusion_lon": 0.0}, {"is_reserved": 0, "type": "electric_scooter", "bike_id": "851c488f6b230ce84143fb844bb788c1", "lat": 38.897874, "lon": -77.0502765, "rental_uris": {"android": "https://dc.lft.to/lastmile_qr_scan", "ios": "https://dc.lft.to/lastmile_qr_scan"}, "is_disabled": 0, "fusion_lat": 0.0, "name": "851c488f6b230ce84143fb844bb788c1", "fusion_lon": 0.0}, {"is_reserved": 0, "type": "electric_bike", "bike_id": "24bd054cbdc53997f77b50f795ad52d6", "lat": 38.899041, "lon": -76.933532, "rental_uris": {"android": "https://dc.lft.to/lastmile_qr_scan", "ios": "https://dc.lft.to/lastmile_qr_scan"}, "is_disabled": 0, "fusion_lat": 0.0, "name": "24bd054cbdc53997f77b50f795ad52d6", "fusion_lon": 0.0}, {"is_reserved": 0, "type": "electric_scooter", "bike_id": "c1e789fcb67e40e729d265c02fedcda4", "lat": 38.910018666666666, "lon": -77.04008066666667, "rental_uris": {"android": "https://dc.lft.to/lastmile_qr_scan", "ios": "https://dc.lft.to/lastmile_qr_scan"}, "is_disabled": 0, "fusion_lat": 0.0, "name": "c1e789fcb67e40e729d265c02fedcda4", "fusion_lon": 0.0}, {"is_reserved": 0, "type": "electric_bike", "bike_id": "8443b264eaead64b830f34360a9950de", "lat": 38.9160665, "lon": -77.00290166666667, "rental_uris": {"android": "https://dc.lft.to/lastmile_qr_scan", "ios": "https://dc.lft.to/lastmile_qr_scan"}, "is_disabled": 0, "fusion_lat": 0.0, "name": "8443b264eaead64b830f34360a9950de", "fusion_lon": 0.0}, {"is_reserved": 0, "type": "electric_scooter", "bike_id": "43b08454771c3b3333d9d742fb889ee2", "lat": 38.897554, "lon": -77.00200483333333, "rental_uris": {"android": "https://dc.lft.to/lastmile_qr_scan", "ios": "https://dc.lft.to/lastmile_qr_scan"}, "is_disabled": 0, "fusion_lat": 0.0, "name": "43b08454771c3b3333d9d742fb889ee2", "fusion_lon": 0.0}, {"is_reserved": 0, "type": "electric_scooter", "bike_id": "29f10ee289aec19f31f5838204d3c0fd", "lat": 38.90025266666667, "lon": -76.99597416666667, "rental_uris": {"android": "https://dc.lft.to/lastmile_qr_scan", "ios": "https://dc.lft.to/lastmile_qr_scan"}, "is_disabled": 0, "fusion_lat": 0.0, "name": "29f10ee289aec19f31f5838204d3c0fd", "fusion_lon": 0.0}, {"is_reserved": 0, "type": "electric_scooter", "bike_id": "ade136685535c51873fc443dcf016626", "lat": 38.9055315, "lon": -77.0569905, "rental_uris": {"android": "https://dc.lft.to/lastmile_qr_scan", "ios": "https://dc.lft.to/lastmile_qr_scan"}, "is_disabled": 0, "fusion_lat": 0.0, "name": "ade136685535c51873fc443dcf016626", "fusion_lon": 0.0}, {"is_reserved": 0, "type": "electric_scooter", "bike_id": "75c3035d86077aef86fbc87fc167e2a0", "lat": 38.897105, "lon": -77.05359166666666, "rental_uris": {"android": "https://dc.lft.to/lastmile_qr_scan", "ios": "https://dc.lft.to/lastmile_qr_scan"}, "is_disabled": 0, "fusion_lat": 0.0, "name": "75c3035d86077aef86fbc87fc167e2a0", "fusion_lon": 0.0}, {"is_reserved": 0, "type": "electric_bike", "bike_id": "42b3f0237f39f3eba29371692bb151eb", "lat": 38.80728383333334, "lon": -76.99252066666666, "rental_uris": {"android": "https://dc.lft.to/lastmile_qr_scan", "ios": "https://dc.lft.to/lastmile_qr_scan"}, "is_disabled": 0, "fusion_lat": 0.0, "name": "42b3f0237f39f3eba29371692bb151eb", "fusion_lon": 0.0}, {"is_reserved": 0, "type": "electric_scooter", "bike_id": "ec1c58e3734060265cd5c258491ff144", "lat": 38.87203266666667, "lon": -77.0154655, "rental_uris": {"android": "https://dc.lft.to/lastmile_qr_scan", "ios": "https://dc.lft.to/lastmile_qr_scan"}, "is_disabled": 0, "fusion_lat": 0.0, "name": "ec1c58e3734060265cd5c258491ff144", "fusion_lon": 0.0}, {"is_reserved": 0, "type": "electric_bike", "bike_id": "122a0ab9eb07f610ff207deadfb7172e", "lat": 38.905495333333334, "lon": -77.00196166666667, "rental_uris": {"android": "https://dc.lft.to/lastmile_qr_scan", "ios": "https://dc.lft.to/lastmile_qr_scan"}, "is_disabled": 0, "fusion_lat": 0.0, "name": "122a0ab9eb07f610ff207deadfb7172e", "fusion_lon": 0.0}, {"is_reserved": 0, "type": "electric_scooter", "bike_id": "7e72c52da7a0d3864a705ed34456b9e5", "lat": 38.924349166666666, "lon": -77.02243766666666, "rental_uris": {"android": "https://dc.lft.to/lastmile_qr_scan", "ios": "https://dc.lft.to/lastmile_qr_scan"}, "is_disabled": 0, "fusion_lat": 0.0, "name": "7e72c52da7a0d3864a705ed34456b9e5", "fusion_lon": 0.0}, {"is_reserved": 0, "type": "electric_scooter", "bike_id": "b886f93a73b761d324908f2dac68c64f", "lat": 38.899122, "lon": -77.003723, "rental_uris": {"android": "https://dc.lft.to/lastmile_qr_scan", "ios": "https://dc.lft.to/lastmile_qr_scan"}, "is_disabled": 0, "fusion_lat": 0.0, "name": "b886f93a73b761d324908f2dac68c64f", "fusion_lon": 0.0}, {"is_reserved": 0, "type": "electric_scooter", "bike_id": "0d8904f236352b669dbacb3de7587d62", "lat": 38.922477, "lon": -77.02884216666666, "rental_uris": {"android": "https://dc.lft.to/lastmile_qr_scan", "ios": "https://dc.lft.to/lastmile_qr_scan"}, "is_disabled": 0, "fusion_lat": 0.0, "name": "0d8904f236352b669dbacb3de7587d62", "fusion_lon": 0.0}, {"is_reserved": 0, "type": "electric_scooter", "bike_id": "6985538868e01919c7c1e45a30ec63f5", "lat": 38.90681283333333, "lon": -77.06280466666666, "rental_uris": {"android": "https://dc.lft.to/lastmile_qr_scan", "ios": "https://dc.lft.to/lastmile_qr_scan"}, "is_disabled": 0, "fusion_lat": 0.0, "name": "6985538868e01919c7c1e45a30ec63f5", "fusion_lon": 0.0}, {"is_reserved": 0, "type": "electric_scooter", "bike_id": "e73835f77a12e1d0d30a12a9270c9d74", "lat": 38.90176366666667, "lon": -76.92891433333334, "rental_uris": {"android": "https://dc.lft.to/lastmile_qr_scan", "ios": "https://dc.lft.to/lastmile_qr_scan"}, "is_disabled": 0, "fusion_lat": 0.0, "name": "e73835f77a12e1d0d30a12a9270c9d74", "fusion_lon": 0.0}, {"is_reserved": 0, "type": "electric_bike", "bike_id": "6a47b7af8ca8501cf8a107f92b9527eb", "lat": 38.8038195, "lon": -76.988126, "rental_uris": {"android": "https://dc.lft.to/lastmile_qr_scan", "ios": "https://dc.lft.to/lastmile_qr_scan"}, "is_disabled": 0, "fusion_lat": 0.0, "name": "6a47b7af8ca8501cf8a107f92b9527eb", "fusion_lon": 0.0}, {"is_reserved": 0, "type": "electric_scooter", "bike_id": "481831b9c3715898ac7660f692199777", "lat": 38.92236366666667, "lon": -77.04706433333334, "rental_uris": {"android": "https://dc.lft.to/lastmile_qr_scan", "ios": "https://dc.lft.to/lastmile_qr_scan"}, "is_disabled": 0, "fusion_lat": 0.0, "name": "481831b9c3715898ac7660f692199777", "fusion_lon": 0.0}, {"is_reserved": 0, "type": "electric_scooter", "bike_id": "be9d50af3164666af625935c5738f9c9", "lat": 38.907111666666665, "lon": -77.03172583333334, "rental_uris": {"android": "https://dc.lft.to/lastmile_qr_scan", "ios": "https://dc.lft.to/lastmile_qr_scan"}, "is_disabled": 0, "fusion_lat": 0.0, "name": "be9d50af3164666af625935c5738f9c9", "fusion_lon": 0.0}, {"is_reserved": 0, "type": "electric_scooter", "bike_id": "bc16924cbbf0b1d1ba8cc756f7073f06", "lat": 38.926286, "lon": -77.03783383333334, "rental_uris": {"android": "https://dc.lft.to/lastmile_qr_scan", "ios": "https://dc.lft.to/lastmile_qr_scan"}, "is_disabled": 0, "fusion_lat": 0.0, "name": "bc16924cbbf0b1d1ba8cc756f7073f06", "fusion_lon": 0.0}, {"is_reserved": 0, "type": "electric_scooter", "bike_id": "81e2cedab72a9efe4b6ed28a36cef91b", "lat": 38.84798833333333, "lon": -76.978248, "rental_uris": {"android": "https://dc.lft.to/lastmile_qr_scan", "ios": "https://dc.lft.to/lastmile_qr_scan"}, "is_disabled": 0, "fusion_lat": 0.0, "name": "81e2cedab72a9efe4b6ed28a36cef91b", "fusion_lon": 0.0}, {"is_reserved": 0, "type": "electric_scooter", "bike_id": "faf052f735d99ea4d4088a43397733eb", "lat": 38.931999, "lon": -77.03853233333334, "rental_uris": {"android": "https://dc.lft.to/lastmile_qr_scan", "ios": "https://dc.lft.to/lastmile_qr_scan"}, "is_disabled": 0, "fusion_lat": 0.0, "name": "faf052f735d99ea4d4088a43397733eb", "fusion_lon": 0.0}, {"is_reserved": 0, "type": "electric_scooter", "bike_id": "ea28d23f677944e073cc4c1409ff4b4d", "lat": 38.91597616666667, "lon": -77.01218816666666, "rental_uris": {"android": "https://dc.lft.to/lastmile_qr_scan", "ios": "https://dc.lft.to/lastmile_qr_scan"}, "is_disabled": 0, "fusion_lat": 0.0, "name": "ea28d23f677944e073cc4c1409ff4b4d", "fusion_lon": 0.0}, {"is_reserved": 0, "type": "electric_scooter", "bike_id": "ca49e3c38da8f68d9ba54cac7437dcf7", "lat": 38.90742433333333, "lon": -77.04155616666667, "rental_uris": {"android": "https://dc.lft.to/lastmile_qr_scan", "ios": "https://dc.lft.to/lastmile_qr_scan"}, "is_disabled": 0, "fusion_lat": 0.0, "name": "ca49e3c38da8f68d9ba54cac7437dcf7", "fusion_lon": 0.0}, {"is_reserved": 0, "type": "electric_bike", "bike_id": "a13e50541b5dfc73ca60f58472fad6cd", "lat": 38.808650166666666, "lon": -77.112582, "rental_uris": {"android": "https://dc.lft.to/lastmile_qr_scan", "ios": "https://dc.lft.to/lastmile_qr_scan"}, "is_disabled": 0, "fusion_lat": 0.0, "name": "a13e50541b5dfc73ca60f58472fad6cd", "fusion_lon": 0.0}, {"is_reserved": 0, "type": "electric_scooter", "bike_id": "3da6a5dba43a295130e5d25f6a6513e6", "lat": 38.900896333333336, "lon": -77.01597916666667, "rental_uris": {"android": "https://dc.lft.to/lastmile_qr_scan", "ios": "https://dc.lft.to/lastmile_qr_scan"}, "is_disabled": 0, "fusion_lat": 0.0, "name": "3da6a5dba43a295130e5d25f6a6513e6", "fusion_lon": 0.0}, {"is_reserved": 0, "type": "electric_scooter", "bike_id": "2e4719f7119e001d20446fd7cb024d36", "lat": 38.93519033333333, "lon": -77.01953616666667, "rental_uris": {"android": "https://dc.lft.to/lastmile_qr_scan", "ios": "https://dc.lft.to/lastmile_qr_scan"}, "is_disabled": 0, "fusion_lat": 0.0, "name": "2e4719f7119e001d20446fd7cb024d36", "fusion_lon": 0.0}, {"is_reserved": 0, "type": "electric_scooter", "bike_id": "f8e7596ceb9e140e2bcae1f93806e4eb", "lat": 38.905666333333336, "lon": -77.00615633333334, "rental_uris": {"android": "https://dc.lft.to/lastmile_qr_scan", "ios": "https://dc.lft.to/lastmile_qr_scan"}, "is_disabled": 0, "fusion_lat": 0.0, "name": "f8e7596ceb9e140e2bcae1f93806e4eb", "fusion_lon": 0.0}, {"is_reserved": 0, "type": "electric_scooter", "bike_id": "b04a6559148293fbd901ea139471a36d", "lat": 38.925694166666666, "lon": -77.03102283333334, "rental_uris": {"android": "https://dc.lft.to/lastmile_qr_scan", "ios": "https://dc.lft.to/lastmile_qr_scan"}, "is_disabled": 0, "fusion_lat": 0.0, "name": "b04a6559148293fbd901ea139471a36d", "fusion_lon": 0.0}, {"is_reserved": 0, "type": "electric_scooter", "bike_id": "14c3674bd3097ee864e40254826d7b36", "lat": 38.872532166666666, "lon": -77.01685033333334, "rental_uris": {"android": "https://dc.lft.to/lastmile_qr_scan", "ios": "https://dc.lft.to/lastmile_qr_scan"}, "is_disabled": 0, "fusion_lat": 0.0, "name": "14c3674bd3097ee864e40254826d7b36", "fusion_lon": 0.0}, {"is_reserved": 0, "type": "electric_scooter", "bike_id": "44bfd9efa989ac4892a769608e724644", "lat": 38.9040105, "lon": -77.06784733333333, "rental_uris": {"android": "https://dc.lft.to/lastmile_qr_scan", "ios": "https://dc.lft.to/lastmile_qr_scan"}, "is_disabled": 0, "fusion_lat": 0.0, "name": "44bfd9efa989ac4892a769608e724644", "fusion_lon": 0.0}, {"is_reserved": 0, "type": "electric_scooter", "bike_id": "44538ffcf49565fb419b39605dc2c812", "lat": 38.909594, "lon": -77.03628483333334, "rental_uris": {"android": "https://dc.lft.to/lastmile_qr_scan", "ios": "https://dc.lft.to/lastmile_qr_scan"}, "is_disabled": 0, "fusion_lat": 0.0, "name": "44538ffcf49565fb419b39605dc2c812", "fusion_lon": 0.0}, {"is_reserved": 0, "type": "electric_scooter", "bike_id": "29fb7deb31f9e7f4bff1e1c10f6b1b12", "lat": 38.906862, "lon": -77.06257866666667, "rental_uris": {"android": "https://dc.lft.to/lastmile_qr_scan", "ios": "https://dc.lft.to/lastmile_qr_scan"}, "is_disabled": 0, "fusion_lat": 0.0, "name": "29fb7deb31f9e7f4bff1e1c10f6b1b12", "fusion_lon": 0.0}, {"is_reserved": 0, "type": "electric_scooter", "bike_id": "0678e1371b6926e6dc8738b107f2af9a", "lat": 38.9197965, "lon": -77.009121, "rental_uris": {"android": "https://dc.lft.to/lastmile_qr_scan", "ios": "https://dc.lft.to/lastmile_qr_scan"}, "is_disabled": 0, "fusion_lat": 0.0, "name": "0678e1371b6926e6dc8738b107f2af9a", "fusion_lon": 0.0}, {"is_reserved": 0, "type": "electric_scooter", "bike_id": "cd96d2388e166d9f5c5d964da59abeb7", "lat": 38.887391, "lon": -77.013515, "rental_uris": {"android": "https://dc.lft.to/lastmile_qr_scan", "ios": "https://dc.lft.to/lastmile_qr_scan"}, "is_disabled": 0, "fusion_lat": 0.0, "name": "cd96d2388e166d9f5c5d964da59abeb7", "fusion_lon": 0.0}, {"is_reserved": 0, "type": "electric_scooter", "bike_id": "52e4e3f49d909fd5f80c97f3a3073ac1", "lat": 38.89800666666667, "lon": -76.988921, "rental_uris": {"android": "https://dc.lft.to/lastmile_qr_scan", "ios": "https://dc.lft.to/lastmile_qr_scan"}, "is_disabled": 0, "fusion_lat": 0.0, "name": "52e4e3f49d909fd5f80c97f3a3073ac1", "fusion_lon": 0.0}, {"is_reserved": 0, "type": "electric_bike", "bike_id": "7bd01d835193ee5c09bd8e8f7910c081", "lat": 38.9105065, "lon": -77.02187566666667, "rental_uris": {"android": "https://dc.lft.to/lastmile_qr_scan", "ios": "https://dc.lft.to/lastmile_qr_scan"}, "is_disabled": 0, "fusion_lat": 0.0, "name": "7bd01d835193ee5c09bd8e8f7910c081", "fusion_lon": 0.0}, {"is_reserved": 0, "type": "electric_scooter", "bike_id": "dd35f6f5e62ac375539305302472f1a2", "lat": 38.903728, "lon": -77.02849933333333, "rental_uris": {"android": "https://dc.lft.to/lastmile_qr_scan", "ios": "https://dc.lft.to/lastmile_qr_scan"}, "is_disabled": 0, "fusion_lat": 0.0, "name": "dd35f6f5e62ac375539305302472f1a2", "fusion_lon": 0.0}, {"is_reserved": 0, "type": "electric_scooter", "bike_id": "ad2d9133f3a716931b12cf12824a388c", "lat": 38.898801166666665, "lon": -77.04867733333333, "rental_uris": {"android": "https://dc.lft.to/lastmile_qr_scan", "ios": "https://dc.lft.to/lastmile_qr_scan"}, "is_disabled": 0, "fusion_lat": 0.0, "name": "ad2d9133f3a716931b12cf12824a388c", "fusion_lon": 0.0}, {"is_reserved": 0, "type": "electric_scooter", "bike_id": "cd3c95aaacb75c4eb163c41f8bd5d25d", "lat": 38.899263833333336, "lon": -77.0187875, "rental_uris": {"android": "https://dc.lft.to/lastmile_qr_scan", "ios": "https://dc.lft.to/lastmile_qr_scan"}, "is_disabled": 0, "fusion_lat": 0.0, "name": "cd3c95aaacb75c4eb163c41f8bd5d25d", "fusion_lon": 0.0}, {"is_reserved": 0, "type": "electric_scooter", "bike_id": "b6ff1ddc7746378c4d8e6c37a14b2d26", "lat": 38.892320833333336, "lon": -77.01976283333333, "rental_uris": {"android": "https://dc.lft.to/lastmile_qr_scan", "ios": "https://dc.lft.to/lastmile_qr_scan"}, "is_disabled": 0, "fusion_lat": 0.0, "name": "b6ff1ddc7746378c4d8e6c37a14b2d26", "fusion_lon": 0.0}, {"is_reserved": 0, "type": "electric_scooter", "bike_id": "55ec217574a6c51b3941beb7a7498c90", "lat": 38.90044116666667, "lon": -77.03214983333334, "rental_uris": {"android": "https://dc.lft.to/lastmile_qr_scan", "ios": "https://dc.lft.to/lastmile_qr_scan"}, "is_disabled": 0, "fusion_lat": 0.0, "name": "55ec217574a6c51b3941beb7a7498c90", "fusion_lon": 0.0}, {"is_reserved": 0, "type": "electric_scooter", "bike_id": "07e8f12faf080aca85e2c60dcfc59789", "lat": 38.92416633333333, "lon": -76.95146616666666, "rental_uris": {"android": "https://dc.lft.to/lastmile_qr_scan", "ios": "https://dc.lft.to/lastmile_qr_scan"}, "is_disabled": 0, "fusion_lat": 0.0, "name": "07e8f12faf080aca85e2c60dcfc59789", "fusion_lon": 0.0}, {"is_reserved": 0, "type": "electric_scooter", "bike_id": "94f1347f47f82a8e9745e3300f4b3d78", "lat": 38.917016833333335, "lon": -77.0397275, "rental_uris": {"android": "https://dc.lft.to/lastmile_qr_scan", "ios": "https://dc.lft.to/lastmile_qr_scan"}, "is_disabled": 0, "fusion_lat": 0.0, "name": "94f1347f47f82a8e9745e3300f4b3d78", "fusion_lon": 0.0}, {"is_reserved": 0, "type": "electric_scooter", "bike_id": "35dbcdc58acb0e433ec7361b443b0546", "lat": 38.90394883333333, "lon": -76.98942166666667, "rental_uris": {"android": "https://dc.lft.to/lastmile_qr_scan", "ios": "https://dc.lft.to/lastmile_qr_scan"}, "is_disabled": 0, "fusion_lat": 0.0, "name": "35dbcdc58acb0e433ec7361b443b0546", "fusion_lon": 0.0}, {"is_reserved": 0, "type": "electric_scooter", "bike_id": "642aac3b8f0ca6ccd2d031568f91e802", "lat": 38.91821766666666, "lon": -77.04008116666667, "rental_uris": {"android": "https://dc.lft.to/lastmile_qr_scan", "ios": "https://dc.lft.to/lastmile_qr_scan"}, "is_disabled": 0, "fusion_lat": 0.0, "name": "642aac3b8f0ca6ccd2d031568f91e802", "fusion_lon": 0.0}, {"is_reserved": 0, "type": "electric_bike", "bike_id": "5e3a2845cade5bb26f9ba62da73db657", "lat": 38.9431565, "lon": -76.99016016666667, "rental_uris": {"android": "https://dc.lft.to/lastmile_qr_scan", "ios": "https://dc.lft.to/lastmile_qr_scan"}, "is_disabled": 0, "fusion_lat": 0.0, "name": "5e3a2845cade5bb26f9ba62da73db657", "fusion_lon": 0.0}, {"is_reserved": 0, "type": "electric_bike", "bike_id": "a69079a18d1c56853c12d8e6d4b876eb", "lat": 38.861087166666664, "lon": -76.98370766666666, "rental_uris": {"android": "https://dc.lft.to/lastmile_qr_scan", "ios": "https://dc.lft.to/lastmile_qr_scan"}, "is_disabled": 0, "fusion_lat": 0.0, "name": "a69079a18d1c56853c12d8e6d4b876eb", "fusion_lon": 0.0}, {"is_reserved": 0, "type": "electric_bike", "bike_id": "3b3c470dae372a7b916dfa8881e81c00", "lat": 38.87210533333333, "lon": -77.1173945, "rental_uris": {"android": "https://dc.lft.to/lastmile_qr_scan", "ios": "https://dc.lft.to/lastmile_qr_scan"}, "is_disabled": 0, "fusion_lat": 0.0, "name": "3b3c470dae372a7b916dfa8881e81c00", "fusion_lon": 0.0}, {"is_reserved": 0, "type": "electric_scooter", "bike_id": "a46356060302433b77b2fd2fa8aa2d56", "lat": 38.946923166666664, "lon": -77.02244716666667, "rental_uris": {"android": "https://dc.lft.to/lastmile_qr_scan", "ios": "https://dc.lft.to/lastmile_qr_scan"}, "is_disabled": 0, "fusion_lat": 0.0, "name": "a46356060302433b77b2fd2fa8aa2d56", "fusion_lon": 0.0}, {"is_reserved": 0, "type": "electric_scooter", "bike_id": "eb14fec82a25111d1fca53803f99dd8e", "lat": 38.912536333333335, "lon": -76.98349316666666, "rental_uris": {"android": "https://dc.lft.to/lastmile_qr_scan", "ios": "https://dc.lft.to/lastmile_qr_scan"}, "is_disabled": 0, "fusion_lat": 0.0, "name": "eb14fec82a25111d1fca53803f99dd8e", "fusion_lon": 0.0}, {"is_reserved": 0, "type": "electric_scooter", "bike_id": "374ee1c00636748f5d0e8fb4ca112037", "lat": 38.89857683333334, "lon": -76.97756766666667, "rental_uris": {"android": "https://dc.lft.to/lastmile_qr_scan", "ios": "https://dc.lft.to/lastmile_qr_scan"}, "is_disabled": 0, "fusion_lat": 0.0, "name": "374ee1c00636748f5d0e8fb4ca112037", "fusion_lon": 0.0}, {"is_reserved": 0, "type": "electric_scooter", "bike_id": "79bc4ad8fc14717fae2ebf3e9fd5f637", "lat": 38.93043016666667, "lon": -77.02332566666666, "rental_uris": {"android": "https://dc.lft.to/lastmile_qr_scan", "ios": "https://dc.lft.to/lastmile_qr_scan"}, "is_disabled": 0, "fusion_lat": 0.0, "name": "79bc4ad8fc14717fae2ebf3e9fd5f637", "fusion_lon": 0.0}, {"is_reserved": 0, "type": "electric_bike", "bike_id": "484c2b8cd5f30ee1d2d3623aa7541a26", "lat": 38.8621715, "lon": -76.99487, "rental_uris": {"android": "https://dc.lft.to/lastmile_qr_scan", "ios": "https://dc.lft.to/lastmile_qr_scan"}, "is_disabled": 0, "fusion_lat": 0.0, "name": "484c2b8cd5f30ee1d2d3623aa7541a26", "fusion_lon": 0.0}, {"is_reserved": 0, "type": "electric_scooter", "bike_id": "0774d53906e35902e0a6bb54bdc97908", "lat": 38.91508183333333, "lon": -77.00337416666666, "rental_uris": {"android": "https://dc.lft.to/lastmile_qr_scan", "ios": "https://dc.lft.to/lastmile_qr_scan"}, "is_disabled": 0, "fusion_lat": 0.0, "name": "0774d53906e35902e0a6bb54bdc97908", "fusion_lon": 0.0}, {"is_reserved": 0, "type": "electric_scooter", "bike_id": "8b4e3e49edb132679f6c231adbdaf95a", "lat": 38.926999333333335, "lon": -77.02287483333333, "rental_uris": {"android": "https://dc.lft.to/lastmile_qr_scan", "ios": "https://dc.lft.to/lastmile_qr_scan"}, "is_disabled": 0, "fusion_lat": 0.0, "name": "8b4e3e49edb132679f6c231adbdaf95a", "fusion_lon": 0.0}, {"is_reserved": 0, "type": "electric_scooter", "bike_id": "8ec69872f292352bd3875de501749a2a", "lat": 38.92073383333334, "lon": -77.0221475, "rental_uris": {"android": "https://dc.lft.to/lastmile_qr_scan", "ios": "https://dc.lft.to/lastmile_qr_scan"}, "is_disabled": 0, "fusion_lat": 0.0, "name": "8ec69872f292352bd3875de501749a2a", "fusion_lon": 0.0}, {"is_reserved": 0, "type": "electric_scooter", "bike_id": "9bc9d21442db0f3c44068655c671e5bc", "lat": 38.899634666666664, "lon": -77.02605166666666, "rental_uris": {"android": "https://dc.lft.to/lastmile_qr_scan", "ios": "https://dc.lft.to/lastmile_qr_scan"}, "is_disabled": 0, "fusion_lat": 0.0, "name": "9bc9d21442db0f3c44068655c671e5bc", "fusion_lon": 0.0}, {"is_reserved": 0, "type": "electric_scooter", "bike_id": "899562c2acabf74ddad4dbf3024d059a", "lat": 38.91804333333333, "lon": -77.02493833333334, "rental_uris": {"android": "https://dc.lft.to/lastmile_qr_scan", "ios": "https://dc.lft.to/lastmile_qr_scan"}, "is_disabled": 0, "fusion_lat": 0.0, "name": "899562c2acabf74ddad4dbf3024d059a", "fusion_lon": 0.0}, {"is_reserved": 0, "type": "electric_scooter", "bike_id": "eed8f5445754d440bbf67d09484bc268", "lat": 38.9418055, "lon": -77.0252875, "rental_uris": {"android": "https://dc.lft.to/lastmile_qr_scan", "ios": "https://dc.lft.to/lastmile_qr_scan"}, "is_disabled": 0, "fusion_lat": 0.0, "name": "eed8f5445754d440bbf67d09484bc268", "fusion_lon": 0.0}, {"is_reserved": 0, "type": "electric_scooter", "bike_id": "5a22916062dc7675ba6e47e8ef5320e8", "lat": 38.89589383333333, "lon": -76.9298385, "rental_uris": {"android": "https://dc.lft.to/lastmile_qr_scan", "ios": "https://dc.lft.to/lastmile_qr_scan"}, "is_disabled": 0, "fusion_lat": 0.0, "name": "5a22916062dc7675ba6e47e8ef5320e8", "fusion_lon": 0.0}, {"is_reserved": 0, "type": "electric_bike", "bike_id": "50fa3357f9886bc739e1f0dbff8303d8", "lat": 38.918593, "lon": -76.96088116666667, "rental_uris": {"android": "https://dc.lft.to/lastmile_qr_scan", "ios": "https://dc.lft.to/lastmile_qr_scan"}, "is_disabled": 0, "fusion_lat": 0.0, "name": "50fa3357f9886bc739e1f0dbff8303d8", "fusion_lon": 0.0}, {"is_reserved": 0, "type": "electric_scooter", "bike_id": "1503ba1064857c3593a80a8b6362df36", "lat": 38.90601983333333, "lon": -77.05697766666667, "rental_uris": {"android": "https://dc.lft.to/lastmile_qr_scan", "ios": "https://dc.lft.to/lastmile_qr_scan"}, "is_disabled": 0, "fusion_lat": 0.0, "name": "1503ba1064857c3593a80a8b6362df36", "fusion_lon": 0.0}, {"is_reserved": 0, "type": "electric_scooter", "bike_id": "334dea45d706e80e876412fe0c64adb3", "lat": 38.902719166666664, "lon": -77.0207395, "rental_uris": {"android": "https://dc.lft.to/lastmile_qr_scan", "ios": "https://dc.lft.to/lastmile_qr_scan"}, "is_disabled": 0, "fusion_lat": 0.0, "name": "334dea45d706e80e876412fe0c64adb3", "fusion_lon": 0.0}, {"is_reserved": 0, "type": "electric_scooter", "bike_id": "666950ece7cc664899a4834825b1d0b2", "lat": 38.926824333333336, "lon": -77.02829866666667, "rental_uris": {"android": "https://dc.lft.to/lastmile_qr_scan", "ios": "https://dc.lft.to/lastmile_qr_scan"}, "is_disabled": 0, "fusion_lat": 0.0, "name": "666950ece7cc664899a4834825b1d0b2", "fusion_lon": 0.0}, {"is_reserved": 0, "type": "electric_scooter", "bike_id": "d0efe28c78def285bc209b7a9bdf400f", "lat": 38.915519333333336, "lon": -77.03331233333333, "rental_uris": {"android": "https://dc.lft.to/lastmile_qr_scan", "ios": "https://dc.lft.to/lastmile_qr_scan"}, "is_disabled": 0, "fusion_lat": 0.0, "name": "d0efe28c78def285bc209b7a9bdf400f", "fusion_lon": 0.0}, {"is_reserved": 0, "type": "electric_scooter", "bike_id": "fc5e1caa6713d74fcc4c63dadfd6eb1d", "lat": 38.88522283333333, "lon": -76.99620266666666, "rental_uris": {"android": "https://dc.lft.to/lastmile_qr_scan", "ios": "https://dc.lft.to/lastmile_qr_scan"}, "is_disabled": 0, "fusion_lat": 0.0, "name": "fc5e1caa6713d74fcc4c63dadfd6eb1d", "fusion_lon": 0.0}, {"is_reserved": 0, "type": "electric_scooter", "bike_id": "18da029b3173060b58e2893af3851885", "lat": 38.89264466666667, "lon": -77.05008716666667, "rental_uris": {"android": "https://dc.lft.to/lastmile_qr_scan", "ios": "https://dc.lft.to/lastmile_qr_scan"}, "is_disabled": 0, "fusion_lat": 0.0, "name": "18da029b3173060b58e2893af3851885", "fusion_lon": 0.0}, {"is_reserved": 0, "type": "electric_scooter", "bike_id": "eae7237d1294533943cc77b70a813bfa", "lat": 38.91940483333333, "lon": -77.01353366666666, "rental_uris": {"android": "https://dc.lft.to/lastmile_qr_scan", "ios": "https://dc.lft.to/lastmile_qr_scan"}, "is_disabled": 0, "fusion_lat": 0.0, "name": "eae7237d1294533943cc77b70a813bfa", "fusion_lon": 0.0}, {"is_reserved": 0, "type": "electric_scooter", "bike_id": "9c079cf1b3cfd6267ecd1b221c5bcc36", "lat": 38.906844, "lon": -77.06252766666667, "rental_uris": {"android": "https://dc.lft.to/lastmile_qr_scan", "ios": "https://dc.lft.to/lastmile_qr_scan"}, "is_disabled": 0, "fusion_lat": 0.0, "name": "9c079cf1b3cfd6267ecd1b221c5bcc36", "fusion_lon": 0.0}, {"is_reserved": 0, "type": "electric_scooter", "bike_id": "29457e79e09f496cb30d4afbb13f95ea", "lat": 38.916301833333335, "lon": -77.04601866666667, "rental_uris": {"android": "https://dc.lft.to/lastmile_qr_scan", "ios": "https://dc.lft.to/lastmile_qr_scan"}, "is_disabled": 0, "fusion_lat": 0.0, "name": "29457e79e09f496cb30d4afbb13f95ea", "fusion_lon": 0.0}, {"is_reserved": 0, "type": "electric_scooter", "bike_id": "ebeb3f4f40cdde10df8cd468dce1ef79", "lat": 38.9066065, "lon": -77.009149, "rental_uris": {"android": "https://dc.lft.to/lastmile_qr_scan", "ios": "https://dc.lft.to/lastmile_qr_scan"}, "is_disabled": 0, "fusion_lat": 0.0, "name": "ebeb3f4f40cdde10df8cd468dce1ef79", "fusion_lon": 0.0}, {"is_reserved": 0, "type": "electric_scooter", "bike_id": "5ec0d4e885f78e3230028aa5093026ea", "lat": 38.92843033333333, "lon": -77.055077, "rental_uris": {"android": "https://dc.lft.to/lastmile_qr_scan", "ios": "https://dc.lft.to/lastmile_qr_scan"}, "is_disabled": 0, "fusion_lat": 0.0, "name": "5ec0d4e885f78e3230028aa5093026ea", "fusion_lon": 0.0}, {"is_reserved": 0, "type": "electric_scooter", "bike_id": "985d08b2029e0c06e01c2c3a792c3aab", "lat": 38.92752083333333, "lon": -77.02458683333333, "rental_uris": {"android": "https://dc.lft.to/lastmile_qr_scan", "ios": "https://dc.lft.to/lastmile_qr_scan"}, "is_disabled": 0, "fusion_lat": 0.0, "name": "985d08b2029e0c06e01c2c3a792c3aab", "fusion_lon": 0.0}, {"is_reserved": 0, "type": "electric_scooter", "bike_id": "19de37bb890d6c65a74bb210d2e73cf2", "lat": 38.897241, "lon": -77.02164866666666, "rental_uris": {"android": "https://dc.lft.to/lastmile_qr_scan", "ios": "https://dc.lft.to/lastmile_qr_scan"}, "is_disabled": 0, "fusion_lat": 0.0, "name": "19de37bb890d6c65a74bb210d2e73cf2", "fusion_lon": 0.0}, {"is_reserved": 0, "type": "electric_scooter", "bike_id": "377f433ec0a24bfb395f8fcb5beb7f66", "lat": 38.942257, "lon": -77.0715255, "rental_uris": {"android": "https://dc.lft.to/lastmile_qr_scan", "ios": "https://dc.lft.to/lastmile_qr_scan"}, "is_disabled": 0, "fusion_lat": 0.0, "name": "377f433ec0a24bfb395f8fcb5beb7f66", "fusion_lon": 0.0}, {"is_reserved": 0, "type": "electric_scooter", "bike_id": "48f098053ace7607b8e01dcf77cbc737", "lat": 38.89877116666667, "lon": -76.93184583333333, "rental_uris": {"android": "https://dc.lft.to/lastmile_qr_scan", "ios": "https://dc.lft.to/lastmile_qr_scan"}, "is_disabled": 0, "fusion_lat": 0.0, "name": "48f098053ace7607b8e01dcf77cbc737", "fusion_lon": 0.0}, {"is_reserved": 0, "type": "electric_scooter", "bike_id": "4f0a91924c784821b2269f11a084cea9", "lat": 38.9236045, "lon": -77.05171366666667, "rental_uris": {"android": "https://dc.lft.to/lastmile_qr_scan", "ios": "https://dc.lft.to/lastmile_qr_scan"}, "is_disabled": 0, "fusion_lat": 0.0, "name": "4f0a91924c784821b2269f11a084cea9", "fusion_lon": 0.0}, {"is_reserved": 0, "type": "electric_scooter", "bike_id": "e3531461b4af3238220e71ed26b8d124", "lat": 38.9222005, "lon": -77.043334, "rental_uris": {"android": "https://dc.lft.to/lastmile_qr_scan", "ios": "https://dc.lft.to/lastmile_qr_scan"}, "is_disabled": 0, "fusion_lat": 0.0, "name": "e3531461b4af3238220e71ed26b8d124", "fusion_lon": 0.0}, {"is_reserved": 0, "type": "electric_scooter", "bike_id": "17989bfa8c3f77ee0101cdea01c6c454", "lat": 38.908504666666666, "lon": -77.04537216666667, "rental_uris": {"android": "https://dc.lft.to/lastmile_qr_scan", "ios": "https://dc.lft.to/lastmile_qr_scan"}, "is_disabled": 0, "fusion_lat": 0.0, "name": "17989bfa8c3f77ee0101cdea01c6c454", "fusion_lon": 0.0}, {"is_reserved": 0, "type": "electric_scooter", "bike_id": "d91e585fc76bcb230576af7251df5f11", "lat": 38.89970916666667, "lon": -77.0165115, "rental_uris": {"android": "https://dc.lft.to/lastmile_qr_scan", "ios": "https://dc.lft.to/lastmile_qr_scan"}, "is_disabled": 0, "fusion_lat": 0.0, "name": "d91e585fc76bcb230576af7251df5f11", "fusion_lon": 0.0}, {"is_reserved": 0, "type": "electric_scooter", "bike_id": "778f6565277f750e959b1baf61d50c5a", "lat": 38.90864666666667, "lon": -77.00392333333333, "rental_uris": {"android": "https://dc.lft.to/lastmile_qr_scan", "ios": "https://dc.lft.to/lastmile_qr_scan"}, "is_disabled": 0, "fusion_lat": 0.0, "name": "778f6565277f750e959b1baf61d50c5a", "fusion_lon": 0.0}, {"is_reserved": 0, "type": "electric_bike", "bike_id": "1e513af0d9ff5dc7cce79bf359cfdd2b", "lat": 38.98714583333334, "lon": -76.94584883333333, "rental_uris": {"android": "https://dc.lft.to/lastmile_qr_scan", "ios": "https://dc.lft.to/lastmile_qr_scan"}, "is_disabled": 0, "fusion_lat": 0.0, "name": "1e513af0d9ff5dc7cce79bf359cfdd2b", "fusion_lon": 0.0}, {"is_reserved": 0, "type": "electric_scooter", "bike_id": "bf24004da298c77bffe24ade640c9cbb", "lat": 38.90859716666667, "lon": -77.04589283333334, "rental_uris": {"android": "https://dc.lft.to/lastmile_qr_scan", "ios": "https://dc.lft.to/lastmile_qr_scan"}, "is_disabled": 0, "fusion_lat": 0.0, "name": "bf24004da298c77bffe24ade640c9cbb", "fusion_lon": 0.0}, {"is_reserved": 0, "type": "electric_scooter", "bike_id": "bc4d4980c8cb45b25d7c0ecbe0eb4115", "lat": 38.90027766666667, "lon": -76.98766866666666, "rental_uris": {"android": "https://dc.lft.to/lastmile_qr_scan", "ios": "https://dc.lft.to/lastmile_qr_scan"}, "is_disabled": 0, "fusion_lat": 0.0, "name": "bc4d4980c8cb45b25d7c0ecbe0eb4115", "fusion_lon": 0.0}, {"is_reserved": 0, "type": "electric_scooter", "bike_id": "64f596c2403b6d509769e37122450592", "lat": 38.90955983333333, "lon": -77.02279566666667, "rental_uris": {"android": "https://dc.lft.to/lastmile_qr_scan", "ios": "https://dc.lft.to/lastmile_qr_scan"}, "is_disabled": 0, "fusion_lat": 0.0, "name": "64f596c2403b6d509769e37122450592", "fusion_lon": 0.0}, {"is_reserved": 0, "type": "electric_scooter", "bike_id": "b70acd0339364ca30b4d090a08ea5a77", "lat": 38.918052, "lon": -77.02292966666667, "rental_uris": {"android": "https://dc.lft.to/lastmile_qr_scan", "ios": "https://dc.lft.to/lastmile_qr_scan"}, "is_disabled": 0, "fusion_lat": 0.0, "name": "b70acd0339364ca30b4d090a08ea5a77", "fusion_lon": 0.0}, {"is_reserved": 0, "type": "electric_scooter", "bike_id": "fce80be99ae93f09bb71d39b2fdf1b3b", "lat": 38.880505666666664, "lon": -77.02562466666667, "rental_uris": {"android": "https://dc.lft.to/lastmile_qr_scan", "ios": "https://dc.lft.to/lastmile_qr_scan"}, "is_disabled": 0, "fusion_lat": 0.0, "name": "fce80be99ae93f09bb71d39b2fdf1b3b", "fusion_lon": 0.0}, {"is_reserved": 0, "type": "electric_scooter", "bike_id": "d232c5f6a7f00ea817b73c84efcab3fe", "lat": 38.92868516666667, "lon": -77.037156, "rental_uris": {"android": "https://dc.lft.to/lastmile_qr_scan", "ios": "https://dc.lft.to/lastmile_qr_scan"}, "is_disabled": 0, "fusion_lat": 0.0, "name": "d232c5f6a7f00ea817b73c84efcab3fe", "fusion_lon": 0.0}, {"is_reserved": 0, "type": "electric_scooter", "bike_id": "86ace796b293f0079f0dcb7a2225bd55", "lat": 38.935015166666666, "lon": -77.07363516666666, "rental_uris": {"android": "https://dc.lft.to/lastmile_qr_scan", "ios": "https://dc.lft.to/lastmile_qr_scan"}, "is_disabled": 0, "fusion_lat": 0.0, "name": "86ace796b293f0079f0dcb7a2225bd55", "fusion_lon": 0.0}, {"is_reserved": 0, "type": "electric_scooter", "bike_id": "7f796dbf6b7313aa2f25217dd5c612ef", "lat": 38.931048833333335, "lon": -77.02002633333333, "rental_uris": {"android": "https://dc.lft.to/lastmile_qr_scan", "ios": "https://dc.lft.to/lastmile_qr_scan"}, "is_disabled": 0, "fusion_lat": 0.0, "name": "7f796dbf6b7313aa2f25217dd5c612ef", "fusion_lon": 0.0}, {"is_reserved": 0, "type": "electric_scooter", "bike_id": "231057a68ac9f579b190c51cbed4e965", "lat": 38.88643, "lon": -76.996125, "rental_uris": {"android": "https://dc.lft.to/lastmile_qr_scan", "ios": "https://dc.lft.to/lastmile_qr_scan"}, "is_disabled": 0, "fusion_lat": 0.0, "name": "231057a68ac9f579b190c51cbed4e965", "fusion_lon": 0.0}, {"is_reserved": 0, "type": "electric_bike", "bike_id": "714615e518fbecd3b1b5dde6216e9f26", "lat": 38.947974, "lon": -76.94249183333334, "rental_uris": {"android": "https://dc.lft.to/lastmile_qr_scan", "ios": "https://dc.lft.to/lastmile_qr_scan"}, "is_disabled": 0, "fusion_lat": 0.0, "name": "714615e518fbecd3b1b5dde6216e9f26", "fusion_lon": 0.0},