{"data": {"bikes": [{"fusion_lat": 0.0, "bike_id": "d2e4da9e5581251c1caacdaa22023a4f", "fusion_lon": 0.0, "lon": -77.03338283333333, "lat": 38.89225533333333, "is_reserved": 0, "is_disabled": 0, "rental_uris": {"android": "https://dc.lft.to/lastmile_qr_scan", "ios": "https://dc.lft.to/lastmile_qr_scan"}, "name": "d2e4da9e5581251c1caacdaa22023a4f", "type": "electric_scooter"}, {"fusion_lat": 0.0, "bike_id": "ba6470bc77006ba60e9ceee61654fd3a", "fusion_lon": 0.0, "lon": -77.05763416666667, "lat": 38.933848166666664, "is_reserved": 0, "is_disabled": 0, "rental_uris": {"android": "https://dc.lft.to/lastmile_qr_scan", "ios": "https://dc.lft.to/lastmile_qr_scan"}, "name": "ba6470bc77006ba60e9ceee61654fd3a", "type": "electric_scooter"}, {"fusion_lat": 0.0, "bike_id": "aa311302a011d073659ee23635580c9f", "fusion_lon": 0.0, "lon": -77.02786166666667, "lat": 38.899322, "is_reserved": 0, "is_disabled": 0, "rental_uris": {"android": "https://dc.lft.to/lastmile_qr_scan", "ios": "https://dc.lft.to/lastmile_qr_scan"}, "name": "aa311302a011d073659ee23635580c9f", "type": "electric_scooter"}, {"fusion_lat": 0.0, "bike_id": "91297ba5e7932d1cc1ec40daf51c1179", "fusion_lon": 0.0, "lon": -77.00644733333333, "lat": 38.871624833333335, "is_reserved": 0, "is_disabled": 0, "rental_uris": {"android": "https://dc.lft.to/lastmile_qr_scan", "ios": "https://dc.lft.to/lastmile_qr_scan"}, "name": "91297ba5e7932d1cc1ec40daf51c1179", "type": "electric_scooter"}, {"fusion_lat": 0.0, "bike_id": "294fd90b760b0916bc7a2d07de912448", "fusion_lon": 0.0, "lon": -77.027088, "lat": 38.924695666666665, "is_reserved": 0, "is_disabled": 0, "rental_uris": {"android": "https://dc.lft.to/lastmile_qr_scan", "ios": "https://dc.lft.to/lastmile_qr_scan"}, "name": "294fd90b760b0916bc7a2d07de912448", "type": "electric_scooter"}, {"fusion_lat": 0.0, "bike_id": "40113be20eddca42786e843ba165131f", "fusion_lon": 0.0, "lon": -77.03219266666666, "lat": 38.89223333333333, "is_reserved": 0, "is_disabled": 0, "rental_uris": {"android": "https://dc.lft.to/lastmile_qr_scan", "ios": "https://dc.lft.to/lastmile_qr_scan"}, "name": "40113be20eddca42786e843ba165131f", "type": "electric_scooter"}, {"fusion_lat": 0.0, "bike_id": "3d39058b4ee92dfc47e95fcfa3dc66ae", "fusion_lon": 0.0, "lon": -77.02586866666667, "lat": 38.920361, "is_reserved": 0, "is_disabled": 0, "rental_uris": {"android": "https://dc.lft.to/lastmile_qr_scan", "ios": "https://dc.lft.to/lastmile_qr_scan"}, "name": "3d39058b4ee92dfc47e95fcfa3dc66ae", "type": "electric_scooter"}, {"fusion_lat": 0.0, "bike_id": "c920f48c35fa75d820273d528a76bad5", "fusion_lon": 0.0, "lon": -77.02642266666666, "lat": 38.91702266666667, "is_reserved": 0, "is_disabled": 0, "rental_uris": {"android": "https://dc.lft.to/lastmile_qr_scan", "ios": "https://dc.lft.to/lastmile_qr_scan"}, "name": "c920f48c35fa75d820273d528a76bad5", "type": "electric_scooter"}, {"fusion_lat": 0.0, "bike_id": "4f3553069b0187ef575135e02011f625", "fusion_lon": 0.0, "lon": -77.02730716666667, "lat": 38.93207, "is_reserved": 0, "is_disabled": 0, "rental_uris": {"android": "https://dc.lft.to/lastmile_qr_scan", "ios": "https://dc.lft.to/lastmile_qr_scan"}, "name": "4f3553069b0187ef575135e02011f625", "type": "electric_scooter"}, {"fusion_lat": 0.0, "bike_id": "b7412bd91201328def5aab270142163a", "fusion_lon": 0.0, "lon": -77.02159033333334, "lat": 38.92684833333333, "is_reserved": 0, "is_disabled": 0, "rental_uris": {"android": "https://dc.lft.to/lastmile_qr_scan", "ios": "https://dc.lft.to/lastmile_qr_scan"}, "name": "b7412bd91201328def5aab270142163a", "type": "electric_scooter"}, {"fusion_lat": 0.0, "bike_id": "49ddbd95400e2b47725107defd3dc6be", "fusion_lon": 0.0, "lon": -77.03329333333333, "lat": 38.90958783333333, "is_reserved": 0, "is_disabled": 0, "rental_uris": {"android": "https://dc.lft.to/lastmile_qr_scan", "ios": "https://dc.lft.to/lastmile_qr_scan"}, "name": "49ddbd95400e2b47725107defd3dc6be", "type": "electric_scooter"}, {"fusion_lat": 0.0, "bike_id": "6f1d9f59961c1e7541298934f4b2a748", "fusion_lon": 0.0, "lon": -77.000526, "lat": 38.908178666666664, "is_reserved": 0, "is_disabled": 0, "rental_uris": {"android": "https://dc.lft.to/lastmile_qr_scan", "ios": "https://dc.lft.to/lastmile_qr_scan"}, "name": "6f1d9f59961c1e7541298934f4b2a748", "type": "electric_scooter"}, {"fusion_lat": 0.0, "bike_id": "4b4fb809b746f8511079dc8d82e6a24c", "fusion_lon": 0.0, "lon": -77.04343633333333, "lat": 38.93337866666667, "is_reserved": 0, "is_disabled": 0, "rental_uris": {"android": "https://dc.lft.to/lastmile_qr_scan", "ios": "https://dc.lft.to/lastmile_qr_scan"}, "name": "4b4fb809b746f8511079dc8d82e6a24c", "type": "electric_scooter"}, {"fusion_lat": 0.0, "bike_id": "a97f7906631082bc61633d3d3942a7c0", "fusion_lon": 0.0, "lon": -77.03842533333334, "lat": 38.90386083333333, "is_reserved": 0, "is_disabled": 0, "rental_uris": {"android": "https://dc.lft.to/lastmile_qr_scan", "ios": "https://dc.lft.to/lastmile_qr_scan"}, "name": "a97f7906631082bc61633d3d3942a7c0", "type": "electric_scooter"}, {"fusion_lat": 0.0, "bike_id": "a058ac182c68ab5916fc20435c158c83", "fusion_lon": 0.0, "lon": -77.0320415, "lat": 38.909494, "is_reserved": 0, "is_disabled": 0, "rental_uris": {"android": "https://dc.lft.to/lastmile_qr_scan", "ios": "https://dc.lft.to/lastmile_qr_scan"}, "name": "a058ac182c68ab5916fc20435c158c83", "type": "electric_scooter"}, {"fusion_lat": 0.0, "bike_id": "e581204de2fe4f63cb2da422c19e1bbf", "fusion_lon": 0.0, "lon": -77.04894033333333, "lat": 38.890015, "is_reserved": 0, "is_disabled": 0, "rental_uris": {"android": "https://dc.lft.to/lastmile_qr_scan", "ios": "https://dc.lft.to/lastmile_qr_scan"}, "name": "e581204de2fe4f63cb2da422c19e1bbf", "type": "electric_scooter"}, {"fusion_lat": 0.0, "bike_id": "1927a4996f2a7ea4b0488b10aba66857", "fusion_lon": 0.0, "lon": -77.041653, "lat": 38.899398833333336, "is_reserved": 0, "is_disabled": 0, "rental_uris": {"android": "https://dc.lft.to/lastmile_qr_scan", "ios": "https://dc.lft.to/lastmile_qr_scan"}, "name": "1927a4996f2a7ea4b0488b10aba66857", "type": "electric_scooter"}, {"fusion_lat": 0.0, "bike_id": "3afc8a42a08c15a14ed296d91efc3148", "fusion_lon": 0.0, "lon": -77.01204033333333, "lat": 38.885518, "is_reserved": 0, "is_disabled": 0, "rental_uris": {"android": "https://dc.lft.to/lastmile_qr_scan", "ios": "https://dc.lft.to/lastmile_qr_scan"}, "name": "3afc8a42a08c15a14ed296d91efc3148", "type": "electric_scooter"}, {"fusion_lat": 0.0, "bike_id": "718d71fdbdc11000f8ab1505603e0ccc", "fusion_lon": 0.0, "lon": -77.01570766666667, "lat": 38.87664816666667, "is_reserved": 0, "is_disabled": 0, "rental_uris": {"android": "https://dc.lft.to/lastmile_qr_scan", "ios": "https://dc.lft.to/lastmile_qr_scan"}, "name": "718d71fdbdc11000f8ab1505603e0ccc", "type": "electric_scooter"}, {"fusion_lat": 0.0, "bike_id": "16e13188b7d81fd4fc518249600eb706", "fusion_lon": 0.0, "lon": -77.04976333333333, "lat": 39.03553983333333, "is_reserved": 0, "is_disabled": 0, "rental_uris": {"android": "https://dc.lft.to/lastmile_qr_scan", "ios": "https://dc.lft.to/lastmile_qr_scan"}, "name": "16e13188b7d81fd4fc518249600eb706", "type": "electric_bike"}, {"fusion_lat": 0.0, "bike_id": "422e5c944b8e4f16b1fccfb5a74c3a4c", "fusion_lon": 0.0, "lon": -77.048662, "lat": 38.905275, "is_reserved": 0, "is_disabled": 0, "rental_uris": {"android": "https://dc.lft.to/lastmile_qr_scan", "ios": "https://dc.lft.to/lastmile_qr_scan"}, "name": "422e5c944b8e4f16b1fccfb5a74c3a4c", "type": "electric_scooter"}, {"fusion_lat": 0.0, "bike_id": "5553fb083e5cd338463ca78d77c54fce", "fusion_lon": 0.0, "lon": -77.10715783333333, "lat": 38.964914666666665, "is_reserved": 0, "is_disabled": 0, "rental_uris": {"android": "https://dc.lft.to/lastmile_qr_scan", "ios": "https://dc.lft.to/lastmile_qr_scan"}, "name": "5553fb083e5cd338463ca78d77c54fce", "type": "electric_bike"}, {"fusion_lat": 0.0, "bike_id": "2eb6262aa3c0218a78be559341cd4085", "fusion_lon": 0.0, "lon": -77.01126616666667, "lat": 38.900406833333335, "is_reserved": 0, "is_disabled": 0, "rental_uris": {"android": "https://dc.lft.to/lastmile_qr_scan", "ios": "https://dc.lft.to/lastmile_qr_scan"}, "name": "2eb6262aa3c0218a78be559341cd4085", "type": "electric_scooter"}, {"fusion_lat": 0.0, "bike_id": "cffa516714c687d908afb397b234d567", "fusion_lon": 0.0, "lon": -76.97533633333333, "lat": 38.9223045, "is_reserved": 0, "is_disabled": 0, "rental_uris": {"android": "https://dc.lft.to/lastmile_qr_scan", "ios": "https://dc.lft.to/lastmile_qr_scan"}, "name": "cffa516714c687d908afb397b234d567", "type": "electric_scooter"}, {"fusion_lat": 0.0, "bike_id": "a2eb8b88f921578e5aaca169461882ce", "fusion_lon": 0.0, "lon": -77.03685966666667, "lat": 38.916763333333336, "is_reserved": 0, "is_disabled": 0, "rental_uris": {"android": "https://dc.lft.to/lastmile_qr_scan", "ios": "https://dc.lft.to/lastmile_qr_scan"}, "name": "a2eb8b88f921578e5aaca169461882ce", "type": "electric_scooter"}, {"fusion_lat": 0.0, "bike_id": "001c38963d156bde17a4524e4d3b38db", "fusion_lon": 0.0, "lon": -77.03075533333333, "lat": 38.8803785, "is_reserved": 0, "is_disabled": 0, "rental_uris": {"android": "https://dc.lft.to/lastmile_qr_scan", "ios": "https://dc.lft.to/lastmile_qr_scan"}, "name": "001c38963d156bde17a4524e4d3b38db", "type": "electric_scooter"}, {"fusion_lat": 0.0, "bike_id": "1dd417926ea7af49bddb5191fa8476f4", "fusion_lon": 0.0, "lon": -77.01545183333333, "lat": 38.9413215, "is_reserved": 0, "is_disabled": 0, "rental_uris": {"android": "https://dc.lft.to/lastmile_qr_scan", "ios": "https://dc.lft.to/lastmile_qr_scan"}, "name": "1dd417926ea7af49bddb5191fa8476f4", "type": "electric_scooter"}, {"fusion_lat": 0.0, "bike_id": "186bf1f6a91259b39566419c8221628f", "fusion_lon": 0.0, "lon": -77.01339583333333, "lat": 38.929602833333334, "is_reserved": 0, "is_disabled": 0, "rental_uris": {"android": "https://dc.lft.to/lastmile_qr_scan", "ios": "https://dc.lft.to/lastmile_qr_scan"}, "name": "186bf1f6a91259b39566419c8221628f", "type": "electric_scooter"}, {"fusion_lat": 0.0, "bike_id": "38414fa61ed693a5812fd86796a92667", "fusion_lon": 0.0, "lon": -77.023868, "lat": 38.91665416666667, "is_reserved": 0, "is_disabled": 0, "rental_uris": {"android": "https://dc.lft.to/lastmile_qr_scan", "ios": "https://dc.lft.to/lastmile_qr_scan"}, "name": "38414fa61ed693a5812fd86796a92667", "type": "electric_scooter"}, {"fusion_lat": 0.0, "bike_id": "878352afa99ff56089886a45630fed0f", "fusion_lon": 0.0, "lon": -77.02731966666667, "lat": 38.943824, "is_reserved": 0, "is_disabled": 0, "rental_uris": {"android": "https://dc.lft.to/lastmile_qr_scan", "ios": "https://dc.lft.to/lastmile_qr_scan"}, "name": "878352afa99ff56089886a45630fed0f", "type": "electric_scooter"}, {"fusion_lat": 0.0, "bike_id": "96fe16bd056a4b1a780722ae29be9d79", "fusion_lon": 0.0, "lon": -76.989743, "lat": 38.865430833333335, "is_reserved": 0, "is_disabled": 0, "rental_uris": {"android": "https://dc.lft.to/lastmile_qr_scan", "ios": "https://dc.lft.to/lastmile_qr_scan"}, "name": "96fe16bd056a4b1a780722ae29be9d79", "type": "electric_scooter"}, {"fusion_lat": 0.0, "bike_id": "a1fec8a1c294231911656be8151a2c3d", "fusion_lon": 0.0, "lon": -77.04699716666667, "lat": 38.90228483333333, "is_reserved": 0, "is_disabled": 0, "rental_uris": {"android": "https://dc.lft.to/lastmile_qr_scan", "ios": "https://dc.lft.to/lastmile_qr_scan"}, "name": "a1fec8a1c294231911656be8151a2c3d", "type": "electric_scooter"}, {"fusion_lat": 0.0, "bike_id": "89bdbebbd238e18c98d1a6a152dd976e", "fusion_lon": 0.0, "lon": -76.99271533333334, "lat": 38.86029083333333, "is_reserved": 0, "is_disabled": 0, "rental_uris": {"android": "https://dc.lft.to/lastmile_qr_scan", "ios": "https://dc.lft.to/lastmile_qr_scan"}, "name": "89bdbebbd238e18c98d1a6a152dd976e", "type": "electric_scooter"}, {"fusion_lat": 0.0, "bike_id": "1c952361588608072a47eaa4be378100", "fusion_lon": 0.0, "lon": -76.97205633333333, "lat": 38.8928755, "is_reserved": 0, "is_disabled": 0, "rental_uris": {"android": "https://dc.lft.to/lastmile_qr_scan", "ios": "https://dc.lft.to/lastmile_qr_scan"}, "name": "1c952361588608072a47eaa4be378100", "type": "electric_bike"}, {"fusion_lat": 0.0, "bike_id": "bc18766cf523a14424998bbc21bc5323", "fusion_lon": 0.0, "lon": -77.05019166666666, "lat": 38.905151000000004, "is_reserved": 0, "is_disabled": 0, "rental_uris": {"android": "https://dc.lft.to/lastmile_qr_scan", "ios": "https://dc.lft.to/lastmile_qr_scan"}, "name": "bc18766cf523a14424998bbc21bc5323", "type": "electric_scooter"}, {"fusion_lat": 0.0, "bike_id": "dbaba275c15958076640bcece16707d5", "fusion_lon": 0.0, "lon": -77.05576316666667, "lat": 38.930572833333336, "is_reserved": 0, "is_disabled": 0, "rental_uris": {"android": "https://dc.lft.to/lastmile_qr_scan", "ios": "https://dc.lft.to/lastmile_qr_scan"}, "name": "dbaba275c15958076640bcece16707d5", "type": "electric_scooter"}, {"fusion_lat": 0.0, "bike_id": "c5ff6b6eb929f5ed14605dff2631a105", "fusion_lon": 0.0, "lon": -77.02373216666666, "lat": 38.917880333333336, "is_reserved": 0, "is_disabled": 0, "rental_uris": {"android": "https://dc.lft.to/lastmile_qr_scan", "ios": "https://dc.lft.to/lastmile_qr_scan"}, "name": "c5ff6b6eb929f5ed14605dff2631a105", "type": "electric_scooter"}, {"fusion_lat": 0.0, "bike_id": "c4f2ec110a83fdb484dce3d5edc431cf", "fusion_lon": 0.0, "lon": -77.02668683333333, "lat": 38.981976, "is_reserved": 0, "is_disabled": 0, "rental_uris": {"android": "https://dc.lft.to/lastmile_qr_scan", "ios": "https://dc.lft.to/lastmile_qr_scan"}, "name": "c4f2ec110a83fdb484dce3d5edc431cf", "type": "electric_scooter"}, {"fusion_lat": 0.0, "bike_id": "ca363c802eba4771314854d360031092", "fusion_lon": 0.0, "lon": -77.1392965, "lat": 38.872973333333334, "is_reserved": 0, "is_disabled": 0, "rental_uris": {"android": "https://dc.lft.to/lastmile_qr_scan", "ios": "https://dc.lft.to/lastmile_qr_scan"}, "name": "ca363c802eba4771314854d360031092", "type": "electric_bike"}, {"fusion_lat": 0.0, "bike_id": "ca2cf0fa52c41b4008d4040c3ee81ca6", "fusion_lon": 0.0, "lon": -77.00493783333333, "lat": 38.895693666666666, "is_reserved": 0, "is_disabled": 0, "rental_uris": {"android": "https://dc.lft.to/lastmile_qr_scan", "ios": "https://dc.lft.to/lastmile_qr_scan"}, "name": "ca2cf0fa52c41b4008d4040c3ee81ca6", "type": "electric_scooter"}, {"fusion_lat": 0.0, "bike_id": "61917f8e79b68818d575260ed146eb07", "fusion_lon": 0.0, "lon": -77.03814616666666, "lat": 38.93113266666667, "is_reserved": 0, "is_disabled": 0, "rental_uris": {"android": "https://dc.lft.to/lastmile_qr_scan", "ios": "https://dc.lft.to/lastmile_qr_scan"}, "name": "61917f8e79b68818d575260ed146eb07", "type": "electric_scooter"}, {"fusion_lat": 0.0, "bike_id": "4327f8984c9c85d94195d1bc79dc379f", "fusion_lon": 0.0, "lon": -77.04492083333334, "lat": 38.9133105, "is_reserved": 0, "is_disabled": 0, "rental_uris": {"android": "https://dc.lft.to/lastmile_qr_scan", "ios": "https://dc.lft.to/lastmile_qr_scan"}, "name": "4327f8984c9c85d94195d1bc79dc379f", "type": "electric_scooter"}, {"fusion_lat": 0.0, "bike_id": "bb884f1bbb9b2c63d6d5fab5509d42ea", "fusion_lon": 0.0, "lon": -77.03657166666666, "lat": 38.921237, "is_reserved": 0, "is_disabled": 0, "rental_uris": {"android": "https://dc.lft.to/lastmile_qr_scan", "ios": "https://dc.lft.to/lastmile_qr_scan"}, "name": "bb884f1bbb9b2c63d6d5fab5509d42ea", "type": "electric_scooter"}, {"fusion_lat": 0.0, "bike_id": "3f06c8fec7ba3313370a5b21a0dafc7d", "fusion_lon": 0.0, "lon": -77.03203633333334, "lat": 38.897719, "is_reserved": 0, "is_disabled": 0, "rental_uris": {"android": "https://dc.lft.to/lastmile_qr_scan", "ios": "https://dc.lft.to/lastmile_qr_scan"}, "name": "3f06c8fec7ba3313370a5b21a0dafc7d", "type": "electric_scooter"}, {"fusion_lat": 0.0, "bike_id": "2daae8765794f919409cbc67be9c5e7c", "fusion_lon": 0.0, "lon": -77.12463933333333, "lat": 38.85374083333333, "is_reserved": 0, "is_disabled": 0, "rental_uris": {"android": "https://dc.lft.to/lastmile_qr_scan", "ios": "https://dc.lft.to/lastmile_qr_scan"}, "name": "2daae8765794f919409cbc67be9c5e7c", "type": "electric_bike"}, {"fusion_lat": 0.0, "bike_id": "fdf2e9b5ed4ac7121889f8aab97f7e2b", "fusion_lon": 0.0, "lon": -77.02174533333333, "lat": 38.887230333333335, "is_reserved": 0, "is_disabled": 0, "rental_uris": {"android": "https://dc.lft.to/lastmile_qr_scan", "ios": "https://dc.lft.to/lastmile_qr_scan"}, "name": "fdf2e9b5ed4ac7121889f8aab97f7e2b", "type": "electric_scooter"}, {"fusion_lat": 0.0, "bike_id": "9cbb858c30c83a9f88f1ccea0651be20", "fusion_lon": 0.0, "lon": -77.00596366666667, "lat": 38.87186116666667, "is_reserved": 0, "is_disabled": 0, "rental_uris": {"android": "https://dc.lft.to/lastmile_qr_scan", "ios": "https://dc.lft.to/lastmile_qr_scan"}, "name": "9cbb858c30c83a9f88f1ccea0651be20", "type": "electric_scooter"}, {"fusion_lat": 0.0, "bike_id": "b4b6d968a0c2dd5031baaf49563b6da9", "fusion_lon": 0.0, "lon": -76.99942483333334, "lat": 38.906962, "is_reserved": 0, "is_disabled": 0, "rental_uris": {"android": "https://dc.lft.to/lastmile_qr_scan", "ios": "https://dc.lft.to/lastmile_qr_scan"}, "name": "b4b6d968a0c2dd5031baaf49563b6da9", "type": "electric_scooter"}, {"fusion_lat": 0.0, "bike_id": "4d273259ca3e4241d52a4c926f47316f", "fusion_lon": 0.0, "lon": -77.04256416666666, "lat": 38.909865, "is_reserved": 0, "is_disabled": 0, "rental_uris": {"android": "https://dc.lft.to/lastmile_qr_scan", "ios": "https://dc.lft.to/lastmile_qr_scan"}, "name": "4d273259ca3e4241d52a4c926f47316f", "type": "electric_scooter"}, {"fusion_lat": 0.0, "bike_id": "dc715c4f43b3fc4cda0e9877216a69c6", "fusion_lon": 0.0, "lon": -77.04850433333333, "lat": 38.90473183333334, "is_reserved": 0, "is_disabled": 0, "rental_uris": {"android": "https://dc.lft.to/lastmile_qr_scan", "ios": "https://dc.lft.to/lastmile_qr_scan"}, "name": "dc715c4f43b3fc4cda0e9877216a69c6", "type": "electric_scooter"}, {"fusion_lat": 0.0, "bike_id": "943a85550e4818916745fe170d517be7", "fusion_lon": 0.0, "lon": -77.02884433333334, "lat": 38.93282716666667, "is_reserved": 0, "is_disabled": 0, "rental_uris": {"android": "https://dc.lft.to/lastmile_qr_scan", "ios": "https://dc.lft.to/lastmile_qr_scan"}, "name": "943a85550e4818916745fe170d517be7", "type": "electric_scooter"}, {"fusion_lat": 0.0, "bike_id": "33e69424d9cd7a57a787cf4df9ec6c77", "fusion_lon": 0.0, "lon": -76.93367683333334, "lat": 38.899114, "is_reserved": 0, "is_disabled": 0, "rental_uris": {"android": "https://dc.lft.to/lastmile_qr_scan", "ios": "https://dc.lft.to/lastmile_qr_scan"}, "name": "33e69424d9cd7a57a787cf4df9ec6c77", "type": "electric_scooter"}, {"fusion_lat": 0.0, "bike_id": "d5181b510e554d6993be18556d391654", "fusion_lon": 0.0, "lon": -76.98829066666667, "lat": 38.90038333333333, "is_reserved": 0, "is_disabled": 0, "rental_uris": {"android": "https://dc.lft.to/lastmile_qr_scan", "ios": "https://dc.lft.to/lastmile_qr_scan"}, "name": "d5181b510e554d6993be18556d391654", "type": "electric_scooter"}, {"fusion_lat": 0.0, "bike_id": "e0e1cef81eff5b7029101418f05e23dc", "fusion_lon": 0.0, "lon": -77.04002716666666, "lat": 38.9077125, "is_reserved": 0, "is_disabled": 0, "rental_uris": {"android": "https://dc.lft.to/lastmile_qr_scan", "ios": "https://dc.lft.to/lastmile_qr_scan"}, "name": "e0e1cef81eff5b7029101418f05e23dc", "type": "electric_scooter"}, {"fusion_lat": 0.0, "bike_id": "1d7e69b55e5f229b60082eca69e7769a", "fusion_lon": 0.0, "lon": -76.94879466666667, "lat": 38.89426816666667, "is_reserved": 0, "is_disabled": 0, "rental_uris": {"android": "https://dc.lft.to/lastmile_qr_scan", "ios": "https://dc.lft.to/lastmile_qr_scan"}, "name": "1d7e69b55e5f229b60082eca69e7769a", "type": "electric_scooter"}, {"fusion_lat": 0.0, "bike_id": "4e0789498d355cecab5524a6edb26334", "fusion_lon": 0.0, "lon": -77.0375925, "lat": 38.907841, "is_reserved": 0, "is_disabled": 0, "rental_uris": {"android": "https://dc.lft.to/lastmile_qr_scan", "ios": "https://dc.lft.to/lastmile_qr_scan"}, "name": "4e0789498d355cecab5524a6edb26334", "type": "electric_scooter"}, {"fusion_lat": 0.0, "bike_id": "380660226811dce916d3702ea95d8eae", "fusion_lon": 0.0, "lon": -77.00960716666667, "lat": 38.89742416666667, "is_reserved": 0, "is_disabled": 0, "rental_uris": {"android": "https://dc.lft.to/lastmile_qr_scan", "ios": "https://dc.lft.to/lastmile_qr_scan"}, "name": "380660226811dce916d3702ea95d8eae", "type": "electric_scooter"}, {"fusion_lat": 0.0, "bike_id": "587b1f13b7a2c8319a1c961d63fa8797", "fusion_lon": 0.0, "lon": -76.99564866666667, "lat": 38.851814, "is_reserved": 0, "is_disabled": 0, "rental_uris": {"android": "https://dc.lft.to/lastmile_qr_scan", "ios": "https://dc.lft.to/lastmile_qr_scan"}, "name": "587b1f13b7a2c8319a1c961d63fa8797", "type": "electric_bike"}, {"fusion_lat": 0.0, "bike_id": "a68582110f39cb9f534b66486c635d19", "fusion_lon": 0.0, "lon": -77.02700083333333, "lat": 38.9499005, "is_reserved": 0, "is_disabled": 0, "rental_uris": {"android": "https://dc.lft.to/lastmile_qr_scan", "ios": "https://dc.lft.to/lastmile_qr_scan"}, "name": "a68582110f39cb9f534b66486c635d19", "type": "electric_scooter"}, {"fusion_lat": 0.0, "bike_id": "88d66bb4c069e240c1dcb5cbc16314e5", "fusion_lon": 0.0, "lon": -77.05042, "lat": 38.9051995, "is_reserved": 0, "is_disabled": 0, "rental_uris": {"android": "https://dc.lft.to/lastmile_qr_scan", "ios": "https://dc.lft.to/lastmile_qr_scan"}, "name": "88d66bb4c069e240c1dcb5cbc16314e5", "type": "electric_scooter"}, {"fusion_lat": 0.0, "bike_id": "8b7dc1ee66f7d4155162b5edaf5b3ac5", "fusion_lon": 0.0, "lon": -76.98593266666667, "lat": 38.86687033333333, "is_reserved": 0, "is_disabled": 0, "rental_uris": {"android": "https://dc.lft.to/lastmile_qr_scan", "ios": "https://dc.lft.to/lastmile_qr_scan"}, "name": "8b7dc1ee66f7d4155162b5edaf5b3ac5", "type": "electric_scooter"}, {"fusion_lat": 0.0, "bike_id": "3176c95120f10024764daaa588581a88", "fusion_lon": 0.0, "lon": -77.05044016666666, "lat": 38.905271, "is_reserved": 0, "is_disabled": 0, "rental_uris": {"android": "https://dc.lft.to/lastmile_qr_scan", "ios": "https://dc.lft.to/lastmile_qr_scan"}, "name": "3176c95120f10024764daaa588581a88", "type": "electric_scooter"}, {"fusion_lat": 0.0, "bike_id": "fa61cb81fa3627835727c7825bde2888", "fusion_lon": 0.0, "lon": -77.01134816666666, "lat": 38.89365466666667, "is_reserved": 0, "is_disabled": 0, "rental_uris": {"android": "https://dc.lft.to/lastmile_qr_scan", "ios": "https://dc.lft.to/lastmile_qr_scan"}, "name": "fa61cb81fa3627835727c7825bde2888", "type": "electric_scooter"}, {"fusion_lat": 0.0, "bike_id": "488cc4da331a5fbd619974835da3e5f8", "fusion_lon": 0.0, "lon": -77.031841, "lat": 38.8962115, "is_reserved": 0, "is_disabled": 0, "rental_uris": {"android": "https://dc.lft.to/lastmile_qr_scan", "ios": "https://dc.lft.to/lastmile_qr_scan"}, "name": "488cc4da331a5fbd619974835da3e5f8", "type": "electric_scooter"}, {"fusion_lat": 0.0, "bike_id": "d740656ee0499f9fff633d2027fda2c9", "fusion_lon": 0.0, "lon": -77.02447933333333, "lat": 38.902566, "is_reserved": 0, "is_disabled": 0, "rental_uris": {"android": "https://dc.lft.to/lastmile_qr_scan", "ios": "https://dc.lft.to/lastmile_qr_scan"}, "name": "d740656ee0499f9fff633d2027fda2c9", "type": "electric_scooter"}, {"fusion_lat": 0.0, "bike_id": "db6b5b9d03eacea62236bac3b2e0918c", "fusion_lon": 0.0, "lon": -77.0318125, "lat": 38.91647666666667, "is_reserved": 0, "is_disabled": 0, "rental_uris": {"android": "https://dc.lft.to/lastmile_qr_scan", "ios": "https://dc.lft.to/lastmile_qr_scan"}, "name": "db6b5b9d03eacea62236bac3b2e0918c", "type": "electric_scooter"}, {"fusion_lat": 0.0, "bike_id": "9cf04ded0391f28ee15c677c0a44f2f7", "fusion_lon": 0.0, "lon": -77.035085, "lat": 38.92148733333333, "is_reserved": 0, "is_disabled": 0, "rental_uris": {"android": "https://dc.lft.to/lastmile_qr_scan", "ios": "https://dc.lft.to/lastmile_qr_scan"}, "name": "9cf04ded0391f28ee15c677c0a44f2f7", "type": "electric_scooter"}, {"fusion_lat": 0.0, "bike_id": "6007a42ad4b9a81d1e6a873bf192d72d", "fusion_lon": 0.0, "lon": -77.04895583333334, "lat": 38.892285333333334, "is_reserved": 0, "is_disabled": 0, "rental_uris": {"android": "https://dc.lft.to/lastmile_qr_scan", "ios": "https://dc.lft.to/lastmile_qr_scan"}, "name": "6007a42ad4b9a81d1e6a873bf192d72d", "type": "electric_scooter"}, {"fusion_lat": 0.0, "bike_id": "bc1013e6b653b02ed06bac549093c5e6", "fusion_lon": 0.0, "lon": -77.00597116666667, "lat": 38.905833666666666, "is_reserved": 0, "is_disabled": 0, "rental_uris": {"android": "https://dc.lft.to/lastmile_qr_scan", "ios": "https://dc.lft.to/lastmile_qr_scan"}, "name": "bc1013e6b653b02ed06bac549093c5e6", "type": "electric_scooter"}, {"fusion_lat": 0.0, "bike_id": "7f0562b5f7edebe582c6bb4b1727aa00", "fusion_lon": 0.0, "lon": -77.00112566666667, "lat": 38.9124625, "is_reserved": 0, "is_disabled": 0, "rental_uris": {"android": "https://dc.lft.to/lastmile_qr_scan", "ios": "https://dc.lft.to/lastmile_qr_scan"}, "name": "7f0562b5f7edebe582c6bb4b1727aa00", "type": "electric_scooter"}, {"fusion_lat": 0.0, "bike_id": "1fc3d2780799268d3831fedda4e042f1", "fusion_lon": 0.0, "lon": -77.061616, "lat": 38.91301283333333, "is_reserved": 0, "is_disabled": 0, "rental_uris": {"android": "https://dc.lft.to/lastmile_qr_scan", "ios": "https://dc.lft.to/lastmile_qr_scan"}, "name": "1fc3d2780799268d3831fedda4e042f1", "type": "electric_scooter"}, {"fusion_lat": 0.0, "bike_id": "21707fc9f35a93ff04e6fa0a51ab0124", "fusion_lon": 0.0, "lon": -76.9488615, "lat": 38.89512333333333, "is_reserved": 0, "is_disabled": 0, "rental_uris": {"android": "https://dc.lft.to/lastmile_qr_scan", "ios": "https://dc.lft.to/lastmile_qr_scan"}, "name": "21707fc9f35a93ff04e6fa0a51ab0124", "type": "electric_scooter"}, {"fusion_lat": 0.0, "bike_id": "3daf01e1c7f4d4db4318f4a44f11c236", "fusion_lon": 0.0, "lon": -77.04874283333334, "lat": 38.892338, "is_reserved": 0, "is_disabled": 0, "rental_uris": {"android": "https://dc.lft.to/lastmile_qr_scan", "ios": "https://dc.lft.to/lastmile_qr_scan"}, "name": "3daf01e1c7f4d4db4318f4a44f11c236", "type": "electric_scooter"}, {"fusion_lat": 0.0, "bike_id": "7d6eeb06898fd440f758542258f77810", "fusion_lon": 0.0, "lon": -77.04765783333333, "lat": 38.903716833333334, "is_reserved": 0, "is_disabled": 0, "rental_uris": {"android": "https://dc.lft.to/lastmile_qr_scan", "ios": "https://dc.lft.to/lastmile_qr_scan"}, "name": "7d6eeb06898fd440f758542258f77810", "type": "electric_scooter"}, {"fusion_lat": 0.0, "bike_id": "93d8bbca1cf758a009a0635e95562ec8", "fusion_lon": 0.0, "lon": -77.03133183333334, "lat": 38.915555, "is_reserved": 0, "is_disabled": 0, "rental_uris": {"android": "https://dc.lft.to/lastmile_qr_scan", "ios": "https://dc.lft.to/lastmile_qr_scan"}, "name": "93d8bbca1cf758a009a0635e95562ec8", "type": "electric_scooter"}, {"fusion_lat": 0.0, "bike_id": "fa588338256165df4d5749cfcc9c69a7", "fusion_lon": 0.0, "lon": -77.03512616666667, "lat": 38.92737433333333, "is_reserved": 0, "is_disabled": 0, "rental_uris": {"android": "https://dc.lft.to/lastmile_qr_scan", "ios": "https://dc.lft.to/lastmile_qr_scan"}, "name": "fa588338256165df4d5749cfcc9c69a7", "type": "electric_scooter"}, {"fusion_lat": 0.0, "bike_id": "d49fbf6662d4c7cd2fcb71dd052f2cd5", "fusion_lon": 0.0, "lon": -77.04220816666667, "lat": 38.933374, "is_reserved": 0, "is_disabled": 0, "rental_uris": {"android": "https://dc.lft.to/lastmile_qr_scan", "ios": "https://dc.lft.to/lastmile_qr_scan"}, "name": "d49fbf6662d4c7cd2fcb71dd052f2cd5", "type": "electric_bike"}, {"fusion_lat": 0.0, "bike_id": "658c9f01045762b86bfb5f2770713ea3", "fusion_lon": 0.0, "lon": -77.034718, "lat": 38.91706466666667, "is_reserved": 0, "is_disabled": 0, "rental_uris": {"android": "https://dc.lft.to/lastmile_qr_scan", "ios": "https://dc.lft.to/lastmile_qr_scan"}, "name": "658c9f01045762b86bfb5f2770713ea3", "type": "electric_scooter"}, {"fusion_lat": 0.0, "bike_id": "82e1816af13642ec858be76baa5fa123", "fusion_lon": 0.0, "lon": -77.04900383333333, "lat": 38.89733616666667, "is_reserved": 0, "is_disabled": 0, "rental_uris": {"android": "https://dc.lft.to/lastmile_qr_scan", "ios": "https://dc.lft.to/lastmile_qr_scan"}, "name": "82e1816af13642ec858be76baa5fa123", "type": "electric_scooter"}, {"fusion_lat": 0.0, "bike_id": "b9d1b4899f87a80d8eb92cd018925c66", "fusion_lon": 0.0, "lon": -77.03317783333334, "lat": 38.898254, "is_reserved": 0, "is_disabled": 0, "rental_uris": {"android": "https://dc.lft.to/lastmile_qr_scan", "ios": "https://dc.lft.to/lastmile_qr_scan"}, "name": "b9d1b4899f87a80d8eb92cd018925c66", "type": "electric_scooter"}, {"fusion_lat": 0.0, "bike_id": "c1f4361d1b2778b80804da2a2d42f4c6", "fusion_lon": 0.0, "lon": -76.98081866666666, "lat": 38.90708716666666, "is_reserved": 0, "is_disabled": 0, "rental_uris": {"android": "https://dc.lft.to/lastmile_qr_scan", "ios": "https://dc.lft.to/lastmile_qr_scan"}, "name": "c1f4361d1b2778b80804da2a2d42f4c6", "type": "electric_scooter"}, {"fusion_lat": 0.0, "bike_id": "0ffb1b13245f4eb6b849141e5d5d7aae", "fusion_lon": 0.0, "lon": -77.02673383333334, "lat": 38.91700683333333, "is_reserved": 0, "is_disabled": 0, "rental_uris": {"android": "https://dc.lft.to/lastmile_qr_scan", "ios": "https://dc.lft.to/lastmile_qr_scan"}, "name": "0ffb1b13245f4eb6b849141e5d5d7aae", "type": "electric_scooter"}, {"fusion_lat": 0.0, "bike_id": "dcacf50c3a7167e04fd974b4e4ac7f4b", "fusion_lon": 0.0, "lon": -77.0408515, "lat": 38.91191416666667, "is_reserved": 0, "is_disabled": 0, "rental_uris": {"android": "https://dc.lft.to/lastmile_qr_scan", "ios": "https://dc.lft.to/lastmile_qr_scan"}, "name": "dcacf50c3a7167e04fd974b4e4ac7f4b", "type": "electric_scooter"}, {"fusion_lat": 0.0, "bike_id": "361b882a7e4df9531e32feac75c07a73", "fusion_lon": 0.0, "lon": -77.03839583333334, "lat": 38.913298, "is_reserved": 0, "is_disabled": 0, "rental_uris": {"android": "https://dc.lft.to/lastmile_qr_scan", "ios": "https://dc.lft.to/lastmile_qr_scan"}, "name": "361b882a7e4df9531e32feac75c07a73", "type": "electric_scooter"}, {"fusion_lat": 0.0, "bike_id": "cfb26c7d9bad4a6fc1ae8a3840bf8728", "fusion_lon": 0.0, "lon": -77.02995666666666, "lat": 38.90122, "is_reserved": 0, "is_disabled": 0, "rental_uris": {"android": "https://dc.lft.to/lastmile_qr_scan", "ios": "https://dc.lft.to/lastmile_qr_scan"}, "name": "cfb26c7d9bad4a6fc1ae8a3840bf8728", "type": "electric_scooter"}, {"fusion_lat": 0.0, "bike_id": "385aa5e90c8691f7d56ea6058633c5f9", "fusion_lon": 0.0, "lon": -76.9372795, "lat": 38.890131333333336, "is_reserved": 0, "is_disabled": 0, "rental_uris": {"android": "https://dc.lft.to/lastmile_qr_scan", "ios": "https://dc.lft.to/lastmile_qr_scan"}, "name": "385aa5e90c8691f7d56ea6058633c5f9", "type": "electric_scooter"}, {"fusion_lat": 0.0, "bike_id": "86856bae3e31d5dc89a1e2a231db1cb1", "fusion_lon": 0.0, "lon": -77.04649183333333, "lat": 38.89830283333333, "is_reserved": 0, "is_disabled": 0, "rental_uris": {"android": "https://dc.lft.to/lastmile_qr_scan", "ios": "https://dc.lft.to/lastmile_qr_scan"}, "name": "86856bae3e31d5dc89a1e2a231db1cb1", "type": "electric_scooter"}, {"fusion_lat": 0.0, "bike_id": "37763452671675cc2cc5568b685dc031", "fusion_lon": 0.0, "lon": -76.990048, "lat": 38.86505783333333, "is_reserved": 0, "is_disabled": 0, "rental_uris": {"android": "https://dc.lft.to/lastmile_qr_scan", "ios": "https://dc.lft.to/lastmile_qr_scan"}, "name": "37763452671675cc2cc5568b685dc031", "type": "electric_scooter"}, {"fusion_lat": 0.0, "bike_id": "060eac3cc26adf921a0f62233b6fcb14", "fusion_lon": 0.0, "lon": -77.02673716666666, "lat": 38.895425333333336, "is_reserved": 0, "is_disabled": 0, "rental_uris": {"android": "https://dc.lft.to/lastmile_qr_scan", "ios": "https://dc.lft.to/lastmile_qr_scan"}, "name": "060eac3cc26adf921a0f62233b6fcb14", "type": "electric_scooter"}, {"fusion_lat": 0.0, "bike_id": "a337818ed91358767df24454a629376c", "fusion_lon": 0.0, "lon": -77.10837783333334, "lat": 38.812012333333335, "is_reserved": 0, "is_disabled": 0, "rental_uris": {"android": "https://dc.lft.to/lastmile_qr_scan", "ios": "https://dc.lft.to/lastmile_qr_scan"}, "name": "a337818ed91358767df24454a629376c", "type": "electric_bike"}, {"fusion_lat": 0.0, "bike_id": "a3e5fa111922f411162002b89b997235", "fusion_lon": 0.0, "lon": -77.02870933333334, "lat": 38.917001, "is_reserved": 0, "is_disabled": 0, "rental_uris": {"android": "https://dc.lft.to/lastmile_qr_scan", "ios": "https://dc.lft.to/lastmile_qr_scan"}, "name": "a3e5fa111922f411162002b89b997235", "type": "electric_scooter"}, {"fusion_lat": 0.0, "bike_id": "9a4cbd35d7b257a7dfa8d34f25b322e4", "fusion_lon": 0.0, "lon": -77.03394733333333, "lat": 38.907180333333336, "is_reserved": 0, "is_disabled": 0, "rental_uris": {"android": "https://dc.lft.to/lastmile_qr_scan", "ios": "https://dc.lft.to/lastmile_qr_scan"}, "name": "9a4cbd35d7b257a7dfa8d34f25b322e4", "type": "electric_scooter"}, {"fusion_lat": 0.0, "bike_id": "98637c7dc3fcfb4803171c9d273838f1", "fusion_lon": 0.0, "lon": -77.02840133333333, "lat": 38.9342055, "is_reserved": 0, "is_disabled": 0, "rental_uris": {"android": "https://dc.lft.to/lastmile_qr_scan", "ios": "https://dc.lft.to/lastmile_qr_scan"}, "name": "98637c7dc3fcfb4803171c9d273838f1", "type": "electric_scooter"}, {"fusion_lat": 0.0, "bike_id": "535500e6aee25e4b4da376f99dcea8ba", "fusion_lon": 0.0, "lon": -77.066466, "lat": 38.905876166666665, "is_reserved": 0, "is_disabled": 0, "rental_uris": {"android": "https://dc.lft.to/lastmile_qr_scan", "ios": "https://dc.lft.to/lastmile_qr_scan"}, "name": "535500e6aee25e4b4da376f99dcea8ba", "type": "electric_scooter"}, {"fusion_lat": 0.0, "bike_id": "85d16aa9b17eb8554eecd2dc4cd0cda9", "fusion_lon": 0.0, "lon": -77.02771116666666, "lat": 38.89199033333333, "is_reserved": 0, "is_disabled": 0, "rental_uris": {"android": "https://dc.lft.to/lastmile_qr_scan", "ios": "https://dc.lft.to/lastmile_qr_scan"}, "name": "85d16aa9b17eb8554eecd2dc4cd0cda9", "type": "electric_scooter"}, {"fusion_lat": 0.0, "bike_id": "ba7ce948ab34b461bf4d2677b5b132bb", "fusion_lon": 0.0, "lon": -76.9983365, "lat": 38.894550333333335, "is_reserved": 0, "is_disabled": 0, "rental_uris": {"android": "https://dc.lft.to/lastmile_qr_scan", "ios": "https://dc.lft.to/lastmile_qr_scan"}, "name": "ba7ce948ab34b461bf4d2677b5b132bb", "type": "electric_scooter"}, {"fusion_lat": 0.0, "bike_id": "2fb44938174ccd962f20e196eaab6409", "fusion_lon": 0.0, "lon": -76.981937, "lat": 38.96742866666666, "is_reserved": 0, "is_disabled": 0, "rental_uris": {"android": "https://dc.lft.to/lastmile_qr_scan", "ios": "https://dc.lft.to/lastmile_qr_scan"}, "name": "2fb44938174ccd962f20e196eaab6409", "type": "electric_bike"}, {"fusion_lat": 0.0, "bike_id": "b8f86225333dfea64f07c4b4b3072d2c", "fusion_lon": 0.0, "lon": -77.0209295, "lat": 38.881845166666665, "is_reserved": 0, "is_disabled": 0, "rental_uris": {"android": "https://dc.lft.to/lastmile_qr_scan", "ios": "https://dc.lft.to/lastmile_qr_scan"}, "name": "b8f86225333dfea64f07c4b4b3072d2c", "type": "electric_scooter"}, {"fusion_lat": 0.0, "bike_id": "88b00deb6dd1f2c449937c4e6fa0ebe0", "fusion_lon": 0.0, "lon": -77.013428, "lat": 38.8781195, "is_reserved": 0, "is_disabled": 0, "rental_uris": {"android": "https://dc.lft.to/lastmile_qr_scan", "ios": "https://dc.lft.to/lastmile_qr_scan"}, "name": "88b00deb6dd1f2c449937c4e6fa0ebe0", "type": "electric_scooter"}, {"fusion_lat": 0.0, "bike_id": "353d7920f4db5815690ffe02685927ec", "fusion_lon": 0.0, "lon": -77.0228225, "lat": 38.90784683333333, "is_reserved": 0, "is_disabled": 0, "rental_uris": {"android": "https://dc.lft.to/lastmile_qr_scan", "ios": "https://dc.lft.to/lastmile_qr_scan"}, "name": "353d7920f4db5815690ffe02685927ec", "type": "electric_scooter"}, {"fusion_lat": 0.0, "bike_id": "4f861a5484817acc73478f1a9de752a1", "fusion_lon": 0.0, "lon": -77.03434616666667, "lat": 38.93321183333333, "is_reserved": 0, "is_disabled": 0, "rental_uris": {"android": "https://dc.lft.to/lastmile_qr_scan", "ios": "https://dc.lft.to/lastmile_qr_scan"}, "name": "4f861a5484817acc73478f1a9de752a1", "type": "electric_scooter"}, {"fusion_lat": 0.0, "bike_id": "66e9f678ed2109f2112ad5975b869770", "fusion_lon": 0.0, "lon": -77.037588, "lat": 38.9078355, "is_reserved": 0, "is_disabled": 0, "rental_uris": {"android": "https://dc.lft.to/lastmile_qr_scan", "ios": "https://dc.lft.to/lastmile_qr_scan"}, "name": "66e9f678ed2109f2112ad5975b869770", "type": "electric_scooter"}, {"fusion_lat": 0.0, "bike_id": "d2d200a597ea518c14134543b2b0ff04", "fusion_lon": 0.0, "lon": -77.03624666666667, "lat": 38.936799, "is_reserved": 0, "is_disabled": 0, "rental_uris": {"android": "https://dc.lft.to/lastmile_qr_scan", "ios": "https://dc.lft.to/lastmile_qr_scan"}, "name": "d2d200a597ea518c14134543b2b0ff04", "type": "electric_scooter"}, {"fusion_lat": 0.0, "bike_id": "15247fe6985ec2f81b55db1d87d91ae1", "fusion_lon": 0.0, "lon": -77.02213366666666, "lat": 38.9247475, "is_reserved": 0, "is_disabled": 0, "rental_uris": {"android": "https://dc.lft.to/lastmile_qr_scan", "ios": "https://dc.lft.to/lastmile_qr_scan"}, "name": "15247fe6985ec2f81b55db1d87d91ae1", "type": "electric_scooter"}, {"fusion_lat": 0.0, "bike_id": "5697cd2ac5f643d723ee207a8a0aef94", "fusion_lon": 0.0, "lon": -77.13099033333333, "lat": 39.024362833333335, "is_reserved": 0, "is_disabled": 0, "rental_uris": {"android": "https://dc.lft.to/lastmile_qr_scan", "ios": "https://dc.lft.to/lastmile_qr_scan"}, "name": "5697cd2ac5f643d723ee207a8a0aef94", "type": "electric_bike"}, {"fusion_lat": 0.0, "bike_id": "b659da79fe56f3702e473cb01a279b30", "fusion_lon": 0.0, "lon": -77.0192515, "lat": 38.92216483333333, "is_reserved": 0, "is_disabled": 0, "rental_uris": {"android": "https://dc.lft.to/lastmile_qr_scan", "ios": "https://dc.lft.to/lastmile_qr_scan"}, "name": "b659da79fe56f3702e473cb01a279b30", "type": "electric_scooter"}, {"fusion_lat": 0.0, "bike_id": "590ff0a1827e53273128fc4f03947026", "fusion_lon": 0.0, "lon": -77.06779433333334, "lat": 38.90456133333333, "is_reserved": 0, "is_disabled": 0, "rental_uris": {"android": "https://dc.lft.to/lastmile_qr_scan", "ios": "https://dc.lft.to/lastmile_qr_scan"}, "name": "590ff0a1827e53273128fc4f03947026", "type": "electric_scooter"}, {"fusion_lat": 0.0, "bike_id": "f53e85004b907c69f93abfc469840a34", "fusion_lon": 0.0, "lon": -77.03385866666666, "lat": 38.90964566666667, "is_reserved": 0, "is_disabled": 0, "rental_uris": {"android": "https://dc.lft.to/lastmile_qr_scan", "ios": "https://dc.lft.to/lastmile_qr_scan"}, "name": "f53e85004b907c69f93abfc469840a34", "type": "electric_scooter"}, {"fusion_lat": 0.0, "bike_id": "2ffdd23ec7d0414ec2a2f8ce2439902e", "fusion_lon": 0.0, "lon": -77.03685566666667, "lat": 38.90271283333333, "is_reserved": 0, "is_disabled": 0, "rental_uris": {"android": "https://dc.lft.to/lastmile_qr_scan", "ios": "https://dc.lft.to/lastmile_qr_scan"}, "name": "2ffdd23ec7d0414ec2a2f8ce2439902e", "type": "electric_scooter"}, {"fusion_lat": 0.0, "bike_id": "69425811d35f10fe390b7d4ee21c0bcb", "fusion_lon": 0.0, "lon": -77.02123283333333, "lat": 38.9357895, "is_reserved": 0, "is_disabled": 0, "rental_uris": {"android": "https://dc.lft.to/lastmile_qr_scan", "ios": "https://dc.lft.to/lastmile_qr_scan"}, "name": "69425811d35f10fe390b7d4ee21c0bcb", "type": "electric_scooter"}, {"fusion_lat": 0.0, "bike_id": "3ae1f5f7bcfae3714714ba6afffa9b63", "fusion_lon": 0.0, "lon": -76.99146616666667, "lat": 38.88597033333333, "is_reserved": 0, "is_disabled": 0, "rental_uris": {"android": "https://dc.lft.to/lastmile_qr_scan", "ios": "https://dc.lft.to/lastmile_qr_scan"}, "name": "3ae1f5f7bcfae3714714ba6afffa9b63", "type": "electric_scooter"}, {"fusion_lat": 0.0, "bike_id": "44767252afa69ef6021924742fa996ff", "fusion_lon": 0.0, "lon": -77.03939266666667, "lat": 38.908180333333334, "is_reserved": 0, "is_disabled": 0, "rental_uris": {"android": "https://dc.lft.to/lastmile_qr_scan", "ios": "https://dc.lft.to/lastmile_qr_scan"}, "name": "44767252afa69ef6021924742fa996ff", "type": "electric_scooter"}, {"fusion_lat": 0.0, "bike_id": "90bd7fb4913dd4509ba9cb1bfa561a58", "fusion_lon": 0.0, "lon": -77.043243, "lat": 38.908827333333335, "is_reserved": 0, "is_disabled": 0, "rental_uris": {"android": "https://dc.lft.to/lastmile_qr_scan", "ios": "https://dc.lft.to/lastmile_qr_scan"}, "name": "90bd7fb4913dd4509ba9cb1bfa561a58", "type": "electric_scooter"}, {"fusion_lat": 0.0, "bike_id": "687f362d2b34f9283c96cffbe3681023", "fusion_lon": 0.0, "lon": -77.04109433333333, "lat": 38.91557816666667, "is_reserved": 0, "is_disabled": 0, "rental_uris": {"android": "https://dc.lft.to/lastmile_qr_scan", "ios": "https://dc.lft.to/lastmile_qr_scan"}, "name": "687f362d2b34f9283c96cffbe3681023", "type": "electric_scooter"}, {"fusion_lat": 0.0, "bike_id": "19c7b8223df2d515162291098931c370", "fusion_lon": 0.0, "lon": -77.02426883333334, "lat": 38.905635333333336, "is_reserved": 0, "is_disabled": 0, "rental_uris": {"android": "https://dc.lft.to/lastmile_qr_scan", "ios": "https://dc.lft.to/lastmile_qr_scan"}, "name": "19c7b8223df2d515162291098931c370", "type": "electric_scooter"}, {"fusion_lat": 0.0, "bike_id": "fd13d6be0903897a11687020c5519211", "fusion_lon": 0.0, "lon": -77.03182833333334, "lat": 38.89625566666667, "is_reserved": 0, "is_disabled": 0, "rental_uris": {"android": "https://dc.lft.to/lastmile_qr_scan", "ios": "https://dc.lft.to/lastmile_qr_scan"}, "name": "fd13d6be0903897a11687020c5519211", "type": "electric_scooter"}, {"fusion_lat": 0.0, "bike_id": "f3bd21c341fb2bcfc145cffa91fd1fd7", "fusion_lon": 0.0, "lon": -77.02588283333333, "lat": 38.892344333333334, "is_reserved": 0, "is_disabled": 0, "rental_uris": {"android": "https://dc.lft.to/lastmile_qr_scan", "ios": "https://dc.lft.to/lastmile_qr_scan"}, "name": "f3bd21c341fb2bcfc145cffa91fd1fd7", "type": "electric_scooter"}, {"fusion_lat": 0.0, "bike_id": "3271672761117d6ab008281dee5eff37", "fusion_lon": 0.0, "lon": -77.02238216666667, "lat": 38.9224165, "is_reserved": 0, "is_disabled": 0, "rental_uris": {"android": "https://dc.lft.to/lastmile_qr_scan", "ios": "https://dc.lft.to/lastmile_qr_scan"}, "name": "3271672761117d6ab008281dee5eff37", "type": "electric_scooter"}, {"fusion_lat": 0.0, "bike_id": "07756123f1f6cfea56beb16a828204db", "fusion_lon": 0.0, "lon": -77.0064475, "lat": 38.871628666666666, "is_reserved": 0, "is_disabled": 0, "rental_uris": {"android": "https://dc.lft.to/lastmile_qr_scan", "ios": "https://dc.lft.to/lastmile_qr_scan"}, "name": "07756123f1f6cfea56beb16a828204db", "type": "electric_scooter"}, {"fusion_lat": 0.0, "bike_id": "600a69937d329a18992ef335426ebecc", "fusion_lon": 0.0, "lon": -77.036016, "lat": 38.907586, "is_reserved": 0, "is_disabled": 0, "rental_uris": {"android": "https://dc.lft.to/lastmile_qr_scan", "ios": "https://dc.lft.to/lastmile_qr_scan"}, "name": "600a69937d329a18992ef335426ebecc", "type": "electric_scooter"}, {"fusion_lat": 0.0, "bike_id": "c0d380e76e1609b508a51b23b107f239", "fusion_lon": 0.0, "lon": -77.01854016666667, "lat": 38.91492516666667, "is_reserved": 0, "is_disabled": 0, "rental_uris": {"android": "https://dc.lft.to/lastmile_qr_scan", "ios": "https://dc.lft.to/lastmile_qr_scan"}, "name": "c0d380e76e1609b508a51b23b107f239", "type": "electric_scooter"}, {"fusion_lat": 0.0, "bike_id": "41d17a86d26f69236398ca1d81124c68", "fusion_lon": 0.0, "lon": -77.035547, "lat": 38.90825016666667, "is_reserved": 0, "is_disabled": 0, "rental_uris": {"android": "https://dc.lft.to/lastmile_qr_scan", "ios": "https://dc.lft.to/lastmile_qr_scan"}, "name": "41d17a86d26f69236398ca1d81124c68", "type": "electric_scooter"}, {"fusion_lat": 0.0, "bike_id": "39e135ea680cdea7bb7854d13da6539f", "fusion_lon": 0.0, "lon": -76.98799416666667, "lat": 38.892396, "is_reserved": 0, "is_disabled": 0, "rental_uris": {"android": "https://dc.lft.to/lastmile_qr_scan", "ios": "https://dc.lft.to/lastmile_qr_scan"}, "name": "39e135ea680cdea7bb7854d13da6539f", "type": "electric_scooter"}, {"fusion_lat": 0.0, "bike_id": "33cb136429c28b1d74c1bbeba06338b0", "fusion_lon": 0.0, "lon": -77.0486675, "lat": 38.9072255, "is_reserved": 0, "is_disabled": 0, "rental_uris": {"android": "https://dc.lft.to/lastmile_qr_scan", "ios": "https://dc.lft.to/lastmile_qr_scan"}, "name": "33cb136429c28b1d74c1bbeba06338b0", "type": "electric_scooter"}, {"fusion_lat": 0.0, "bike_id": "4cec155d7170236b8d52375df378c18a", "fusion_lon": 0.0, "lon": -77.04868483333334, "lat": 38.913383833333334, "is_reserved": 0, "is_disabled": 0, "rental_uris": {"android": "https://dc.lft.to/lastmile_qr_scan", "ios": "https://dc.lft.to/lastmile_qr_scan"}, "name": "4cec155d7170236b8d52375df378c18a", "type": "electric_scooter"}, {"fusion_lat": 0.0, "bike_id": "e50ed63da94a2c2feaf06141a97c8cba", "fusion_lon": 0.0, "lon": -77.0425955, "lat": 38.900178, "is_reserved": 0, "is_disabled": 0, "rental_uris": {"android": "https://dc.lft.to/lastmile_qr_scan", "ios": "https://dc.lft.to/lastmile_qr_scan"}, "name": "e50ed63da94a2c2feaf06141a97c8cba", "type": "electric_scooter"}, {"fusion_lat": 0.0, "bike_id": "ba419e9febf24a11674aaa2616e94a5d", "fusion_lon": 0.0, "lon": -77.01081366666666, "lat": 38.89603066666667, "is_reserved": 0, "is_disabled": 0, "rental_uris": {"android": "https://dc.lft.to/lastmile_qr_scan", "ios": "https://dc.lft.to/lastmile_qr_scan"}, "name": "ba419e9febf24a11674aaa2616e94a5d", "type": "electric_scooter"}, {"fusion_lat": 0.0, "bike_id": "ec147ecc97040acacef562cd873836fe", "fusion_lon": 0.0, "lon": -77.0318125, "lat": 38.92490816666667, "is_reserved": 0, "is_disabled": 0, "rental_uris": {"android": "https://dc.lft.to/lastmile_qr_scan", "ios": "https://dc.lft.to/lastmile_qr_scan"}, "name": "ec147ecc97040acacef562cd873836fe", "type": "electric_scooter"}, {"fusion_lat": 0.0, "bike_id": "5e9d252a2e77f7cba83412429ba3272e", "fusion_lon": 0.0, "lon": -77.03188616666667, "lat": 38.91304383333333, "is_reserved": 0, "is_disabled": 0, "rental_uris": {"android": "https://dc.lft.to/lastmile_qr_scan", "ios": "https://dc.lft.to/lastmile_qr_scan"}, "name": "5e9d252a2e77f7cba83412429ba3272e", "type": "electric_scooter"}, {"fusion_lat": 0.0, "bike_id": "7d387d7d890ac753107849424f6a6fde", "fusion_lon": 0.0, "lon": -77.0173665, "lat": 38.88746416666667, "is_reserved": 0, "is_disabled": 0, "rental_uris": {"android": "https://dc.lft.to/lastmile_qr_scan", "ios": "https://dc.lft.to/lastmile_qr_scan"}, "name": "7d387d7d890ac753107849424f6a6fde", "type": "electric_scooter"}, {"fusion_lat": 0.0, "bike_id": "29e0df1afce844a1d86e414d17327a57", "fusion_lon": 0.0, "lon": -77.03286133333333, "lat": 38.89891383333333, "is_reserved": 0, "is_disabled": 0, "rental_uris": {"android": "https://dc.lft.to/lastmile_qr_scan", "ios": "https://dc.lft.to/lastmile_qr_scan"}, "name": "29e0df1afce844a1d86e414d17327a57", "type": "electric_scooter"}, {"fusion_lat": 0.0, "bike_id": "60746ae00ea16709278ee4c6fa081c22", "fusion_lon": 0.0, "lon": -77.03181833333333, "lat": 38.91736516666667, "is_reserved": 0, "is_disabled": 0, "rental_uris": {"android": "https://dc.lft.to/lastmile_qr_scan", "ios": "https://dc.lft.to/lastmile_qr_scan"}, "name": "60746ae00ea16709278ee4c6fa081c22", "type": "electric_scooter"}, {"fusion_lat": 0.0, "bike_id": "9c740f470cb8b12408bc0bb92c87fc71", "fusion_lon": 0.0, "lon": -77.0376455, "lat": 38.916901833333334, "is_reserved": 0, "is_disabled": 0, "rental_uris": {"android": "https://dc.lft.to/lastmile_qr_scan", "ios": "https://dc.lft.to/lastmile_qr_scan"}, "name": "9c740f470cb8b12408bc0bb92c87fc71", "type": "electric_scooter"}, {"fusion_lat": 0.0, "bike_id": "14e561f76e8dbf94baf32400960e449f", "fusion_lon": 0.0, "lon": -77.01105916666667, "lat": 38.89480966666667, "is_reserved": 0, "is_disabled": 0, "rental_uris": {"android": "https://dc.lft.to/lastmile_qr_scan", "ios": "https://dc.lft.to/lastmile_qr_scan"}, "name": "14e561f76e8dbf94baf32400960e449f", "type": "electric_scooter"}, {"fusion_lat": 0.0, "bike_id": "7b211bd46e3b68c00cdb1d5374d6c526", "fusion_lon": 0.0, "lon": -77.03831983333333, "lat": 38.9039045, "is_reserved": 0, "is_disabled": 0, "rental_uris": {"android": "https://dc.lft.to/lastmile_qr_scan", "ios": "https://dc.lft.to/lastmile_qr_scan"}, "name": "7b211bd46e3b68c00cdb1d5374d6c526", "type": "electric_scooter"}, {"fusion_lat": 0.0, "bike_id": "a82a0fa1159964b897709f42c304a7cc", "fusion_lon": 0.0, "lon": -77.04555833333333, "lat": 38.896088666666664, "is_reserved": 0, "is_disabled": 0, "rental_uris": {"android": "https://dc.lft.to/lastmile_qr_scan", "ios": "https://dc.lft.to/lastmile_qr_scan"}, "name": "a82a0fa1159964b897709f42c304a7cc", "type": "electric_scooter"}, {"fusion_lat": 0.0, "bike_id": "a0b92d697153fe0b5ff15bd258c9fd44", "fusion_lon": 0.0, "lon": -77.03582066666667, "lat": 38.992272166666666, "is_reserved": 0, "is_disabled": 0, "rental_uris": {"android": "https://dc.lft.to/lastmile_qr_scan", "ios": "https://dc.lft.to/lastmile_qr_scan"}, "name": "a0b92d697153fe0b5ff15bd258c9fd44", "type": "electric_scooter"}, {"fusion_lat": 0.0, "bike_id": "e2708e0ca07945fab77426103f3b77f0", "fusion_lon": 0.0, "lon": -77.01232733333333, "lat": 38.915211666666664, "is_reserved": 0, "is_disabled": 0, "rental_uris": {"android": "https://dc.lft.to/lastmile_qr_scan", "ios": "https://dc.lft.to/lastmile_qr_scan"}, "name": "e2708e0ca07945fab77426103f3b77f0", "type": "electric_scooter"}, {"fusion_lat": 0.0, "bike_id": "4eb157cf6483757df86f373640814b0c", "fusion_lon": 0.0, "lon": -76.97824683333333, "lat": 38.843718833333334, "is_reserved": 0, "is_disabled": 0, "rental_uris": {"android": "https://dc.lft.to/lastmile_qr_scan", "ios": "https://dc.lft.to/lastmile_qr_scan"}, "name": "4eb157cf6483757df86f373640814b0c", "type": "electric_bike"}, {"fusion_lat": 0.0, "bike_id": "db0f209800dfd2ba24ce29a2a3e1f42c", "fusion_lon": 0.0, "lon": -77.024001, "lat": 38.9210655, "is_reserved": 0, "is_disabled": 0, "rental_uris": {"android": "https://dc.lft.to/lastmile_qr_scan", "ios": "https://dc.lft.to/lastmile_qr_scan"}, "name": "db0f209800dfd2ba24ce29a2a3e1f42c", "type": "electric_scooter"}, {"fusion_lat": 0.0, "bike_id": "e599814d78a38c0ab1afb45f9799614d", "fusion_lon": 0.0, "lon": -77.08331633333333, "lat": 38.854415333333336, "is_reserved": 0, "is_disabled": 0, "rental_uris": {"android": "https://dc.lft.to/lastmile_qr_scan", "ios": "https://dc.lft.to/lastmile_qr_scan"}, "name": "e599814d78a38c0ab1afb45f9799614d", "type": "electric_bike"}, {"fusion_lat": 0.0, "bike_id": "d745b7f01ac4febff592e102cfabb835", "fusion_lon": 0.0, "lon": -77.03463783333333, "lat": 38.92641783333333, "is_reserved": 0, "is_disabled": 0, "rental_uris": {"android": "https://dc.lft.to/lastmile_qr_scan", "ios": "https://dc.lft.to/lastmile_qr_scan"}, "name": "d745b7f01ac4febff592e102cfabb835", "type": "electric_scooter"}, {"fusion_lat": 0.0, "bike_id": "a72a1f5cfcf7896578ae82eeaa8b0dc5", "fusion_lon": 0.0, "lon": -77.0061285, "lat": 38.8947545, "is_reserved": 0, "is_disabled": 0, "rental_uris": {"android": "https://dc.lft.to/lastmile_qr_scan", "ios": "https://dc.lft.to/lastmile_qr_scan"}, "name": "a72a1f5cfcf7896578ae82eeaa8b0dc5", "type": "electric_scooter"}, {"fusion_lat": 0.0, "bike_id": "8159bfed2fd2c9c18b2a2e5ccc5b92a6", "fusion_lon": 0.0, "lon": -77.03631483333334, "lat": 38.944970833333336, "is_reserved": 0, "is_disabled": 0, "rental_uris": {"android": "https://dc.lft.to/lastmile_qr_scan", "ios": "https://dc.lft.to/lastmile_qr_scan"}, "name": "8159bfed2fd2c9c18b2a2e5ccc5b92a6", "type": "electric_scooter"}, {"fusion_lat": 0.0, "bike_id": "9ffb90d0febb788ef8d1c66530555d12", "fusion_lon": 0.0, "lon": -77.04875816666667, "lat": 38.892775666666665, "is_reserved": 0, "is_disabled": 0, "rental_uris": {"android": "https://dc.lft.to/lastmile_qr_scan", "ios": "https://dc.lft.to/lastmile_qr_scan"}, "name": "9ffb90d0febb788ef8d1c66530555d12", "type": "electric_scooter"}, {"fusion_lat": 0.0, "bike_id": "dd009dd2d645f7132c60873cccf9acd5", "fusion_lon": 0.0, "lon": -77.0729875, "lat": 38.93547083333333, "is_reserved": 0, "is_disabled": 0, "rental_uris": {"android": "https://dc.lft.to/lastmile_qr_scan", "ios": "https://dc.lft.to/lastmile_qr_scan"}, "name": "dd009dd2d645f7132c60873cccf9acd5", "type": "electric_scooter"}, {"fusion_lat": 0.0, "bike_id": "508d13ad8c7d36fee123aa8cb41cf457", "fusion_lon": 0.0, "lon": -77.05635166666667, "lat": 38.92634833333334, "is_reserved": 0, "is_disabled": 0, "rental_uris": {"android": "https://dc.lft.to/lastmile_qr_scan", "ios": "https://dc.lft.to/lastmile_qr_scan"}, "name": "508d13ad8c7d36fee123aa8cb41cf457", "type": "electric_scooter"}, {"fusion_lat": 0.0, "bike_id": "b7787f9853913b0158c4cff3bb1cc438", "fusion_lon": 0.0, "lon": -77.02148733333334, "lat": 38.92599933333333, "is_reserved": 0, "is_disabled": 0, "rental_uris": {"android": "https://dc.lft.to/lastmile_qr_scan", "ios": "https://dc.lft.to/lastmile_qr_scan"}, "name": "b7787f9853913b0158c4cff3bb1cc438", "type": "electric_scooter"}, {"fusion_lat": 0.0, "bike_id": "7741f0aca482943eb46cd159e7b7712e", "fusion_lon": 0.0, "lon": -77.02582416666667, "lat": 38.94405283333333, "is_reserved": 0, "is_disabled": 0, "rental_uris": {"android": "https://dc.lft.to/lastmile_qr_scan", "ios": "https://dc.lft.to/lastmile_qr_scan"}, "name": "7741f0aca482943eb46cd159e7b7712e", "type": "electric_scooter"}, {"fusion_lat": 0.0, "bike_id": "9b6210c8150fd8e9e07fbe8f29d1239d", "fusion_lon": 0.0, "lon": -77.02945366666667, "lat": 38.91668583333333, "is_reserved": 0, "is_disabled": 0, "rental_uris": {"android": "https://dc.lft.to/lastmile_qr_scan", "ios": "https://dc.lft.to/lastmile_qr_scan"}, "name": "9b6210c8150fd8e9e07fbe8f29d1239d", "type": "electric_scooter"}, {"fusion_lat": 0.0, "bike_id": "ee4584fb08377c561cb94ebe776b1db7", "fusion_lon": 0.0, "lon": -76.96523383333333, "lat": 38.87630133333333, "is_reserved": 0, "is_disabled": 0, "rental_uris": {"android": "https://dc.lft.to/lastmile_qr_scan", "ios": "https://dc.lft.to/lastmile_qr_scan"}, "name": "ee4584fb08377c561cb94ebe776b1db7", "type": "electric_scooter"}, {"fusion_lat": 0.0, "bike_id": "970d07f2e644a9f00b621ca39faba074", "fusion_lon": 0.0, "lon": -76.973029, "lat": 38.916457, "is_reserved": 0, "is_disabled": 0, "rental_uris": {"android": "https://dc.lft.to/lastmile_qr_scan", "ios": "https://dc.lft.to/lastmile_qr_scan"}, "name": "970d07f2e644a9f00b621ca39faba074", "type": "electric_bike"}, {"fusion_lat": 0.0, "bike_id": "262a0e15f467687825b4b67036f6169a", "fusion_lon": 0.0, "lon": -77.02194216666666, "lat": 38.899917, "is_reserved": 0, "is_disabled": 0, "rental_uris": {"android": "https://dc.lft.to/lastmile_qr_scan", "ios": "https://dc.lft.to/lastmile_qr_scan"}, "name": "262a0e15f467687825b4b67036f6169a", "type": "electric_scooter"}, {"fusion_lat": 0.0, "bike_id": "e45ac904f99f6c0f50b35c76a3ba95e8", "fusion_lon": 0.0, "lon": -77.08013466666667, "lat": 38.950622333333335, "is_reserved": 0, "is_disabled": 0, "rental_uris": {"android": "https://dc.lft.to/lastmile_qr_scan", "ios": "https://dc.lft.to/lastmile_qr_scan"}, "name": "e45ac904f99f6c0f50b35c76a3ba95e8", "type": "electric_scooter"}, {"fusion_lat": 0.0, "bike_id": "d0a397a4d8a9a820a34c8fab1fdb0e4b", "fusion_lon": 0.0, "lon": -77.0279505, "lat": 38.895648666666666, "is_reserved": 0, "is_disabled": 0, "rental_uris": {"android": "https://dc.lft.to/lastmile_qr_scan", "ios": "https://dc.lft.to/lastmile_qr_scan"}, "name": "d0a397a4d8a9a820a34c8fab1fdb0e4b", "type": "electric_scooter"}, {"fusion_lat": 0.0, "bike_id": "14dc8e52d5f750847ffbcf4b46df3898", "fusion_lon": 0.0, "lon": -77.032613, "lat": 38.93266916666666, "is_reserved": 0, "is_disabled": 0, "rental_uris": {"android": "https://dc.lft.to/lastmile_qr_scan", "ios": "https://dc.lft.to/lastmile_qr_scan"}, "name": "14dc8e52d5f750847ffbcf4b46df3898", "type": "electric_scooter"}, {"fusion_lat": 0.0, "bike_id": "038919d8ebc8e5c0dbdc7f59314d4178", "fusion_lon": 0.0, "lon": -77.021752, "lat": 38.894745, "is_reserved": 0, "is_disabled": 0, "rental_uris": {"android": "https://dc.lft.to/lastmile_qr_scan", "ios": "https://dc.lft.to/lastmile_qr_scan"}, "name": "038919d8ebc8e5c0dbdc7f59314d4178", "type": "electric_scooter"}, {"fusion_lat": 0.0, "bike_id": "f94fd7a98493ace16ca28738ed8feea4", "fusion_lon": 0.0, "lon": -76.99132816666666, "lat": 38.90140533333334, "is_reserved": 0, "is_disabled": 0, "rental_uris": {"android": "https://dc.lft.to/lastmile_qr_scan", "ios": "https://dc.lft.to/lastmile_qr_scan"}, "name": "f94fd7a98493ace16ca28738ed8feea4", "type": "electric_scooter"}, {"fusion_lat": 0.0, "bike_id": "6f8f573c602ea82a2a87a43327ceb860", "fusion_lon": 0.0, "lon": -77.0449795, "lat": 38.90050183333334, "is_reserved": 0, "is_disabled": 0, "rental_uris": {"android": "https://dc.lft.to/lastmile_qr_scan", "ios": "https://dc.lft.to/lastmile_qr_scan"}, "name": "6f8f573c602ea82a2a87a43327ceb860", "type": "electric_scooter"}, {"fusion_lat": 0.0, "bike_id": "f8f46e01a79032c013a8fdaedde9f763", "fusion_lon": 0.0, "lon": -77.03710316666667, "lat": 38.914859666666665, "is_reserved": 0, "is_disabled": 0, "rental_uris": {"android": "https://dc.lft.to/lastmile_qr_scan", "ios": "https://dc.lft.to/lastmile_qr_scan"}, "name": "f8f46e01a79032c013a8fdaedde9f763", "type": "electric_scooter"}, {"fusion_lat": 0.0, "bike_id": "d088a0d7d392c3aa7e9b971b7af28911", "fusion_lon": 0.0, "lon": -77.04932833333334, "lat": 38.90080433333333, "is_reserved": 0, "is_disabled": 0, "rental_uris": {"android": "https://dc.lft.to/lastmile_qr_scan", "ios": "https://dc.lft.to/lastmile_qr_scan"}, "name": "d088a0d7d392c3aa7e9b971b7af28911", "type": "electric_scooter"}, {"fusion_lat": 0.0, "bike_id": "f776011f311acc383613c1a0afa1a99a", "fusion_lon": 0.0, "lon": -77.03188883333333, "lat": 38.899641833333334, "is_reserved": 0, "is_disabled": 0, "rental_uris": {"android": "https://dc.lft.to/lastmile_qr_scan", "ios": "https://dc.lft.to/lastmile_qr_scan"}, "name": "f776011f311acc383613c1a0afa1a99a", "type": "electric_scooter"}, {"fusion_lat": 0.0, "bike_id": "d4398d48fee36df8065d741a218dd86d", "fusion_lon": 0.0, "lon": -77.03862066666667, "lat": 38.90636333333333, "is_reserved": 0, "is_disabled": 0, "rental_uris": {"android": "https://dc.lft.to/lastmile_qr_scan", "ios": "https://dc.lft.to/lastmile_qr_scan"}, "name": "d4398d48fee36df8065d741a218dd86d", "type": "electric_scooter"}, {"fusion_lat": 0.0, "bike_id": "19b24bf10d1e3feac5da9768cc2dbe17", "fusion_lon": 0.0, "lon": -77.07164433333334, "lat": 38.907797, "is_reserved": 0, "is_disabled": 0, "rental_uris": {"android": "https://dc.lft.to/lastmile_qr_scan", "ios": "https://dc.lft.to/lastmile_qr_scan"}, "name": "19b24bf10d1e3feac5da9768cc2dbe17", "type": "electric_scooter"}, {"fusion_lat": 0.0, "bike_id": "85f4c49ab95dda376d3d5b5f16ccd6b3", "fusion_lon": 0.0, "lon": -77.0162945, "lat": 38.9289935, "is_reserved": 0, "is_disabled": 0, "rental_uris": {"android": "https://dc.lft.to/lastmile_qr_scan", "ios": "https://dc.lft.to/lastmile_qr_scan"}, "name": "85f4c49ab95dda376d3d5b5f16ccd6b3", "type": "electric_scooter"}, {"fusion_lat": 0.0, "bike_id": "db4fc34dd9fcbfc9d4323e979ebc9ff1", "fusion_lon": 0.0, "lon": -77.02313233333334, "lat": 38.90152233333333, "is_reserved": 0, "is_disabled": 0, "rental_uris": {"android": "https://dc.lft.to/lastmile_qr_scan", "ios": "https://dc.lft.to/lastmile_qr_scan"}, "name": "db4fc34dd9fcbfc9d4323e979ebc9ff1", "type": "electric_scooter"}, {"fusion_lat": 0.0, "bike_id": "7647e17b9ceda9ff98b4a0c100247572", "fusion_lon": 0.0, "lon": -77.031911, "lat": 38.90939816666667, "is_reserved": 0, "is_disabled": 0, "rental_uris": {"android": "https://dc.lft.to/lastmile_qr_scan", "ios": "https://dc.lft.to/lastmile_qr_scan"}, "name": "7647e17b9ceda9ff98b4a0c100247572", "type": "electric_scooter"}, {"fusion_lat": 0.0, "bike_id": "dd2e0f0a1a457d1bfa34701e5c6f7cb2", "fusion_lon": 0.0, "lon": -77.046741, "lat": 38.895589333333334, "is_reserved": 0, "is_disabled": 0, "rental_uris": {"android": "https://dc.lft.to/lastmile_qr_scan", "ios": "https://dc.lft.to/lastmile_qr_scan"}, "name": "dd2e0f0a1a457d1bfa34701e5c6f7cb2", "type": "electric_scooter"}, {"fusion_lat": 0.0, "bike_id": "7549ff59d2c137afac0fc06d91cc28b1", "fusion_lon": 0.0, "lon": -77.038204, "lat": 38.904070833333336, "is_reserved": 0, "is_disabled": 0, "rental_uris": {"android": "https://dc.lft.to/lastmile_qr_scan", "ios": "https://dc.lft.to/lastmile_qr_scan"}, "name": "7549ff59d2c137afac0fc06d91cc28b1", "type": "electric_scooter"}, {"fusion_lat": 0.0, "bike_id": "87a077ab8138e654339ab702c0dc28a9", "fusion_lon": 0.0, "lon": -77.09492166666666, "lat": 38.8076465, "is_reserved": 0, "is_disabled": 0, "rental_uris": {"android": "https://dc.lft.to/lastmile_qr_scan", "ios": "https://dc.lft.to/lastmile_qr_scan"}, "name": "87a077ab8138e654339ab702c0dc28a9", "type": "electric_bike"}, {"fusion_lat": 0.0, "bike_id": "b266b0c42fed24b53244a12174236360", "fusion_lon": 0.0, "lon": -77.051781, "lat": 38.923848666666665, "is_reserved": 0, "is_disabled": 0, "rental_uris": {"android": "https://dc.lft.to/lastmile_qr_scan", "ios": "https://dc.lft.to/lastmile_qr_scan"}, "name": "b266b0c42fed24b53244a12174236360", "type": "electric_scooter"}, {"fusion_lat": 0.0, "bike_id": "7f231692a91e28f3d589b61221e40bae", "fusion_lon": 0.0, "lon": -77.03181866666667, "lat": 38.913000333333336, "is_reserved": 0, "is_disabled": 0, "rental_uris": {"android": "https://dc.lft.to/lastmile_qr_scan", "ios": "https://dc.lft.to/lastmile_qr_scan"}, "name": "7f231692a91e28f3d589b61221e40bae", "type": "electric_scooter"}, {"fusion_lat": 0.0, "bike_id": "2397f75d2acb3c310fe0f51451af0c9f", "fusion_lon": 0.0, "lon": -77.0195125, "lat": 38.922505, "is_reserved": 0, "is_disabled": 0, "rental_uris": {"android": "https://dc.lft.to/lastmile_qr_scan", "ios": "https://dc.lft.to/lastmile_qr_scan"}, "name": "2397f75d2acb3c310fe0f51451af0c9f", "type": "electric_scooter"}, {"fusion_lat": 0.0, "bike_id": "e5b267cb2ebd76402c99c215d24ff53b", "fusion_lon": 0.0, "lon": -77.0030775, "lat": 38.892263166666666, "is_reserved": 0, "is_disabled": 0, "rental_uris": {"android": "https://dc.lft.to/lastmile_qr_scan", "ios": "https://dc.lft.to/lastmile_qr_scan"}, "name": "e5b267cb2ebd76402c99c215d24ff53b", "type": "electric_scooter"}, {"fusion_lat": 0.0, "bike_id": "da281ce9692184aab78722a26fd205dc", "fusion_lon": 0.0, "lon": -77.03531283333334, "lat": 38.924838666666666, "is_reserved": 0, "is_disabled": 0, "rental_uris": {"android": "https://dc.lft.to/lastmile_qr_scan", "ios": "https://dc.lft.to/lastmile_qr_scan"}, "name": "da281ce9692184aab78722a26fd205dc", "type": "electric_scooter"}, {"fusion_lat": 0.0, "bike_id": "8d1baf91cf993f9b15bcc3b656bfefb4", "fusion_lon": 0.0, "lon": -76.980182, "lat": 38.853230333333336, "is_reserved": 0, "is_disabled": 0, "rental_uris": {"android": "https://dc.lft.to/lastmile_qr_scan", "ios": "https://dc.lft.to/lastmile_qr_scan"}, "name": "8d1baf91cf993f9b15bcc3b656bfefb4", "type": "electric_bike"}, {"fusion_lat": 0.0, "bike_id": "91d8f442f3e88f357373c57b42f01d2a", "fusion_lon": 0.0, "lon": -77.03301783333333, "lat": 38.900267666666664, "is_reserved": 0, "is_disabled": 0, "rental_uris": {"android": "https://dc.lft.to/lastmile_qr_scan", "ios": "https://dc.lft.to/lastmile_qr_scan"}, "name": "91d8f442f3e88f357373c57b42f01d2a", "type": "electric_scooter"}, {"fusion_lat": 0.0, "bike_id": "91e6fcb8683ac126c3751028ced6a3b6", "fusion_lon": 0.0, "lon": -77.05745033333334, "lat": 38.9335455, "is_reserved": 0, "is_disabled": 0, "rental_uris": {"android": "https://dc.lft.to/lastmile_qr_scan", "ios": "https://dc.lft.to/lastmile_qr_scan"}, "name": "91e6fcb8683ac126c3751028ced6a3b6", "type": "electric_scooter"}, {"fusion_lat": 0.0, "bike_id": "3b0fc15c679d16270c0cccbd4bee78ed", "fusion_lon": 0.0, "lon": -77.03210416666667, "lat": 38.914738166666666, "is_reserved": 0, "is_disabled": 0, "rental_uris": {"android": "https://dc.lft.to/lastmile_qr_scan", "ios": "https://dc.lft.to/lastmile_qr_scan"}, "name": "3b0fc15c679d16270c0cccbd4bee78ed", "type": "electric_scooter"}, {"fusion_lat": 0.0, "bike_id": "349a8a9046ee82614248a9ccfc8bc10a", "fusion_lon": 0.0, "lon": -76.93731866666667, "lat": 38.890168333333335, "is_reserved": 0, "is_disabled": 0, "rental_uris": {"android": "https://dc.lft.to/lastmile_qr_scan", "ios": "https://dc.lft.to/lastmile_qr_scan"}, "name": "349a8a9046ee82614248a9ccfc8bc10a", "type": "electric_scooter"}, {"fusion_lat": 0.0, "bike_id": "5dd81dfc025e0e602a02ce7bfaa2dc2b", "fusion_lon": 0.0, "lon": -77.04640433333333, "lat": 38.89221533333333, "is_reserved": 0, "is_disabled": 0, "rental_uris": {"android": "https://dc.lft.to/lastmile_qr_scan", "ios": "https://dc.lft.to/lastmile_qr_scan"}, "name": "5dd81dfc025e0e602a02ce7bfaa2dc2b", "type": "electric_scooter"}, {"fusion_lat": 0.0, "bike_id": "dd1b0706d7d65db916e7b33020aa25db", "fusion_lon": 0.0, "lon": -77.0321215, "lat": 38.8973365, "is_reserved": 0, "is_disabled": 0, "rental_uris": {"android": "https://dc.lft.to/lastmile_qr_scan", "ios": "https://dc.lft.to/lastmile_qr_scan"}, "name": "dd1b0706d7d65db916e7b33020aa25db", "type": "electric_scooter"}, {"fusion_lat": 0.0, "bike_id": "c6fae7beca1c4b9645aff3914d83ca90", "fusion_lon": 0.0, "lon": -77.02006183333333, "lat": 38.9241315, "is_reserved": 0, "is_disabled": 0, "rental_uris": {"android": "https://dc.lft.to/lastmile_qr_scan", "ios": "https://dc.lft.to/lastmile_qr_scan"}, "name": "c6fae7beca1c4b9645aff3914d83ca90", "type": "electric_scooter"}, {"fusion_lat": 0.0, "bike_id": "d113e573eaa8447bae3009e7e5ba766c", "fusion_lon": 0.0, "lon": -76.9906005, "lat": 38.8982195, "is_reserved": 0, "is_disabled": 0, "rental_uris": {"android": "https://dc.lft.to/lastmile_qr_scan", "ios": "https://dc.lft.to/lastmile_qr_scan"}, "name": "d113e573eaa8447bae3009e7e5ba766c", "type": "electric_bike"}, {"fusion_lat": 0.0, "bike_id": "0013dd44e8dd0d754750aefb636cc5c5", "fusion_lon": 0.0, "lon": -77.0351645, "lat": 38.923314500000004, "is_reserved": 0, "is_disabled": 0, "rental_uris": {"android": "https://dc.lft.to/lastmile_qr_scan", "ios": "https://dc.lft.to/lastmile_qr_scan"}, "name": "0013dd44e8dd0d754750aefb636cc5c5", "type": "electric_scooter"}, {"fusion_lat": 0.0, "bike_id": "2bab999782a3e62eae722ba867d18f7c", "fusion_lon": 0.0, "lon": -77.03184483333334, "lat": 38.917434666666665, "is_reserved": 0, "is_disabled": 0, "rental_uris": {"android": "https://dc.lft.to/lastmile_qr_scan", "ios": "https://dc.lft.to/lastmile_qr_scan"}, "name": "2bab999782a3e62eae722ba867d18f7c", "type": "electric_scooter"}, {"fusion_lat": 0.0, "bike_id": "0e477053c18086e00a556be62ce30db2", "fusion_lon": 0.0, "lon": -77.00379183333334, "lat": 38.876377833333336, "is_reserved": 0, "is_disabled": 0, "rental_uris": {"android": "https://dc.lft.to/lastmile_qr_scan", "ios": "https://dc.lft.to/lastmile_qr_scan"}, "name": "0e477053c18086e00a556be62ce30db2", "type": "electric_scooter"}, {"fusion_lat": 0.0, "bike_id": "7e78e8688186769dfb64985eacfaf43b", "fusion_lon": 0.0, "lon": -76.94883266666666, "lat": 38.895097666666665, "is_reserved": 0, "is_disabled": 0, "rental_uris": {"android": "https://dc.lft.to/lastmile_qr_scan", "ios": "https://dc.lft.to/lastmile_qr_scan"}, "name": "7e78e8688186769dfb64985eacfaf43b", "type": "electric_scooter"}, {"fusion_lat": 0.0, "bike_id": "924b3d668c8b66386756c45f67011acc", "fusion_lon": 0.0, "lon": -77.02743483333333, "lat": 38.916998666666665, "is_reserved": 0, "is_disabled": 0, "rental_uris": {"android": "https://dc.lft.to/lastmile_qr_scan", "ios": "https://dc.lft.to/lastmile_qr_scan"}, "name": "924b3d668c8b66386756c45f67011acc", "type": "electric_scooter"}, {"fusion_lat": 0.0, "bike_id": "fa45acd8a40bf5d8983908131a7ad2be", "fusion_lon": 0.0, "lon": -77.00293983333333, "lat": 38.892029666666666, "is_reserved": 0, "is_disabled": 0, "rental_uris": {"android": "https://dc.lft.to/lastmile_qr_scan", "ios": "https://dc.lft.to/lastmile_qr_scan"}, "name": "fa45acd8a40bf5d8983908131a7ad2be", "type": "electric_scooter"}, {"fusion_lat": 0.0, "bike_id": "6deb2cb26a8d44863168091c4a768c24", "fusion_lon": 0.0, "lon": -77.0304065, "lat": 38.90260416666667, "is_reserved": 0, "is_disabled": 0, "rental_uris": {"android": "https://dc.lft.to/lastmile_qr_scan", "ios": "https://dc.lft.to/lastmile_qr_scan"}, "name": "6deb2cb26a8d44863168091c4a768c24", "type": "electric_scooter"}, {"fusion_lat": 0.0, "bike_id": "b514f4aa3276130322b0db28f77938be", "fusion_lon": 0.0, "lon": -76.969213, "lat": 38.930310166666665, "is_reserved": 0, "is_disabled": 0, "rental_uris": {"android": "https://dc.lft.to/lastmile_qr_scan", "ios": "https://dc.lft.to/lastmile_qr_scan"}, "name": "b514f4aa3276130322b0db28f77938be", "type": "electric_scooter"}, {"fusion_lat": 0.0, "bike_id": "43562f965ba3628e5762a78cfe94d719", "fusion_lon": 0.0, "lon": -77.029216, "lat": 38.899291, "is_reserved": 0, "is_disabled": 0, "rental_uris": {"android": "https://dc.lft.to/lastmile_qr_scan", "ios": "https://dc.lft.to/lastmile_qr_scan"}, "name": "43562f965ba3628e5762a78cfe94d719", "type": "electric_scooter"}, {"fusion_lat": 0.0, "bike_id": "f4198e520903026faa83bf62481d4836", "fusion_lon": 0.0, "lon": -76.99932133333333, "lat": 38.84315816666667, "is_reserved": 0, "is_disabled": 0, "rental_uris": {"android": "https://dc.lft.to/lastmile_qr_scan", "ios": "https://dc.lft.to/lastmile_qr_scan"}, "name": "f4198e520903026faa83bf62481d4836", "type": "electric_scooter"}, {"fusion_lat": 0.0, "bike_id": "757fff0c4709718466475bfd4cba4ff8", "fusion_lon": 0.0, "lon": -77.035515, "lat": 38.92577883333333, "is_reserved": 0, "is_disabled": 0, "rental_uris": {"android": "https://dc.lft.to/lastmile_qr_scan", "ios": "https://dc.lft.to/lastmile_qr_scan"}, "name": "757fff0c4709718466475bfd4cba4ff8", "type": "electric_scooter"}, {"fusion_lat": 0.0, "bike_id": "cc3a0eead0a6f3b8bc43c698f4014ff2", "fusion_lon": 0.0, "lon": -77.05709683333333, "lat": 38.92598683333333, "is_reserved": 0, "is_disabled": 0, "rental_uris": {"android": "https://dc.lft.to/lastmile_qr_scan", "ios": "https://dc.lft.to/lastmile_qr_scan"}, "name": "cc3a0eead0a6f3b8bc43c698f4014ff2", "type": "electric_bike"}, {"fusion_lat": 0.0, "bike_id": "349a0d779fc889658c577fd492081425", "fusion_lon": 0.0, "lon": -76.9774495, "lat": 38.86486566666667, "is_reserved": 0, "is_disabled": 0, "rental_uris": {"android": "https://dc.lft.to/lastmile_qr_scan", "ios": "https://dc.lft.to/lastmile_qr_scan"}, "name": "349a0d779fc889658c577fd492081425", "type": "electric_bike"}, {"fusion_lat": 0.0, "bike_id": "6ba52e9c84bbd5c5b6b7d1150f1e5548", "fusion_lon": 0.0, "lon": -77.01943433333334, "lat": 38.92366916666667, "is_reserved": 0, "is_disabled": 0, "rental_uris": {"android": "https://dc.lft.to/lastmile_qr_scan", "ios": "https://dc.lft.to/lastmile_qr_scan"}, "name": "6ba52e9c84bbd5c5b6b7d1150f1e5548", "type": "electric_scooter"}, {"fusion_lat": 0.0, "bike_id": "e44138431fe5b5a5e6c85faac25ac0be", "fusion_lon": 0.0, "lon": -77.03307, "lat": 38.90036516666667, "is_reserved": 0, "is_disabled": 0, "rental_uris": {"android": "https://dc.lft.to/lastmile_qr_scan", "ios": "https://dc.lft.to/lastmile_qr_scan"}, "name": "e44138431fe5b5a5e6c85faac25ac0be", "type": "electric_scooter"}, {"fusion_lat": 0.0, "bike_id": "f09cdcacdaf5239434937d0c26763aed", "fusion_lon": 0.0, "lon": -77.02113883333334, "lat": 38.93701633333333, "is_reserved": 0, "is_disabled": 0, "rental_uris": {"android": "https://dc.lft.to/lastmile_qr_scan", "ios": "https://dc.lft.to/lastmile_qr_scan"}, "name": "f09cdcacdaf5239434937d0c26763aed", "type": "electric_scooter"}, {"fusion_lat": 0.0, "bike_id": "b0bb6f0b06c088fcd6b3a3fc429d9fd3", "fusion_lon": 0.0, "lon": -77.04821183333334, "lat": 38.90955266666667, "is_reserved": 0, "is_disabled": 0, "rental_uris": {"android": "https://dc.lft.to/lastmile_qr_scan", "ios": "https://dc.lft.to/lastmile_qr_scan"}, "name": "b0bb6f0b06c088fcd6b3a3fc429d9fd3", "type": "electric_scooter"}, {"fusion_lat": 0.0, "bike_id": "901ee7a9621818ee51acba1777d17f8f", "fusion_lon": 0.0, "lon": -77.03023116666667, "lat": 38.8997695, "is_reserved": 0, "is_disabled": 0, "rental_uris": {"android": "https://dc.lft.to/lastmile_qr_scan", "ios": "https://dc.lft.to/lastmile_qr_scan"}, "name": "901ee7a9621818ee51acba1777d17f8f", "type": "electric_scooter"}, {"fusion_lat": 0.0, "bike_id": "b78b8a20e8ab7037c6eefd68e6a648cd", "fusion_lon": 0.0, "lon": -77.00910666666667, "lat": 38.827848833333334, "is_reserved": 0, "is_disabled": 0, "rental_uris": {"android": "https://dc.lft.to/lastmile_qr_scan", "ios": "https://dc.lft.to/lastmile_qr_scan"}, "name": "b78b8a20e8ab7037c6eefd68e6a648cd", "type": "electric_bike"}, {"fusion_lat": 0.0, "bike_id": "e36cceee0c4f36a009503b57fe038bcf", "fusion_lon": 0.0, "lon": -77.03814516666667, "lat": 38.93096166666667, "is_reserved": 0, "is_disabled": 0, "rental_uris": {"android": "https://dc.lft.to/lastmile_qr_scan", "ios": "https://dc.lft.to/lastmile_qr_scan"}, "name": "e36cceee0c4f36a009503b57fe038bcf", "type": "electric_scooter"}, {"fusion_lat": 0.0, "bike_id": "6f49be471a278cf7bfe5b4974058d9ff", "fusion_lon": 0.0, "lon": -77.00744683333333, "lat": 38.903778, "is_reserved": 0, "is_disabled": 0, "rental_uris": {"android": "https://dc.lft.to/lastmile_qr_scan", "ios": "https://dc.lft.to/lastmile_qr_scan"}, "name": "6f49be471a278cf7bfe5b4974058d9ff", "type": "electric_scooter"}, {"fusion_lat": 0.0, "bike_id": "40ff5f4ce8e192c9660b31c8bf114a2a", "fusion_lon": 0.0, "lon": -76.9635855, "lat": 38.934988, "is_reserved": 0, "is_disabled": 0, "rental_uris": {"android": "https://dc.lft.to/lastmile_qr_scan", "ios": "https://dc.lft.to/lastmile_qr_scan"}, "name": "40ff5f4ce8e192c9660b31c8bf114a2a", "type": "electric_scooter"}, {"fusion_lat": 0.0, "bike_id": "9669d37892fde706b32d4708415082e2", "fusion_lon": 0.0, "lon": -77.0385175, "lat": 38.906482, "is_reserved": 0, "is_disabled": 0, "rental_uris": {"android": "https://dc.lft.to/lastmile_qr_scan", "ios": "https://dc.lft.to/lastmile_qr_scan"}, "name": "9669d37892fde706b32d4708415082e2", "type": "electric_scooter"}, {"fusion_lat": 0.0, "bike_id": "ff5a2a17c0f91a8b5c02e5619f1ecfe8", "fusion_lon": 0.0, "lon": -76.95891316666666, "lat": 38.890108166666664, "is_reserved": 0, "is_disabled": 0, "rental_uris": {"android": "https://dc.lft.to/lastmile_qr_scan", "ios": "https://dc.lft.to/lastmile_qr_scan"}, "name": "ff5a2a17c0f91a8b5c02e5619f1ecfe8", "type": "electric_scooter"}, {"fusion_lat": 0.0, "bike_id": "919219bc62d4e560549174dcfd2aeedb", "fusion_lon": 0.0, "lon": -77.0487075, "lat": 38.89234233333333, "is_reserved": 0, "is_disabled": 0, "rental_uris": {"android": "https://dc.lft.to/lastmile_qr_scan", "ios": "https://dc.lft.to/lastmile_qr_scan"}, "name": "919219bc62d4e560549174dcfd2aeedb", "type": "electric_scooter"}, {"fusion_lat": 0.0, "bike_id": "5382d4e2024a08aeee38a254623d3fb2", "fusion_lon": 0.0, "lon": -77.11282633333333, "lat": 39.04758266666666, "is_reserved": 0, "is_disabled": 0, "rental_uris": {"android": "https://dc.lft.to/lastmile_qr_scan", "ios": "https://dc.lft.to/lastmile_qr_scan"}, "name": "5382d4e2024a08aeee38a254623d3fb2", "type": "electric_bike"}, {"fusion_lat": 0.0, "bike_id": "5d12622a72ba3dd82212a2d44e43cb75", "fusion_lon": 0.0, "lon": -77.03228333333334, "lat": 38.896440166666665, "is_reserved": 0, "is_disabled": 0, "rental_uris": {"android": "https://dc.lft.to/lastmile_qr_scan", "ios": "https://dc.lft.to/lastmile_qr_scan"}, "name": "5d12622a72ba3dd82212a2d44e43cb75", "type": "electric_scooter"}, {"fusion_lat": 0.0, "bike_id": "840aeffce6cb60b12fb01d7cce610af6", "fusion_lon": 0.0, "lon": -77.05097666666667, "lat": 38.901848333333334, "is_reserved": 0, "is_disabled": 0, "rental_uris": {"android": "https://dc.lft.to/lastmile_qr_scan", "ios": "https://dc.lft.to/lastmile_qr_scan"}, "name": "840aeffce6cb60b12fb01d7cce610af6", "type": "electric_scooter"}, {"fusion_lat": 0.0, "bike_id": "f21a3659f753440c2e1971af0b7b0bc5", "fusion_lon": 0.0, "lon": -77.02483733333334, "lat": 38.91697216666667, "is_reserved": 0, "is_disabled": 0, "rental_uris": {"android": "https://dc.lft.to/lastmile_qr_scan", "ios": "https://dc.lft.to/lastmile_qr_scan"}, "name": "f21a3659f753440c2e1971af0b7b0bc5", "type": "electric_scooter"}, {"fusion_lat": 0.0, "bike_id": "53b45dd09a3bdea441f90f8415d6c1ff", "fusion_lon": 0.0, "lon": -77.06708683333333, "lat": 38.914426666666664, "is_reserved": 0, "is_disabled": 0, "rental_uris": {"android": "https://dc.lft.to/lastmile_qr_scan", "ios": "https://dc.lft.to/lastmile_qr_scan"}, "name": "53b45dd09a3bdea441f90f8415d6c1ff", "type": "electric_scooter"}, {"fusion_lat": 0.0, "bike_id": "ed3cba6712ce289b34c6081829322985", "fusion_lon": 0.0, "lon": -77.05504166666667, "lat": 38.92988666666667, "is_reserved": 0, "is_disabled": 0, "rental_uris": {"android": "https://dc.lft.to/lastmile_qr_scan", "ios": "https://dc.lft.to/lastmile_qr_scan"}, "name": "ed3cba6712ce289b34c6081829322985", "type": "electric_scooter"}, {"fusion_lat": 0.0, "bike_id": "b224e0842ebdca54988f146b4be18a2c", "fusion_lon": 0.0, "lon": -77.04411633333333, "lat": 38.900191, "is_reserved": 0, "is_disabled": 0, "rental_uris": {"android": "https://dc.lft.to/lastmile_qr_scan", "ios": "https://dc.lft.to/lastmile_qr_scan"}, "name": "b224e0842ebdca54988f146b4be18a2c", "type": "electric_scooter"}, {"fusion_lat": 0.0, "bike_id": "0c74a4dae316061724b61ebf6ca3a9d8", "fusion_lon": 0.0, "lon": -77.03275233333333, "lat": 38.91994016666666, "is_reserved": 0, "is_disabled": 0, "rental_uris": {"android": "https://dc.lft.to/lastmile_qr_scan", "ios": "https://dc.lft.to/lastmile_qr_scan"}, "name": "0c74a4dae316061724b61ebf6ca3a9d8", "type": "electric_scooter"}, {"fusion_lat": 0.0, "bike_id": "1b812e809c80e372cd51d05d7d877c5d", "fusion_lon": 0.0, "lon": -77.03245066666666, "lat": 38.904535833333334, "is_reserved": 0, "is_disabled": 0, "rental_uris": {"android": "https://dc.lft.to/lastmile_qr_scan", "ios": "https://dc.lft.to/lastmile_qr_scan"}, "name": "1b812e809c80e372cd51d05d7d877c5d", "type": "electric_scooter"}, {"fusion_lat": 0.0, "bike_id": "811754b0786e05ff4661157978cef6cc", "fusion_lon": 0.0, "lon": -77.0141295, "lat": 38.9148725, "is_reserved": 0, "is_disabled": 0, "rental_uris": {"android": "https://dc.lft.to/lastmile_qr_scan", "ios": "https://dc.lft.to/lastmile_qr_scan"}, "name": "811754b0786e05ff4661157978cef6cc", "type": "electric_scooter"}, {"fusion_lat": 0.0, "bike_id": "05e2c8c71b23cc8e9a4ec493b65c1fe3", "fusion_lon": 0.0, "lon": -77.0318175, "lat": 38.91405133333333, "is_reserved": 0, "is_disabled": 0, "rental_uris": {"android": "https://dc.lft.to/lastmile_qr_scan", "ios": "https://dc.lft.to/lastmile_qr_scan"}, "name": "05e2c8c71b23cc8e9a4ec493b65c1fe3", "type": "electric_scooter"}, {"fusion_lat": 0.0, "bike_id": "8f9f0211ea6f1eaa2917433810325e87", "fusion_lon": 0.0, "lon": -77.02841483333333, "lat": 38.925798, "is_reserved": 0, "is_disabled": 0, "rental_uris": {"android": "https://dc.lft.to/lastmile_qr_scan", "ios": "https://dc.lft.to/lastmile_qr_scan"}, "name": "8f9f0211ea6f1eaa2917433810325e87", "type": "electric_scooter"}, {"fusion_lat": 0.0, "bike_id": "940acce895c939e8481bb50002ef038a", "fusion_lon": 0.0, "lon": -76.97417366666667, "lat": 38.93237966666667, "is_reserved": 0, "is_disabled": 0, "rental_uris": {"android": "https://dc.lft.to/lastmile_qr_scan", "ios": "https://dc.lft.to/lastmile_qr_scan"}, "name": "940acce895c939e8481bb50002ef038a", "type": "electric_bike"}, {"fusion_lat": 0.0, "bike_id": "2f0f3f10ad061ea87f61ba9d83a63097", "fusion_lon": 0.0, "lon": -77.04376166666667, "lat": 38.892246666666665, "is_reserved": 0, "is_disabled": 0, "rental_uris": {"android": "https://dc.lft.to/lastmile_qr_scan", "ios": "https://dc.lft.to/lastmile_qr_scan"}, "name": "2f0f3f10ad061ea87f61ba9d83a63097", "type": "electric_scooter"}, {"fusion_lat": 0.0, "bike_id": "6f627f5ca3345e0513cead9da53249a8", "fusion_lon": 0.0, "lon": -77.01394833333333, "lat": 38.927880333333334, "is_reserved": 0, "is_disabled": 0, "rental_uris": {"android": "https://dc.lft.to/lastmile_qr_scan", "ios": "https://dc.lft.to/lastmile_qr_scan"}, "name": "6f627f5ca3345e0513cead9da53249a8", "type": "electric_scooter"}, {"fusion_lat": 0.0, "bike_id": "3bb557d23b2d6d6aef0311161e8b47f1", "fusion_lon": 0.0, "lon": -77.0200025, "lat": 38.887441333333335, "is_reserved": 0, "is_disabled": 0, "rental_uris": {"android": "https://dc.lft.to/lastmile_qr_scan", "ios": "https://dc.lft.to/lastmile_qr_scan"}, "name": "3bb557d23b2d6d6aef0311161e8b47f1", "type": "electric_scooter"}, {"fusion_lat": 0.0, "bike_id": "e80e9a7c1c96ecc30b5c5bbb91258b33", "fusion_lon": 0.0, "lon": -77.04672966666666, "lat": 38.895543, "is_reserved": 0, "is_disabled": 0, "rental_uris": {"android": "https://dc.lft.to/lastmile_qr_scan", "ios": "https://dc.lft.to/lastmile_qr_scan"}, "name": "e80e9a7c1c96ecc30b5c5bbb91258b33", "type": "electric_scooter"}, {"fusion_lat": 0.0, "bike_id": "23d83226cc11aaebf3ea189657f9798a", "fusion_lon": 0.0, "lon": -77.02147966666666, "lat": 38.8949365, "is_reserved": 0, "is_disabled": 0, "rental_uris": {"android": "https://dc.lft.to/lastmile_qr_scan", "ios": "https://dc.lft.to/lastmile_qr_scan"}, "name": "23d83226cc11aaebf3ea189657f9798a", "type": "electric_scooter"}, {"fusion_lat": 0.0, "bike_id": "bf32157897daeeecc3e28961facfdaaa", "fusion_lon": 0.0, "lon": -76.987077, "lat": 38.86698533333333, "is_reserved": 0, "is_disabled": 0, "rental_uris": {"android": "https://dc.lft.to/lastmile_qr_scan", "ios": "https://dc.lft.to/lastmile_qr_scan"}, "name": "bf32157897daeeecc3e28961facfdaaa", "type": "electric_scooter"}, {"fusion_lat": 0.0, "bike_id": "96409ddfac07c5ac4dc003247545aaba", "fusion_lon": 0.0, "lon": -77.022242, "lat": 38.935527, "is_reserved": 0, "is_disabled": 0, "rental_uris": {"android": "https://dc.lft.to/lastmile_qr_scan", "ios": "https://dc.lft.to/lastmile_qr_scan"}, "name": "96409ddfac07c5ac4dc003247545aaba", "type": "electric_scooter"}, {"fusion_lat": 0.0, "bike_id": "8ba70d2461485ae5d6f1e82ad18b0571", "fusion_lon": 0.0, "lon": -77.024901, "lat": 38.92742583333333, "is_reserved": 0, "is_disabled": 0, "rental_uris": {"android": "https://dc.lft.to/lastmile_qr_scan", "ios": "https://dc.lft.to/lastmile_qr_scan"}, "name": "8ba70d2461485ae5d6f1e82ad18b0571", "type": "electric_scooter"}, {"fusion_lat": 0.0, "bike_id": "169350f734b6360a462645a53678cf4b", "fusion_lon": 0.0, "lon": -77.045392, "lat": 38.91321633333333, "is_reserved": 0, "is_disabled": 0, "rental_uris": {"android": "https://dc.lft.to/lastmile_qr_scan", "ios": "https://dc.lft.to/lastmile_qr_scan"}, "name": "169350f734b6360a462645a53678cf4b", "type": "electric_scooter"}, {"fusion_lat": 0.0, "bike_id": "bec548f0ee8b5623e65027bcfbc643ca", "fusion_lon": 0.0, "lon": -77.04376783333333, "lat": 38.892249166666666, "is_reserved": 0, "is_disabled": 0, "rental_uris": {"android": "https://dc.lft.to/lastmile_qr_scan", "ios": "https://dc.lft.to/lastmile_qr_scan"}, "name": "bec548f0ee8b5623e65027bcfbc643ca", "type": "electric_scooter"}, {"fusion_lat": 0.0, "bike_id": "5acd78701c204963f932a3b2904198f9", "fusion_lon": 0.0, "lon": -77.05013083333333, "lat": 38.9007655, "is_reserved": 0, "is_disabled": 0, "rental_uris": {"android": "https://dc.lft.to/lastmile_qr_scan", "ios": "https://dc.lft.to/lastmile_qr_scan"}, "name": "5acd78701c204963f932a3b2904198f9", "type": "electric_scooter"}, {"fusion_lat": 0.0, "bike_id": "c49e4e516ae8baccda46cb6ad7f500e3", "fusion_lon": 0.0, "lon": -77.04501266666666, "lat": 38.8922435, "is_reserved": 0, "is_disabled": 0, "rental_uris": {"android": "https://dc.lft.to/lastmile_qr_scan", "ios": "https://dc.lft.to/lastmile_qr_scan"}, "name": "c49e4e516ae8baccda46cb6ad7f500e3", "type": "electric_scooter"}, {"fusion_lat": 0.0, "bike_id": "be68979adfcdcfbacdff493e4af56520", "fusion_lon": 0.0, "lon": -76.98222383333334, "lat": 38.8689615, "is_reserved": 0, "is_disabled": 0, "rental_uris": {"android": "https://dc.lft.to/lastmile_qr_scan", "ios": "https://dc.lft.to/lastmile_qr_scan"}, "name": "be68979adfcdcfbacdff493e4af56520", "type": "electric_scooter"}, {"fusion_lat": 0.0, "bike_id": "ed40c7daa9e772c7bd85e3c9516c7909", "fusion_lon": 0.0, "lon": -77.019834, "lat": 38.960301, "is_reserved": 0, "is_disabled": 0, "rental_uris": {"android": "https://dc.lft.to/lastmile_qr_scan", "ios": "https://dc.lft.to/lastmile_qr_scan"}, "name": "ed40c7daa9e772c7bd85e3c9516c7909", "type": "electric_scooter"}, {"fusion_lat": 0.0, "bike_id": "617aad5bcd546caf90b2d6b266478c37", "fusion_lon": 0.0, "lon": -77.05486383333333, "lat": 38.93540083333333, "is_reserved": 0, "is_disabled": 0, "rental_uris": {"android": "https://dc.lft.to/lastmile_qr_scan", "ios": "https://dc.lft.to/lastmile_qr_scan"}, "name": "617aad5bcd546caf90b2d6b266478c37", "type": "electric_scooter"}, {"fusion_lat": 0.0, "bike_id": "ddb3732dc236fab54b5bf6e2d522bca3", "fusion_lon": 0.0, "lon": -76.93176283333334, "lat": 38.89889983333333, "is_reserved": 0, "is_disabled": 0, "rental_uris": {"android": "https://dc.lft.to/lastmile_qr_scan", "ios": "https://dc.lft.to/lastmile_qr_scan"}, "name": "ddb3732dc236fab54b5bf6e2d522bca3", "type": "electric_scooter"}, {"fusion_lat": 0.0, "bike_id": "938d3b2cf21037aeed5dba6ed137f1a9", "fusion_lon": 0.0, "lon": -77.0214925, "lat": 38.923394, "is_reserved": 0, "is_disabled": 0, "rental_uris": {"android": "https://dc.lft.to/lastmile_qr_scan", "ios": "https://dc.lft.to/lastmile_qr_scan"}, "name": "938d3b2cf21037aeed5dba6ed137f1a9", "type": "electric_scooter"}, {"fusion_lat": 0.0, "bike_id": "f4d9ff3640bc6438ea814671e48e2e78", "fusion_lon": 0.0, "lon": -77.0500185, "lat": 38.89196233333333, "is_reserved": 0, "is_disabled": 0, "rental_uris": {"android": "https://dc.lft.to/lastmile_qr_scan", "ios": "https://dc.lft.to/lastmile_qr_scan"}, "name": "f4d9ff3640bc6438ea814671e48e2e78", "type": "electric_scooter"}, {"fusion_lat": 0.0, "bike_id": "6143d8a80ab91c997244df5a11524684", "fusion_lon": 0.0, "lon": -77.03280633333334, "lat": 38.9342165, "is_reserved": 0, "is_disabled": 0, "rental_uris": {"android": "https://dc.lft.to/lastmile_qr_scan", "ios": "https://dc.lft.to/lastmile_qr_scan"}, "name": "6143d8a80ab91c997244df5a11524684", "type": "electric_scooter"}, {"fusion_lat": 0.0, "bike_id": "32177ff0aac777e9c60540505a10e085", "fusion_lon": 0.0, "lon": -77.027093, "lat": 38.924680333333335, "is_reserved": 0, "is_disabled": 0, "rental_uris": {"android": "https://dc.lft.to/lastmile_qr_scan", "ios": "https://dc.lft.to/lastmile_qr_scan"}, "name": "32177ff0aac777e9c60540505a10e085", "type": "electric_scooter"}, {"fusion_lat": 0.0, "bike_id": "65bc2f85525a29593f133eb00bbabc56", "fusion_lon": 0.0, "lon": -77.05236783333334, "lat": 38.92553733333333, "is_reserved": 0, "is_disabled": 0, "rental_uris": {"android": "https://dc.lft.to/lastmile_qr_scan", "ios": "https://dc.lft.to/lastmile_qr_scan"}, "name": "65bc2f85525a29593f133eb00bbabc56", "type": "electric_scooter"}, {"fusion_lat": 0.0, "bike_id": "338a9d6780a46bdf461631254a21c272", "fusion_lon": 0.0, "lon": -77.01503716666667, "lat": 38.905752, "is_reserved": 0, "is_disabled": 0, "rental_uris": {"android": "https://dc.lft.to/lastmile_qr_scan", "ios": "https://dc.lft.to/lastmile_qr_scan"}, "name": "338a9d6780a46bdf461631254a21c272", "type": "electric_scooter"}, {"fusion_lat": 0.0, "bike_id": "9694e37d087bee80c4b9e4305c50d999", "fusion_lon": 0.0, "lon": -77.036624, "lat": 38.933412833333335, "is_reserved": 0, "is_disabled": 0, "rental_uris": {"android": "https://dc.lft.to/lastmile_qr_scan", "ios": "https://dc.lft.to/lastmile_qr_scan"}, "name": "9694e37d087bee80c4b9e4305c50d999", "type": "electric_scooter"}, {"fusion_lat": 0.0, "bike_id": "5de8222b96466a2a5b3e85016531e43a", "fusion_lon": 0.0, "lon": -77.050037, "lat": 38.89231433333333, "is_reserved": 0, "is_disabled": 0, "rental_uris": {"android": "https://dc.lft.to/lastmile_qr_scan", "ios": "https://dc.lft.to/lastmile_qr_scan"}, "name": "5de8222b96466a2a5b3e85016531e43a", "type": "electric_scooter"}, {"fusion_lat": 0.0, "bike_id": "712e5407389b193635006b5d908d0bd0", "fusion_lon": 0.0, "lon": -77.0208995, "lat": 38.911245666666666, "is_reserved": 0, "is_disabled": 0, "rental_uris": {"android": "https://dc.lft.to/lastmile_qr_scan", "ios": "https://dc.lft.to/lastmile_qr_scan"}, "name": "712e5407389b193635006b5d908d0bd0", "type": "electric_scooter"}, {"fusion_lat": 0.0, "bike_id": "1fb3e80cc55ac9f3b3eace09a2ba0877", "fusion_lon": 0.0, "lon": -76.9810385, "lat": 38.87731133333333, "is_reserved": 0, "is_disabled": 0, "rental_uris": {"android": "https://dc.lft.to/lastmile_qr_scan", "ios": "https://dc.lft.to/lastmile_qr_scan"}, "name": "1fb3e80cc55ac9f3b3eace09a2ba0877", "type": "electric_bike"}, {"fusion_lat": 0.0, "bike_id": "37516efff63b368a397d935fb90cfdb0", "fusion_lon": 0.0, "lon": -77.03114183333334, "lat": 38.897261, "is_reserved": 0, "is_disabled": 0, "rental_uris": {"android": "https://dc.lft.to/lastmile_qr_scan", "ios": "https://dc.lft.to/lastmile_qr_scan"}, "name": "37516efff63b368a397d935fb90cfdb0", "type": "electric_scooter"}, {"fusion_lat": 0.0, "bike_id": "2d2ead340e6d2abe0f27d7a5056f021a", "fusion_lon": 0.0, "lon": -76.99917483333333, "lat": 38.88975333333333, "is_reserved": 0, "is_disabled": 0, "rental_uris": {"android": "https://dc.lft.to/lastmile_qr_scan", "ios": "https://dc.lft.to/lastmile_qr_scan"}, "name": "2d2ead340e6d2abe0f27d7a5056f021a", "type": "electric_scooter"}, {"fusion_lat": 0.0, "bike_id": "ab8b047ed887b8c68e3cf36c67d954f0", "fusion_lon": 0.0, "lon": -77.00904016666667, "lat": 38.909878, "is_reserved": 0, "is_disabled": 0, "rental_uris": {"android": "https://dc.lft.to/lastmile_qr_scan", "ios": "https://dc.lft.to/lastmile_qr_scan"}, "name": "ab8b047ed887b8c68e3cf36c67d954f0", "type": "electric_scooter"}, {"fusion_lat": 0.0, "bike_id": "199a15d85114f0f8e2780830f4c8c11b", "fusion_lon": 0.0, "lon": -77.01533633333334, "lat": 38.88741266666667, "is_reserved": 0, "is_disabled": 0, "rental_uris": {"android": "https://dc.lft.to/lastmile_qr_scan", "ios": "https://dc.lft.to/lastmile_qr_scan"}, "name": "199a15d85114f0f8e2780830f4c8c11b", "type": "electric_scooter"}, {"fusion_lat": 0.0, "bike_id": "3ae261ebd6ff1842394425bbe47be8d1", "fusion_lon": 0.0, "lon": -77.03205316666667, "lat": 38.90727616666667, "is_reserved": 0, "is_disabled": 0, "rental_uris": {"android": "https://dc.lft.to/lastmile_qr_scan", "ios": "https://dc.lft.to/lastmile_qr_scan"}, "name": "3ae261ebd6ff1842394425bbe47be8d1", "type": "electric_scooter"}, {"fusion_lat": 0.0, "bike_id": "34fe279d102b3224743d33c60f20900e", "fusion_lon": 0.0, "lon": -77.03999766666666, "lat": 38.934278166666665, "is_reserved": 0, "is_disabled": 0, "rental_uris": {"android": "https://dc.lft.to/lastmile_qr_scan", "ios": "https://dc.lft.to/lastmile_qr_scan"}, "name": "34fe279d102b3224743d33c60f20900e", "type": "electric_scooter"}, {"fusion_lat": 0.0, "bike_id": "185116defcfac19155aea0b06ae911e8", "fusion_lon": 0.0, "lon": -77.08577633333333, "lat": 38.8443125, "is_reserved": 0, "is_disabled": 0, "rental_uris": {"android": "https://dc.lft.to/lastmile_qr_scan", "ios": "https://dc.lft.to/lastmile_qr_scan"}, "name": "185116defcfac19155aea0b06ae911e8", "type": "electric_bike"}, {"fusion_lat": 0.0, "bike_id": "6e651ebf94a1fa85cacf367e65ebcd7b", "fusion_lon": 0.0, "lon": -77.00457066666667, "lat": 38.91441066666667, "is_reserved": 0, "is_disabled": 0, "rental_uris": {"android": "https://dc.lft.to/lastmile_qr_scan", "ios": "https://dc.lft.to/lastmile_qr_scan"}, "name": "6e651ebf94a1fa85cacf367e65ebcd7b", "type": "electric_scooter"}, {"fusion_lat": 0.0, "bike_id": "bcb82be000d90b52b64ee8f00e806b47", "fusion_lon": 0.0, "lon": -77.032834, "lat": 38.92842983333333, "is_reserved": 0, "is_disabled": 0, "rental_uris": {"android": "https://dc.lft.to/lastmile_qr_scan", "ios": "https://dc.lft.to/lastmile_qr_scan"}, "name": "bcb82be000d90b52b64ee8f00e806b47", "type": "electric_scooter"}, {"fusion_lat": 0.0, "bike_id": "4c5f1aa9f224495aef19e270f324b79c", "fusion_lon": 0.0, "lon": -76.94983883333333, "lat": 38.89369816666667, "is_reserved": 0, "is_disabled": 0, "rental_uris": {"android": "https://dc.lft.to/lastmile_qr_scan", "ios": "https://dc.lft.to/lastmile_qr_scan"}, "name": "4c5f1aa9f224495aef19e270f324b79c", "type": "electric_scooter"}, {"fusion_lat": 0.0, "bike_id": "d9a0ec5896657a795748df018d699331", "fusion_lon": 0.0, "lon": -77.04661283333333, "lat": 38.904969, "is_reserved": 0, "is_disabled": 0, "rental_uris": {"android": "https://dc.lft.to/lastmile_qr_scan", "ios": "https://dc.lft.to/lastmile_qr_scan"}, "name": "d9a0ec5896657a795748df018d699331", "type": "electric_scooter"}, {"fusion_lat": 0.0, "bike_id": "54f260ca71297a976ad959368f9ecc83", "fusion_lon": 0.0, "lon": -77.040272, "lat": 38.898959, "is_reserved": 0, "is_disabled": 0, "rental_uris": {"android": "https://dc.lft.to/lastmile_qr_scan", "ios": "https://dc.lft.to/lastmile_qr_scan"}, "name": "54f260ca71297a976ad959368f9ecc83", "type": "electric_scooter"}, {"fusion_lat": 0.0, "bike_id": "30b4670d12c4354c4d90ec8a3f23d497", "fusion_lon": 0.0, "lon": -77.03333633333334, "lat": 38.92160916666667, "is_reserved": 0, "is_disabled": 0, "rental_uris": {"android": "https://dc.lft.to/lastmile_qr_scan", "ios": "https://dc.lft.to/lastmile_qr_scan"}, "name": "30b4670d12c4354c4d90ec8a3f23d497", "type": "electric_scooter"}, {"fusion_lat": 0.0, "bike_id": "647bb54e1d7eaf48edca114df1822587", "fusion_lon": 0.0, "lon": -77.04343666666666, "lat": 38.905202, "is_reserved": 0, "is_disabled": 0, "rental_uris": {"android": "https://dc.lft.to/lastmile_qr_scan", "ios": "https://dc.lft.to/lastmile_qr_scan"}, "name": "647bb54e1d7eaf48edca114df1822587", "type": "electric_scooter"}, {"fusion_lat": 0.0, "bike_id": "4b7a353f56e2fffdf08bd0a182b89880", "fusion_lon": 0.0, "lon": -76.981971, "lat": 38.899474833333336, "is_reserved": 0, "is_disabled": 0, "rental_uris": {"android": "https://dc.lft.to/lastmile_qr_scan", "ios": "https://dc.lft.to/lastmile_qr_scan"}, "name": "4b7a353f56e2fffdf08bd0a182b89880", "type": "electric_scooter"}, {"fusion_lat": 0.0, "bike_id": "f29fd161c9c11e51aa95d24f61654efd", "fusion_lon": 0.0, "lon": -77.02828366666667, "lat": 38.93145083333334, "is_reserved": 0, "is_disabled": 0, "rental_uris": {"android": "https://dc.lft.to/lastmile_qr_scan", "ios": "https://dc.lft.to/lastmile_qr_scan"}, "name": "f29fd161c9c11e51aa95d24f61654efd", "type": "electric_scooter"}, {"fusion_lat": 0.0, "bike_id": "9e2ce6fda274ac91086154905a44f036", "fusion_lon": 0.0, "lon": -77.01961883333334, "lat": 38.921663, "is_reserved": 0, "is_disabled": 0, "rental_uris": {"android": "https://dc.lft.to/lastmile_qr_scan", "ios": "https://dc.lft.to/lastmile_qr_scan"}, "name": "9e2ce6fda274ac91086154905a44f036", "type": "electric_scooter"}, {"fusion_lat": 0.0, "bike_id": "dd6b2a8c054dedec49e7003842d48e57", "fusion_lon": 0.0, "lon": -77.227973, "lat": 38.91017083333333, "is_reserved": 0, "is_disabled": 0, "rental_uris": {"android": "https://dc.lft.to/lastmile_qr_scan", "ios": "https://dc.lft.to/lastmile_qr_scan"}, "name": "dd6b2a8c054dedec49e7003842d48e57", "type": "electric_bike"}, {"fusion_lat": 0.0, "bike_id": "6cb229dfdf91a67a68ff0888bbf6fd4d", "fusion_lon": 0.0, "lon": -77.02783733333334, "lat": 38.931917, "is_reserved": 0, "is_disabled": 0, "rental_uris": {"android": "https://dc.lft.to/lastmile_qr_scan", "ios": "https://dc.lft.to/lastmile_qr_scan"}, "name": "6cb229dfdf91a67a68ff0888bbf6fd4d", "type": "electric_scooter"}, {"fusion_lat": 0.0, "bike_id": "a5fe7473db9eae283c0581f44201abf1", "fusion_lon": 0.0, "lon": -77.031995, "lat": 38.90995366666667, "is_reserved": 0, "is_disabled": 0, "rental_uris": {"android": "https://dc.lft.to/lastmile_qr_scan", "ios": "https://dc.lft.to/lastmile_qr_scan"}, "name": "a5fe7473db9eae283c0581f44201abf1", "type": "electric_scooter"}, {"fusion_lat": 0.0, "bike_id": "ca31516731e1ab0db2ea0f46e7068162", "fusion_lon": 0.0, "lon": -76.95964566666666, "lat": 38.948066833333336, "is_reserved": 0, "is_disabled": 0, "rental_uris": {"android": "https://dc.lft.to/lastmile_qr_scan", "ios": "https://dc.lft.to/lastmile_qr_scan"}, "name": "ca31516731e1ab0db2ea0f46e7068162", "type": "electric_bike"}, {"fusion_lat": 0.0, "bike_id": "11259875f1c4292026bbf653ff39526f", "fusion_lon": 0.0, "lon": -77.02694533333333, "lat": 38.9066195, "is_reserved": 0, "is_disabled": 0, "rental_uris": {"android": "https://dc.lft.to/lastmile_qr_scan", "ios": "https://dc.lft.to/lastmile_qr_scan"}, "name": "11259875f1c4292026bbf653ff39526f", "type": "electric_scooter"}, {"fusion_lat": 0.0, "bike_id": "ec0aac5c80b43b879786e136ba16c2b9", "fusion_lon": 0.0, "lon": -77.00741616666667, "lat": 38.92529533333333, "is_reserved": 0, "is_disabled": 0, "rental_uris": {"android": "https://dc.lft.to/lastmile_qr_scan", "ios": "https://dc.lft.to/lastmile_qr_scan"}, "name": "ec0aac5c80b43b879786e136ba16c2b9", "type": "electric_scooter"}, {"fusion_lat": 0.0, "bike_id": "99df1e2f447ffc5a625fcecbb26c99c0", "fusion_lon": 0.0, "lon": -77.04185666666666, "lat": 38.920612166666665, "is_reserved": 0, "is_disabled": 0, "rental_uris": {"android": "https://dc.lft.to/lastmile_qr_scan", "ios": "https://dc.lft.to/lastmile_qr_scan"}, "name": "99df1e2f447ffc5a625fcecbb26c99c0", "type": "electric_scooter"}, {"fusion_lat": 0.0, "bike_id": "129e5f2cce0b694cc126e4df8829591d", "fusion_lon": 0.0, "lon": -77.04144666666667, "lat": 38.9229365, "is_reserved": 0, "is_disabled": 0, "rental_uris": {"android": "https://dc.lft.to/lastmile_qr_scan", "ios": "https://dc.lft.to/lastmile_qr_scan"}, "name": "129e5f2cce0b694cc126e4df8829591d", "type": "electric_scooter"}, {"fusion_lat": 0.0, "bike_id": "fa2a4ea20af772ef1ad0d8ea466a4df5", "fusion_lon": 0.0, "lon": -77.0279725, "lat": 38.91217183333333, "is_reserved": 0, "is_disabled": 0, "rental_uris": {"android": "https://dc.lft.to/lastmile_qr_scan", "ios": "https://dc.lft.to/lastmile_qr_scan"}, "name": "fa2a4ea20af772ef1ad0d8ea466a4df5", "type": "electric_scooter"}, {"fusion_lat": 0.0, "bike_id": "1627708b9e69c39c3824347a449de9bf", "fusion_lon": 0.0, "lon": -77.02719916666666, "lat": 38.89729583333333, "is_reserved": 0, "is_disabled": 0, "rental_uris": {"android": "https://dc.lft.to/lastmile_qr_scan", "ios": "https://dc.lft.to/lastmile_qr_scan"}, "name": "1627708b9e69c39c3824347a449de9bf", "type": "electric_scooter"}, {"fusion_lat": 0.0, "bike_id": "8e612205e292477bf3e83e34ffb54c37", "fusion_lon": 0.0, "lon": -77.03179116666666, "lat": 38.8873545, "is_reserved": 0, "is_disabled": 0, "rental_uris": {"android": "https://dc.lft.to/lastmile_qr_scan", "ios": "https://dc.lft.to/lastmile_qr_scan"}, "name": "8e612205e292477bf3e83e34ffb54c37", "type": "electric_scooter"}, {"fusion_lat": 0.0, "bike_id": "3862a276fe0be5bc140b6425dc94e101", "fusion_lon": 0.0, "lon": -76.990337, "lat": 38.90290366666667, "is_reserved": 0, "is_disabled": 0, "rental_uris": {"android": "https://dc.lft.to/lastmile_qr_scan", "ios": "https://dc.lft.to/lastmile_qr_scan"}, "name": "3862a276fe0be5bc140b6425dc94e101", "type": "electric_scooter"}, {"fusion_lat": 0.0, "bike_id": "460a12895e30df9c850774da46bc3304", "fusion_lon": 0.0, "lon": -77.029706, "lat": 38.92315683333333, "is_reserved": 0, "is_disabled": 0, "rental_uris": {"android": "https://dc.lft.to/lastmile_qr_scan", "ios": "https://dc.lft.to/lastmile_qr_scan"}, "name": "460a12895e30df9c850774da46bc3304", "type": "electric_scooter"}, {"fusion_lat": 0.0, "bike_id": "2b329a5234b4162177a4317f6f60972f", "fusion_lon": 0.0, "lon": -77.03861866666666, "lat": 38.9324335, "is_reserved": 0, "is_disabled": 0, "rental_uris": {"android": "https://dc.lft.to/lastmile_qr_scan", "ios": "https://dc.lft.to/lastmile_qr_scan"}, "name": "2b329a5234b4162177a4317f6f60972f", "type": "electric_scooter"}, {"fusion_lat": 0.0, "bike_id": "1498c7b4f4a614bf0dabe41070f70b51", "fusion_lon": 0.0, "lon": -77.02794916666667, "lat": 38.954128833333336, "is_reserved": 0, "is_disabled": 0, "rental_uris": {"android": "https://dc.lft.to/lastmile_qr_scan", "ios": "https://dc.lft.to/lastmile_qr_scan"}, "name": "1498c7b4f4a614bf0dabe41070f70b51", "type": "electric_scooter"}, {"fusion_lat": 0.0, "bike_id": "d607abfa40747925c5388ddb0678192e", "fusion_lon": 0.0, "lon": -77.034187, "lat": 38.919234, "is_reserved": 0, "is_disabled": 0, "rental_uris": {"android": "https://dc.lft.to/lastmile_qr_scan", "ios": "https://dc.lft.to/lastmile_qr_scan"}, "name": "d607abfa40747925c5388ddb0678192e", "type": "electric_scooter"}, {"fusion_lat": 0.0, "bike_id": "cfee3f6ce21418da1c0df8a88e507fe2", "fusion_lon": 0.0, "lon": -77.0223545, "lat": 38.8922135, "is_reserved": 0, "is_disabled": 0, "rental_uris": {"android": "https://dc.lft.to/lastmile_qr_scan", "ios": "https://dc.lft.to/lastmile_qr_scan"}, "name": "cfee3f6ce21418da1c0df8a88e507fe2", "type": "electric_scooter"},