{"data": {"bikes": [{"is_reserved": 0, "fusion_lon": 0.0, "fusion_lat": 0.0, "name": "d8e05f06a0e819aebb93b06aef194651", "type": "electric_scooter", "is_disabled": 0, "lat": 38.90721383333333, "rental_uris": {"android": "https://dc.lft.to/lastmile_qr_scan", "ios": "https://dc.lft.to/lastmile_qr_scan"}, "bike_id": "d8e05f06a0e819aebb93b06aef194651", "lon": -77.043372}, {"is_reserved": 0, "fusion_lon": 0.0, "fusion_lat": 0.0, "name": "0b651c9604efb42c5a4facaa63896061", "type": "electric_scooter", "is_disabled": 0, "lat": 38.918145833333334, "rental_uris": {"android": "https://dc.lft.to/lastmile_qr_scan", "ios": "https://dc.lft.to/lastmile_qr_scan"}, "bike_id": "0b651c9604efb42c5a4facaa63896061", "lon": -77.02983166666667}, {"is_reserved": 0, "fusion_lon": 0.0, "fusion_lat": 0.0, "name": "d13eef3847d3526628f7143579883b04", "type": "electric_scooter", "is_disabled": 0, "lat": 38.90961166666666, "rental_uris": {"android": "https://dc.lft.to/lastmile_qr_scan", "ios": "https://dc.lft.to/lastmile_qr_scan"}, "bike_id": "d13eef3847d3526628f7143579883b04", "lon": -77.03865533333334}, {"is_reserved": 0, "fusion_lon": 0.0, "fusion_lat": 0.0, "name": "bfc13c9208ab8cd035a314179168025a", "type": "electric_scooter", "is_disabled": 0, "lat": 38.9083195, "rental_uris": {"android": "https://dc.lft.to/lastmile_qr_scan", "ios": "https://dc.lft.to/lastmile_qr_scan"}, "bike_id": "bfc13c9208ab8cd035a314179168025a", "lon": -77.03317883333334}, {"is_reserved": 0, "fusion_lon": 0.0, "fusion_lat": 0.0, "name": "584bca1f58db48cdb1e31e7fb722457e", "type": "electric_scooter", "is_disabled": 0, "lat": 38.880849166666664, "rental_uris": {"android": "https://dc.lft.to/lastmile_qr_scan", "ios": "https://dc.lft.to/lastmile_qr_scan"}, "bike_id": "584bca1f58db48cdb1e31e7fb722457e", "lon": -76.98504433333333}, {"is_reserved": 0, "fusion_lon": 0.0, "fusion_lat": 0.0, "name": "6cfae9d8ca493234cacc39a153273311", "type": "electric_scooter", "is_disabled": 0, "lat": 38.92644416666667, "rental_uris": {"android": "https://dc.lft.to/lastmile_qr_scan", "ios": "https://dc.lft.to/lastmile_qr_scan"}, "bike_id": "6cfae9d8ca493234cacc39a153273311", "lon": -77.04142483333334}, {"is_reserved": 0, "fusion_lon": 0.0, "fusion_lat": 0.0, "name": "4f3fe50558cd7503331af53eb7ad6e31", "type": "electric_scooter", "is_disabled": 0, "lat": 38.9149535, "rental_uris": {"android": "https://dc.lft.to/lastmile_qr_scan", "ios": "https://dc.lft.to/lastmile_qr_scan"}, "bike_id": "4f3fe50558cd7503331af53eb7ad6e31", "lon": -77.01995183333334}, {"is_reserved": 0, "fusion_lon": 0.0, "fusion_lat": 0.0, "name": "05f2139847801db5b44cf4afe99723ba", "type": "electric_scooter", "is_disabled": 0, "lat": 38.939637, "rental_uris": {"android": "https://dc.lft.to/lastmile_qr_scan", "ios": "https://dc.lft.to/lastmile_qr_scan"}, "bike_id": "05f2139847801db5b44cf4afe99723ba", "lon": -77.02494433333334}, {"is_reserved": 0, "fusion_lon": 0.0, "fusion_lat": 0.0, "name": "b8891219151ad10e1c6eb91532a8939e", "type": "electric_scooter", "is_disabled": 0, "lat": 38.90581866666667, "rental_uris": {"android": "https://dc.lft.to/lastmile_qr_scan", "ios": "https://dc.lft.to/lastmile_qr_scan"}, "bike_id": "b8891219151ad10e1c6eb91532a8939e", "lon": -77.003019}, {"is_reserved": 0, "fusion_lon": 0.0, "fusion_lat": 0.0, "name": "36b28340c1549fc06619ea5f0439a7d3", "type": "electric_scooter", "is_disabled": 0, "lat": 38.90268283333333, "rental_uris": {"android": "https://dc.lft.to/lastmile_qr_scan", "ios": "https://dc.lft.to/lastmile_qr_scan"}, "bike_id": "36b28340c1549fc06619ea5f0439a7d3", "lon": -77.03641916666666}, {"is_reserved": 0, "fusion_lon": 0.0, "fusion_lat": 0.0, "name": "d3d06aefd3d6980682d3914b0f468602", "type": "electric_scooter", "is_disabled": 0, "lat": 38.86477166666667, "rental_uris": {"android": "https://dc.lft.to/lastmile_qr_scan", "ios": "https://dc.lft.to/lastmile_qr_scan"}, "bike_id": "d3d06aefd3d6980682d3914b0f468602", "lon": -76.982329}, {"is_reserved": 0, "fusion_lon": 0.0, "fusion_lat": 0.0, "name": "68772c7079b5ba3a66b9b3c339c63f4f", "type": "electric_scooter", "is_disabled": 0, "lat": 38.923210166666664, "rental_uris": {"android": "https://dc.lft.to/lastmile_qr_scan", "ios": "https://dc.lft.to/lastmile_qr_scan"}, "bike_id": "68772c7079b5ba3a66b9b3c339c63f4f", "lon": -77.0354085}, {"is_reserved": 0, "fusion_lon": 0.0, "fusion_lat": 0.0, "name": "d854f5646a6f0f3665bc917b89aa41ef", "type": "electric_scooter", "is_disabled": 0, "lat": 38.996095333333336, "rental_uris": {"android": "https://dc.lft.to/lastmile_qr_scan", "ios": "https://dc.lft.to/lastmile_qr_scan"}, "bike_id": "d854f5646a6f0f3665bc917b89aa41ef", "lon": -77.03213416666667}, {"is_reserved": 0, "fusion_lon": 0.0, "fusion_lat": 0.0, "name": "326e7278c3c91325a9bcd9778d8bfba1", "type": "electric_scooter", "is_disabled": 0, "lat": 38.906687, "rental_uris": {"android": "https://dc.lft.to/lastmile_qr_scan", "ios": "https://dc.lft.to/lastmile_qr_scan"}, "bike_id": "326e7278c3c91325a9bcd9778d8bfba1", "lon": -77.0270735}, {"is_reserved": 0, "fusion_lon": 0.0, "fusion_lat": 0.0, "name": "303e746904ba34bbb33639a175da312d", "type": "electric_scooter", "is_disabled": 0, "lat": 38.9073785, "rental_uris": {"android": "https://dc.lft.to/lastmile_qr_scan", "ios": "https://dc.lft.to/lastmile_qr_scan"}, "bike_id": "303e746904ba34bbb33639a175da312d", "lon": -77.04141183333333}, {"is_reserved": 0, "fusion_lon": 0.0, "fusion_lat": 0.0, "name": "9a312e5792fc8816555504a59de10fe4", "type": "electric_scooter", "is_disabled": 0, "lat": 38.900257, "rental_uris": {"android": "https://dc.lft.to/lastmile_qr_scan", "ios": "https://dc.lft.to/lastmile_qr_scan"}, "bike_id": "9a312e5792fc8816555504a59de10fe4", "lon": -76.98858766666666}, {"is_reserved": 0, "fusion_lon": 0.0, "fusion_lat": 0.0, "name": "b3e535ad2b7ca67660f25b2639b34ced", "type": "electric_bike", "is_disabled": 0, "lat": 38.88116133333333, "rental_uris": {"android": "https://dc.lft.to/lastmile_qr_scan", "ios": "https://dc.lft.to/lastmile_qr_scan"}, "bike_id": "b3e535ad2b7ca67660f25b2639b34ced", "lon": -77.01658533333334}, {"is_reserved": 0, "fusion_lon": 0.0, "fusion_lat": 0.0, "name": "9629e1805a8f60c236fd58bd5bcf914d", "type": "electric_scooter", "is_disabled": 0, "lat": 38.9362285, "rental_uris": {"android": "https://dc.lft.to/lastmile_qr_scan", "ios": "https://dc.lft.to/lastmile_qr_scan"}, "bike_id": "9629e1805a8f60c236fd58bd5bcf914d", "lon": -77.0589965}, {"is_reserved": 0, "fusion_lon": 0.0, "fusion_lat": 0.0, "name": "332f9f7164c25a4aaa19216df7d78028", "type": "electric_scooter", "is_disabled": 0, "lat": 38.922493, "rental_uris": {"android": "https://dc.lft.to/lastmile_qr_scan", "ios": "https://dc.lft.to/lastmile_qr_scan"}, "bike_id": "332f9f7164c25a4aaa19216df7d78028", "lon": -77.0295885}, {"is_reserved": 0, "fusion_lon": 0.0, "fusion_lat": 0.0, "name": "3b3eecb02a54e68f37aa79b918c7f8e8", "type": "electric_scooter", "is_disabled": 0, "lat": 38.921610666666666, "rental_uris": {"android": "https://dc.lft.to/lastmile_qr_scan", "ios": "https://dc.lft.to/lastmile_qr_scan"}, "bike_id": "3b3eecb02a54e68f37aa79b918c7f8e8", "lon": -77.03264316666667}, {"is_reserved": 0, "fusion_lon": 0.0, "fusion_lat": 0.0, "name": "d23bbb1c2c1da0d353de25401aef14a2", "type": "electric_scooter", "is_disabled": 0, "lat": 38.909863, "rental_uris": {"android": "https://dc.lft.to/lastmile_qr_scan", "ios": "https://dc.lft.to/lastmile_qr_scan"}, "bike_id": "d23bbb1c2c1da0d353de25401aef14a2", "lon": -77.04873666666667}, {"is_reserved": 0, "fusion_lon": 0.0, "fusion_lat": 0.0, "name": "6df8db5b9397607c67e1ca583424203a", "type": "electric_scooter", "is_disabled": 0, "lat": 38.904281, "rental_uris": {"android": "https://dc.lft.to/lastmile_qr_scan", "ios": "https://dc.lft.to/lastmile_qr_scan"}, "bike_id": "6df8db5b9397607c67e1ca583424203a", "lon": -77.02587683333333}, {"is_reserved": 0, "fusion_lon": 0.0, "fusion_lat": 0.0, "name": "9cbbdd32bafa43da4d3da171de9d8600", "type": "electric_scooter", "is_disabled": 0, "lat": 38.89641616666667, "rental_uris": {"android": "https://dc.lft.to/lastmile_qr_scan", "ios": "https://dc.lft.to/lastmile_qr_scan"}, "bike_id": "9cbbdd32bafa43da4d3da171de9d8600", "lon": -77.03217066666667}, {"is_reserved": 0, "fusion_lon": 0.0, "fusion_lat": 0.0, "name": "47b58185c52ed4561447bad32b46046e", "type": "electric_scooter", "is_disabled": 0, "lat": 38.91785083333333, "rental_uris": {"android": "https://dc.lft.to/lastmile_qr_scan", "ios": "https://dc.lft.to/lastmile_qr_scan"}, "bike_id": "47b58185c52ed4561447bad32b46046e", "lon": -77.02593083333333}, {"is_reserved": 0, "fusion_lon": 0.0, "fusion_lat": 0.0, "name": "2eb980b530d59aedde952fa001d80c2a", "type": "electric_scooter", "is_disabled": 0, "lat": 38.899302666666664, "rental_uris": {"android": "https://dc.lft.to/lastmile_qr_scan", "ios": "https://dc.lft.to/lastmile_qr_scan"}, "bike_id": "2eb980b530d59aedde952fa001d80c2a", "lon": -77.003545}, {"is_reserved": 0, "fusion_lon": 0.0, "fusion_lat": 0.0, "name": "8190947600c10357fa0e293fc2a1d190", "type": "electric_scooter", "is_disabled": 0, "lat": 38.90252816666667, "rental_uris": {"android": "https://dc.lft.to/lastmile_qr_scan", "ios": "https://dc.lft.to/lastmile_qr_scan"}, "bike_id": "8190947600c10357fa0e293fc2a1d190", "lon": -77.031524}, {"is_reserved": 0, "fusion_lon": 0.0, "fusion_lat": 0.0, "name": "015f6d60fef976e44ba6586f90d58c24", "type": "electric_scooter", "is_disabled": 0, "lat": 38.90809766666667, "rental_uris": {"android": "https://dc.lft.to/lastmile_qr_scan", "ios": "https://dc.lft.to/lastmile_qr_scan"}, "bike_id": "015f6d60fef976e44ba6586f90d58c24", "lon": -77.034446}, {"is_reserved": 0, "fusion_lon": 0.0, "fusion_lat": 0.0, "name": "3cb25b3818355f7203bf64f9a969c66c", "type": "electric_scooter", "is_disabled": 0, "lat": 38.8901475, "rental_uris": {"android": "https://dc.lft.to/lastmile_qr_scan", "ios": "https://dc.lft.to/lastmile_qr_scan"}, "bike_id": "3cb25b3818355f7203bf64f9a969c66c", "lon": -76.93736066666666}, {"is_reserved": 0, "fusion_lon": 0.0, "fusion_lat": 0.0, "name": "409d9ab82eb313426c2e18d891d3c249", "type": "electric_scooter", "is_disabled": 0, "lat": 38.9345205, "rental_uris": {"android": "https://dc.lft.to/lastmile_qr_scan", "ios": "https://dc.lft.to/lastmile_qr_scan"}, "bike_id": "409d9ab82eb313426c2e18d891d3c249", "lon": -77.037522}, {"is_reserved": 0, "fusion_lon": 0.0, "fusion_lat": 0.0, "name": "1cb1ae4ca189e8fed9dd77395a879698", "type": "electric_scooter", "is_disabled": 0, "lat": 38.90975016666667, "rental_uris": {"android": "https://dc.lft.to/lastmile_qr_scan", "ios": "https://dc.lft.to/lastmile_qr_scan"}, "bike_id": "1cb1ae4ca189e8fed9dd77395a879698", "lon": -77.03210833333333}, {"is_reserved": 0, "fusion_lon": 0.0, "fusion_lat": 0.0, "name": "d4c92ba3fa4e6e4742c4d866e00a54cb", "type": "electric_scooter", "is_disabled": 0, "lat": 38.9140195, "rental_uris": {"android": "https://dc.lft.to/lastmile_qr_scan", "ios": "https://dc.lft.to/lastmile_qr_scan"}, "bike_id": "d4c92ba3fa4e6e4742c4d866e00a54cb", "lon": -77.04186266666666}, {"is_reserved": 0, "fusion_lon": 0.0, "fusion_lat": 0.0, "name": "065527c2215bad6cd426aaba0b068ec8", "type": "electric_scooter", "is_disabled": 0, "lat": 38.892197833333334, "rental_uris": {"android": "https://dc.lft.to/lastmile_qr_scan", "ios": "https://dc.lft.to/lastmile_qr_scan"}, "bike_id": "065527c2215bad6cd426aaba0b068ec8", "lon": -77.04262516666667}, {"is_reserved": 0, "fusion_lon": 0.0, "fusion_lat": 0.0, "name": "777ba098c2946695d884a87171865822", "type": "electric_scooter", "is_disabled": 0, "lat": 38.87800716666667, "rental_uris": {"android": "https://dc.lft.to/lastmile_qr_scan", "ios": "https://dc.lft.to/lastmile_qr_scan"}, "bike_id": "777ba098c2946695d884a87171865822", "lon": -76.93099416666666}, {"is_reserved": 0, "fusion_lon": 0.0, "fusion_lat": 0.0, "name": "344ad523acfd0370411facd2211fe413", "type": "electric_scooter", "is_disabled": 0, "lat": 38.923208333333335, "rental_uris": {"android": "https://dc.lft.to/lastmile_qr_scan", "ios": "https://dc.lft.to/lastmile_qr_scan"}, "bike_id": "344ad523acfd0370411facd2211fe413", "lon": -77.0431375}, {"is_reserved": 0, "fusion_lon": 0.0, "fusion_lat": 0.0, "name": "e377acbd5fcbc6872ee6a88bca7de3ff", "type": "electric_scooter", "is_disabled": 0, "lat": 38.885877666666666, "rental_uris": {"android": "https://dc.lft.to/lastmile_qr_scan", "ios": "https://dc.lft.to/lastmile_qr_scan"}, "bike_id": "e377acbd5fcbc6872ee6a88bca7de3ff", "lon": -76.9962335}, {"is_reserved": 0, "fusion_lon": 0.0, "fusion_lat": 0.0, "name": "7b14d2d2a183d43d9c51af338ab8b7ac", "type": "electric_scooter", "is_disabled": 0, "lat": 38.9154195, "rental_uris": {"android": "https://dc.lft.to/lastmile_qr_scan", "ios": "https://dc.lft.to/lastmile_qr_scan"}, "bike_id": "7b14d2d2a183d43d9c51af338ab8b7ac", "lon": -77.01265466666666}, {"is_reserved": 0, "fusion_lon": 0.0, "fusion_lat": 0.0, "name": "ef0148d2ff8d179b070a7170bd497384", "type": "electric_scooter", "is_disabled": 0, "lat": 38.8649985, "rental_uris": {"android": "https://dc.lft.to/lastmile_qr_scan", "ios": "https://dc.lft.to/lastmile_qr_scan"}, "bike_id": "ef0148d2ff8d179b070a7170bd497384", "lon": -76.9899995}, {"is_reserved": 0, "fusion_lon": 0.0, "fusion_lat": 0.0, "name": "1ade5a1a8be68fd9a302b378ac2958e7", "type": "electric_scooter", "is_disabled": 0, "lat": 38.939591166666666, "rental_uris": {"android": "https://dc.lft.to/lastmile_qr_scan", "ios": "https://dc.lft.to/lastmile_qr_scan"}, "bike_id": "1ade5a1a8be68fd9a302b378ac2958e7", "lon": -77.02751033333334}, {"is_reserved": 0, "fusion_lon": 0.0, "fusion_lat": 0.0, "name": "7eba98858042d6c50ee8b28aaadc0d9f", "type": "electric_scooter", "is_disabled": 0, "lat": 38.91694916666667, "rental_uris": {"android": "https://dc.lft.to/lastmile_qr_scan", "ios": "https://dc.lft.to/lastmile_qr_scan"}, "bike_id": "7eba98858042d6c50ee8b28aaadc0d9f", "lon": -77.02597866666666}, {"is_reserved": 0, "fusion_lon": 0.0, "fusion_lat": 0.0, "name": "2ed4a20348cc4533fbb20a4e89982ea4", "type": "electric_scooter", "is_disabled": 0, "lat": 38.90739583333333, "rental_uris": {"android": "https://dc.lft.to/lastmile_qr_scan", "ios": "https://dc.lft.to/lastmile_qr_scan"}, "bike_id": "2ed4a20348cc4533fbb20a4e89982ea4", "lon": -77.02694366666667}, {"is_reserved": 0, "fusion_lon": 0.0, "fusion_lat": 0.0, "name": "ee7b8106aa251649eda536f6d5347375", "type": "electric_scooter", "is_disabled": 0, "lat": 38.91032966666667, "rental_uris": {"android": "https://dc.lft.to/lastmile_qr_scan", "ios": "https://dc.lft.to/lastmile_qr_scan"}, "bike_id": "ee7b8106aa251649eda536f6d5347375", "lon": -76.9933725}, {"is_reserved": 0, "fusion_lon": 0.0, "fusion_lat": 0.0, "name": "0f65b6e62ef105860e956e4408ad1709", "type": "electric_scooter", "is_disabled": 0, "lat": 38.9353685, "rental_uris": {"android": "https://dc.lft.to/lastmile_qr_scan", "ios": "https://dc.lft.to/lastmile_qr_scan"}, "bike_id": "0f65b6e62ef105860e956e4408ad1709", "lon": -77.05744516666667}, {"is_reserved": 0, "fusion_lon": 0.0, "fusion_lat": 0.0, "name": "1fd13d86f30a6cdea649c7e36900ef74", "type": "electric_scooter", "is_disabled": 0, "lat": 38.89100283333333, "rental_uris": {"android": "https://dc.lft.to/lastmile_qr_scan", "ios": "https://dc.lft.to/lastmile_qr_scan"}, "bike_id": "1fd13d86f30a6cdea649c7e36900ef74", "lon": -77.00281716666667}, {"is_reserved": 0, "fusion_lon": 0.0, "fusion_lat": 0.0, "name": "06d3911f03381760ed905b0869a4e423", "type": "electric_scooter", "is_disabled": 0, "lat": 38.92262433333333, "rental_uris": {"android": "https://dc.lft.to/lastmile_qr_scan", "ios": "https://dc.lft.to/lastmile_qr_scan"}, "bike_id": "06d3911f03381760ed905b0869a4e423", "lon": -77.02964033333333}, {"is_reserved": 0, "fusion_lon": 0.0, "fusion_lat": 0.0, "name": "c2b3e6bced5129478a71b22f84074271", "type": "electric_scooter", "is_disabled": 0, "lat": 38.9233625, "rental_uris": {"android": "https://dc.lft.to/lastmile_qr_scan", "ios": "https://dc.lft.to/lastmile_qr_scan"}, "bike_id": "c2b3e6bced5129478a71b22f84074271", "lon": -77.04790316666667}, {"is_reserved": 0, "fusion_lon": 0.0, "fusion_lat": 0.0, "name": "b2514829aaa855a9a63af5d29f9e618b", "type": "electric_scooter", "is_disabled": 0, "lat": 38.958377, "rental_uris": {"android": "https://dc.lft.to/lastmile_qr_scan", "ios": "https://dc.lft.to/lastmile_qr_scan"}, "bike_id": "b2514829aaa855a9a63af5d29f9e618b", "lon": -77.01509466666667}, {"is_reserved": 0, "fusion_lon": 0.0, "fusion_lat": 0.0, "name": "9544bc051fb88d985c61b0c5e620ac2a", "type": "electric_scooter", "is_disabled": 0, "lat": 38.92519766666667, "rental_uris": {"android": "https://dc.lft.to/lastmile_qr_scan", "ios": "https://dc.lft.to/lastmile_qr_scan"}, "bike_id": "9544bc051fb88d985c61b0c5e620ac2a", "lon": -77.03839516666666}, {"is_reserved": 0, "fusion_lon": 0.0, "fusion_lat": 0.0, "name": "b9243a5fface90daaf0afb0807f640d3", "type": "electric_scooter", "is_disabled": 0, "lat": 38.876464666666664, "rental_uris": {"android": "https://dc.lft.to/lastmile_qr_scan", "ios": "https://dc.lft.to/lastmile_qr_scan"}, "bike_id": "b9243a5fface90daaf0afb0807f640d3", "lon": -76.96507233333334}, {"is_reserved": 0, "fusion_lon": 0.0, "fusion_lat": 0.0, "name": "285e3645add7531a26b2c3ec7f48e871", "type": "electric_scooter", "is_disabled": 0, "lat": 38.919932833333334, "rental_uris": {"android": "https://dc.lft.to/lastmile_qr_scan", "ios": "https://dc.lft.to/lastmile_qr_scan"}, "bike_id": "285e3645add7531a26b2c3ec7f48e871", "lon": -77.028736}, {"is_reserved": 0, "fusion_lon": 0.0, "fusion_lat": 0.0, "name": "8fcff6ba23e1f5a6f91ddf3bce7ed7e0", "type": "electric_scooter", "is_disabled": 0, "lat": 38.91437233333333, "rental_uris": {"android": "https://dc.lft.to/lastmile_qr_scan", "ios": "https://dc.lft.to/lastmile_qr_scan"}, "bike_id": "8fcff6ba23e1f5a6f91ddf3bce7ed7e0", "lon": -77.02041483333333}, {"is_reserved": 0, "fusion_lon": 0.0, "fusion_lat": 0.0, "name": "cc17c268446dc5005c8aefe8de299043", "type": "electric_bike", "is_disabled": 0, "lat": 38.955053666666664, "rental_uris": {"android": "https://dc.lft.to/lastmile_qr_scan", "ios": "https://dc.lft.to/lastmile_qr_scan"}, "bike_id": "cc17c268446dc5005c8aefe8de299043", "lon": -76.993606}, {"is_reserved": 0, "fusion_lon": 0.0, "fusion_lat": 0.0, "name": "42ee69062d5fda7853fa83915258c6ac", "type": "electric_scooter", "is_disabled": 0, "lat": 38.913642333333335, "rental_uris": {"android": "https://dc.lft.to/lastmile_qr_scan", "ios": "https://dc.lft.to/lastmile_qr_scan"}, "bike_id": "42ee69062d5fda7853fa83915258c6ac", "lon": -77.020519}, {"is_reserved": 0, "fusion_lon": 0.0, "fusion_lat": 0.0, "name": "e018fa2f349575429b55183ebdb58df9", "type": "electric_scooter", "is_disabled": 0, "lat": 38.8697415, "rental_uris": {"android": "https://dc.lft.to/lastmile_qr_scan", "ios": "https://dc.lft.to/lastmile_qr_scan"}, "bike_id": "e018fa2f349575429b55183ebdb58df9", "lon": -77.01227216666666}, {"is_reserved": 0, "fusion_lon": 0.0, "fusion_lat": 0.0, "name": "176ccd2a32e5dfe25a33f1072b1d4639", "type": "electric_bike", "is_disabled": 0, "lat": 38.9323345, "rental_uris": {"android": "https://dc.lft.to/lastmile_qr_scan", "ios": "https://dc.lft.to/lastmile_qr_scan"}, "bike_id": "176ccd2a32e5dfe25a33f1072b1d4639", "lon": -76.97413416666667}, {"is_reserved": 0, "fusion_lon": 0.0, "fusion_lat": 0.0, "name": "3d980f77d32d7377a87a26a966b60b96", "type": "electric_bike", "is_disabled": 0, "lat": 39.04235166666667, "rental_uris": {"android": "https://dc.lft.to/lastmile_qr_scan", "ios": "https://dc.lft.to/lastmile_qr_scan"}, "bike_id": "3d980f77d32d7377a87a26a966b60b96", "lon": -77.03077616666667}, {"is_reserved": 0, "fusion_lon": 0.0, "fusion_lat": 0.0, "name": "7bb5e65bb7a7223d651b12213fb563fa", "type": "electric_scooter", "is_disabled": 0, "lat": 38.93095366666667, "rental_uris": {"android": "https://dc.lft.to/lastmile_qr_scan", "ios": "https://dc.lft.to/lastmile_qr_scan"}, "bike_id": "7bb5e65bb7a7223d651b12213fb563fa", "lon": -77.02796133333334}, {"is_reserved": 0, "fusion_lon": 0.0, "fusion_lat": 0.0, "name": "a7f3fb54e30a6688e8814d671a1692bc", "type": "electric_scooter", "is_disabled": 0, "lat": 38.942038833333335, "rental_uris": {"android": "https://dc.lft.to/lastmile_qr_scan", "ios": "https://dc.lft.to/lastmile_qr_scan"}, "bike_id": "a7f3fb54e30a6688e8814d671a1692bc", "lon": -77.02512683333333}, {"is_reserved": 0, "fusion_lon": 0.0, "fusion_lat": 0.0, "name": "3be217430d396c07a5b979d1c419039f", "type": "electric_scooter", "is_disabled": 0, "lat": 38.9081495, "rental_uris": {"android": "https://dc.lft.to/lastmile_qr_scan", "ios": "https://dc.lft.to/lastmile_qr_scan"}, "bike_id": "3be217430d396c07a5b979d1c419039f", "lon": -77.04336683333334}, {"is_reserved": 0, "fusion_lon": 0.0, "fusion_lat": 0.0, "name": "494ace87808a0fe2385c48c3779cfe75", "type": "electric_scooter", "is_disabled": 0, "lat": 38.92933566666667, "rental_uris": {"android": "https://dc.lft.to/lastmile_qr_scan", "ios": "https://dc.lft.to/lastmile_qr_scan"}, "bike_id": "494ace87808a0fe2385c48c3779cfe75", "lon": -77.03656366666667}, {"is_reserved": 0, "fusion_lon": 0.0, "fusion_lat": 0.0, "name": "8b16f1d2ef93f2eb935a30510ba4b964", "type": "electric_scooter", "is_disabled": 0, "lat": 38.892209, "rental_uris": {"android": "https://dc.lft.to/lastmile_qr_scan", "ios": "https://dc.lft.to/lastmile_qr_scan"}, "bike_id": "8b16f1d2ef93f2eb935a30510ba4b964", "lon": -77.04307833333333}, {"is_reserved": 0, "fusion_lon": 0.0, "fusion_lat": 0.0, "name": "eae8df9c6c80718ada6b2e69e02fd846", "type": "electric_scooter", "is_disabled": 0, "lat": 38.93262716666667, "rental_uris": {"android": "https://dc.lft.to/lastmile_qr_scan", "ios": "https://dc.lft.to/lastmile_qr_scan"}, "bike_id": "eae8df9c6c80718ada6b2e69e02fd846", "lon": -77.0209765}, {"is_reserved": 0, "fusion_lon": 0.0, "fusion_lat": 0.0, "name": "61bfd45bd963ec54b9b7f78747f27716", "type": "electric_scooter", "is_disabled": 0, "lat": 38.902892, "rental_uris": {"android": "https://dc.lft.to/lastmile_qr_scan", "ios": "https://dc.lft.to/lastmile_qr_scan"}, "bike_id": "61bfd45bd963ec54b9b7f78747f27716", "lon": -77.03356883333333}, {"is_reserved": 0, "fusion_lon": 0.0, "fusion_lat": 0.0, "name": "bb38ae969bfed95c8ebff9d755e22820", "type": "electric_scooter", "is_disabled": 0, "lat": 38.86412683333333, "rental_uris": {"android": "https://dc.lft.to/lastmile_qr_scan", "ios": "https://dc.lft.to/lastmile_qr_scan"}, "bike_id": "bb38ae969bfed95c8ebff9d755e22820", "lon": -77.01214916666666}, {"is_reserved": 0, "fusion_lon": 0.0, "fusion_lat": 0.0, "name": "3dbacbfdcfdd9fb2d4becc66cf004f47", "type": "electric_scooter", "is_disabled": 0, "lat": 38.87359416666666, "rental_uris": {"android": "https://dc.lft.to/lastmile_qr_scan", "ios": "https://dc.lft.to/lastmile_qr_scan"}, "bike_id": "3dbacbfdcfdd9fb2d4becc66cf004f47", "lon": -77.00575016666667}, {"is_reserved": 0, "fusion_lon": 0.0, "fusion_lat": 0.0, "name": "39fd2f5c7fba34500f143e2c8938a191", "type": "electric_bike", "is_disabled": 0, "lat": 38.876341833333335, "rental_uris": {"android": "https://dc.lft.to/lastmile_qr_scan", "ios": "https://dc.lft.to/lastmile_qr_scan"}, "bike_id": "39fd2f5c7fba34500f143e2c8938a191", "lon": -76.98870233333334}, {"is_reserved": 0, "fusion_lon": 0.0, "fusion_lat": 0.0, "name": "f25fe769bb613836d038e36564f799b1", "type": "electric_scooter", "is_disabled": 0, "lat": 38.9042885, "rental_uris": {"android": "https://dc.lft.to/lastmile_qr_scan", "ios": "https://dc.lft.to/lastmile_qr_scan"}, "bike_id": "f25fe769bb613836d038e36564f799b1", "lon": -77.02592416666667}, {"is_reserved": 0, "fusion_lon": 0.0, "fusion_lat": 0.0, "name": "1c245b7648dbc3b50d48c99b5b20f7ae", "type": "electric_scooter", "is_disabled": 0, "lat": 38.88585716666667, "rental_uris": {"android": "https://dc.lft.to/lastmile_qr_scan", "ios": "https://dc.lft.to/lastmile_qr_scan"}, "bike_id": "1c245b7648dbc3b50d48c99b5b20f7ae", "lon": -76.92987816666667}, {"is_reserved": 0, "fusion_lon": 0.0, "fusion_lat": 0.0, "name": "6217ffd922f80a3091b83242e93e7c77", "type": "electric_scooter", "is_disabled": 0, "lat": 38.900631, "rental_uris": {"android": "https://dc.lft.to/lastmile_qr_scan", "ios": "https://dc.lft.to/lastmile_qr_scan"}, "bike_id": "6217ffd922f80a3091b83242e93e7c77", "lon": -77.00196}, {"is_reserved": 0, "fusion_lon": 0.0, "fusion_lat": 0.0, "name": "a1a1f3851e2e7dba04117422e053f9c9", "type": "electric_scooter", "is_disabled": 0, "lat": 38.9174135, "rental_uris": {"android": "https://dc.lft.to/lastmile_qr_scan", "ios": "https://dc.lft.to/lastmile_qr_scan"}, "bike_id": "a1a1f3851e2e7dba04117422e053f9c9", "lon": -77.010856}, {"is_reserved": 0, "fusion_lon": 0.0, "fusion_lat": 0.0, "name": "52bd6626b41a920f5e839a3a5f8c5487", "type": "electric_scooter", "is_disabled": 0, "lat": 38.926589, "rental_uris": {"android": "https://dc.lft.to/lastmile_qr_scan", "ios": "https://dc.lft.to/lastmile_qr_scan"}, "bike_id": "52bd6626b41a920f5e839a3a5f8c5487", "lon": -77.0372925}, {"is_reserved": 0, "fusion_lon": 0.0, "fusion_lat": 0.0, "name": "d0b828f3fc061e3241ce247a309f6d2d", "type": "electric_scooter", "is_disabled": 0, "lat": 38.92770266666667, "rental_uris": {"android": "https://dc.lft.to/lastmile_qr_scan", "ios": "https://dc.lft.to/lastmile_qr_scan"}, "bike_id": "d0b828f3fc061e3241ce247a309f6d2d", "lon": -77.0278475}, {"is_reserved": 0, "fusion_lon": 0.0, "fusion_lat": 0.0, "name": "3618768c639912b7cf2d3e3a04051177", "type": "electric_scooter", "is_disabled": 0, "lat": 38.915707, "rental_uris": {"android": "https://dc.lft.to/lastmile_qr_scan", "ios": "https://dc.lft.to/lastmile_qr_scan"}, "bike_id": "3618768c639912b7cf2d3e3a04051177", "lon": -77.0319975}, {"is_reserved": 0, "fusion_lon": 0.0, "fusion_lat": 0.0, "name": "f63604dc711b0397f05afb9dc169f127", "type": "electric_scooter", "is_disabled": 0, "lat": 38.90014583333333, "rental_uris": {"android": "https://dc.lft.to/lastmile_qr_scan", "ios": "https://dc.lft.to/lastmile_qr_scan"}, "bike_id": "f63604dc711b0397f05afb9dc169f127", "lon": -76.98871533333333}, {"is_reserved": 0, "fusion_lon": 0.0, "fusion_lat": 0.0, "name": "3253d5e87249a106e84bdd8fe5ef0d2b", "type": "electric_scooter", "is_disabled": 0, "lat": 38.90723116666667, "rental_uris": {"android": "https://dc.lft.to/lastmile_qr_scan", "ios": "https://dc.lft.to/lastmile_qr_scan"}, "bike_id": "3253d5e87249a106e84bdd8fe5ef0d2b", "lon": -77.03827116666666}, {"is_reserved": 0, "fusion_lon": 0.0, "fusion_lat": 0.0, "name": "2e567a8e9593c7550c71932facb925e4", "type": "electric_scooter", "is_disabled": 0, "lat": 38.9026765, "rental_uris": {"android": "https://dc.lft.to/lastmile_qr_scan", "ios": "https://dc.lft.to/lastmile_qr_scan"}, "bike_id": "2e567a8e9593c7550c71932facb925e4", "lon": -77.01784533333333}, {"is_reserved": 0, "fusion_lon": 0.0, "fusion_lat": 0.0, "name": "e108ff1cb6f4258224a5aa84261dbbd7", "type": "electric_bike", "is_disabled": 0, "lat": 38.969599333333335, "rental_uris": {"android": "https://dc.lft.to/lastmile_qr_scan", "ios": "https://dc.lft.to/lastmile_qr_scan"}, "bike_id": "e108ff1cb6f4258224a5aa84261dbbd7", "lon": -76.95749733333334}, {"is_reserved": 0, "fusion_lon": 0.0, "fusion_lat": 0.0, "name": "08993fc1280930f55da68e1aa80efa19", "type": "electric_scooter", "is_disabled": 0, "lat": 38.92505466666667, "rental_uris": {"android": "https://dc.lft.to/lastmile_qr_scan", "ios": "https://dc.lft.to/lastmile_qr_scan"}, "bike_id": "08993fc1280930f55da68e1aa80efa19", "lon": -77.03859683333333}, {"is_reserved": 0, "fusion_lon": 0.0, "fusion_lat": 0.0, "name": "0a544d6e6ea711a9f2605ef482e93716", "type": "electric_scooter", "is_disabled": 0, "lat": 38.905082666666665, "rental_uris": {"android": "https://dc.lft.to/lastmile_qr_scan", "ios": "https://dc.lft.to/lastmile_qr_scan"}, "bike_id": "0a544d6e6ea711a9f2605ef482e93716", "lon": -77.04337883333334}, {"is_reserved": 0, "fusion_lon": 0.0, "fusion_lat": 0.0, "name": "98f9ce5819167c1a46daad32754c7a31", "type": "electric_bike", "is_disabled": 0, "lat": 38.938110333333334, "rental_uris": {"android": "https://dc.lft.to/lastmile_qr_scan", "ios": "https://dc.lft.to/lastmile_qr_scan"}, "bike_id": "98f9ce5819167c1a46daad32754c7a31", "lon": -77.06860733333333}, {"is_reserved": 0, "fusion_lon": 0.0, "fusion_lat": 0.0, "name": "9ba005b2ad6d7c9a52f4f4b26286cbdc", "type": "electric_scooter", "is_disabled": 0, "lat": 38.928456833333335, "rental_uris": {"android": "https://dc.lft.to/lastmile_qr_scan", "ios": "https://dc.lft.to/lastmile_qr_scan"}, "bike_id": "9ba005b2ad6d7c9a52f4f4b26286cbdc", "lon": -76.99600066666666}, {"is_reserved": 0, "fusion_lon": 0.0, "fusion_lat": 0.0, "name": "4ad803ec9d0bc68ed8a026877c2e2b3c", "type": "electric_scooter", "is_disabled": 0, "lat": 38.900036, "rental_uris": {"android": "https://dc.lft.to/lastmile_qr_scan", "ios": "https://dc.lft.to/lastmile_qr_scan"}, "bike_id": "4ad803ec9d0bc68ed8a026877c2e2b3c", "lon": -77.00660683333334}, {"is_reserved": 0, "fusion_lon": 0.0, "fusion_lat": 0.0, "name": "adb6a841feb8ac1fa101ebcd12d21b20", "type": "electric_scooter", "is_disabled": 0, "lat": 38.92185166666667, "rental_uris": {"android": "https://dc.lft.to/lastmile_qr_scan", "ios": "https://dc.lft.to/lastmile_qr_scan"}, "bike_id": "adb6a841feb8ac1fa101ebcd12d21b20", "lon": -77.0266245}, {"is_reserved": 0, "fusion_lon": 0.0, "fusion_lat": 0.0, "name": "e398cf2460ffedb04d32703b5926b823", "type": "electric_scooter", "is_disabled": 0, "lat": 38.8762475, "rental_uris": {"android": "https://dc.lft.to/lastmile_qr_scan", "ios": "https://dc.lft.to/lastmile_qr_scan"}, "bike_id": "e398cf2460ffedb04d32703b5926b823", "lon": -77.01961666666666}, {"is_reserved": 0, "fusion_lon": 0.0, "fusion_lat": 0.0, "name": "9425a595b8a508378ef6d36b54fdb83b", "type": "electric_scooter", "is_disabled": 0, "lat": 38.90509866666667, "rental_uris": {"android": "https://dc.lft.to/lastmile_qr_scan", "ios": "https://dc.lft.to/lastmile_qr_scan"}, "bike_id": "9425a595b8a508378ef6d36b54fdb83b", "lon": -77.04649183333333}, {"is_reserved": 0, "fusion_lon": 0.0, "fusion_lat": 0.0, "name": "7dd417ace51449fa45a076566a1c67a0", "type": "electric_scooter", "is_disabled": 0, "lat": 38.91109083333333, "rental_uris": {"android": "https://dc.lft.to/lastmile_qr_scan", "ios": "https://dc.lft.to/lastmile_qr_scan"}, "bike_id": "7dd417ace51449fa45a076566a1c67a0", "lon": -77.032597}, {"is_reserved": 0, "fusion_lon": 0.0, "fusion_lat": 0.0, "name": "2d3c705884cebbcb5f26b321a2578671", "type": "electric_scooter", "is_disabled": 0, "lat": 38.916320999999996, "rental_uris": {"android": "https://dc.lft.to/lastmile_qr_scan", "ios": "https://dc.lft.to/lastmile_qr_scan"}, "bike_id": "2d3c705884cebbcb5f26b321a2578671", "lon": -77.04801233333333}, {"is_reserved": 0, "fusion_lon": 0.0, "fusion_lat": 0.0, "name": "fef995a096c88f857c65bdcc40689217", "type": "electric_scooter", "is_disabled": 0, "lat": 38.89433533333333, "rental_uris": {"android": "https://dc.lft.to/lastmile_qr_scan", "ios": "https://dc.lft.to/lastmile_qr_scan"}, "bike_id": "fef995a096c88f857c65bdcc40689217", "lon": -77.039988}, {"is_reserved": 0, "fusion_lon": 0.0, "fusion_lat": 0.0, "name": "5830a4f898d27bbfea78771760f17014", "type": "electric_scooter", "is_disabled": 0, "lat": 38.90526833333333, "rental_uris": {"android": "https://dc.lft.to/lastmile_qr_scan", "ios": "https://dc.lft.to/lastmile_qr_scan"}, "bike_id": "5830a4f898d27bbfea78771760f17014", "lon": -77.05335916666667}, {"is_reserved": 0, "fusion_lon": 0.0, "fusion_lat": 0.0, "name": "3ee1a4ab31fc5b86b79370fdaba4eba2", "type": "electric_scooter", "is_disabled": 0, "lat": 38.91766483333333, "rental_uris": {"android": "https://dc.lft.to/lastmile_qr_scan", "ios": "https://dc.lft.to/lastmile_qr_scan"}, "bike_id": "3ee1a4ab31fc5b86b79370fdaba4eba2", "lon": -77.0406045}, {"is_reserved": 0, "fusion_lon": 0.0, "fusion_lat": 0.0, "name": "ebf99d880242265cae2b67f5c222bccb", "type": "electric_scooter", "is_disabled": 0, "lat": 38.951949166666665, "rental_uris": {"android": "https://dc.lft.to/lastmile_qr_scan", "ios": "https://dc.lft.to/lastmile_qr_scan"}, "bike_id": "ebf99d880242265cae2b67f5c222bccb", "lon": -77.02619516666667}, {"is_reserved": 0, "fusion_lon": 0.0, "fusion_lat": 0.0, "name": "19d123496916820e181867606f5eb59b", "type": "electric_scooter", "is_disabled": 0, "lat": 38.9185275, "rental_uris": {"android": "https://dc.lft.to/lastmile_qr_scan", "ios": "https://dc.lft.to/lastmile_qr_scan"}, "bike_id": "19d123496916820e181867606f5eb59b", "lon": -77.044558}, {"is_reserved": 0, "fusion_lon": 0.0, "fusion_lat": 0.0, "name": "a6f1966c7f6cb362845a05caa974b682", "type": "electric_scooter", "is_disabled": 0, "lat": 38.926207833333336, "rental_uris": {"android": "https://dc.lft.to/lastmile_qr_scan", "ios": "https://dc.lft.to/lastmile_qr_scan"}, "bike_id": "a6f1966c7f6cb362845a05caa974b682", "lon": -77.04314866666667}, {"is_reserved": 0, "fusion_lon": 0.0, "fusion_lat": 0.0, "name": "c0e36ab3ef4cb17d77b2751ee923589e", "type": "electric_bike", "is_disabled": 0, "lat": 38.9322655, "rental_uris": {"android": "https://dc.lft.to/lastmile_qr_scan", "ios": "https://dc.lft.to/lastmile_qr_scan"}, "bike_id": "c0e36ab3ef4cb17d77b2751ee923589e", "lon": -77.1812175}, {"is_reserved": 0, "fusion_lon": 0.0, "fusion_lat": 0.0, "name": "20187b75908704df7a2b4eda97861cd3", "type": "electric_scooter", "is_disabled": 0, "lat": 38.91255366666667, "rental_uris": {"android": "https://dc.lft.to/lastmile_qr_scan", "ios": "https://dc.lft.to/lastmile_qr_scan"}, "bike_id": "20187b75908704df7a2b4eda97861cd3", "lon": -77.07318016666666}, {"is_reserved": 0, "fusion_lon": 0.0, "fusion_lat": 0.0, "name": "4a34ef0d2aeeb0972acd0beffedb7ca1", "type": "electric_scooter", "is_disabled": 0, "lat": 38.900621, "rental_uris": {"android": "https://dc.lft.to/lastmile_qr_scan", "ios": "https://dc.lft.to/lastmile_qr_scan"}, "bike_id": "4a34ef0d2aeeb0972acd0beffedb7ca1", "lon": -77.00197166666666}, {"is_reserved": 0, "fusion_lon": 0.0, "fusion_lat": 0.0, "name": "fb095b20e6e893969684c06c475cecc8", "type": "electric_scooter", "is_disabled": 0, "lat": 38.92158833333333, "rental_uris": {"android": "https://dc.lft.to/lastmile_qr_scan", "ios": "https://dc.lft.to/lastmile_qr_scan"}, "bike_id": "fb095b20e6e893969684c06c475cecc8", "lon": -77.03378366666666}, {"is_reserved": 0, "fusion_lon": 0.0, "fusion_lat": 0.0, "name": "998174b52afbbca427557009c9e232bf", "type": "electric_bike", "is_disabled": 0, "lat": 38.953251333333334, "rental_uris": {"android": "https://dc.lft.to/lastmile_qr_scan", "ios": "https://dc.lft.to/lastmile_qr_scan"}, "bike_id": "998174b52afbbca427557009c9e232bf", "lon": -76.95433866666667}, {"is_reserved": 0, "fusion_lon": 0.0, "fusion_lat": 0.0, "name": "c082bb75bb71d8241e1399e356133ba8", "type": "electric_scooter", "is_disabled": 0, "lat": 38.9071385, "rental_uris": {"android": "https://dc.lft.to/lastmile_qr_scan", "ios": "https://dc.lft.to/lastmile_qr_scan"}, "bike_id": "c082bb75bb71d8241e1399e356133ba8", "lon": -77.04348633333333}, {"is_reserved": 0, "fusion_lon": 0.0, "fusion_lat": 0.0, "name": "c4db38468b21ec0e15201f45ccd3acda", "type": "electric_scooter", "is_disabled": 0, "lat": 38.904945833333336, "rental_uris": {"android": "https://dc.lft.to/lastmile_qr_scan", "ios": "https://dc.lft.to/lastmile_qr_scan"}, "bike_id": "c4db38468b21ec0e15201f45ccd3acda", "lon": -76.98714483333333}, {"is_reserved": 0, "fusion_lon": 0.0, "fusion_lat": 0.0, "name": "09cb4f1a6905347ca693134be69cf569", "type": "electric_scooter", "is_disabled": 0, "lat": 38.91688083333333, "rental_uris": {"android": "https://dc.lft.to/lastmile_qr_scan", "ios": "https://dc.lft.to/lastmile_qr_scan"}, "bike_id": "09cb4f1a6905347ca693134be69cf569", "lon": -77.03203733333334}, {"is_reserved": 0, "fusion_lon": 0.0, "fusion_lat": 0.0, "name": "21a724cec3f78ac237cc2d8a3d040448", "type": "electric_scooter", "is_disabled": 0, "lat": 38.91660983333333, "rental_uris": {"android": "https://dc.lft.to/lastmile_qr_scan", "ios": "https://dc.lft.to/lastmile_qr_scan"}, "bike_id": "21a724cec3f78ac237cc2d8a3d040448", "lon": -77.03853083333334}, {"is_reserved": 0, "fusion_lon": 0.0, "fusion_lat": 0.0, "name": "d0b9e2b4d2281ffefb00a16babb8bc49", "type": "electric_bike", "is_disabled": 0, "lat": 38.81199866666667, "rental_uris": {"android": "https://dc.lft.to/lastmile_qr_scan", "ios": "https://dc.lft.to/lastmile_qr_scan"}, "bike_id": "d0b9e2b4d2281ffefb00a16babb8bc49", "lon": -77.10837016666666}, {"is_reserved": 0, "fusion_lon": 0.0, "fusion_lat": 0.0, "name": "a829b09627c4bde55ad9a672d26c89c1", "type": "electric_bike", "is_disabled": 0, "lat": 38.9489285, "rental_uris": {"android": "https://dc.lft.to/lastmile_qr_scan", "ios": "https://dc.lft.to/lastmile_qr_scan"}, "bike_id": "a829b09627c4bde55ad9a672d26c89c1", "lon": -77.03446483333333}, {"is_reserved": 0, "fusion_lon": 0.0, "fusion_lat": 0.0, "name": "f56f8abc6cdf8b8898a0168cbfae4907", "type": "electric_scooter", "is_disabled": 0, "lat": 38.90232366666667, "rental_uris": {"android": "https://dc.lft.to/lastmile_qr_scan", "ios": "https://dc.lft.to/lastmile_qr_scan"}, "bike_id": "f56f8abc6cdf8b8898a0168cbfae4907", "lon": -77.0441915}, {"is_reserved": 0, "fusion_lon": 0.0, "fusion_lat": 0.0, "name": "5f8461cb2b9224d186a1b1ab823d564c", "type": "electric_scooter", "is_disabled": 0, "lat": 38.9013795, "rental_uris": {"android": "https://dc.lft.to/lastmile_qr_scan", "ios": "https://dc.lft.to/lastmile_qr_scan"}, "bike_id": "5f8461cb2b9224d186a1b1ab823d564c", "lon": -77.04032283333333}, {"is_reserved": 0, "fusion_lon": 0.0, "fusion_lat": 0.0, "name": "8867864e7f58b7e70ee909adcd17b7d9", "type": "electric_scooter", "is_disabled": 0, "lat": 38.8963655, "rental_uris": {"android": "https://dc.lft.to/lastmile_qr_scan", "ios": "https://dc.lft.to/lastmile_qr_scan"}, "bike_id": "8867864e7f58b7e70ee909adcd17b7d9", "lon": -77.02184066666666}, {"is_reserved": 0, "fusion_lon": 0.0, "fusion_lat": 0.0, "name": "8e36b3dd3af762228e6e7846ca815fd3", "type": "electric_scooter", "is_disabled": 0, "lat": 38.91569166666667, "rental_uris": {"android": "https://dc.lft.to/lastmile_qr_scan", "ios": "https://dc.lft.to/lastmile_qr_scan"}, "bike_id": "8e36b3dd3af762228e6e7846ca815fd3", "lon": -77.0319955}, {"is_reserved": 0, "fusion_lon": 0.0, "fusion_lat": 0.0, "name": "39df44ae9cec7584d27818313b2a42ad", "type": "electric_scooter", "is_disabled": 0, "lat": 38.882007, "rental_uris": {"android": "https://dc.lft.to/lastmile_qr_scan", "ios": "https://dc.lft.to/lastmile_qr_scan"}, "bike_id": "39df44ae9cec7584d27818313b2a42ad", "lon": -76.92702733333333}, {"is_reserved": 0, "fusion_lon": 0.0, "fusion_lat": 0.0, "name": "ef4cee8ad57ec9c2a55da07eb6719b18", "type": "electric_bike", "is_disabled": 0, "lat": 38.96469616666667, "rental_uris": {"android": "https://dc.lft.to/lastmile_qr_scan", "ios": "https://dc.lft.to/lastmile_qr_scan"}, "bike_id": "ef4cee8ad57ec9c2a55da07eb6719b18", "lon": -77.03563066666666}, {"is_reserved": 0, "fusion_lon": 0.0, "fusion_lat": 0.0, "name": "e86f5593fcecb98af952dd4b76cdc54f", "type": "electric_scooter", "is_disabled": 0, "lat": 38.900633, "rental_uris": {"android": "https://dc.lft.to/lastmile_qr_scan", "ios": "https://dc.lft.to/lastmile_qr_scan"}, "bike_id": "e86f5593fcecb98af952dd4b76cdc54f", "lon": -77.04537616666667}, {"is_reserved": 0, "fusion_lon": 0.0, "fusion_lat": 0.0, "name": "982dd50243d55066c0124ebe155b95d6", "type": "electric_bike", "is_disabled": 0, "lat": 38.92456633333333, "rental_uris": {"android": "https://dc.lft.to/lastmile_qr_scan", "ios": "https://dc.lft.to/lastmile_qr_scan"}, "bike_id": "982dd50243d55066c0124ebe155b95d6", "lon": -76.9755695}, {"is_reserved": 0, "fusion_lon": 0.0, "fusion_lat": 0.0, "name": "7d7b6eea99a1b8facf800df636d06684", "type": "electric_scooter", "is_disabled": 0, "lat": 38.928791, "rental_uris": {"android": "https://dc.lft.to/lastmile_qr_scan", "ios": "https://dc.lft.to/lastmile_qr_scan"}, "bike_id": "7d7b6eea99a1b8facf800df636d06684", "lon": -77.0334025}, {"is_reserved": 0, "fusion_lon": 0.0, "fusion_lat": 0.0, "name": "4c24ad6d4a36739dc01984740aeeff23", "type": "electric_scooter", "is_disabled": 0, "lat": 38.93097266666667, "rental_uris": {"android": "https://dc.lft.to/lastmile_qr_scan", "ios": "https://dc.lft.to/lastmile_qr_scan"}, "bike_id": "4c24ad6d4a36739dc01984740aeeff23", "lon": -77.02792666666667}, {"is_reserved": 0, "fusion_lon": 0.0, "fusion_lat": 0.0, "name": "cf1d5b583818e612ec028f8b19c0a04f", "type": "electric_scooter", "is_disabled": 0, "lat": 38.919618666666665, "rental_uris": {"android": "https://dc.lft.to/lastmile_qr_scan", "ios": "https://dc.lft.to/lastmile_qr_scan"}, "bike_id": "cf1d5b583818e612ec028f8b19c0a04f", "lon": -77.0240675}, {"is_reserved": 0, "fusion_lon": 0.0, "fusion_lat": 0.0, "name": "fd8045c487e1015ce0c49071834518b6", "type": "electric_scooter", "is_disabled": 0, "lat": 38.916855166666664, "rental_uris": {"android": "https://dc.lft.to/lastmile_qr_scan", "ios": "https://dc.lft.to/lastmile_qr_scan"}, "bike_id": "fd8045c487e1015ce0c49071834518b6", "lon": -77.03312516666666}, {"is_reserved": 0, "fusion_lon": 0.0, "fusion_lat": 0.0, "name": "3b42c9bbd93e2a5d1c24c7152faea603", "type": "electric_scooter", "is_disabled": 0, "lat": 38.904354166666664, "rental_uris": {"android": "https://dc.lft.to/lastmile_qr_scan", "ios": "https://dc.lft.to/lastmile_qr_scan"}, "bike_id": "3b42c9bbd93e2a5d1c24c7152faea603", "lon": -77.04344683333333}, {"is_reserved": 0, "fusion_lon": 0.0, "fusion_lat": 0.0, "name": "2e8cf4916d2f9eaf61f892781ba355f1", "type": "electric_scooter", "is_disabled": 0, "lat": 38.95499133333333, "rental_uris": {"android": "https://dc.lft.to/lastmile_qr_scan", "ios": "https://dc.lft.to/lastmile_qr_scan"}, "bike_id": "2e8cf4916d2f9eaf61f892781ba355f1", "lon": -77.02963716666666}, {"is_reserved": 0, "fusion_lon": 0.0, "fusion_lat": 0.0, "name": "e74dad4c92999cd13a046ae67b90e6f3", "type": "electric_scooter", "is_disabled": 0, "lat": 38.9172735, "rental_uris": {"android": "https://dc.lft.to/lastmile_qr_scan", "ios": "https://dc.lft.to/lastmile_qr_scan"}, "bike_id": "e74dad4c92999cd13a046ae67b90e6f3", "lon": -77.03664416666666}, {"is_reserved": 0, "fusion_lon": 0.0, "fusion_lat": 0.0, "name": "390f13ea77996804064345ebfdd14973", "type": "electric_scooter", "is_disabled": 0, "lat": 38.9064285, "rental_uris": {"android": "https://dc.lft.to/lastmile_qr_scan", "ios": "https://dc.lft.to/lastmile_qr_scan"}, "bike_id": "390f13ea77996804064345ebfdd14973", "lon": -77.06908733333333}, {"is_reserved": 0, "fusion_lon": 0.0, "fusion_lat": 0.0, "name": "3d0574d2928cc5ede6dcaa82e10b3d80", "type": "electric_scooter", "is_disabled": 0, "lat": 38.87167133333333, "rental_uris": {"android": "https://dc.lft.to/lastmile_qr_scan", "ios": "https://dc.lft.to/lastmile_qr_scan"}, "bike_id": "3d0574d2928cc5ede6dcaa82e10b3d80", "lon": -76.9774725}, {"is_reserved": 0, "fusion_lon": 0.0, "fusion_lat": 0.0, "name": "9e85555067551687caae487ea91d0d19", "type": "electric_bike", "is_disabled": 0, "lat": 38.9118245, "rental_uris": {"android": "https://dc.lft.to/lastmile_qr_scan", "ios": "https://dc.lft.to/lastmile_qr_scan"}, "bike_id": "9e85555067551687caae487ea91d0d19", "lon": -77.22284866666666}, {"is_reserved": 0, "fusion_lon": 0.0, "fusion_lat": 0.0, "name": "873767e4bc8d6f6d0f0d532fb0d1c7c8", "type": "electric_scooter", "is_disabled": 0, "lat": 38.906653666666664, "rental_uris": {"android": "https://dc.lft.to/lastmile_qr_scan", "ios": "https://dc.lft.to/lastmile_qr_scan"}, "bike_id": "873767e4bc8d6f6d0f0d532fb0d1c7c8", "lon": -77.038402}, {"is_reserved": 0, "fusion_lon": 0.0, "fusion_lat": 0.0, "name": "c91e4cbf9ae1ff4d11190e7406fc2bea", "type": "electric_scooter", "is_disabled": 0, "lat": 38.936686333333334, "rental_uris": {"android": "https://dc.lft.to/lastmile_qr_scan", "ios": "https://dc.lft.to/lastmile_qr_scan"}, "bike_id": "c91e4cbf9ae1ff4d11190e7406fc2bea", "lon": -77.03422616666667}, {"is_reserved": 0, "fusion_lon": 0.0, "fusion_lat": 0.0, "name": "b9890b4620947e3520002991594c3353", "type": "electric_scooter", "is_disabled": 0, "lat": 38.9218785, "rental_uris": {"android": "https://dc.lft.to/lastmile_qr_scan", "ios": "https://dc.lft.to/lastmile_qr_scan"}, "bike_id": "b9890b4620947e3520002991594c3353", "lon": -77.0412985}, {"is_reserved": 0, "fusion_lon": 0.0, "fusion_lat": 0.0, "name": "62fe1c9deaa7a74ef58c686c601c84fd", "type": "electric_scooter", "is_disabled": 0, "lat": 38.94218983333333, "rental_uris": {"android": "https://dc.lft.to/lastmile_qr_scan", "ios": "https://dc.lft.to/lastmile_qr_scan"}, "bike_id": "62fe1c9deaa7a74ef58c686c601c84fd", "lon": -77.02501416666667}, {"is_reserved": 0, "fusion_lon": 0.0, "fusion_lat": 0.0, "name": "a2afdf777f1535df764ec344887d4f9c", "type": "electric_scooter", "is_disabled": 0, "lat": 38.91097666666667, "rental_uris": {"android": "https://dc.lft.to/lastmile_qr_scan", "ios": "https://dc.lft.to/lastmile_qr_scan"}, "bike_id": "a2afdf777f1535df764ec344887d4f9c", "lon": -77.01977383333333}, {"is_reserved": 0, "fusion_lon": 0.0, "fusion_lat": 0.0, "name": "27ae31aaa04f44f09a70b0998b8a0230", "type": "electric_scooter", "is_disabled": 0, "lat": 38.913407666666664, "rental_uris": {"android": "https://dc.lft.to/lastmile_qr_scan", "ios": "https://dc.lft.to/lastmile_qr_scan"}, "bike_id": "27ae31aaa04f44f09a70b0998b8a0230", "lon": -77.02753883333334}, {"is_reserved": 0, "fusion_lon": 0.0, "fusion_lat": 0.0, "name": "9fafd07c1f78be23489178cc0dfd38a8", "type": "electric_scooter", "is_disabled": 0, "lat": 38.914182333333336, "rental_uris": {"android": "https://dc.lft.to/lastmile_qr_scan", "ios": "https://dc.lft.to/lastmile_qr_scan"}, "bike_id": "9fafd07c1f78be23489178cc0dfd38a8", "lon": -77.02954}, {"is_reserved": 0, "fusion_lon": 0.0, "fusion_lat": 0.0, "name": "90c9594db063d7ae8daf895d3595e253", "type": "electric_scooter", "is_disabled": 0, "lat": 38.88726466666667, "rental_uris": {"android": "https://dc.lft.to/lastmile_qr_scan", "ios": "https://dc.lft.to/lastmile_qr_scan"}, "bike_id": "90c9594db063d7ae8daf895d3595e253", "lon": -77.02824733333334}, {"is_reserved": 0, "fusion_lon": 0.0, "fusion_lat": 0.0, "name": "f67867aadaeead703af65dcc393d1689", "type": "electric_scooter", "is_disabled": 0, "lat": 38.90958833333333, "rental_uris": {"android": "https://dc.lft.to/lastmile_qr_scan", "ios": "https://dc.lft.to/lastmile_qr_scan"}, "bike_id": "f67867aadaeead703af65dcc393d1689", "lon": -77.03861466666666}, {"is_reserved": 0, "fusion_lon": 0.0, "fusion_lat": 0.0, "name": "2909a5c481bf8bdc93303c367bf3ff07", "type": "electric_scooter", "is_disabled": 0, "lat": 38.9154765, "rental_uris": {"android": "https://dc.lft.to/lastmile_qr_scan", "ios": "https://dc.lft.to/lastmile_qr_scan"}, "bike_id": "2909a5c481bf8bdc93303c367bf3ff07", "lon": -77.03855966666667}, {"is_reserved": 0, "fusion_lon": 0.0, "fusion_lat": 0.0, "name": "aae7d3b12063783887a5849a9e007dea", "type": "electric_scooter", "is_disabled": 0, "lat": 38.90733266666667, "rental_uris": {"android": "https://dc.lft.to/lastmile_qr_scan", "ios": "https://dc.lft.to/lastmile_qr_scan"}, "bike_id": "aae7d3b12063783887a5849a9e007dea", "lon": -77.00105166666667}, {"is_reserved": 0, "fusion_lon": 0.0, "fusion_lat": 0.0, "name": "ebd0afd2bdc72c01f093471dcae9047c", "type": "electric_scooter", "is_disabled": 0, "lat": 38.888114, "rental_uris": {"android": "https://dc.lft.to/lastmile_qr_scan", "ios": "https://dc.lft.to/lastmile_qr_scan"}, "bike_id": "ebd0afd2bdc72c01f093471dcae9047c", "lon": -76.93342466666667}, {"is_reserved": 0, "fusion_lon": 0.0, "fusion_lat": 0.0, "name": "3f849c430c84517218f4a504d55da245", "type": "electric_scooter", "is_disabled": 0, "lat": 38.92097166666667, "rental_uris": {"android": "https://dc.lft.to/lastmile_qr_scan", "ios": "https://dc.lft.to/lastmile_qr_scan"}, "bike_id": "3f849c430c84517218f4a504d55da245", "lon": -77.00431233333333}, {"is_reserved": 0, "fusion_lon": 0.0, "fusion_lat": 0.0, "name": "1e8e7faf8660d6cd67e89b6239af6bdb", "type": "electric_scooter", "is_disabled": 0, "lat": 38.911871166666664, "rental_uris": {"android": "https://dc.lft.to/lastmile_qr_scan", "ios": "https://dc.lft.to/lastmile_qr_scan"}, "bike_id": "1e8e7faf8660d6cd67e89b6239af6bdb", "lon": -77.00962183333333}, {"is_reserved": 0, "fusion_lon": 0.0, "fusion_lat": 0.0, "name": "1fce10af62fd8246df52d22d9218f793", "type": "electric_scooter", "is_disabled": 0, "lat": 38.89210383333333, "rental_uris": {"android": "https://dc.lft.to/lastmile_qr_scan", "ios": "https://dc.lft.to/lastmile_qr_scan"}, "bike_id": "1fce10af62fd8246df52d22d9218f793", "lon": -77.031608}, {"is_reserved": 0, "fusion_lon": 0.0, "fusion_lat": 0.0, "name": "d4c1fe803181bf6d39b811fffe9e19ae", "type": "electric_scooter", "is_disabled": 0, "lat": 38.889927666666665, "rental_uris": {"android": "https://dc.lft.to/lastmile_qr_scan", "ios": "https://dc.lft.to/lastmile_qr_scan"}, "bike_id": "d4c1fe803181bf6d39b811fffe9e19ae", "lon": -76.93110083333333}, {"is_reserved": 0, "fusion_lon": 0.0, "fusion_lat": 0.0, "name": "663a50b97de23d57fefc0560a95a6c29", "type": "electric_scooter", "is_disabled": 0, "lat": 38.92231483333333, "rental_uris": {"android": "https://dc.lft.to/lastmile_qr_scan", "ios": "https://dc.lft.to/lastmile_qr_scan"}, "bike_id": "663a50b97de23d57fefc0560a95a6c29", "lon": -76.97534466666667}, {"is_reserved": 0, "fusion_lon": 0.0, "fusion_lat": 0.0, "name": "93687b92b717a4ed96a77b733db43325", "type": "electric_scooter", "is_disabled": 0, "lat": 38.90898933333333, "rental_uris": {"android": "https://dc.lft.to/lastmile_qr_scan", "ios": "https://dc.lft.to/lastmile_qr_scan"}, "bike_id": "93687b92b717a4ed96a77b733db43325", "lon": -77.07298083333333}, {"is_reserved": 0, "fusion_lon": 0.0, "fusion_lat": 0.0, "name": "f5ccad8c335191a230114aee4846ca95", "type": "electric_scooter", "is_disabled": 0, "lat": 38.91682616666667, "rental_uris": {"android": "https://dc.lft.to/lastmile_qr_scan", "ios": "https://dc.lft.to/lastmile_qr_scan"}, "bike_id": "f5ccad8c335191a230114aee4846ca95", "lon": -77.0319745}, {"is_reserved": 0, "fusion_lon": 0.0, "fusion_lat": 0.0, "name": "f7ed3827391500a11d8ef79764ae96e4", "type": "electric_scooter", "is_disabled": 0, "lat": 38.89224766666667, "rental_uris": {"android": "https://dc.lft.to/lastmile_qr_scan", "ios": "https://dc.lft.to/lastmile_qr_scan"}, "bike_id": "f7ed3827391500a11d8ef79764ae96e4", "lon": -77.043773}, {"is_reserved": 0, "fusion_lon": 0.0, "fusion_lat": 0.0, "name": "15e2164a55240790c9060e47392e03a3", "type": "electric_scooter", "is_disabled": 0, "lat": 38.945247333333334, "rental_uris": {"android": "https://dc.lft.to/lastmile_qr_scan", "ios": "https://dc.lft.to/lastmile_qr_scan"}, "bike_id": "15e2164a55240790c9060e47392e03a3", "lon": -77.02087583333333}, {"is_reserved": 0, "fusion_lon": 0.0, "fusion_lat": 0.0, "name": "ad835547bd9e2762f20f08f1fbb1a8fa", "type": "electric_scooter", "is_disabled": 0, "lat": 38.923890166666666, "rental_uris": {"android": "https://dc.lft.to/lastmile_qr_scan", "ios": "https://dc.lft.to/lastmile_qr_scan"}, "bike_id": "ad835547bd9e2762f20f08f1fbb1a8fa", "lon": -77.0353775}, {"is_reserved": 0, "fusion_lon": 0.0, "fusion_lat": 0.0, "name": "93c5145820024523dd610a0548a6cb34", "type": "electric_scooter", "is_disabled": 0, "lat": 38.90603683333333, "rental_uris": {"android": "https://dc.lft.to/lastmile_qr_scan", "ios": "https://dc.lft.to/lastmile_qr_scan"}, "bike_id": "93c5145820024523dd610a0548a6cb34", "lon": -76.98519166666667}, {"is_reserved": 0, "fusion_lon": 0.0, "fusion_lat": 0.0, "name": "c2222fd01f5b0075f03fc9c0db7c326c", "type": "electric_scooter", "is_disabled": 0, "lat": 38.934631833333334, "rental_uris": {"android": "https://dc.lft.to/lastmile_qr_scan", "ios": "https://dc.lft.to/lastmile_qr_scan"}, "bike_id": "c2222fd01f5b0075f03fc9c0db7c326c", "lon": -77.03047666666667}, {"is_reserved": 0, "fusion_lon": 0.0, "fusion_lat": 0.0, "name": "b10999f1c0ad021171b05eb1a7975007", "type": "electric_scooter", "is_disabled": 0, "lat": 38.91799316666667, "rental_uris": {"android": "https://dc.lft.to/lastmile_qr_scan", "ios": "https://dc.lft.to/lastmile_qr_scan"}, "bike_id": "b10999f1c0ad021171b05eb1a7975007", "lon": -77.03185616666667}, {"is_reserved": 0, "fusion_lon": 0.0, "fusion_lat": 0.0, "name": "3a9dba608fbd73fa8ed8836132de4dad", "type": "electric_scooter", "is_disabled": 0, "lat": 38.9505415, "rental_uris": {"android": "https://dc.lft.to/lastmile_qr_scan", "ios": "https://dc.lft.to/lastmile_qr_scan"}, "bike_id": "3a9dba608fbd73fa8ed8836132de4dad", "lon": -77.0072335}, {"is_reserved": 0, "fusion_lon": 0.0, "fusion_lat": 0.0, "name": "f750c3d69b1a172b6463778b1b7f92ca", "type": "electric_scooter", "is_disabled": 0, "lat": 38.91261166666666, "rental_uris": {"android": "https://dc.lft.to/lastmile_qr_scan", "ios": "https://dc.lft.to/lastmile_qr_scan"}, "bike_id": "f750c3d69b1a172b6463778b1b7f92ca", "lon": -77.03128216666667}, {"is_reserved": 0, "fusion_lon": 0.0, "fusion_lat": 0.0, "name": "2d69ffafcac3b1d827cb81daefde78b0", "type": "electric_scooter", "is_disabled": 0, "lat": 38.896107666666666, "rental_uris": {"android": "https://dc.lft.to/lastmile_qr_scan", "ios": "https://dc.lft.to/lastmile_qr_scan"}, "bike_id": "2d69ffafcac3b1d827cb81daefde78b0", "lon": -76.99296483333333}, {"is_reserved": 0, "fusion_lon": 0.0, "fusion_lat": 0.0, "name": "2aef55e832c348509ec75d215690afe2", "type": "electric_scooter", "is_disabled": 0, "lat": 38.91329283333334, "rental_uris": {"android": "https://dc.lft.to/lastmile_qr_scan", "ios": "https://dc.lft.to/lastmile_qr_scan"}, "bike_id": "2aef55e832c348509ec75d215690afe2", "lon": -77.0481605}, {"is_reserved": 0, "fusion_lon": 0.0, "fusion_lat": 0.0, "name": "5cbb2db600e708d07ed054ef5952f588", "type": "electric_scooter", "is_disabled": 0, "lat": 38.938711166666664, "rental_uris": {"android": "https://dc.lft.to/lastmile_qr_scan", "ios": "https://dc.lft.to/lastmile_qr_scan"}, "bike_id": "5cbb2db600e708d07ed054ef5952f588", "lon": -77.03382233333333}, {"is_reserved": 0, "fusion_lon": 0.0, "fusion_lat": 0.0, "name": "0102251e9207d102e5941c54082e03b7", "type": "electric_scooter", "is_disabled": 0, "lat": 38.930186, "rental_uris": {"android": "https://dc.lft.to/lastmile_qr_scan", "ios": "https://dc.lft.to/lastmile_qr_scan"}, "bike_id": "0102251e9207d102e5941c54082e03b7", "lon": -77.0553745}, {"is_reserved": 0, "fusion_lon": 0.0, "fusion_lat": 0.0, "name": "8950141eb29a0d6d828def8af1378afe", "type": "electric_bike", "is_disabled": 0, "lat": 38.845668333333336, "rental_uris": {"android": "https://dc.lft.to/lastmile_qr_scan", "ios": "https://dc.lft.to/lastmile_qr_scan"}, "bike_id": "8950141eb29a0d6d828def8af1378afe", "lon": -77.06698733333333}, {"is_reserved": 0, "fusion_lon": 0.0, "fusion_lat": 0.0, "name": "760641c47d689df9c119889dbad84c1c", "type": "electric_scooter", "is_disabled": 0, "lat": 38.86656083333333, "rental_uris": {"android": "https://dc.lft.to/lastmile_qr_scan", "ios": "https://dc.lft.to/lastmile_qr_scan"}, "bike_id": "760641c47d689df9c119889dbad84c1c", "lon": -76.98880366666667}, {"is_reserved": 0, "fusion_lon": 0.0, "fusion_lat": 0.0, "name": "2fdad9bfa52598b6b06c0646fdfd1490", "type": "electric_scooter", "is_disabled": 0, "lat": 38.902854, "rental_uris": {"android": "https://dc.lft.to/lastmile_qr_scan", "ios": "https://dc.lft.to/lastmile_qr_scan"}, "bike_id": "2fdad9bfa52598b6b06c0646fdfd1490", "lon": -77.0337355}, {"is_reserved": 0, "fusion_lon": 0.0, "fusion_lat": 0.0, "name": "6b929f08786404155195b1d78f14bb7f", "type": "electric_scooter", "is_disabled": 0, "lat": 38.94184683333334, "rental_uris": {"android": "https://dc.lft.to/lastmile_qr_scan", "ios": "https://dc.lft.to/lastmile_qr_scan"}, "bike_id": "6b929f08786404155195b1d78f14bb7f", "lon": -77.02493283333334}, {"is_reserved": 0, "fusion_lon": 0.0, "fusion_lat": 0.0, "name": "0983b0f9aebb9b63d85ee8bcff15b85f", "type": "electric_scooter", "is_disabled": 0, "lat": 38.904671666666665, "rental_uris": {"android": "https://dc.lft.to/lastmile_qr_scan", "ios": "https://dc.lft.to/lastmile_qr_scan"}, "bike_id": "0983b0f9aebb9b63d85ee8bcff15b85f", "lon": -77.04802083333334}, {"is_reserved": 0, "fusion_lon": 0.0, "fusion_lat": 0.0, "name": "c937f0fa492415ac6eb473923218ff78", "type": "electric_bike", "is_disabled": 0, "lat": 38.99342683333333, "rental_uris": {"android": "https://dc.lft.to/lastmile_qr_scan", "ios": "https://dc.lft.to/lastmile_qr_scan"}, "bike_id": "c937f0fa492415ac6eb473923218ff78", "lon": -77.11575116666667}, {"is_reserved": 0, "fusion_lon": 0.0, "fusion_lat": 0.0, "name": "dc08210d60d787375368fcb2436d2ba3", "type": "electric_bike", "is_disabled": 0, "lat": 38.8869085, "rental_uris": {"android": "https://dc.lft.to/lastmile_qr_scan", "ios": "https://dc.lft.to/lastmile_qr_scan"}, "bike_id": "dc08210d60d787375368fcb2436d2ba3", "lon": -76.97638916666666}, {"is_reserved": 0, "fusion_lon": 0.0, "fusion_lat": 0.0, "name": "d841e0426e4732d61f8a662fb65418d1", "type": "electric_bike", "is_disabled": 0, "lat": 38.88045816666666, "rental_uris": {"android": "https://dc.lft.to/lastmile_qr_scan", "ios": "https://dc.lft.to/lastmile_qr_scan"}, "bike_id": "d841e0426e4732d61f8a662fb65418d1", "lon": -77.0112895}, {"is_reserved": 0, "fusion_lon": 0.0, "fusion_lat": 0.0, "name": "d04480dbbf98deb4a514cd2fc6743760", "type": "electric_scooter", "is_disabled": 0, "lat": 38.900172166666664, "rental_uris": {"android": "https://dc.lft.to/lastmile_qr_scan", "ios": "https://dc.lft.to/lastmile_qr_scan"}, "bike_id": "d04480dbbf98deb4a514cd2fc6743760", "lon": -77.04053483333334}, {"is_reserved": 0, "fusion_lon": 0.0, "fusion_lat": 0.0, "name": "39a0fc07b27f228e9fc10afc08be27b6", "type": "electric_scooter", "is_disabled": 0, "lat": 38.8672515, "rental_uris": {"android": "https://dc.lft.to/lastmile_qr_scan", "ios": "https://dc.lft.to/lastmile_qr_scan"}, "bike_id": "39a0fc07b27f228e9fc10afc08be27b6", "lon": -76.98783733333333}, {"is_reserved": 0, "fusion_lon": 0.0, "fusion_lat": 0.0, "name": "3a758367d20220633bb69e396e5ca355", "type": "electric_scooter", "is_disabled": 0, "lat": 38.93232966666667, "rental_uris": {"android": "https://dc.lft.to/lastmile_qr_scan", "ios": "https://dc.lft.to/lastmile_qr_scan"}, "bike_id": "3a758367d20220633bb69e396e5ca355", "lon": -77.029451}, {"is_reserved": 0, "fusion_lon": 0.0, "fusion_lat": 0.0, "name": "ed97e7f8f7c351a466a7692e4abecec1", "type": "electric_scooter", "is_disabled": 0, "lat": 38.893524, "rental_uris": {"android": "https://dc.lft.to/lastmile_qr_scan", "ios": "https://dc.lft.to/lastmile_qr_scan"}, "bike_id": "ed97e7f8f7c351a466a7692e4abecec1", "lon": -77.0316515}, {"is_reserved": 0, "fusion_lon": 0.0, "fusion_lat": 0.0, "name": "61178d17c71d466112db82bfc20c899c", "type": "electric_scooter", "is_disabled": 0, "lat": 38.90004883333334, "rental_uris": {"android": "https://dc.lft.to/lastmile_qr_scan", "ios": "https://dc.lft.to/lastmile_qr_scan"}, "bike_id": "61178d17c71d466112db82bfc20c899c", "lon": -76.99623533333333}, {"is_reserved": 0, "fusion_lon": 0.0, "fusion_lat": 0.0, "name": "97c162abc3996da6b51e4313498eaa9f", "type": "electric_scooter", "is_disabled": 0, "lat": 38.8718155, "rental_uris": {"android": "https://dc.lft.to/lastmile_qr_scan", "ios": "https://dc.lft.to/lastmile_qr_scan"}, "bike_id": "97c162abc3996da6b51e4313498eaa9f", "lon": -77.00597466666666}, {"is_reserved": 0, "fusion_lon": 0.0, "fusion_lat": 0.0, "name": "d51e2d0b4a8ddf599c954269632beda6", "type": "electric_scooter", "is_disabled": 0, "lat": 38.915473, "rental_uris": {"android": "https://dc.lft.to/lastmile_qr_scan", "ios": "https://dc.lft.to/lastmile_qr_scan"}, "bike_id": "d51e2d0b4a8ddf599c954269632beda6", "lon": -77.038585}, {"is_reserved": 0, "fusion_lon": 0.0, "fusion_lat": 0.0, "name": "f4f8bb382c0a38e066c04dcb42ac201b", "type": "electric_scooter", "is_disabled": 0, "lat": 38.9231365, "rental_uris": {"android": "https://dc.lft.to/lastmile_qr_scan", "ios": "https://dc.lft.to/lastmile_qr_scan"}, "bike_id": "f4f8bb382c0a38e066c04dcb42ac201b", "lon": -77.04389266666666}, {"is_reserved": 0, "fusion_lon": 0.0, "fusion_lat": 0.0, "name": "99fac1e2920d446f90f2974ac8f7f6bd", "type": "electric_scooter", "is_disabled": 0, "lat": 38.8238085, "rental_uris": {"android": "https://dc.lft.to/lastmile_qr_scan", "ios": "https://dc.lft.to/lastmile_qr_scan"}, "bike_id": "99fac1e2920d446f90f2974ac8f7f6bd", "lon": -77.01193133333334}, {"is_reserved": 0, "fusion_lon": 0.0, "fusion_lat": 0.0, "name": "2c6f78ac7a567632b46b1518234ba704", "type": "electric_scooter", "is_disabled": 0, "lat": 38.90918766666667, "rental_uris": {"android": "https://dc.lft.to/lastmile_qr_scan", "ios": "https://dc.lft.to/lastmile_qr_scan"}, "bike_id": "2c6f78ac7a567632b46b1518234ba704", "lon": -77.07267433333334}, {"is_reserved": 0, "fusion_lon": 0.0, "fusion_lat": 0.0, "name": "4dbe2fc965e600ddbc263f1ec8cc566f", "type": "electric_scooter", "is_disabled": 0, "lat": 38.897258666666666, "rental_uris": {"android": "https://dc.lft.to/lastmile_qr_scan", "ios": "https://dc.lft.to/lastmile_qr_scan"}, "bike_id": "4dbe2fc965e600ddbc263f1ec8cc566f", "lon": -77.04403833333333}, {"is_reserved": 0, "fusion_lon": 0.0, "fusion_lat": 0.0, "name": "e1e5af49aac7863fe9e0c2ec5e5ad878", "type": "electric_scooter", "is_disabled": 0, "lat": 38.8962285, "rental_uris": {"android": "https://dc.lft.to/lastmile_qr_scan", "ios": "https://dc.lft.to/lastmile_qr_scan"}, "bike_id": "e1e5af49aac7863fe9e0c2ec5e5ad878", "lon": -77.03185516666667}, {"is_reserved": 0, "fusion_lon": 0.0, "fusion_lat": 0.0, "name": "3809699417ba857c6dac283685277081", "type": "electric_scooter", "is_disabled": 0, "lat": 38.91691516666667, "rental_uris": {"android": "https://dc.lft.to/lastmile_qr_scan", "ios": "https://dc.lft.to/lastmile_qr_scan"}, "bike_id": "3809699417ba857c6dac283685277081", "lon": -77.02896783333334}, {"is_reserved": 0, "fusion_lon": 0.0, "fusion_lat": 0.0, "name": "3ec405c166154a9074d92e4d647c9e73", "type": "electric_scooter", "is_disabled": 0, "lat": 38.904786666666666, "rental_uris": {"android": "https://dc.lft.to/lastmile_qr_scan", "ios": "https://dc.lft.to/lastmile_qr_scan"}, "bike_id": "3ec405c166154a9074d92e4d647c9e73", "lon": -77.03562333333333}, {"is_reserved": 0, "fusion_lon": 0.0, "fusion_lat": 0.0, "name": "b3142d946ec468c69be24d68ef9624c8", "type": "electric_scooter", "is_disabled": 0, "lat": 38.904261166666664, "rental_uris": {"android": "https://dc.lft.to/lastmile_qr_scan", "ios": "https://dc.lft.to/lastmile_qr_scan"}, "bike_id": "b3142d946ec468c69be24d68ef9624c8", "lon": -77.03440033333334}, {"is_reserved": 0, "fusion_lon": 0.0, "fusion_lat": 0.0, "name": "df523b78b84622e9ab2634c872b6512e", "type": "electric_scooter", "is_disabled": 0, "lat": 38.91095216666667, "rental_uris": {"android": "https://dc.lft.to/lastmile_qr_scan", "ios": "https://dc.lft.to/lastmile_qr_scan"}, "bike_id": "df523b78b84622e9ab2634c872b6512e", "lon": -77.044771}, {"is_reserved": 0, "fusion_lon": 0.0, "fusion_lat": 0.0, "name": "559f408dc1c9bf5dd334ec0fec2db527", "type": "electric_scooter", "is_disabled": 0, "lat": 38.904103666666664, "rental_uris": {"android": "https://dc.lft.to/lastmile_qr_scan", "ios": "https://dc.lft.to/lastmile_qr_scan"}, "bike_id": "559f408dc1c9bf5dd334ec0fec2db527", "lon": -77.03095216666667}, {"is_reserved": 0, "fusion_lon": 0.0, "fusion_lat": 0.0, "name": "fd1b16737420f4af9e464adcef5a6bc8", "type": "electric_bike", "is_disabled": 0, "lat": 38.85374066666667, "rental_uris": {"android": "https://dc.lft.to/lastmile_qr_scan", "ios": "https://dc.lft.to/lastmile_qr_scan"}, "bike_id": "fd1b16737420f4af9e464adcef5a6bc8", "lon": -77.12466766666667}, {"is_reserved": 0, "fusion_lon": 0.0, "fusion_lat": 0.0, "name": "5606f0e91f462cdd1504de351fd48e63", "type": "electric_scooter", "is_disabled": 0, "lat": 38.9361725, "rental_uris": {"android": "https://dc.lft.to/lastmile_qr_scan", "ios": "https://dc.lft.to/lastmile_qr_scan"}, "bike_id": "5606f0e91f462cdd1504de351fd48e63", "lon": -77.06753983333333}, {"is_reserved": 0, "fusion_lon": 0.0, "fusion_lat": 0.0, "name": "b48cbc6353285261eafae0d4cf1d0253", "type": "electric_bike", "is_disabled": 0, "lat": 38.872998833333334, "rental_uris": {"android": "https://dc.lft.to/lastmile_qr_scan", "ios": "https://dc.lft.to/lastmile_qr_scan"}, "bike_id": "b48cbc6353285261eafae0d4cf1d0253", "lon": -77.1392655}, {"is_reserved": 0, "fusion_lon": 0.0, "fusion_lat": 0.0, "name": "c20d805e533062a491dbaf15234a086a", "type": "electric_scooter", "is_disabled": 0, "lat": 38.95034033333334, "rental_uris": {"android": "https://dc.lft.to/lastmile_qr_scan", "ios": "https://dc.lft.to/lastmile_qr_scan"}, "bike_id": "c20d805e533062a491dbaf15234a086a", "lon": -77.0669735}, {"is_reserved": 0, "fusion_lon": 0.0, "fusion_lat": 0.0, "name": "34f5a092a39672e2d4ff648d4c403a35", "type": "electric_scooter", "is_disabled": 0, "lat": 38.919199166666665, "rental_uris": {"android": "https://dc.lft.to/lastmile_qr_scan", "ios": "https://dc.lft.to/lastmile_qr_scan"}, "bike_id": "34f5a092a39672e2d4ff648d4c403a35", "lon": -77.02504566666667}, {"is_reserved": 0, "fusion_lon": 0.0, "fusion_lat": 0.0, "name": "0d3f52e84ac42f3f9c5b9f7b90573959", "type": "electric_scooter", "is_disabled": 0, "lat": 38.904623666666666, "rental_uris": {"android": "https://dc.lft.to/lastmile_qr_scan", "ios": "https://dc.lft.to/lastmile_qr_scan"}, "bike_id": "0d3f52e84ac42f3f9c5b9f7b90573959", "lon": -77.03795716666667}, {"is_reserved": 0, "fusion_lon": 0.0, "fusion_lat": 0.0, "name": "a542030326e504cb3866a742c38c531f", "type": "electric_scooter", "is_disabled": 0, "lat": 38.866551333333334, "rental_uris": {"android": "https://dc.lft.to/lastmile_qr_scan", "ios": "https://dc.lft.to/lastmile_qr_scan"}, "bike_id": "a542030326e504cb3866a742c38c531f", "lon": -76.988848}, {"is_reserved": 0, "fusion_lon": 0.0, "fusion_lat": 0.0, "name": "4eac51b26d6895ace1be09c8941a732a", "type": "electric_bike", "is_disabled": 0, "lat": 38.95646216666667, "rental_uris": {"android": "https://dc.lft.to/lastmile_qr_scan", "ios": "https://dc.lft.to/lastmile_qr_scan"}, "bike_id": "4eac51b26d6895ace1be09c8941a732a", "lon": -77.01280316666667}, {"is_reserved": 0, "fusion_lon": 0.0, "fusion_lat": 0.0, "name": "b722cf113bb5b4d7499b6ea2fb1e9244", "type": "electric_scooter", "is_disabled": 0, "lat": 38.919216666666664, "rental_uris": {"android": "https://dc.lft.to/lastmile_qr_scan", "ios": "https://dc.lft.to/lastmile_qr_scan"}, "bike_id": "b722cf113bb5b4d7499b6ea2fb1e9244", "lon": -77.03189183333333}, {"is_reserved": 0, "fusion_lon": 0.0, "fusion_lat": 0.0, "name": "cca3de2af7dec3666207711317edbf93", "type": "electric_bike", "is_disabled": 0, "lat": 38.9881885, "rental_uris": {"android": "https://dc.lft.to/lastmile_qr_scan", "ios": "https://dc.lft.to/lastmile_qr_scan"}, "bike_id": "cca3de2af7dec3666207711317edbf93", "lon": -77.02649866666667}, {"is_reserved": 0, "fusion_lon": 0.0, "fusion_lat": 0.0, "name": "6f10e36429c9faa72f6a99ade76dbf12", "type": "electric_scooter", "is_disabled": 0, "lat": 38.87138266666667, "rental_uris": {"android": "https://dc.lft.to/lastmile_qr_scan", "ios": "https://dc.lft.to/lastmile_qr_scan"}, "bike_id": "6f10e36429c9faa72f6a99ade76dbf12", "lon": -77.00703916666667}, {"is_reserved": 0, "fusion_lon": 0.0, "fusion_lat": 0.0, "name": "dbb340d1772e613534195cd2302fb7a2", "type": "electric_scooter", "is_disabled": 0, "lat": 38.93272, "rental_uris": {"android": "https://dc.lft.to/lastmile_qr_scan", "ios": "https://dc.lft.to/lastmile_qr_scan"}, "bike_id": "dbb340d1772e613534195cd2302fb7a2", "lon": -77.02830033333333}, {"is_reserved": 0, "fusion_lon": 0.0, "fusion_lat": 0.0, "name": "4bda7ea47cebe7b5c5ad569b4f96ee45", "type": "electric_scooter", "is_disabled": 0, "lat": 38.91734666666667, "rental_uris": {"android": "https://dc.lft.to/lastmile_qr_scan", "ios": "https://dc.lft.to/lastmile_qr_scan"}, "bike_id": "4bda7ea47cebe7b5c5ad569b4f96ee45", "lon": -77.0211115}, {"is_reserved": 0, "fusion_lon": 0.0, "fusion_lat": 0.0, "name": "93826a699ffd6965861389210514a99a", "type": "electric_scooter", "is_disabled": 0, "lat": 38.896023666666665, "rental_uris": {"android": "https://dc.lft.to/lastmile_qr_scan", "ios": "https://dc.lft.to/lastmile_qr_scan"}, "bike_id": "93826a699ffd6965861389210514a99a", "lon": -77.03175333333333}, {"is_reserved": 0, "fusion_lon": 0.0, "fusion_lat": 0.0, "name": "b4eb2dfc0100bcdbdf992501c4370f8d", "type": "electric_scooter", "is_disabled": 0, "lat": 38.906729166666665, "rental_uris": {"android": "https://dc.lft.to/lastmile_qr_scan", "ios": "https://dc.lft.to/lastmile_qr_scan"}, "bike_id": "b4eb2dfc0100bcdbdf992501c4370f8d", "lon": -77.0384295}, {"is_reserved": 0, "fusion_lon": 0.0, "fusion_lat": 0.0, "name": "c07f4f7d90816e30fdcf1c982145882c", "type": "electric_scooter", "is_disabled": 0, "lat": 38.89844866666667, "rental_uris": {"android": "https://dc.lft.to/lastmile_qr_scan", "ios": "https://dc.lft.to/lastmile_qr_scan"}, "bike_id": "c07f4f7d90816e30fdcf1c982145882c", "lon": -76.98178333333334}, {"is_reserved": 0, "fusion_lon": 0.0, "fusion_lat": 0.0, "name": "9ed93e104dd960c9f4321af88e6c2821", "type": "electric_scooter", "is_disabled": 0, "lat": 38.8830325, "rental_uris": {"android": "https://dc.lft.to/lastmile_qr_scan", "ios": "https://dc.lft.to/lastmile_qr_scan"}, "bike_id": "9ed93e104dd960c9f4321af88e6c2821", "lon": -77.03150433333333}, {"is_reserved": 0, "fusion_lon": 0.0, "fusion_lat": 0.0, "name": "813fb2067e990e3653d818036c211506", "type": "electric_scooter", "is_disabled": 0, "lat": 38.89543316666666, "rental_uris": {"android": "https://dc.lft.to/lastmile_qr_scan", "ios": "https://dc.lft.to/lastmile_qr_scan"}, "bike_id": "813fb2067e990e3653d818036c211506", "lon": -77.03261866666666}, {"is_reserved": 0, "fusion_lon": 0.0, "fusion_lat": 0.0, "name": "e3a1761b54a766fd2debd489ebfd50c0", "type": "electric_scooter", "is_disabled": 0, "lat": 38.882255666666666, "rental_uris": {"android": "https://dc.lft.to/lastmile_qr_scan", "ios": "https://dc.lft.to/lastmile_qr_scan"}, "bike_id": "e3a1761b54a766fd2debd489ebfd50c0", "lon": -76.98979766666666}, {"is_reserved": 0, "fusion_lon": 0.0, "fusion_lat": 0.0, "name": "6603ea43489e42686f7331e1fec0076c", "type": "electric_bike", "is_disabled": 0, "lat": 38.934849, "rental_uris": {"android": "https://dc.lft.to/lastmile_qr_scan", "ios": "https://dc.lft.to/lastmile_qr_scan"}, "bike_id": "6603ea43489e42686f7331e1fec0076c", "lon": -77.0302255}, {"is_reserved": 0, "fusion_lon": 0.0, "fusion_lat": 0.0, "name": "67e78579fb7ea25d94ad2b1dc4a1e353", "type": "electric_scooter", "is_disabled": 0, "lat": 38.887284, "rental_uris": {"android": "https://dc.lft.to/lastmile_qr_scan", "ios": "https://dc.lft.to/lastmile_qr_scan"}, "bike_id": "67e78579fb7ea25d94ad2b1dc4a1e353", "lon": -77.02833866666667}, {"is_reserved": 0, "fusion_lon": 0.0, "fusion_lat": 0.0, "name": "744eb7e8d7e9ac0ad23ecd4f37751765", "type": "electric_scooter", "is_disabled": 0, "lat": 38.9002295, "rental_uris": {"android": "https://dc.lft.to/lastmile_qr_scan", "ios": "https://dc.lft.to/lastmile_qr_scan"}, "bike_id": "744eb7e8d7e9ac0ad23ecd4f37751765", "lon": -77.03365716666667}, {"is_reserved": 0, "fusion_lon": 0.0, "fusion_lat": 0.0, "name": "e47361624bbee23b4b62b34230734d72", "type": "electric_scooter", "is_disabled": 0, "lat": 38.9108145, "rental_uris": {"android": "https://dc.lft.to/lastmile_qr_scan", "ios": "https://dc.lft.to/lastmile_qr_scan"}, "bike_id": "e47361624bbee23b4b62b34230734d72", "lon": -77.0654625}, {"is_reserved": 0, "fusion_lon": 0.0, "fusion_lat": 0.0, "name": "47d10f0542ef8d5e335e4f30a0abdde4", "type": "electric_scooter", "is_disabled": 0, "lat": 38.900155, "rental_uris": {"android": "https://dc.lft.to/lastmile_qr_scan", "ios": "https://dc.lft.to/lastmile_qr_scan"}, "bike_id": "47d10f0542ef8d5e335e4f30a0abdde4", "lon": -77.04395133333334}, {"is_reserved": 0, "fusion_lon": 0.0, "fusion_lat": 0.0, "name": "1cd2ee4055bcbb4cbe78f2e88657f6a5", "type": "electric_scooter", "is_disabled": 0, "lat": 38.88319166666667, "rental_uris": {"android": "https://dc.lft.to/lastmile_qr_scan", "ios": "https://dc.lft.to/lastmile_qr_scan"}, "bike_id": "1cd2ee4055bcbb4cbe78f2e88657f6a5", "lon": -77.01698133333333}, {"is_reserved": 0, "fusion_lon": 0.0, "fusion_lat": 0.0, "name": "8f1f91b7756ea68f032911f6971a5129", "type": "electric_bike", "is_disabled": 0, "lat": 38.807082, "rental_uris": {"android": "https://dc.lft.to/lastmile_qr_scan", "ios": "https://dc.lft.to/lastmile_qr_scan"}, "bike_id": "8f1f91b7756ea68f032911f6971a5129", "lon": -77.06172683333334}, {"is_reserved": 0, "fusion_lon": 0.0, "fusion_lat": 0.0, "name": "5cc9ba1836d355ddb7eb4a5d255bd39d", "type": "electric_scooter", "is_disabled": 0, "lat": 38.90983033333333, "rental_uris": {"android": "https://dc.lft.to/lastmile_qr_scan", "ios": "https://dc.lft.to/lastmile_qr_scan"}, "bike_id": "5cc9ba1836d355ddb7eb4a5d255bd39d", "lon": -77.04867033333333}, {"is_reserved": 0, "fusion_lon": 0.0, "fusion_lat": 0.0, "name": "ab6285605031d05eb6d94471b596619f", "type": "electric_scooter", "is_disabled": 0, "lat": 38.897491, "rental_uris": {"android": "https://dc.lft.to/lastmile_qr_scan", "ios": "https://dc.lft.to/lastmile_qr_scan"}, "bike_id": "ab6285605031d05eb6d94471b596619f", "lon": -77.04663183333334}, {"is_reserved": 0, "fusion_lon": 0.0, "fusion_lat": 0.0, "name": "6df8231c8784146f85b94e5e95507153", "type": "electric_scooter", "is_disabled": 0, "lat": 38.902055, "rental_uris": {"android": "https://dc.lft.to/lastmile_qr_scan", "ios": "https://dc.lft.to/lastmile_qr_scan"}, "bike_id": "6df8231c8784146f85b94e5e95507153", "lon": -76.97604633333333}, {"is_reserved": 0, "fusion_lon": 0.0, "fusion_lat": 0.0, "name": "a462ffaabd1955747ef0809947d09bd7", "type": "electric_scooter", "is_disabled": 0, "lat": 38.92826983333333, "rental_uris": {"android": "https://dc.lft.to/lastmile_qr_scan", "ios": "https://dc.lft.to/lastmile_qr_scan"}, "bike_id": "a462ffaabd1955747ef0809947d09bd7", "lon": -77.01410733333333}, {"is_reserved": 0, "fusion_lon": 0.0, "fusion_lat": 0.0, "name": "64352008fd2b8be25c995a5353d8a543", "type": "electric_scooter", "is_disabled": 0, "lat": 38.9006585, "rental_uris": {"android": "https://dc.lft.to/lastmile_qr_scan", "ios": "https://dc.lft.to/lastmile_qr_scan"}, "bike_id": "64352008fd2b8be25c995a5353d8a543", "lon": -77.01294133333333}, {"is_reserved": 0, "fusion_lon": 0.0, "fusion_lat": 0.0, "name": "aaa9d2c800274e0335c35fcebca0ad2a", "type": "electric_bike", "is_disabled": 0, "lat": 38.80762683333333, "rental_uris": {"android": "https://dc.lft.to/lastmile_qr_scan", "ios": "https://dc.lft.to/lastmile_qr_scan"}, "bike_id": "aaa9d2c800274e0335c35fcebca0ad2a", "lon": -77.09473966666667}, {"is_reserved": 0, "fusion_lon": 0.0, "fusion_lat": 0.0, "name": "b4b7a016dd137735dee5ac93489e33b9", "type": "electric_scooter", "is_disabled": 0, "lat": 38.886089166666665, "rental_uris": {"android": "https://dc.lft.to/lastmile_qr_scan", "ios": "https://dc.lft.to/lastmile_qr_scan"}, "bike_id": "b4b7a016dd137735dee5ac93489e33b9", "lon": -76.95582766666666}, {"is_reserved": 0, "fusion_lon": 0.0, "fusion_lat": 0.0, "name": "c42b107d05c1eb6284517251e814f16a", "type": "electric_scooter", "is_disabled": 0, "lat": 38.866966, "rental_uris": {"android": "https://dc.lft.to/lastmile_qr_scan", "ios": "https://dc.lft.to/lastmile_qr_scan"}, "bike_id": "c42b107d05c1eb6284517251e814f16a", "lon": -76.98592116666667}, {"is_reserved": 0, "fusion_lon": 0.0, "fusion_lat": 0.0, "name": "5c29de279106d3457e87a1f482dcde1e", "type": "electric_scooter", "is_disabled": 0, "lat": 38.924313, "rental_uris": {"android": "https://dc.lft.to/lastmile_qr_scan", "ios": "https://dc.lft.to/lastmile_qr_scan"}, "bike_id": "5c29de279106d3457e87a1f482dcde1e", "lon": -77.00068933333333}, {"is_reserved": 0, "fusion_lon": 0.0, "fusion_lat": 0.0, "name": "33c74f36c09ebd4276f90d46eb012ac5", "type": "electric_scooter", "is_disabled": 0, "lat": 38.884116, "rental_uris": {"android": "https://dc.lft.to/lastmile_qr_scan", "ios": "https://dc.lft.to/lastmile_qr_scan"}, "bike_id": "33c74f36c09ebd4276f90d46eb012ac5", "lon": -76.95377433333333}, {"is_reserved": 0, "fusion_lon": 0.0, "fusion_lat": 0.0, "name": "3802620b57a9122ca8273d9fe4057ba1", "type": "electric_bike", "is_disabled": 0, "lat": 38.908351333333336, "rental_uris": {"android": "https://dc.lft.to/lastmile_qr_scan", "ios": "https://dc.lft.to/lastmile_qr_scan"}, "bike_id": "3802620b57a9122ca8273d9fe4057ba1", "lon": -76.93307583333333}, {"is_reserved": 0, "fusion_lon": 0.0, "fusion_lat": 0.0, "name": "702b929f03790f6674ab9bf2f5fa2d4f", "type": "electric_scooter", "is_disabled": 0, "lat": 38.885086666666666, "rental_uris": {"android": "https://dc.lft.to/lastmile_qr_scan", "ios": "https://dc.lft.to/lastmile_qr_scan"}, "bike_id": "702b929f03790f6674ab9bf2f5fa2d4f", "lon": -76.99756133333334}, {"is_reserved": 0, "fusion_lon": 0.0, "fusion_lat": 0.0, "name": "7f0d0c8c1be9ce74758f1b88e0b359ff", "type": "electric_scooter", "is_disabled": 0, "lat": 38.922870333333336, "rental_uris": {"android": "https://dc.lft.to/lastmile_qr_scan", "ios": "https://dc.lft.to/lastmile_qr_scan"}, "bike_id": "7f0d0c8c1be9ce74758f1b88e0b359ff", "lon": -77.04025733333333}, {"is_reserved": 0, "fusion_lon": 0.0, "fusion_lat": 0.0, "name": "99e6a0c6099fdf3005b98c1e36852e61", "type": "electric_scooter", "is_disabled": 0, "lat": 38.8625145, "rental_uris": {"android": "https://dc.lft.to/lastmile_qr_scan", "ios": "https://dc.lft.to/lastmile_qr_scan"}, "bike_id": "99e6a0c6099fdf3005b98c1e36852e61", "lon": -76.995349}, {"is_reserved": 0, "fusion_lon": 0.0, "fusion_lat": 0.0, "name": "031801e277c985d7d3a633f42f61701f", "type": "electric_bike", "is_disabled": 0, "lat": 38.83935183333333, "rental_uris": {"android": "https://dc.lft.to/lastmile_qr_scan", "ios": "https://dc.lft.to/lastmile_qr_scan"}, "bike_id": "031801e277c985d7d3a633f42f61701f", "lon": -77.079053}, {"is_reserved": 0, "fusion_lon": 0.0, "fusion_lat": 0.0, "name": "60580f6a546759bd6db7b0d6092cb1f4", "type": "electric_scooter", "is_disabled": 0, "lat": 38.910692833333336, "rental_uris": {"android": "https://dc.lft.to/lastmile_qr_scan", "ios": "https://dc.lft.to/lastmile_qr_scan"}, "bike_id": "60580f6a546759bd6db7b0d6092cb1f4", "lon": -77.04246983333333}, {"is_reserved": 0, "fusion_lon": 0.0, "fusion_lat": 0.0, "name": "20193a156a3d6d6b316a3695bb2cc8e5", "type": "electric_scooter", "is_disabled": 0, "lat": 38.9313815, "rental_uris": {"android": "https://dc.lft.to/lastmile_qr_scan", "ios": "https://dc.lft.to/lastmile_qr_scan"}, "bike_id": "20193a156a3d6d6b316a3695bb2cc8e5", "lon": -77.04394833333333}, {"is_reserved": 0, "fusion_lon": 0.0, "fusion_lat": 0.0, "name": "2d5ee5bcd6a8c3c88e691094dfc72342", "type": "electric_scooter", "is_disabled": 0, "lat": 38.900691, "rental_uris": {"android": "https://dc.lft.to/lastmile_qr_scan", "ios": "https://dc.lft.to/lastmile_qr_scan"}, "bike_id": "2d5ee5bcd6a8c3c88e691094dfc72342", "lon": -77.00204766666667}, {"is_reserved": 0, "fusion_lon": 0.0, "fusion_lat": 0.0, "name": "ce0aedf25978efdebcba7a2b442afb49", "type": "electric_scooter", "is_disabled": 0, "lat": 38.911914833333334, "rental_uris": {"android": "https://dc.lft.to/lastmile_qr_scan", "ios": "https://dc.lft.to/lastmile_qr_scan"}, "bike_id": "ce0aedf25978efdebcba7a2b442afb49", "lon": -77.06086333333333}, {"is_reserved": 0, "fusion_lon": 0.0, "fusion_lat": 0.0, "name": "a4664474555df212c0abc2d8f45fc98f", "type": "electric_scooter", "is_disabled": 0, "lat": 38.94034766666667, "rental_uris": {"android": "https://dc.lft.to/lastmile_qr_scan", "ios": "https://dc.lft.to/lastmile_qr_scan"}, "bike_id": "a4664474555df212c0abc2d8f45fc98f", "lon": -77.02901133333333}, {"is_reserved": 0, "fusion_lon": 0.0, "fusion_lat": 0.0, "name": "1e5d43cb6205797c696f02a0dfad952d", "type": "electric_bike", "is_disabled": 0, "lat": 38.90318, "rental_uris": {"android": "https://dc.lft.to/lastmile_qr_scan", "ios": "https://dc.lft.to/lastmile_qr_scan"}, "bike_id": "1e5d43cb6205797c696f02a0dfad952d", "lon": -76.9121665}, {"is_reserved": 0, "fusion_lon": 0.0, "fusion_lat": 0.0, "name": "f5fe70d5705c258613c1997a6bee8d25", "type": "electric_scooter", "is_disabled": 0, "lat": 38.900544333333336, "rental_uris": {"android": "https://dc.lft.to/lastmile_qr_scan", "ios": "https://dc.lft.to/lastmile_qr_scan"}, "bike_id": "f5fe70d5705c258613c1997a6bee8d25", "lon": -77.00178016666666}, {"is_reserved": 0, "fusion_lon": 0.0, "fusion_lat": 0.0, "name": "d07cdf4aa306fd40c197f5d49b908127", "type": "electric_scooter", "is_disabled": 0, "lat": 38.864595666666666, "rental_uris": {"android": "https://dc.lft.to/lastmile_qr_scan", "ios": "https://dc.lft.to/lastmile_qr_scan"}, "bike_id": "d07cdf4aa306fd40c197f5d49b908127", "lon": -76.977341}, {"is_reserved": 0, "fusion_lon": 0.0, "fusion_lat": 0.0, "name": "0ead441737d45c388be7eab102332ab6", "type": "electric_scooter", "is_disabled": 0, "lat": 38.93707583333333, "rental_uris": {"android": "https://dc.lft.to/lastmile_qr_scan", "ios": "https://dc.lft.to/lastmile_qr_scan"}, "bike_id": "0ead441737d45c388be7eab102332ab6", "lon": -77.02476066666667}, {"is_reserved": 0, "fusion_lon": 0.0, "fusion_lat": 0.0, "name": "1454572e101b10e7e0f0f227cbc6d4c5", "type": "electric_scooter", "is_disabled": 0, "lat": 38.91681783333333, "rental_uris": {"android": "https://dc.lft.to/lastmile_qr_scan", "ios": "https://dc.lft.to/lastmile_qr_scan"}, "bike_id": "1454572e101b10e7e0f0f227cbc6d4c5", "lon": -77.02951616666667}, {"is_reserved": 0, "fusion_lon": 0.0, "fusion_lat": 0.0, "name": "bcaa05d673a195e4862cf0516d6dbff3", "type": "electric_scooter", "is_disabled": 0, "lat": 38.92137866666667, "rental_uris": {"android": "https://dc.lft.to/lastmile_qr_scan", "ios": "https://dc.lft.to/lastmile_qr_scan"}, "bike_id": "bcaa05d673a195e4862cf0516d6dbff3", "lon": -77.02060433333334}, {"is_reserved": 0, "fusion_lon": 0.0, "fusion_lat": 0.0, "name": "3078d1a6d36830695af5de03ec956cbb", "type": "electric_scooter", "is_disabled": 0, "lat": 38.91868383333333, "rental_uris": {"android": "https://dc.lft.to/lastmile_qr_scan", "ios": "https://dc.lft.to/lastmile_qr_scan"}, "bike_id": "3078d1a6d36830695af5de03ec956cbb", "lon": -77.0256335}, {"is_reserved": 0, "fusion_lon": 0.0, "fusion_lat": 0.0, "name": "d86f4834f6faf3f94adf9d188c5db245", "type": "electric_scooter", "is_disabled": 0, "lat": 38.9349055, "rental_uris": {"android": "https://dc.lft.to/lastmile_qr_scan", "ios": "https://dc.lft.to/lastmile_qr_scan"}, "bike_id": "d86f4834f6faf3f94adf9d188c5db245", "lon": -77.03651983333333}, {"is_reserved": 0, "fusion_lon": 0.0, "fusion_lat": 0.0, "name": "d78c2c38518ad4f7d305928b3c711d87", "type": "electric_scooter", "is_disabled": 0, "lat": 38.92312783333333, "rental_uris": {"android": "https://dc.lft.to/lastmile_qr_scan", "ios": "https://dc.lft.to/lastmile_qr_scan"}, "bike_id": "d78c2c38518ad4f7d305928b3c711d87", "lon": -77.04345716666667}, {"is_reserved": 0, "fusion_lon": 0.0, "fusion_lat": 0.0, "name": "d4876f50e760643c3db3ea3f264d8ce2", "type": "electric_scooter", "is_disabled": 0, "lat": 38.917701666666666, "rental_uris": {"android": "https://dc.lft.to/lastmile_qr_scan", "ios": "https://dc.lft.to/lastmile_qr_scan"}, "bike_id": "d4876f50e760643c3db3ea3f264d8ce2", "lon": -77.02312383333333}, {"is_reserved": 0, "fusion_lon": 0.0, "fusion_lat": 0.0, "name": "16844b813d15a382378852b4c2ca8a8a", "type": "electric_scooter", "is_disabled": 0, "lat": 38.882804, "rental_uris": {"android": "https://dc.lft.to/lastmile_qr_scan", "ios": "https://dc.lft.to/lastmile_qr_scan"}, "bike_id": "16844b813d15a382378852b4c2ca8a8a", "lon": -76.9877695}, {"is_reserved": 0, "fusion_lon": 0.0, "fusion_lat": 0.0, "name": "de3338d8f3e990baef7c7c031e2e3c5f", "type": "electric_scooter", "is_disabled": 0, "lat": 38.905863833333335, "rental_uris": {"android": "https://dc.lft.to/lastmile_qr_scan", "ios": "https://dc.lft.to/lastmile_qr_scan"}, "bike_id": "de3338d8f3e990baef7c7c031e2e3c5f", "lon": -77.0239405}, {"is_reserved": 0, "fusion_lon": 0.0, "fusion_lat": 0.0, "name": "061451001f0f1357fc4fedcb29711cc2", "type": "electric_bike", "is_disabled": 0, "lat": 38.945499833333336, "rental_uris": {"android": "https://dc.lft.to/lastmile_qr_scan", "ios": "https://dc.lft.to/lastmile_qr_scan"}, "bike_id": "061451001f0f1357fc4fedcb29711cc2", "lon": -76.895364}, {"is_reserved": 0, "fusion_lon": 0.0, "fusion_lat": 0.0, "name": "c5aafbf357b56b8d427f82fc17a8d2bf", "type": "electric_bike", "is_disabled": 0, "lat": 38.90557233333333, "rental_uris": {"android": "https://dc.lft.to/lastmile_qr_scan", "ios": "https://dc.lft.to/lastmile_qr_scan"}, "bike_id": "c5aafbf357b56b8d427f82fc17a8d2bf", "lon": -77.06270083333334}, {"is_reserved": 0, "fusion_lon": 0.0, "fusion_lat": 0.0, "name": "43b593319b48688af74d105b7b03f70b", "type": "electric_scooter", "is_disabled": 0, "lat": 38.935319166666666, "rental_uris": {"android": "https://dc.lft.to/lastmile_qr_scan", "ios": "https://dc.lft.to/lastmile_qr_scan"}, "bike_id": "43b593319b48688af74d105b7b03f70b", "lon": -77.02350266666667}, {"is_reserved": 0, "fusion_lon": 0.0, "fusion_lat": 0.0, "name": "3c3dc16f1e23a1fa6056f5d696cade72", "type": "electric_scooter", "is_disabled": 0, "lat": 38.94261433333333, "rental_uris": {"android": "https://dc.lft.to/lastmile_qr_scan", "ios": "https://dc.lft.to/lastmile_qr_scan"}, "bike_id": "3c3dc16f1e23a1fa6056f5d696cade72", "lon": -77.02842783333334}, {"is_reserved": 0, "fusion_lon": 0.0, "fusion_lat": 0.0, "name": "6b9d922230fb221d65a0cc79eef24cda", "type": "electric_scooter", "is_disabled": 0, "lat": 38.951501, "rental_uris": {"android": "https://dc.lft.to/lastmile_qr_scan", "ios": "https://dc.lft.to/lastmile_qr_scan"}, "bike_id": "6b9d922230fb221d65a0cc79eef24cda", "lon": -77.01865183333334}, {"is_reserved": 0, "fusion_lon": 0.0, "fusion_lat": 0.0, "name": "6f7db681d49b0fc0f3717f523fadc14b", "type": "electric_scooter", "is_disabled": 0, "lat": 38.9222635, "rental_uris": {"android": "https://dc.lft.to/lastmile_qr_scan", "ios": "https://dc.lft.to/lastmile_qr_scan"}, "bike_id": "6f7db681d49b0fc0f3717f523fadc14b", "lon": -77.037349}, {"is_reserved": 0, "fusion_lon": 0.0, "fusion_lat": 0.0, "name": "a7c6db580be0734dd8813b5ef5be15fd", "type": "electric_scooter", "is_disabled": 0, "lat": 38.88610333333333, "rental_uris": {"android": "https://dc.lft.to/lastmile_qr_scan", "ios": "https://dc.lft.to/lastmile_qr_scan"}, "bike_id": "a7c6db580be0734dd8813b5ef5be15fd", "lon": -76.9965375}, {"is_reserved": 0, "fusion_lon": 0.0, "fusion_lat": 0.0, "name": "48c39520bde57aa9518743d997e78682", "type": "electric_scooter", "is_disabled": 0, "lat": 38.91337933333333, "rental_uris": {"android": "https://dc.lft.to/lastmile_qr_scan", "ios": "https://dc.lft.to/lastmile_qr_scan"}, "bike_id": "48c39520bde57aa9518743d997e78682", "lon": -77.01032233333333}, {"is_reserved": 0, "fusion_lon": 0.0, "fusion_lat": 0.0, "name": "08a127a34a7921d6040e68d7622bfa21", "type": "electric_scooter", "is_disabled": 0, "lat": 38.905821333333336, "rental_uris": {"android": "https://dc.lft.to/lastmile_qr_scan", "ios": "https://dc.lft.to/lastmile_qr_scan"}, "bike_id": "08a127a34a7921d6040e68d7622bfa21", "lon": -77.02380266666667}, {"is_reserved": 0, "fusion_lon": 0.0, "fusion_lat": 0.0, "name": "90691dfbd6d05739fab7bace0800b289", "type": "electric_scooter", "is_disabled": 0, "lat": 38.90676633333333, "rental_uris": {"android": "https://dc.lft.to/lastmile_qr_scan", "ios": "https://dc.lft.to/lastmile_qr_scan"}, "bike_id": "90691dfbd6d05739fab7bace0800b289", "lon": -76.9866445}, {"is_reserved": 0, "fusion_lon": 0.0, "fusion_lat": 0.0, "name": "92c1b13cd9220fafb96f8c942e5b3774", "type": "electric_scooter", "is_disabled": 0, "lat": 38.91061966666667, "rental_uris": {"android": "https://dc.lft.to/lastmile_qr_scan", "ios": "https://dc.lft.to/lastmile_qr_scan"}, "bike_id": "92c1b13cd9220fafb96f8c942e5b3774", "lon": -77.04085633333334}, {"is_reserved": 0, "fusion_lon": 0.0, "fusion_lat": 0.0, "name": "96611a1c7f474d6b8355a98f25983882", "type": "electric_scooter", "is_disabled": 0, "lat": 38.92583466666667, "rental_uris": {"android": "https://dc.lft.to/lastmile_qr_scan", "ios": "https://dc.lft.to/lastmile_qr_scan"}, "bike_id": "96611a1c7f474d6b8355a98f25983882", "lon": -77.02682666666666}, {"is_reserved": 0, "fusion_lon": 0.0, "fusion_lat": 0.0, "name": "932bbeb1408bee5c5affe73b46b930fb", "type": "electric_scooter", "is_disabled": 0, "lat": 38.930459166666665, "rental_uris": {"android": "https://dc.lft.to/lastmile_qr_scan", "ios": "https://dc.lft.to/lastmile_qr_scan"}, "bike_id": "932bbeb1408bee5c5affe73b46b930fb", "lon": -77.03796966666667}, {"is_reserved": 0, "fusion_lon": 0.0, "fusion_lat": 0.0, "name": "7723479b53af1c23c329de616e6fc770", "type": "electric_scooter", "is_disabled": 0, "lat": 38.95322216666667, "rental_uris": {"android": "https://dc.lft.to/lastmile_qr_scan", "ios": "https://dc.lft.to/lastmile_qr_scan"}, "bike_id": "7723479b53af1c23c329de616e6fc770", "lon": -77.070729}, {"is_reserved": 0, "fusion_lon": 0.0, "fusion_lat": 0.0, "name": "f837897435a09c58481c028640bd2e18", "type": "electric_scooter", "is_disabled": 0, "lat": 38.902803666666664, "rental_uris": {"android": "https://dc.lft.to/lastmile_qr_scan", "ios": "https://dc.lft.to/lastmile_qr_scan"}, "bike_id": "f837897435a09c58481c028640bd2e18", "lon": -77.05807366666667}, {"is_reserved": 0, "fusion_lon": 0.0, "fusion_lat": 0.0, "name": "ded0008ece503050135438298c0973ad", "type": "electric_scooter", "is_disabled": 0, "lat": 38.9036055, "rental_uris": {"android": "https://dc.lft.to/lastmile_qr_scan", "ios": "https://dc.lft.to/lastmile_qr_scan"}, "bike_id": "ded0008ece503050135438298c0973ad", "lon": -77.04020283333334}, {"is_reserved": 0, "fusion_lon": 0.0, "fusion_lat": 0.0, "name": "aaffc5cc7e29d82aa73e94d5dcc83782", "type": "electric_scooter", "is_disabled": 0, "lat": 38.90786166666667, "rental_uris": {"android": "https://dc.lft.to/lastmile_qr_scan", "ios": "https://dc.lft.to/lastmile_qr_scan"}, "bike_id": "aaffc5cc7e29d82aa73e94d5dcc83782", "lon": -77.07260716666667}, {"is_reserved": 0, "fusion_lon": 0.0, "fusion_lat": 0.0, "name": "de2d5ce62f02cde448127bba78441835", "type": "electric_bike", "is_disabled": 0, "lat": 39.057913666666664, "rental_uris": {"android": "https://dc.lft.to/lastmile_qr_scan", "ios": "https://dc.lft.to/lastmile_qr_scan"}, "bike_id": "de2d5ce62f02cde448127bba78441835", "lon": -77.1502325}, {"is_reserved": 0, "fusion_lon": 0.0, "fusion_lat": 0.0, "name": "8ecbb6779c895bcd4ef476f51abead92", "type": "electric_scooter", "is_disabled": 0, "lat": 38.89513933333333, "rental_uris": {"android": "https://dc.lft.to/lastmile_qr_scan", "ios": "https://dc.lft.to/lastmile_qr_scan"}, "bike_id": "8ecbb6779c895bcd4ef476f51abead92", "lon": -77.03961183333334}, {"is_reserved": 0, "fusion_lon": 0.0, "fusion_lat": 0.0, "name": "4a347239228c191b0fa07b7f9f061b16", "type": "electric_scooter", "is_disabled": 0, "lat": 38.923244333333336, "rental_uris": {"android": "https://dc.lft.to/lastmile_qr_scan", "ios": "https://dc.lft.to/lastmile_qr_scan"}, "bike_id": "4a347239228c191b0fa07b7f9f061b16", "lon": -77.03545033333333}, {"is_reserved": 0, "fusion_lon": 0.0, "fusion_lat": 0.0, "name": "48cc40950d6c862e148ef5054ab40c11", "type": "electric_scooter", "is_disabled": 0, "lat": 38.92450016666667, "rental_uris": {"android": "https://dc.lft.to/lastmile_qr_scan", "ios": "https://dc.lft.to/lastmile_qr_scan"}, "bike_id": "48cc40950d6c862e148ef5054ab40c11", "lon": -77.05749433333334}, {"is_reserved": 0, "fusion_lon": 0.0, "fusion_lat": 0.0, "name": "1354686aab15b397a46ddb89b37a1541", "type": "electric_scooter", "is_disabled": 0, "lat": 38.90630383333333, "rental_uris": {"android": "https://dc.lft.to/lastmile_qr_scan", "ios": "https://dc.lft.to/lastmile_qr_scan"}, "bike_id": "1354686aab15b397a46ddb89b37a1541", "lon": -77.04870083333333}, {"is_reserved": 0, "fusion_lon": 0.0, "fusion_lat": 0.0, "name": "9acd5e247b15e8c3898cbd4557fdc7bd", "type": "electric_scooter", "is_disabled": 0, "lat": 38.91568783333334, "rental_uris": {"android": "https://dc.lft.to/lastmile_qr_scan", "ios": "https://dc.lft.to/lastmile_qr_scan"}, "bike_id": "9acd5e247b15e8c3898cbd4557fdc7bd", "lon": -77.01988433333334}, {"is_reserved": 0, "fusion_lon": 0.0, "fusion_lat": 0.0, "name": "773fc188626dad56e1e19a114f004b73", "type": "electric_scooter", "is_disabled": 0, "lat": 38.917889333333335, "rental_uris": {"android": "https://dc.lft.to/lastmile_qr_scan", "ios": "https://dc.lft.to/lastmile_qr_scan"}, "bike_id": "773fc188626dad56e1e19a114f004b73", "lon": -77.04012733333333}, {"is_reserved": 0, "fusion_lon": 0.0, "fusion_lat": 0.0, "name": "1433c3e8f0279378d83f1f9104c40c11", "type": "electric_bike", "is_disabled": 0, "lat": 39.062945, "rental_uris": {"android": "https://dc.lft.to/lastmile_qr_scan", "ios": "https://dc.lft.to/lastmile_qr_scan"}, "bike_id": "1433c3e8f0279378d83f1f9104c40c11", "lon": -77.04981983333333}, {"is_reserved": 0, "fusion_lon": 0.0, "fusion_lat": 0.0, "name": "cd75315f810a0e42ce77691950f28914", "type": "electric_scooter", "is_disabled": 0, "lat": 38.892197833333334, "rental_uris": {"android": "https://dc.lft.to/lastmile_qr_scan", "ios": "https://dc.lft.to/lastmile_qr_scan"}, "bike_id": "cd75315f810a0e42ce77691950f28914", "lon": -77.023501}, {"is_reserved": 0, "fusion_lon": 0.0, "fusion_lat": 0.0, "name": "af1acf7951292bc90482141a16d78123", "type": "electric_scooter", "is_disabled": 0, "lat": 38.906402666666665, "rental_uris": {"android": "https://dc.lft.to/lastmile_qr_scan", "ios": "https://dc.lft.to/lastmile_qr_scan"}, "bike_id": "af1acf7951292bc90482141a16d78123", "lon": -77.04817883333334}, {"is_reserved": 0, "fusion_lon": 0.0, "fusion_lat": 0.0, "name": "ab11400dbd011112f207441e44bd0072", "type": "electric_scooter", "is_disabled": 0, "lat": 38.8830265, "rental_uris": {"android": "https://dc.lft.to/lastmile_qr_scan", "ios": "https://dc.lft.to/lastmile_qr_scan"}, "bike_id": "ab11400dbd011112f207441e44bd0072", "lon": -76.978609}, {"is_reserved": 0, "fusion_lon": 0.0, "fusion_lat": 0.0, "name": "86ef828423b364405e8ac650de830488", "type": "electric_scooter", "is_disabled": 0, "lat": 38.899159833333336, "rental_uris": {"android": "https://dc.lft.to/lastmile_qr_scan", "ios": "https://dc.lft.to/lastmile_qr_scan"}, "bike_id": "86ef828423b364405e8ac650de830488", "lon": -76.9338265}, {"is_reserved": 0, "fusion_lon": 0.0, "fusion_lat": 0.0, "name": "b1871be5ea3a3331fc3c5b9219ae47ad", "type": "electric_scooter", "is_disabled": 0, "lat": 38.89319366666667, "rental_uris": {"android": "https://dc.lft.to/lastmile_qr_scan", "ios": "https://dc.lft.to/lastmile_qr_scan"}, "bike_id": "b1871be5ea3a3331fc3c5b9219ae47ad", "lon": -76.94314466666667}, {"is_reserved": 0, "fusion_lon": 0.0, "fusion_lat": 0.0, "name": "cceefb961b3d7c30e0127af3ee43f3b6", "type": "electric_scooter", "is_disabled": 0, "lat": 38.91760166666667, "rental_uris": {"android": "https://dc.lft.to/lastmile_qr_scan", "ios": "https://dc.lft.to/lastmile_qr_scan"}, "bike_id": "cceefb961b3d7c30e0127af3ee43f3b6", "lon": -77.045549}, {"is_reserved": 0, "fusion_lon": 0.0, "fusion_lat": 0.0, "name": "15fd22cd2ef5ce743a6cc9f95dd19dab", "type": "electric_scooter", "is_disabled": 0, "lat": 38.926855, "rental_uris": {"android": "https://dc.lft.to/lastmile_qr_scan", "ios": "https://dc.lft.to/lastmile_qr_scan"}, "bike_id": "15fd22cd2ef5ce743a6cc9f95dd19dab", "lon": -77.02994933333333}, {"is_reserved": 0, "fusion_lon": 0.0, "fusion_lat": 0.0, "name": "1b2100ce15ac8657ff1bf84e4cc01194", "type": "electric_scooter", "is_disabled": 0, "lat": 38.89427, "rental_uris": {"android": "https://dc.lft.to/lastmile_qr_scan", "ios": "https://dc.lft.to/lastmile_qr_scan"}, "bike_id": "1b2100ce15ac8657ff1bf84e4cc01194", "lon": -76.911166}, {"is_reserved": 0, "fusion_lon": 0.0, "fusion_lat": 0.0, "name": "f7dfa5c6211e53b0fbb70946969b481f", "type": "electric_scooter", "is_disabled": 0, "lat": 38.907324833333334, "rental_uris": {"android": "https://dc.lft.to/lastmile_qr_scan", "ios": "https://dc.lft.to/lastmile_qr_scan"}, "bike_id": "f7dfa5c6211e53b0fbb70946969b481f", "lon": -77.00221766666667}, {"is_reserved": 0, "fusion_lon": 0.0, "fusion_lat": 0.0, "name": "73b1a27e93fba73c98b7093c33697575", "type": "electric_bike", "is_disabled": 0, "lat": 38.902711833333335, "rental_uris": {"android": "https://dc.lft.to/lastmile_qr_scan", "ios": "https://dc.lft.to/lastmile_qr_scan"}, "bike_id": "73b1a27e93fba73c98b7093c33697575", "lon": -76.92927633333333}, {"is_reserved": 0, "fusion_lon": 0.0, "fusion_lat": 0.0, "name": "25603fb252acd08bf14ecca526d2b6be", "type": "electric_scooter", "is_disabled": 0, "lat": 38.922425833333335, "rental_uris": {"android": "https://dc.lft.to/lastmile_qr_scan", "ios": "https://dc.lft.to/lastmile_qr_scan"}, "bike_id": "25603fb252acd08bf14ecca526d2b6be", "lon": -77.03088183333334}, {"is_reserved": 0, "fusion_lon": 0.0, "fusion_lat": 0.0, "name": "45861b460ea55e09f687b45ee0c10f15", "type": "electric_scooter", "is_disabled": 0, "lat": 38.97223133333333, "rental_uris": {"android": "https://dc.lft.to/lastmile_qr_scan", "ios": "https://dc.lft.to/lastmile_qr_scan"}, "bike_id": "45861b460ea55e09f687b45ee0c10f15", "lon": -77.02639333333333}, {"is_reserved": 0, "fusion_lon": 0.0, "fusion_lat": 0.0, "name": "abf428064b0cfd08e78ec8ee03e6065f", "type": "electric_scooter", "is_disabled": 0, "lat": 38.87677133333333, "rental_uris": {"android": "https://dc.lft.to/lastmile_qr_scan", "ios": "https://dc.lft.to/lastmile_qr_scan"}, "bike_id": "abf428064b0cfd08e78ec8ee03e6065f", "lon": -76.99826583333333}, {"is_reserved": 0, "fusion_lon": 0.0, "fusion_lat": 0.0, "name": "6ac4a2944a07e7334948f42c9c6945c1", "type": "electric_scooter", "is_disabled": 0, "lat": 38.892229666666665, "rental_uris": {"android": "https://dc.lft.to/lastmile_qr_scan", "ios": "https://dc.lft.to/lastmile_qr_scan"}, "bike_id": "6ac4a2944a07e7334948f42c9c6945c1", "lon": -77.0437035}, {"is_reserved": 0, "fusion_lon": 0.0, "fusion_lat": 0.0, "name": "b0d280a40fca9931afc0bfc632c8f63f", "type": "electric_scooter", "is_disabled": 0, "lat": 38.90657133333333, "rental_uris": {"android": "https://dc.lft.to/lastmile_qr_scan", "ios": "https://dc.lft.to/lastmile_qr_scan"}, "bike_id": "b0d280a40fca9931afc0bfc632c8f63f", "lon": -77.05022933333333}, {"is_reserved": 0, "fusion_lon": 0.0, "fusion_lat": 0.0, "name": "afa2d47eab42705551b6d0b7beca74bf", "type": "electric_scooter", "is_disabled": 0, "lat": 38.90546483333333, "rental_uris": {"android": "https://dc.lft.to/lastmile_qr_scan", "ios": "https://dc.lft.to/lastmile_qr_scan"}, "bike_id": "afa2d47eab42705551b6d0b7beca74bf", "lon": -77.04116816666667}, {"is_reserved": 0, "fusion_lon": 0.0, "fusion_lat": 0.0, "name": "cb4f6b4d3d598c12a602d47ebf8baeaf", "type": "electric_scooter", "is_disabled": 0, "lat": 38.90512066666667, "rental_uris": {"android": "https://dc.lft.to/lastmile_qr_scan", "ios": "https://dc.lft.to/lastmile_qr_scan"}, "bike_id": "cb4f6b4d3d598c12a602d47ebf8baeaf", "lon": -77.00136583333334}, {"is_reserved": 0, "fusion_lon": 0.0, "fusion_lat": 0.0, "name": "fda5406a72cc9383d9d8ec9cba8fe1f1", "type": "electric_bike", "is_disabled": 0, "lat": 39.04233883333333, "rental_uris": {"android": "https://dc.lft.to/lastmile_qr_scan", "ios": "https://dc.lft.to/lastmile_qr_scan"}, "bike_id": "fda5406a72cc9383d9d8ec9cba8fe1f1", "lon": -76.99739766666667}, {"is_reserved": 0, "fusion_lon": 0.0, "fusion_lat": 0.0, "name": "c8cb142d90b4c487207a66463baaf93b", "type": "electric_bike", "is_disabled": 0, "lat": 38.91546833333334, "rental_uris": {"android": "https://dc.lft.to/lastmile_qr_scan", "ios": "https://dc.lft.to/lastmile_qr_scan"}, "bike_id": "c8cb142d90b4c487207a66463baaf93b", "lon": -77.04613283333333}, {"is_reserved": 0, "fusion_lon": 0.0, "fusion_lat": 0.0, "name": "0ab1af7c4d1a65ea735b50e45d657475", "type": "electric_scooter", "is_disabled": 0, "lat": 38.907356166666666, "rental_uris": {"android": "https://dc.lft.to/lastmile_qr_scan", "ios": "https://dc.lft.to/lastmile_qr_scan"}, "bike_id": "0ab1af7c4d1a65ea735b50e45d657475", "lon": -77.02691716666666}, {"is_reserved": 0, "fusion_lon": 0.0, "fusion_lat": 0.0, "name": "12c83e0ed402285ec5adf2285c3a1b07", "type": "electric_scooter", "is_disabled": 0, "lat": 38.910995166666666, "rental_uris": {"android": "https://dc.lft.to/lastmile_qr_scan", "ios": "https://dc.lft.to/lastmile_qr_scan"}, "bike_id": "12c83e0ed402285ec5adf2285c3a1b07", "lon": -77.029736}, {"is_reserved": 0, "fusion_lon": 0.0, "fusion_lat": 0.0, "name": "ad4f8cf21f33b7ca70787f38fe340e64", "type": "electric_scooter", "is_disabled": 0, "lat": 38.951811, "rental_uris": {"android": "https://dc.lft.to/lastmile_qr_scan", "ios": "https://dc.lft.to/lastmile_qr_scan"}, "bike_id": "ad4f8cf21f33b7ca70787f38fe340e64", "lon": -77.02729816666667},