{"data": {"bikes": [{"lat": 38.919795666666666, "is_disabled": 0, "type": "electric_scooter", "lon": -77.02315383333334, "bike_id": "06c3200a27b47284bfd2328e26cd45c8", "fusion_lat": 0.0, "name": "06c3200a27b47284bfd2328e26cd45c8", "is_reserved": 0, "rental_uris": {"android": "https://dc.lft.to/lastmile_qr_scan", "ios": "https://dc.lft.to/lastmile_qr_scan"}, "fusion_lon": 0.0}, {"lat": 38.900867833333336, "is_disabled": 0, "type": "electric_scooter", "lon": -77.04919266666667, "bike_id": "3f52dcdd7494f69e12f5d5d3ad17234e", "fusion_lat": 0.0, "name": "3f52dcdd7494f69e12f5d5d3ad17234e", "is_reserved": 0, "rental_uris": {"android": "https://dc.lft.to/lastmile_qr_scan", "ios": "https://dc.lft.to/lastmile_qr_scan"}, "fusion_lon": 0.0}, {"lat": 38.91778466666667, "is_disabled": 0, "type": "electric_scooter", "lon": -77.04337383333333, "bike_id": "9f948ab9bab15019096c5d30593bd852", "fusion_lat": 0.0, "name": "9f948ab9bab15019096c5d30593bd852", "is_reserved": 0, "rental_uris": {"android": "https://dc.lft.to/lastmile_qr_scan", "ios": "https://dc.lft.to/lastmile_qr_scan"}, "fusion_lon": 0.0}, {"lat": 38.87195533333333, "is_disabled": 0, "type": "electric_bike", "lon": -77.0122235, "bike_id": "76b27fcb01b8fe50441b65b67532ec79", "fusion_lat": 0.0, "name": "76b27fcb01b8fe50441b65b67532ec79", "is_reserved": 0, "rental_uris": {"android": "https://dc.lft.to/lastmile_qr_scan", "ios": "https://dc.lft.to/lastmile_qr_scan"}, "fusion_lon": 0.0}, {"lat": 38.9246325, "is_disabled": 0, "type": "electric_scooter", "lon": -77.05234283333333, "bike_id": "ff6012e9540291c5585d7456cf806845", "fusion_lat": 0.0, "name": "ff6012e9540291c5585d7456cf806845", "is_reserved": 0, "rental_uris": {"android": "https://dc.lft.to/lastmile_qr_scan", "ios": "https://dc.lft.to/lastmile_qr_scan"}, "fusion_lon": 0.0}, {"lat": 38.892219833333336, "is_disabled": 0, "type": "electric_scooter", "lon": -77.03219033333333, "bike_id": "ae136f0504733013070ee57c170744f7", "fusion_lat": 0.0, "name": "ae136f0504733013070ee57c170744f7", "is_reserved": 0, "rental_uris": {"android": "https://dc.lft.to/lastmile_qr_scan", "ios": "https://dc.lft.to/lastmile_qr_scan"}, "fusion_lon": 0.0}, {"lat": 38.9978035, "is_disabled": 0, "type": "electric_bike", "lon": -77.00764466666666, "bike_id": "83123dce53b86d0494991c99973d2014", "fusion_lat": 0.0, "name": "83123dce53b86d0494991c99973d2014", "is_reserved": 0, "rental_uris": {"android": "https://dc.lft.to/lastmile_qr_scan", "ios": "https://dc.lft.to/lastmile_qr_scan"}, "fusion_lon": 0.0}, {"lat": 38.923636333333334, "is_disabled": 0, "type": "electric_scooter", "lon": -77.0513395, "bike_id": "1a9f66a0650541894b3bf2ffbed88ea9", "fusion_lat": 0.0, "name": "1a9f66a0650541894b3bf2ffbed88ea9", "is_reserved": 0, "rental_uris": {"android": "https://dc.lft.to/lastmile_qr_scan", "ios": "https://dc.lft.to/lastmile_qr_scan"}, "fusion_lon": 0.0}, {"lat": 38.95778216666667, "is_disabled": 0, "type": "electric_scooter", "lon": -77.02754733333333, "bike_id": "4379be9b88f73145f6842460228bd97b", "fusion_lat": 0.0, "name": "4379be9b88f73145f6842460228bd97b", "is_reserved": 0, "rental_uris": {"android": "https://dc.lft.to/lastmile_qr_scan", "ios": "https://dc.lft.to/lastmile_qr_scan"}, "fusion_lon": 0.0}, {"lat": 38.88427266666667, "is_disabled": 0, "type": "electric_scooter", "lon": -76.95749233333333, "bike_id": "669e8ed7f3fb5e8af198b7c731701865", "fusion_lat": 0.0, "name": "669e8ed7f3fb5e8af198b7c731701865", "is_reserved": 0, "rental_uris": {"android": "https://dc.lft.to/lastmile_qr_scan", "ios": "https://dc.lft.to/lastmile_qr_scan"}, "fusion_lon": 0.0}, {"lat": 38.90733483333333, "is_disabled": 0, "type": "electric_scooter", "lon": -77.03453966666666, "bike_id": "ff9fc723e137ebd3063dd0048e6902c5", "fusion_lat": 0.0, "name": "ff9fc723e137ebd3063dd0048e6902c5", "is_reserved": 0, "rental_uris": {"android": "https://dc.lft.to/lastmile_qr_scan", "ios": "https://dc.lft.to/lastmile_qr_scan"}, "fusion_lon": 0.0}, {"lat": 38.8616965, "is_disabled": 0, "type": "electric_bike", "lon": -77.131443, "bike_id": "5cbb5f57403de03147cb7319cd72bfce", "fusion_lat": 0.0, "name": "5cbb5f57403de03147cb7319cd72bfce", "is_reserved": 0, "rental_uris": {"android": "https://dc.lft.to/lastmile_qr_scan", "ios": "https://dc.lft.to/lastmile_qr_scan"}, "fusion_lon": 0.0}, {"lat": 38.921009, "is_disabled": 0, "type": "electric_scooter", "lon": -77.039474, "bike_id": "9f502af1c532fc48cc56507978eb761a", "fusion_lat": 0.0, "name": "9f502af1c532fc48cc56507978eb761a", "is_reserved": 0, "rental_uris": {"android": "https://dc.lft.to/lastmile_qr_scan", "ios": "https://dc.lft.to/lastmile_qr_scan"}, "fusion_lon": 0.0}, {"lat": 38.91546366666667, "is_disabled": 0, "type": "electric_scooter", "lon": -77.03853616666666, "bike_id": "f07ac34380e0ef3fcc7479fce21e00dd", "fusion_lat": 0.0, "name": "f07ac34380e0ef3fcc7479fce21e00dd", "is_reserved": 0, "rental_uris": {"android": "https://dc.lft.to/lastmile_qr_scan", "ios": "https://dc.lft.to/lastmile_qr_scan"}, "fusion_lon": 0.0}, {"lat": 38.8852615, "is_disabled": 0, "type": "electric_scooter", "lon": -77.01135183333334, "bike_id": "a8036d42e34a116df0075a080ed752e0", "fusion_lat": 0.0, "name": "a8036d42e34a116df0075a080ed752e0", "is_reserved": 0, "rental_uris": {"android": "https://dc.lft.to/lastmile_qr_scan", "ios": "https://dc.lft.to/lastmile_qr_scan"}, "fusion_lon": 0.0}, {"lat": 38.931182, "is_disabled": 0, "type": "electric_scooter", "lon": -77.02101516666667, "bike_id": "ecc311e1dbd8b5b99c49411d0b97ce6e", "fusion_lat": 0.0, "name": "ecc311e1dbd8b5b99c49411d0b97ce6e", "is_reserved": 0, "rental_uris": {"android": "https://dc.lft.to/lastmile_qr_scan", "ios": "https://dc.lft.to/lastmile_qr_scan"}, "fusion_lon": 0.0}, {"lat": 38.91785733333333, "is_disabled": 0, "type": "electric_bike", "lon": -76.9718905, "bike_id": "68811c0706c17173a7a7c728e6dfc4f2", "fusion_lat": 0.0, "name": "68811c0706c17173a7a7c728e6dfc4f2", "is_reserved": 0, "rental_uris": {"android": "https://dc.lft.to/lastmile_qr_scan", "ios": "https://dc.lft.to/lastmile_qr_scan"}, "fusion_lon": 0.0}, {"lat": 38.86699333333333, "is_disabled": 0, "type": "electric_scooter", "lon": -76.98714883333334, "bike_id": "af2955c324d04b2bc8e2adaf49035fda", "fusion_lat": 0.0, "name": "af2955c324d04b2bc8e2adaf49035fda", "is_reserved": 0, "rental_uris": {"android": "https://dc.lft.to/lastmile_qr_scan", "ios": "https://dc.lft.to/lastmile_qr_scan"}, "fusion_lon": 0.0}, {"lat": 38.91740433333333, "is_disabled": 0, "type": "electric_scooter", "lon": -77.031901, "bike_id": "bdcb2593214c0b64a4c56fe637b7fd1a", "fusion_lat": 0.0, "name": "bdcb2593214c0b64a4c56fe637b7fd1a", "is_reserved": 0, "rental_uris": {"android": "https://dc.lft.to/lastmile_qr_scan", "ios": "https://dc.lft.to/lastmile_qr_scan"}, "fusion_lon": 0.0}, {"lat": 38.905600166666666, "is_disabled": 0, "type": "electric_scooter", "lon": -77.0176215, "bike_id": "84f929badd33aa5d21bc3faaebff80d4", "fusion_lat": 0.0, "name": "84f929badd33aa5d21bc3faaebff80d4", "is_reserved": 0, "rental_uris": {"android": "https://dc.lft.to/lastmile_qr_scan", "ios": "https://dc.lft.to/lastmile_qr_scan"}, "fusion_lon": 0.0}, {"lat": 38.96438533333333, "is_disabled": 0, "type": "electric_bike", "lon": -77.02068666666666, "bike_id": "13fa8addd5865908bba8bb41dd4d4733", "fusion_lat": 0.0, "name": "13fa8addd5865908bba8bb41dd4d4733", "is_reserved": 0, "rental_uris": {"android": "https://dc.lft.to/lastmile_qr_scan", "ios": "https://dc.lft.to/lastmile_qr_scan"}, "fusion_lon": 0.0}, {"lat": 38.8967585, "is_disabled": 0, "type": "electric_scooter", "lon": -77.0513375, "bike_id": "5b014d75e8725f8d5f0545980191b5ca", "fusion_lat": 0.0, "name": "5b014d75e8725f8d5f0545980191b5ca", "is_reserved": 0, "rental_uris": {"android": "https://dc.lft.to/lastmile_qr_scan", "ios": "https://dc.lft.to/lastmile_qr_scan"}, "fusion_lon": 0.0}, {"lat": 38.90397, "is_disabled": 0, "type": "electric_scooter", "lon": -77.00582433333334, "bike_id": "fe13f467f0a199b7888cb62d036117d1", "fusion_lat": 0.0, "name": "fe13f467f0a199b7888cb62d036117d1", "is_reserved": 0, "rental_uris": {"android": "https://dc.lft.to/lastmile_qr_scan", "ios": "https://dc.lft.to/lastmile_qr_scan"}, "fusion_lon": 0.0}, {"lat": 38.91802666666667, "is_disabled": 0, "type": "electric_bike", "lon": -77.22336166666666, "bike_id": "a9964cea999132c8fd5a558236a2ff24", "fusion_lat": 0.0, "name": "a9964cea999132c8fd5a558236a2ff24", "is_reserved": 0, "rental_uris": {"android": "https://dc.lft.to/lastmile_qr_scan", "ios": "https://dc.lft.to/lastmile_qr_scan"}, "fusion_lon": 0.0}, {"lat": 38.876665833333334, "is_disabled": 0, "type": "electric_scooter", "lon": -77.00411233333334, "bike_id": "3c396f1f04fbaebec31dc48105d02e91", "fusion_lat": 0.0, "name": "3c396f1f04fbaebec31dc48105d02e91", "is_reserved": 0, "rental_uris": {"android": "https://dc.lft.to/lastmile_qr_scan", "ios": "https://dc.lft.to/lastmile_qr_scan"}, "fusion_lon": 0.0}, {"lat": 38.9386455, "is_disabled": 0, "type": "electric_scooter", "lon": -77.0265035, "bike_id": "e6bc24ef9c21b5d5d89097973b3b31f8", "fusion_lat": 0.0, "name": "e6bc24ef9c21b5d5d89097973b3b31f8", "is_reserved": 0, "rental_uris": {"android": "https://dc.lft.to/lastmile_qr_scan", "ios": "https://dc.lft.to/lastmile_qr_scan"}, "fusion_lon": 0.0}, {"lat": 38.958774, "is_disabled": 0, "type": "electric_bike", "lon": -77.010307, "bike_id": "68a91b2453ed345bbeadfbc56f19207c", "fusion_lat": 0.0, "name": "68a91b2453ed345bbeadfbc56f19207c", "is_reserved": 0, "rental_uris": {"android": "https://dc.lft.to/lastmile_qr_scan", "ios": "https://dc.lft.to/lastmile_qr_scan"}, "fusion_lon": 0.0}, {"lat": 38.9202055, "is_disabled": 0, "type": "electric_scooter", "lon": -77.01426616666667, "bike_id": "d06a655fa86935d21af8ad573ba5d9f7", "fusion_lat": 0.0, "name": "d06a655fa86935d21af8ad573ba5d9f7", "is_reserved": 0, "rental_uris": {"android": "https://dc.lft.to/lastmile_qr_scan", "ios": "https://dc.lft.to/lastmile_qr_scan"}, "fusion_lon": 0.0}, {"lat": 38.912678166666666, "is_disabled": 0, "type": "electric_scooter", "lon": -77.0225295, "bike_id": "dedbc33cec70c44f86eb6e5ef59fe402", "fusion_lat": 0.0, "name": "dedbc33cec70c44f86eb6e5ef59fe402", "is_reserved": 0, "rental_uris": {"android": "https://dc.lft.to/lastmile_qr_scan", "ios": "https://dc.lft.to/lastmile_qr_scan"}, "fusion_lon": 0.0}, {"lat": 38.898370666666665, "is_disabled": 0, "type": "electric_scooter", "lon": -77.02963516666667, "bike_id": "1ba8bc12327a89a080ca745d01cb1bff", "fusion_lat": 0.0, "name": "1ba8bc12327a89a080ca745d01cb1bff", "is_reserved": 0, "rental_uris": {"android": "https://dc.lft.to/lastmile_qr_scan", "ios": "https://dc.lft.to/lastmile_qr_scan"}, "fusion_lon": 0.0}, {"lat": 38.91791, "is_disabled": 0, "type": "electric_scooter", "lon": -77.0404465, "bike_id": "fab0e74a0ed45586e7c1f24e1dace095", "fusion_lat": 0.0, "name": "fab0e74a0ed45586e7c1f24e1dace095", "is_reserved": 0, "rental_uris": {"android": "https://dc.lft.to/lastmile_qr_scan", "ios": "https://dc.lft.to/lastmile_qr_scan"}, "fusion_lon": 0.0}, {"lat": 38.804671166666665, "is_disabled": 0, "type": "electric_bike", "lon": -77.06081483333334, "bike_id": "58fa9e34278bb765408ded608311fb55", "fusion_lat": 0.0, "name": "58fa9e34278bb765408ded608311fb55", "is_reserved": 0, "rental_uris": {"android": "https://dc.lft.to/lastmile_qr_scan", "ios": "https://dc.lft.to/lastmile_qr_scan"}, "fusion_lon": 0.0}, {"lat": 38.8690945, "is_disabled": 0, "type": "electric_bike", "lon": -77.131814, "bike_id": "a00c30b03e2efe8b7357a8ab233a92f5", "fusion_lat": 0.0, "name": "a00c30b03e2efe8b7357a8ab233a92f5", "is_reserved": 0, "rental_uris": {"android": "https://dc.lft.to/lastmile_qr_scan", "ios": "https://dc.lft.to/lastmile_qr_scan"}, "fusion_lon": 0.0}, {"lat": 38.91049683333333, "is_disabled": 0, "type": "electric_scooter", "lon": -77.01512116666666, "bike_id": "31c4f5e8a03ea39c9ed9d0599514e589", "fusion_lat": 0.0, "name": "31c4f5e8a03ea39c9ed9d0599514e589", "is_reserved": 0, "rental_uris": {"android": "https://dc.lft.to/lastmile_qr_scan", "ios": "https://dc.lft.to/lastmile_qr_scan"}, "fusion_lon": 0.0}, {"lat": 38.881215833333336, "is_disabled": 0, "type": "electric_scooter", "lon": -77.01413383333333, "bike_id": "7699b52e5c73c15144721e36d46975b2", "fusion_lat": 0.0, "name": "7699b52e5c73c15144721e36d46975b2", "is_reserved": 0, "rental_uris": {"android": "https://dc.lft.to/lastmile_qr_scan", "ios": "https://dc.lft.to/lastmile_qr_scan"}, "fusion_lon": 0.0}, {"lat": 39.015786, "is_disabled": 0, "type": "electric_bike", "lon": -77.042386, "bike_id": "90a7f03e639df1d3198bae5f3d843266", "fusion_lat": 0.0, "name": "90a7f03e639df1d3198bae5f3d843266", "is_reserved": 0, "rental_uris": {"android": "https://dc.lft.to/lastmile_qr_scan", "ios": "https://dc.lft.to/lastmile_qr_scan"}, "fusion_lon": 0.0}, {"lat": 38.922026, "is_disabled": 0, "type": "electric_scooter", "lon": -77.04016066666667, "bike_id": "6a2cb7881e952c485c7b1cebf13bb304", "fusion_lat": 0.0, "name": "6a2cb7881e952c485c7b1cebf13bb304", "is_reserved": 0, "rental_uris": {"android": "https://dc.lft.to/lastmile_qr_scan", "ios": "https://dc.lft.to/lastmile_qr_scan"}, "fusion_lon": 0.0}, {"lat": 38.896965333333334, "is_disabled": 0, "type": "electric_scooter", "lon": -77.0215095, "bike_id": "782ba27879acfe8fb8dd24ccd6ff07f4", "fusion_lat": 0.0, "name": "782ba27879acfe8fb8dd24ccd6ff07f4", "is_reserved": 0, "rental_uris": {"android": "https://dc.lft.to/lastmile_qr_scan", "ios": "https://dc.lft.to/lastmile_qr_scan"}, "fusion_lon": 0.0}, {"lat": 38.920744, "is_disabled": 0, "type": "electric_scooter", "lon": -77.0319745, "bike_id": "63851c4f4abccf35ed668bcd1f30d533", "fusion_lat": 0.0, "name": "63851c4f4abccf35ed668bcd1f30d533", "is_reserved": 0, "rental_uris": {"android": "https://dc.lft.to/lastmile_qr_scan", "ios": "https://dc.lft.to/lastmile_qr_scan"}, "fusion_lon": 0.0}, {"lat": 38.958792333333335, "is_disabled": 0, "type": "electric_bike", "lon": -77.01034316666667, "bike_id": "b9df9a0ac699fb3e0f70cad9f61aa15c", "fusion_lat": 0.0, "name": "b9df9a0ac699fb3e0f70cad9f61aa15c", "is_reserved": 0, "rental_uris": {"android": "https://dc.lft.to/lastmile_qr_scan", "ios": "https://dc.lft.to/lastmile_qr_scan"}, "fusion_lon": 0.0}, {"lat": 38.907298, "is_disabled": 0, "type": "electric_scooter", "lon": -77.02972416666667, "bike_id": "4b1c397c84ca3e33caf1f90e938b518f", "fusion_lat": 0.0, "name": "4b1c397c84ca3e33caf1f90e938b518f", "is_reserved": 0, "rental_uris": {"android": "https://dc.lft.to/lastmile_qr_scan", "ios": "https://dc.lft.to/lastmile_qr_scan"}, "fusion_lon": 0.0}, {"lat": 38.91408283333333, "is_disabled": 0, "type": "electric_scooter", "lon": -77.02565133333333, "bike_id": "003b73a12ff08b78551ece1a67627802", "fusion_lat": 0.0, "name": "003b73a12ff08b78551ece1a67627802", "is_reserved": 0, "rental_uris": {"android": "https://dc.lft.to/lastmile_qr_scan", "ios": "https://dc.lft.to/lastmile_qr_scan"}, "fusion_lon": 0.0}, {"lat": 38.954071166666665, "is_disabled": 0, "type": "electric_scooter", "lon": -77.03633916666666, "bike_id": "e8e5ab111c0109c263f41e8570f7c819", "fusion_lat": 0.0, "name": "e8e5ab111c0109c263f41e8570f7c819", "is_reserved": 0, "rental_uris": {"android": "https://dc.lft.to/lastmile_qr_scan", "ios": "https://dc.lft.to/lastmile_qr_scan"}, "fusion_lon": 0.0}, {"lat": 38.90551116666666, "is_disabled": 0, "type": "electric_scooter", "lon": -77.05708816666667, "bike_id": "4eb1812e55c31c29e07f2b6aa5e52cfc", "fusion_lat": 0.0, "name": "4eb1812e55c31c29e07f2b6aa5e52cfc", "is_reserved": 0, "rental_uris": {"android": "https://dc.lft.to/lastmile_qr_scan", "ios": "https://dc.lft.to/lastmile_qr_scan"}, "fusion_lon": 0.0}, {"lat": 38.89929083333333, "is_disabled": 0, "type": "electric_scooter", "lon": -77.0328435, "bike_id": "fd50e9e6b27c1a793dcabc1785af3bb3", "fusion_lat": 0.0, "name": "fd50e9e6b27c1a793dcabc1785af3bb3", "is_reserved": 0, "rental_uris": {"android": "https://dc.lft.to/lastmile_qr_scan", "ios": "https://dc.lft.to/lastmile_qr_scan"}, "fusion_lon": 0.0}, {"lat": 38.8984225, "is_disabled": 0, "type": "electric_scooter", "lon": -76.94635283333334, "bike_id": "48dda59feab485ba44d9b530afedb87a", "fusion_lat": 0.0, "name": "48dda59feab485ba44d9b530afedb87a", "is_reserved": 0, "rental_uris": {"android": "https://dc.lft.to/lastmile_qr_scan", "ios": "https://dc.lft.to/lastmile_qr_scan"}, "fusion_lon": 0.0}, {"lat": 38.912063833333335, "is_disabled": 0, "type": "electric_scooter", "lon": -77.04480866666667, "bike_id": "7997319f6cf20ce35d862fc9e2a47d50", "fusion_lat": 0.0, "name": "7997319f6cf20ce35d862fc9e2a47d50", "is_reserved": 0, "rental_uris": {"android": "https://dc.lft.to/lastmile_qr_scan", "ios": "https://dc.lft.to/lastmile_qr_scan"}, "fusion_lon": 0.0}, {"lat": 38.9077445, "is_disabled": 0, "type": "electric_scooter", "lon": -77.042325, "bike_id": "f9b31ed2dd8e7ab6f99c4c1b1e7e2e77", "fusion_lat": 0.0, "name": "f9b31ed2dd8e7ab6f99c4c1b1e7e2e77", "is_reserved": 0, "rental_uris": {"android": "https://dc.lft.to/lastmile_qr_scan", "ios": "https://dc.lft.to/lastmile_qr_scan"}, "fusion_lon": 0.0}, {"lat": 38.955749833333336, "is_disabled": 0, "type": "electric_scooter", "lon": -77.070068, "bike_id": "2722a802432f428ff733052c006d6216", "fusion_lat": 0.0, "name": "2722a802432f428ff733052c006d6216", "is_reserved": 0, "rental_uris": {"android": "https://dc.lft.to/lastmile_qr_scan", "ios": "https://dc.lft.to/lastmile_qr_scan"}, "fusion_lon": 0.0}, {"lat": 38.904978666666665, "is_disabled": 0, "type": "electric_scooter", "lon": -77.02808466666667, "bike_id": "222d3860a2e36ce6c663eebf59b4d5a3", "fusion_lat": 0.0, "name": "222d3860a2e36ce6c663eebf59b4d5a3", "is_reserved": 0, "rental_uris": {"android": "https://dc.lft.to/lastmile_qr_scan", "ios": "https://dc.lft.to/lastmile_qr_scan"}, "fusion_lon": 0.0}, {"lat": 38.94174266666667, "is_disabled": 0, "type": "electric_scooter", "lon": -77.04135866666667, "bike_id": "1190189da19c479a0eab80d41b40f3f6", "fusion_lat": 0.0, "name": "1190189da19c479a0eab80d41b40f3f6", "is_reserved": 0, "rental_uris": {"android": "https://dc.lft.to/lastmile_qr_scan", "ios": "https://dc.lft.to/lastmile_qr_scan"}, "fusion_lon": 0.0}, {"lat": 38.887501666666665, "is_disabled": 0, "type": "electric_scooter", "lon": -77.03225333333333, "bike_id": "eaf319da78c092f896dcf6634b590302", "fusion_lat": 0.0, "name": "eaf319da78c092f896dcf6634b590302", "is_reserved": 0, "rental_uris": {"android": "https://dc.lft.to/lastmile_qr_scan", "ios": "https://dc.lft.to/lastmile_qr_scan"}, "fusion_lon": 0.0}, {"lat": 38.86558766666667, "is_disabled": 0, "type": "electric_scooter", "lon": -76.97397566666666, "bike_id": "7dc420d31f2e41c3116e0bfd4cac315d", "fusion_lat": 0.0, "name": "7dc420d31f2e41c3116e0bfd4cac315d", "is_reserved": 0, "rental_uris": {"android": "https://dc.lft.to/lastmile_qr_scan", "ios": "https://dc.lft.to/lastmile_qr_scan"}, "fusion_lon": 0.0}, {"lat": 38.95353683333333, "is_disabled": 0, "type": "electric_bike", "lon": -76.98092333333334, "bike_id": "d3367a4c4ce5fb8978d8a6d954689314", "fusion_lat": 0.0, "name": "d3367a4c4ce5fb8978d8a6d954689314", "is_reserved": 0, "rental_uris": {"android": "https://dc.lft.to/lastmile_qr_scan", "ios": "https://dc.lft.to/lastmile_qr_scan"}, "fusion_lon": 0.0}, {"lat": 38.897627, "is_disabled": 0, "type": "electric_scooter", "lon": -77.027011, "bike_id": "db116a8ebd241409d3139ff4771f7c9b", "fusion_lat": 0.0, "name": "db116a8ebd241409d3139ff4771f7c9b", "is_reserved": 0, "rental_uris": {"android": "https://dc.lft.to/lastmile_qr_scan", "ios": "https://dc.lft.to/lastmile_qr_scan"}, "fusion_lon": 0.0}, {"lat": 38.910980333333335, "is_disabled": 0, "type": "electric_scooter", "lon": -77.03187666666666, "bike_id": "e5f4b3aa3791a1603a68a0882fb4b894", "fusion_lat": 0.0, "name": "e5f4b3aa3791a1603a68a0882fb4b894", "is_reserved": 0, "rental_uris": {"android": "https://dc.lft.to/lastmile_qr_scan", "ios": "https://dc.lft.to/lastmile_qr_scan"}, "fusion_lon": 0.0}, {"lat": 38.90806716666667, "is_disabled": 0, "type": "electric_scooter", "lon": -77.04327066666667, "bike_id": "5265fd1d947f217f50dcd5506dd1ed6a", "fusion_lat": 0.0, "name": "5265fd1d947f217f50dcd5506dd1ed6a", "is_reserved": 0, "rental_uris": {"android": "https://dc.lft.to/lastmile_qr_scan", "ios": "https://dc.lft.to/lastmile_qr_scan"}, "fusion_lon": 0.0}, {"lat": 38.86389366666667, "is_disabled": 0, "type": "electric_bike", "lon": -76.9898955, "bike_id": "17b922f360cd1e86decd5e2423d82fd6", "fusion_lat": 0.0, "name": "17b922f360cd1e86decd5e2423d82fd6", "is_reserved": 0, "rental_uris": {"android": "https://dc.lft.to/lastmile_qr_scan", "ios": "https://dc.lft.to/lastmile_qr_scan"}, "fusion_lon": 0.0}, {"lat": 38.91795483333333, "is_disabled": 0, "type": "electric_scooter", "lon": -77.02298033333334, "bike_id": "5cce7fdea8378126b83df5e0ac35d2f7", "fusion_lat": 0.0, "name": "5cce7fdea8378126b83df5e0ac35d2f7", "is_reserved": 0, "rental_uris": {"android": "https://dc.lft.to/lastmile_qr_scan", "ios": "https://dc.lft.to/lastmile_qr_scan"}, "fusion_lon": 0.0}, {"lat": 38.89217683333333, "is_disabled": 0, "type": "electric_scooter", "lon": -77.02775633333333, "bike_id": "4b1bd09d384c2fcdb240009f3703b271", "fusion_lat": 0.0, "name": "4b1bd09d384c2fcdb240009f3703b271", "is_reserved": 0, "rental_uris": {"android": "https://dc.lft.to/lastmile_qr_scan", "ios": "https://dc.lft.to/lastmile_qr_scan"}, "fusion_lon": 0.0}, {"lat": 38.9346325, "is_disabled": 0, "type": "electric_scooter", "lon": -77.06193466666667, "bike_id": "9ad3814912e9c8e1d3516e912f24e88f", "fusion_lat": 0.0, "name": "9ad3814912e9c8e1d3516e912f24e88f", "is_reserved": 0, "rental_uris": {"android": "https://dc.lft.to/lastmile_qr_scan", "ios": "https://dc.lft.to/lastmile_qr_scan"}, "fusion_lon": 0.0}, {"lat": 39.000040166666665, "is_disabled": 0, "type": "electric_bike", "lon": -76.9108375, "bike_id": "209203198e54aeec1ed36fb46cba765b", "fusion_lat": 0.0, "name": "209203198e54aeec1ed36fb46cba765b", "is_reserved": 0, "rental_uris": {"android": "https://dc.lft.to/lastmile_qr_scan", "ios": "https://dc.lft.to/lastmile_qr_scan"}, "fusion_lon": 0.0}, {"lat": 38.91117966666667, "is_disabled": 0, "type": "electric_scooter", "lon": -77.03299466666667, "bike_id": "b3312dbeff8703c77e41c691980f6397", "fusion_lat": 0.0, "name": "b3312dbeff8703c77e41c691980f6397", "is_reserved": 0, "rental_uris": {"android": "https://dc.lft.to/lastmile_qr_scan", "ios": "https://dc.lft.to/lastmile_qr_scan"}, "fusion_lon": 0.0}, {"lat": 38.893427, "is_disabled": 0, "type": "electric_scooter", "lon": -76.991613, "bike_id": "5b4ac92c6fc07b2b70aaef306aa653e0", "fusion_lat": 0.0, "name": "5b4ac92c6fc07b2b70aaef306aa653e0", "is_reserved": 0, "rental_uris": {"android": "https://dc.lft.to/lastmile_qr_scan", "ios": "https://dc.lft.to/lastmile_qr_scan"}, "fusion_lon": 0.0}, {"lat": 38.915615833333334, "is_disabled": 0, "type": "electric_scooter", "lon": -77.0315055, "bike_id": "e98e1f9d993a5f171869cadcc0f94b28", "fusion_lat": 0.0, "name": "e98e1f9d993a5f171869cadcc0f94b28", "is_reserved": 0, "rental_uris": {"android": "https://dc.lft.to/lastmile_qr_scan", "ios": "https://dc.lft.to/lastmile_qr_scan"}, "fusion_lon": 0.0}, {"lat": 38.91798516666667, "is_disabled": 0, "type": "electric_scooter", "lon": -77.03207266666666, "bike_id": "f43b35e6707a3bb5119f3e92c92a7d7a", "fusion_lat": 0.0, "name": "f43b35e6707a3bb5119f3e92c92a7d7a", "is_reserved": 0, "rental_uris": {"android": "https://dc.lft.to/lastmile_qr_scan", "ios": "https://dc.lft.to/lastmile_qr_scan"}, "fusion_lon": 0.0}, {"lat": 38.90207783333334, "is_disabled": 0, "type": "electric_scooter", "lon": -76.98233016666667, "bike_id": "04748199a00383843032dd2455287199", "fusion_lat": 0.0, "name": "04748199a00383843032dd2455287199", "is_reserved": 0, "rental_uris": {"android": "https://dc.lft.to/lastmile_qr_scan", "ios": "https://dc.lft.to/lastmile_qr_scan"}, "fusion_lon": 0.0}, {"lat": 38.935282, "is_disabled": 0, "type": "electric_scooter", "lon": -77.072975, "bike_id": "28e4e6abb984b306d0a197e9407dd28b", "fusion_lat": 0.0, "name": "28e4e6abb984b306d0a197e9407dd28b", "is_reserved": 0, "rental_uris": {"android": "https://dc.lft.to/lastmile_qr_scan", "ios": "https://dc.lft.to/lastmile_qr_scan"}, "fusion_lon": 0.0}, {"lat": 38.906022666666665, "is_disabled": 0, "type": "electric_scooter", "lon": -77.01621616666667, "bike_id": "cc44f83eeada26646427e2e643b80707", "fusion_lat": 0.0, "name": "cc44f83eeada26646427e2e643b80707", "is_reserved": 0, "rental_uris": {"android": "https://dc.lft.to/lastmile_qr_scan", "ios": "https://dc.lft.to/lastmile_qr_scan"}, "fusion_lon": 0.0}, {"lat": 38.88087083333333, "is_disabled": 0, "type": "electric_scooter", "lon": -77.00568183333333, "bike_id": "c8707fc3f4f9ed4583b820f54dffe9e0", "fusion_lat": 0.0, "name": "c8707fc3f4f9ed4583b820f54dffe9e0", "is_reserved": 0, "rental_uris": {"android": "https://dc.lft.to/lastmile_qr_scan", "ios": "https://dc.lft.to/lastmile_qr_scan"}, "fusion_lon": 0.0}, {"lat": 38.917098, "is_disabled": 0, "type": "electric_scooter", "lon": -77.03246216666666, "bike_id": "0f86e1335fc2883d459777a4d073513b", "fusion_lat": 0.0, "name": "0f86e1335fc2883d459777a4d073513b", "is_reserved": 0, "rental_uris": {"android": "https://dc.lft.to/lastmile_qr_scan", "ios": "https://dc.lft.to/lastmile_qr_scan"}, "fusion_lon": 0.0}, {"lat": 38.99411666666666, "is_disabled": 0, "type": "electric_bike", "lon": -77.03173933333333, "bike_id": "805d48918ae9737b84b536859db78a19", "fusion_lat": 0.0, "name": "805d48918ae9737b84b536859db78a19", "is_reserved": 0, "rental_uris": {"android": "https://dc.lft.to/lastmile_qr_scan", "ios": "https://dc.lft.to/lastmile_qr_scan"}, "fusion_lon": 0.0}, {"lat": 38.884882, "is_disabled": 0, "type": "electric_scooter", "lon": -77.00709533333334, "bike_id": "e8051a71f4b8a5cfef9d9b88b25e2b52", "fusion_lat": 0.0, "name": "e8051a71f4b8a5cfef9d9b88b25e2b52", "is_reserved": 0, "rental_uris": {"android": "https://dc.lft.to/lastmile_qr_scan", "ios": "https://dc.lft.to/lastmile_qr_scan"}, "fusion_lon": 0.0}, {"lat": 38.928579166666665, "is_disabled": 0, "type": "electric_scooter", "lon": -77.03100683333334, "bike_id": "79ff2024e6ebc852e323452c551db873", "fusion_lat": 0.0, "name": "79ff2024e6ebc852e323452c551db873", "is_reserved": 0, "rental_uris": {"android": "https://dc.lft.to/lastmile_qr_scan", "ios": "https://dc.lft.to/lastmile_qr_scan"}, "fusion_lon": 0.0}, {"lat": 38.924650666666665, "is_disabled": 0, "type": "electric_scooter", "lon": -77.0523055, "bike_id": "f5f06560321ede20d46bb391b6aee273", "fusion_lat": 0.0, "name": "f5f06560321ede20d46bb391b6aee273", "is_reserved": 0, "rental_uris": {"android": "https://dc.lft.to/lastmile_qr_scan", "ios": "https://dc.lft.to/lastmile_qr_scan"}, "fusion_lon": 0.0}, {"lat": 38.9093855, "is_disabled": 0, "type": "electric_scooter", "lon": -77.04473083333333, "bike_id": "d3db46f9fc82dc2813b23cae4def2be1", "fusion_lat": 0.0, "name": "d3db46f9fc82dc2813b23cae4def2be1", "is_reserved": 0, "rental_uris": {"android": "https://dc.lft.to/lastmile_qr_scan", "ios": "https://dc.lft.to/lastmile_qr_scan"}, "fusion_lon": 0.0}, {"lat": 38.923775, "is_disabled": 0, "type": "electric_scooter", "lon": -77.02744266666667, "bike_id": "2bdcf5f362907b42eeae6d50af7ffbf5", "fusion_lat": 0.0, "name": "2bdcf5f362907b42eeae6d50af7ffbf5", "is_reserved": 0, "rental_uris": {"android": "https://dc.lft.to/lastmile_qr_scan", "ios": "https://dc.lft.to/lastmile_qr_scan"}, "fusion_lon": 0.0}, {"lat": 38.84291483333333, "is_disabled": 0, "type": "electric_scooter", "lon": -76.99946866666667, "bike_id": "eb7b0ec0618c1e472d472122093da755", "fusion_lat": 0.0, "name": "eb7b0ec0618c1e472d472122093da755", "is_reserved": 0, "rental_uris": {"android": "https://dc.lft.to/lastmile_qr_scan", "ios": "https://dc.lft.to/lastmile_qr_scan"}, "fusion_lon": 0.0}, {"lat": 38.901082833333334, "is_disabled": 0, "type": "electric_bike", "lon": -77.04857183333333, "bike_id": "f9aa4b6281e55b16eadc4adadc17d76b", "fusion_lat": 0.0, "name": "f9aa4b6281e55b16eadc4adadc17d76b", "is_reserved": 0, "rental_uris": {"android": "https://dc.lft.to/lastmile_qr_scan", "ios": "https://dc.lft.to/lastmile_qr_scan"}, "fusion_lon": 0.0}, {"lat": 38.90958033333333, "is_disabled": 0, "type": "electric_scooter", "lon": -77.03835883333333, "bike_id": "6f01438c5342a056a2849ccb324762e3", "fusion_lat": 0.0, "name": "6f01438c5342a056a2849ccb324762e3", "is_reserved": 0, "rental_uris": {"android": "https://dc.lft.to/lastmile_qr_scan", "ios": "https://dc.lft.to/lastmile_qr_scan"}, "fusion_lon": 0.0}, {"lat": 38.918154, "is_disabled": 0, "type": "electric_scooter", "lon": -77.0248535, "bike_id": "baaf74b0af4da3c96738b15623532296", "fusion_lat": 0.0, "name": "baaf74b0af4da3c96738b15623532296", "is_reserved": 0, "rental_uris": {"android": "https://dc.lft.to/lastmile_qr_scan", "ios": "https://dc.lft.to/lastmile_qr_scan"}, "fusion_lon": 0.0}, {"lat": 38.892230166666664, "is_disabled": 0, "type": "electric_scooter", "lon": -77.02212816666666, "bike_id": "b3fb7510ba98a294826e5a9626c4d2dd", "fusion_lat": 0.0, "name": "b3fb7510ba98a294826e5a9626c4d2dd", "is_reserved": 0, "rental_uris": {"android": "https://dc.lft.to/lastmile_qr_scan", "ios": "https://dc.lft.to/lastmile_qr_scan"}, "fusion_lon": 0.0}, {"lat": 38.919838, "is_disabled": 0, "type": "electric_scooter", "lon": -77.02528333333333, "bike_id": "222f33d551aa774f8c4c57010d6289c3", "fusion_lat": 0.0, "name": "222f33d551aa774f8c4c57010d6289c3", "is_reserved": 0, "rental_uris": {"android": "https://dc.lft.to/lastmile_qr_scan", "ios": "https://dc.lft.to/lastmile_qr_scan"}, "fusion_lon": 0.0}, {"lat": 38.90986616666667, "is_disabled": 0, "type": "electric_scooter", "lon": -77.04163233333334, "bike_id": "6dacc43f86d45bf7a96d95964a939a03", "fusion_lat": 0.0, "name": "6dacc43f86d45bf7a96d95964a939a03", "is_reserved": 0, "rental_uris": {"android": "https://dc.lft.to/lastmile_qr_scan", "ios": "https://dc.lft.to/lastmile_qr_scan"}, "fusion_lon": 0.0}, {"lat": 38.982745, "is_disabled": 0, "type": "electric_bike", "lon": -77.01771216666667, "bike_id": "96e7a68a86f80ca4e6200e22f0b15614", "fusion_lat": 0.0, "name": "96e7a68a86f80ca4e6200e22f0b15614", "is_reserved": 0, "rental_uris": {"android": "https://dc.lft.to/lastmile_qr_scan", "ios": "https://dc.lft.to/lastmile_qr_scan"}, "fusion_lon": 0.0}, {"lat": 38.91668816666667, "is_disabled": 0, "type": "electric_scooter", "lon": -77.02286033333333, "bike_id": "bf3e5729d77ca9a76b1f9871d99b06b4", "fusion_lat": 0.0, "name": "bf3e5729d77ca9a76b1f9871d99b06b4", "is_reserved": 0, "rental_uris": {"android": "https://dc.lft.to/lastmile_qr_scan", "ios": "https://dc.lft.to/lastmile_qr_scan"}, "fusion_lon": 0.0}, {"lat": 38.98505133333333, "is_disabled": 0, "type": "electric_bike", "lon": -76.98218816666666, "bike_id": "019912ab8fdc4c42f976e06390c11c1e", "fusion_lat": 0.0, "name": "019912ab8fdc4c42f976e06390c11c1e", "is_reserved": 0, "rental_uris": {"android": "https://dc.lft.to/lastmile_qr_scan", "ios": "https://dc.lft.to/lastmile_qr_scan"}, "fusion_lon": 0.0}, {"lat": 38.80575016666667, "is_disabled": 0, "type": "electric_bike", "lon": -77.06861466666666, "bike_id": "caf7bd088c3cc7b832260edfdbcaa54d", "fusion_lat": 0.0, "name": "caf7bd088c3cc7b832260edfdbcaa54d", "is_reserved": 0, "rental_uris": {"android": "https://dc.lft.to/lastmile_qr_scan", "ios": "https://dc.lft.to/lastmile_qr_scan"}, "fusion_lon": 0.0}, {"lat": 38.902560333333334, "is_disabled": 0, "type": "electric_scooter", "lon": -77.02648533333333, "bike_id": "6e7ab7c5a351ed77ffc39e3956015981", "fusion_lat": 0.0, "name": "6e7ab7c5a351ed77ffc39e3956015981", "is_reserved": 0, "rental_uris": {"android": "https://dc.lft.to/lastmile_qr_scan", "ios": "https://dc.lft.to/lastmile_qr_scan"}, "fusion_lon": 0.0}, {"lat": 38.92836783333333, "is_disabled": 0, "type": "electric_scooter", "lon": -77.01377283333333, "bike_id": "e05f2feb7059561b900ea3d004023867", "fusion_lat": 0.0, "name": "e05f2feb7059561b900ea3d004023867", "is_reserved": 0, "rental_uris": {"android": "https://dc.lft.to/lastmile_qr_scan", "ios": "https://dc.lft.to/lastmile_qr_scan"}, "fusion_lon": 0.0}, {"lat": 38.888333833333334, "is_disabled": 0, "type": "electric_scooter", "lon": -76.99411683333334, "bike_id": "93d740a0ac493253e94135ac30f41e28", "fusion_lat": 0.0, "name": "93d740a0ac493253e94135ac30f41e28", "is_reserved": 0, "rental_uris": {"android": "https://dc.lft.to/lastmile_qr_scan", "ios": "https://dc.lft.to/lastmile_qr_scan"}, "fusion_lon": 0.0}, {"lat": 38.917433333333335, "is_disabled": 0, "type": "electric_scooter", "lon": -77.03203416666666, "bike_id": "9ca755513099ce47c6e3dd4ca07e0075", "fusion_lat": 0.0, "name": "9ca755513099ce47c6e3dd4ca07e0075", "is_reserved": 0, "rental_uris": {"android": "https://dc.lft.to/lastmile_qr_scan", "ios": "https://dc.lft.to/lastmile_qr_scan"}, "fusion_lon": 0.0}, {"lat": 38.92288, "is_disabled": 0, "type": "electric_scooter", "lon": -77.031937, "bike_id": "e5b7e6e55a4a1351a057c4aa44ce8912", "fusion_lat": 0.0, "name": "e5b7e6e55a4a1351a057c4aa44ce8912", "is_reserved": 0, "rental_uris": {"android": "https://dc.lft.to/lastmile_qr_scan", "ios": "https://dc.lft.to/lastmile_qr_scan"}, "fusion_lon": 0.0}, {"lat": 38.98131216666667, "is_disabled": 0, "type": "electric_bike", "lon": -77.00774016666666, "bike_id": "04877895ebce802a0044671cef2ade4b", "fusion_lat": 0.0, "name": "04877895ebce802a0044671cef2ade4b", "is_reserved": 0, "rental_uris": {"android": "https://dc.lft.to/lastmile_qr_scan", "ios": "https://dc.lft.to/lastmile_qr_scan"}, "fusion_lon": 0.0}, {"lat": 38.922497666666665, "is_disabled": 0, "type": "electric_scooter", "lon": -77.034699, "bike_id": "db425a12f092204a8d2fa4dd861b2b31", "fusion_lat": 0.0, "name": "db425a12f092204a8d2fa4dd861b2b31", "is_reserved": 0, "rental_uris": {"android": "https://dc.lft.to/lastmile_qr_scan", "ios": "https://dc.lft.to/lastmile_qr_scan"}, "fusion_lon": 0.0}, {"lat": 38.91243133333333, "is_disabled": 0, "type": "electric_scooter", "lon": -77.04770783333333, "bike_id": "a5b7799bd8e0caaa753e205a67784033", "fusion_lat": 0.0, "name": "a5b7799bd8e0caaa753e205a67784033", "is_reserved": 0, "rental_uris": {"android": "https://dc.lft.to/lastmile_qr_scan", "ios": "https://dc.lft.to/lastmile_qr_scan"}, "fusion_lon": 0.0}, {"lat": 38.927636, "is_disabled": 0, "type": "electric_scooter", "lon": -77.02624833333333, "bike_id": "82d72e34bc75ced142a08faca39720cb", "fusion_lat": 0.0, "name": "82d72e34bc75ced142a08faca39720cb", "is_reserved": 0, "rental_uris": {"android": "https://dc.lft.to/lastmile_qr_scan", "ios": "https://dc.lft.to/lastmile_qr_scan"}, "fusion_lon": 0.0}, {"lat": 38.93506566666667, "is_disabled": 0, "type": "electric_scooter", "lon": -77.0335495, "bike_id": "94d1580132586a48c48edb79abe62224", "fusion_lat": 0.0, "name": "94d1580132586a48c48edb79abe62224", "is_reserved": 0, "rental_uris": {"android": "https://dc.lft.to/lastmile_qr_scan", "ios": "https://dc.lft.to/lastmile_qr_scan"}, "fusion_lon": 0.0}, {"lat": 38.912579666666666, "is_disabled": 0, "type": "electric_scooter", "lon": -77.038743, "bike_id": "e9d56ddedc9be26e5d5e4554a9462851", "fusion_lat": 0.0, "name": "e9d56ddedc9be26e5d5e4554a9462851", "is_reserved": 0, "rental_uris": {"android": "https://dc.lft.to/lastmile_qr_scan", "ios": "https://dc.lft.to/lastmile_qr_scan"}, "fusion_lon": 0.0}, {"lat": 38.9045505, "is_disabled": 0, "type": "electric_scooter", "lon": -77.06282266666666, "bike_id": "db96b18bfbf2dbc5032643b3090d64d8", "fusion_lat": 0.0, "name": "db96b18bfbf2dbc5032643b3090d64d8", "is_reserved": 0, "rental_uris": {"android": "https://dc.lft.to/lastmile_qr_scan", "ios": "https://dc.lft.to/lastmile_qr_scan"}, "fusion_lon": 0.0}, {"lat": 38.9121985, "is_disabled": 0, "type": "electric_scooter", "lon": -77.0280105, "bike_id": "23cffea4f2490acccf06e981d16ba4cb", "fusion_lat": 0.0, "name": "23cffea4f2490acccf06e981d16ba4cb", "is_reserved": 0, "rental_uris": {"android": "https://dc.lft.to/lastmile_qr_scan", "ios": "https://dc.lft.to/lastmile_qr_scan"}, "fusion_lon": 0.0}, {"lat": 38.9025005, "is_disabled": 0, "type": "electric_scooter", "lon": -77.01794516666666, "bike_id": "e1b0372c172f0b6d967f2be4c2153561", "fusion_lat": 0.0, "name": "e1b0372c172f0b6d967f2be4c2153561", "is_reserved": 0, "rental_uris": {"android": "https://dc.lft.to/lastmile_qr_scan", "ios": "https://dc.lft.to/lastmile_qr_scan"}, "fusion_lon": 0.0}, {"lat": 38.918163666666665, "is_disabled": 0, "type": "electric_scooter", "lon": -77.0295545, "bike_id": "9a6d291e0cf7f9f21a10ac3d70ac8df5", "fusion_lat": 0.0, "name": "9a6d291e0cf7f9f21a10ac3d70ac8df5", "is_reserved": 0, "rental_uris": {"android": "https://dc.lft.to/lastmile_qr_scan", "ios": "https://dc.lft.to/lastmile_qr_scan"}, "fusion_lon": 0.0}, {"lat": 38.924660833333334, "is_disabled": 0, "type": "electric_scooter", "lon": -77.05227466666666, "bike_id": "2605b314199b894b7ac272ae91245898", "fusion_lat": 0.0, "name": "2605b314199b894b7ac272ae91245898", "is_reserved": 0, "rental_uris": {"android": "https://dc.lft.to/lastmile_qr_scan", "ios": "https://dc.lft.to/lastmile_qr_scan"}, "fusion_lon": 0.0}, {"lat": 38.925566833333335, "is_disabled": 0, "type": "electric_scooter", "lon": -77.0322455, "bike_id": "4d2d66c6dad6919b6d7df4c816492e85", "fusion_lat": 0.0, "name": "4d2d66c6dad6919b6d7df4c816492e85", "is_reserved": 0, "rental_uris": {"android": "https://dc.lft.to/lastmile_qr_scan", "ios": "https://dc.lft.to/lastmile_qr_scan"}, "fusion_lon": 0.0}, {"lat": 38.907250166666664, "is_disabled": 0, "type": "electric_scooter", "lon": -77.00074616666667, "bike_id": "002be944a287cff1497f51465f58dc7b", "fusion_lat": 0.0, "name": "002be944a287cff1497f51465f58dc7b", "is_reserved": 0, "rental_uris": {"android": "https://dc.lft.to/lastmile_qr_scan", "ios": "https://dc.lft.to/lastmile_qr_scan"}, "fusion_lon": 0.0}, {"lat": 38.932307333333334, "is_disabled": 0, "type": "electric_scooter", "lon": -77.03891766666666, "bike_id": "e3dfc3e06c0ec25ae73a42b74da05eb6", "fusion_lat": 0.0, "name": "e3dfc3e06c0ec25ae73a42b74da05eb6", "is_reserved": 0, "rental_uris": {"android": "https://dc.lft.to/lastmile_qr_scan", "ios": "https://dc.lft.to/lastmile_qr_scan"}, "fusion_lon": 0.0}, {"lat": 38.844319, "is_disabled": 0, "type": "electric_scooter", "lon": -76.99814766666667, "bike_id": "bfeebc80b14302817f9b4c2bb930c861", "fusion_lat": 0.0, "name": "bfeebc80b14302817f9b4c2bb930c861", "is_reserved": 0, "rental_uris": {"android": "https://dc.lft.to/lastmile_qr_scan", "ios": "https://dc.lft.to/lastmile_qr_scan"}, "fusion_lon": 0.0}, {"lat": 38.90564416666667, "is_disabled": 0, "type": "electric_scooter", "lon": -76.98148, "bike_id": "f4d6ba89de12b49911e8c07f9316faa9", "fusion_lat": 0.0, "name": "f4d6ba89de12b49911e8c07f9316faa9", "is_reserved": 0, "rental_uris": {"android": "https://dc.lft.to/lastmile_qr_scan", "ios": "https://dc.lft.to/lastmile_qr_scan"}, "fusion_lon": 0.0}, {"lat": 38.8540625, "is_disabled": 0, "type": "electric_bike", "lon": -76.9098015, "bike_id": "587a69d88ab6276bd21c3a7f5a44d7d0", "fusion_lat": 0.0, "name": "587a69d88ab6276bd21c3a7f5a44d7d0", "is_reserved": 0, "rental_uris": {"android": "https://dc.lft.to/lastmile_qr_scan", "ios": "https://dc.lft.to/lastmile_qr_scan"}, "fusion_lon": 0.0}, {"lat": 38.9024785, "is_disabled": 0, "type": "electric_scooter", "lon": -77.04355033333333, "bike_id": "7de0cd606717db0e0014db865b176020", "fusion_lat": 0.0, "name": "7de0cd606717db0e0014db865b176020", "is_reserved": 0, "rental_uris": {"android": "https://dc.lft.to/lastmile_qr_scan", "ios": "https://dc.lft.to/lastmile_qr_scan"}, "fusion_lon": 0.0}, {"lat": 38.923132833333334, "is_disabled": 0, "type": "electric_scooter", "lon": -77.0464585, "bike_id": "6d49b2cdc98104fcd0b2c1ea0e099b1e", "fusion_lat": 0.0, "name": "6d49b2cdc98104fcd0b2c1ea0e099b1e", "is_reserved": 0, "rental_uris": {"android": "https://dc.lft.to/lastmile_qr_scan", "ios": "https://dc.lft.to/lastmile_qr_scan"}, "fusion_lon": 0.0}, {"lat": 38.80496, "is_disabled": 0, "type": "electric_bike", "lon": -77.04132433333334, "bike_id": "6c95ba393998fbb6551c798ee7014d7d", "fusion_lat": 0.0, "name": "6c95ba393998fbb6551c798ee7014d7d", "is_reserved": 0, "rental_uris": {"android": "https://dc.lft.to/lastmile_qr_scan", "ios": "https://dc.lft.to/lastmile_qr_scan"}, "fusion_lon": 0.0}, {"lat": 38.917652, "is_disabled": 0, "type": "electric_scooter", "lon": -77.03193583333334, "bike_id": "a2efa510f9183f921d4d864547fcb6ed", "fusion_lat": 0.0, "name": "a2efa510f9183f921d4d864547fcb6ed", "is_reserved": 0, "rental_uris": {"android": "https://dc.lft.to/lastmile_qr_scan", "ios": "https://dc.lft.to/lastmile_qr_scan"}, "fusion_lon": 0.0}, {"lat": 38.91105066666667, "is_disabled": 0, "type": "electric_scooter", "lon": -76.99710483333334, "bike_id": "0bb9f4236c42e41f8b32a781adffd424", "fusion_lat": 0.0, "name": "0bb9f4236c42e41f8b32a781adffd424", "is_reserved": 0, "rental_uris": {"android": "https://dc.lft.to/lastmile_qr_scan", "ios": "https://dc.lft.to/lastmile_qr_scan"}, "fusion_lon": 0.0}, {"lat": 38.9112435, "is_disabled": 0, "type": "electric_scooter", "lon": -77.021949, "bike_id": "1b0afbc75105cc7ca630900a3e136c80", "fusion_lat": 0.0, "name": "1b0afbc75105cc7ca630900a3e136c80", "is_reserved": 0, "rental_uris": {"android": "https://dc.lft.to/lastmile_qr_scan", "ios": "https://dc.lft.to/lastmile_qr_scan"}, "fusion_lon": 0.0}, {"lat": 38.9061535, "is_disabled": 0, "type": "electric_scooter", "lon": -77.02600616666666, "bike_id": "5a7eef37a9f6ae0fd8e4e0fd8fd6bd5a", "fusion_lat": 0.0, "name": "5a7eef37a9f6ae0fd8e4e0fd8fd6bd5a", "is_reserved": 0, "rental_uris": {"android": "https://dc.lft.to/lastmile_qr_scan", "ios": "https://dc.lft.to/lastmile_qr_scan"}, "fusion_lon": 0.0}, {"lat": 38.937483666666665, "is_disabled": 0, "type": "electric_scooter", "lon": -77.03455433333333, "bike_id": "abc3b542032809b0c55ac2fd99a2bfac", "fusion_lat": 0.0, "name": "abc3b542032809b0c55ac2fd99a2bfac", "is_reserved": 0, "rental_uris": {"android": "https://dc.lft.to/lastmile_qr_scan", "ios": "https://dc.lft.to/lastmile_qr_scan"}, "fusion_lon": 0.0}, {"lat": 38.897612, "is_disabled": 0, "type": "electric_scooter", "lon": -77.05504733333333, "bike_id": "dada2a28fbf9507e08121d05019639e1", "fusion_lat": 0.0, "name": "dada2a28fbf9507e08121d05019639e1", "is_reserved": 0, "rental_uris": {"android": "https://dc.lft.to/lastmile_qr_scan", "ios": "https://dc.lft.to/lastmile_qr_scan"}, "fusion_lon": 0.0}, {"lat": 38.92537266666667, "is_disabled": 0, "type": "electric_scooter", "lon": -77.034561, "bike_id": "ea06e5c628bac16e596f8dbb72360720", "fusion_lat": 0.0, "name": "ea06e5c628bac16e596f8dbb72360720", "is_reserved": 0, "rental_uris": {"android": "https://dc.lft.to/lastmile_qr_scan", "ios": "https://dc.lft.to/lastmile_qr_scan"}, "fusion_lon": 0.0}, {"lat": 38.9223185, "is_disabled": 0, "type": "electric_scooter", "lon": -77.0424645, "bike_id": "31068c6329aaa277a25ac09a2b24ec79", "fusion_lat": 0.0, "name": "31068c6329aaa277a25ac09a2b24ec79", "is_reserved": 0, "rental_uris": {"android": "https://dc.lft.to/lastmile_qr_scan", "ios": "https://dc.lft.to/lastmile_qr_scan"}, "fusion_lon": 0.0}, {"lat": 38.866621, "is_disabled": 0, "type": "electric_scooter", "lon": -77.0103315, "bike_id": "2fadb564c23cbee7fe7af8ac06ee6666", "fusion_lat": 0.0, "name": "2fadb564c23cbee7fe7af8ac06ee6666", "is_reserved": 0, "rental_uris": {"android": "https://dc.lft.to/lastmile_qr_scan", "ios": "https://dc.lft.to/lastmile_qr_scan"}, "fusion_lon": 0.0}, {"lat": 38.9182695, "is_disabled": 0, "type": "electric_scooter", "lon": -77.02528416666667, "bike_id": "20adb9e6851024362a6dba2454e7f428", "fusion_lat": 0.0, "name": "20adb9e6851024362a6dba2454e7f428", "is_reserved": 0, "rental_uris": {"android": "https://dc.lft.to/lastmile_qr_scan", "ios": "https://dc.lft.to/lastmile_qr_scan"}, "fusion_lon": 0.0}, {"lat": 38.91706, "is_disabled": 0, "type": "electric_scooter", "lon": -77.0373515, "bike_id": "8d7df1a3b6a1a1d5f02e5d8f2ab6002f", "fusion_lat": 0.0, "name": "8d7df1a3b6a1a1d5f02e5d8f2ab6002f", "is_reserved": 0, "rental_uris": {"android": "https://dc.lft.to/lastmile_qr_scan", "ios": "https://dc.lft.to/lastmile_qr_scan"}, "fusion_lon": 0.0}, {"lat": 38.84546016666667, "is_disabled": 0, "type": "electric_bike", "lon": -76.99063066666666, "bike_id": "6494fad693c364280c065bad1b4e997e", "fusion_lat": 0.0, "name": "6494fad693c364280c065bad1b4e997e", "is_reserved": 0, "rental_uris": {"android": "https://dc.lft.to/lastmile_qr_scan", "ios": "https://dc.lft.to/lastmile_qr_scan"}, "fusion_lon": 0.0}, {"lat": 38.898886, "is_disabled": 0, "type": "electric_scooter", "lon": -77.03249416666667, "bike_id": "4d0133481087704dd787ceb958169385", "fusion_lat": 0.0, "name": "4d0133481087704dd787ceb958169385", "is_reserved": 0, "rental_uris": {"android": "https://dc.lft.to/lastmile_qr_scan", "ios": "https://dc.lft.to/lastmile_qr_scan"}, "fusion_lon": 0.0}, {"lat": 38.8833665, "is_disabled": 0, "type": "electric_scooter", "lon": -77.00932016666667, "bike_id": "924b6bb42705757467df65e3884c4827", "fusion_lat": 0.0, "name": "924b6bb42705757467df65e3884c4827", "is_reserved": 0, "rental_uris": {"android": "https://dc.lft.to/lastmile_qr_scan", "ios": "https://dc.lft.to/lastmile_qr_scan"}, "fusion_lon": 0.0}, {"lat": 38.915453, "is_disabled": 0, "type": "electric_scooter", "lon": -77.03848666666667, "bike_id": "1e993e104aa12668bd2d42d209cdd10e", "fusion_lat": 0.0, "name": "1e993e104aa12668bd2d42d209cdd10e", "is_reserved": 0, "rental_uris": {"android": "https://dc.lft.to/lastmile_qr_scan", "ios": "https://dc.lft.to/lastmile_qr_scan"}, "fusion_lon": 0.0}, {"lat": 38.7932115, "is_disabled": 0, "type": "electric_bike", "lon": -77.04024416666667, "bike_id": "1b2018b5562d71e8d287c33075dff984", "fusion_lat": 0.0, "name": "1b2018b5562d71e8d287c33075dff984", "is_reserved": 0, "rental_uris": {"android": "https://dc.lft.to/lastmile_qr_scan", "ios": "https://dc.lft.to/lastmile_qr_scan"}, "fusion_lon": 0.0}, {"lat": 38.94902, "is_disabled": 0, "type": "electric_bike", "lon": -76.97239766666667, "bike_id": "b3a852e0917b91023cac3950e4a8b274", "fusion_lat": 0.0, "name": "b3a852e0917b91023cac3950e4a8b274", "is_reserved": 0, "rental_uris": {"android": "https://dc.lft.to/lastmile_qr_scan", "ios": "https://dc.lft.to/lastmile_qr_scan"}, "fusion_lon": 0.0}, {"lat": 38.892212666666666, "is_disabled": 0, "type": "electric_scooter", "lon": -77.02628883333334, "bike_id": "b541d55901eddbf2870329b057be3edd", "fusion_lat": 0.0, "name": "b541d55901eddbf2870329b057be3edd", "is_reserved": 0, "rental_uris": {"android": "https://dc.lft.to/lastmile_qr_scan", "ios": "https://dc.lft.to/lastmile_qr_scan"}, "fusion_lon": 0.0}, {"lat": 38.8737255, "is_disabled": 0, "type": "electric_bike", "lon": -77.11805016666666, "bike_id": "3edc5570538b5eeecc0a213d7bf0da73", "fusion_lat": 0.0, "name": "3edc5570538b5eeecc0a213d7bf0da73", "is_reserved": 0, "rental_uris": {"android": "https://dc.lft.to/lastmile_qr_scan", "ios": "https://dc.lft.to/lastmile_qr_scan"}, "fusion_lon": 0.0}, {"lat": 38.901446666666665, "is_disabled": 0, "type": "electric_scooter", "lon": -77.0150575, "bike_id": "d1cf693b8c13d8a3f3f7e320f5f58219", "fusion_lat": 0.0, "name": "d1cf693b8c13d8a3f3f7e320f5f58219", "is_reserved": 0, "rental_uris": {"android": "https://dc.lft.to/lastmile_qr_scan", "ios": "https://dc.lft.to/lastmile_qr_scan"}, "fusion_lon": 0.0}, {"lat": 38.926835833333335, "is_disabled": 0, "type": "electric_scooter", "lon": -77.0157515, "bike_id": "6d29663d3090ba0c6661603eca8c317d", "fusion_lat": 0.0, "name": "6d29663d3090ba0c6661603eca8c317d", "is_reserved": 0, "rental_uris": {"android": "https://dc.lft.to/lastmile_qr_scan", "ios": "https://dc.lft.to/lastmile_qr_scan"}, "fusion_lon": 0.0}, {"lat": 38.887510166666665, "is_disabled": 0, "type": "electric_scooter", "lon": -77.0322905, "bike_id": "27b8bed7c55105f44da0a292af08c620", "fusion_lat": 0.0, "name": "27b8bed7c55105f44da0a292af08c620", "is_reserved": 0, "rental_uris": {"android": "https://dc.lft.to/lastmile_qr_scan", "ios": "https://dc.lft.to/lastmile_qr_scan"}, "fusion_lon": 0.0}, {"lat": 38.905497, "is_disabled": 0, "type": "electric_scooter", "lon": -77.03404266666666, "bike_id": "1b30791fef6704547dfe71bcd7dc861b", "fusion_lat": 0.0, "name": "1b30791fef6704547dfe71bcd7dc861b", "is_reserved": 0, "rental_uris": {"android": "https://dc.lft.to/lastmile_qr_scan", "ios": "https://dc.lft.to/lastmile_qr_scan"}, "fusion_lon": 0.0}, {"lat": 38.917305166666665, "is_disabled": 0, "type": "electric_scooter", "lon": -77.036441, "bike_id": "3d22e2cb6e625da2555cf448adaa0d10", "fusion_lat": 0.0, "name": "3d22e2cb6e625da2555cf448adaa0d10", "is_reserved": 0, "rental_uris": {"android": "https://dc.lft.to/lastmile_qr_scan", "ios": "https://dc.lft.to/lastmile_qr_scan"}, "fusion_lon": 0.0}, {"lat": 38.85911766666667, "is_disabled": 0, "type": "electric_scooter", "lon": -76.99153983333333, "bike_id": "01a3e546f34e236d91cf2a69fe41bd12", "fusion_lat": 0.0, "name": "01a3e546f34e236d91cf2a69fe41bd12", "is_reserved": 0, "rental_uris": {"android": "https://dc.lft.to/lastmile_qr_scan", "ios": "https://dc.lft.to/lastmile_qr_scan"}, "fusion_lon": 0.0}, {"lat": 39.05194916666667, "is_disabled": 0, "type": "electric_bike", "lon": -77.10918233333334, "bike_id": "2d8ac3213a5064842bb48ac7e82ae59b", "fusion_lat": 0.0, "name": "2d8ac3213a5064842bb48ac7e82ae59b", "is_reserved": 0, "rental_uris": {"android": "https://dc.lft.to/lastmile_qr_scan", "ios": "https://dc.lft.to/lastmile_qr_scan"}, "fusion_lon": 0.0}, {"lat": 38.90610366666667, "is_disabled": 0, "type": "electric_scooter", "lon": -77.0188365, "bike_id": "cd162279e8c4476f90c3058e369e7cc9", "fusion_lat": 0.0, "name": "cd162279e8c4476f90c3058e369e7cc9", "is_reserved": 0, "rental_uris": {"android": "https://dc.lft.to/lastmile_qr_scan", "ios": "https://dc.lft.to/lastmile_qr_scan"}, "fusion_lon": 0.0}, {"lat": 38.919131166666666, "is_disabled": 0, "type": "electric_scooter", "lon": -77.02393983333333, "bike_id": "63a16c2f7b8446597922c5f4f409e0bc", "fusion_lat": 0.0, "name": "63a16c2f7b8446597922c5f4f409e0bc", "is_reserved": 0, "rental_uris": {"android": "https://dc.lft.to/lastmile_qr_scan", "ios": "https://dc.lft.to/lastmile_qr_scan"}, "fusion_lon": 0.0}, {"lat": 38.902068166666666, "is_disabled": 0, "type": "electric_scooter", "lon": -77.02376583333333, "bike_id": "1f2357d9245004f291c643b4243f709c", "fusion_lat": 0.0, "name": "1f2357d9245004f291c643b4243f709c", "is_reserved": 0, "rental_uris": {"android": "https://dc.lft.to/lastmile_qr_scan", "ios": "https://dc.lft.to/lastmile_qr_scan"}, "fusion_lon": 0.0}, {"lat": 38.899053, "is_disabled": 0, "type": "electric_scooter", "lon": -76.93357366666666, "bike_id": "8f4fc52f8cf48baf01a4023a3c83de36", "fusion_lat": 0.0, "name": "8f4fc52f8cf48baf01a4023a3c83de36", "is_reserved": 0, "rental_uris": {"android": "https://dc.lft.to/lastmile_qr_scan", "ios": "https://dc.lft.to/lastmile_qr_scan"}, "fusion_lon": 0.0}, {"lat": 38.9528525, "is_disabled": 0, "type": "electric_scooter", "lon": -77.06865183333333, "bike_id": "d439b8b9d56e4cbff46b8814975b9ace", "fusion_lat": 0.0, "name": "d439b8b9d56e4cbff46b8814975b9ace", "is_reserved": 0, "rental_uris": {"android": "https://dc.lft.to/lastmile_qr_scan", "ios": "https://dc.lft.to/lastmile_qr_scan"}, "fusion_lon": 0.0}, {"lat": 38.86653116666667, "is_disabled": 0, "type": "electric_scooter", "lon": -76.98881733333333, "bike_id": "ba03024bb1f17b9bdb94eb385a267d6e", "fusion_lat": 0.0, "name": "ba03024bb1f17b9bdb94eb385a267d6e", "is_reserved": 0, "rental_uris": {"android": "https://dc.lft.to/lastmile_qr_scan", "ios": "https://dc.lft.to/lastmile_qr_scan"}, "fusion_lon": 0.0}, {"lat": 38.915534666666666, "is_disabled": 0, "type": "electric_scooter", "lon": -77.053237, "bike_id": "00b79c524dcd82f1a964a7c80fdb9c1c", "fusion_lat": 0.0, "name": "00b79c524dcd82f1a964a7c80fdb9c1c", "is_reserved": 0, "rental_uris": {"android": "https://dc.lft.to/lastmile_qr_scan", "ios": "https://dc.lft.to/lastmile_qr_scan"}, "fusion_lon": 0.0}, {"lat": 38.9236685, "is_disabled": 0, "type": "electric_scooter", "lon": -77.0505555, "bike_id": "703a885dfaca57d8c7748cf6faeb5936", "fusion_lat": 0.0, "name": "703a885dfaca57d8c7748cf6faeb5936", "is_reserved": 0, "rental_uris": {"android": "https://dc.lft.to/lastmile_qr_scan", "ios": "https://dc.lft.to/lastmile_qr_scan"}, "fusion_lon": 0.0}, {"lat": 38.97233116666666, "is_disabled": 0, "type": "electric_bike", "lon": -76.99337433333334, "bike_id": "ad56f31013038469fa3321f8317d63b2", "fusion_lat": 0.0, "name": "ad56f31013038469fa3321f8317d63b2", "is_reserved": 0, "rental_uris": {"android": "https://dc.lft.to/lastmile_qr_scan", "ios": "https://dc.lft.to/lastmile_qr_scan"}, "fusion_lon": 0.0}, {"lat": 38.90732083333333, "is_disabled": 0, "type": "electric_scooter", "lon": -77.02971016666666, "bike_id": "7fd0f01de61527a50366c04456a65aa2", "fusion_lat": 0.0, "name": "7fd0f01de61527a50366c04456a65aa2", "is_reserved": 0, "rental_uris": {"android": "https://dc.lft.to/lastmile_qr_scan", "ios": "https://dc.lft.to/lastmile_qr_scan"}, "fusion_lon": 0.0}, {"lat": 38.93319133333333, "is_disabled": 0, "type": "electric_scooter", "lon": -77.04529083333334, "bike_id": "8a4e52340cb3c40f36ba37b45fe43f38", "fusion_lat": 0.0, "name": "8a4e52340cb3c40f36ba37b45fe43f38", "is_reserved": 0, "rental_uris": {"android": "https://dc.lft.to/lastmile_qr_scan", "ios": "https://dc.lft.to/lastmile_qr_scan"}, "fusion_lon": 0.0}, {"lat": 38.923392666666665, "is_disabled": 0, "type": "electric_scooter", "lon": -77.05035266666667, "bike_id": "ec1055ec1596a2ed4485dd0de0907d5c", "fusion_lat": 0.0, "name": "ec1055ec1596a2ed4485dd0de0907d5c", "is_reserved": 0, "rental_uris": {"android": "https://dc.lft.to/lastmile_qr_scan", "ios": "https://dc.lft.to/lastmile_qr_scan"}, "fusion_lon": 0.0}, {"lat": 38.928549333333336, "is_disabled": 0, "type": "electric_scooter", "lon": -77.03326183333333, "bike_id": "0e0fd9d70aa7499a22f4e30b43f5bd14", "fusion_lat": 0.0, "name": "0e0fd9d70aa7499a22f4e30b43f5bd14", "is_reserved": 0, "rental_uris": {"android": "https://dc.lft.to/lastmile_qr_scan", "ios": "https://dc.lft.to/lastmile_qr_scan"}, "fusion_lon": 0.0}, {"lat": 38.89005816666667, "is_disabled": 0, "type": "electric_scooter", "lon": -76.93750466666667, "bike_id": "40af93c58473974989e21b0f2510200e", "fusion_lat": 0.0, "name": "40af93c58473974989e21b0f2510200e", "is_reserved": 0, "rental_uris": {"android": "https://dc.lft.to/lastmile_qr_scan", "ios": "https://dc.lft.to/lastmile_qr_scan"}, "fusion_lon": 0.0}, {"lat": 38.908404833333336, "is_disabled": 0, "type": "electric_scooter", "lon": -76.99698683333334, "bike_id": "3b9716be0d81f3437c193b7fb8dcdda5", "fusion_lat": 0.0, "name": "3b9716be0d81f3437c193b7fb8dcdda5", "is_reserved": 0, "rental_uris": {"android": "https://dc.lft.to/lastmile_qr_scan", "ios": "https://dc.lft.to/lastmile_qr_scan"}, "fusion_lon": 0.0}, {"lat": 38.92235066666667, "is_disabled": 0, "type": "electric_scooter", "lon": -77.04577066666667, "bike_id": "c6a3f55536ab7a7e515a4aa2e4b99f4b", "fusion_lat": 0.0, "name": "c6a3f55536ab7a7e515a4aa2e4b99f4b", "is_reserved": 0, "rental_uris": {"android": "https://dc.lft.to/lastmile_qr_scan", "ios": "https://dc.lft.to/lastmile_qr_scan"}, "fusion_lon": 0.0}, {"lat": 38.90568566666666, "is_disabled": 0, "type": "electric_scooter", "lon": -77.0466455, "bike_id": "848d8fc930535560b5bd71702eaa2833", "fusion_lat": 0.0, "name": "848d8fc930535560b5bd71702eaa2833", "is_reserved": 0, "rental_uris": {"android": "https://dc.lft.to/lastmile_qr_scan", "ios": "https://dc.lft.to/lastmile_qr_scan"}, "fusion_lon": 0.0}, {"lat": 38.9040295, "is_disabled": 0, "type": "electric_scooter", "lon": -76.98512316666667, "bike_id": "0bae6d50e6e93e9de887ff3c26963793", "fusion_lat": 0.0, "name": "0bae6d50e6e93e9de887ff3c26963793", "is_reserved": 0, "rental_uris": {"android": "https://dc.lft.to/lastmile_qr_scan", "ios": "https://dc.lft.to/lastmile_qr_scan"}, "fusion_lon": 0.0}, {"lat": 38.89990383333333, "is_disabled": 0, "type": "electric_scooter", "lon": -77.05259566666666, "bike_id": "816466f658b89c6c34f5aa5512b9364d", "fusion_lat": 0.0, "name": "816466f658b89c6c34f5aa5512b9364d", "is_reserved": 0, "rental_uris": {"android": "https://dc.lft.to/lastmile_qr_scan", "ios": "https://dc.lft.to/lastmile_qr_scan"}, "fusion_lon": 0.0}, {"lat": 38.89442116666667, "is_disabled": 0, "type": "electric_scooter", "lon": -77.0268825, "bike_id": "b6efcd08f3bcf88d45b854516e8de947", "fusion_lat": 0.0, "name": "b6efcd08f3bcf88d45b854516e8de947", "is_reserved": 0, "rental_uris": {"android": "https://dc.lft.to/lastmile_qr_scan", "ios": "https://dc.lft.to/lastmile_qr_scan"}, "fusion_lon": 0.0}, {"lat": 38.895779, "is_disabled": 0, "type": "electric_scooter", "lon": -76.98178266666666, "bike_id": "3df4a71fb3fa655b70fa8ed1bc92ac71", "fusion_lat": 0.0, "name": "3df4a71fb3fa655b70fa8ed1bc92ac71", "is_reserved": 0, "rental_uris": {"android": "https://dc.lft.to/lastmile_qr_scan", "ios": "https://dc.lft.to/lastmile_qr_scan"}, "fusion_lon": 0.0}, {"lat": 38.85372816666667, "is_disabled": 0, "type": "electric_bike", "lon": -77.124271, "bike_id": "69472db6285c732865944fb10d47c9cc", "fusion_lat": 0.0, "name": "69472db6285c732865944fb10d47c9cc", "is_reserved": 0, "rental_uris": {"android": "https://dc.lft.to/lastmile_qr_scan", "ios": "https://dc.lft.to/lastmile_qr_scan"}, "fusion_lon": 0.0}, {"lat": 38.850826166666664, "is_disabled": 0, "type": "electric_bike", "lon": -76.9568245, "bike_id": "de87205467ffa43c4561392bd8adc9f1", "fusion_lat": 0.0, "name": "de87205467ffa43c4561392bd8adc9f1", "is_reserved": 0, "rental_uris": {"android": "https://dc.lft.to/lastmile_qr_scan", "ios": "https://dc.lft.to/lastmile_qr_scan"}, "fusion_lon": 0.0}, {"lat": 38.90000633333333, "is_disabled": 0, "type": "electric_scooter", "lon": -77.02667283333334, "bike_id": "73b031b297cc2cc2c9d0d0b5338136c5", "fusion_lat": 0.0, "name": "73b031b297cc2cc2c9d0d0b5338136c5", "is_reserved": 0, "rental_uris": {"android": "https://dc.lft.to/lastmile_qr_scan", "ios": "https://dc.lft.to/lastmile_qr_scan"}, "fusion_lon": 0.0}, {"lat": 38.900362333333334, "is_disabled": 0, "type": "electric_scooter", "lon": -77.03302, "bike_id": "e4df9648c39b141f784d659c4caa5369", "fusion_lat": 0.0, "name": "e4df9648c39b141f784d659c4caa5369", "is_reserved": 0, "rental_uris": {"android": "https://dc.lft.to/lastmile_qr_scan", "ios": "https://dc.lft.to/lastmile_qr_scan"}, "fusion_lon": 0.0}, {"lat": 38.92535983333333, "is_disabled": 0, "type": "electric_scooter", "lon": -77.04137583333333, "bike_id": "9d4472b67f3bc485f8d6894e9bdacbbc", "fusion_lat": 0.0, "name": "9d4472b67f3bc485f8d6894e9bdacbbc", "is_reserved": 0, "rental_uris": {"android": "https://dc.lft.to/lastmile_qr_scan", "ios": "https://dc.lft.to/lastmile_qr_scan"}, "fusion_lon": 0.0}, {"lat": 38.900722333333334, "is_disabled": 0, "type": "electric_scooter", "lon": -77.00216033333334, "bike_id": "28d84dc4f86d059f798961ec26aca1da", "fusion_lat": 0.0, "name": "28d84dc4f86d059f798961ec26aca1da", "is_reserved": 0, "rental_uris": {"android": "https://dc.lft.to/lastmile_qr_scan", "ios": "https://dc.lft.to/lastmile_qr_scan"}, "fusion_lon": 0.0}, {"lat": 38.9176085, "is_disabled": 0, "type": "electric_scooter", "lon": -77.0319965, "bike_id": "faf4e90d52ba9e30f1faf9c82dd9744e", "fusion_lat": 0.0, "name": "faf4e90d52ba9e30f1faf9c82dd9744e", "is_reserved": 0, "rental_uris": {"android": "https://dc.lft.to/lastmile_qr_scan", "ios": "https://dc.lft.to/lastmile_qr_scan"}, "fusion_lon": 0.0}, {"lat": 38.86675233333333, "is_disabled": 0, "type": "electric_scooter", "lon": -76.98538783333333, "bike_id": "a19021eda658668781555d772b6c3ffa", "fusion_lat": 0.0, "name": "a19021eda658668781555d772b6c3ffa", "is_reserved": 0, "rental_uris": {"android": "https://dc.lft.to/lastmile_qr_scan", "ios": "https://dc.lft.to/lastmile_qr_scan"}, "fusion_lon": 0.0}, {"lat": 38.9178205, "is_disabled": 0, "type": "electric_scooter", "lon": -77.02311283333333, "bike_id": "e368706a14c882379cb4fbd86d95f114", "fusion_lat": 0.0, "name": "e368706a14c882379cb4fbd86d95f114", "is_reserved": 0, "rental_uris": {"android": "https://dc.lft.to/lastmile_qr_scan", "ios": "https://dc.lft.to/lastmile_qr_scan"}, "fusion_lon": 0.0}, {"lat": 38.89221333333333, "is_disabled": 0, "type": "electric_scooter", "lon": -77.04200416666667, "bike_id": "bb14c5ae0af2882da1bef830857a6672", "fusion_lat": 0.0, "name": "bb14c5ae0af2882da1bef830857a6672", "is_reserved": 0, "rental_uris": {"android": "https://dc.lft.to/lastmile_qr_scan", "ios": "https://dc.lft.to/lastmile_qr_scan"}, "fusion_lon": 0.0}, {"lat": 38.91776266666667, "is_disabled": 0, "type": "electric_scooter", "lon": -77.036621, "bike_id": "285462098262894028841a56f7022f5d", "fusion_lat": 0.0, "name": "285462098262894028841a56f7022f5d", "is_reserved": 0, "rental_uris": {"android": "https://dc.lft.to/lastmile_qr_scan", "ios": "https://dc.lft.to/lastmile_qr_scan"}, "fusion_lon": 0.0}, {"lat": 38.91318483333333, "is_disabled": 0, "type": "electric_scooter", "lon": -77.0144635, "bike_id": "dc058830031138926a21a0b1f743e06a", "fusion_lat": 0.0, "name": "dc058830031138926a21a0b1f743e06a", "is_reserved": 0, "rental_uris": {"android": "https://dc.lft.to/lastmile_qr_scan", "ios": "https://dc.lft.to/lastmile_qr_scan"}, "fusion_lon": 0.0}, {"lat": 38.8976465, "is_disabled": 0, "type": "electric_scooter", "lon": -77.02706316666666, "bike_id": "74af89bd5883855b4f67d555ceb6c65c", "fusion_lat": 0.0, "name": "74af89bd5883855b4f67d555ceb6c65c", "is_reserved": 0, "rental_uris": {"android": "https://dc.lft.to/lastmile_qr_scan", "ios": "https://dc.lft.to/lastmile_qr_scan"}, "fusion_lon": 0.0}, {"lat": 38.877320166666664, "is_disabled": 0, "type": "electric_bike", "lon": -76.98107216666666, "bike_id": "fcb1787784820c3b463d740ab713aaeb", "fusion_lat": 0.0, "name": "fcb1787784820c3b463d740ab713aaeb", "is_reserved": 0, "rental_uris": {"android": "https://dc.lft.to/lastmile_qr_scan", "ios": "https://dc.lft.to/lastmile_qr_scan"}, "fusion_lon": 0.0}, {"lat": 38.90969616666667, "is_disabled": 0, "type": "electric_scooter", "lon": -77.03870416666666, "bike_id": "011f6694ca4deb216bde72b22a9e9dd9", "fusion_lat": 0.0, "name": "011f6694ca4deb216bde72b22a9e9dd9", "is_reserved": 0, "rental_uris": {"android": "https://dc.lft.to/lastmile_qr_scan", "ios": "https://dc.lft.to/lastmile_qr_scan"}, "fusion_lon": 0.0}, {"lat": 38.8986335, "is_disabled": 0, "type": "electric_scooter", "lon": -77.02017416666666, "bike_id": "9941e3cfe28e2580689b1e391473d462", "fusion_lat": 0.0, "name": "9941e3cfe28e2580689b1e391473d462", "is_reserved": 0, "rental_uris": {"android": "https://dc.lft.to/lastmile_qr_scan", "ios": "https://dc.lft.to/lastmile_qr_scan"}, "fusion_lon": 0.0}, {"lat": 38.905795833333336, "is_disabled": 0, "type": "electric_scooter", "lon": -77.04879933333333, "bike_id": "db3437d41f54dd1582d8ff7953c1ff0f", "fusion_lat": 0.0, "name": "db3437d41f54dd1582d8ff7953c1ff0f", "is_reserved": 0, "rental_uris": {"android": "https://dc.lft.to/lastmile_qr_scan", "ios": "https://dc.lft.to/lastmile_qr_scan"}, "fusion_lon": 0.0}, {"lat": 38.9221155, "is_disabled": 0, "type": "electric_scooter", "lon": -77.0402275, "bike_id": "e289a38c5347267a382f4205c3c0fe30", "fusion_lat": 0.0, "name": "e289a38c5347267a382f4205c3c0fe30", "is_reserved": 0, "rental_uris": {"android": "https://dc.lft.to/lastmile_qr_scan", "ios": "https://dc.lft.to/lastmile_qr_scan"}, "fusion_lon": 0.0}, {"lat": 38.933121166666666, "is_disabled": 0, "type": "electric_scooter", "lon": -77.04522616666667, "bike_id": "07527c2a666eeed95f8f0ac299396acd", "fusion_lat": 0.0, "name": "07527c2a666eeed95f8f0ac299396acd", "is_reserved": 0, "rental_uris": {"android": "https://dc.lft.to/lastmile_qr_scan", "ios": "https://dc.lft.to/lastmile_qr_scan"}, "fusion_lon": 0.0}, {"lat": 38.8974515, "is_disabled": 0, "type": "electric_scooter", "lon": -77.00074933333333, "bike_id": "7336fe1b18bfff265743b041bb5c6a3c", "fusion_lat": 0.0, "name": "7336fe1b18bfff265743b041bb5c6a3c", "is_reserved": 0, "rental_uris": {"android": "https://dc.lft.to/lastmile_qr_scan", "ios": "https://dc.lft.to/lastmile_qr_scan"}, "fusion_lon": 0.0}, {"lat": 38.91613, "is_disabled": 0, "type": "electric_bike", "lon": -77.00294016666666, "bike_id": "5b29449b5a83494f826a0c3a373d065a", "fusion_lat": 0.0, "name": "5b29449b5a83494f826a0c3a373d065a", "is_reserved": 0, "rental_uris": {"android": "https://dc.lft.to/lastmile_qr_scan", "ios": "https://dc.lft.to/lastmile_qr_scan"}, "fusion_lon": 0.0}, {"lat": 38.871431333333334, "is_disabled": 0, "type": "electric_bike", "lon": -76.9370335, "bike_id": "c2b92fcad8ab193cf2d68f4031dc7a8d", "fusion_lat": 0.0, "name": "c2b92fcad8ab193cf2d68f4031dc7a8d", "is_reserved": 0, "rental_uris": {"android": "https://dc.lft.to/lastmile_qr_scan", "ios": "https://dc.lft.to/lastmile_qr_scan"}, "fusion_lon": 0.0}, {"lat": 38.892212666666666, "is_disabled": 0, "type": "electric_scooter", "lon": -77.0316345, "bike_id": "30f5e2aef26a8dda97d69b02dbe62bcc", "fusion_lat": 0.0, "name": "30f5e2aef26a8dda97d69b02dbe62bcc", "is_reserved": 0, "rental_uris": {"android": "https://dc.lft.to/lastmile_qr_scan", "ios": "https://dc.lft.to/lastmile_qr_scan"}, "fusion_lon": 0.0}, {"lat": 38.88739916666667, "is_disabled": 0, "type": "electric_scooter", "lon": -77.02205583333334, "bike_id": "e4fc487be76dd8519a53a4de4bc20ce7", "fusion_lat": 0.0, "name": "e4fc487be76dd8519a53a4de4bc20ce7", "is_reserved": 0, "rental_uris": {"android": "https://dc.lft.to/lastmile_qr_scan", "ios": "https://dc.lft.to/lastmile_qr_scan"}, "fusion_lon": 0.0}, {"lat": 38.868278333333336, "is_disabled": 0, "type": "electric_scooter", "lon": -76.97743916666667, "bike_id": "8b787f6a1bb69f1c630ecb9be4dfc813", "fusion_lat": 0.0, "name": "8b787f6a1bb69f1c630ecb9be4dfc813", "is_reserved": 0, "rental_uris": {"android": "https://dc.lft.to/lastmile_qr_scan", "ios": "https://dc.lft.to/lastmile_qr_scan"}, "fusion_lon": 0.0}, {"lat": 38.892231, "is_disabled": 0, "type": "electric_scooter", "lon": -77.04370733333333, "bike_id": "a0185cd9d505ed6a37c0fbc2c4d228cb", "fusion_lat": 0.0, "name": "a0185cd9d505ed6a37c0fbc2c4d228cb", "is_reserved": 0, "rental_uris": {"android": "https://dc.lft.to/lastmile_qr_scan", "ios": "https://dc.lft.to/lastmile_qr_scan"}, "fusion_lon": 0.0}, {"lat": 38.91610133333333, "is_disabled": 0, "type": "electric_scooter", "lon": -77.04854316666666, "bike_id": "255bbb2e7ed6e7799e59da2782f739f9", "fusion_lat": 0.0, "name": "255bbb2e7ed6e7799e59da2782f739f9", "is_reserved": 0, "rental_uris": {"android": "https://dc.lft.to/lastmile_qr_scan", "ios": "https://dc.lft.to/lastmile_qr_scan"}, "fusion_lon": 0.0}, {"lat": 38.90057133333333, "is_disabled": 0, "type": "electric_scooter", "lon": -77.05066666666667, "bike_id": "950a31a336bd7fe92a007cd491c1a022", "fusion_lat": 0.0, "name": "950a31a336bd7fe92a007cd491c1a022", "is_reserved": 0, "rental_uris": {"android": "https://dc.lft.to/lastmile_qr_scan", "ios": "https://dc.lft.to/lastmile_qr_scan"}, "fusion_lon": 0.0}, {"lat": 38.9063605, "is_disabled": 0, "type": "electric_scooter", "lon": -77.024991, "bike_id": "299d492810d8441d9fbd1794f0733878", "fusion_lat": 0.0, "name": "299d492810d8441d9fbd1794f0733878", "is_reserved": 0, "rental_uris": {"android": "https://dc.lft.to/lastmile_qr_scan", "ios": "https://dc.lft.to/lastmile_qr_scan"}, "fusion_lon": 0.0}, {"lat": 38.92466133333333, "is_disabled": 0, "type": "electric_scooter", "lon": -77.02715533333334, "bike_id": "989f7de50e38bcd22230f1838717102b", "fusion_lat": 0.0, "name": "989f7de50e38bcd22230f1838717102b", "is_reserved": 0, "rental_uris": {"android": "https://dc.lft.to/lastmile_qr_scan", "ios": "https://dc.lft.to/lastmile_qr_scan"}, "fusion_lon": 0.0}, {"lat": 38.912573333333334, "is_disabled": 0, "type": "electric_scooter", "lon": -77.03875783333334, "bike_id": "b83e230ae3949b2e099393b7914304fc", "fusion_lat": 0.0, "name": "b83e230ae3949b2e099393b7914304fc", "is_reserved": 0, "rental_uris": {"android": "https://dc.lft.to/lastmile_qr_scan", "ios": "https://dc.lft.to/lastmile_qr_scan"}, "fusion_lon": 0.0}, {"lat": 38.928403833333334, "is_disabled": 0, "type": "electric_scooter", "lon": -77.03326166666666, "bike_id": "11538ac3b7cdc194567202e6ac772077", "fusion_lat": 0.0, "name": "11538ac3b7cdc194567202e6ac772077", "is_reserved": 0, "rental_uris": {"android": "https://dc.lft.to/lastmile_qr_scan", "ios": "https://dc.lft.to/lastmile_qr_scan"}, "fusion_lon": 0.0}, {"lat": 38.91608866666667, "is_disabled": 0, "type": "electric_scooter", "lon": -77.03276233333334, "bike_id": "83beaee619b2838551e0aa2c7681bdb4", "fusion_lat": 0.0, "name": "83beaee619b2838551e0aa2c7681bdb4", "is_reserved": 0, "rental_uris": {"android": "https://dc.lft.to/lastmile_qr_scan", "ios": "https://dc.lft.to/lastmile_qr_scan"}, "fusion_lon": 0.0}, {"lat": 38.914246166666665, "is_disabled": 0, "type": "electric_scooter", "lon": -77.04644083333334, "bike_id": "f37f30bf04128f59441816e337fd9ea9", "fusion_lat": 0.0, "name": "f37f30bf04128f59441816e337fd9ea9", "is_reserved": 0, "rental_uris": {"android": "https://dc.lft.to/lastmile_qr_scan", "ios": "https://dc.lft.to/lastmile_qr_scan"}, "fusion_lon": 0.0}, {"lat": 38.933399333333334, "is_disabled": 0, "type": "electric_scooter", "lon": -76.99311083333333, "bike_id": "c88b9ac93d352c2eebd4e77d0715c0f7", "fusion_lat": 0.0, "name": "c88b9ac93d352c2eebd4e77d0715c0f7", "is_reserved": 0, "rental_uris": {"android": "https://dc.lft.to/lastmile_qr_scan", "ios": "https://dc.lft.to/lastmile_qr_scan"}, "fusion_lon": 0.0}, {"lat": 38.9070455, "is_disabled": 0, "type": "electric_scooter", "lon": -77.03097733333334, "bike_id": "8501aa00edc4d2c07130776513e26fc4", "fusion_lat": 0.0, "name": "8501aa00edc4d2c07130776513e26fc4", "is_reserved": 0, "rental_uris": {"android": "https://dc.lft.to/lastmile_qr_scan", "ios": "https://dc.lft.to/lastmile_qr_scan"}, "fusion_lon": 0.0}, {"lat": 38.909576, "is_disabled": 0, "type": "electric_scooter", "lon": -77.021627, "bike_id": "eaa05137298c2839c173736e62b32a6f", "fusion_lat": 0.0, "name": "eaa05137298c2839c173736e62b32a6f", "is_reserved": 0, "rental_uris": {"android": "https://dc.lft.to/lastmile_qr_scan", "ios": "https://dc.lft.to/lastmile_qr_scan"}, "fusion_lon": 0.0}, {"lat": 38.918171, "is_disabled": 0, "type": "electric_scooter", "lon": -77.02489033333333, "bike_id": "5a04e78c2a70ef271ee7b651a7ef11d9", "fusion_lat": 0.0, "name": "5a04e78c2a70ef271ee7b651a7ef11d9", "is_reserved": 0, "rental_uris": {"android": "https://dc.lft.to/lastmile_qr_scan", "ios": "https://dc.lft.to/lastmile_qr_scan"}, "fusion_lon": 0.0}, {"lat": 38.903623333333336, "is_disabled": 0, "type": "electric_scooter", "lon": -77.02029166666667, "bike_id": "69cea683134eabc7c4ebe72987ebc3b9", "fusion_lat": 0.0, "name": "69cea683134eabc7c4ebe72987ebc3b9", "is_reserved": 0, "rental_uris": {"android": "https://dc.lft.to/lastmile_qr_scan", "ios": "https://dc.lft.to/lastmile_qr_scan"}, "fusion_lon": 0.0}, {"lat": 38.92325866666667, "is_disabled": 0, "type": "electric_scooter", "lon": -77.03201266666666, "bike_id": "6dee536c49c22980561d312033cd85b4", "fusion_lat": 0.0, "name": "6dee536c49c22980561d312033cd85b4", "is_reserved": 0, "rental_uris": {"android": "https://dc.lft.to/lastmile_qr_scan", "ios": "https://dc.lft.to/lastmile_qr_scan"}, "fusion_lon": 0.0}, {"lat": 38.92360583333333, "is_disabled": 0, "type": "electric_scooter", "lon": -77.05130066666666, "bike_id": "5773575629af4ab6b4afcd0e706e9991", "fusion_lat": 0.0, "name": "5773575629af4ab6b4afcd0e706e9991", "is_reserved": 0, "rental_uris": {"android": "https://dc.lft.to/lastmile_qr_scan", "ios": "https://dc.lft.to/lastmile_qr_scan"}, "fusion_lon": 0.0}, {"lat": 38.8994905, "is_disabled": 0, "type": "electric_scooter", "lon": -77.00334566666666, "bike_id": "332662314b05d4222b301c078a2be65c", "fusion_lat": 0.0, "name": "332662314b05d4222b301c078a2be65c", "is_reserved": 0, "rental_uris": {"android": "https://dc.lft.to/lastmile_qr_scan", "ios": "https://dc.lft.to/lastmile_qr_scan"}, "fusion_lon": 0.0}, {"lat": 38.916974833333335, "is_disabled": 0, "type": "electric_scooter", "lon": -77.02867, "bike_id": "0f331ac711b125c0755feba1fb529dc0", "fusion_lat": 0.0, "name": "0f331ac711b125c0755feba1fb529dc0", "is_reserved": 0, "rental_uris": {"android": "https://dc.lft.to/lastmile_qr_scan", "ios": "https://dc.lft.to/lastmile_qr_scan"}, "fusion_lon": 0.0}, {"lat": 38.9000815, "is_disabled": 0, "type": "electric_scooter", "lon": -76.92235333333333, "bike_id": "be32c8c7831900f0b663987407c34095", "fusion_lat": 0.0, "name": "be32c8c7831900f0b663987407c34095", "is_reserved": 0, "rental_uris": {"android": "https://dc.lft.to/lastmile_qr_scan", "ios": "https://dc.lft.to/lastmile_qr_scan"}, "fusion_lon": 0.0}, {"lat": 38.9178295, "is_disabled": 0, "type": "electric_scooter", "lon": -77.043372, "bike_id": "aebc8e4c0420d938690c8682d1337ef3", "fusion_lat": 0.0, "name": "aebc8e4c0420d938690c8682d1337ef3", "is_reserved": 0, "rental_uris": {"android": "https://dc.lft.to/lastmile_qr_scan", "ios": "https://dc.lft.to/lastmile_qr_scan"}, "fusion_lon": 0.0}, {"lat": 38.909631, "is_disabled": 0, "type": "electric_scooter", "lon": -77.02380533333333, "bike_id": "650e7dad60c1dd1afb65e89417f363de", "fusion_lat": 0.0, "name": "650e7dad60c1dd1afb65e89417f363de", "is_reserved": 0, "rental_uris": {"android": "https://dc.lft.to/lastmile_qr_scan", "ios": "https://dc.lft.to/lastmile_qr_scan"}, "fusion_lon": 0.0}, {"lat": 38.925687833333335, "is_disabled": 0, "type": "electric_scooter", "lon": -77.05757866666667, "bike_id": "4f11caea50ccd228f4c9707f5bc74130", "fusion_lat": 0.0, "name": "4f11caea50ccd228f4c9707f5bc74130", "is_reserved": 0, "rental_uris": {"android": "https://dc.lft.to/lastmile_qr_scan", "ios": "https://dc.lft.to/lastmile_qr_scan"}, "fusion_lon": 0.0}, {"lat": 38.909491333333335, "is_disabled": 0, "type": "electric_scooter", "lon": -77.03445083333334, "bike_id": "0dc458e3f6e1dcae20763b5d9f2b5833", "fusion_lat": 0.0, "name": "0dc458e3f6e1dcae20763b5d9f2b5833", "is_reserved": 0, "rental_uris": {"android": "https://dc.lft.to/lastmile_qr_scan", "ios": "https://dc.lft.to/lastmile_qr_scan"}, "fusion_lon": 0.0}, {"lat": 38.90985766666667, "is_disabled": 0, "type": "electric_scooter", "lon": -77.03188183333333, "bike_id": "29cfa2d5296f748293f349399a13e9a0", "fusion_lat": 0.0, "name": "29cfa2d5296f748293f349399a13e9a0", "is_reserved": 0, "rental_uris": {"android": "https://dc.lft.to/lastmile_qr_scan", "ios": "https://dc.lft.to/lastmile_qr_scan"}, "fusion_lon": 0.0}, {"lat": 38.80680666666667, "is_disabled": 0, "type": "electric_bike", "lon": -77.08120783333334, "bike_id": "6f95e92755722f6640a80433b13d4c5b", "fusion_lat": 0.0, "name": "6f95e92755722f6640a80433b13d4c5b", "is_reserved": 0, "rental_uris": {"android": "https://dc.lft.to/lastmile_qr_scan", "ios": "https://dc.lft.to/lastmile_qr_scan"}, "fusion_lon": 0.0}, {"lat": 38.90761366666667, "is_disabled": 0, "type": "electric_scooter", "lon": -77.0702635, "bike_id": "63df46c2a0f7f1e49c9b90eabd50d493", "fusion_lat": 0.0, "name": "63df46c2a0f7f1e49c9b90eabd50d493", "is_reserved": 0, "rental_uris": {"android": "https://dc.lft.to/lastmile_qr_scan", "ios": "https://dc.lft.to/lastmile_qr_scan"}, "fusion_lon": 0.0}, {"lat": 38.90331533333333, "is_disabled": 0, "type": "electric_scooter", "lon": -76.975961, "bike_id": "f6d2b6bb82f2d39bf385a3079258a8f5", "fusion_lat": 0.0, "name": "f6d2b6bb82f2d39bf385a3079258a8f5", "is_reserved": 0, "rental_uris": {"android": "https://dc.lft.to/lastmile_qr_scan", "ios": "https://dc.lft.to/lastmile_qr_scan"}, "fusion_lon": 0.0}, {"lat": 38.90735983333333, "is_disabled": 0, "type": "electric_scooter", "lon": -76.93547366666667, "bike_id": "81caba269c3b8b50933fda1cb8191683", "fusion_lat": 0.0, "name": "81caba269c3b8b50933fda1cb8191683", "is_reserved": 0, "rental_uris": {"android": "https://dc.lft.to/lastmile_qr_scan", "ios": "https://dc.lft.to/lastmile_qr_scan"}, "fusion_lon": 0.0}, {"lat": 38.8665635, "is_disabled": 0, "type": "electric_scooter", "lon": -76.98887233333333, "bike_id": "e9e49519477c40e390819d0e8772275e", "fusion_lat": 0.0, "name": "e9e49519477c40e390819d0e8772275e", "is_reserved": 0, "rental_uris": {"android": "https://dc.lft.to/lastmile_qr_scan", "ios": "https://dc.lft.to/lastmile_qr_scan"}, "fusion_lon": 0.0}, {"lat": 38.923435166666664, "is_disabled": 0, "type": "electric_scooter", "lon": -77.03523283333334, "bike_id": "5d215357ccdc488cc4960a931e1ff544", "fusion_lat": 0.0, "name": "5d215357ccdc488cc4960a931e1ff544", "is_reserved": 0, "rental_uris": {"android": "https://dc.lft.to/lastmile_qr_scan", "ios": "https://dc.lft.to/lastmile_qr_scan"}, "fusion_lon": 0.0}, {"lat": 38.868893, "is_disabled": 0, "type": "electric_scooter", "lon": -76.98309383333333, "bike_id": "e6621f995529c230edf3c85bdfd454dc", "fusion_lat": 0.0, "name": "e6621f995529c230edf3c85bdfd454dc", "is_reserved": 0, "rental_uris": {"android": "https://dc.lft.to/lastmile_qr_scan", "ios": "https://dc.lft.to/lastmile_qr_scan"}, "fusion_lon": 0.0}, {"lat": 38.91887, "is_disabled": 0, "type": "electric_scooter", "lon": -77.02464033333334, "bike_id": "14abad277311e8c28f0d8c5df6399cf6", "fusion_lat": 0.0, "name": "14abad277311e8c28f0d8c5df6399cf6", "is_reserved": 0, "rental_uris": {"android": "https://dc.lft.to/lastmile_qr_scan", "ios": "https://dc.lft.to/lastmile_qr_scan"}, "fusion_lon": 0.0}, {"lat": 38.9057735, "is_disabled": 0, "type": "electric_scooter", "lon": -77.0088885, "bike_id": "80c09b8409079bf2f3de373ca6ba6102", "fusion_lat": 0.0, "name": "80c09b8409079bf2f3de373ca6ba6102", "is_reserved": 0, "rental_uris": {"android": "https://dc.lft.to/lastmile_qr_scan", "ios": "https://dc.lft.to/lastmile_qr_scan"}, "fusion_lon": 0.0}, {"lat": 38.8991845, "is_disabled": 0, "type": "electric_scooter", "lon": -77.028018, "bike_id": "8d5f4bce09dd7dc4dd12ade4ca5fa977", "fusion_lat": 0.0, "name": "8d5f4bce09dd7dc4dd12ade4ca5fa977", "is_reserved": 0, "rental_uris": {"android": "https://dc.lft.to/lastmile_qr_scan", "ios": "https://dc.lft.to/lastmile_qr_scan"}, "fusion_lon": 0.0}, {"lat": 38.90575166666667, "is_disabled": 0, "type": "electric_scooter", "lon": -77.005952, "bike_id": "b205b685fdae2e385fa61c54c63663f1", "fusion_lat": 0.0, "name": "b205b685fdae2e385fa61c54c63663f1", "is_reserved": 0, "rental_uris": {"android": "https://dc.lft.to/lastmile_qr_scan", "ios": "https://dc.lft.to/lastmile_qr_scan"}, "fusion_lon": 0.0}, {"lat": 38.900292666666665, "is_disabled": 0, "type": "electric_scooter", "lon": -77.00004433333334, "bike_id": "ec00dcd7f6d4f65b4c647e48d88d8527", "fusion_lat": 0.0, "name": "ec00dcd7f6d4f65b4c647e48d88d8527", "is_reserved": 0, "rental_uris": {"android": "https://dc.lft.to/lastmile_qr_scan", "ios": "https://dc.lft.to/lastmile_qr_scan"}, "fusion_lon": 0.0}, {"lat": 38.91984216666667, "is_disabled": 0, "type": "electric_scooter", "lon": -77.0326735, "bike_id": "d89a262f76ed1fcfaab28d593b52d09a", "fusion_lat": 0.0, "name": "d89a262f76ed1fcfaab28d593b52d09a", "is_reserved": 0, "rental_uris": {"android": "https://dc.lft.to/lastmile_qr_scan", "ios": "https://dc.lft.to/lastmile_qr_scan"}, "fusion_lon": 0.0}, {"lat": 38.89898133333333, "is_disabled": 0, "type": "electric_scooter", "lon": -76.99728966666666, "bike_id": "a290abf92ad00adf43b721ed5f8eb741", "fusion_lat": 0.0, "name": "a290abf92ad00adf43b721ed5f8eb741", "is_reserved": 0, "rental_uris": {"android": "https://dc.lft.to/lastmile_qr_scan", "ios": "https://dc.lft.to/lastmile_qr_scan"}, "fusion_lon": 0.0}, {"lat": 38.90229933333333, "is_disabled": 0, "type": "electric_scooter", "lon": -77.00065983333333, "bike_id": "eea511efd2770bfa392f7812a43e89fb", "fusion_lat": 0.0, "name": "eea511efd2770bfa392f7812a43e89fb", "is_reserved": 0, "rental_uris": {"android": "https://dc.lft.to/lastmile_qr_scan", "ios": "https://dc.lft.to/lastmile_qr_scan"}, "fusion_lon": 0.0}, {"lat": 38.8813825, "is_disabled": 0, "type": "electric_scooter", "lon": -76.995128, "bike_id": "54d9417bf6e050dec5df2aedb6e8c4bd", "fusion_lat": 0.0, "name": "54d9417bf6e050dec5df2aedb6e8c4bd", "is_reserved": 0, "rental_uris": {"android": "https://dc.lft.to/lastmile_qr_scan", "ios": "https://dc.lft.to/lastmile_qr_scan"}, "fusion_lon": 0.0}, {"lat": 38.87722016666667, "is_disabled": 0, "type": "electric_scooter", "lon": -77.0176005, "bike_id": "f610a767572968f18d09e25940cefb54", "fusion_lat": 0.0, "name": "f610a767572968f18d09e25940cefb54", "is_reserved": 0, "rental_uris": {"android": "https://dc.lft.to/lastmile_qr_scan", "ios": "https://dc.lft.to/lastmile_qr_scan"}, "fusion_lon": 0.0}, {"lat": 38.91354366666667, "is_disabled": 0, "type": "electric_scooter", "lon": -77.03364, "bike_id": "1dd029e7bb9adeb035802b7d3c72567a", "fusion_lat": 0.0, "name": "1dd029e7bb9adeb035802b7d3c72567a", "is_reserved": 0, "rental_uris": {"android": "https://dc.lft.to/lastmile_qr_scan", "ios": "https://dc.lft.to/lastmile_qr_scan"}, "fusion_lon": 0.0}, {"lat": 38.900915833333336, "is_disabled": 0, "type": "electric_scooter", "lon": -77.05600816666667, "bike_id": "4bafca38f08056c295e35b92b40b8dba", "fusion_lat": 0.0, "name": "4bafca38f08056c295e35b92b40b8dba", "is_reserved": 0, "rental_uris": {"android": "https://dc.lft.to/lastmile_qr_scan", "ios": "https://dc.lft.to/lastmile_qr_scan"}, "fusion_lon": 0.0}, {"lat": 38.9021885, "is_disabled": 0, "type": "electric_scooter", "lon": -77.05902183333333, "bike_id": "4b336a0f799aad7252a322ae24124dc4", "fusion_lat": 0.0, "name": "4b336a0f799aad7252a322ae24124dc4", "is_reserved": 0, "rental_uris": {"android": "https://dc.lft.to/lastmile_qr_scan", "ios": "https://dc.lft.to/lastmile_qr_scan"}, "fusion_lon": 0.0}, {"lat": 38.8922325, "is_disabled": 0, "type": "electric_scooter", "lon": -77.02212283333333, "bike_id": "0b6abf124c875b8c071e298fde183eef", "fusion_lat": 0.0, "name": "0b6abf124c875b8c071e298fde183eef", "is_reserved": 0, "rental_uris": {"android": "https://dc.lft.to/lastmile_qr_scan", "ios": "https://dc.lft.to/lastmile_qr_scan"}, "fusion_lon": 0.0}, {"lat": 38.915688833333334, "is_disabled": 0, "type": "electric_scooter", "lon": -77.022901, "bike_id": "495e6020ff8c18325ed54e64c90c8af0", "fusion_lat": 0.0, "name": "495e6020ff8c18325ed54e64c90c8af0", "is_reserved": 0, "rental_uris": {"android": "https://dc.lft.to/lastmile_qr_scan", "ios": "https://dc.lft.to/lastmile_qr_scan"}, "fusion_lon": 0.0}, {"lat": 38.916045, "is_disabled": 0, "type": "electric_scooter", "lon": -77.0319115, "bike_id": "29bcdc130eb43f134368f380fb7482e7", "fusion_lat": 0.0, "name": "29bcdc130eb43f134368f380fb7482e7", "is_reserved": 0, "rental_uris": {"android": "https://dc.lft.to/lastmile_qr_scan", "ios": "https://dc.lft.to/lastmile_qr_scan"}, "fusion_lon": 0.0}, {"lat": 38.909492, "is_disabled": 0, "type": "electric_scooter", "lon": -77.03447916666667, "bike_id": "4de07e90f7ed71ed237aad573fd16655", "fusion_lat": 0.0, "name": "4de07e90f7ed71ed237aad573fd16655", "is_reserved": 0, "rental_uris": {"android": "https://dc.lft.to/lastmile_qr_scan", "ios": "https://dc.lft.to/lastmile_qr_scan"}, "fusion_lon": 0.0}, {"lat": 38.90495333333333, "is_disabled": 0, "type": "electric_scooter", "lon": -77.04866516666667, "bike_id": "a96a5190fb5bd7a26ae05399719d6307", "fusion_lat": 0.0, "name": "a96a5190fb5bd7a26ae05399719d6307", "is_reserved": 0, "rental_uris": {"android": "https://dc.lft.to/lastmile_qr_scan", "ios": "https://dc.lft.to/lastmile_qr_scan"}, "fusion_lon": 0.0}, {"lat": 38.900163666666664, "is_disabled": 0, "type": "electric_scooter", "lon": -77.006656, "bike_id": "3da90991b3459d8e013f3644accc88c5", "fusion_lat": 0.0, "name": "3da90991b3459d8e013f3644accc88c5", "is_reserved": 0, "rental_uris": {"android": "https://dc.lft.to/lastmile_qr_scan", "ios": "https://dc.lft.to/lastmile_qr_scan"}, "fusion_lon": 0.0}, {"lat": 38.9174385, "is_disabled": 0, "type": "electric_scooter", "lon": -77.03605116666667, "bike_id": "c2530019d84bc929ec2bc8c738ee8503", "fusion_lat": 0.0, "name": "c2530019d84bc929ec2bc8c738ee8503", "is_reserved": 0, "rental_uris": {"android": "https://dc.lft.to/lastmile_qr_scan", "ios": "https://dc.lft.to/lastmile_qr_scan"}, "fusion_lon": 0.0}, {"lat": 38.941731833333336, "is_disabled": 0, "type": "electric_scooter", "lon": -77.02502266666667, "bike_id": "f750fe2298634d3499acabe4c056197a", "fusion_lat": 0.0, "name": "f750fe2298634d3499acabe4c056197a", "is_reserved": 0, "rental_uris": {"android": "https://dc.lft.to/lastmile_qr_scan", "ios": "https://dc.lft.to/lastmile_qr_scan"}, "fusion_lon": 0.0}, {"lat": 38.86504766666667, "is_disabled": 0, "type": "electric_scooter", "lon": -76.990049, "bike_id": "82a0add486a643773855b7d57ffe934a", "fusion_lat": 0.0, "name": "82a0add486a643773855b7d57ffe934a", "is_reserved": 0, "rental_uris": {"android": "https://dc.lft.to/lastmile_qr_scan", "ios": "https://dc.lft.to/lastmile_qr_scan"}, "fusion_lon": 0.0}, {"lat": 38.89221633333333, "is_disabled": 0, "type": "electric_scooter", "lon": -76.93298883333334, "bike_id": "2bc3dd5939fb3ff06d6449169bc27f39", "fusion_lat": 0.0, "name": "2bc3dd5939fb3ff06d6449169bc27f39", "is_reserved": 0, "rental_uris": {"android": "https://dc.lft.to/lastmile_qr_scan", "ios": "https://dc.lft.to/lastmile_qr_scan"}, "fusion_lon": 0.0}, {"lat": 38.887419666666666, "is_disabled": 0, "type": "electric_scooter", "lon": -76.98358816666666, "bike_id": "6e3e5f197dd940f9b33b6f0bc4549084", "fusion_lat": 0.0, "name": "6e3e5f197dd940f9b33b6f0bc4549084", "is_reserved": 0, "rental_uris": {"android": "https://dc.lft.to/lastmile_qr_scan", "ios": "https://dc.lft.to/lastmile_qr_scan"}, "fusion_lon": 0.0}, {"lat": 38.86698416666667, "is_disabled": 0, "type": "electric_scooter", "lon": -76.987139, "bike_id": "c8ddc5fecd52c249c4a7b75d976ea753", "fusion_lat": 0.0, "name": "c8ddc5fecd52c249c4a7b75d976ea753", "is_reserved": 0, "rental_uris": {"android": "https://dc.lft.to/lastmile_qr_scan", "ios": "https://dc.lft.to/lastmile_qr_scan"}, "fusion_lon": 0.0}, {"lat": 38.93529316666667, "is_disabled": 0, "type": "electric_scooter", "lon": -77.072981, "bike_id": "f7d0b1de1a2d44f7f6941a0453fb49d6", "fusion_lat": 0.0, "name": "f7d0b1de1a2d44f7f6941a0453fb49d6", "is_reserved": 0, "rental_uris": {"android": "https://dc.lft.to/lastmile_qr_scan", "ios": "https://dc.lft.to/lastmile_qr_scan"}, "fusion_lon": 0.0}, {"lat": 38.8953285, "is_disabled": 0, "type": "electric_scooter", "lon": -76.9489245, "bike_id": "69de04c0fff3eb0fda75eb542944336d", "fusion_lat": 0.0, "name": "69de04c0fff3eb0fda75eb542944336d", "is_reserved": 0, "rental_uris": {"android": "https://dc.lft.to/lastmile_qr_scan", "ios": "https://dc.lft.to/lastmile_qr_scan"}, "fusion_lon": 0.0}, {"lat": 38.905593333333336, "is_disabled": 0, "type": "electric_scooter", "lon": -77.01684033333333, "bike_id": "b5ed9748a4db9a10683a15ea3a66111b", "fusion_lat": 0.0, "name": "b5ed9748a4db9a10683a15ea3a66111b", "is_reserved": 0, "rental_uris": {"android": "https://dc.lft.to/lastmile_qr_scan", "ios": "https://dc.lft.to/lastmile_qr_scan"}, "fusion_lon": 0.0}, {"lat": 38.8904955, "is_disabled": 0, "type": "electric_scooter", "lon": -76.9374245, "bike_id": "be2d8a92aef334d051286ef9b49bf99b", "fusion_lat": 0.0, "name": "be2d8a92aef334d051286ef9b49bf99b", "is_reserved": 0, "rental_uris": {"android": "https://dc.lft.to/lastmile_qr_scan", "ios": "https://dc.lft.to/lastmile_qr_scan"}, "fusion_lon": 0.0}, {"lat": 38.9028325, "is_disabled": 0, "type": "electric_scooter", "lon": -77.05809466666666, "bike_id": "932adc0450d46a8c618d3b787ec4901d", "fusion_lat": 0.0, "name": "932adc0450d46a8c618d3b787ec4901d", "is_reserved": 0, "rental_uris": {"android": "https://dc.lft.to/lastmile_qr_scan", "ios": "https://dc.lft.to/lastmile_qr_scan"}, "fusion_lon": 0.0}, {"lat": 38.9563475, "is_disabled": 0, "type": "electric_bike", "lon": -77.01959383333333, "bike_id": "eaa9b483595553200cb17d82ab7ea3d4", "fusion_lat": 0.0, "name": "eaa9b483595553200cb17d82ab7ea3d4", "is_reserved": 0, "rental_uris": {"android": "https://dc.lft.to/lastmile_qr_scan", "ios": "https://dc.lft.to/lastmile_qr_scan"}, "fusion_lon": 0.0}, {"lat": 38.909426333333336, "is_disabled": 0, "type": "electric_scooter", "lon": -76.9896105, "bike_id": "fd746912284fc4ece50aaf63124b36a2", "fusion_lat": 0.0, "name": "fd746912284fc4ece50aaf63124b36a2", "is_reserved": 0, "rental_uris": {"android": "https://dc.lft.to/lastmile_qr_scan", "ios": "https://dc.lft.to/lastmile_qr_scan"}, "fusion_lon": 0.0}, {"lat": 38.903512666666664, "is_disabled": 0, "type": "electric_scooter", "lon": -77.01108116666667, "bike_id": "97d467e1eac2d819f4f9c24806b6eff1", "fusion_lat": 0.0, "name": "97d467e1eac2d819f4f9c24806b6eff1", "is_reserved": 0, "rental_uris": {"android": "https://dc.lft.to/lastmile_qr_scan", "ios": "https://dc.lft.to/lastmile_qr_scan"}, "fusion_lon": 0.0}, {"lat": 38.87412533333333, "is_disabled": 0, "type": "electric_bike", "lon": -76.965649, "bike_id": "72005c052baafcb75920e5ad081c8734", "fusion_lat": 0.0, "name": "72005c052baafcb75920e5ad081c8734", "is_reserved": 0, "rental_uris": {"android": "https://dc.lft.to/lastmile_qr_scan", "ios": "https://dc.lft.to/lastmile_qr_scan"}, "fusion_lon": 0.0}, {"lat": 38.90073616666667, "is_disabled": 0, "type": "electric_scooter", "lon": -77.02714183333333, "bike_id": "588a994f4c04ba366cf74ff4821c1545", "fusion_lat": 0.0, "name": "588a994f4c04ba366cf74ff4821c1545", "is_reserved": 0, "rental_uris": {"android": "https://dc.lft.to/lastmile_qr_scan", "ios": "https://dc.lft.to/lastmile_qr_scan"}, "fusion_lon": 0.0}, {"lat": 38.840279833333334, "is_disabled": 0, "type": "electric_bike", "lon": -76.97589883333333, "bike_id": "20b5f448f8dca24940c0bee00fad8338", "fusion_lat": 0.0, "name": "20b5f448f8dca24940c0bee00fad8338", "is_reserved": 0, "rental_uris": {"android": "https://dc.lft.to/lastmile_qr_scan", "ios": "https://dc.lft.to/lastmile_qr_scan"}, "fusion_lon": 0.0}, {"lat": 38.96223466666667, "is_disabled": 0, "type": "electric_bike", "lon": -77.02627316666667, "bike_id": "a51b36ab5e60b4806a49f48459e36ebb", "fusion_lat": 0.0, "name": "a51b36ab5e60b4806a49f48459e36ebb", "is_reserved": 0, "rental_uris": {"android": "https://dc.lft.to/lastmile_qr_scan", "ios": "https://dc.lft.to/lastmile_qr_scan"}, "fusion_lon": 0.0}, {"lat": 38.90557366666667, "is_disabled": 0, "type": "electric_scooter", "lon": -77.04677266666667, "bike_id": "717304d08b2bf5eb90d1fec4a9ecaf84", "fusion_lat": 0.0, "name": "717304d08b2bf5eb90d1fec4a9ecaf84", "is_reserved": 0, "rental_uris": {"android": "https://dc.lft.to/lastmile_qr_scan", "ios": "https://dc.lft.to/lastmile_qr_scan"}, "fusion_lon": 0.0}, {"lat": 38.92332066666667, "is_disabled": 0, "type": "electric_bike", "lon": -77.03894283333334, "bike_id": "bda81249946934e1f8def7ef99bee294", "fusion_lat": 0.0, "name": "bda81249946934e1f8def7ef99bee294", "is_reserved": 0, "rental_uris": {"android": "https://dc.lft.to/lastmile_qr_scan", "ios": "https://dc.lft.to/lastmile_qr_scan"}, "fusion_lon": 0.0}, {"lat": 38.913755, "is_disabled": 0, "type": "electric_scooter", "lon": -77.0200285, "bike_id": "fccf06f8d9752e51fea1f386a00ec249", "fusion_lat": 0.0, "name": "fccf06f8d9752e51fea1f386a00ec249", "is_reserved": 0, "rental_uris": {"android": "https://dc.lft.to/lastmile_qr_scan", "ios": "https://dc.lft.to/lastmile_qr_scan"}, "fusion_lon": 0.0}, {"lat": 38.93333033333333, "is_disabled": 0, "type": "electric_bike", "lon": -77.0422835, "bike_id": "62598310901119419db5675773211b2e", "fusion_lat": 0.0, "name": "62598310901119419db5675773211b2e", "is_reserved": 0, "rental_uris": {"android": "https://dc.lft.to/lastmile_qr_scan", "ios": "https://dc.lft.to/lastmile_qr_scan"}, "fusion_lon": 0.0}, {"lat": 38.94819366666667, "is_disabled": 0, "type": "electric_scooter", "lon": -76.99908416666666, "bike_id": "3a280ba147c51ed89742fedaf233795b", "fusion_lat": 0.0, "name": "3a280ba147c51ed89742fedaf233795b", "is_reserved": 0, "rental_uris": {"android": "https://dc.lft.to/lastmile_qr_scan", "ios": "https://dc.lft.to/lastmile_qr_scan"}, "fusion_lon": 0.0}, {"lat": 38.9167425, "is_disabled": 0, "type": "electric_scooter", "lon": -77.032176, "bike_id": "165f2e13d87079dbc29c9ffcce1887f0", "fusion_lat": 0.0, "name": "165f2e13d87079dbc29c9ffcce1887f0", "is_reserved": 0, "rental_uris": {"android": "https://dc.lft.to/lastmile_qr_scan", "ios": "https://dc.lft.to/lastmile_qr_scan"}, "fusion_lon": 0.0}, {"lat": 38.89743683333333, "is_disabled": 0, "type": "electric_scooter", "lon": -77.02171866666667, "bike_id": "c918f5dba730ad0f6f40d147f6184c07", "fusion_lat": 0.0, "name": "c918f5dba730ad0f6f40d147f6184c07", "is_reserved": 0, "rental_uris": {"android": "https://dc.lft.to/lastmile_qr_scan", "ios": "https://dc.lft.to/lastmile_qr_scan"}, "fusion_lon": 0.0}, {"lat": 38.92033216666667, "is_disabled": 0, "type": "electric_scooter", "lon": -77.04181216666667, "bike_id": "e5ef95b4756777b788ade3d2ed9c820b", "fusion_lat": 0.0, "name": "e5ef95b4756777b788ade3d2ed9c820b", "is_reserved": 0, "rental_uris": {"android": "https://dc.lft.to/lastmile_qr_scan", "ios": "https://dc.lft.to/lastmile_qr_scan"}, "fusion_lon": 0.0}, {"lat": 38.91414533333333, "is_disabled": 0, "type": "electric_scooter", "lon": -77.02211133333333, "bike_id": "e52aa630c45d88a967098c3655567997", "fusion_lat": 0.0, "name": "e52aa630c45d88a967098c3655567997", "is_reserved": 0, "rental_uris": {"android": "https://dc.lft.to/lastmile_qr_scan", "ios": "https://dc.lft.to/lastmile_qr_scan"}, "fusion_lon": 0.0}, {"lat": 38.8766535, "is_disabled": 0, "type": "electric_scooter", "lon": -77.0041425, "bike_id": "5cad8aa6b2bf3f7f2609db0075a464d3", "fusion_lat": 0.0, "name": "5cad8aa6b2bf3f7f2609db0075a464d3", "is_reserved": 0, "rental_uris": {"android": "https://dc.lft.to/lastmile_qr_scan", "ios": "https://dc.lft.to/lastmile_qr_scan"}, "fusion_lon": 0.0}, {"lat": 38.90389316666667, "is_disabled": 0, "type": "electric_scooter", "lon": -77.0252645, "bike_id": "6053019d41cbe28ea4a5086388f6005a", "fusion_lat": 0.0, "name": "6053019d41cbe28ea4a5086388f6005a", "is_reserved": 0, "rental_uris": {"android": "https://dc.lft.to/lastmile_qr_scan", "ios": "https://dc.lft.to/lastmile_qr_scan"}, "fusion_lon": 0.0}, {"lat": 38.89995066666667, "is_disabled": 0, "type": "electric_scooter", "lon": -76.99962116666667, "bike_id": "6fc744719d46af21be0907b746992c4c", "fusion_lat": 0.0, "name": "6fc744719d46af21be0907b746992c4c", "is_reserved": 0, "rental_uris": {"android": "https://dc.lft.to/lastmile_qr_scan", "ios": "https://dc.lft.to/lastmile_qr_scan"}, "fusion_lon": 0.0}, {"lat": 38.906747833333334, "is_disabled": 0, "type": "electric_scooter", "lon": -77.02710133333333, "bike_id": "aa152737840630d5f6baaac03828356a", "fusion_lat": 0.0, "name": "aa152737840630d5f6baaac03828356a", "is_reserved": 0, "rental_uris": {"android": "https://dc.lft.to/lastmile_qr_scan", "ios": "https://dc.lft.to/lastmile_qr_scan"}, "fusion_lon": 0.0}, {"lat": 38.91092533333333, "is_disabled": 0, "type": "electric_scooter", "lon": -77.032067, "bike_id": "7087e31fa995ceb111dcffe2896806bc", "fusion_lat": 0.0, "name": "7087e31fa995ceb111dcffe2896806bc", "is_reserved": 0, "rental_uris": {"android": "https://dc.lft.to/lastmile_qr_scan", "ios": "https://dc.lft.to/lastmile_qr_scan"}, "fusion_lon": 0.0}, {"lat": 38.89284983333334, "is_disabled": 0, "type": "electric_scooter", "lon": -76.95852916666666, "bike_id": "73677be31e891c4621e6a017e2c1886b", "fusion_lat": 0.0, "name": "73677be31e891c4621e6a017e2c1886b", "is_reserved": 0, "rental_uris": {"android": "https://dc.lft.to/lastmile_qr_scan", "ios": "https://dc.lft.to/lastmile_qr_scan"}, "fusion_lon": 0.0}, {"lat": 38.887154833333334, "is_disabled": 0, "type": "electric_scooter", "lon": -76.99610166666666, "bike_id": "af1e492354d52815d403d2997a558faf", "fusion_lat": 0.0, "name": "af1e492354d52815d403d2997a558faf", "is_reserved": 0, "rental_uris": {"android": "https://dc.lft.to/lastmile_qr_scan", "ios": "https://dc.lft.to/lastmile_qr_scan"}, "fusion_lon": 0.0}, {"lat": 38.92953166666667, "is_disabled": 0, "type": "electric_scooter", "lon": -76.99090183333334, "bike_id": "f5b7b433b7b34a2d629bfdd1226793aa", "fusion_lat": 0.0, "name": "f5b7b433b7b34a2d629bfdd1226793aa", "is_reserved": 0, "rental_uris": {"android": "https://dc.lft.to/lastmile_qr_scan", "ios": "https://dc.lft.to/lastmile_qr_scan"}, "fusion_lon": 0.0}, {"lat": 38.91544866666667, "is_disabled": 0, "type": "electric_scooter", "lon": -77.07423083333333, "bike_id": "d27fd56fc476b32752f19cd7c834799c", "fusion_lat": 0.0, "name": "d27fd56fc476b32752f19cd7c834799c", "is_reserved": 0, "rental_uris": {"android": "https://dc.lft.to/lastmile_qr_scan", "ios": "https://dc.lft.to/lastmile_qr_scan"}, "fusion_lon": 0.0}, {"lat": 38.89843283333333, "is_disabled": 0, "type": "electric_scooter", "lon": -76.94635516666666, "bike_id": "758a0527384ceab68aeacd1f426f71bc", "fusion_lat": 0.0, "name": "758a0527384ceab68aeacd1f426f71bc", "is_reserved": 0, "rental_uris": {"android": "https://dc.lft.to/lastmile_qr_scan", "ios": "https://dc.lft.to/lastmile_qr_scan"}, "fusion_lon": 0.0}, {"lat": 38.90966783333333, "is_disabled": 0, "type": "electric_scooter", "lon": -76.996074, "bike_id": "38675adc27e758ac7cc3c3a2721cd194", "fusion_lat": 0.0, "name": "38675adc27e758ac7cc3c3a2721cd194", "is_reserved": 0, "rental_uris": {"android": "https://dc.lft.to/lastmile_qr_scan", "ios": "https://dc.lft.to/lastmile_qr_scan"}, "fusion_lon": 0.0}, {"lat": 38.86746566666667, "is_disabled": 0, "type": "electric_scooter", "lon": -76.97662416666667, "bike_id": "c733c3a871a590a2c6e974ebb8b213a6", "fusion_lat": 0.0, "name": "c733c3a871a590a2c6e974ebb8b213a6", "is_reserved": 0, "rental_uris": {"android": "https://dc.lft.to/lastmile_qr_scan", "ios": "https://dc.lft.to/lastmile_qr_scan"}, "fusion_lon": 0.0}, {"lat": 38.90705616666666, "is_disabled": 0, "type": "electric_scooter", "lon": -76.987023, "bike_id": "b032e6734f366c82ee8a6dad81cfec1c", "fusion_lat": 0.0, "name": "b032e6734f366c82ee8a6dad81cfec1c", "is_reserved": 0, "rental_uris": {"android": "https://dc.lft.to/lastmile_qr_scan", "ios": "https://dc.lft.to/lastmile_qr_scan"}, "fusion_lon": 0.0}, {"lat": 38.91989983333333, "is_disabled": 0, "type": "electric_scooter", "lon": -77.03972316666666, "bike_id": "5d69826e674bca5d5ac0871fc715850b", "fusion_lat": 0.0, "name": "5d69826e674bca5d5ac0871fc715850b", "is_reserved": 0, "rental_uris": {"android": "https://dc.lft.to/lastmile_qr_scan", "ios": "https://dc.lft.to/lastmile_qr_scan"}, "fusion_lon": 0.0}, {"lat": 38.94630033333333, "is_disabled": 0, "type": "electric_scooter", "lon": -77.01848416666667, "bike_id": "00d20c2d7a2747844facafcfa72714d2", "fusion_lat": 0.0, "name": "00d20c2d7a2747844facafcfa72714d2", "is_reserved": 0, "rental_uris": {"android": "https://dc.lft.to/lastmile_qr_scan", "ios": "https://dc.lft.to/lastmile_qr_scan"}, "fusion_lon": 0.0}, {"lat": 38.877317, "is_disabled": 0, "type": "electric_bike", "lon": -77.11853516666666, "bike_id": "d8ed1450551ff236de6e556da9abd751", "fusion_lat": 0.0, "name": "d8ed1450551ff236de6e556da9abd751", "is_reserved": 0, "rental_uris": {"android": "https://dc.lft.to/lastmile_qr_scan", "ios": "https://dc.lft.to/lastmile_qr_scan"}, "fusion_lon": 0.0}, {"lat": 38.9095765, "is_disabled": 0, "type": "electric_scooter", "lon": -77.03834316666666, "bike_id": "4ce87680323ee9a97c6c193a245544a7", "fusion_lat": 0.0, "name": "4ce87680323ee9a97c6c193a245544a7", "is_reserved": 0, "rental_uris": {"android": "https://dc.lft.to/lastmile_qr_scan", "ios": "https://dc.lft.to/lastmile_qr_scan"}, "fusion_lon": 0.0}, {"lat": 38.95184916666667, "is_disabled": 0, "type": "electric_bike", "lon": -76.93543166666667, "bike_id": "252a181b92cae9a897401af07a2f4ecd", "fusion_lat": 0.0, "name": "252a181b92cae9a897401af07a2f4ecd", "is_reserved": 0, "rental_uris": {"android": "https://dc.lft.to/lastmile_qr_scan", "ios": "https://dc.lft.to/lastmile_qr_scan"}, "fusion_lon": 0.0}, {"lat": 38.90919483333333, "is_disabled": 0, "type": "electric_scooter", "lon": -77.080243, "bike_id": "e8887bbcad3e4cdbf1612c480f944c17", "fusion_lat": 0.0, "name": "e8887bbcad3e4cdbf1612c480f944c17", "is_reserved": 0, "rental_uris": {"android": "https://dc.lft.to/lastmile_qr_scan", "ios": "https://dc.lft.to/lastmile_qr_scan"}, "fusion_lon": 0.0}, {"lat": 38.91265383333333, "is_disabled": 0, "type": "electric_scooter", "lon": -77.02251916666667, "bike_id": "9eb61506f0093f2d85e50d462253dd4b", "fusion_lat": 0.0, "name": "9eb61506f0093f2d85e50d462253dd4b", "is_reserved": 0, "rental_uris": {"android": "https://dc.lft.to/lastmile_qr_scan", "ios": "https://dc.lft.to/lastmile_qr_scan"}, "fusion_lon": 0.0},