{"data": {"bikes": [{"lon": -76.95197283333333, "rental_uris": {"ios": "https://dc.lft.to/lastmile_qr_scan", "android": "https://dc.lft.to/lastmile_qr_scan"}, "bike_id": "09b0f7eb88ff7e1607f3db385eb75feb", "fusion_lon": 0.0, "type": "electric_scooter", "fusion_lat": 0.0, "lat": 38.905173833333336, "is_disabled": 0, "name": "09b0f7eb88ff7e1607f3db385eb75feb", "is_reserved": 0}, {"lon": -77.05208883333333, "rental_uris": {"ios": "https://dc.lft.to/lastmile_qr_scan", "android": "https://dc.lft.to/lastmile_qr_scan"}, "bike_id": "f5b4a595212e74bbbc48e48d6276f240", "fusion_lon": 0.0, "type": "electric_scooter", "fusion_lat": 0.0, "lat": 38.9141785, "is_disabled": 0, "name": "f5b4a595212e74bbbc48e48d6276f240", "is_reserved": 0}, {"lon": -76.92634366666667, "rental_uris": {"ios": "https://dc.lft.to/lastmile_qr_scan", "android": "https://dc.lft.to/lastmile_qr_scan"}, "bike_id": "b6be2a92e0947dc46aa6da91322e2fc4", "fusion_lon": 0.0, "type": "electric_scooter", "fusion_lat": 0.0, "lat": 38.886193666666664, "is_disabled": 0, "name": "b6be2a92e0947dc46aa6da91322e2fc4", "is_reserved": 0}, {"lon": -77.02689783333334, "rental_uris": {"ios": "https://dc.lft.to/lastmile_qr_scan", "android": "https://dc.lft.to/lastmile_qr_scan"}, "bike_id": "1b6c4e65946900e36b31038ff413e7ff", "fusion_lon": 0.0, "type": "electric_scooter", "fusion_lat": 0.0, "lat": 38.943308, "is_disabled": 0, "name": "1b6c4e65946900e36b31038ff413e7ff", "is_reserved": 0}, {"lon": -77.043332, "rental_uris": {"ios": "https://dc.lft.to/lastmile_qr_scan", "android": "https://dc.lft.to/lastmile_qr_scan"}, "bike_id": "8b43b20cb2743ecdf12a27c169117486", "fusion_lon": 0.0, "type": "electric_scooter", "fusion_lat": 0.0, "lat": 38.89225316666667, "is_disabled": 0, "name": "8b43b20cb2743ecdf12a27c169117486", "is_reserved": 0}, {"lon": -77.02710416666666, "rental_uris": {"ios": "https://dc.lft.to/lastmile_qr_scan", "android": "https://dc.lft.to/lastmile_qr_scan"}, "bike_id": "a93d549519c8bec0d415c627c7b70e36", "fusion_lon": 0.0, "type": "electric_scooter", "fusion_lat": 0.0, "lat": 38.90013833333333, "is_disabled": 0, "name": "a93d549519c8bec0d415c627c7b70e36", "is_reserved": 0}, {"lon": -77.03686333333333, "rental_uris": {"ios": "https://dc.lft.to/lastmile_qr_scan", "android": "https://dc.lft.to/lastmile_qr_scan"}, "bike_id": "b4afa454d4194c8027a25ad76ed65281", "fusion_lon": 0.0, "type": "electric_bike", "fusion_lat": 0.0, "lat": 39.026445833333334, "is_disabled": 0, "name": "b4afa454d4194c8027a25ad76ed65281", "is_reserved": 0}, {"lon": -77.0213395, "rental_uris": {"ios": "https://dc.lft.to/lastmile_qr_scan", "android": "https://dc.lft.to/lastmile_qr_scan"}, "bike_id": "9dbdecfa7005f2abd9b178ea7f100a4c", "fusion_lon": 0.0, "type": "electric_scooter", "fusion_lat": 0.0, "lat": 38.92366666666667, "is_disabled": 0, "name": "9dbdecfa7005f2abd9b178ea7f100a4c", "is_reserved": 0}, {"lon": -77.04050933333333, "rental_uris": {"ios": "https://dc.lft.to/lastmile_qr_scan", "android": "https://dc.lft.to/lastmile_qr_scan"}, "bike_id": "79440a508e87648f79f05e2a7bf9968a", "fusion_lon": 0.0, "type": "electric_scooter", "fusion_lat": 0.0, "lat": 38.930610333333334, "is_disabled": 0, "name": "79440a508e87648f79f05e2a7bf9968a", "is_reserved": 0}, {"lon": -77.00920333333333, "rental_uris": {"ios": "https://dc.lft.to/lastmile_qr_scan", "android": "https://dc.lft.to/lastmile_qr_scan"}, "bike_id": "ef3a82fa01bfc0850bf708d546d4e0d7", "fusion_lon": 0.0, "type": "electric_scooter", "fusion_lat": 0.0, "lat": 38.914746, "is_disabled": 0, "name": "ef3a82fa01bfc0850bf708d546d4e0d7", "is_reserved": 0}, {"lon": -76.99558833333333, "rental_uris": {"ios": "https://dc.lft.to/lastmile_qr_scan", "android": "https://dc.lft.to/lastmile_qr_scan"}, "bike_id": "55ed6383ef4f65e2ff3a091c8a4ad6c7", "fusion_lon": 0.0, "type": "electric_scooter", "fusion_lat": 0.0, "lat": 38.92514766666667, "is_disabled": 0, "name": "55ed6383ef4f65e2ff3a091c8a4ad6c7", "is_reserved": 0}, {"lon": -77.022125, "rental_uris": {"ios": "https://dc.lft.to/lastmile_qr_scan", "android": "https://dc.lft.to/lastmile_qr_scan"}, "bike_id": "cccc0692dbbbe119a82d17baa91db98a", "fusion_lon": 0.0, "type": "electric_scooter", "fusion_lat": 0.0, "lat": 38.89609133333333, "is_disabled": 0, "name": "cccc0692dbbbe119a82d17baa91db98a", "is_reserved": 0}, {"lon": -77.0238885, "rental_uris": {"ios": "https://dc.lft.to/lastmile_qr_scan", "android": "https://dc.lft.to/lastmile_qr_scan"}, "bike_id": "c82f018d1ec57f09673a7a21aa1ae62b", "fusion_lon": 0.0, "type": "electric_scooter", "fusion_lat": 0.0, "lat": 38.89926633333333, "is_disabled": 0, "name": "c82f018d1ec57f09673a7a21aa1ae62b", "is_reserved": 0}, {"lon": -77.02000333333334, "rental_uris": {"ios": "https://dc.lft.to/lastmile_qr_scan", "android": "https://dc.lft.to/lastmile_qr_scan"}, "bike_id": "feed4aceabb83aba696249b135be0569", "fusion_lon": 0.0, "type": "electric_scooter", "fusion_lat": 0.0, "lat": 38.9158945, "is_disabled": 0, "name": "feed4aceabb83aba696249b135be0569", "is_reserved": 0}, {"lon": -77.030655, "rental_uris": {"ios": "https://dc.lft.to/lastmile_qr_scan", "android": "https://dc.lft.to/lastmile_qr_scan"}, "bike_id": "462d59998232b288f0a1de4e252ed6a1", "fusion_lon": 0.0, "type": "electric_scooter", "fusion_lat": 0.0, "lat": 38.922500166666666, "is_disabled": 0, "name": "462d59998232b288f0a1de4e252ed6a1", "is_reserved": 0}, {"lon": -76.91062066666667, "rental_uris": {"ios": "https://dc.lft.to/lastmile_qr_scan", "android": "https://dc.lft.to/lastmile_qr_scan"}, "bike_id": "eaa05c3507398ca79901b5402b759921", "fusion_lon": 0.0, "type": "electric_bike", "fusion_lat": 0.0, "lat": 39.010769, "is_disabled": 0, "name": "eaa05c3507398ca79901b5402b759921", "is_reserved": 0}, {"lon": -76.9981485, "rental_uris": {"ios": "https://dc.lft.to/lastmile_qr_scan", "android": "https://dc.lft.to/lastmile_qr_scan"}, "bike_id": "d6e2cde0d03b9da66c6312fbd33cf6d1", "fusion_lon": 0.0, "type": "electric_scooter", "fusion_lat": 0.0, "lat": 38.907293, "is_disabled": 0, "name": "d6e2cde0d03b9da66c6312fbd33cf6d1", "is_reserved": 0}, {"lon": -77.0170985, "rental_uris": {"ios": "https://dc.lft.to/lastmile_qr_scan", "android": "https://dc.lft.to/lastmile_qr_scan"}, "bike_id": "352cbe5d07d77617154843d85c8623bd", "fusion_lon": 0.0, "type": "electric_bike", "fusion_lat": 0.0, "lat": 38.914342500000004, "is_disabled": 0, "name": "352cbe5d07d77617154843d85c8623bd", "is_reserved": 0}, {"lon": -77.03207966666666, "rental_uris": {"ios": "https://dc.lft.to/lastmile_qr_scan", "android": "https://dc.lft.to/lastmile_qr_scan"}, "bike_id": "f982dc3c1a5a1ad45e9412a3cae082cd", "fusion_lon": 0.0, "type": "electric_scooter", "fusion_lat": 0.0, "lat": 38.9164255, "is_disabled": 0, "name": "f982dc3c1a5a1ad45e9412a3cae082cd", "is_reserved": 0}, {"lon": -77.229049, "rental_uris": {"ios": "https://dc.lft.to/lastmile_qr_scan", "android": "https://dc.lft.to/lastmile_qr_scan"}, "bike_id": "212534504d6baa9af1c0be17d805fd79", "fusion_lon": 0.0, "type": "electric_bike", "fusion_lat": 0.0, "lat": 38.87037866666667, "is_disabled": 0, "name": "212534504d6baa9af1c0be17d805fd79", "is_reserved": 0}, {"lon": -76.994869, "rental_uris": {"ios": "https://dc.lft.to/lastmile_qr_scan", "android": "https://dc.lft.to/lastmile_qr_scan"}, "bike_id": "8a0ea29a78572d3fcf26e684621c69a0", "fusion_lon": 0.0, "type": "electric_scooter", "fusion_lat": 0.0, "lat": 38.89406483333333, "is_disabled": 0, "name": "8a0ea29a78572d3fcf26e684621c69a0", "is_reserved": 0}, {"lon": -77.021596, "rental_uris": {"ios": "https://dc.lft.to/lastmile_qr_scan", "android": "https://dc.lft.to/lastmile_qr_scan"}, "bike_id": "6c56d02c40e23d63cc54fa3bebdc0755", "fusion_lon": 0.0, "type": "electric_scooter", "fusion_lat": 0.0, "lat": 38.926141666666666, "is_disabled": 0, "name": "6c56d02c40e23d63cc54fa3bebdc0755", "is_reserved": 0}, {"lon": -77.02771133333333, "rental_uris": {"ios": "https://dc.lft.to/lastmile_qr_scan", "android": "https://dc.lft.to/lastmile_qr_scan"}, "bike_id": "cd64528bd6a54de4fecc28ba67ab2fce", "fusion_lon": 0.0, "type": "electric_scooter", "fusion_lat": 0.0, "lat": 38.9014275, "is_disabled": 0, "name": "cd64528bd6a54de4fecc28ba67ab2fce", "is_reserved": 0}, {"lon": -77.02854633333334, "rental_uris": {"ios": "https://dc.lft.to/lastmile_qr_scan", "android": "https://dc.lft.to/lastmile_qr_scan"}, "bike_id": "a1a2ba310fc2504ce52f17a6f9404b0b", "fusion_lon": 0.0, "type": "electric_scooter", "fusion_lat": 0.0, "lat": 38.898462, "is_disabled": 0, "name": "a1a2ba310fc2504ce52f17a6f9404b0b", "is_reserved": 0}, {"lon": -77.0528615, "rental_uris": {"ios": "https://dc.lft.to/lastmile_qr_scan", "android": "https://dc.lft.to/lastmile_qr_scan"}, "bike_id": "a198acdf68e962c9dcf43d3026d18a6f", "fusion_lon": 0.0, "type": "electric_scooter", "fusion_lat": 0.0, "lat": 38.910573, "is_disabled": 0, "name": "a198acdf68e962c9dcf43d3026d18a6f", "is_reserved": 0}, {"lon": -76.99868533333333, "rental_uris": {"ios": "https://dc.lft.to/lastmile_qr_scan", "android": "https://dc.lft.to/lastmile_qr_scan"}, "bike_id": "bb98ed4833409e360ef34d5f8ab64143", "fusion_lon": 0.0, "type": "electric_scooter", "fusion_lat": 0.0, "lat": 38.90022533333333, "is_disabled": 0, "name": "bb98ed4833409e360ef34d5f8ab64143", "is_reserved": 0}, {"lon": -77.02422866666667, "rental_uris": {"ios": "https://dc.lft.to/lastmile_qr_scan", "android": "https://dc.lft.to/lastmile_qr_scan"}, "bike_id": "619c3da9f3412677749b64694ead0232", "fusion_lon": 0.0, "type": "electric_scooter", "fusion_lat": 0.0, "lat": 38.908640166666665, "is_disabled": 0, "name": "619c3da9f3412677749b64694ead0232", "is_reserved": 0}, {"lon": -77.04899466666667, "rental_uris": {"ios": "https://dc.lft.to/lastmile_qr_scan", "android": "https://dc.lft.to/lastmile_qr_scan"}, "bike_id": "4143a19025db1cc7cf1fdb5bea7ae6b5", "fusion_lon": 0.0, "type": "electric_scooter", "fusion_lat": 0.0, "lat": 38.89914616666667, "is_disabled": 0, "name": "4143a19025db1cc7cf1fdb5bea7ae6b5", "is_reserved": 0}, {"lon": -77.00673583333334, "rental_uris": {"ios": "https://dc.lft.to/lastmile_qr_scan", "android": "https://dc.lft.to/lastmile_qr_scan"}, "bike_id": "aed5bdbad9b17c7641258cc13cbca25e", "fusion_lon": 0.0, "type": "electric_scooter", "fusion_lat": 0.0, "lat": 38.929334833333336, "is_disabled": 0, "name": "aed5bdbad9b17c7641258cc13cbca25e", "is_reserved": 0}, {"lon": -76.9852485, "rental_uris": {"ios": "https://dc.lft.to/lastmile_qr_scan", "android": "https://dc.lft.to/lastmile_qr_scan"}, "bike_id": "3f4e4e24edb25a170012261fabacf6d2", "fusion_lon": 0.0, "type": "electric_scooter", "fusion_lat": 0.0, "lat": 38.90973833333334, "is_disabled": 0, "name": "3f4e4e24edb25a170012261fabacf6d2", "is_reserved": 0}, {"lon": -77.00339933333333, "rental_uris": {"ios": "https://dc.lft.to/lastmile_qr_scan", "android": "https://dc.lft.to/lastmile_qr_scan"}, "bike_id": "5c73d6a21800be46c581981527e66d22", "fusion_lon": 0.0, "type": "electric_scooter", "fusion_lat": 0.0, "lat": 38.892838166666664, "is_disabled": 0, "name": "5c73d6a21800be46c581981527e66d22", "is_reserved": 0}, {"lon": -77.01500833333333, "rental_uris": {"ios": "https://dc.lft.to/lastmile_qr_scan", "android": "https://dc.lft.to/lastmile_qr_scan"}, "bike_id": "6042091a14568dce2a6ee143d14b0921", "fusion_lon": 0.0, "type": "electric_scooter", "fusion_lat": 0.0, "lat": 38.92697783333333, "is_disabled": 0, "name": "6042091a14568dce2a6ee143d14b0921", "is_reserved": 0}, {"lon": -77.02508416666667, "rental_uris": {"ios": "https://dc.lft.to/lastmile_qr_scan", "android": "https://dc.lft.to/lastmile_qr_scan"}, "bike_id": "9654082553109735c70cb502b83f57b4", "fusion_lon": 0.0, "type": "electric_scooter", "fusion_lat": 0.0, "lat": 38.93093483333333, "is_disabled": 0, "name": "9654082553109735c70cb502b83f57b4", "is_reserved": 0}, {"lon": -77.00631516666667, "rental_uris": {"ios": "https://dc.lft.to/lastmile_qr_scan", "android": "https://dc.lft.to/lastmile_qr_scan"}, "bike_id": "82e3658e669a193f7ac9542de923cd69", "fusion_lon": 0.0, "type": "electric_scooter", "fusion_lat": 0.0, "lat": 38.8717225, "is_disabled": 0, "name": "82e3658e669a193f7ac9542de923cd69", "is_reserved": 0}, {"lon": -76.99861583333333, "rental_uris": {"ios": "https://dc.lft.to/lastmile_qr_scan", "android": "https://dc.lft.to/lastmile_qr_scan"}, "bike_id": "2cd1f46ffa6e8aa0f64ea89a499cd6c0", "fusion_lon": 0.0, "type": "electric_scooter", "fusion_lat": 0.0, "lat": 38.90780866666667, "is_disabled": 0, "name": "2cd1f46ffa6e8aa0f64ea89a499cd6c0", "is_reserved": 0}, {"lon": -77.02443566666666, "rental_uris": {"ios": "https://dc.lft.to/lastmile_qr_scan", "android": "https://dc.lft.to/lastmile_qr_scan"}, "bike_id": "30b2ccfe4a91e118601ace0d197dd67c", "fusion_lon": 0.0, "type": "electric_scooter", "fusion_lat": 0.0, "lat": 38.9562825, "is_disabled": 0, "name": "30b2ccfe4a91e118601ace0d197dd67c", "is_reserved": 0}, {"lon": -77.02966566666667, "rental_uris": {"ios": "https://dc.lft.to/lastmile_qr_scan", "android": "https://dc.lft.to/lastmile_qr_scan"}, "bike_id": "42da9acdcdf3d6db24417ce163ecb237", "fusion_lon": 0.0, "type": "electric_scooter", "fusion_lat": 0.0, "lat": 38.91684633333333, "is_disabled": 0, "name": "42da9acdcdf3d6db24417ce163ecb237", "is_reserved": 0}, {"lon": -76.995016, "rental_uris": {"ios": "https://dc.lft.to/lastmile_qr_scan", "android": "https://dc.lft.to/lastmile_qr_scan"}, "bike_id": "b3cc0c29a4b7a4b255efe849b621c7f0", "fusion_lon": 0.0, "type": "electric_scooter", "fusion_lat": 0.0, "lat": 38.8951525, "is_disabled": 0, "name": "b3cc0c29a4b7a4b255efe849b621c7f0", "is_reserved": 0}, {"lon": -77.04674, "rental_uris": {"ios": "https://dc.lft.to/lastmile_qr_scan", "android": "https://dc.lft.to/lastmile_qr_scan"}, "bike_id": "af745b0187d9179884f02b68d4834282", "fusion_lon": 0.0, "type": "electric_scooter", "fusion_lat": 0.0, "lat": 38.9166605, "is_disabled": 0, "name": "af745b0187d9179884f02b68d4834282", "is_reserved": 0}, {"lon": -77.03922783333333, "rental_uris": {"ios": "https://dc.lft.to/lastmile_qr_scan", "android": "https://dc.lft.to/lastmile_qr_scan"}, "bike_id": "b0f38ea760a79f67dc075a33d663abd7", "fusion_lon": 0.0, "type": "electric_scooter", "fusion_lat": 0.0, "lat": 38.8990175, "is_disabled": 0, "name": "b0f38ea760a79f67dc075a33d663abd7", "is_reserved": 0}, {"lon": -77.04192966666666, "rental_uris": {"ios": "https://dc.lft.to/lastmile_qr_scan", "android": "https://dc.lft.to/lastmile_qr_scan"}, "bike_id": "7940158d66648c60f1d3e338c5ecba11", "fusion_lon": 0.0, "type": "electric_scooter", "fusion_lat": 0.0, "lat": 38.92338916666667, "is_disabled": 0, "name": "7940158d66648c60f1d3e338c5ecba11", "is_reserved": 0}, {"lon": -77.044895, "rental_uris": {"ios": "https://dc.lft.to/lastmile_qr_scan", "android": "https://dc.lft.to/lastmile_qr_scan"}, "bike_id": "28975dff63569f06c7ab0fe04bf64f81", "fusion_lon": 0.0, "type": "electric_bike", "fusion_lat": 0.0, "lat": 38.906009833333336, "is_disabled": 0, "name": "28975dff63569f06c7ab0fe04bf64f81", "is_reserved": 0}, {"lon": -76.9793795, "rental_uris": {"ios": "https://dc.lft.to/lastmile_qr_scan", "android": "https://dc.lft.to/lastmile_qr_scan"}, "bike_id": "d9b8d51c330f8d555ff624885214acf5", "fusion_lon": 0.0, "type": "electric_scooter", "fusion_lat": 0.0, "lat": 38.90654833333333, "is_disabled": 0, "name": "d9b8d51c330f8d555ff624885214acf5", "is_reserved": 0}, {"lon": -77.02155, "rental_uris": {"ios": "https://dc.lft.to/lastmile_qr_scan", "android": "https://dc.lft.to/lastmile_qr_scan"}, "bike_id": "ffe0c45d908bf282830c46b5b0de3232", "fusion_lon": 0.0, "type": "electric_scooter", "fusion_lat": 0.0, "lat": 38.92604466666667, "is_disabled": 0, "name": "ffe0c45d908bf282830c46b5b0de3232", "is_reserved": 0}, {"lon": -77.07298066666667, "rental_uris": {"ios": "https://dc.lft.to/lastmile_qr_scan", "android": "https://dc.lft.to/lastmile_qr_scan"}, "bike_id": "345b71fee1be5264fa43e902b9ec4feb", "fusion_lon": 0.0, "type": "electric_scooter", "fusion_lat": 0.0, "lat": 38.93547233333334, "is_disabled": 0, "name": "345b71fee1be5264fa43e902b9ec4feb", "is_reserved": 0}, {"lon": -77.07154266666667, "rental_uris": {"ios": "https://dc.lft.to/lastmile_qr_scan", "android": "https://dc.lft.to/lastmile_qr_scan"}, "bike_id": "268c4e7d81e7379d7a3e01f826a72733", "fusion_lon": 0.0, "type": "electric_scooter", "fusion_lat": 0.0, "lat": 38.906766, "is_disabled": 0, "name": "268c4e7d81e7379d7a3e01f826a72733", "is_reserved": 0}, {"lon": -77.0311565, "rental_uris": {"ios": "https://dc.lft.to/lastmile_qr_scan", "android": "https://dc.lft.to/lastmile_qr_scan"}, "bike_id": "b5825d93cac4d215dfb68cb58ac19812", "fusion_lon": 0.0, "type": "electric_scooter", "fusion_lat": 0.0, "lat": 38.923811, "is_disabled": 0, "name": "b5825d93cac4d215dfb68cb58ac19812", "is_reserved": 0}, {"lon": -77.01871366666667, "rental_uris": {"ios": "https://dc.lft.to/lastmile_qr_scan", "android": "https://dc.lft.to/lastmile_qr_scan"}, "bike_id": "a1e8aad1832e5ab98db5b8a9053e71fa", "fusion_lon": 0.0, "type": "electric_scooter", "fusion_lat": 0.0, "lat": 38.917828, "is_disabled": 0, "name": "a1e8aad1832e5ab98db5b8a9053e71fa", "is_reserved": 0}, {"lon": -77.01355916666667, "rental_uris": {"ios": "https://dc.lft.to/lastmile_qr_scan", "android": "https://dc.lft.to/lastmile_qr_scan"}, "bike_id": "61ef1d8463f03e248fc5b9689265b2e7", "fusion_lon": 0.0, "type": "electric_bike", "fusion_lat": 0.0, "lat": 38.903846, "is_disabled": 0, "name": "61ef1d8463f03e248fc5b9689265b2e7", "is_reserved": 0}, {"lon": -76.945183, "rental_uris": {"ios": "https://dc.lft.to/lastmile_qr_scan", "android": "https://dc.lft.to/lastmile_qr_scan"}, "bike_id": "fe819cca3398bf4d51e92353f6b56769", "fusion_lon": 0.0, "type": "electric_bike", "fusion_lat": 0.0, "lat": 38.862837999999996, "is_disabled": 0, "name": "fe819cca3398bf4d51e92353f6b56769", "is_reserved": 0}, {"lon": -77.02666216666667, "rental_uris": {"ios": "https://dc.lft.to/lastmile_qr_scan", "android": "https://dc.lft.to/lastmile_qr_scan"}, "bike_id": "9c851e50c0a28e44c8cae0c857af557f", "fusion_lon": 0.0, "type": "electric_scooter", "fusion_lat": 0.0, "lat": 38.975459, "is_disabled": 0, "name": "9c851e50c0a28e44c8cae0c857af557f", "is_reserved": 0}, {"lon": -77.01987216666667, "rental_uris": {"ios": "https://dc.lft.to/lastmile_qr_scan", "android": "https://dc.lft.to/lastmile_qr_scan"}, "bike_id": "c2dd6a8e9d4fb41ec8e6e199cbd7f5c9", "fusion_lon": 0.0, "type": "electric_scooter", "fusion_lat": 0.0, "lat": 38.89359783333333, "is_disabled": 0, "name": "c2dd6a8e9d4fb41ec8e6e199cbd7f5c9", "is_reserved": 0}, {"lon": -77.0417725, "rental_uris": {"ios": "https://dc.lft.to/lastmile_qr_scan", "android": "https://dc.lft.to/lastmile_qr_scan"}, "bike_id": "d5188c51e2ff4ff0533a58e697cd6ce3", "fusion_lon": 0.0, "type": "electric_scooter", "fusion_lat": 0.0, "lat": 38.900086333333334, "is_disabled": 0, "name": "d5188c51e2ff4ff0533a58e697cd6ce3", "is_reserved": 0}, {"lon": -77.03281133333333, "rental_uris": {"ios": "https://dc.lft.to/lastmile_qr_scan", "android": "https://dc.lft.to/lastmile_qr_scan"}, "bike_id": "1f931b385bf9da8e0c1275e69d857fdb", "fusion_lon": 0.0, "type": "electric_scooter", "fusion_lat": 0.0, "lat": 38.92840733333333, "is_disabled": 0, "name": "1f931b385bf9da8e0c1275e69d857fdb", "is_reserved": 0}, {"lon": -77.04670166666666, "rental_uris": {"ios": "https://dc.lft.to/lastmile_qr_scan", "android": "https://dc.lft.to/lastmile_qr_scan"}, "bike_id": "880dead4bb352c7e91dbd3b983b4d11b", "fusion_lon": 0.0, "type": "electric_scooter", "fusion_lat": 0.0, "lat": 38.90971483333333, "is_disabled": 0, "name": "880dead4bb352c7e91dbd3b983b4d11b", "is_reserved": 0}, {"lon": -77.04890133333333, "rental_uris": {"ios": "https://dc.lft.to/lastmile_qr_scan", "android": "https://dc.lft.to/lastmile_qr_scan"}, "bike_id": "5fdf4565aabfbc80bacec67d1a6f68f9", "fusion_lon": 0.0, "type": "electric_scooter", "fusion_lat": 0.0, "lat": 38.90065516666667, "is_disabled": 0, "name": "5fdf4565aabfbc80bacec67d1a6f68f9", "is_reserved": 0}, {"lon": -77.0599485, "rental_uris": {"ios": "https://dc.lft.to/lastmile_qr_scan", "android": "https://dc.lft.to/lastmile_qr_scan"}, "bike_id": "6b0e75968d10969568edb700d6677828", "fusion_lon": 0.0, "type": "electric_scooter", "fusion_lat": 0.0, "lat": 38.92708733333333, "is_disabled": 0, "name": "6b0e75968d10969568edb700d6677828", "is_reserved": 0}, {"lon": -77.0464465, "rental_uris": {"ios": "https://dc.lft.to/lastmile_qr_scan", "android": "https://dc.lft.to/lastmile_qr_scan"}, "bike_id": "3041c0cbd6b39d99d3b3987fbe86212b", "fusion_lon": 0.0, "type": "electric_scooter", "fusion_lat": 0.0, "lat": 38.919708, "is_disabled": 0, "name": "3041c0cbd6b39d99d3b3987fbe86212b", "is_reserved": 0}, {"lon": -77.00629583333334, "rental_uris": {"ios": "https://dc.lft.to/lastmile_qr_scan", "android": "https://dc.lft.to/lastmile_qr_scan"}, "bike_id": "4613f1ba5dd623198c6d03e7147c106d", "fusion_lon": 0.0, "type": "electric_scooter", "fusion_lat": 0.0, "lat": 38.87173683333333, "is_disabled": 0, "name": "4613f1ba5dd623198c6d03e7147c106d", "is_reserved": 0}, {"lon": -77.04989316666666, "rental_uris": {"ios": "https://dc.lft.to/lastmile_qr_scan", "android": "https://dc.lft.to/lastmile_qr_scan"}, "bike_id": "39956ae7b61186a3ce4c5a33cd788f68", "fusion_lon": 0.0, "type": "electric_scooter", "fusion_lat": 0.0, "lat": 38.89732583333333, "is_disabled": 0, "name": "39956ae7b61186a3ce4c5a33cd788f68", "is_reserved": 0}, {"lon": -77.01570883333333, "rental_uris": {"ios": "https://dc.lft.to/lastmile_qr_scan", "android": "https://dc.lft.to/lastmile_qr_scan"}, "bike_id": "f6dce716b74b69779c80f66fdde9e23a", "fusion_lon": 0.0, "type": "electric_scooter", "fusion_lat": 0.0, "lat": 38.891752, "is_disabled": 0, "name": "f6dce716b74b69779c80f66fdde9e23a", "is_reserved": 0}, {"lon": -77.040315, "rental_uris": {"ios": "https://dc.lft.to/lastmile_qr_scan", "android": "https://dc.lft.to/lastmile_qr_scan"}, "bike_id": "55e290f4b74f52eddb96c94940938a9c", "fusion_lon": 0.0, "type": "electric_scooter", "fusion_lat": 0.0, "lat": 38.90116283333333, "is_disabled": 0, "name": "55e290f4b74f52eddb96c94940938a9c", "is_reserved": 0}, {"lon": -77.04300683333334, "rental_uris": {"ios": "https://dc.lft.to/lastmile_qr_scan", "android": "https://dc.lft.to/lastmile_qr_scan"}, "bike_id": "e5e46f1a8a49329a669ee56872d2ce18", "fusion_lon": 0.0, "type": "electric_scooter", "fusion_lat": 0.0, "lat": 38.92386483333333, "is_disabled": 0, "name": "e5e46f1a8a49329a669ee56872d2ce18", "is_reserved": 0}, {"lon": -77.0280775, "rental_uris": {"ios": "https://dc.lft.to/lastmile_qr_scan", "android": "https://dc.lft.to/lastmile_qr_scan"}, "bike_id": "5f2a93f58aac54cddb82b80e487bb4a7", "fusion_lon": 0.0, "type": "electric_scooter", "fusion_lat": 0.0, "lat": 38.89921983333333, "is_disabled": 0, "name": "5f2a93f58aac54cddb82b80e487bb4a7", "is_reserved": 0}, {"lon": -77.11051766666667, "rental_uris": {"ios": "https://dc.lft.to/lastmile_qr_scan", "android": "https://dc.lft.to/lastmile_qr_scan"}, "bike_id": "f597731a0fe3b0aa3601d6f8635716cf", "fusion_lon": 0.0, "type": "electric_bike", "fusion_lat": 0.0, "lat": 38.87055216666667, "is_disabled": 0, "name": "f597731a0fe3b0aa3601d6f8635716cf", "is_reserved": 0}, {"lon": -77.02938533333334, "rental_uris": {"ios": "https://dc.lft.to/lastmile_qr_scan", "android": "https://dc.lft.to/lastmile_qr_scan"}, "bike_id": "06c5314e42370b775969e5c32bee2272", "fusion_lon": 0.0, "type": "electric_scooter", "fusion_lat": 0.0, "lat": 38.90138966666667, "is_disabled": 0, "name": "06c5314e42370b775969e5c32bee2272", "is_reserved": 0}, {"lon": -77.0176395, "rental_uris": {"ios": "https://dc.lft.to/lastmile_qr_scan", "android": "https://dc.lft.to/lastmile_qr_scan"}, "bike_id": "ddd4084a7281f4a1befaa3e84046ad92", "fusion_lon": 0.0, "type": "electric_scooter", "fusion_lat": 0.0, "lat": 38.8785885, "is_disabled": 0, "name": "ddd4084a7281f4a1befaa3e84046ad92", "is_reserved": 0}, {"lon": -77.0249205, "rental_uris": {"ios": "https://dc.lft.to/lastmile_qr_scan", "android": "https://dc.lft.to/lastmile_qr_scan"}, "bike_id": "4b5f5d63fc621f20c041f45fadaba532", "fusion_lon": 0.0, "type": "electric_scooter", "fusion_lat": 0.0, "lat": 38.9180725, "is_disabled": 0, "name": "4b5f5d63fc621f20c041f45fadaba532", "is_reserved": 0}, {"lon": -77.07247333333333, "rental_uris": {"ios": "https://dc.lft.to/lastmile_qr_scan", "android": "https://dc.lft.to/lastmile_qr_scan"}, "bike_id": "160168bde02482ed52654034eff936a4", "fusion_lon": 0.0, "type": "electric_scooter", "fusion_lat": 0.0, "lat": 38.90785833333333, "is_disabled": 0, "name": "160168bde02482ed52654034eff936a4", "is_reserved": 0}, {"lon": -77.03253233333334, "rental_uris": {"ios": "https://dc.lft.to/lastmile_qr_scan", "android": "https://dc.lft.to/lastmile_qr_scan"}, "bike_id": "41336f4c2769fbc13a6b88ea0625f746", "fusion_lon": 0.0, "type": "electric_scooter", "fusion_lat": 0.0, "lat": 38.911225, "is_disabled": 0, "name": "41336f4c2769fbc13a6b88ea0625f746", "is_reserved": 0}, {"lon": -77.0450095, "rental_uris": {"ios": "https://dc.lft.to/lastmile_qr_scan", "android": "https://dc.lft.to/lastmile_qr_scan"}, "bike_id": "e3ae06e3869dbb478314053d99444f09", "fusion_lon": 0.0, "type": "electric_scooter", "fusion_lat": 0.0, "lat": 38.8996105, "is_disabled": 0, "name": "e3ae06e3869dbb478314053d99444f09", "is_reserved": 0}, {"lon": -76.95197333333333, "rental_uris": {"ios": "https://dc.lft.to/lastmile_qr_scan", "android": "https://dc.lft.to/lastmile_qr_scan"}, "bike_id": "8d62ce34847a55b0635a7a40282deaad", "fusion_lon": 0.0, "type": "electric_scooter", "fusion_lat": 0.0, "lat": 38.905103, "is_disabled": 0, "name": "8d62ce34847a55b0635a7a40282deaad", "is_reserved": 0}, {"lon": -77.027143, "rental_uris": {"ios": "https://dc.lft.to/lastmile_qr_scan", "android": "https://dc.lft.to/lastmile_qr_scan"}, "bike_id": "5fd473ab40939cd0e0a8aff4ca730187", "fusion_lon": 0.0, "type": "electric_scooter", "fusion_lat": 0.0, "lat": 38.9001075, "is_disabled": 0, "name": "5fd473ab40939cd0e0a8aff4ca730187", "is_reserved": 0}, {"lon": -77.06291133333333, "rental_uris": {"ios": "https://dc.lft.to/lastmile_qr_scan", "android": "https://dc.lft.to/lastmile_qr_scan"}, "bike_id": "a18a7d0883ec8718146a53717fcad182", "fusion_lon": 0.0, "type": "electric_scooter", "fusion_lat": 0.0, "lat": 38.905655333333335, "is_disabled": 0, "name": "a18a7d0883ec8718146a53717fcad182", "is_reserved": 0}, {"lon": -76.987441, "rental_uris": {"ios": "https://dc.lft.to/lastmile_qr_scan", "android": "https://dc.lft.to/lastmile_qr_scan"}, "bike_id": "720d01d90cad5fc5e7357e9163384603", "fusion_lon": 0.0, "type": "electric_bike", "fusion_lat": 0.0, "lat": 38.8578505, "is_disabled": 0, "name": "720d01d90cad5fc5e7357e9163384603", "is_reserved": 0}, {"lon": -77.017866, "rental_uris": {"ios": "https://dc.lft.to/lastmile_qr_scan", "android": "https://dc.lft.to/lastmile_qr_scan"}, "bike_id": "d0175d4b7852a3f0a1cfa417a63e6813", "fusion_lon": 0.0, "type": "electric_scooter", "fusion_lat": 0.0, "lat": 38.877486166666664, "is_disabled": 0, "name": "d0175d4b7852a3f0a1cfa417a63e6813", "is_reserved": 0}, {"lon": -77.03110866666667, "rental_uris": {"ios": "https://dc.lft.to/lastmile_qr_scan", "android": "https://dc.lft.to/lastmile_qr_scan"}, "bike_id": "6c07165b8a89f5f0064423cc8c9f0d1a", "fusion_lon": 0.0, "type": "electric_scooter", "fusion_lat": 0.0, "lat": 38.91907416666667, "is_disabled": 0, "name": "6c07165b8a89f5f0064423cc8c9f0d1a", "is_reserved": 0}, {"lon": -77.03790966666666, "rental_uris": {"ios": "https://dc.lft.to/lastmile_qr_scan", "android": "https://dc.lft.to/lastmile_qr_scan"}, "bike_id": "d0528fc4175e4829bfc28eac3d0a6797", "fusion_lon": 0.0, "type": "electric_scooter", "fusion_lat": 0.0, "lat": 38.92198, "is_disabled": 0, "name": "d0528fc4175e4829bfc28eac3d0a6797", "is_reserved": 0}, {"lon": -77.02207166666666, "rental_uris": {"ios": "https://dc.lft.to/lastmile_qr_scan", "android": "https://dc.lft.to/lastmile_qr_scan"}, "bike_id": "f8d02bea3468510dc0509857b3514cc7", "fusion_lon": 0.0, "type": "electric_scooter", "fusion_lat": 0.0, "lat": 38.8873765, "is_disabled": 0, "name": "f8d02bea3468510dc0509857b3514cc7", "is_reserved": 0}, {"lon": -77.0397025, "rental_uris": {"ios": "https://dc.lft.to/lastmile_qr_scan", "android": "https://dc.lft.to/lastmile_qr_scan"}, "bike_id": "f915123538fb2e7200e9c606cc2e05d5", "fusion_lon": 0.0, "type": "electric_scooter", "fusion_lat": 0.0, "lat": 38.90144133333333, "is_disabled": 0, "name": "f915123538fb2e7200e9c606cc2e05d5", "is_reserved": 0}, {"lon": -77.04644516666667, "rental_uris": {"ios": "https://dc.lft.to/lastmile_qr_scan", "android": "https://dc.lft.to/lastmile_qr_scan"}, "bike_id": "467e8f34b594151bea5081d870622664", "fusion_lon": 0.0, "type": "electric_scooter", "fusion_lat": 0.0, "lat": 38.89344416666667, "is_disabled": 0, "name": "467e8f34b594151bea5081d870622664", "is_reserved": 0}, {"lon": -77.01948516666667, "rental_uris": {"ios": "https://dc.lft.to/lastmile_qr_scan", "android": "https://dc.lft.to/lastmile_qr_scan"}, "bike_id": "ae0a5425bf8ef397c2e193801926919b", "fusion_lon": 0.0, "type": "electric_scooter", "fusion_lat": 0.0, "lat": 38.92445416666666, "is_disabled": 0, "name": "ae0a5425bf8ef397c2e193801926919b", "is_reserved": 0}, {"lon": -77.0270895, "rental_uris": {"ios": "https://dc.lft.to/lastmile_qr_scan", "android": "https://dc.lft.to/lastmile_qr_scan"}, "bike_id": "48a1aaf0a68920c9e12100c586a07a0b", "fusion_lon": 0.0, "type": "electric_scooter", "fusion_lat": 0.0, "lat": 38.92468383333333, "is_disabled": 0, "name": "48a1aaf0a68920c9e12100c586a07a0b", "is_reserved": 0}, {"lon": -77.03478683333333, "rental_uris": {"ios": "https://dc.lft.to/lastmile_qr_scan", "android": "https://dc.lft.to/lastmile_qr_scan"}, "bike_id": "b439039f548b3781ecdb77f256b755af", "fusion_lon": 0.0, "type": "electric_scooter", "fusion_lat": 0.0, "lat": 38.9234385, "is_disabled": 0, "name": "b439039f548b3781ecdb77f256b755af", "is_reserved": 0}, {"lon": -77.05026166666667, "rental_uris": {"ios": "https://dc.lft.to/lastmile_qr_scan", "android": "https://dc.lft.to/lastmile_qr_scan"}, "bike_id": "7a70632801f2b5e00f7f0f02e34cc8d8", "fusion_lon": 0.0, "type": "electric_scooter", "fusion_lat": 0.0, "lat": 38.901745166666664, "is_disabled": 0, "name": "7a70632801f2b5e00f7f0f02e34cc8d8", "is_reserved": 0}, {"lon": -76.9900345, "rental_uris": {"ios": "https://dc.lft.to/lastmile_qr_scan", "android": "https://dc.lft.to/lastmile_qr_scan"}, "bike_id": "e52e4a35347a46c52b49f023cc7e38c3", "fusion_lon": 0.0, "type": "electric_scooter", "fusion_lat": 0.0, "lat": 38.868909333333335, "is_disabled": 0, "name": "e52e4a35347a46c52b49f023cc7e38c3", "is_reserved": 0}, {"lon": -77.0282675, "rental_uris": {"ios": "https://dc.lft.to/lastmile_qr_scan", "android": "https://dc.lft.to/lastmile_qr_scan"}, "bike_id": "73a05e5a3246e4320db053ec0eb5c2b6", "fusion_lon": 0.0, "type": "electric_scooter", "fusion_lat": 0.0, "lat": 38.88656616666667, "is_disabled": 0, "name": "73a05e5a3246e4320db053ec0eb5c2b6", "is_reserved": 0}, {"lon": -77.00573216666666, "rental_uris": {"ios": "https://dc.lft.to/lastmile_qr_scan", "android": "https://dc.lft.to/lastmile_qr_scan"}, "bike_id": "c1891e702ba05a8d6d62d04efbb08860", "fusion_lon": 0.0, "type": "electric_scooter", "fusion_lat": 0.0, "lat": 38.874678, "is_disabled": 0, "name": "c1891e702ba05a8d6d62d04efbb08860", "is_reserved": 0}, {"lon": -76.983171, "rental_uris": {"ios": "https://dc.lft.to/lastmile_qr_scan", "android": "https://dc.lft.to/lastmile_qr_scan"}, "bike_id": "ae57219d8744ec124024e3b8728dd872", "fusion_lon": 0.0, "type": "electric_scooter", "fusion_lat": 0.0, "lat": 38.89602, "is_disabled": 0, "name": "ae57219d8744ec124024e3b8728dd872", "is_reserved": 0}, {"lon": -77.03136866666667, "rental_uris": {"ios": "https://dc.lft.to/lastmile_qr_scan", "android": "https://dc.lft.to/lastmile_qr_scan"}, "bike_id": "9934177f1d9858037d25b3d6beb5d029", "fusion_lon": 0.0, "type": "electric_scooter", "fusion_lat": 0.0, "lat": 38.916411, "is_disabled": 0, "name": "9934177f1d9858037d25b3d6beb5d029", "is_reserved": 0}, {"lon": -77.05042166666667, "rental_uris": {"ios": "https://dc.lft.to/lastmile_qr_scan", "android": "https://dc.lft.to/lastmile_qr_scan"}, "bike_id": "351b4b46b7134d794b1c6f30586ca60a", "fusion_lon": 0.0, "type": "electric_scooter", "fusion_lat": 0.0, "lat": 38.915698, "is_disabled": 0, "name": "351b4b46b7134d794b1c6f30586ca60a", "is_reserved": 0}, {"lon": -77.00915133333334, "rental_uris": {"ios": "https://dc.lft.to/lastmile_qr_scan", "android": "https://dc.lft.to/lastmile_qr_scan"}, "bike_id": "93f030045a514db84f0b53b6c762589d", "fusion_lon": 0.0, "type": "electric_scooter", "fusion_lat": 0.0, "lat": 38.89553866666667, "is_disabled": 0, "name": "93f030045a514db84f0b53b6c762589d", "is_reserved": 0}, {"lon": -77.02601783333333, "rental_uris": {"ios": "https://dc.lft.to/lastmile_qr_scan", "android": "https://dc.lft.to/lastmile_qr_scan"}, "bike_id": "4b1bf710d1674b7b74d8789dfe188746", "fusion_lon": 0.0, "type": "electric_scooter", "fusion_lat": 0.0, "lat": 38.91838833333333, "is_disabled": 0, "name": "4b1bf710d1674b7b74d8789dfe188746", "is_reserved": 0}, {"lon": -77.05079, "rental_uris": {"ios": "https://dc.lft.to/lastmile_qr_scan", "android": "https://dc.lft.to/lastmile_qr_scan"}, "bike_id": "30ae5051ff677e25d8ff9f9c7260c65a", "fusion_lon": 0.0, "type": "electric_scooter", "fusion_lat": 0.0, "lat": 38.90193333333333, "is_disabled": 0, "name": "30ae5051ff677e25d8ff9f9c7260c65a", "is_reserved": 0}, {"lon": -77.0774655, "rental_uris": {"ios": "https://dc.lft.to/lastmile_qr_scan", "android": "https://dc.lft.to/lastmile_qr_scan"}, "bike_id": "25dcae0beca238a7fd5ab82fc94c7c90", "fusion_lon": 0.0, "type": "electric_scooter", "fusion_lat": 0.0, "lat": 38.912311, "is_disabled": 0, "name": "25dcae0beca238a7fd5ab82fc94c7c90", "is_reserved": 0}, {"lon": -77.03239, "rental_uris": {"ios": "https://dc.lft.to/lastmile_qr_scan", "android": "https://dc.lft.to/lastmile_qr_scan"}, "bike_id": "d5fa3c8bbdc74baa76747e404762f958", "fusion_lon": 0.0, "type": "electric_scooter", "fusion_lat": 0.0, "lat": 38.9199275, "is_disabled": 0, "name": "d5fa3c8bbdc74baa76747e404762f958", "is_reserved": 0}, {"lon": -77.0237705, "rental_uris": {"ios": "https://dc.lft.to/lastmile_qr_scan", "android": "https://dc.lft.to/lastmile_qr_scan"}, "bike_id": "aad9e8151d58fe8f008132c75f0b0fba", "fusion_lon": 0.0, "type": "electric_scooter", "fusion_lat": 0.0, "lat": 38.917693, "is_disabled": 0, "name": "aad9e8151d58fe8f008132c75f0b0fba", "is_reserved": 0}, {"lon": -77.02468666666667, "rental_uris": {"ios": "https://dc.lft.to/lastmile_qr_scan", "android": "https://dc.lft.to/lastmile_qr_scan"}, "bike_id": "240aff96fa40baa3c55e1224aaf8c269", "fusion_lon": 0.0, "type": "electric_scooter", "fusion_lat": 0.0, "lat": 38.917882666666664, "is_disabled": 0, "name": "240aff96fa40baa3c55e1224aaf8c269", "is_reserved": 0}, {"lon": -77.02353666666667, "rental_uris": {"ios": "https://dc.lft.to/lastmile_qr_scan", "android": "https://dc.lft.to/lastmile_qr_scan"}, "bike_id": "133c2e158330ba594cae284b94a9cc89", "fusion_lon": 0.0, "type": "electric_scooter", "fusion_lat": 0.0, "lat": 38.94726633333333, "is_disabled": 0, "name": "133c2e158330ba594cae284b94a9cc89", "is_reserved": 0}, {"lon": -77.02516466666667, "rental_uris": {"ios": "https://dc.lft.to/lastmile_qr_scan", "android": "https://dc.lft.to/lastmile_qr_scan"}, "bike_id": "96456c767c796eabc8ac5781502b6681", "fusion_lon": 0.0, "type": "electric_scooter", "fusion_lat": 0.0, "lat": 38.895955, "is_disabled": 0, "name": "96456c767c796eabc8ac5781502b6681", "is_reserved": 0}, {"lon": -77.0467005, "rental_uris": {"ios": "https://dc.lft.to/lastmile_qr_scan", "android": "https://dc.lft.to/lastmile_qr_scan"}, "bike_id": "391d9458c132079f4e9ee93184d631cd", "fusion_lon": 0.0, "type": "electric_scooter", "fusion_lat": 0.0, "lat": 38.901349833333335, "is_disabled": 0, "name": "391d9458c132079f4e9ee93184d631cd", "is_reserved": 0}, {"lon": -77.03381066666667, "rental_uris": {"ios": "https://dc.lft.to/lastmile_qr_scan", "android": "https://dc.lft.to/lastmile_qr_scan"}, "bike_id": "32679e51aba7958bfcd659a84ee9d38e", "fusion_lon": 0.0, "type": "electric_scooter", "fusion_lat": 0.0, "lat": 38.90973916666667, "is_disabled": 0, "name": "32679e51aba7958bfcd659a84ee9d38e", "is_reserved": 0}, {"lon": -77.04200883333333, "rental_uris": {"ios": "https://dc.lft.to/lastmile_qr_scan", "android": "https://dc.lft.to/lastmile_qr_scan"}, "bike_id": "b72cd9b4d81a2119a9a1b753a0ffc601", "fusion_lon": 0.0, "type": "electric_scooter", "fusion_lat": 0.0, "lat": 38.92968033333333, "is_disabled": 0, "name": "b72cd9b4d81a2119a9a1b753a0ffc601", "is_reserved": 0}, {"lon": -76.93743483333333, "rental_uris": {"ios": "https://dc.lft.to/lastmile_qr_scan", "android": "https://dc.lft.to/lastmile_qr_scan"}, "bike_id": "1c756a387001834707ec8c49b202899c", "fusion_lon": 0.0, "type": "electric_scooter", "fusion_lat": 0.0, "lat": 38.890467, "is_disabled": 0, "name": "1c756a387001834707ec8c49b202899c", "is_reserved": 0}, {"lon": -77.02972533333333, "rental_uris": {"ios": "https://dc.lft.to/lastmile_qr_scan", "android": "https://dc.lft.to/lastmile_qr_scan"}, "bike_id": "9f5b5a3f3c67bb01e13b7defcb0aa9dc", "fusion_lon": 0.0, "type": "electric_scooter", "fusion_lat": 0.0, "lat": 38.92249233333333, "is_disabled": 0, "name": "9f5b5a3f3c67bb01e13b7defcb0aa9dc", "is_reserved": 0}, {"lon": -76.994608, "rental_uris": {"ios": "https://dc.lft.to/lastmile_qr_scan", "android": "https://dc.lft.to/lastmile_qr_scan"}, "bike_id": "473ec3c10380238465db22b76eef235e", "fusion_lon": 0.0, "type": "electric_scooter", "fusion_lat": 0.0, "lat": 38.953154, "is_disabled": 0, "name": "473ec3c10380238465db22b76eef235e", "is_reserved": 0}, {"lon": -77.02203066666667, "rental_uris": {"ios": "https://dc.lft.to/lastmile_qr_scan", "android": "https://dc.lft.to/lastmile_qr_scan"}, "bike_id": "3639d372cee701be37f4d99b81b96bbe", "fusion_lon": 0.0, "type": "electric_scooter", "fusion_lat": 0.0, "lat": 38.88618066666667, "is_disabled": 0, "name": "3639d372cee701be37f4d99b81b96bbe", "is_reserved": 0}, {"lon": -77.034368, "rental_uris": {"ios": "https://dc.lft.to/lastmile_qr_scan", "android": "https://dc.lft.to/lastmile_qr_scan"}, "bike_id": "19cbf50a4aa4dba66f522df1c41b7aa6", "fusion_lon": 0.0, "type": "electric_scooter", "fusion_lat": 0.0, "lat": 38.930970333333335, "is_disabled": 0, "name": "19cbf50a4aa4dba66f522df1c41b7aa6", "is_reserved": 0}, {"lon": -77.01382766666667, "rental_uris": {"ios": "https://dc.lft.to/lastmile_qr_scan", "android": "https://dc.lft.to/lastmile_qr_scan"}, "bike_id": "3e9a4ed60e09f7de36cf2a4933754c80", "fusion_lon": 0.0, "type": "electric_bike", "fusion_lat": 0.0, "lat": 38.9443, "is_disabled": 0, "name": "3e9a4ed60e09f7de36cf2a4933754c80", "is_reserved": 0}, {"lon": -77.0296365, "rental_uris": {"ios": "https://dc.lft.to/lastmile_qr_scan", "android": "https://dc.lft.to/lastmile_qr_scan"}, "bike_id": "622d137335b47caa9a0766342991c528", "fusion_lon": 0.0, "type": "electric_scooter", "fusion_lat": 0.0, "lat": 38.90595616666667, "is_disabled": 0, "name": "622d137335b47caa9a0766342991c528", "is_reserved": 0}, {"lon": -77.038502, "rental_uris": {"ios": "https://dc.lft.to/lastmile_qr_scan", "android": "https://dc.lft.to/lastmile_qr_scan"}, "bike_id": "eec5a5aa70251d18abbf123e7370182f", "fusion_lon": 0.0, "type": "electric_scooter", "fusion_lat": 0.0, "lat": 38.92645266666667, "is_disabled": 0, "name": "eec5a5aa70251d18abbf123e7370182f", "is_reserved": 0}, {"lon": -77.03271916666667, "rental_uris": {"ios": "https://dc.lft.to/lastmile_qr_scan", "android": "https://dc.lft.to/lastmile_qr_scan"}, "bike_id": "0ede89bfb498748272655201de8c3e8b", "fusion_lon": 0.0, "type": "electric_scooter", "fusion_lat": 0.0, "lat": 38.898924666666666, "is_disabled": 0, "name": "0ede89bfb498748272655201de8c3e8b", "is_reserved": 0}, {"lon": -77.23392883333334, "rental_uris": {"ios": "https://dc.lft.to/lastmile_qr_scan", "android": "https://dc.lft.to/lastmile_qr_scan"}, "bike_id": "c02fdee912fd15fee0031ac18c350059", "fusion_lon": 0.0, "type": "electric_bike", "fusion_lat": 0.0, "lat": 38.87176383333333, "is_disabled": 0, "name": "c02fdee912fd15fee0031ac18c350059", "is_reserved": 0}, {"lon": -76.942379, "rental_uris": {"ios": "https://dc.lft.to/lastmile_qr_scan", "android": "https://dc.lft.to/lastmile_qr_scan"}, "bike_id": "8735c72a2f52a61c579691ff884f64a8", "fusion_lon": 0.0, "type": "electric_bike", "fusion_lat": 0.0, "lat": 38.98028716666666, "is_disabled": 0, "name": "8735c72a2f52a61c579691ff884f64a8", "is_reserved": 0}, {"lon": -76.977052, "rental_uris": {"ios": "https://dc.lft.to/lastmile_qr_scan", "android": "https://dc.lft.to/lastmile_qr_scan"}, "bike_id": "b2f72109b97ca547a144a22798f2023c", "fusion_lon": 0.0, "type": "electric_scooter", "fusion_lat": 0.0, "lat": 38.886214333333335, "is_disabled": 0, "name": "b2f72109b97ca547a144a22798f2023c", "is_reserved": 0}, {"lon": -77.05600516666667, "rental_uris": {"ios": "https://dc.lft.to/lastmile_qr_scan", "android": "https://dc.lft.to/lastmile_qr_scan"}, "bike_id": "9b0bb05fc649e5e75c7f7a7bb1da1bd3", "fusion_lon": 0.0, "type": "electric_scooter", "fusion_lat": 0.0, "lat": 38.93698833333333, "is_disabled": 0, "name": "9b0bb05fc649e5e75c7f7a7bb1da1bd3", "is_reserved": 0}, {"lon": -77.0483645, "rental_uris": {"ios": "https://dc.lft.to/lastmile_qr_scan", "android": "https://dc.lft.to/lastmile_qr_scan"}, "bike_id": "35e20323c05f36210d1eae9925a44682", "fusion_lon": 0.0, "type": "electric_scooter", "fusion_lat": 0.0, "lat": 38.90371416666667, "is_disabled": 0, "name": "35e20323c05f36210d1eae9925a44682", "is_reserved": 0}, {"lon": -77.02590883333333, "rental_uris": {"ios": "https://dc.lft.to/lastmile_qr_scan", "android": "https://dc.lft.to/lastmile_qr_scan"}, "bike_id": "7c984cdf30b9e0be2ece28c1eac432dd", "fusion_lon": 0.0, "type": "electric_scooter", "fusion_lat": 0.0, "lat": 38.90439416666667, "is_disabled": 0, "name": "7c984cdf30b9e0be2ece28c1eac432dd", "is_reserved": 0}, {"lon": -77.0021005, "rental_uris": {"ios": "https://dc.lft.to/lastmile_qr_scan", "android": "https://dc.lft.to/lastmile_qr_scan"}, "bike_id": "057c12d3eec401120939454080cd8627", "fusion_lon": 0.0, "type": "electric_scooter", "fusion_lat": 0.0, "lat": 38.90029783333333, "is_disabled": 0, "name": "057c12d3eec401120939454080cd8627", "is_reserved": 0}, {"lon": -77.02384516666666, "rental_uris": {"ios": "https://dc.lft.to/lastmile_qr_scan", "android": "https://dc.lft.to/lastmile_qr_scan"}, "bike_id": "12ded8cccc8ad421d558b0a18428ade8", "fusion_lon": 0.0, "type": "electric_scooter", "fusion_lat": 0.0, "lat": 38.8982745, "is_disabled": 0, "name": "12ded8cccc8ad421d558b0a18428ade8", "is_reserved": 0}, {"lon": -76.960784, "rental_uris": {"ios": "https://dc.lft.to/lastmile_qr_scan", "android": "https://dc.lft.to/lastmile_qr_scan"}, "bike_id": "6d9a53908cb1f0a9494ef2b4672b84c6", "fusion_lon": 0.0, "type": "electric_scooter", "fusion_lat": 0.0, "lat": 38.92705516666667, "is_disabled": 0, "name": "6d9a53908cb1f0a9494ef2b4672b84c6", "is_reserved": 0}, {"lon": -77.01766483333333, "rental_uris": {"ios": "https://dc.lft.to/lastmile_qr_scan", "android": "https://dc.lft.to/lastmile_qr_scan"}, "bike_id": "73b266aa4497877298683e1904007626", "fusion_lon": 0.0, "type": "electric_scooter", "fusion_lat": 0.0, "lat": 38.87700916666667, "is_disabled": 0, "name": "73b266aa4497877298683e1904007626", "is_reserved": 0}, {"lon": -77.025287, "rental_uris": {"ios": "https://dc.lft.to/lastmile_qr_scan", "android": "https://dc.lft.to/lastmile_qr_scan"}, "bike_id": "30f36c3a402bdecc830ce0f451b2ff10", "fusion_lon": 0.0, "type": "electric_scooter", "fusion_lat": 0.0, "lat": 38.918143, "is_disabled": 0, "name": "30f36c3a402bdecc830ce0f451b2ff10", "is_reserved": 0}, {"lon": -77.02399033333333, "rental_uris": {"ios": "https://dc.lft.to/lastmile_qr_scan", "android": "https://dc.lft.to/lastmile_qr_scan"}, "bike_id": "8765459b075bf05344e9b692fff640c6", "fusion_lon": 0.0, "type": "electric_scooter", "fusion_lat": 0.0, "lat": 38.896749, "is_disabled": 0, "name": "8765459b075bf05344e9b692fff640c6", "is_reserved": 0}, {"lon": -77.0207905, "rental_uris": {"ios": "https://dc.lft.to/lastmile_qr_scan", "android": "https://dc.lft.to/lastmile_qr_scan"}, "bike_id": "33dca37c42ca77fa0a428a06c231ee22", "fusion_lon": 0.0, "type": "electric_scooter", "fusion_lat": 0.0, "lat": 38.949131666666666, "is_disabled": 0, "name": "33dca37c42ca77fa0a428a06c231ee22", "is_reserved": 0}, {"lon": -77.01229333333333, "rental_uris": {"ios": "https://dc.lft.to/lastmile_qr_scan", "android": "https://dc.lft.to/lastmile_qr_scan"}, "bike_id": "50114bedae74d16d3e2c70c1d1f13a31", "fusion_lon": 0.0, "type": "electric_scooter", "fusion_lat": 0.0, "lat": 38.875284666666666, "is_disabled": 0, "name": "50114bedae74d16d3e2c70c1d1f13a31", "is_reserved": 0}, {"lon": -77.04260866666667, "rental_uris": {"ios": "https://dc.lft.to/lastmile_qr_scan", "android": "https://dc.lft.to/lastmile_qr_scan"}, "bike_id": "783438cf541d71d8d5fe0d4bd37e185e", "fusion_lon": 0.0, "type": "electric_scooter", "fusion_lat": 0.0, "lat": 38.90992583333333, "is_disabled": 0, "name": "783438cf541d71d8d5fe0d4bd37e185e", "is_reserved": 0}, {"lon": -77.03792483333334, "rental_uris": {"ios": "https://dc.lft.to/lastmile_qr_scan", "android": "https://dc.lft.to/lastmile_qr_scan"}, "bike_id": "0eee778dabb85ad9f257ea16d127c220", "fusion_lon": 0.0, "type": "electric_scooter", "fusion_lat": 0.0, "lat": 38.91692233333333, "is_disabled": 0, "name": "0eee778dabb85ad9f257ea16d127c220", "is_reserved": 0}, {"lon": -77.07655283333334, "rental_uris": {"ios": "https://dc.lft.to/lastmile_qr_scan", "android": "https://dc.lft.to/lastmile_qr_scan"}, "bike_id": "7b444a787d71a6beb39cd652f52643a4", "fusion_lon": 0.0, "type": "electric_bike", "fusion_lat": 0.0, "lat": 38.80984, "is_disabled": 0, "name": "7b444a787d71a6beb39cd652f52643a4", "is_reserved": 0}, {"lon": -77.03297383333333, "rental_uris": {"ios": "https://dc.lft.to/lastmile_qr_scan", "android": "https://dc.lft.to/lastmile_qr_scan"}, "bike_id": "ba735181e79b902a96dd5942d6f01679", "fusion_lon": 0.0, "type": "electric_scooter", "fusion_lat": 0.0, "lat": 38.92861833333333, "is_disabled": 0, "name": "ba735181e79b902a96dd5942d6f01679", "is_reserved": 0}, {"lon": -77.0227675, "rental_uris": {"ios": "https://dc.lft.to/lastmile_qr_scan", "android": "https://dc.lft.to/lastmile_qr_scan"}, "bike_id": "5b751c5e2f6c07fa21f0a7e4eeee4528", "fusion_lon": 0.0, "type": "electric_scooter", "fusion_lat": 0.0, "lat": 38.90959566666667, "is_disabled": 0, "name": "5b751c5e2f6c07fa21f0a7e4eeee4528", "is_reserved": 0}, {"lon": -77.03173533333333, "rental_uris": {"ios": "https://dc.lft.to/lastmile_qr_scan", "android": "https://dc.lft.to/lastmile_qr_scan"}, "bike_id": "8aaafec838cd8ea23dda91e47e4654cd", "fusion_lon": 0.0, "type": "electric_scooter", "fusion_lat": 0.0, "lat": 38.907040333333335, "is_disabled": 0, "name": "8aaafec838cd8ea23dda91e47e4654cd", "is_reserved": 0}, {"lon": -77.02244566666667, "rental_uris": {"ios": "https://dc.lft.to/lastmile_qr_scan", "android": "https://dc.lft.to/lastmile_qr_scan"}, "bike_id": "cd297b5b9395fbb5592d67260b3e0e38", "fusion_lon": 0.0, "type": "electric_scooter", "fusion_lat": 0.0, "lat": 38.9247285, "is_disabled": 0, "name": "cd297b5b9395fbb5592d67260b3e0e38", "is_reserved": 0}, {"lon": -77.03175233333333, "rental_uris": {"ios": "https://dc.lft.to/lastmile_qr_scan", "android": "https://dc.lft.to/lastmile_qr_scan"}, "bike_id": "54bd5bbe388e783ccf46f3c821db0105", "fusion_lon": 0.0, "type": "electric_scooter", "fusion_lat": 0.0, "lat": 38.90287566666667, "is_disabled": 0, "name": "54bd5bbe388e783ccf46f3c821db0105", "is_reserved": 0}, {"lon": -77.03515733333333, "rental_uris": {"ios": "https://dc.lft.to/lastmile_qr_scan", "android": "https://dc.lft.to/lastmile_qr_scan"}, "bike_id": "f68f2a5137adfcf99d778312fb278214", "fusion_lon": 0.0, "type": "electric_scooter", "fusion_lat": 0.0, "lat": 38.922368, "is_disabled": 0, "name": "f68f2a5137adfcf99d778312fb278214", "is_reserved": 0}, {"lon": -76.9809095, "rental_uris": {"ios": "https://dc.lft.to/lastmile_qr_scan", "android": "https://dc.lft.to/lastmile_qr_scan"}, "bike_id": "af2b3af57a33691834055bb6afd4623e", "fusion_lon": 0.0, "type": "electric_bike", "fusion_lat": 0.0, "lat": 38.95358183333333, "is_disabled": 0, "name": "af2b3af57a33691834055bb6afd4623e", "is_reserved": 0}, {"lon": -77.025082, "rental_uris": {"ios": "https://dc.lft.to/lastmile_qr_scan", "android": "https://dc.lft.to/lastmile_qr_scan"}, "bike_id": "86288034881adecac86ca18ff4834e14", "fusion_lon": 0.0, "type": "electric_scooter", "fusion_lat": 0.0, "lat": 38.892288666666666, "is_disabled": 0, "name": "86288034881adecac86ca18ff4834e14", "is_reserved": 0}, {"lon": -77.03124116666666, "rental_uris": {"ios": "https://dc.lft.to/lastmile_qr_scan", "android": "https://dc.lft.to/lastmile_qr_scan"}, "bike_id": "314bf1ca0b0559aaef9df450c0d6877d", "fusion_lon": 0.0, "type": "electric_scooter", "fusion_lat": 0.0, "lat": 38.91113433333334, "is_disabled": 0, "name": "314bf1ca0b0559aaef9df450c0d6877d", "is_reserved": 0}, {"lon": -77.05540866666666, "rental_uris": {"ios": "https://dc.lft.to/lastmile_qr_scan", "android": "https://dc.lft.to/lastmile_qr_scan"}, "bike_id": "d2814f94156f8ea33ac996add43a340e", "fusion_lon": 0.0, "type": "electric_scooter", "fusion_lat": 0.0, "lat": 38.930088833333336, "is_disabled": 0, "name": "d2814f94156f8ea33ac996add43a340e", "is_reserved": 0}, {"lon": -77.02108533333333, "rental_uris": {"ios": "https://dc.lft.to/lastmile_qr_scan", "android": "https://dc.lft.to/lastmile_qr_scan"}, "bike_id": "97b58838861e50ae4225fecf74a45296", "fusion_lon": 0.0, "type": "electric_scooter", "fusion_lat": 0.0, "lat": 38.895078833333336, "is_disabled": 0, "name": "97b58838861e50ae4225fecf74a45296", "is_reserved": 0}, {"lon": -77.06018716666667, "rental_uris": {"ios": "https://dc.lft.to/lastmile_qr_scan", "android": "https://dc.lft.to/lastmile_qr_scan"}, "bike_id": "12888ff547426c467bf1c7267a323890", "fusion_lon": 0.0, "type": "electric_scooter", "fusion_lat": 0.0, "lat": 38.938722166666665, "is_disabled": 0, "name": "12888ff547426c467bf1c7267a323890", "is_reserved": 0}, {"lon": -77.0432685, "rental_uris": {"ios": "https://dc.lft.to/lastmile_qr_scan", "android": "https://dc.lft.to/lastmile_qr_scan"}, "bike_id": "3203f7013f1372e184075cd53d462459", "fusion_lon": 0.0, "type": "electric_scooter", "fusion_lat": 0.0, "lat": 38.9305995, "is_disabled": 0, "name": "3203f7013f1372e184075cd53d462459", "is_reserved": 0}, {"lon": -77.02794983333334, "rental_uris": {"ios": "https://dc.lft.to/lastmile_qr_scan", "android": "https://dc.lft.to/lastmile_qr_scan"}, "bike_id": "afddff668b54524d668f035bc3a6ed93", "fusion_lon": 0.0, "type": "electric_scooter", "fusion_lat": 0.0, "lat": 38.92970783333333, "is_disabled": 0, "name": "afddff668b54524d668f035bc3a6ed93", "is_reserved": 0}, {"lon": -77.0218265, "rental_uris": {"ios": "https://dc.lft.to/lastmile_qr_scan", "android": "https://dc.lft.to/lastmile_qr_scan"}, "bike_id": "35f090819948f9acc94381037fd7aa75", "fusion_lon": 0.0, "type": "electric_scooter", "fusion_lat": 0.0, "lat": 38.924744, "is_disabled": 0, "name": "35f090819948f9acc94381037fd7aa75", "is_reserved": 0}, {"lon": -77.03429766666666, "rental_uris": {"ios": "https://dc.lft.to/lastmile_qr_scan", "android": "https://dc.lft.to/lastmile_qr_scan"}, "bike_id": "fc05e74da2e5f8141a2cf3b5d5d1c0ef", "fusion_lon": 0.0, "type": "electric_scooter", "fusion_lat": 0.0, "lat": 38.91917983333333, "is_disabled": 0, "name": "fc05e74da2e5f8141a2cf3b5d5d1c0ef", "is_reserved": 0}, {"lon": -77.005073, "rental_uris": {"ios": "https://dc.lft.to/lastmile_qr_scan", "android": "https://dc.lft.to/lastmile_qr_scan"}, "bike_id": "08cbca6785960823b758f08c8fe3f7bd", "fusion_lon": 0.0, "type": "electric_scooter", "fusion_lat": 0.0, "lat": 38.9604725, "is_disabled": 0, "name": "08cbca6785960823b758f08c8fe3f7bd", "is_reserved": 0}, {"lon": -77.039042, "rental_uris": {"ios": "https://dc.lft.to/lastmile_qr_scan", "android": "https://dc.lft.to/lastmile_qr_scan"}, "bike_id": "32247c0b9e265b647a38b3646e4747cc", "fusion_lon": 0.0, "type": "electric_scooter", "fusion_lat": 0.0, "lat": 38.917553, "is_disabled": 0, "name": "32247c0b9e265b647a38b3646e4747cc", "is_reserved": 0}, {"lon": -76.95770183333333, "rental_uris": {"ios": "https://dc.lft.to/lastmile_qr_scan", "android": "https://dc.lft.to/lastmile_qr_scan"}, "bike_id": "bae2c1c4954f5ccecc87888dc0d80adf", "fusion_lon": 0.0, "type": "electric_scooter", "fusion_lat": 0.0, "lat": 38.88355266666667, "is_disabled": 0, "name": "bae2c1c4954f5ccecc87888dc0d80adf", "is_reserved": 0}, {"lon": -77.02712083333333, "rental_uris": {"ios": "https://dc.lft.to/lastmile_qr_scan", "android": "https://dc.lft.to/lastmile_qr_scan"}, "bike_id": "483eaddd30ceda85c34a29ed7eb3281e", "fusion_lon": 0.0, "type": "electric_scooter", "fusion_lat": 0.0, "lat": 38.91818, "is_disabled": 0, "name": "483eaddd30ceda85c34a29ed7eb3281e", "is_reserved": 0}, {"lon": -77.04744133333334, "rental_uris": {"ios": "https://dc.lft.to/lastmile_qr_scan", "android": "https://dc.lft.to/lastmile_qr_scan"}, "bike_id": "dae33a5c8aa88ab7913356bccf6784d1", "fusion_lon": 0.0, "type": "electric_scooter", "fusion_lat": 0.0, "lat": 38.919988000000004, "is_disabled": 0, "name": "dae33a5c8aa88ab7913356bccf6784d1", "is_reserved": 0}, {"lon": -76.9373045, "rental_uris": {"ios": "https://dc.lft.to/lastmile_qr_scan", "android": "https://dc.lft.to/lastmile_qr_scan"}, "bike_id": "36f0afc44c171c49593d1f3652387165", "fusion_lon": 0.0, "type": "electric_scooter", "fusion_lat": 0.0, "lat": 38.89018016666667, "is_disabled": 0, "name": "36f0afc44c171c49593d1f3652387165", "is_reserved": 0}, {"lon": -77.0467495, "rental_uris": {"ios": "https://dc.lft.to/lastmile_qr_scan", "android": "https://dc.lft.to/lastmile_qr_scan"}, "bike_id": "6cee09a43e6ec4f70879e92358e778ef", "fusion_lon": 0.0, "type": "electric_scooter", "fusion_lat": 0.0, "lat": 38.897331666666666, "is_disabled": 0, "name": "6cee09a43e6ec4f70879e92358e778ef", "is_reserved": 0}, {"lon": -77.05002033333334, "rental_uris": {"ios": "https://dc.lft.to/lastmile_qr_scan", "android": "https://dc.lft.to/lastmile_qr_scan"}, "bike_id": "acaf049b3529c0661af7845ab1d6e20b", "fusion_lon": 0.0, "type": "electric_scooter", "fusion_lat": 0.0, "lat": 38.89234483333333, "is_disabled": 0, "name": "acaf049b3529c0661af7845ab1d6e20b", "is_reserved": 0}, {"lon": -76.9425235, "rental_uris": {"ios": "https://dc.lft.to/lastmile_qr_scan", "android": "https://dc.lft.to/lastmile_qr_scan"}, "bike_id": "793b726e07d9a50fd43542571c4c79c1", "fusion_lon": 0.0, "type": "electric_bike", "fusion_lat": 0.0, "lat": 38.89849483333333, "is_disabled": 0, "name": "793b726e07d9a50fd43542571c4c79c1", "is_reserved": 0}, {"lon": -77.00760066666666, "rental_uris": {"ios": "https://dc.lft.to/lastmile_qr_scan", "android": "https://dc.lft.to/lastmile_qr_scan"}, "bike_id": "0c0afeed3453ea88c2b6d08a4eae2982", "fusion_lon": 0.0, "type": "electric_scooter", "fusion_lat": 0.0, "lat": 38.907561333333334, "is_disabled": 0, "name": "0c0afeed3453ea88c2b6d08a4eae2982", "is_reserved": 0}, {"lon": -77.03438366666667, "rental_uris": {"ios": "https://dc.lft.to/lastmile_qr_scan", "android": "https://dc.lft.to/lastmile_qr_scan"}, "bike_id": "a54cfe67e708eb4f4f1766f516b6e48f", "fusion_lon": 0.0, "type": "electric_scooter", "fusion_lat": 0.0, "lat": 38.919100666666665, "is_disabled": 0, "name": "a54cfe67e708eb4f4f1766f516b6e48f", "is_reserved": 0}, {"lon": -76.99940983333333, "rental_uris": {"ios": "https://dc.lft.to/lastmile_qr_scan", "android": "https://dc.lft.to/lastmile_qr_scan"}, "bike_id": "cbcf8c539d41f1b75aad9b05b6166731", "fusion_lon": 0.0, "type": "electric_scooter", "fusion_lat": 0.0, "lat": 38.891346, "is_disabled": 0, "name": "cbcf8c539d41f1b75aad9b05b6166731", "is_reserved": 0}, {"lon": -77.0281625, "rental_uris": {"ios": "https://dc.lft.to/lastmile_qr_scan", "android": "https://dc.lft.to/lastmile_qr_scan"}, "bike_id": "9c280c2513db0ba15e63151780a792bb", "fusion_lon": 0.0, "type": "electric_scooter", "fusion_lat": 0.0, "lat": 38.89882133333333, "is_disabled": 0, "name": "9c280c2513db0ba15e63151780a792bb", "is_reserved": 0}, {"lon": -77.01416366666666, "rental_uris": {"ios": "https://dc.lft.to/lastmile_qr_scan", "android": "https://dc.lft.to/lastmile_qr_scan"}, "bike_id": "85039564511e4f88b19e50c20b1c0974", "fusion_lon": 0.0, "type": "electric_scooter", "fusion_lat": 0.0, "lat": 38.9064385, "is_disabled": 0, "name": "85039564511e4f88b19e50c20b1c0974", "is_reserved": 0}, {"lon": -77.00796, "rental_uris": {"ios": "https://dc.lft.to/lastmile_qr_scan", "android": "https://dc.lft.to/lastmile_qr_scan"}, "bike_id": "e406307d9aa52850987c860abd35741c", "fusion_lon": 0.0, "type": "electric_bike", "fusion_lat": 0.0, "lat": 38.949245166666664, "is_disabled": 0, "name": "e406307d9aa52850987c860abd35741c", "is_reserved": 0}, {"lon": -77.04749316666667, "rental_uris": {"ios": "https://dc.lft.to/lastmile_qr_scan", "android": "https://dc.lft.to/lastmile_qr_scan"}, "bike_id": "0bba94dd4a0b3b1071563d131551926d", "fusion_lon": 0.0, "type": "electric_scooter", "fusion_lat": 0.0, "lat": 38.900948, "is_disabled": 0, "name": "0bba94dd4a0b3b1071563d131551926d", "is_reserved": 0}, {"lon": -77.04655583333333, "rental_uris": {"ios": "https://dc.lft.to/lastmile_qr_scan", "android": "https://dc.lft.to/lastmile_qr_scan"}, "bike_id": "2719502980db46a28db94bc97b0f2415", "fusion_lon": 0.0, "type": "electric_scooter", "fusion_lat": 0.0, "lat": 38.91272633333333, "is_disabled": 0, "name": "2719502980db46a28db94bc97b0f2415", "is_reserved": 0}, {"lon": -77.01563966666667, "rental_uris": {"ios": "https://dc.lft.to/lastmile_qr_scan", "android": "https://dc.lft.to/lastmile_qr_scan"}, "bike_id": "f99db1b9a37978d550cb1b46477c3c0e", "fusion_lon": 0.0, "type": "electric_scooter", "fusion_lat": 0.0, "lat": 38.902269833333335, "is_disabled": 0, "name": "f99db1b9a37978d550cb1b46477c3c0e", "is_reserved": 0}, {"lon": -77.065393, "rental_uris": {"ios": "https://dc.lft.to/lastmile_qr_scan", "android": "https://dc.lft.to/lastmile_qr_scan"}, "bike_id": "19b23bd3aba8320f08f2d84094481b90", "fusion_lon": 0.0, "type": "electric_scooter", "fusion_lat": 0.0, "lat": 38.90597733333333, "is_disabled": 0, "name": "19b23bd3aba8320f08f2d84094481b90", "is_reserved": 0}, {"lon": -77.03175, "rental_uris": {"ios": "https://dc.lft.to/lastmile_qr_scan", "android": "https://dc.lft.to/lastmile_qr_scan"}, "bike_id": "41686257e3d0a388cc5d337c0ebde7b9", "fusion_lon": 0.0, "type": "electric_scooter", "fusion_lat": 0.0, "lat": 38.914188833333334, "is_disabled": 0, "name": "41686257e3d0a388cc5d337c0ebde7b9", "is_reserved": 0}, {"lon": -77.0320325, "rental_uris": {"ios": "https://dc.lft.to/lastmile_qr_scan", "android": "https://dc.lft.to/lastmile_qr_scan"}, "bike_id": "f1ed3c3b8330ca8fd9757814403da279", "fusion_lon": 0.0, "type": "electric_bike", "fusion_lat": 0.0, "lat": 38.900296166666664, "is_disabled": 0, "name": "f1ed3c3b8330ca8fd9757814403da279", "is_reserved": 0}, {"lon": -77.03846316666667, "rental_uris": {"ios": "https://dc.lft.to/lastmile_qr_scan", "android": "https://dc.lft.to/lastmile_qr_scan"}, "bike_id": "3b9772dc9132124cd4e25dc98dc87e92", "fusion_lon": 0.0, "type": "electric_scooter", "fusion_lat": 0.0, "lat": 38.911772666666664, "is_disabled": 0, "name": "3b9772dc9132124cd4e25dc98dc87e92", "is_reserved": 0}, {"lon": -76.99292333333334, "rental_uris": {"ios": "https://dc.lft.to/lastmile_qr_scan", "android": "https://dc.lft.to/lastmile_qr_scan"}, "bike_id": "4038cd920ddc414952582794d7de1104", "fusion_lon": 0.0, "type": "electric_scooter", "fusion_lat": 0.0, "lat": 38.87641633333333, "is_disabled": 0, "name": "4038cd920ddc414952582794d7de1104", "is_reserved": 0}, {"lon": -77.046708, "rental_uris": {"ios": "https://dc.lft.to/lastmile_qr_scan", "android": "https://dc.lft.to/lastmile_qr_scan"}, "bike_id": "37d90ab1095211eaddfb4100102becf2", "fusion_lon": 0.0, "type": "electric_scooter", "fusion_lat": 0.0, "lat": 38.916680666666664, "is_disabled": 0, "name": "37d90ab1095211eaddfb4100102becf2", "is_reserved": 0}, {"lon": -77.02589983333333, "rental_uris": {"ios": "https://dc.lft.to/lastmile_qr_scan", "android": "https://dc.lft.to/lastmile_qr_scan"}, "bike_id": "65b307b2e276518f94d3e1edb4eb2583", "fusion_lon": 0.0, "type": "electric_scooter", "fusion_lat": 0.0, "lat": 38.92091833333333, "is_disabled": 0, "name": "65b307b2e276518f94d3e1edb4eb2583", "is_reserved": 0}, {"lon": -77.04500683333333, "rental_uris": {"ios": "https://dc.lft.to/lastmile_qr_scan", "android": "https://dc.lft.to/lastmile_qr_scan"}, "bike_id": "61cb75d155e117cad4236dd3a84ff79d", "fusion_lon": 0.0, "type": "electric_scooter", "fusion_lat": 0.0, "lat": 38.903796666666665, "is_disabled": 0, "name": "61cb75d155e117cad4236dd3a84ff79d", "is_reserved": 0}, {"lon": -77.03716066666667, "rental_uris": {"ios": "https://dc.lft.to/lastmile_qr_scan", "android": "https://dc.lft.to/lastmile_qr_scan"}, "bike_id": "60a920456218f62fbd4b94011de772bd", "fusion_lon": 0.0, "type": "electric_scooter", "fusion_lat": 0.0, "lat": 38.91809533333333, "is_disabled": 0, "name": "60a920456218f62fbd4b94011de772bd", "is_reserved": 0}, {"lon": -77.03910566666667, "rental_uris": {"ios": "https://dc.lft.to/lastmile_qr_scan", "android": "https://dc.lft.to/lastmile_qr_scan"}, "bike_id": "cd453c718e131b54e2f4b22c4732df9b", "fusion_lon": 0.0, "type": "electric_scooter", "fusion_lat": 0.0, "lat": 38.918436666666665, "is_disabled": 0, "name": "cd453c718e131b54e2f4b22c4732df9b", "is_reserved": 0}, {"lon": -76.98683733333333, "rental_uris": {"ios": "https://dc.lft.to/lastmile_qr_scan", "android": "https://dc.lft.to/lastmile_qr_scan"}, "bike_id": "6aef383122f6e3bba8073144a03f1dcb", "fusion_lon": 0.0, "type": "electric_scooter", "fusion_lat": 0.0, "lat": 38.85941783333333, "is_disabled": 0, "name": "6aef383122f6e3bba8073144a03f1dcb", "is_reserved": 0}, {"lon": -76.93906783333334, "rental_uris": {"ios": "https://dc.lft.to/lastmile_qr_scan", "android": "https://dc.lft.to/lastmile_qr_scan"}, "bike_id": "759e9caad1c0f419246cfb83918f571e", "fusion_lon": 0.0, "type": "electric_scooter", "fusion_lat": 0.0, "lat": 38.896838833333334, "is_disabled": 0, "name": "759e9caad1c0f419246cfb83918f571e", "is_reserved": 0}, {"lon": -77.02194633333333, "rental_uris": {"ios": "https://dc.lft.to/lastmile_qr_scan", "android": "https://dc.lft.to/lastmile_qr_scan"}, "bike_id": "391d33aa26c50c3560fd48aee6a50449", "fusion_lon": 0.0, "type": "electric_scooter", "fusion_lat": 0.0, "lat": 38.9158815, "is_disabled": 0, "name": "391d33aa26c50c3560fd48aee6a50449", "is_reserved": 0}, {"lon": -77.01463266666667, "rental_uris": {"ios": "https://dc.lft.to/lastmile_qr_scan", "android": "https://dc.lft.to/lastmile_qr_scan"}, "bike_id": "65b915afaa80b0d2dfcf1a0a7ae870de", "fusion_lon": 0.0, "type": "electric_scooter", "fusion_lat": 0.0, "lat": 38.88767216666667, "is_disabled": 0, "name": "65b915afaa80b0d2dfcf1a0a7ae870de", "is_reserved": 0}, {"lon": -77.04678666666666, "rental_uris": {"ios": "https://dc.lft.to/lastmile_qr_scan", "android": "https://dc.lft.to/lastmile_qr_scan"}, "bike_id": "4058b75a2c1bf68b168c8f98481ca406", "fusion_lon": 0.0, "type": "electric_scooter", "fusion_lat": 0.0, "lat": 38.89371766666667, "is_disabled": 0, "name": "4058b75a2c1bf68b168c8f98481ca406", "is_reserved": 0}, {"lon": -77.0533255, "rental_uris": {"ios": "https://dc.lft.to/lastmile_qr_scan", "android": "https://dc.lft.to/lastmile_qr_scan"}, "bike_id": "bd263bfca3d4cb28c6b2401a14a19042", "fusion_lon": 0.0, "type": "electric_scooter", "fusion_lat": 0.0, "lat": 38.927922833333334, "is_disabled": 0, "name": "bd263bfca3d4cb28c6b2401a14a19042", "is_reserved": 0}, {"lon": -76.98773966666667, "rental_uris": {"ios": "https://dc.lft.to/lastmile_qr_scan", "android": "https://dc.lft.to/lastmile_qr_scan"}, "bike_id": "f087b71999a5ef6ef3cef68b5c33bde0", "fusion_lon": 0.0, "type": "electric_bike", "fusion_lat": 0.0, "lat": 38.95453916666666, "is_disabled": 0, "name": "f087b71999a5ef6ef3cef68b5c33bde0", "is_reserved": 0}, {"lon": -77.00564933333334, "rental_uris": {"ios": "https://dc.lft.to/lastmile_qr_scan", "android": "https://dc.lft.to/lastmile_qr_scan"}, "bike_id": "63515b176242acb9ff3b0f16977fbeab", "fusion_lon": 0.0, "type": "electric_scooter", "fusion_lat": 0.0, "lat": 38.88506116666667, "is_disabled": 0, "name": "63515b176242acb9ff3b0f16977fbeab", "is_reserved": 0}, {"lon": -77.00411033333333, "rental_uris": {"ios": "https://dc.lft.to/lastmile_qr_scan", "android": "https://dc.lft.to/lastmile_qr_scan"}, "bike_id": "6d4944626070761f284b6838bcdc209f", "fusion_lon": 0.0, "type": "electric_scooter", "fusion_lat": 0.0, "lat": 38.87458816666667, "is_disabled": 0, "name": "6d4944626070761f284b6838bcdc209f", "is_reserved": 0}, {"lon": -77.04454966666667, "rental_uris": {"ios": "https://dc.lft.to/lastmile_qr_scan", "android": "https://dc.lft.to/lastmile_qr_scan"}, "bike_id": "2e2a58e2f839405396016c4240780496", "fusion_lon": 0.0, "type": "electric_scooter", "fusion_lat": 0.0, "lat": 38.91019566666667, "is_disabled": 0, "name": "2e2a58e2f839405396016c4240780496", "is_reserved": 0}, {"lon": -77.07281383333333, "rental_uris": {"ios": "https://dc.lft.to/lastmile_qr_scan", "android": "https://dc.lft.to/lastmile_qr_scan"}, "bike_id": "cba40c596364efa42d9350c42aef27da", "fusion_lon": 0.0, "type": "electric_scooter", "fusion_lat": 0.0, "lat": 38.93524083333333, "is_disabled": 0, "name": "cba40c596364efa42d9350c42aef27da", "is_reserved": 0}, {"lon": -77.0393785, "rental_uris": {"ios": "https://dc.lft.to/lastmile_qr_scan", "android": "https://dc.lft.to/lastmile_qr_scan"}, "bike_id": "8e7def5ce004696b9114114c4d5d8eca", "fusion_lon": 0.0, "type": "electric_scooter", "fusion_lat": 0.0, "lat": 38.8990315, "is_disabled": 0, "name": "8e7def5ce004696b9114114c4d5d8eca", "is_reserved": 0}, {"lon": -77.03428333333333, "rental_uris": {"ios": "https://dc.lft.to/lastmile_qr_scan", "android": "https://dc.lft.to/lastmile_qr_scan"}, "bike_id": "2db957802e3ad2423ecc1135c8e4981e", "fusion_lon": 0.0, "type": "electric_bike", "fusion_lat": 0.0, "lat": 38.96623616666667, "is_disabled": 0, "name": "2db957802e3ad2423ecc1135c8e4981e", "is_reserved": 0}, {"lon": -77.03869566666667, "rental_uris": {"ios": "https://dc.lft.to/lastmile_qr_scan", "android": "https://dc.lft.to/lastmile_qr_scan"}, "bike_id": "c838b15cde0100774bb10eab8614e6ba", "fusion_lon": 0.0, "type": "electric_scooter", "fusion_lat": 0.0, "lat": 38.911188, "is_disabled": 0, "name": "c838b15cde0100774bb10eab8614e6ba", "is_reserved": 0}, {"lon": -77.042418, "rental_uris": {"ios": "https://dc.lft.to/lastmile_qr_scan", "android": "https://dc.lft.to/lastmile_qr_scan"}, "bike_id": "b605054a8b1ac8e922c1ca0d85cde9ec", "fusion_lon": 0.0, "type": "electric_scooter", "fusion_lat": 0.0, "lat": 38.91963666666667, "is_disabled": 0, "name": "b605054a8b1ac8e922c1ca0d85cde9ec", "is_reserved": 0}, {"lon": -77.01562133333333, "rental_uris": {"ios": "https://dc.lft.to/lastmile_qr_scan", "android": "https://dc.lft.to/lastmile_qr_scan"}, "bike_id": "ae606cc9d6f530337bacb624d548aa2e", "fusion_lon": 0.0, "type": "electric_scooter", "fusion_lat": 0.0, "lat": 38.927991, "is_disabled": 0, "name": "ae606cc9d6f530337bacb624d548aa2e", "is_reserved": 0}, {"lon": -77.032001, "rental_uris": {"ios": "https://dc.lft.to/lastmile_qr_scan", "android": "https://dc.lft.to/lastmile_qr_scan"}, "bike_id": "95fd09db2295dbd99832fc3f3c8ecd7d", "fusion_lon": 0.0, "type": "electric_scooter", "fusion_lat": 0.0, "lat": 38.913525666666665, "is_disabled": 0, "name": "95fd09db2295dbd99832fc3f3c8ecd7d", "is_reserved": 0}, {"lon": -77.00062883333334, "rental_uris": {"ios": "https://dc.lft.to/lastmile_qr_scan", "android": "https://dc.lft.to/lastmile_qr_scan"}, "bike_id": "e7ab2334ace9b5c99a7b66a02613481c", "fusion_lon": 0.0, "type": "electric_scooter", "fusion_lat": 0.0, "lat": 38.87690683333334, "is_disabled": 0, "name": "e7ab2334ace9b5c99a7b66a02613481c", "is_reserved": 0}, {"lon": -77.0453605, "rental_uris": {"ios": "https://dc.lft.to/lastmile_qr_scan", "android": "https://dc.lft.to/lastmile_qr_scan"}, "bike_id": "e5dda691b7ed4f2845efb80effd42db5", "fusion_lon": 0.0, "type": "electric_scooter", "fusion_lat": 0.0, "lat": 38.90063983333334, "is_disabled": 0, "name": "e5dda691b7ed4f2845efb80effd42db5", "is_reserved": 0}, {"lon": -76.99106566666667, "rental_uris": {"ios": "https://dc.lft.to/lastmile_qr_scan", "android": "https://dc.lft.to/lastmile_qr_scan"}, "bike_id": "88208caea0bac11275d3b12f26cd7884", "fusion_lon": 0.0, "type": "electric_bike", "fusion_lat": 0.0, "lat": 38.804825666666666, "is_disabled": 0, "name": "88208caea0bac11275d3b12f26cd7884", "is_reserved": 0}, {"lon": -77.054379, "rental_uris": {"ios": "https://dc.lft.to/lastmile_qr_scan", "android": "https://dc.lft.to/lastmile_qr_scan"}, "bike_id": "c72d19f3fa3d12d99aad42eb32a28fe7", "fusion_lon": 0.0, "type": "electric_bike", "fusion_lat": 0.0, "lat": 38.784628166666664, "is_disabled": 0, "name": "c72d19f3fa3d12d99aad42eb32a28fe7", "is_reserved": 0}, {"lon": -76.98094966666666, "rental_uris": {"ios": "https://dc.lft.to/lastmile_qr_scan", "android": "https://dc.lft.to/lastmile_qr_scan"}, "bike_id": "f4a1e06b6d5c37b5aebb3060d9a623e5", "fusion_lon": 0.0, "type": "electric_bike", "fusion_lat": 0.0, "lat": 38.958871333333335, "is_disabled": 0, "name": "f4a1e06b6d5c37b5aebb3060d9a623e5", "is_reserved": 0}, {"lon": -76.976374, "rental_uris": {"ios": "https://dc.lft.to/lastmile_qr_scan", "android": "https://dc.lft.to/lastmile_qr_scan"}, "bike_id": "2dd20eef75bfceb427fb3fc623b17fdc", "fusion_lon": 0.0, "type": "electric_scooter", "fusion_lat": 0.0, "lat": 38.88689883333333, "is_disabled": 0, "name": "2dd20eef75bfceb427fb3fc623b17fdc", "is_reserved": 0}, {"lon": -77.0662135, "rental_uris": {"ios": "https://dc.lft.to/lastmile_qr_scan", "android": "https://dc.lft.to/lastmile_qr_scan"}, "bike_id": "3b58e9140a1e56d6f1815aca05940e69", "fusion_lon": 0.0, "type": "electric_scooter", "fusion_lat": 0.0, "lat": 38.9436645, "is_disabled": 0, "name": "3b58e9140a1e56d6f1815aca05940e69", "is_reserved": 0}, {"lon": -76.972305, "rental_uris": {"ios": "https://dc.lft.to/lastmile_qr_scan", "android": "https://dc.lft.to/lastmile_qr_scan"}, "bike_id": "c3147cdcfe979c1f9547944e4f93b4e5", "fusion_lon": 0.0, "type": "electric_bike", "fusion_lat": 0.0, "lat": 38.904375333333334, "is_disabled": 0, "name": "c3147cdcfe979c1f9547944e4f93b4e5", "is_reserved": 0}, {"lon": -77.04235916666667, "rental_uris": {"ios": "https://dc.lft.to/lastmile_qr_scan", "android": "https://dc.lft.to/lastmile_qr_scan"}, "bike_id": "99601c5ae3ea1234eff76b202b0a5371", "fusion_lon": 0.0, "type": "electric_scooter", "fusion_lat": 0.0, "lat": 38.92215433333333, "is_disabled": 0, "name": "99601c5ae3ea1234eff76b202b0a5371", "is_reserved": 0}, {"lon": -77.0462205, "rental_uris": {"ios": "https://dc.lft.to/lastmile_qr_scan", "android": "https://dc.lft.to/lastmile_qr_scan"}, "bike_id": "b25c6716ab163ba522e37221cf37c12d", "fusion_lon": 0.0, "type": "electric_scooter", "fusion_lat": 0.0, "lat": 38.918798, "is_disabled": 0, "name": "b25c6716ab163ba522e37221cf37c12d", "is_reserved": 0}, {"lon": -77.02295216666667, "rental_uris": {"ios": "https://dc.lft.to/lastmile_qr_scan", "android": "https://dc.lft.to/lastmile_qr_scan"}, "bike_id": "a863cd57e687a79713635f9466c9dc3d", "fusion_lon": 0.0, "type": "electric_scooter", "fusion_lat": 0.0, "lat": 38.92691116666666, "is_disabled": 0, "name": "a863cd57e687a79713635f9466c9dc3d", "is_reserved": 0}, {"lon": -77.0433775, "rental_uris": {"ios": "https://dc.lft.to/lastmile_qr_scan", "android": "https://dc.lft.to/lastmile_qr_scan"}, "bike_id": "380e8a93c6b5c7ab38612ecdf97f19ec", "fusion_lon": 0.0, "type": "electric_scooter", "fusion_lat": 0.0, "lat": 38.89820683333333, "is_disabled": 0, "name": "380e8a93c6b5c7ab38612ecdf97f19ec", "is_reserved": 0}, {"lon": -77.04413433333333, "rental_uris": {"ios": "https://dc.lft.to/lastmile_qr_scan", "android": "https://dc.lft.to/lastmile_qr_scan"}, "bike_id": "fe2d5a61383789a075e76fe81afd1d90", "fusion_lon": 0.0, "type": "electric_scooter", "fusion_lat": 0.0, "lat": 38.911364666666664, "is_disabled": 0, "name": "fe2d5a61383789a075e76fe81afd1d90", "is_reserved": 0}, {"lon": -76.91063133333333, "rental_uris": {"ios": "https://dc.lft.to/lastmile_qr_scan", "android": "https://dc.lft.to/lastmile_qr_scan"}, "bike_id": "efa7ec9a2a2a40e89e50ae0cf33f9298", "fusion_lon": 0.0, "type": "electric_bike", "fusion_lat": 0.0, "lat": 39.010775833333334, "is_disabled": 0, "name": "efa7ec9a2a2a40e89e50ae0cf33f9298", "is_reserved": 0}, {"lon": -77.03791516666666, "rental_uris": {"ios": "https://dc.lft.to/lastmile_qr_scan", "android": "https://dc.lft.to/lastmile_qr_scan"}, "bike_id": "8ce1e1c4cc8ed16e498e31001cc87ac5", "fusion_lon": 0.0, "type": "electric_scooter", "fusion_lat": 0.0, "lat": 38.918186, "is_disabled": 0, "name": "8ce1e1c4cc8ed16e498e31001cc87ac5", "is_reserved": 0}, {"lon": -77.039763, "rental_uris": {"ios": "https://dc.lft.to/lastmile_qr_scan", "android": "https://dc.lft.to/lastmile_qr_scan"}, "bike_id": "62244adb69f4b03e9f8dfa9baeaecca8", "fusion_lon": 0.0, "type": "electric_scooter", "fusion_lat": 0.0, "lat": 38.89994866666667, "is_disabled": 0, "name": "62244adb69f4b03e9f8dfa9baeaecca8", "is_reserved": 0}, {"lon": -77.03720083333333, "rental_uris": {"ios": "https://dc.lft.to/lastmile_qr_scan", "android": "https://dc.lft.to/lastmile_qr_scan"}, "bike_id": "ecd1b00270d4370c517827dc3b3ed9b0", "fusion_lon": 0.0, "type": "electric_scooter", "fusion_lat": 0.0, "lat": 38.9265995, "is_disabled": 0, "name": "ecd1b00270d4370c517827dc3b3ed9b0", "is_reserved": 0}, {"lon": -77.00754016666667, "rental_uris": {"ios": "https://dc.lft.to/lastmile_qr_scan", "android": "https://dc.lft.to/lastmile_qr_scan"}, "bike_id": "0ca6389a1db9143cf59a09648ddc23d6", "fusion_lon": 0.0, "type": "electric_scooter", "fusion_lat": 0.0, "lat": 38.8983255, "is_disabled": 0, "name": "0ca6389a1db9143cf59a09648ddc23d6", "is_reserved": 0}, {"lon": -77.0208745, "rental_uris": {"ios": "https://dc.lft.to/lastmile_qr_scan", "android": "https://dc.lft.to/lastmile_qr_scan"}, "bike_id": "7dff04a2d810d0e650172be4f9f84fd7", "fusion_lon": 0.0, "type": "electric_scooter", "fusion_lat": 0.0, "lat": 38.899527666666664, "is_disabled": 0, "name": "7dff04a2d810d0e650172be4f9f84fd7", "is_reserved": 0}, {"lon": -76.99621383333333, "rental_uris": {"ios": "https://dc.lft.to/lastmile_qr_scan", "android": "https://dc.lft.to/lastmile_qr_scan"}, "bike_id": "e244fc159e9c01ea2d5712369c0b8f41", "fusion_lon": 0.0, "type": "electric_scooter", "fusion_lat": 0.0, "lat": 38.88140766666667, "is_disabled": 0, "name": "e244fc159e9c01ea2d5712369c0b8f41", "is_reserved": 0}, {"lon": -76.99793183333334, "rental_uris": {"ios": "https://dc.lft.to/lastmile_qr_scan", "android": "https://dc.lft.to/lastmile_qr_scan"}, "bike_id": "4fbc858e7801a2962f37c213e68051cc", "fusion_lon": 0.0, "type": "electric_bike", "fusion_lat": 0.0, "lat": 38.95088633333334, "is_disabled": 0, "name": "4fbc858e7801a2962f37c213e68051cc", "is_reserved": 0}, {"lon": -77.00247716666667, "rental_uris": {"ios": "https://dc.lft.to/lastmile_qr_scan", "android": "https://dc.lft.to/lastmile_qr_scan"}, "bike_id": "3b2cacc169df5c524ac6d8c53fc1ff76", "fusion_lon": 0.0, "type": "electric_bike", "fusion_lat": 0.0, "lat": 38.998491, "is_disabled": 0, "name": "3b2cacc169df5c524ac6d8c53fc1ff76", "is_reserved": 0}, {"lon": -76.99254433333333, "rental_uris": {"ios": "https://dc.lft.to/lastmile_qr_scan", "android": "https://dc.lft.to/lastmile_qr_scan"}, "bike_id": "6c34be937325f4fa3c5e8a54b6899a22", "fusion_lon": 0.0, "type": "electric_scooter", "fusion_lat": 0.0, "lat": 38.919733, "is_disabled": 0, "name": "6c34be937325f4fa3c5e8a54b6899a22", "is_reserved": 0}, {"lon": -77.02216416666667, "rental_uris": {"ios": "https://dc.lft.to/lastmile_qr_scan", "android": "https://dc.lft.to/lastmile_qr_scan"}, "bike_id": "60cd91f8f0eea4fbec89fa61b1b83ca2", "fusion_lon": 0.0, "type": "electric_scooter", "fusion_lat": 0.0, "lat": 38.92472383333333, "is_disabled": 0, "name": "60cd91f8f0eea4fbec89fa61b1b83ca2", "is_reserved": 0}, {"lon": -77.06720783333333, "rental_uris": {"ios": "https://dc.lft.to/lastmile_qr_scan", "android": "https://dc.lft.to/lastmile_qr_scan"}, "bike_id": "cde06f4159b5f8c8dc6b1f9df563bfb1", "fusion_lon": 0.0, "type": "electric_scooter", "fusion_lat": 0.0, "lat": 38.90507266666667, "is_disabled": 0, "name": "cde06f4159b5f8c8dc6b1f9df563bfb1", "is_reserved": 0}, {"lon": -76.98496466666667, "rental_uris": {"ios": "https://dc.lft.to/lastmile_qr_scan", "android": "https://dc.lft.to/lastmile_qr_scan"}, "bike_id": "6cafd3ea654d2a7c74509bdacbed4aa9", "fusion_lon": 0.0, "type": "electric_scooter", "fusion_lat": 0.0, "lat": 38.920066, "is_disabled": 0, "name": "6cafd3ea654d2a7c74509bdacbed4aa9", "is_reserved": 0}, {"lon": -76.99736116666666, "rental_uris": {"ios": "https://dc.lft.to/lastmile_qr_scan", "android": "https://dc.lft.to/lastmile_qr_scan"}, "bike_id": "3c9f886e325b904c452c3c6796dd517a", "fusion_lon": 0.0, "type": "electric_bike", "fusion_lat": 0.0, "lat": 39.042354833333334, "is_disabled": 0, "name": "3c9f886e325b904c452c3c6796dd517a", "is_reserved": 0}, {"lon": -76.9803355, "rental_uris": {"ios": "https://dc.lft.to/lastmile_qr_scan", "android": "https://dc.lft.to/lastmile_qr_scan"}, "bike_id": "2220b3e2f7df2de71095001a35c085be", "fusion_lon": 0.0, "type": "electric_scooter", "fusion_lat": 0.0, "lat": 38.870484833333336, "is_disabled": 0, "name": "2220b3e2f7df2de71095001a35c085be", "is_reserved": 0}, {"lon": -77.02727816666666, "rental_uris": {"ios": "https://dc.lft.to/lastmile_qr_scan", "android": "https://dc.lft.to/lastmile_qr_scan"}, "bike_id": "44336bd02e438eb6461b954fa7769f4e", "fusion_lon": 0.0, "type": "electric_scooter", "fusion_lat": 0.0, "lat": 38.93470033333333, "is_disabled": 0, "name": "44336bd02e438eb6461b954fa7769f4e", "is_reserved": 0}, {"lon": -77.01210016666667, "rental_uris": {"ios": "https://dc.lft.to/lastmile_qr_scan", "android": "https://dc.lft.to/lastmile_qr_scan"}, "bike_id": "b03ccb5d61e64428e296ca13b4df06d8", "fusion_lon": 0.0, "type": "electric_scooter", "fusion_lat": 0.0, "lat": 38.91180666666666, "is_disabled": 0, "name": "b03ccb5d61e64428e296ca13b4df06d8", "is_reserved": 0}, {"lon": -77.02641183333333, "rental_uris": {"ios": "https://dc.lft.to/lastmile_qr_scan", "android": "https://dc.lft.to/lastmile_qr_scan"}, "bike_id": "4e307e074b9b21f052f5241160dfb9d2", "fusion_lon": 0.0, "type": "electric_scooter", "fusion_lat": 0.0, "lat": 38.89595033333333, "is_disabled": 0, "name": "4e307e074b9b21f052f5241160dfb9d2", "is_reserved": 0}, {"lon": -77.04808466666667, "rental_uris": {"ios": "https://dc.lft.to/lastmile_qr_scan", "android": "https://dc.lft.to/lastmile_qr_scan"}, "bike_id": "60be5ca16952fa69179e59710e40270f", "fusion_lon": 0.0, "type": "electric_scooter", "fusion_lat": 0.0, "lat": 38.916427666666664, "is_disabled": 0, "name": "60be5ca16952fa69179e59710e40270f", "is_reserved": 0}, {"lon": -77.0467605, "rental_uris": {"ios": "https://dc.lft.to/lastmile_qr_scan", "android": "https://dc.lft.to/lastmile_qr_scan"}, "bike_id": "72758b484bc6853540242c2495c4f8dd", "fusion_lon": 0.0, "type": "electric_scooter", "fusion_lat": 0.0, "lat": 38.89735483333333, "is_disabled": 0, "name": "72758b484bc6853540242c2495c4f8dd", "is_reserved": 0}, {"lon": -76.98178233333333, "rental_uris": {"ios": "https://dc.lft.to/lastmile_qr_scan", "android": "https://dc.lft.to/lastmile_qr_scan"}, "bike_id": "a30c5a2ac86f6ab54967170501a3a7c1", "fusion_lon": 0.0, "type": "electric_scooter", "fusion_lat": 0.0, "lat": 38.88974783333333, "is_disabled": 0, "name": "a30c5a2ac86f6ab54967170501a3a7c1", "is_reserved": 0}, {"lon": -77.0291445, "rental_uris": {"ios": "https://dc.lft.to/lastmile_qr_scan", "android": "https://dc.lft.to/lastmile_qr_scan"}, "bike_id": "bdb6117d492b854b11394249cc30cc0f", "fusion_lon": 0.0, "type": "electric_scooter", "fusion_lat": 0.0, "lat": 38.9345665, "is_disabled": 0, "name": "bdb6117d492b854b11394249cc30cc0f", "is_reserved": 0}, {"lon": -76.986808, "rental_uris": {"ios": "https://dc.lft.to/lastmile_qr_scan", "android": "https://dc.lft.to/lastmile_qr_scan"}, "bike_id": "4670708702a9fd750c53621cb3f92141", "fusion_lon": 0.0, "type": "electric_scooter", "fusion_lat": 0.0, "lat": 38.89885016666667, "is_disabled": 0, "name": "4670708702a9fd750c53621cb3f92141", "is_reserved": 0}, {"lon": -77.041525, "rental_uris": {"ios": "https://dc.lft.to/lastmile_qr_scan", "android": "https://dc.lft.to/lastmile_qr_scan"}, "bike_id": "9e73593d3667fd5d7dc916b703116b0b", "fusion_lon": 0.0, "type": "electric_scooter", "fusion_lat": 0.0, "lat": 38.90758266666667, "is_disabled": 0, "name": "9e73593d3667fd5d7dc916b703116b0b", "is_reserved": 0}, {"lon": -76.99338716666666, "rental_uris": {"ios": "https://dc.lft.to/lastmile_qr_scan", "android": "https://dc.lft.to/lastmile_qr_scan"}, "bike_id": "de7a59fcca56bd9a8a341343a0f4bced", "fusion_lon": 0.0, "type": "electric_scooter", "fusion_lat": 0.0, "lat": 38.91629283333333, "is_disabled": 0, "name": "de7a59fcca56bd9a8a341343a0f4bced", "is_reserved": 0}, {"lon": -77.035379, "rental_uris": {"ios": "https://dc.lft.to/lastmile_qr_scan", "android": "https://dc.lft.to/lastmile_qr_scan"}, "bike_id": "a56f935dbaa23bd7c91f8606573e08d5", "fusion_lon": 0.0, "type": "electric_scooter", "fusion_lat": 0.0, "lat": 38.907812166666666, "is_disabled": 0, "name": "a56f935dbaa23bd7c91f8606573e08d5", "is_reserved": 0}, {"lon": -76.92799966666666, "rental_uris": {"ios": "https://dc.lft.to/lastmile_qr_scan", "android": "https://dc.lft.to/lastmile_qr_scan"}, "bike_id": "23eb983fb94d6f6db05a6a782ee56997", "fusion_lon": 0.0, "type": "electric_scooter", "fusion_lat": 0.0, "lat": 38.896420166666665, "is_disabled": 0, "name": "23eb983fb94d6f6db05a6a782ee56997", "is_reserved": 0}, {"lon": -77.05995566666667, "rental_uris": {"ios": "https://dc.lft.to/lastmile_qr_scan", "android": "https://dc.lft.to/lastmile_qr_scan"}, "bike_id": "b752b840253a274fa1f6378eef2a06ac", "fusion_lon": 0.0, "type": "electric_bike", "fusion_lat": 0.0, "lat": 38.92714016666667, "is_disabled": 0, "name": "b752b840253a274fa1f6378eef2a06ac", "is_reserved": 0}, {"lon": -77.05028016666667, "rental_uris": {"ios": "https://dc.lft.to/lastmile_qr_scan", "android": "https://dc.lft.to/lastmile_qr_scan"}, "bike_id": "9cea90820467f741f7c80280754f979c", "fusion_lon": 0.0, "type": "electric_scooter", "fusion_lat": 0.0, "lat": 38.92366766666667, "is_disabled": 0, "name": "9cea90820467f741f7c80280754f979c", "is_reserved": 0}, {"lon": -77.03227533333333, "rental_uris": {"ios": "https://dc.lft.to/lastmile_qr_scan", "android": "https://dc.lft.to/lastmile_qr_scan"}, "bike_id": "de74b5c09fea7bcab9a67585540455a2", "fusion_lon": 0.0, "type": "electric_scooter", "fusion_lat": 0.0, "lat": 38.916423333333334, "is_disabled": 0, "name": "de74b5c09fea7bcab9a67585540455a2", "is_reserved": 0}, {"lon": -77.037411, "rental_uris": {"ios": "https://dc.lft.to/lastmile_qr_scan", "android": "https://dc.lft.to/lastmile_qr_scan"}, "bike_id": "61432fda4587d504a5081f4a5aeefd8a", "fusion_lon": 0.0, "type": "electric_scooter", "fusion_lat": 0.0, "lat": 38.90254, "is_disabled": 0, "name": "61432fda4587d504a5081f4a5aeefd8a", "is_reserved": 0}, {"lon": -77.0669275, "rental_uris": {"ios": "https://dc.lft.to/lastmile_qr_scan", "android": "https://dc.lft.to/lastmile_qr_scan"}, "bike_id": "960e397328cb313444bf0d2a88e42157", "fusion_lon": 0.0, "type": "electric_scooter", "fusion_lat": 0.0, "lat": 38.94940366666667, "is_disabled": 0, "name": "960e397328cb313444bf0d2a88e42157", "is_reserved": 0}, {"lon": -76.99389483333333, "rental_uris": {"ios": "https://dc.lft.to/lastmile_qr_scan", "android": "https://dc.lft.to/lastmile_qr_scan"}, "bike_id": "179846296f7dcc9ab498e2c152c356f7", "fusion_lon": 0.0, "type": "electric_scooter", "fusion_lat": 0.0, "lat": 38.9239475, "is_disabled": 0, "name": "179846296f7dcc9ab498e2c152c356f7", "is_reserved": 0}, {"lon": -77.0057645, "rental_uris": {"ios": "https://dc.lft.to/lastmile_qr_scan", "android": "https://dc.lft.to/lastmile_qr_scan"}, "bike_id": "d1631b6c853a7c2c016f4420d655cabe", "fusion_lon": 0.0, "type": "electric_scooter", "fusion_lat": 0.0, "lat": 38.9070815, "is_disabled": 0, "name": "d1631b6c853a7c2c016f4420d655cabe", "is_reserved": 0}, {"lon": -76.9983905, "rental_uris": {"ios": "https://dc.lft.to/lastmile_qr_scan", "android": "https://dc.lft.to/lastmile_qr_scan"}, "bike_id": "5b7dc20932c6aeaaeb818e65598f1235", "fusion_lon": 0.0, "type": "electric_scooter", "fusion_lat": 0.0, "lat": 38.892100666666664, "is_disabled": 0, "name": "5b7dc20932c6aeaaeb818e65598f1235", "is_reserved": 0}, {"lon": -77.02225466666667, "rental_uris": {"ios": "https://dc.lft.to/lastmile_qr_scan", "android": "https://dc.lft.to/lastmile_qr_scan"}, "bike_id": "bd4d3dd7c71fa728a91c9c48378f4667", "fusion_lon": 0.0, "type": "electric_scooter", "fusion_lat": 0.0, "lat": 38.911047333333336, "is_disabled": 0, "name": "bd4d3dd7c71fa728a91c9c48378f4667", "is_reserved": 0}, {"lon": -77.002109, "rental_uris": {"ios": "https://dc.lft.to/lastmile_qr_scan", "android": "https://dc.lft.to/lastmile_qr_scan"}, "bike_id": "88c7cb1c51b3281ab604a85c1de5d8bb", "fusion_lon": 0.0, "type": "electric_scooter", "fusion_lat": 0.0, "lat": 38.905044, "is_disabled": 0, "name": "88c7cb1c51b3281ab604a85c1de5d8bb", "is_reserved": 0}, {"lon": -77.04984066666667, "rental_uris": {"ios": "https://dc.lft.to/lastmile_qr_scan", "android": "https://dc.lft.to/lastmile_qr_scan"}, "bike_id": "ad4b2c027dadbdb8a1d0c701bdd37745", "fusion_lon": 0.0, "type": "electric_scooter", "fusion_lat": 0.0, "lat": 38.907977833333334, "is_disabled": 0, "name": "ad4b2c027dadbdb8a1d0c701bdd37745", "is_reserved": 0}, {"lon": -77.041784, "rental_uris": {"ios": "https://dc.lft.to/lastmile_qr_scan", "android": "https://dc.lft.to/lastmile_qr_scan"}, "bike_id": "8c62a6ebdde249af271a88af83819eb6", "fusion_lon": 0.0, "type": "electric_scooter", "fusion_lat": 0.0, "lat": 38.919898, "is_disabled": 0, "name": "8c62a6ebdde249af271a88af83819eb6", "is_reserved": 0}, {"lon": -77.04164983333334, "rental_uris": {"ios": "https://dc.lft.to/lastmile_qr_scan", "android": "https://dc.lft.to/lastmile_qr_scan"}, "bike_id": "d769e00c3ca212670f588741338e03db", "fusion_lon": 0.0, "type": "electric_scooter", "fusion_lat": 0.0, "lat": 38.9051385, "is_disabled": 0, "name": "d769e00c3ca212670f588741338e03db", "is_reserved": 0}, {"lon": -77.05600066666666, "rental_uris": {"ios": "https://dc.lft.to/lastmile_qr_scan", "android": "https://dc.lft.to/lastmile_qr_scan"}, "bike_id": "32bc020ddec878d8d643e7e839d84cc8", "fusion_lon": 0.0, "type": "electric_scooter", "fusion_lat": 0.0, "lat": 38.937013666666665, "is_disabled": 0, "name": "32bc020ddec878d8d643e7e839d84cc8", "is_reserved": 0}, {"lon": -77.027344, "rental_uris": {"ios": "https://dc.lft.to/lastmile_qr_scan", "android": "https://dc.lft.to/lastmile_qr_scan"}, "bike_id": "a9e783e1df919dff2b836fb87d16613f", "fusion_lon": 0.0, "type": "electric_scooter", "fusion_lat": 0.0, "lat": 38.89865733333333, "is_disabled": 0, "name": "a9e783e1df919dff2b836fb87d16613f", "is_reserved": 0}, {"lon": -77.07303166666667, "rental_uris": {"ios": "https://dc.lft.to/lastmile_qr_scan", "android": "https://dc.lft.to/lastmile_qr_scan"}, "bike_id": "542f7ed567b7b47fe912e3022c6c28ee", "fusion_lon": 0.0, "type": "electric_scooter", "fusion_lat": 0.0, "lat": 38.92356383333333, "is_disabled": 0, "name": "542f7ed567b7b47fe912e3022c6c28ee", "is_reserved": 0}, {"lon": -77.04528366666666, "rental_uris": {"ios": "https://dc.lft.to/lastmile_qr_scan", "android": "https://dc.lft.to/lastmile_qr_scan"}, "bike_id": "09100c317cba8d96caf72246a6d32233", "fusion_lon": 0.0, "type": "electric_scooter", "fusion_lat": 0.0, "lat": 38.8995775, "is_disabled": 0, "name": "09100c317cba8d96caf72246a6d32233", "is_reserved": 0}, {"lon": -77.03165833333334, "rental_uris": {"ios": "https://dc.lft.to/lastmile_qr_scan", "android": "https://dc.lft.to/lastmile_qr_scan"}, "bike_id": "0d48b2a5f15f4ebe59959fb98b32076b", "fusion_lon": 0.0, "type": "electric_scooter", "fusion_lat": 0.0, "lat": 38.8970635, "is_disabled": 0, "name": "0d48b2a5f15f4ebe59959fb98b32076b", "is_reserved": 0}, {"lon": -77.02889583333334, "rental_uris": {"ios": "https://dc.lft.to/lastmile_qr_scan", "android": "https://dc.lft.to/lastmile_qr_scan"}, "bike_id": "f2fbc94c1cc182b0c43f23decf4178b4", "fusion_lon": 0.0, "type": "electric_scooter", "fusion_lat": 0.0, "lat": 38.93982066666667, "is_disabled": 0, "name": "f2fbc94c1cc182b0c43f23decf4178b4", "is_reserved": 0}, {"lon": -77.02308766666667, "rental_uris": {"ios": "https://dc.lft.to/lastmile_qr_scan", "android": "https://dc.lft.to/lastmile_qr_scan"}, "bike_id": "517998fb6517231ea66160657d2fec0b", "fusion_lon": 0.0, "type": "electric_scooter", "fusion_lat": 0.0, "lat": 38.90283566666667, "is_disabled": 0, "name": "517998fb6517231ea66160657d2fec0b", "is_reserved": 0}, {"lon": -77.0414265, "rental_uris": {"ios": "https://dc.lft.to/lastmile_qr_scan", "android": "https://dc.lft.to/lastmile_qr_scan"}, "bike_id": "71d5e904889b19dd5532fbf260f7f0ee", "fusion_lon": 0.0, "type": "electric_scooter", "fusion_lat": 0.0, "lat": 38.923008333333335, "is_disabled": 0, "name": "71d5e904889b19dd5532fbf260f7f0ee", "is_reserved": 0}, {"lon": -77.05155416666666, "rental_uris": {"ios": "https://dc.lft.to/lastmile_qr_scan", "android": "https://dc.lft.to/lastmile_qr_scan"}, "bike_id": "796d31e7017d9ce2f4359bc771e27dc8", "fusion_lon": 0.0, "type": "electric_scooter", "fusion_lat": 0.0, "lat": 38.921367333333336, "is_disabled": 0, "name": "796d31e7017d9ce2f4359bc771e27dc8", "is_reserved": 0}, {"lon": -76.9327885, "rental_uris": {"ios": "https://dc.lft.to/lastmile_qr_scan", "android": "https://dc.lft.to/lastmile_qr_scan"}, "bike_id": "ca320375871cb9a9b181d2b41a5c0d35", "fusion_lon": 0.0, "type": "electric_scooter", "fusion_lat": 0.0, "lat": 38.9045995, "is_disabled": 0, "name": "ca320375871cb9a9b181d2b41a5c0d35", "is_reserved": 0}, {"lon": -77.00562833333333, "rental_uris": {"ios": "https://dc.lft.to/lastmile_qr_scan", "android": "https://dc.lft.to/lastmile_qr_scan"}, "bike_id": "2468b4e9291a9a6cade3d5ce3f9f025f", "fusion_lon": 0.0, "type": "electric_scooter", "fusion_lat": 0.0, "lat": 38.88504416666667, "is_disabled": 0, "name": "2468b4e9291a9a6cade3d5ce3f9f025f", "is_reserved": 0}, {"lon": -77.00190116666667, "rental_uris": {"ios": "https://dc.lft.to/lastmile_qr_scan", "android": "https://dc.lft.to/lastmile_qr_scan"}, "bike_id": "fe59bf1de9b216b85334f8fa06e557bb", "fusion_lon": 0.0, "type": "electric_scooter", "fusion_lat": 0.0, "lat": 38.88771233333333, "is_disabled": 0, "name": "fe59bf1de9b216b85334f8fa06e557bb", "is_reserved": 0}, {"lon": -77.02801166666667, "rental_uris": {"ios": "https://dc.lft.to/lastmile_qr_scan", "android": "https://dc.lft.to/lastmile_qr_scan"}, "bike_id": "9ae099b7949ef9c3452f6562b6e53076", "fusion_lon": 0.0, "type": "electric_scooter", "fusion_lat": 0.0, "lat": 38.903604333333334, "is_disabled": 0, "name": "9ae099b7949ef9c3452f6562b6e53076", "is_reserved": 0}, {"lon": -77.0297515, "rental_uris": {"ios": "https://dc.lft.to/lastmile_qr_scan", "android": "https://dc.lft.to/lastmile_qr_scan"}, "bike_id": "0818ea7371427611ffd3d047c1c1f671", "fusion_lon": 0.0, "type": "electric_scooter", "fusion_lat": 0.0, "lat": 38.93447883333333, "is_disabled": 0, "name": "0818ea7371427611ffd3d047c1c1f671", "is_reserved": 0}, {"lon": -77.02602183333333, "rental_uris": {"ios": "https://dc.lft.to/lastmile_qr_scan", "android": "https://dc.lft.to/lastmile_qr_scan"}, "bike_id": "c5151fd7ca4f81cb4a2e557e2a758050", "fusion_lon": 0.0, "type": "electric_scooter", "fusion_lat": 0.0, "lat": 38.9206425, "is_disabled": 0, "name": "c5151fd7ca4f81cb4a2e557e2a758050", "is_reserved": 0}, {"lon": -77.03960883333333, "rental_uris": {"ios": "https://dc.lft.to/lastmile_qr_scan", "android": "https://dc.lft.to/lastmile_qr_scan"}, "bike_id": "da5ec91e91539991566d0b9cc755e4f6", "fusion_lon": 0.0, "type": "electric_scooter", "fusion_lat": 0.0, "lat": 38.902659166666666, "is_disabled": 0, "name": "da5ec91e91539991566d0b9cc755e4f6", "is_reserved": 0}, {"lon": -77.05143816666667, "rental_uris": {"ios": "https://dc.lft.to/lastmile_qr_scan", "android": "https://dc.lft.to/lastmile_qr_scan"}, "bike_id": "722ce7d59e4c6bce68a3650d9c091f95", "fusion_lon": 0.0, "type": "electric_scooter", "fusion_lat": 0.0, "lat": 38.905068, "is_disabled": 0, "name": "722ce7d59e4c6bce68a3650d9c091f95", "is_reserved": 0}, {"lon": -77.031784, "rental_uris": {"ios": "https://dc.lft.to/lastmile_qr_scan", "android": "https://dc.lft.to/lastmile_qr_scan"}, "bike_id": "45eb94c6126054655cf9994b04abf613", "fusion_lon": 0.0, "type": "electric_scooter", "fusion_lat": 0.0, "lat": 38.9203455, "is_disabled": 0, "name": "45eb94c6126054655cf9994b04abf613", "is_reserved": 0}, {"lon": -77.0197315, "rental_uris": {"ios": "https://dc.lft.to/lastmile_qr_scan", "android": "https://dc.lft.to/lastmile_qr_scan"}, "bike_id": "566d746d9a0bf95ffbc1933f1d7cd5fc", "fusion_lon": 0.0, "type": "electric_scooter", "fusion_lat": 0.0, "lat": 38.895247499999996, "is_disabled": 0, "name": "566d746d9a0bf95ffbc1933f1d7cd5fc", "is_reserved": 0}, {"lon": -77.02417483333333, "rental_uris": {"ios": "https://dc.lft.to/lastmile_qr_scan", "android": "https://dc.lft.to/lastmile_qr_scan"}, "bike_id": "97a15b9d0e87fb8b4afdd862b5db5397", "fusion_lon": 0.0, "type": "electric_scooter", "fusion_lat": 0.0, "lat": 38.89222183333333, "is_disabled": 0, "name": "97a15b9d0e87fb8b4afdd862b5db5397", "is_reserved": 0}, {"lon": -77.02790533333334, "rental_uris": {"ios": "https://dc.lft.to/lastmile_qr_scan", "android": "https://dc.lft.to/lastmile_qr_scan"}, "bike_id": "93b42fef6dc2cad06dd96523b9561d1b", "fusion_lon": 0.0, "type": "electric_scooter", "fusion_lat": 0.0, "lat": 38.90720916666667, "is_disabled": 0, "name": "93b42fef6dc2cad06dd96523b9561d1b", "is_reserved": 0}, {"lon": -77.03436283333333, "rental_uris": {"ios": "https://dc.lft.to/lastmile_qr_scan", "android": "https://dc.lft.to/lastmile_qr_scan"}, "bike_id": "c78e5850d2d9f8d7fa8aa105e8f2dec2", "fusion_lon": 0.0, "type": "electric_scooter", "fusion_lat": 0.0, "lat": 38.91810266666667, "is_disabled": 0, "name": "c78e5850d2d9f8d7fa8aa105e8f2dec2", "is_reserved": 0}, {"lon": -77.12894483333334, "rental_uris": {"ios": "https://dc.lft.to/lastmile_qr_scan", "android": "https://dc.lft.to/lastmile_qr_scan"}, "bike_id": "adf6910c42f8a7f017b6262b6a730d4a", "fusion_lon": 0.0, "type": "electric_bike", "fusion_lat": 0.0, "lat": 38.90602766666667, "is_disabled": 0, "name": "adf6910c42f8a7f017b6262b6a730d4a", "is_reserved": 0}, {"lon": -76.968528, "rental_uris": {"ios": "https://dc.lft.to/lastmile_qr_scan", "android": "https://dc.lft.to/lastmile_qr_scan"}, "bike_id": "ecc92a6c58083e46ea4fb7bbd4b6d5c4", "fusion_lon": 0.0, "type": "electric_scooter", "fusion_lat": 0.0, "lat": 38.84686833333333, "is_disabled": 0, "name": "ecc92a6c58083e46ea4fb7bbd4b6d5c4", "is_reserved": 0}, {"lon": -77.06461816666666, "rental_uris": {"ios": "https://dc.lft.to/lastmile_qr_scan", "android": "https://dc.lft.to/lastmile_qr_scan"}, "bike_id": "44da376cc58b3f48e3a8d269227aed0d", "fusion_lon": 0.0, "type": "electric_scooter", "fusion_lat": 0.0, "lat": 38.92748183333333, "is_disabled": 0, "name": "44da376cc58b3f48e3a8d269227aed0d", "is_reserved": 0}, {"lon": -77.03385183333333, "rental_uris": {"ios": "https://dc.lft.to/lastmile_qr_scan", "android": "https://dc.lft.to/lastmile_qr_scan"}, "bike_id": "e7c7d48607c9886db115f942642dd3e9", "fusion_lon": 0.0, "type": "electric_scooter", "fusion_lat": 0.0, "lat": 38.909056, "is_disabled": 0, "name": "e7c7d48607c9886db115f942642dd3e9", "is_reserved": 0}, {"lon": -77.01797866666666, "rental_uris": {"ios": "https://dc.lft.to/lastmile_qr_scan", "android": "https://dc.lft.to/lastmile_qr_scan"}, "bike_id": "f8118dea55e94d30e20b1bec918f95df", "fusion_lon": 0.0, "type": "electric_scooter", "fusion_lat": 0.0, "lat": 38.921286333333335, "is_disabled": 0, "name": "f8118dea55e94d30e20b1bec918f95df", "is_reserved": 0}, {"lon": -77.02007283333333, "rental_uris": {"ios": "https://dc.lft.to/lastmile_qr_scan", "android": "https://dc.lft.to/lastmile_qr_scan"}, "bike_id": "5c54c7e296f40e29eeff35b76a614fcc", "fusion_lon": 0.0, "type": "electric_scooter", "fusion_lat": 0.0, "lat": 38.9241525, "is_disabled": 0, "name": "5c54c7e296f40e29eeff35b76a614fcc", "is_reserved": 0}, {"lon": -77.050307, "rental_uris": {"ios": "https://dc.lft.to/lastmile_qr_scan", "android": "https://dc.lft.to/lastmile_qr_scan"}, "bike_id": "ca263f0f39dda33e588f907812fb96a2", "fusion_lon": 0.0, "type": "electric_scooter", "fusion_lat": 0.0, "lat": 38.8928115, "is_disabled": 0, "name": "ca263f0f39dda33e588f907812fb96a2", "is_reserved": 0}, {"lon": -77.0403645, "rental_uris": {"ios": "https://dc.lft.to/lastmile_qr_scan", "android": "https://dc.lft.to/lastmile_qr_scan"}, "bike_id": "478ee2a914b08902cc0661988e99b554", "fusion_lon": 0.0, "type": "electric_scooter", "fusion_lat": 0.0, "lat": 38.900018333333335, "is_disabled": 0, "name": "478ee2a914b08902cc0661988e99b554", "is_reserved": 0}, {"lon": -77.01137316666667, "rental_uris": {"ios": "https://dc.lft.to/lastmile_qr_scan", "android": "https://dc.lft.to/lastmile_qr_scan"}, "bike_id": "56f0572a9a26a8d0f67dd32dafcbc9d0", "fusion_lon": 0.0, "type": "electric_scooter", "fusion_lat": 0.0, "lat": 38.90962066666667, "is_disabled": 0, "name": "56f0572a9a26a8d0f67dd32dafcbc9d0", "is_reserved": 0}, {"lon": -77.0728875, "rental_uris": {"ios": "https://dc.lft.to/lastmile_qr_scan", "android": "https://dc.lft.to/lastmile_qr_scan"}, "bike_id": "1830994fe2b2f96ac79303844898728e", "fusion_lon": 0.0, "type": "electric_scooter", "fusion_lat": 0.0, "lat": 38.935235, "is_disabled": 0, "name": "1830994fe2b2f96ac79303844898728e", "is_reserved": 0}, {"lon": -77.04663683333334, "rental_uris": {"ios": "https://dc.lft.to/lastmile_qr_scan", "android": "https://dc.lft.to/lastmile_qr_scan"}, "bike_id": "ea2909c6c9f66debd9abe18a25d324eb", "fusion_lon": 0.0, "type": "electric_scooter", "fusion_lat": 0.0, "lat": 38.91787516666667, "is_disabled": 0, "name": "ea2909c6c9f66debd9abe18a25d324eb", "is_reserved": 0}, {"lon": -77.0282125, "rental_uris": {"ios": "https://dc.lft.to/lastmile_qr_scan", "android": "https://dc.lft.to/lastmile_qr_scan"}, "bike_id": "fb10213ffb4332a1cd91f9bbeadce2e7", "fusion_lon": 0.0, "type": "electric_scooter", "fusion_lat": 0.0, "lat": 38.91786483333333, "is_disabled": 0, "name": "fb10213ffb4332a1cd91f9bbeadce2e7", "is_reserved": 0}, {"lon": -77.0229795, "rental_uris": {"ios": "https://dc.lft.to/lastmile_qr_scan", "android": "https://dc.lft.to/lastmile_qr_scan"}, "bike_id": "d2e556ebe54024929afe038ad35179d0", "fusion_lon": 0.0, "type": "electric_scooter", "fusion_lat": 0.0, "lat": 38.916331666666665, "is_disabled": 0, "name": "d2e556ebe54024929afe038ad35179d0", "is_reserved": 0}, {"lon": -77.04793866666667, "rental_uris": {"ios": "https://dc.lft.to/lastmile_qr_scan", "android": "https://dc.lft.to/lastmile_qr_scan"}, "bike_id": "6537b62a8df2a10e9181b950193b615a", "fusion_lon": 0.0, "type": "electric_scooter", "fusion_lat": 0.0, "lat": 38.88679783333333, "is_disabled": 0, "name": "6537b62a8df2a10e9181b950193b615a", "is_reserved": 0}, {"lon": -77.01493266666667, "rental_uris": {"ios": "https://dc.lft.to/lastmile_qr_scan", "android": "https://dc.lft.to/lastmile_qr_scan"}, "bike_id": "7432ee7e5d48086bb02024528ce677a0", "fusion_lon": 0.0, "type": "electric_scooter", "fusion_lat": 0.0, "lat": 38.92684366666667, "is_disabled": 0, "name": "7432ee7e5d48086bb02024528ce677a0", "is_reserved": 0}, {"lon": -77.016175, "rental_uris": {"ios": "https://dc.lft.to/lastmile_qr_scan", "android": "https://dc.lft.to/lastmile_qr_scan"}, "bike_id": "1fc218684bcd36341b62109475d6c4e6", "fusion_lon": 0.0, "type": "electric_scooter", "fusion_lat": 0.0, "lat": 38.8996545, "is_disabled": 0, "name": "1fc218684bcd36341b62109475d6c4e6", "is_reserved": 0}, {"lon": -77.02332133333333, "rental_uris": {"ios": "https://dc.lft.to/lastmile_qr_scan", "android": "https://dc.lft.to/lastmile_qr_scan"}, "bike_id": "a88e44af1d50c50f07ea698d1d02a678", "fusion_lon": 0.0, "type": "electric_scooter", "fusion_lat": 0.0, "lat": 38.930231, "is_disabled": 0, "name": "a88e44af1d50c50f07ea698d1d02a678", "is_reserved": 0}, {"lon": -77.008187, "rental_uris": {"ios": "https://dc.lft.to/lastmile_qr_scan", "android": "https://dc.lft.to/lastmile_qr_scan"},