{"data": {"bikes": [{"is_reserved": 0, "type": "electric_scooter", "fusion_lat": 0.0, "is_disabled": 0, "rental_uris": {"ios": "https://dc.lft.to/lastmile_qr_scan", "android": "https://dc.lft.to/lastmile_qr_scan"}, "bike_id": "5c25781c18f3f4ac4cb59564cd9cb929", "lat": 38.95630883333333, "name": "5c25781c18f3f4ac4cb59564cd9cb929", "lon": -77.02213216666667, "fusion_lon": 0.0}, {"is_reserved": 0, "type": "electric_scooter", "fusion_lat": 0.0, "is_disabled": 0, "rental_uris": {"ios": "https://dc.lft.to/lastmile_qr_scan", "android": "https://dc.lft.to/lastmile_qr_scan"}, "bike_id": "4e4ad7dca2c629e49b5cb5a98d827c47", "lat": 38.899007166666664, "name": "4e4ad7dca2c629e49b5cb5a98d827c47", "lon": -77.05001583333333, "fusion_lon": 0.0}, {"is_reserved": 0, "type": "electric_scooter", "fusion_lat": 0.0, "is_disabled": 0, "rental_uris": {"ios": "https://dc.lft.to/lastmile_qr_scan", "android": "https://dc.lft.to/lastmile_qr_scan"}, "bike_id": "06cb7fa13bdc2229b9ad1eeba39bba40", "lat": 38.922606, "name": "06cb7fa13bdc2229b9ad1eeba39bba40", "lon": -77.0366885, "fusion_lon": 0.0}, {"is_reserved": 0, "type": "electric_scooter", "fusion_lat": 0.0, "is_disabled": 0, "rental_uris": {"ios": "https://dc.lft.to/lastmile_qr_scan", "android": "https://dc.lft.to/lastmile_qr_scan"}, "bike_id": "89f8094169097cc1f656fb07bb40cd7d", "lat": 38.920169666666666, "name": "89f8094169097cc1f656fb07bb40cd7d", "lon": -77.01704566666666, "fusion_lon": 0.0}, {"is_reserved": 0, "type": "electric_scooter", "fusion_lat": 0.0, "is_disabled": 0, "rental_uris": {"ios": "https://dc.lft.to/lastmile_qr_scan", "android": "https://dc.lft.to/lastmile_qr_scan"}, "bike_id": "fef9e3439d6f1ebff935e06630e3fab1", "lat": 38.938649, "name": "fef9e3439d6f1ebff935e06630e3fab1", "lon": -77.0723485, "fusion_lon": 0.0}, {"is_reserved": 0, "type": "electric_scooter", "fusion_lat": 0.0, "is_disabled": 0, "rental_uris": {"ios": "https://dc.lft.to/lastmile_qr_scan", "android": "https://dc.lft.to/lastmile_qr_scan"}, "bike_id": "fe5cf48add7d304c5c0bf8eb1b108890", "lat": 38.9020725, "name": "fe5cf48add7d304c5c0bf8eb1b108890", "lon": -77.06120616666666, "fusion_lon": 0.0}, {"is_reserved": 0, "type": "electric_scooter", "fusion_lat": 0.0, "is_disabled": 0, "rental_uris": {"ios": "https://dc.lft.to/lastmile_qr_scan", "android": "https://dc.lft.to/lastmile_qr_scan"}, "bike_id": "55350d46a24f9c5fa71c533f9dfa15c7", "lat": 38.917071666666665, "name": "55350d46a24f9c5fa71c533f9dfa15c7", "lon": -77.04174966666666, "fusion_lon": 0.0}, {"is_reserved": 0, "type": "electric_scooter", "fusion_lat": 0.0, "is_disabled": 0, "rental_uris": {"ios": "https://dc.lft.to/lastmile_qr_scan", "android": "https://dc.lft.to/lastmile_qr_scan"}, "bike_id": "1675f560c63546e9e899c1955818fd9e", "lat": 38.939319833333336, "name": "1675f560c63546e9e899c1955818fd9e", "lon": -77.07250083333334, "fusion_lon": 0.0}, {"is_reserved": 0, "type": "electric_scooter", "fusion_lat": 0.0, "is_disabled": 0, "rental_uris": {"ios": "https://dc.lft.to/lastmile_qr_scan", "android": "https://dc.lft.to/lastmile_qr_scan"}, "bike_id": "812659040ec9859565b40f084b755128", "lat": 38.920495, "name": "812659040ec9859565b40f084b755128", "lon": -77.0167305, "fusion_lon": 0.0}, {"is_reserved": 0, "type": "electric_scooter", "fusion_lat": 0.0, "is_disabled": 0, "rental_uris": {"ios": "https://dc.lft.to/lastmile_qr_scan", "android": "https://dc.lft.to/lastmile_qr_scan"}, "bike_id": "1abc9d3d3e5a27e569e6228a26e955cb", "lat": 38.9226995, "name": "1abc9d3d3e5a27e569e6228a26e955cb", "lon": -77.04235333333334, "fusion_lon": 0.0}, {"is_reserved": 0, "type": "electric_scooter", "fusion_lat": 0.0, "is_disabled": 0, "rental_uris": {"ios": "https://dc.lft.to/lastmile_qr_scan", "android": "https://dc.lft.to/lastmile_qr_scan"}, "bike_id": "a152fef37fcff4386ef5d3496a380ca2", "lat": 38.8972815, "name": "a152fef37fcff4386ef5d3496a380ca2", "lon": -77.049863, "fusion_lon": 0.0}, {"is_reserved": 0, "type": "electric_scooter", "fusion_lat": 0.0, "is_disabled": 0, "rental_uris": {"ios": "https://dc.lft.to/lastmile_qr_scan", "android": "https://dc.lft.to/lastmile_qr_scan"}, "bike_id": "b7b7537241bd0543eb95ed778c3725f7", "lat": 38.91694666666667, "name": "b7b7537241bd0543eb95ed778c3725f7", "lon": -77.02481016666667, "fusion_lon": 0.0}, {"is_reserved": 0, "type": "electric_scooter", "fusion_lat": 0.0, "is_disabled": 0, "rental_uris": {"ios": "https://dc.lft.to/lastmile_qr_scan", "android": "https://dc.lft.to/lastmile_qr_scan"}, "bike_id": "0d831ec0a3490f816ce7ae4ba0b6c26d", "lat": 38.901468333333334, "name": "0d831ec0a3490f816ce7ae4ba0b6c26d", "lon": -77.01504816666667, "fusion_lon": 0.0}, {"is_reserved": 0, "type": "electric_scooter", "fusion_lat": 0.0, "is_disabled": 0, "rental_uris": {"ios": "https://dc.lft.to/lastmile_qr_scan", "android": "https://dc.lft.to/lastmile_qr_scan"}, "bike_id": "79d26d250e55f89f2d0b8965b4c6557c", "lat": 38.9279935, "name": "79d26d250e55f89f2d0b8965b4c6557c", "lon": -77.0213055, "fusion_lon": 0.0}, {"is_reserved": 0, "type": "electric_scooter", "fusion_lat": 0.0, "is_disabled": 0, "rental_uris": {"ios": "https://dc.lft.to/lastmile_qr_scan", "android": "https://dc.lft.to/lastmile_qr_scan"}, "bike_id": "21efe62a2c91635590ca2db81604c6bb", "lat": 38.906116, "name": "21efe62a2c91635590ca2db81604c6bb", "lon": -77.06302616666666, "fusion_lon": 0.0}, {"is_reserved": 0, "type": "electric_scooter", "fusion_lat": 0.0, "is_disabled": 0, "rental_uris": {"ios": "https://dc.lft.to/lastmile_qr_scan", "android": "https://dc.lft.to/lastmile_qr_scan"}, "bike_id": "78c32a0b307c9be6f7cbb1a43ea5863a", "lat": 38.9165985, "name": "78c32a0b307c9be6f7cbb1a43ea5863a", "lon": -77.03854383333334, "fusion_lon": 0.0}, {"is_reserved": 0, "type": "electric_scooter", "fusion_lat": 0.0, "is_disabled": 0, "rental_uris": {"ios": "https://dc.lft.to/lastmile_qr_scan", "android": "https://dc.lft.to/lastmile_qr_scan"}, "bike_id": "dd1349a6a03b5cda4249b11445b2f075", "lat": 38.906496, "name": "dd1349a6a03b5cda4249b11445b2f075", "lon": -77.02481383333334, "fusion_lon": 0.0}, {"is_reserved": 0, "type": "electric_scooter", "fusion_lat": 0.0, "is_disabled": 0, "rental_uris": {"ios": "https://dc.lft.to/lastmile_qr_scan", "android": "https://dc.lft.to/lastmile_qr_scan"}, "bike_id": "49e69b5588dacaacea1af0f4bc78db0f", "lat": 38.920527, "name": "49e69b5588dacaacea1af0f4bc78db0f", "lon": -77.022979, "fusion_lon": 0.0}, {"is_reserved": 0, "type": "electric_scooter", "fusion_lat": 0.0, "is_disabled": 0, "rental_uris": {"ios": "https://dc.lft.to/lastmile_qr_scan", "android": "https://dc.lft.to/lastmile_qr_scan"}, "bike_id": "f32364e435fba7fa4816e54946d5de1b", "lat": 38.892258166666664, "name": "f32364e435fba7fa4816e54946d5de1b", "lon": -77.0257365, "fusion_lon": 0.0}, {"is_reserved": 0, "type": "electric_scooter", "fusion_lat": 0.0, "is_disabled": 0, "rental_uris": {"ios": "https://dc.lft.to/lastmile_qr_scan", "android": "https://dc.lft.to/lastmile_qr_scan"}, "bike_id": "ed5d1db007470914bc9a0b9bd7535026", "lat": 38.920457166666665, "name": "ed5d1db007470914bc9a0b9bd7535026", "lon": -77.02607483333334, "fusion_lon": 0.0}, {"is_reserved": 0, "type": "electric_scooter", "fusion_lat": 0.0, "is_disabled": 0, "rental_uris": {"ios": "https://dc.lft.to/lastmile_qr_scan", "android": "https://dc.lft.to/lastmile_qr_scan"}, "bike_id": "a49e72cb477cdbe3c094ed17acb6e2aa", "lat": 38.9213385, "name": "a49e72cb477cdbe3c094ed17acb6e2aa", "lon": -77.00400933333333, "fusion_lon": 0.0}, {"is_reserved": 0, "type": "electric_bike", "fusion_lat": 0.0, "is_disabled": 0, "rental_uris": {"ios": "https://dc.lft.to/lastmile_qr_scan", "android": "https://dc.lft.to/lastmile_qr_scan"}, "bike_id": "45f7e2d831d8594d9597036af48a49a5", "lat": 38.9524195, "name": "45f7e2d831d8594d9597036af48a49a5", "lon": -76.98243483333333, "fusion_lon": 0.0}, {"is_reserved": 0, "type": "electric_scooter", "fusion_lat": 0.0, "is_disabled": 0, "rental_uris": {"ios": "https://dc.lft.to/lastmile_qr_scan", "android": "https://dc.lft.to/lastmile_qr_scan"}, "bike_id": "232913e8cdfc49e9142572ebd7412771", "lat": 38.920703333333336, "name": "232913e8cdfc49e9142572ebd7412771", "lon": -77.02420133333334, "fusion_lon": 0.0}, {"is_reserved": 0, "type": "electric_scooter", "fusion_lat": 0.0, "is_disabled": 0, "rental_uris": {"ios": "https://dc.lft.to/lastmile_qr_scan", "android": "https://dc.lft.to/lastmile_qr_scan"}, "bike_id": "e0d9e0a32f27d102ae4a9ee19d683c55", "lat": 38.93971066666667, "name": "e0d9e0a32f27d102ae4a9ee19d683c55", "lon": -77.03432, "fusion_lon": 0.0}, {"is_reserved": 0, "type": "electric_scooter", "fusion_lat": 0.0, "is_disabled": 0, "rental_uris": {"ios": "https://dc.lft.to/lastmile_qr_scan", "android": "https://dc.lft.to/lastmile_qr_scan"}, "bike_id": "fa44786df60d18ae251e11de52e5d4ef", "lat": 38.92068733333333, "name": "fa44786df60d18ae251e11de52e5d4ef", "lon": -77.02508516666667, "fusion_lon": 0.0}, {"is_reserved": 0, "type": "electric_scooter", "fusion_lat": 0.0, "is_disabled": 0, "rental_uris": {"ios": "https://dc.lft.to/lastmile_qr_scan", "android": "https://dc.lft.to/lastmile_qr_scan"}, "bike_id": "5287d355dca59f64d25ea63789ac022e", "lat": 38.909735166666664, "name": "5287d355dca59f64d25ea63789ac022e", "lon": -77.02171333333334, "fusion_lon": 0.0}, {"is_reserved": 0, "type": "electric_scooter", "fusion_lat": 0.0, "is_disabled": 0, "rental_uris": {"ios": "https://dc.lft.to/lastmile_qr_scan", "android": "https://dc.lft.to/lastmile_qr_scan"}, "bike_id": "eb37d6c67d79a3460271126c053e88bd", "lat": 38.91701, "name": "eb37d6c67d79a3460271126c053e88bd", "lon": -77.09212616666667, "fusion_lon": 0.0}, {"is_reserved": 0, "type": "electric_scooter", "fusion_lat": 0.0, "is_disabled": 0, "rental_uris": {"ios": "https://dc.lft.to/lastmile_qr_scan", "android": "https://dc.lft.to/lastmile_qr_scan"}, "bike_id": "3619ff6e212620d7252f2663c08453d6", "lat": 38.92073583333333, "name": "3619ff6e212620d7252f2663c08453d6", "lon": -77.02532233333334, "fusion_lon": 0.0}, {"is_reserved": 0, "type": "electric_scooter", "fusion_lat": 0.0, "is_disabled": 0, "rental_uris": {"ios": "https://dc.lft.to/lastmile_qr_scan", "android": "https://dc.lft.to/lastmile_qr_scan"}, "bike_id": "7e263778bfd69cd94a9118fa5fc70eb6", "lat": 38.922837333333334, "name": "7e263778bfd69cd94a9118fa5fc70eb6", "lon": -77.03663566666667, "fusion_lon": 0.0}, {"is_reserved": 0, "type": "electric_scooter", "fusion_lat": 0.0, "is_disabled": 0, "rental_uris": {"ios": "https://dc.lft.to/lastmile_qr_scan", "android": "https://dc.lft.to/lastmile_qr_scan"}, "bike_id": "685f23c0a49b7c6cf888d9230b357ce2", "lat": 38.88576483333333, "name": "685f23c0a49b7c6cf888d9230b357ce2", "lon": -77.00037266666666, "fusion_lon": 0.0}, {"is_reserved": 0, "type": "electric_scooter", "fusion_lat": 0.0, "is_disabled": 0, "rental_uris": {"ios": "https://dc.lft.to/lastmile_qr_scan", "android": "https://dc.lft.to/lastmile_qr_scan"}, "bike_id": "7a7ddaa58a20620237f101fe6d841042", "lat": 38.89734, "name": "7a7ddaa58a20620237f101fe6d841042", "lon": -77.043656, "fusion_lon": 0.0}, {"is_reserved": 0, "type": "electric_scooter", "fusion_lat": 0.0, "is_disabled": 0, "rental_uris": {"ios": "https://dc.lft.to/lastmile_qr_scan", "android": "https://dc.lft.to/lastmile_qr_scan"}, "bike_id": "035a32c4b695195441c0745c5d141b7e", "lat": 38.92142416666667, "name": "035a32c4b695195441c0745c5d141b7e", "lon": -77.01810016666667, "fusion_lon": 0.0}, {"is_reserved": 0, "type": "electric_scooter", "fusion_lat": 0.0, "is_disabled": 0, "rental_uris": {"ios": "https://dc.lft.to/lastmile_qr_scan", "android": "https://dc.lft.to/lastmile_qr_scan"}, "bike_id": "9a1498bddd91f32f5b0e1363290b02ef", "lat": 38.90446083333333, "name": "9a1498bddd91f32f5b0e1363290b02ef", "lon": -76.99620350000001, "fusion_lon": 0.0}, {"is_reserved": 0, "type": "electric_scooter", "fusion_lat": 0.0, "is_disabled": 0, "rental_uris": {"ios": "https://dc.lft.to/lastmile_qr_scan", "android": "https://dc.lft.to/lastmile_qr_scan"}, "bike_id": "95e576e5665602f4b1b2322cf2516cf4", "lat": 38.90954416666667, "name": "95e576e5665602f4b1b2322cf2516cf4", "lon": -77.02280633333334, "fusion_lon": 0.0}, {"is_reserved": 0, "type": "electric_scooter", "fusion_lat": 0.0, "is_disabled": 0, "rental_uris": {"ios": "https://dc.lft.to/lastmile_qr_scan", "android": "https://dc.lft.to/lastmile_qr_scan"}, "bike_id": "24dfd572e1dfccdcb3fce59996331fe9", "lat": 38.929917333333336, "name": "24dfd572e1dfccdcb3fce59996331fe9", "lon": -77.03246066666667, "fusion_lon": 0.0}, {"is_reserved": 0, "type": "electric_scooter", "fusion_lat": 0.0, "is_disabled": 0, "rental_uris": {"ios": "https://dc.lft.to/lastmile_qr_scan", "android": "https://dc.lft.to/lastmile_qr_scan"}, "bike_id": "422808e553c535e7762a54c4ed44e72a", "lat": 38.935981166666664, "name": "422808e553c535e7762a54c4ed44e72a", "lon": -77.02418233333333, "fusion_lon": 0.0}, {"is_reserved": 0, "type": "electric_scooter", "fusion_lat": 0.0, "is_disabled": 0, "rental_uris": {"ios": "https://dc.lft.to/lastmile_qr_scan", "android": "https://dc.lft.to/lastmile_qr_scan"}, "bike_id": "dd346dad1ba2353263d264de338af735", "lat": 38.91668333333333, "name": "dd346dad1ba2353263d264de338af735", "lon": -77.022915, "fusion_lon": 0.0}, {"is_reserved": 0, "type": "electric_scooter", "fusion_lat": 0.0, "is_disabled": 0, "rental_uris": {"ios": "https://dc.lft.to/lastmile_qr_scan", "android": "https://dc.lft.to/lastmile_qr_scan"}, "bike_id": "b1bc024f4be561412652ca29039889f9", "lat": 38.8823015, "name": "b1bc024f4be561412652ca29039889f9", "lon": -76.9333065, "fusion_lon": 0.0}, {"is_reserved": 0, "type": "electric_scooter", "fusion_lat": 0.0, "is_disabled": 0, "rental_uris": {"ios": "https://dc.lft.to/lastmile_qr_scan", "android": "https://dc.lft.to/lastmile_qr_scan"}, "bike_id": "ff766a8f3889b506a98a59d898f1ea08", "lat": 38.89930483333333, "name": "ff766a8f3889b506a98a59d898f1ea08", "lon": -77.03237666666666, "fusion_lon": 0.0}, {"is_reserved": 0, "type": "electric_scooter", "fusion_lat": 0.0, "is_disabled": 0, "rental_uris": {"ios": "https://dc.lft.to/lastmile_qr_scan", "android": "https://dc.lft.to/lastmile_qr_scan"}, "bike_id": "caf8094f33e96430f63ff90d64901177", "lat": 38.893617, "name": "caf8094f33e96430f63ff90d64901177", "lon": -77.02076366666667, "fusion_lon": 0.0}, {"is_reserved": 0, "type": "electric_scooter", "fusion_lat": 0.0, "is_disabled": 0, "rental_uris": {"ios": "https://dc.lft.to/lastmile_qr_scan", "android": "https://dc.lft.to/lastmile_qr_scan"}, "bike_id": "945cc466263d75ffcda134eb1b8ed919", "lat": 38.929097666666664, "name": "945cc466263d75ffcda134eb1b8ed919", "lon": -77.0209, "fusion_lon": 0.0}, {"is_reserved": 0, "type": "electric_scooter", "fusion_lat": 0.0, "is_disabled": 0, "rental_uris": {"ios": "https://dc.lft.to/lastmile_qr_scan", "android": "https://dc.lft.to/lastmile_qr_scan"}, "bike_id": "8830f11482a85c8abc4b7c8fd15f499f", "lat": 38.875701666666664, "name": "8830f11482a85c8abc4b7c8fd15f499f", "lon": -77.00593033333334, "fusion_lon": 0.0}, {"is_reserved": 0, "type": "electric_scooter", "fusion_lat": 0.0, "is_disabled": 0, "rental_uris": {"ios": "https://dc.lft.to/lastmile_qr_scan", "android": "https://dc.lft.to/lastmile_qr_scan"}, "bike_id": "1c2a4694db16caaba0eeb70cec5a150b", "lat": 38.89326616666666, "name": "1c2a4694db16caaba0eeb70cec5a150b", "lon": -76.9393025, "fusion_lon": 0.0}, {"is_reserved": 0, "type": "electric_scooter", "fusion_lat": 0.0, "is_disabled": 0, "rental_uris": {"ios": "https://dc.lft.to/lastmile_qr_scan", "android": "https://dc.lft.to/lastmile_qr_scan"}, "bike_id": "7cf2fcd91125f281dd002fe8df95dbb4", "lat": 38.924374666666665, "name": "7cf2fcd91125f281dd002fe8df95dbb4", "lon": -77.05202, "fusion_lon": 0.0}, {"is_reserved": 0, "type": "electric_scooter", "fusion_lat": 0.0, "is_disabled": 0, "rental_uris": {"ios": "https://dc.lft.to/lastmile_qr_scan", "android": "https://dc.lft.to/lastmile_qr_scan"}, "bike_id": "8f5e164525cf1fa9678c195a3d3ac517", "lat": 38.89218016666667, "name": "8f5e164525cf1fa9678c195a3d3ac517", "lon": -77.03161866666666, "fusion_lon": 0.0}, {"is_reserved": 0, "type": "electric_scooter", "fusion_lat": 0.0, "is_disabled": 0, "rental_uris": {"ios": "https://dc.lft.to/lastmile_qr_scan", "android": "https://dc.lft.to/lastmile_qr_scan"}, "bike_id": "616a28ff68aa98d958b846e0cf76717d", "lat": 38.870710833333334, "name": "616a28ff68aa98d958b846e0cf76717d", "lon": -76.98130133333333, "fusion_lon": 0.0}, {"is_reserved": 0, "type": "electric_scooter", "fusion_lat": 0.0, "is_disabled": 0, "rental_uris": {"ios": "https://dc.lft.to/lastmile_qr_scan", "android": "https://dc.lft.to/lastmile_qr_scan"}, "bike_id": "4359a79ef3653782b2858d9bb5544294", "lat": 38.90851166666667, "name": "4359a79ef3653782b2858d9bb5544294", "lon": -77.02458966666667, "fusion_lon": 0.0}, {"is_reserved": 0, "type": "electric_scooter", "fusion_lat": 0.0, "is_disabled": 0, "rental_uris": {"ios": "https://dc.lft.to/lastmile_qr_scan", "android": "https://dc.lft.to/lastmile_qr_scan"}, "bike_id": "267fab4081b9d708fd12cdb84f501017", "lat": 38.894769, "name": "267fab4081b9d708fd12cdb84f501017", "lon": -76.948681, "fusion_lon": 0.0}, {"is_reserved": 0, "type": "electric_scooter", "fusion_lat": 0.0, "is_disabled": 0, "rental_uris": {"ios": "https://dc.lft.to/lastmile_qr_scan", "android": "https://dc.lft.to/lastmile_qr_scan"}, "bike_id": "4f29d026a155ab595d5d43e63e41bcd7", "lat": 38.91759616666667, "name": "4f29d026a155ab595d5d43e63e41bcd7", "lon": -77.0045545, "fusion_lon": 0.0}, {"is_reserved": 0, "type": "electric_scooter", "fusion_lat": 0.0, "is_disabled": 0, "rental_uris": {"ios": "https://dc.lft.to/lastmile_qr_scan", "android": "https://dc.lft.to/lastmile_qr_scan"}, "bike_id": "522f189f2eef395c64a26fb76e8c70c8", "lat": 38.891971833333336, "name": "522f189f2eef395c64a26fb76e8c70c8", "lon": -77.02366266666667, "fusion_lon": 0.0}, {"is_reserved": 0, "type": "electric_scooter", "fusion_lat": 0.0, "is_disabled": 0, "rental_uris": {"ios": "https://dc.lft.to/lastmile_qr_scan", "android": "https://dc.lft.to/lastmile_qr_scan"}, "bike_id": "45548f7de821479bedf60368798d9e5c", "lat": 38.892277666666665, "name": "45548f7de821479bedf60368798d9e5c", "lon": -77.02799033333334, "fusion_lon": 0.0}, {"is_reserved": 0, "type": "electric_scooter", "fusion_lat": 0.0, "is_disabled": 0, "rental_uris": {"ios": "https://dc.lft.to/lastmile_qr_scan", "android": "https://dc.lft.to/lastmile_qr_scan"}, "bike_id": "e5cd4dbb6e545274bb83a882b0f4a002", "lat": 38.92062416666667, "name": "e5cd4dbb6e545274bb83a882b0f4a002", "lon": -77.03464183333334, "fusion_lon": 0.0}, {"is_reserved": 0, "type": "electric_bike", "fusion_lat": 0.0, "is_disabled": 0, "rental_uris": {"ios": "https://dc.lft.to/lastmile_qr_scan", "android": "https://dc.lft.to/lastmile_qr_scan"}, "bike_id": "a4e4672bf96eee8e87c5f6b1a7f2e045", "lat": 38.875783166666665, "name": "a4e4672bf96eee8e87c5f6b1a7f2e045", "lon": -77.23410416666667, "fusion_lon": 0.0}, {"is_reserved": 0, "type": "electric_scooter", "fusion_lat": 0.0, "is_disabled": 0, "rental_uris": {"ios": "https://dc.lft.to/lastmile_qr_scan", "android": "https://dc.lft.to/lastmile_qr_scan"}, "bike_id": "f1ac2c614262a21de4bb147524205c6f", "lat": 38.91705183333333, "name": "f1ac2c614262a21de4bb147524205c6f", "lon": -77.04172183333333, "fusion_lon": 0.0}, {"is_reserved": 0, "type": "electric_scooter", "fusion_lat": 0.0, "is_disabled": 0, "rental_uris": {"ios": "https://dc.lft.to/lastmile_qr_scan", "android": "https://dc.lft.to/lastmile_qr_scan"}, "bike_id": "f4ff558b9eba98adfcb4013bebd8e35b", "lat": 38.881330166666665, "name": "f4ff558b9eba98adfcb4013bebd8e35b", "lon": -76.99610366666667, "fusion_lon": 0.0}, {"is_reserved": 0, "type": "electric_scooter", "fusion_lat": 0.0, "is_disabled": 0, "rental_uris": {"ios": "https://dc.lft.to/lastmile_qr_scan", "android": "https://dc.lft.to/lastmile_qr_scan"}, "bike_id": "61dda94de15aa70d4b1c7dc450eb1690", "lat": 38.898164666666666, "name": "61dda94de15aa70d4b1c7dc450eb1690", "lon": -76.9983305, "fusion_lon": 0.0}, {"is_reserved": 0, "type": "electric_scooter", "fusion_lat": 0.0, "is_disabled": 0, "rental_uris": {"ios": "https://dc.lft.to/lastmile_qr_scan", "android": "https://dc.lft.to/lastmile_qr_scan"}, "bike_id": "f44c1644273f4f68c806406253659ee5", "lat": 38.921309666666666, "name": "f44c1644273f4f68c806406253659ee5", "lon": -77.0180585, "fusion_lon": 0.0}, {"is_reserved": 0, "type": "electric_scooter", "fusion_lat": 0.0, "is_disabled": 0, "rental_uris": {"ios": "https://dc.lft.to/lastmile_qr_scan", "android": "https://dc.lft.to/lastmile_qr_scan"}, "bike_id": "e939f90dda10eefc327c225f08ad64f7", "lat": 38.87847466666667, "name": "e939f90dda10eefc327c225f08ad64f7", "lon": -77.008765, "fusion_lon": 0.0}, {"is_reserved": 0, "type": "electric_scooter", "fusion_lat": 0.0, "is_disabled": 0, "rental_uris": {"ios": "https://dc.lft.to/lastmile_qr_scan", "android": "https://dc.lft.to/lastmile_qr_scan"}, "bike_id": "5b91ec16a3f3992fd5b16ce0ca65d5b7", "lat": 38.9085865, "name": "5b91ec16a3f3992fd5b16ce0ca65d5b7", "lon": -76.9979755, "fusion_lon": 0.0}, {"is_reserved": 0, "type": "electric_scooter", "fusion_lat": 0.0, "is_disabled": 0, "rental_uris": {"ios": "https://dc.lft.to/lastmile_qr_scan", "android": "https://dc.lft.to/lastmile_qr_scan"}, "bike_id": "d7f2d9279107a6dd8673d7930b78d7c2", "lat": 38.92449516666667, "name": "d7f2d9279107a6dd8673d7930b78d7c2", "lon": -77.02040733333334, "fusion_lon": 0.0}, {"is_reserved": 0, "type": "electric_bike", "fusion_lat": 0.0, "is_disabled": 0, "rental_uris": {"ios": "https://dc.lft.to/lastmile_qr_scan", "android": "https://dc.lft.to/lastmile_qr_scan"}, "bike_id": "8767a27c10ff97d2f00801742d47cbce", "lat": 38.819376166666665, "name": "8767a27c10ff97d2f00801742d47cbce", "lon": -77.00205066666666, "fusion_lon": 0.0}, {"is_reserved": 0, "type": "electric_scooter", "fusion_lat": 0.0, "is_disabled": 0, "rental_uris": {"ios": "https://dc.lft.to/lastmile_qr_scan", "android": "https://dc.lft.to/lastmile_qr_scan"}, "bike_id": "8bbdb58a2ba02fa831010cda6550f0f9", "lat": 38.92051433333334, "name": "8bbdb58a2ba02fa831010cda6550f0f9", "lon": -77.00075516666666, "fusion_lon": 0.0}, {"is_reserved": 0, "type": "electric_scooter", "fusion_lat": 0.0, "is_disabled": 0, "rental_uris": {"ios": "https://dc.lft.to/lastmile_qr_scan", "android": "https://dc.lft.to/lastmile_qr_scan"}, "bike_id": "5c74f0059294a5a73f448fe5f4fc6d00", "lat": 38.944630833333335, "name": "5c74f0059294a5a73f448fe5f4fc6d00", "lon": -77.00656316666667, "fusion_lon": 0.0}, {"is_reserved": 0, "type": "electric_scooter", "fusion_lat": 0.0, "is_disabled": 0, "rental_uris": {"ios": "https://dc.lft.to/lastmile_qr_scan", "android": "https://dc.lft.to/lastmile_qr_scan"}, "bike_id": "fd708f5393669f67b2207416b5f0a10b", "lat": 38.913307333333336, "name": "fd708f5393669f67b2207416b5f0a10b", "lon": -77.0455955, "fusion_lon": 0.0}, {"is_reserved": 0, "type": "electric_bike", "fusion_lat": 0.0, "is_disabled": 0, "rental_uris": {"ios": "https://dc.lft.to/lastmile_qr_scan", "android": "https://dc.lft.to/lastmile_qr_scan"}, "bike_id": "2431b51edd07bfde8a95314f57fc89bb", "lat": 38.840969666666666, "name": "2431b51edd07bfde8a95314f57fc89bb", "lon": -77.08937116666667, "fusion_lon": 0.0}, {"is_reserved": 0, "type": "electric_scooter", "fusion_lat": 0.0, "is_disabled": 0, "rental_uris": {"ios": "https://dc.lft.to/lastmile_qr_scan", "android": "https://dc.lft.to/lastmile_qr_scan"}, "bike_id": "7c845fded985578d68e7740a036a1149", "lat": 38.9020365, "name": "7c845fded985578d68e7740a036a1149", "lon": -77.04884016666666, "fusion_lon": 0.0}, {"is_reserved": 0, "type": "electric_scooter", "fusion_lat": 0.0, "is_disabled": 0, "rental_uris": {"ios": "https://dc.lft.to/lastmile_qr_scan", "android": "https://dc.lft.to/lastmile_qr_scan"}, "bike_id": "e6835a1be2e9e3ee1299932f70007d9b", "lat": 38.91989083333333, "name": "e6835a1be2e9e3ee1299932f70007d9b", "lon": -77.01791, "fusion_lon": 0.0}, {"is_reserved": 0, "type": "electric_scooter", "fusion_lat": 0.0, "is_disabled": 0, "rental_uris": {"ios": "https://dc.lft.to/lastmile_qr_scan", "android": "https://dc.lft.to/lastmile_qr_scan"}, "bike_id": "a859d517be23413dc1f66e9cf577c739", "lat": 38.93263866666667, "name": "a859d517be23413dc1f66e9cf577c739", "lon": -77.03268283333334, "fusion_lon": 0.0}, {"is_reserved": 0, "type": "electric_scooter", "fusion_lat": 0.0, "is_disabled": 0, "rental_uris": {"ios": "https://dc.lft.to/lastmile_qr_scan", "android": "https://dc.lft.to/lastmile_qr_scan"}, "bike_id": "03b8aa59b80f80b5c65571213f388d95", "lat": 38.92677583333333, "name": "03b8aa59b80f80b5c65571213f388d95", "lon": -77.00878983333334, "fusion_lon": 0.0}, {"is_reserved": 0, "type": "electric_scooter", "fusion_lat": 0.0, "is_disabled": 0, "rental_uris": {"ios": "https://dc.lft.to/lastmile_qr_scan", "android": "https://dc.lft.to/lastmile_qr_scan"}, "bike_id": "6a454fe9c533c0d7e2a0f1f8820e12ac", "lat": 38.883860166666665, "name": "6a454fe9c533c0d7e2a0f1f8820e12ac", "lon": -76.93047166666666, "fusion_lon": 0.0}, {"is_reserved": 0, "type": "electric_scooter", "fusion_lat": 0.0, "is_disabled": 0, "rental_uris": {"ios": "https://dc.lft.to/lastmile_qr_scan", "android": "https://dc.lft.to/lastmile_qr_scan"}, "bike_id": "8c00f4fa1671f0c3ecb3b18d4e71238a", "lat": 38.9066915, "name": "8c00f4fa1671f0c3ecb3b18d4e71238a", "lon": -77.026976, "fusion_lon": 0.0}, {"is_reserved": 0, "type": "electric_scooter", "fusion_lat": 0.0, "is_disabled": 0, "rental_uris": {"ios": "https://dc.lft.to/lastmile_qr_scan", "android": "https://dc.lft.to/lastmile_qr_scan"}, "bike_id": "84d6dfaeb5b46fe6dbcfbea34183bb4a", "lat": 38.92359866666666, "name": "84d6dfaeb5b46fe6dbcfbea34183bb4a", "lon": -77.02977966666667, "fusion_lon": 0.0}, {"is_reserved": 0, "type": "electric_scooter", "fusion_lat": 0.0, "is_disabled": 0, "rental_uris": {"ios": "https://dc.lft.to/lastmile_qr_scan", "android": "https://dc.lft.to/lastmile_qr_scan"}, "bike_id": "6e12dd5d99da9eb89a9d10a94e1c84d7", "lat": 38.90811333333333, "name": "6e12dd5d99da9eb89a9d10a94e1c84d7", "lon": -77.04337066666666, "fusion_lon": 0.0}, {"is_reserved": 0, "type": "electric_bike", "fusion_lat": 0.0, "is_disabled": 0, "rental_uris": {"ios": "https://dc.lft.to/lastmile_qr_scan", "android": "https://dc.lft.to/lastmile_qr_scan"}, "bike_id": "5217baeb734d00774d224974da70d189", "lat": 38.88373266666667, "name": "5217baeb734d00774d224974da70d189", "lon": -76.92373866666667, "fusion_lon": 0.0}, {"is_reserved": 0, "type": "electric_scooter", "fusion_lat": 0.0, "is_disabled": 0, "rental_uris": {"ios": "https://dc.lft.to/lastmile_qr_scan", "android": "https://dc.lft.to/lastmile_qr_scan"}, "bike_id": "7a4f8c2630b5d556153e02270387db1f", "lat": 38.9316025, "name": "7a4f8c2630b5d556153e02270387db1f", "lon": -77.05609483333333, "fusion_lon": 0.0}, {"is_reserved": 0, "type": "electric_scooter", "fusion_lat": 0.0, "is_disabled": 0, "rental_uris": {"ios": "https://dc.lft.to/lastmile_qr_scan", "android": "https://dc.lft.to/lastmile_qr_scan"}, "bike_id": "7dc023242a728f1a89c97995da8fda63", "lat": 38.894274833333334, "name": "7dc023242a728f1a89c97995da8fda63", "lon": -77.00104933333333, "fusion_lon": 0.0}, {"is_reserved": 0, "type": "electric_bike", "fusion_lat": 0.0, "is_disabled": 0, "rental_uris": {"ios": "https://dc.lft.to/lastmile_qr_scan", "android": "https://dc.lft.to/lastmile_qr_scan"}, "bike_id": "9c72633d72362b32597034423093704c", "lat": 39.084323499999996, "name": "9c72633d72362b32597034423093704c", "lon": -76.951385, "fusion_lon": 0.0}, {"is_reserved": 0, "type": "electric_scooter", "fusion_lat": 0.0, "is_disabled": 0, "rental_uris": {"ios": "https://dc.lft.to/lastmile_qr_scan", "android": "https://dc.lft.to/lastmile_qr_scan"}, "bike_id": "9a94d43c6293ed61a41a98757855bb1b", "lat": 38.9248405, "name": "9a94d43c6293ed61a41a98757855bb1b", "lon": -77.0254465, "fusion_lon": 0.0}, {"is_reserved": 0, "type": "electric_bike", "fusion_lat": 0.0, "is_disabled": 0, "rental_uris": {"ios": "https://dc.lft.to/lastmile_qr_scan", "android": "https://dc.lft.to/lastmile_qr_scan"}, "bike_id": "1c80be5fadcc4cb4dbd7f07a9f518232", "lat": 39.034756333333334, "name": "1c80be5fadcc4cb4dbd7f07a9f518232", "lon": -77.04105766666666, "fusion_lon": 0.0}, {"is_reserved": 0, "type": "electric_scooter", "fusion_lat": 0.0, "is_disabled": 0, "rental_uris": {"ios": "https://dc.lft.to/lastmile_qr_scan", "android": "https://dc.lft.to/lastmile_qr_scan"}, "bike_id": "fa79fe74e85beec801157a9e790c6f48", "lat": 38.940157, "name": "fa79fe74e85beec801157a9e790c6f48", "lon": -77.07730916666667, "fusion_lon": 0.0}, {"is_reserved": 0, "type": "electric_scooter", "fusion_lat": 0.0, "is_disabled": 0, "rental_uris": {"ios": "https://dc.lft.to/lastmile_qr_scan", "android": "https://dc.lft.to/lastmile_qr_scan"}, "bike_id": "034d2904a58317db95e8e7ae3622fff3", "lat": 38.878832333333335, "name": "034d2904a58317db95e8e7ae3622fff3", "lon": -76.96542916666667, "fusion_lon": 0.0}, {"is_reserved": 0, "type": "electric_scooter", "fusion_lat": 0.0, "is_disabled": 0, "rental_uris": {"ios": "https://dc.lft.to/lastmile_qr_scan", "android": "https://dc.lft.to/lastmile_qr_scan"}, "bike_id": "a3a27a7d14634473c3a4a30959c63a8f", "lat": 38.90362116666667, "name": "a3a27a7d14634473c3a4a30959c63a8f", "lon": -76.978108, "fusion_lon": 0.0}, {"is_reserved": 0, "type": "electric_scooter", "fusion_lat": 0.0, "is_disabled": 0, "rental_uris": {"ios": "https://dc.lft.to/lastmile_qr_scan", "android": "https://dc.lft.to/lastmile_qr_scan"}, "bike_id": "5e846d5a3d63c6fae034fc3180e50e54", "lat": 38.90726, "name": "5e846d5a3d63c6fae034fc3180e50e54", "lon": -77.0237305, "fusion_lon": 0.0}, {"is_reserved": 0, "type": "electric_scooter", "fusion_lat": 0.0, "is_disabled": 0, "rental_uris": {"ios": "https://dc.lft.to/lastmile_qr_scan", "android": "https://dc.lft.to/lastmile_qr_scan"}, "bike_id": "66344f66b54f481c187d5fa92914ef72", "lat": 38.930083, "name": "66344f66b54f481c187d5fa92914ef72", "lon": -77.0211555, "fusion_lon": 0.0}, {"is_reserved": 0, "type": "electric_scooter", "fusion_lat": 0.0, "is_disabled": 0, "rental_uris": {"ios": "https://dc.lft.to/lastmile_qr_scan", "android": "https://dc.lft.to/lastmile_qr_scan"}, "bike_id": "f1c7d088746210c0f6d766740b760432", "lat": 38.95222616666667, "name": "f1c7d088746210c0f6d766740b760432", "lon": -77.06885516666667, "fusion_lon": 0.0}, {"is_reserved": 0, "type": "electric_scooter", "fusion_lat": 0.0, "is_disabled": 0, "rental_uris": {"ios": "https://dc.lft.to/lastmile_qr_scan", "android": "https://dc.lft.to/lastmile_qr_scan"}, "bike_id": "74034b28d5a2488fa2d84a153b3f4818", "lat": 38.928408166666664, "name": "74034b28d5a2488fa2d84a153b3f4818", "lon": -77.014198, "fusion_lon": 0.0}, {"is_reserved": 0, "type": "electric_scooter", "fusion_lat": 0.0, "is_disabled": 0, "rental_uris": {"ios": "https://dc.lft.to/lastmile_qr_scan", "android": "https://dc.lft.to/lastmile_qr_scan"}, "bike_id": "95a29fe9cc464deff97f9f3b9f8211dd", "lat": 38.899379833333334, "name": "95a29fe9cc464deff97f9f3b9f8211dd", "lon": -76.9376095, "fusion_lon": 0.0}, {"is_reserved": 0, "type": "electric_scooter", "fusion_lat": 0.0, "is_disabled": 0, "rental_uris": {"ios": "https://dc.lft.to/lastmile_qr_scan", "android": "https://dc.lft.to/lastmile_qr_scan"}, "bike_id": "d4c66c6573d0d874c814d44a8d7b1298", "lat": 38.910073, "name": "d4c66c6573d0d874c814d44a8d7b1298", "lon": -77.04423233333333, "fusion_lon": 0.0}, {"is_reserved": 0, "type": "electric_scooter", "fusion_lat": 0.0, "is_disabled": 0, "rental_uris": {"ios": "https://dc.lft.to/lastmile_qr_scan", "android": "https://dc.lft.to/lastmile_qr_scan"}, "bike_id": "67d58271142059987c82f11a48d7b101", "lat": 38.901833, "name": "67d58271142059987c82f11a48d7b101", "lon": -76.97673533333334, "fusion_lon": 0.0}, {"is_reserved": 0, "type": "electric_scooter", "fusion_lat": 0.0, "is_disabled": 0, "rental_uris": {"ios": "https://dc.lft.to/lastmile_qr_scan", "android": "https://dc.lft.to/lastmile_qr_scan"}, "bike_id": "b18b9359fb21d13c119d0d5cd9811b27", "lat": 38.92437133333333, "name": "b18b9359fb21d13c119d0d5cd9811b27", "lon": -77.034057, "fusion_lon": 0.0}, {"is_reserved": 0, "type": "electric_scooter", "fusion_lat": 0.0, "is_disabled": 0, "rental_uris": {"ios": "https://dc.lft.to/lastmile_qr_scan", "android": "https://dc.lft.to/lastmile_qr_scan"}, "bike_id": "12cc1d0673191814e6e2e5cd3bef9b79", "lat": 38.902059333333334, "name": "12cc1d0673191814e6e2e5cd3bef9b79", "lon": -76.99497266666667, "fusion_lon": 0.0}, {"is_reserved": 0, "type": "electric_scooter", "fusion_lat": 0.0, "is_disabled": 0, "rental_uris": {"ios": "https://dc.lft.to/lastmile_qr_scan", "android": "https://dc.lft.to/lastmile_qr_scan"}, "bike_id": "f0f3d0a2464c924628a91710290c5c8b", "lat": 38.91037466666667, "name": "f0f3d0a2464c924628a91710290c5c8b", "lon": -76.93836566666667, "fusion_lon": 0.0}, {"is_reserved": 0, "type": "electric_scooter", "fusion_lat": 0.0, "is_disabled": 0, "rental_uris": {"ios": "https://dc.lft.to/lastmile_qr_scan", "android": "https://dc.lft.to/lastmile_qr_scan"}, "bike_id": "0c5b2c3e2795b3a6234a8006feb4e34c", "lat": 38.880063666666665, "name": "0c5b2c3e2795b3a6234a8006feb4e34c", "lon": -76.99836083333334, "fusion_lon": 0.0}, {"is_reserved": 0, "type": "electric_scooter", "fusion_lat": 0.0, "is_disabled": 0, "rental_uris": {"ios": "https://dc.lft.to/lastmile_qr_scan", "android": "https://dc.lft.to/lastmile_qr_scan"}, "bike_id": "9a131c6d09a827cb7ad5e497f3dd7979", "lat": 38.907682333333334, "name": "9a131c6d09a827cb7ad5e497f3dd7979", "lon": -77.02411666666667, "fusion_lon": 0.0}, {"is_reserved": 0, "type": "electric_scooter", "fusion_lat": 0.0, "is_disabled": 0, "rental_uris": {"ios": "https://dc.lft.to/lastmile_qr_scan", "android": "https://dc.lft.to/lastmile_qr_scan"}, "bike_id": "9a904465f33104b8ede2408a2bb2162c", "lat": 38.897094, "name": "9a904465f33104b8ede2408a2bb2162c", "lon": -76.93000083333334, "fusion_lon": 0.0}, {"is_reserved": 0, "type": "electric_scooter", "fusion_lat": 0.0, "is_disabled": 0, "rental_uris": {"ios": "https://dc.lft.to/lastmile_qr_scan", "android": "https://dc.lft.to/lastmile_qr_scan"}, "bike_id": "6c23090b9b1182a747d4b97afb29bd9f", "lat": 38.92355666666667, "name": "6c23090b9b1182a747d4b97afb29bd9f", "lon": -77.04305883333333, "fusion_lon": 0.0}, {"is_reserved": 0, "type": "electric_scooter", "fusion_lat": 0.0, "is_disabled": 0, "rental_uris": {"ios": "https://dc.lft.to/lastmile_qr_scan", "android": "https://dc.lft.to/lastmile_qr_scan"}, "bike_id": "165b71c0bbd1025eea2ea7fdac8a9b03", "lat": 38.917970833333335, "name": "165b71c0bbd1025eea2ea7fdac8a9b03", "lon": -77.040218, "fusion_lon": 0.0}, {"is_reserved": 0, "type": "electric_bike", "fusion_lat": 0.0, "is_disabled": 0, "rental_uris": {"ios": "https://dc.lft.to/lastmile_qr_scan", "android": "https://dc.lft.to/lastmile_qr_scan"}, "bike_id": "db5e7d3ecae98208f9cc455cc6a1c718", "lat": 38.888749, "name": "db5e7d3ecae98208f9cc455cc6a1c718", "lon": -76.956982, "fusion_lon": 0.0}, {"is_reserved": 0, "type": "electric_bike", "fusion_lat": 0.0, "is_disabled": 0, "rental_uris": {"ios": "https://dc.lft.to/lastmile_qr_scan", "android": "https://dc.lft.to/lastmile_qr_scan"}, "bike_id": "51b286d2c15e18a71eec2ccaa96a8ab6", "lat": 38.87952516666667, "name": "51b286d2c15e18a71eec2ccaa96a8ab6", "lon": -76.93191216666666, "fusion_lon": 0.0}, {"is_reserved": 0, "type": "electric_scooter", "fusion_lat": 0.0, "is_disabled": 0, "rental_uris": {"ios": "https://dc.lft.to/lastmile_qr_scan", "android": "https://dc.lft.to/lastmile_qr_scan"}, "bike_id": "d9a0f398572ff2257c4192afacaaa894", "lat": 38.917816, "name": "d9a0f398572ff2257c4192afacaaa894", "lon": -77.02310666666666, "fusion_lon": 0.0}, {"is_reserved": 0, "type": "electric_scooter", "fusion_lat": 0.0, "is_disabled": 0, "rental_uris": {"ios": "https://dc.lft.to/lastmile_qr_scan", "android": "https://dc.lft.to/lastmile_qr_scan"}, "bike_id": "15131b2516916509890a3eac799b8cd5", "lat": 38.892568, "name": "15131b2516916509890a3eac799b8cd5", "lon": -77.0260495, "fusion_lon": 0.0}, {"is_reserved": 0, "type": "electric_scooter", "fusion_lat": 0.0, "is_disabled": 0, "rental_uris": {"ios": "https://dc.lft.to/lastmile_qr_scan", "android": "https://dc.lft.to/lastmile_qr_scan"}, "bike_id": "ab9671f180a94bd5f534ea68e3ec9dec", "lat": 38.907664833333335, "name": "ab9671f180a94bd5f534ea68e3ec9dec", "lon": -77.01896316666667, "fusion_lon": 0.0}, {"is_reserved": 0, "type": "electric_scooter", "fusion_lat": 0.0, "is_disabled": 0, "rental_uris": {"ios": "https://dc.lft.to/lastmile_qr_scan", "android": "https://dc.lft.to/lastmile_qr_scan"}, "bike_id": "888a9c27a59ae171fb127edffc3d887d", "lat": 38.90365166666667, "name": "888a9c27a59ae171fb127edffc3d887d", "lon": -77.01628933333333, "fusion_lon": 0.0}, {"is_reserved": 0, "type": "electric_scooter", "fusion_lat": 0.0, "is_disabled": 0, "rental_uris": {"ios": "https://dc.lft.to/lastmile_qr_scan", "android": "https://dc.lft.to/lastmile_qr_scan"}, "bike_id": "8c4267e2a3890835f9980689b7f00647", "lat": 38.9051485, "name": "8c4267e2a3890835f9980689b7f00647", "lon": -77.06798666666667, "fusion_lon": 0.0}, {"is_reserved": 0, "type": "electric_scooter", "fusion_lat": 0.0, "is_disabled": 0, "rental_uris": {"ios": "https://dc.lft.to/lastmile_qr_scan", "android": "https://dc.lft.to/lastmile_qr_scan"}, "bike_id": "356ebb3e1048a7d36ffe8281c64fda9b", "lat": 38.8995695, "name": "356ebb3e1048a7d36ffe8281c64fda9b", "lon": -77.04726933333333, "fusion_lon": 0.0}, {"is_reserved": 0, "type": "electric_scooter", "fusion_lat": 0.0, "is_disabled": 0, "rental_uris": {"ios": "https://dc.lft.to/lastmile_qr_scan", "android": "https://dc.lft.to/lastmile_qr_scan"}, "bike_id": "9dcbf8121d725a03caff93496f3338ab", "lat": 38.91601433333334, "name": "9dcbf8121d725a03caff93496f3338ab", "lon": -77.03191266666667, "fusion_lon": 0.0}, {"is_reserved": 0, "type": "electric_scooter", "fusion_lat": 0.0, "is_disabled": 0, "rental_uris": {"ios": "https://dc.lft.to/lastmile_qr_scan", "android": "https://dc.lft.to/lastmile_qr_scan"}, "bike_id": "65889b2fe246150220a756c7636821dc", "lat": 38.8864235, "name": "65889b2fe246150220a756c7636821dc", "lon": -77.01224833333333, "fusion_lon": 0.0}, {"is_reserved": 0, "type": "electric_scooter", "fusion_lat": 0.0, "is_disabled": 0, "rental_uris": {"ios": "https://dc.lft.to/lastmile_qr_scan", "android": "https://dc.lft.to/lastmile_qr_scan"}, "bike_id": "adf90cf19a37eb81f708711915fc850f", "lat": 38.89481116666666, "name": "adf90cf19a37eb81f708711915fc850f", "lon": -77.0218805, "fusion_lon": 0.0}, {"is_reserved": 0, "type": "electric_scooter", "fusion_lat": 0.0, "is_disabled": 0, "rental_uris": {"ios": "https://dc.lft.to/lastmile_qr_scan", "android": "https://dc.lft.to/lastmile_qr_scan"}, "bike_id": "ad170e7740039cf36f2446163d2f4c05", "lat": 38.883104333333335, "name": "ad170e7740039cf36f2446163d2f4c05", "lon": -76.93148733333334, "fusion_lon": 0.0}, {"is_reserved": 0, "type": "electric_bike", "fusion_lat": 0.0, "is_disabled": 0, "rental_uris": {"ios": "https://dc.lft.to/lastmile_qr_scan", "android": "https://dc.lft.to/lastmile_qr_scan"}, "bike_id": "a267880af2fbba6eb98c5872ac1e4cf5", "lat": 38.83034383333333, "name": "a267880af2fbba6eb98c5872ac1e4cf5", "lon": -77.008253, "fusion_lon": 0.0}, {"is_reserved": 0, "type": "electric_scooter", "fusion_lat": 0.0, "is_disabled": 0, "rental_uris": {"ios": "https://dc.lft.to/lastmile_qr_scan", "android": "https://dc.lft.to/lastmile_qr_scan"}, "bike_id": "f903ac30d60cf19f04ea6a675bdcfc46", "lat": 38.89826716666666, "name": "f903ac30d60cf19f04ea6a675bdcfc46", "lon": -77.02857966666667, "fusion_lon": 0.0}, {"is_reserved": 0, "type": "electric_scooter", "fusion_lat": 0.0, "is_disabled": 0, "rental_uris": {"ios": "https://dc.lft.to/lastmile_qr_scan", "android": "https://dc.lft.to/lastmile_qr_scan"}, "bike_id": "97cb56cdac09771722537e8e773f06e5", "lat": 38.935306833333335, "name": "97cb56cdac09771722537e8e773f06e5", "lon": -77.02351666666667, "fusion_lon": 0.0}, {"is_reserved": 0, "type": "electric_scooter", "fusion_lat": 0.0, "is_disabled": 0, "rental_uris": {"ios": "https://dc.lft.to/lastmile_qr_scan", "android": "https://dc.lft.to/lastmile_qr_scan"}, "bike_id": "59368f1302e0e421c6084b0f10e8ea18", "lat": 38.89964916666667, "name": "59368f1302e0e421c6084b0f10e8ea18", "lon": -76.93761283333333, "fusion_lon": 0.0}, {"is_reserved": 0, "type": "electric_scooter", "fusion_lat": 0.0, "is_disabled": 0, "rental_uris": {"ios": "https://dc.lft.to/lastmile_qr_scan", "android": "https://dc.lft.to/lastmile_qr_scan"}, "bike_id": "307657a24a1d96a97cfb876adad633c9", "lat": 38.90335983333333, "name": "307657a24a1d96a97cfb876adad633c9", "lon": -77.0110965, "fusion_lon": 0.0}, {"is_reserved": 0, "type": "electric_scooter", "fusion_lat": 0.0, "is_disabled": 0, "rental_uris": {"ios": "https://dc.lft.to/lastmile_qr_scan", "android": "https://dc.lft.to/lastmile_qr_scan"}, "bike_id": "b49019840b75c2a3f3fb9a6851596694", "lat": 38.892326833333335, "name": "b49019840b75c2a3f3fb9a6851596694", "lon": -77.028005, "fusion_lon": 0.0}, {"is_reserved": 0, "type": "electric_bike", "fusion_lat": 0.0, "is_disabled": 0, "rental_uris": {"ios": "https://dc.lft.to/lastmile_qr_scan", "android": "https://dc.lft.to/lastmile_qr_scan"}, "bike_id": "c4d124d4b02d9fe737b983d9a7239e3c", "lat": 38.846259, "name": "c4d124d4b02d9fe737b983d9a7239e3c", "lon": -77.06933, "fusion_lon": 0.0}, {"is_reserved": 0, "type": "electric_scooter", "fusion_lat": 0.0, "is_disabled": 0, "rental_uris": {"ios": "https://dc.lft.to/lastmile_qr_scan", "android": "https://dc.lft.to/lastmile_qr_scan"}, "bike_id": "52cacf47d6db67bb1ec928d2931161bd", "lat": 38.920738, "name": "52cacf47d6db67bb1ec928d2931161bd", "lon": -77.03650933333333, "fusion_lon": 0.0}, {"is_reserved": 0, "type": "electric_scooter", "fusion_lat": 0.0, "is_disabled": 0, "rental_uris": {"ios": "https://dc.lft.to/lastmile_qr_scan", "android": "https://dc.lft.to/lastmile_qr_scan"}, "bike_id": "2265b5cafd29508622c2108f4bf0d5a9", "lat": 38.93076, "name": "2265b5cafd29508622c2108f4bf0d5a9", "lon": -77.03659583333334, "fusion_lon": 0.0}, {"is_reserved": 0, "type": "electric_scooter", "fusion_lat": 0.0, "is_disabled": 0, "rental_uris": {"ios": "https://dc.lft.to/lastmile_qr_scan", "android": "https://dc.lft.to/lastmile_qr_scan"}, "bike_id": "cbe97ba1f8b57c65f63e40b046780edb", "lat": 38.89742666666667, "name": "cbe97ba1f8b57c65f63e40b046780edb", "lon": -77.048205, "fusion_lon": 0.0}, {"is_reserved": 0, "type": "electric_scooter", "fusion_lat": 0.0, "is_disabled": 0, "rental_uris": {"ios": "https://dc.lft.to/lastmile_qr_scan", "android": "https://dc.lft.to/lastmile_qr_scan"}, "bike_id": "e9837ac2e4ba9b4c0d7b0af04b1385d1", "lat": 38.90520216666667, "name": "e9837ac2e4ba9b4c0d7b0af04b1385d1", "lon": -77.04742, "fusion_lon": 0.0}, {"is_reserved": 0, "type": "electric_scooter", "fusion_lat": 0.0, "is_disabled": 0, "rental_uris": {"ios": "https://dc.lft.to/lastmile_qr_scan", "android": "https://dc.lft.to/lastmile_qr_scan"}, "bike_id": "40d2ff13ea815b7ec79de0d2cf827e25", "lat": 38.89857333333333, "name": "40d2ff13ea815b7ec79de0d2cf827e25", "lon": -76.94637366666667, "fusion_lon": 0.0}, {"is_reserved": 0, "type": "electric_scooter", "fusion_lat": 0.0, "is_disabled": 0, "rental_uris": {"ios": "https://dc.lft.to/lastmile_qr_scan", "android": "https://dc.lft.to/lastmile_qr_scan"}, "bike_id": "eea6975cbc09afaef6a1a4db7ec55582", "lat": 38.92070366666667, "name": "eea6975cbc09afaef6a1a4db7ec55582", "lon": -77.02520616666666, "fusion_lon": 0.0}, {"is_reserved": 0, "type": "electric_scooter", "fusion_lat": 0.0, "is_disabled": 0, "rental_uris": {"ios": "https://dc.lft.to/lastmile_qr_scan", "android": "https://dc.lft.to/lastmile_qr_scan"}, "bike_id": "7d851e8dcc53d6d0d684c491368e579d", "lat": 38.9030425, "name": "7d851e8dcc53d6d0d684c491368e579d", "lon": -77.05047733333333, "fusion_lon": 0.0}, {"is_reserved": 0, "type": "electric_scooter", "fusion_lat": 0.0, "is_disabled": 0, "rental_uris": {"ios": "https://dc.lft.to/lastmile_qr_scan", "android": "https://dc.lft.to/lastmile_qr_scan"}, "bike_id": "2cbf10a8c98bd7051c110b94ba48cea8", "lat": 38.9356125, "name": "2cbf10a8c98bd7051c110b94ba48cea8", "lon": -77.02841716666667, "fusion_lon": 0.0}, {"is_reserved": 0, "type": "electric_scooter", "fusion_lat": 0.0, "is_disabled": 0, "rental_uris": {"ios": "https://dc.lft.to/lastmile_qr_scan", "android": "https://dc.lft.to/lastmile_qr_scan"}, "bike_id": "b61f5bb58fa886b91d8148e1419c570e", "lat": 38.870697, "name": "b61f5bb58fa886b91d8148e1419c570e", "lon": -76.979356, "fusion_lon": 0.0}, {"is_reserved": 0, "type": "electric_scooter", "fusion_lat": 0.0, "is_disabled": 0, "rental_uris": {"ios": "https://dc.lft.to/lastmile_qr_scan", "android": "https://dc.lft.to/lastmile_qr_scan"}, "bike_id": "17a7493a3cd919d53080fe18f41ea25c", "lat": 38.89830516666667, "name": "17a7493a3cd919d53080fe18f41ea25c", "lon": -76.94634383333333, "fusion_lon": 0.0}, {"is_reserved": 0, "type": "electric_scooter", "fusion_lat": 0.0, "is_disabled": 0, "rental_uris": {"ios": "https://dc.lft.to/lastmile_qr_scan", "android": "https://dc.lft.to/lastmile_qr_scan"}, "bike_id": "cce7b570e66ac9271b461e9a8a94806c", "lat": 38.897381333333335, "name": "cce7b570e66ac9271b461e9a8a94806c", "lon": -77.00866416666666, "fusion_lon": 0.0}, {"is_reserved": 0, "type": "electric_bike", "fusion_lat": 0.0, "is_disabled": 0, "rental_uris": {"ios": "https://dc.lft.to/lastmile_qr_scan", "android": "https://dc.lft.to/lastmile_qr_scan"}, "bike_id": "7405fae934c54dd68c010b85bf023618", "lat": 39.0038255, "name": "7405fae934c54dd68c010b85bf023618", "lon": -77.012916, "fusion_lon": 0.0}, {"is_reserved": 0, "type": "electric_scooter", "fusion_lat": 0.0, "is_disabled": 0, "rental_uris": {"ios": "https://dc.lft.to/lastmile_qr_scan", "android": "https://dc.lft.to/lastmile_qr_scan"}, "bike_id": "52f880f2fd1020aef2ba959861c383ad", "lat": 38.952316833333335, "name": "52f880f2fd1020aef2ba959861c383ad", "lon": -77.002726, "fusion_lon": 0.0}, {"is_reserved": 0, "type": "electric_bike", "fusion_lat": 0.0, "is_disabled": 0, "rental_uris": {"ios": "https://dc.lft.to/lastmile_qr_scan", "android": "https://dc.lft.to/lastmile_qr_scan"}, "bike_id": "e1f4242114ef8c44ead2af56de9c33b1", "lat": 38.830623, "name": "e1f4242114ef8c44ead2af56de9c33b1", "lon": -77.040792, "fusion_lon": 0.0}, {"is_reserved": 0, "type": "electric_scooter", "fusion_lat": 0.0, "is_disabled": 0, "rental_uris": {"ios": "https://dc.lft.to/lastmile_qr_scan", "android": "https://dc.lft.to/lastmile_qr_scan"}, "bike_id": "faf165402047d9c8cb173bdeac2e5c9c", "lat": 38.89634916666667, "name": "faf165402047d9c8cb173bdeac2e5c9c", "lon": -77.04012983333334, "fusion_lon": 0.0}, {"is_reserved": 0, "type": "electric_scooter", "fusion_lat": 0.0, "is_disabled": 0, "rental_uris": {"ios": "https://dc.lft.to/lastmile_qr_scan", "android": "https://dc.lft.to/lastmile_qr_scan"}, "bike_id": "71c4de1e5d6e17d5f829fe2a7da32ee2", "lat": 38.904496, "name": "71c4de1e5d6e17d5f829fe2a7da32ee2", "lon": -77.01880316666667, "fusion_lon": 0.0}, {"is_reserved": 0, "type": "electric_scooter", "fusion_lat": 0.0, "is_disabled": 0, "rental_uris": {"ios": "https://dc.lft.to/lastmile_qr_scan", "android": "https://dc.lft.to/lastmile_qr_scan"}, "bike_id": "814828fdcb07c142e5f17dda5bb26bea", "lat": 38.91921633333333, "name": "814828fdcb07c142e5f17dda5bb26bea", "lon": -77.00977266666666, "fusion_lon": 0.0}, {"is_reserved": 0, "type": "electric_scooter", "fusion_lat": 0.0, "is_disabled": 0, "rental_uris": {"ios": "https://dc.lft.to/lastmile_qr_scan", "android": "https://dc.lft.to/lastmile_qr_scan"}, "bike_id": "79a0db98586028b780b04d1a37ea91b1", "lat": 38.943115666666664, "name": "79a0db98586028b780b04d1a37ea91b1", "lon": -77.01727733333334, "fusion_lon": 0.0}, {"is_reserved": 0, "type": "electric_scooter", "fusion_lat": 0.0, "is_disabled": 0, "rental_uris": {"ios": "https://dc.lft.to/lastmile_qr_scan", "android": "https://dc.lft.to/lastmile_qr_scan"}, "bike_id": "7852bdd8e40036fb32b061bae2984a09", "lat": 38.90538333333333, "name": "7852bdd8e40036fb32b061bae2984a09", "lon": -77.0569585, "fusion_lon": 0.0}, {"is_reserved": 0, "type": "electric_scooter", "fusion_lat": 0.0, "is_disabled": 0, "rental_uris": {"ios": "https://dc.lft.to/lastmile_qr_scan", "android": "https://dc.lft.to/lastmile_qr_scan"}, "bike_id": "1629711fa9ec5175ecff8fecc1dce4dd", "lat": 38.907405, "name": "1629711fa9ec5175ecff8fecc1dce4dd", "lon": -77.00333216666667, "fusion_lon": 0.0}, {"is_reserved": 0, "type": "electric_scooter", "fusion_lat": 0.0, "is_disabled": 0, "rental_uris": {"ios": "https://dc.lft.to/lastmile_qr_scan", "android": "https://dc.lft.to/lastmile_qr_scan"}, "bike_id": "81972edb9a8d1787b1e6c8e2ce8463ef", "lat": 38.91706083333333, "name": "81972edb9a8d1787b1e6c8e2ce8463ef", "lon": -77.03443333333334, "fusion_lon": 0.0}, {"is_reserved": 0, "type": "electric_scooter", "fusion_lat": 0.0, "is_disabled": 0, "rental_uris": {"ios": "https://dc.lft.to/lastmile_qr_scan", "android": "https://dc.lft.to/lastmile_qr_scan"}, "bike_id": "8ccc554ed6a35f9d5eb709e5bd3e7393", "lat": 38.90974416666667, "name": "8ccc554ed6a35f9d5eb709e5bd3e7393", "lon": -77.02407316666667, "fusion_lon": 0.0}, {"is_reserved": 0, "type": "electric_scooter", "fusion_lat": 0.0, "is_disabled": 0, "rental_uris": {"ios": "https://dc.lft.to/lastmile_qr_scan", "android": "https://dc.lft.to/lastmile_qr_scan"}, "bike_id": "cacacdedb4b527f6254426e4751d5526", "lat": 38.91426033333333, "name": "cacacdedb4b527f6254426e4751d5526", "lon": -77.04486916666667, "fusion_lon": 0.0}, {"is_reserved": 0, "type": "electric_scooter", "fusion_lat": 0.0, "is_disabled": 0, "rental_uris": {"ios": "https://dc.lft.to/lastmile_qr_scan", "android": "https://dc.lft.to/lastmile_qr_scan"}, "bike_id": "905cf3ec77f997288fa9b21e2710f74b", "lat": 38.90061, "name": "905cf3ec77f997288fa9b21e2710f74b", "lon": -77.017947, "fusion_lon": 0.0}, {"is_reserved": 0, "type": "electric_scooter", "fusion_lat": 0.0, "is_disabled": 0, "rental_uris": {"ios": "https://dc.lft.to/lastmile_qr_scan", "android": "https://dc.lft.to/lastmile_qr_scan"}, "bike_id": "be18b01e3cf544db92bc1fc387736c5d", "lat": 38.92071033333333, "name": "be18b01e3cf544db92bc1fc387736c5d", "lon": -77.02377983333334, "fusion_lon": 0.0}, {"is_reserved": 0, "type": "electric_scooter", "fusion_lat": 0.0, "is_disabled": 0, "rental_uris": {"ios": "https://dc.lft.to/lastmile_qr_scan", "android": "https://dc.lft.to/lastmile_qr_scan"}, "bike_id": "52299c17dc8265ff0159b16d2eb33fc8", "lat": 38.89747366666667, "name": "52299c17dc8265ff0159b16d2eb33fc8", "lon": -77.010515, "fusion_lon": 0.0}, {"is_reserved": 0, "type": "electric_scooter", "fusion_lat": 0.0, "is_disabled": 0, "rental_uris": {"ios": "https://dc.lft.to/lastmile_qr_scan", "android": "https://dc.lft.to/lastmile_qr_scan"}, "bike_id": "a809525f14dbc645716bd730866e8bb7", "lat": 38.91708766666667, "name": "a809525f14dbc645716bd730866e8bb7", "lon": -77.03448716666666, "fusion_lon": 0.0}, {"is_reserved": 0, "type": "electric_scooter", "fusion_lat": 0.0, "is_disabled": 0, "rental_uris": {"ios": "https://dc.lft.to/lastmile_qr_scan", "android": "https://dc.lft.to/lastmile_qr_scan"}, "bike_id": "f440d3a21c91ce9f08b7d22e7d56ca79", "lat": 38.896319166666665, "name": "f440d3a21c91ce9f08b7d22e7d56ca79", "lon": -77.027433, "fusion_lon": 0.0}, {"is_reserved": 0, "type": "electric_scooter", "fusion_lat": 0.0, "is_disabled": 0, "rental_uris": {"ios": "https://dc.lft.to/lastmile_qr_scan", "android": "https://dc.lft.to/lastmile_qr_scan"}, "bike_id": "75d7abdd592a56f54cb222cafb4fef2c", "lat": 38.96499416666666, "name": "75d7abdd592a56f54cb222cafb4fef2c", "lon": -77.06283383333333, "fusion_lon": 0.0}, {"is_reserved": 0, "type": "electric_scooter", "fusion_lat": 0.0, "is_disabled": 0, "rental_uris": {"ios": "https://dc.lft.to/lastmile_qr_scan", "android": "https://dc.lft.to/lastmile_qr_scan"}, "bike_id": "5e406b88b420bd868f01cac68b12ae96", "lat": 38.912724833333336, "name": "5e406b88b420bd868f01cac68b12ae96", "lon": -77.01679516666667, "fusion_lon": 0.0}, {"is_reserved": 0, "type": "electric_bike", "fusion_lat": 0.0, "is_disabled": 0, "rental_uris": {"ios": "https://dc.lft.to/lastmile_qr_scan", "android": "https://dc.lft.to/lastmile_qr_scan"}, "bike_id": "6847e7e7d1c880c49593cb228885aa51", "lat": 38.937078666666665, "name": "6847e7e7d1c880c49593cb228885aa51", "lon": -77.024517, "fusion_lon": 0.0}, {"is_reserved": 0, "type": "electric_scooter", "fusion_lat": 0.0, "is_disabled": 0, "rental_uris": {"ios": "https://dc.lft.to/lastmile_qr_scan", "android": "https://dc.lft.to/lastmile_qr_scan"}, "bike_id": "2c82c1778d255a263fd8b2a21cdd6e55", "lat": 38.88392133333333, "name": "2c82c1778d255a263fd8b2a21cdd6e55", "lon": -77.02992083333334, "fusion_lon": 0.0}, {"is_reserved": 0, "type": "electric_scooter", "fusion_lat": 0.0, "is_disabled": 0, "rental_uris": {"ios": "https://dc.lft.to/lastmile_qr_scan", "android": "https://dc.lft.to/lastmile_qr_scan"}, "bike_id": "62162c7c50ef6a74b4f92f25012540a6", "lat": 38.89634733333333, "name": "62162c7c50ef6a74b4f92f25012540a6", "lon": -77.02849833333333, "fusion_lon": 0.0}, {"is_reserved": 0, "type": "electric_scooter", "fusion_lat": 0.0, "is_disabled": 0, "rental_uris": {"ios": "https://dc.lft.to/lastmile_qr_scan", "android": "https://dc.lft.to/lastmile_qr_scan"}, "bike_id": "05f1d618d6558c1f3067191fef1e05e5", "lat": 38.916514166666666, "name": "05f1d618d6558c1f3067191fef1e05e5", "lon": -77.010237, "fusion_lon": 0.0}, {"is_reserved": 0, "type": "electric_scooter", "fusion_lat": 0.0, "is_disabled": 0, "rental_uris": {"ios": "https://dc.lft.to/lastmile_qr_scan", "android": "https://dc.lft.to/lastmile_qr_scan"}, "bike_id": "b7edd78d19d66821c26e5d28845641bc", "lat": 38.92002383333333, "name": "b7edd78d19d66821c26e5d28845641bc", "lon": -77.04171633333333, "fusion_lon": 0.0}, {"is_reserved": 0, "type": "electric_scooter", "fusion_lat": 0.0, "is_disabled": 0, "rental_uris": {"ios": "https://dc.lft.to/lastmile_qr_scan", "android": "https://dc.lft.to/lastmile_qr_scan"}, "bike_id": "21c191aa34c0e6a76f68de0690e27e12", "lat": 38.8981995, "name": "21c191aa34c0e6a76f68de0690e27e12", "lon": -76.930043, "fusion_lon": 0.0}, {"is_reserved": 0, "type": "electric_bike", "fusion_lat": 0.0, "is_disabled": 0, "rental_uris": {"ios": "https://dc.lft.to/lastmile_qr_scan", "android": "https://dc.lft.to/lastmile_qr_scan"}, "bike_id": "d3148748eb130f8c13fcd76759224dd6", "lat": 38.80978133333333, "name": "d3148748eb130f8c13fcd76759224dd6", "lon": -77.076621, "fusion_lon": 0.0}, {"is_reserved": 0, "type": "electric_bike", "fusion_lat": 0.0, "is_disabled": 0, "rental_uris": {"ios": "https://dc.lft.to/lastmile_qr_scan", "android": "https://dc.lft.to/lastmile_qr_scan"}, "bike_id": "45c09dbad83dcb6b0ed5d8fa7346c42b", "lat": 38.883001666666665, "name": "45c09dbad83dcb6b0ed5d8fa7346c42b", "lon": -77.00199583333334, "fusion_lon": 0.0}, {"is_reserved": 0, "type": "electric_scooter", "fusion_lat": 0.0, "is_disabled": 0, "rental_uris": {"ios": "https://dc.lft.to/lastmile_qr_scan", "android": "https://dc.lft.to/lastmile_qr_scan"}, "bike_id": "b08f5c79ad0c741027548a421b67439d", "lat": 38.888559666666666, "name": "b08f5c79ad0c741027548a421b67439d", "lon": -76.9773515, "fusion_lon": 0.0}, {"is_reserved": 0, "type": "electric_scooter", "fusion_lat": 0.0, "is_disabled": 0, "rental_uris": {"ios": "https://dc.lft.to/lastmile_qr_scan", "android": "https://dc.lft.to/lastmile_qr_scan"}, "bike_id": "3e4f7f60c45aa86a56e4725e51c30fe9", "lat": 38.89764066666667, "name": "3e4f7f60c45aa86a56e4725e51c30fe9", "lon": -77.04783916666666, "fusion_lon": 0.0}, {"is_reserved": 0, "type": "electric_scooter", "fusion_lat": 0.0, "is_disabled": 0, "rental_uris": {"ios": "https://dc.lft.to/lastmile_qr_scan", "android": "https://dc.lft.to/lastmile_qr_scan"}, "bike_id": "5c10cdde26f30a0ef8cd3f3389e64e76", "lat": 38.92412816666667, "name": "5c10cdde26f30a0ef8cd3f3389e64e76", "lon": -77.02040416666667, "fusion_lon": 0.0}, {"is_reserved": 0, "type": "electric_scooter", "fusion_lat": 0.0, "is_disabled": 0, "rental_uris": {"ios": "https://dc.lft.to/lastmile_qr_scan", "android": "https://dc.lft.to/lastmile_qr_scan"}, "bike_id": "7cd5e62de2f92d3a6d55ef8968f15dfa", "lat": 38.92213, "name": "7cd5e62de2f92d3a6d55ef8968f15dfa", "lon": -77.0424095, "fusion_lon": 0.0}, {"is_reserved": 0, "type": "electric_scooter", "fusion_lat": 0.0, "is_disabled": 0, "rental_uris": {"ios": "https://dc.lft.to/lastmile_qr_scan", "android": "https://dc.lft.to/lastmile_qr_scan"}, "bike_id": "c31d02d5a371684bc7c5cc6e08e01aaa", "lat": 38.92662966666666, "name": "c31d02d5a371684bc7c5cc6e08e01aaa", "lon": -76.99538633333333, "fusion_lon": 0.0}, {"is_reserved": 0, "type": "electric_scooter", "fusion_lat": 0.0, "is_disabled": 0, "rental_uris": {"ios": "https://dc.lft.to/lastmile_qr_scan", "android": "https://dc.lft.to/lastmile_qr_scan"}, "bike_id": "8f29134a6a619948f569646ff618e11c", "lat": 38.90064366666667, "name": "8f29134a6a619948f569646ff618e11c", "lon": -77.04528816666667, "fusion_lon": 0.0}, {"is_reserved": 0, "type": "electric_scooter", "fusion_lat": 0.0, "is_disabled": 0, "rental_uris": {"ios": "https://dc.lft.to/lastmile_qr_scan", "android": "https://dc.lft.to/lastmile_qr_scan"}, "bike_id": "b8f42b05029f33dc692915a7adde076c", "lat": 38.936643333333336, "name": "b8f42b05029f33dc692915a7adde076c", "lon": -77.036353, "fusion_lon": 0.0}, {"is_reserved": 0, "type": "electric_bike", "fusion_lat": 0.0, "is_disabled": 0, "rental_uris": {"ios": "https://dc.lft.to/lastmile_qr_scan", "android": "https://dc.lft.to/lastmile_qr_scan"}, "bike_id": "9f3606bb5d30b2c5bd5ef2c2decd846a", "lat": 38.946800333333336, "name": "9f3606bb5d30b2c5bd5ef2c2decd846a", "lon": -76.956722, "fusion_lon": 0.0}, {"is_reserved": 0, "type": "electric_bike", "fusion_lat": 0.0, "is_disabled": 0, "rental_uris": {"ios": "https://dc.lft.to/lastmile_qr_scan", "android": "https://dc.lft.to/lastmile_qr_scan"}, "bike_id": "a2f4001cd26f384f227d61587f6e687a", "lat": 38.90129533333333, "name": "a2f4001cd26f384f227d61587f6e687a", "lon": -76.9960285, "fusion_lon": 0.0}, {"is_reserved": 0, "type": "electric_scooter", "fusion_lat": 0.0, "is_disabled": 0, "rental_uris": {"ios": "https://dc.lft.to/lastmile_qr_scan", "android": "https://dc.lft.to/lastmile_qr_scan"}, "bike_id": "fea40961e5f5cc60c65817addf39bf0a", "lat": 38.90258466666667, "name": "fea40961e5f5cc60c65817addf39bf0a", "lon": -77.02709316666666, "fusion_lon": 0.0}, {"is_reserved": 0, "type": "electric_scooter", "fusion_lat": 0.0, "is_disabled": 0, "rental_uris": {"ios": "https://dc.lft.to/lastmile_qr_scan", "android": "https://dc.lft.to/lastmile_qr_scan"}, "bike_id": "d33d024ca75b99d6253d391eb0a83640", "lat": 38.8922355, "name": "d33d024ca75b99d6253d391eb0a83640", "lon": -77.02231583333334, "fusion_lon": 0.0}, {"is_reserved": 0, "type": "electric_scooter", "fusion_lat": 0.0, "is_disabled": 0, "rental_uris": {"ios": "https://dc.lft.to/lastmile_qr_scan", "android": "https://dc.lft.to/lastmile_qr_scan"}, "bike_id": "6f16ba06dddb3253c28da24e517f0fbc", "lat": 38.93659016666667, "name": "6f16ba06dddb3253c28da24e517f0fbc", "lon": -77.066088, "fusion_lon": 0.0}, {"is_reserved": 0, "type": "electric_scooter", "fusion_lat": 0.0, "is_disabled": 0, "rental_uris": {"ios": "https://dc.lft.to/lastmile_qr_scan", "android": "https://dc.lft.to/lastmile_qr_scan"}, "bike_id": "085b404c0ffb42ea788944fcb7ac4246", "lat": 38.88736633333333, "name": "085b404c0ffb42ea788944fcb7ac4246", "lon": -77.01527166666666, "fusion_lon": 0.0}, {"is_reserved": 0, "type": "electric_bike", "fusion_lat": 0.0, "is_disabled": 0, "rental_uris": {"ios": "https://dc.lft.to/lastmile_qr_scan", "android": "https://dc.lft.to/lastmile_qr_scan"}, "bike_id": "f26d48e50b815d65c5fca3185a7e6d36", "lat": 38.964351, "name": "f26d48e50b815d65c5fca3185a7e6d36", "lon": -77.03189683333333, "fusion_lon": 0.0}, {"is_reserved": 0, "type": "electric_scooter", "fusion_lat": 0.0, "is_disabled": 0, "rental_uris": {"ios": "https://dc.lft.to/lastmile_qr_scan", "android": "https://dc.lft.to/lastmile_qr_scan"}, "bike_id": "98fcaeaaeab1edf93e14a62307d21fbd", "lat": 38.88743083333333, "name": "98fcaeaaeab1edf93e14a62307d21fbd", "lon": -77.02629833333333, "fusion_lon": 0.0}, {"is_reserved": 0, "type": "electric_scooter", "fusion_lat": 0.0, "is_disabled": 0, "rental_uris": {"ios": "https://dc.lft.to/lastmile_qr_scan", "android": "https://dc.lft.to/lastmile_qr_scan"}, "bike_id": "2b10beae941945a9ba93b9b088b9ffd6", "lat": 38.921043, "name": "2b10beae941945a9ba93b9b088b9ffd6", "lon": -77.04168316666667, "fusion_lon": 0.0}, {"is_reserved": 0, "type": "electric_scooter", "fusion_lat": 0.0, "is_disabled": 0, "rental_uris": {"ios": "https://dc.lft.to/lastmile_qr_scan", "android": "https://dc.lft.to/lastmile_qr_scan"}, "bike_id": "c573bd9c60d8c001df74453ae06d482e", "lat": 38.894996666666664, "name": "c573bd9c60d8c001df74453ae06d482e", "lon": -77.02278033333333, "fusion_lon": 0.0}, {"is_reserved": 0, "type": "electric_scooter", "fusion_lat": 0.0, "is_disabled": 0, "rental_uris": {"ios": "https://dc.lft.to/lastmile_qr_scan", "android": "https://dc.lft.to/lastmile_qr_scan"}, "bike_id": "e590ec5f0d84af79760095577be12080", "lat": 38.898938666666666, "name": "e590ec5f0d84af79760095577be12080", "lon": -77.0317065, "fusion_lon": 0.0}, {"is_reserved": 0, "type": "electric_scooter", "fusion_lat": 0.0, "is_disabled": 0, "rental_uris": {"ios": "https://dc.lft.to/lastmile_qr_scan", "android": "https://dc.lft.to/lastmile_qr_scan"}, "bike_id": "0019e8db1a54c61521485f2448d0f2e6", "lat": 38.9181025, "name": "0019e8db1a54c61521485f2448d0f2e6", "lon": -77.03122666666667, "fusion_lon": 0.0}, {"is_reserved": 0, "type": "electric_scooter", "fusion_lat": 0.0, "is_disabled": 0, "rental_uris": {"ios": "https://dc.lft.to/lastmile_qr_scan", "android": "https://dc.lft.to/lastmile_qr_scan"}, "bike_id": "f77819340252b7e340fb5bb1c98a017c", "lat": 38.91941216666667, "name": "f77819340252b7e340fb5bb1c98a017c", "lon": -77.01384683333333, "fusion_lon": 0.0}, {"is_reserved": 0, "type": "electric_scooter", "fusion_lat": 0.0, "is_disabled": 0, "rental_uris": {"ios": "https://dc.lft.to/lastmile_qr_scan", "android": "https://dc.lft.to/lastmile_qr_scan"}, "bike_id": "a2dcadb7d95e3a70a63726bfd8f637e9", "lat": 38.89958383333333, "name": "a2dcadb7d95e3a70a63726bfd8f637e9", "lon": -77.01602116666666, "fusion_lon": 0.0}, {"is_reserved": 0, "type": "electric_scooter", "fusion_lat": 0.0, "is_disabled": 0, "rental_uris": {"ios": "https://dc.lft.to/lastmile_qr_scan", "android": "https://dc.lft.to/lastmile_qr_scan"}, "bike_id": "eba6293a163c7616d7a6ad87b828f130", "lat": 38.887408, "name": "eba6293a163c7616d7a6ad87b828f130", "lon": -77.01408566666667, "fusion_lon": 0.0}, {"is_reserved": 0, "type": "electric_scooter", "fusion_lat": 0.0, "is_disabled": 0, "rental_uris": {"ios": "https://dc.lft.to/lastmile_qr_scan", "android": "https://dc.lft.to/lastmile_qr_scan"}, "bike_id": "bd56d5a70804cd9d33b7b5f6eea01a27", "lat": 38.904172833333334, "name": "bd56d5a70804cd9d33b7b5f6eea01a27", "lon": -76.98531066666666, "fusion_lon": 0.0}, {"is_reserved": 0, "type": "electric_scooter", "fusion_lat": 0.0, "is_disabled": 0, "rental_uris": {"ios": "https://dc.lft.to/lastmile_qr_scan", "android": "https://dc.lft.to/lastmile_qr_scan"}, "bike_id": "2ae99f804fdfd1359560cef96ab2ee96", "lat": 38.87171166666667, "name": "2ae99f804fdfd1359560cef96ab2ee96", "lon": -77.00623516666667, "fusion_lon": 0.0}, {"is_reserved": 0, "type": "electric_scooter", "fusion_lat": 0.0, "is_disabled": 0, "rental_uris": {"ios": "https://dc.lft.to/lastmile_qr_scan", "android": "https://dc.lft.to/lastmile_qr_scan"}, "bike_id": "6d15c904202fb6d7c6bbb4336d999e0c", "lat": 38.924572166666664, "name": "6d15c904202fb6d7c6bbb4336d999e0c", "lon": -77.03784466666667, "fusion_lon": 0.0}, {"is_reserved": 0, "type": "electric_scooter", "fusion_lat": 0.0, "is_disabled": 0, "rental_uris": {"ios": "https://dc.lft.to/lastmile_qr_scan", "android": "https://dc.lft.to/lastmile_qr_scan"}, "bike_id": "3b5a065d12cf39a9c3bfb399046b2cd1", "lat": 38.893950833333335, "name": "3b5a065d12cf39a9c3bfb399046b2cd1", "lon": -77.04996383333334, "fusion_lon": 0.0}, {"is_reserved": 0, "type": "electric_bike", "fusion_lat": 0.0, "is_disabled": 0, "rental_uris": {"ios": "https://dc.lft.to/lastmile_qr_scan", "android": "https://dc.lft.to/lastmile_qr_scan"}, "bike_id": "c3bed249242810b0ce6996d99eebd769", "lat": 38.84859516666667, "name": "c3bed249242810b0ce6996d99eebd769", "lon": -77.06831316666667, "fusion_lon": 0.0}, {"is_reserved": 0, "type": "electric_scooter", "fusion_lat": 0.0, "is_disabled": 0, "rental_uris": {"ios": "https://dc.lft.to/lastmile_qr_scan", "android": "https://dc.lft.to/lastmile_qr_scan"}, "bike_id": "21eb0865834abb1650bc1c57397de26c", "lat": 38.90582533333333, "name": "21eb0865834abb1650bc1c57397de26c", "lon": -77.06275966666666, "fusion_lon": 0.0}, {"is_reserved": 0, "type": "electric_scooter", "fusion_lat": 0.0, "is_disabled": 0, "rental_uris": {"ios": "https://dc.lft.to/lastmile_qr_scan", "android": "https://dc.lft.to/lastmile_qr_scan"}, "bike_id": "2df84c3bf0c684b7af20853600958313", "lat": 38.897416666666665, "name": "2df84c3bf0c684b7af20853600958313", "lon": -77.0086715, "fusion_lon": 0.0}, {"is_reserved": 0, "type": "electric_scooter", "fusion_lat": 0.0, "is_disabled": 0, "rental_uris": {"ios": "https://dc.lft.to/lastmile_qr_scan", "android": "https://dc.lft.to/lastmile_qr_scan"}, "bike_id": "93f471ec68726e78b26863d663b90dbc", "lat": 38.90547083333333, "name": "93f471ec68726e78b26863d663b90dbc", "lon": -77.06269983333334, "fusion_lon": 0.0}, {"is_reserved": 0, "type": "electric_bike", "fusion_lat": 0.0, "is_disabled": 0, "rental_uris": {"ios": "https://dc.lft.to/lastmile_qr_scan", "android": "https://dc.lft.to/lastmile_qr_scan"}, "bike_id": "93a8d314137ec5961cc92ed406bea81d", "lat": 38.990963, "name": "93a8d314137ec5961cc92ed406bea81d", "lon": -76.99375266666667, "fusion_lon": 0.0}, {"is_reserved": 0, "type": "electric_scooter", "fusion_lat": 0.0, "is_disabled": 0, "rental_uris": {"ios": "https://dc.lft.to/lastmile_qr_scan", "android": "https://dc.lft.to/lastmile_qr_scan"}, "bike_id": "9d920d9a4ebf5562004b74c7e37f478b", "lat": 38.92916, "name": "9d920d9a4ebf5562004b74c7e37f478b", "lon": -77.03752016666667, "fusion_lon": 0.0}, {"is_reserved": 0, "type": "electric_scooter", "fusion_lat": 0.0, "is_disabled": 0, "rental_uris": {"ios": "https://dc.lft.to/lastmile_qr_scan", "android": "https://dc.lft.to/lastmile_qr_scan"}, "bike_id": "592bc1439e0ff86aadacdd5ac2c95cd6", "lat": 38.906075, "name": "592bc1439e0ff86aadacdd5ac2c95cd6", "lon": -76.9898215, "fusion_lon": 0.0}, {"is_reserved": 0, "type": "electric_scooter", "fusion_lat": 0.0, "is_disabled": 0, "rental_uris": {"ios": "https://dc.lft.to/lastmile_qr_scan", "android": "https://dc.lft.to/lastmile_qr_scan"}, "bike_id": "a9655500f33d6ec5cfef70fda46a3b11", "lat": 38.89194966666667, "name": "a9655500f33d6ec5cfef70fda46a3b11", "lon": -77.0236225, "fusion_lon": 0.0}, {"is_reserved": 0, "type": "electric_scooter", "fusion_lat": 0.0, "is_disabled": 0, "rental_uris": {"ios": "https://dc.lft.to/lastmile_qr_scan", "android": "https://dc.lft.to/lastmile_qr_scan"}, "bike_id": "eb3ba1aef09a947ba59a7b4f0f6fe9bb", "lat": 38.899460833333336, "name": "eb3ba1aef09a947ba59a7b4f0f6fe9bb", "lon": -77.04724333333333, "fusion_lon": 0.0}, {"is_reserved": 0, "type": "electric_scooter", "fusion_lat": 0.0, "is_disabled": 0, "rental_uris": {"ios": "https://dc.lft.to/lastmile_qr_scan", "android": "https://dc.lft.to/lastmile_qr_scan"}, "bike_id": "67fa3f871fc6073ab77042656fd6942d", "lat": 38.92040166666666, "name": "67fa3f871fc6073ab77042656fd6942d", "lon": -77.01679, "fusion_lon": 0.0}, {"is_reserved": 0, "type": "electric_bike", "fusion_lat": 0.0, "is_disabled": 0, "rental_uris": {"ios": "https://dc.lft.to/lastmile_qr_scan", "android": "https://dc.lft.to/lastmile_qr_scan"}, "bike_id": "ebb6e8380a13f0c1f31a833cda8cd865", "lat": 38.87764933333333, "name": "ebb6e8380a13f0c1f31a833cda8cd865", "lon": -77.010509, "fusion_lon": 0.0}, {"is_reserved": 0, "type": "electric_scooter", "fusion_lat": 0.0, "is_disabled": 0, "rental_uris": {"ios": "https://dc.lft.to/lastmile_qr_scan", "android": "https://dc.lft.to/lastmile_qr_scan"}, "bike_id": "a0fba09f6541a7d0316e3f0082415551", "lat": 38.920158666666666, "name": "a0fba09f6541a7d0316e3f0082415551", "lon": -77.07134716666667, "fusion_lon": 0.0}, {"is_reserved": 0, "type": "electric_scooter", "fusion_lat": 0.0, "is_disabled": 0, "rental_uris": {"ios": "https://dc.lft.to/lastmile_qr_scan", "android": "https://dc.lft.to/lastmile_qr_scan"}, "bike_id": "46c5e4753be9e7de588ba609a763be12", "lat": 38.9112135, "name": "46c5e4753be9e7de588ba609a763be12", "lon": -77.043494, "fusion_lon": 0.0}, {"is_reserved": 0, "type": "electric_scooter", "fusion_lat": 0.0, "is_disabled": 0, "rental_uris": {"ios": "https://dc.lft.to/lastmile_qr_scan", "android": "https://dc.lft.to/lastmile_qr_scan"}, "bike_id": "2b49030b5652af8475477ecf96e9114c", "lat": 38.920714, "name": "2b49030b5652af8475477ecf96e9114c", "lon": -77.025122, "fusion_lon": 0.0}, {"is_reserved": 0, "type": "electric_scooter", "fusion_lat": 0.0, "is_disabled": 0, "rental_uris": {"ios": "https://dc.lft.to/lastmile_qr_scan", "android": "https://dc.lft.to/lastmile_qr_scan"}, "bike_id": "3be8efd36cfaa76b4e439b67cb3836cc", "lat": 38.897275, "name": "3be8efd36cfaa76b4e439b67cb3836cc", "lon": -77.041481, "fusion_lon": 0.0}, {"is_reserved": 0, "type": "electric_scooter", "fusion_lat": 0.0, "is_disabled": 0, "rental_uris": {"ios": "https://dc.lft.to/lastmile_qr_scan", "android": "https://dc.lft.to/lastmile_qr_scan"}, "bike_id": "3b9170828e17145da66234e4f601c2a9", "lat": 38.878401333333336, "name": "3b9170828e17145da66234e4f601c2a9", "lon": -77.00570366666666, "fusion_lon": 0.0}, {"is_reserved": 0, "type": "electric_scooter", "fusion_lat": 0.0, "is_disabled": 0, "rental_uris": {"ios": "https://dc.lft.to/lastmile_qr_scan", "android": "https://dc.lft.to/lastmile_qr_scan"}, "bike_id": "a850f7fe1cff4bbb9db535979e1c21f7", "lat": 38.920578666666664, "name": "a850f7fe1cff4bbb9db535979e1c21f7", "lon": -77.04399016666666, "fusion_lon": 0.0}, {"is_reserved": 0, "type": "electric_scooter", "fusion_lat": 0.0, "is_disabled": 0, "rental_uris": {"ios": "https://dc.lft.to/lastmile_qr_scan", "android": "https://dc.lft.to/lastmile_qr_scan"}, "bike_id": "a82862cc8a01af54362579fb45f8b2d4", "lat": 38.92466366666667, "name": "a82862cc8a01af54362579fb45f8b2d4", "lon": -77.022135, "fusion_lon": 0.0}, {"is_reserved": 0, "type": "electric_scooter", "fusion_lat": 0.0, "is_disabled": 0, "rental_uris": {"ios": "https://dc.lft.to/lastmile_qr_scan", "android": "https://dc.lft.to/lastmile_qr_scan"}, "bike_id": "162a82d5b93166ce8f4b126f68bbe328", "lat": 38.91714783333333, "name": "162a82d5b93166ce8f4b126f68bbe328", "lon": -77.02331333333333, "fusion_lon": 0.0}, {"is_reserved": 0, "type": "electric_scooter", "fusion_lat": 0.0, "is_disabled": 0, "rental_uris": {"ios": "https://dc.lft.to/lastmile_qr_scan", "android": "https://dc.lft.to/lastmile_qr_scan"}, "bike_id": "9ee3e3a0216be2d590e9a104197de01d", "lat": 38.913749333333335, "name": "9ee3e3a0216be2d590e9a104197de01d", "lon": -77.0643425, "fusion_lon": 0.0}, {"is_reserved": 0, "type": "electric_scooter", "fusion_lat": 0.0, "is_disabled": 0, "rental_uris": {"ios": "https://dc.lft.to/lastmile_qr_scan", "android": "https://dc.lft.to/lastmile_qr_scan"}, "bike_id": "385149ebbbef13653a8687443d21439b", "lat": 38.88707733333333, "name": "385149ebbbef13653a8687443d21439b", "lon": -76.9834325, "fusion_lon": 0.0}, {"is_reserved": 0, "type": "electric_scooter", "fusion_lat": 0.0, "is_disabled": 0, "rental_uris": {"ios": "https://dc.lft.to/lastmile_qr_scan", "android": "https://dc.lft.to/lastmile_qr_scan"}, "bike_id": "5d9c7d4b3c1b22fe191980dde0251877", "lat": 38.917001166666665, "name": "5d9c7d4b3c1b22fe191980dde0251877", "lon": -77.02309866666667, "fusion_lon": 0.0}, {"is_reserved": 0, "type": "electric_scooter", "fusion_lat": 0.0, "is_disabled": 0, "rental_uris": {"ios": "https://dc.lft.to/lastmile_qr_scan", "android": "https://dc.lft.to/lastmile_qr_scan"}, "bike_id": "900a9ea974d8b64c7ba5b17148aa2e2f", "lat": 38.885751, "name": "900a9ea974d8b64c7ba5b17148aa2e2f", "lon": -77.01207266666667, "fusion_lon": 0.0}, {"is_reserved": 0, "type": "electric_scooter", "fusion_lat": 0.0, "is_disabled": 0, "rental_uris": {"ios": "https://dc.lft.to/lastmile_qr_scan", "android": "https://dc.lft.to/lastmile_qr_scan"}, "bike_id": "8ac4af1d81920e413881298038148d72", "lat": 38.917820666666664, "name": "8ac4af1d81920e413881298038148d72", "lon": -77.02398866666667, "fusion_lon": 0.0}, {"is_reserved": 0, "type": "electric_scooter", "fusion_lat": 0.0, "is_disabled": 0, "rental_uris": {"ios": "https://dc.lft.to/lastmile_qr_scan", "android": "https://dc.lft.to/lastmile_qr_scan"}, "bike_id": "828132e69ce953d6db72d24bdd33db06", "lat": 38.90567683333333, "name": "828132e69ce953d6db72d24bdd33db06", "lon": -76.9763025, "fusion_lon": 0.0}, {"is_reserved": 0, "type": "electric_scooter", "fusion_lat": 0.0, "is_disabled": 0, "rental_uris": {"ios": "https://dc.lft.to/lastmile_qr_scan", "android": "https://dc.lft.to/lastmile_qr_scan"}, "bike_id": "e40aa3134badc563231eb9d2b98723e7", "lat": 38.907305666666666, "name": "e40aa3134badc563231eb9d2b98723e7", "lon": -77.011336, "fusion_lon": 0.0}, {"is_reserved": 0, "type": "electric_bike", "fusion_lat": 0.0, "is_disabled": 0, "rental_uris": {"ios": "https://dc.lft.to/lastmile_qr_scan", "android": "https://dc.lft.to/lastmile_qr_scan"}, "bike_id": "a6f92c579c89c00c4081ce25b28cd4e4", "lat": 38.846213166666665, "name": "a6f92c579c89c00c4081ce25b28cd4e4", "lon": -76.97835616666667, "fusion_lon": 0.0}, {"is_reserved": 0, "type": "electric_scooter", "fusion_lat": 0.0, "is_disabled": 0, "rental_uris": {"ios": "https://dc.lft.to/lastmile_qr_scan", "android": "https://dc.lft.to/lastmile_qr_scan"}, "bike_id": "fdc1f8aac7a39f099c8c2abd904ec2e2", "lat": 38.90817833333333, "name": "fdc1f8aac7a39f099c8c2abd904ec2e2", "lon": -77.08425033333333, "fusion_lon": 0.0}, {"is_reserved": 0, "type": "electric_scooter", "fusion_lat": 0.0, "is_disabled": 0, "rental_uris": {"ios": "https://dc.lft.to/lastmile_qr_scan", "android": "https://dc.lft.to/lastmile_qr_scan"}, "bike_id": "c426796053c6ab9fbe82fde9a41dde66", "lat": 38.904326166666664, "name": "c426796053c6ab9fbe82fde9a41dde66", "lon": -76.97949483333333, "fusion_lon": 0.0}, {"is_reserved": 0, "type": "electric_scooter", "fusion_lat": 0.0, "is_disabled": 0, "rental_uris": {"ios": "https://dc.lft.to/lastmile_qr_scan", "android": "https://dc.lft.to/lastmile_qr_scan"}, "bike_id": "39adebcc260c2bcd75ae93ec6c152b2a", "lat": 38.908584, "name": "39adebcc260c2bcd75ae93ec6c152b2a", "lon": -77.02663566666666, "fusion_lon": 0.0}, {"is_reserved": 0, "type": "electric_scooter", "fusion_lat": 0.0, "is_disabled": 0, "rental_uris": {"ios": "https://dc.lft.to/lastmile_qr_scan", "android": "https://dc.lft.to/lastmile_qr_scan"}, "bike_id": "45751a846051303ec36b1e0dff3876e4", "lat": 38.922074, "name": "45751a846051303ec36b1e0dff3876e4", "lon": -77.01845616666667, "fusion_lon": 0.0}, {"is_reserved": 0, "type": "electric_scooter", "fusion_lat": 0.0, "is_disabled": 0, "rental_uris": {"ios": "https://dc.lft.to/lastmile_qr_scan", "android": "https://dc.lft.to/lastmile_qr_scan"}, "bike_id": "606b021e4774e5bae1e7212efdb5de2d", "lat": 38.9008905, "name": "606b021e4774e5bae1e7212efdb5de2d", "lon": -77.04869433333333, "fusion_lon": 0.0}, {"is_reserved": 0, "type": "electric_scooter", "fusion_lat": 0.0, "is_disabled": 0, "rental_uris": {"ios": "https://dc.lft.to/lastmile_qr_scan", "android": "https://dc.lft.to/lastmile_qr_scan"}, "bike_id": "3a88c06e8aed9860640b8102160fe561", "lat": 38.90452033333333, "name": "3a88c06e8aed9860640b8102160fe561", "lon": -76.932751, "fusion_lon": 0.0}, {"is_reserved": 0, "type": "electric_scooter", "fusion_lat": 0.0, "is_disabled": 0, "rental_uris": {"ios": "https://dc.lft.to/lastmile_qr_scan", "android": "https://dc.lft.to/lastmile_qr_scan"}, "bike_id": "04c0ec5b949c7d2fbfe5d7e7ff55a5ce", "lat": 38.9011265, "name": "04c0ec5b949c7d2fbfe5d7e7ff55a5ce", "lon": -77.03446533333333, "fusion_lon": 0.0}, {"is_reserved": 0, "type": "electric_scooter", "fusion_lat": 0.0, "is_disabled": 0, "rental_uris": {"ios": "https://dc.lft.to/lastmile_qr_scan", "android": "https://dc.lft.to/lastmile_qr_scan"}, "bike_id": "383d2cbffabde0816487009fbda5f69a", "lat": 38.9448795, "name": "383d2cbffabde0816487009fbda5f69a", "lon": -77.00739216666666, "fusion_lon": 0.0}, {"is_reserved": 0, "type": "electric_scooter", "fusion_lat": 0.0, "is_disabled": 0, "rental_uris": {"ios": "https://dc.lft.to/lastmile_qr_scan", "android": "https://dc.lft.to/lastmile_qr_scan"}, "bike_id": "4bd28c8d0af782636911f13c093298e0", "lat": 38.933196833333334, "name": "4bd28c8d0af782636911f13c093298e0", "lon": -77.02386183333333, "fusion_lon": 0.0}, {"is_reserved": 0, "type": "electric_scooter", "fusion_lat": 0.0, "is_disabled": 0, "rental_uris": {"ios": "https://dc.lft.to/lastmile_qr_scan", "android": "https://dc.lft.to/lastmile_qr_scan"}, "bike_id": "daf6c4504c8a267c96c687d95bdaa409", "lat": 38.89961666666667, "name": "daf6c4504c8a267c96c687d95bdaa409", "lon": -77.01602483333333, "fusion_lon": 0.0}, {"is_reserved": 0, "type": "electric_scooter", "fusion_lat": 0.0, "is_disabled": 0, "rental_uris": {"ios": "https://dc.lft.to/lastmile_qr_scan", "android": "https://dc.lft.to/lastmile_qr_scan"}, "bike_id": "5bc9024dc6b3ba742c76ac9374b5d45a", "lat": 38.89956016666667, "name": "5bc9024dc6b3ba742c76ac9374b5d45a", "lon": -77.0160525, "fusion_lon": 0.0}, {"is_reserved": 0, "type": "electric_bike", "fusion_lat": 0.0, "is_disabled": 0, "rental_uris": {"ios": "https://dc.lft.to/lastmile_qr_scan", "android": "https://dc.lft.to/lastmile_qr_scan"}, "bike_id": "11a2994161cbf75e3b63ac6ca20667f0", "lat": 38.90691733333333, "name": "11a2994161cbf75e3b63ac6ca20667f0", "lon": -76.9525115, "fusion_lon": 0.0}, {"is_reserved": 0, "type": "electric_scooter", "fusion_lat": 0.0, "is_disabled": 0, "rental_uris": {"ios": "https://dc.lft.to/lastmile_qr_scan", "android": "https://dc.lft.to/lastmile_qr_scan"}, "bike_id": "c6ddb322d9aa4012458654d85da4579a", "lat": 38.8966655, "name": "c6ddb322d9aa4012458654d85da4579a", "lon": -77.0335535, "fusion_lon": 0.0}, {"is_reserved": 0, "type": "electric_scooter", "fusion_lat": 0.0, "is_disabled": 0, "rental_uris": {"ios": "https://dc.lft.to/lastmile_qr_scan", "android": "https://dc.lft.to/lastmile_qr_scan"}, "bike_id": "23296b069d2b22a7f874cddaf3ac84fb", "lat": 38.89669416666667, "name": "23296b069d2b22a7f874cddaf3ac84fb", "lon": -77.0511735, "fusion_lon": 0.0}, {"is_reserved": 0, "type": "electric_scooter", "fusion_lat": 0.0, "is_disabled": 0, "rental_uris": {"ios": "https://dc.lft.to/lastmile_qr_scan", "android": "https://dc.lft.to/lastmile_qr_scan"}, "bike_id": "e49a09d43ce7ac17f4816e0a8b5fa8af", "lat": 38.90278266666667, "name": "e49a09d43ce7ac17f4816e0a8b5fa8af", "lon": -77.02275516666667, "fusion_lon": 0.0}, {"is_reserved": 0, "type": "electric_scooter", "fusion_lat": 0.0, "is_disabled": 0, "rental_uris": {"ios": "https://dc.lft.to/lastmile_qr_scan", "android": "https://dc.lft.to/lastmile_qr_scan"}, "bike_id": "9cdfb157fa2d4bb8795f9a8043b4140e", "lat": 38.94261983333333, "name": "9cdfb157fa2d4bb8795f9a8043b4140e", "lon": -76.98465233333333, "fusion_lon": 0.0}, {"is_reserved": 0, "type": "electric_scooter", "fusion_lat": 0.0, "is_disabled": 0, "rental_uris": {"ios": "https://dc.lft.to/lastmile_qr_scan", "android": "https://dc.lft.to/lastmile_qr_scan"}, "bike_id": "2e6cd3cf0b5944529c1ed891ba6689aa", "lat": 38.88354866666667, "name": "2e6cd3cf0b5944529c1ed891ba6689aa", "lon": -76.95766433333333, "fusion_lon": 0.0}, {"is_reserved": 0, "type": "electric_scooter", "fusion_lat": 0.0, "is_disabled": 0, "rental_uris": {"ios": "https://dc.lft.to/lastmile_qr_scan", "android": "https://dc.lft.to/lastmile_qr_scan"}, "bike_id": "12de7a1df1dfba1fd30b60b545bfd83b", "lat": 38.9471565, "name": "12de7a1df1dfba1fd30b60b545bfd83b", "lon": -77.06803166666667, "fusion_lon": 0.0}, {"is_reserved": 0, "type": "electric_scooter", "fusion_lat": 0.0, "is_disabled": 0, "rental_uris": {"ios": "https://dc.lft.to/lastmile_qr_scan", "android": "https://dc.lft.to/lastmile_qr_scan"}, "bike_id": "32203bf03a0eab48301ffb730bb8adf8", "lat": 38.89407333333333, "name": "32203bf03a0eab48301ffb730bb8adf8", "lon": -77.0239775, "fusion_lon": 0.0}, {"is_reserved": 0, "type": "electric_scooter", "fusion_lat": 0.0, "is_disabled": 0, "rental_uris": {"ios": "https://dc.lft.to/lastmile_qr_scan", "android": "https://dc.lft.to/lastmile_qr_scan"}, "bike_id": "fd396606b4cef456809b60e769ccd5fe", "lat": 38.948221833333335, "name": "fd396606b4cef456809b60e769ccd5fe", "lon": -77.026156, "fusion_lon": 0.0}, {"is_reserved": 0, "type": "electric_scooter", "fusion_lat": 0.0, "is_disabled": 0, "rental_uris": {"ios": "https://dc.lft.to/lastmile_qr_scan", "android": "https://dc.lft.to/lastmile_qr_scan"}, "bike_id": "1bb79712f275c8d8b3ebd040bb84e102", "lat": 38.87771516666667, "name": "1bb79712f275c8d8b3ebd040bb84e102", "lon": -77.00525083333333, "fusion_lon": 0.0}, {"is_reserved": 0, "type": "electric_scooter", "fusion_lat": 0.0, "is_disabled": 0, "rental_uris": {"ios": "https://dc.lft.to/lastmile_qr_scan", "android": "https://dc.lft.to/lastmile_qr_scan"}, "bike_id": "48039ffe6c7c8433fb6d831bce623015", "lat": 38.89913833333333, "name": "48039ffe6c7c8433fb6d831bce623015", "lon": -77.03226166666667, "fusion_lon": 0.0}, {"is_reserved": 0, "type": "electric_scooter", "fusion_lat": 0.0, "is_disabled": 0, "rental_uris": {"ios": "https://dc.lft.to/lastmile_qr_scan", "android": "https://dc.lft.to/lastmile_qr_scan"}, "bike_id": "11ea4b24baede12eb5dfb70a3c66acd3", "lat": 38.89987383333333, "name": "11ea4b24baede12eb5dfb70a3c66acd3", "lon": -77.04484483333333, "fusion_lon": 0.0}, {"is_reserved": 0, "type": "electric_scooter", "fusion_lat": 0.0, "is_disabled": 0, "rental_uris": {"ios": "https://dc.lft.to/lastmile_qr_scan", "android": "https://dc.lft.to/lastmile_qr_scan"}, "bike_id": "588b089ec8d1fd3d85d47cd7dc324913", "lat": 38.87654916666666, "name": "588b089ec8d1fd3d85d47cd7dc324913", "lon": -77.00399683333333, "fusion_lon": 0.0}, {"is_reserved": 0, "type": "electric_scooter", "fusion_lat": 0.0, "is_disabled": 0, "rental_uris": {"ios": "https://dc.lft.to/lastmile_qr_scan", "android": "https://dc.lft.to/lastmile_qr_scan"}, "bike_id": "549b0666eb4b98a9a997034a3bc5e259", "lat": 38.92410616666667, "name": "549b0666eb4b98a9a997034a3bc5e259", "lon": -77.02126716666666, "fusion_lon": 0.0}, {"is_reserved": 0, "type": "electric_scooter", "fusion_lat": 0.0, "is_disabled": 0, "rental_uris": {"ios": "https://dc.lft.to/lastmile_qr_scan", "android": "https://dc.lft.to/lastmile_qr_scan"}, "bike_id": "2ac61a19fdb8c047de3506c10e9c3f6d", "lat": 38.902288, "name": "2ac61a19fdb8c047de3506c10e9c3f6d", "lon": -77.000624, "fusion_lon": 0.0}, {"is_reserved": 0, "type": "electric_scooter", "fusion_lat": 0.0, "is_disabled": 0, "rental_uris": {"ios": "https://dc.lft.to/lastmile_qr_scan", "android": "https://dc.lft.to/lastmile_qr_scan"}, "bike_id": "09e1567eae159994b46a7a985a606529", "lat": 38.9233755, "name": "09e1567eae159994b46a7a985a606529", "lon": -77.057862, "fusion_lon": 0.0}, {"is_reserved": 0, "type": "electric_scooter", "fusion_lat": 0.0, "is_disabled": 0, "rental_uris": {"ios": "https://dc.lft.to/lastmile_qr_scan", "android": "https://dc.lft.to/lastmile_qr_scan"}, "bike_id": "d90c4550dc267ac6332e6b9772613ce4", "lat": 38.9158005, "name": "d90c4550dc267ac6332e6b9772613ce4", "lon": -76.98303266666667, "fusion_lon": 0.0}, {"is_reserved": 0, "type": "electric_scooter", "fusion_lat": 0.0, "is_disabled": 0, "rental_uris": {"ios": "https://dc.lft.to/lastmile_qr_scan", "android": "https://dc.lft.to/lastmile_qr_scan"}, "bike_id": "6a03af66d67e8dbbf603898f0654b873", "lat": 38.866283833333334, "name": "6a03af66d67e8dbbf603898f0654b873", "lon": -76.98260816666667, "fusion_lon": 0.0}, {"is_reserved": 0, "type": "electric_scooter", "fusion_lat": 0.0, "is_disabled": 0, "rental_uris": {"ios": "https://dc.lft.to/lastmile_qr_scan", "android": "https://dc.lft.to/lastmile_qr_scan"}, "bike_id": "94b84472862cbb9046e3c790a9f8dc2f", "lat": 38.92353466666667, "name": "94b84472862cbb9046e3c790a9f8dc2f", "lon": -77.04154616666666, "fusion_lon": 0.0}, {"is_reserved": 0, "type": "electric_scooter", "fusion_lat": 0.0, "is_disabled": 0, "rental_uris": {"ios": "https://dc.lft.to/lastmile_qr_scan", "android": "https://dc.lft.to/lastmile_qr_scan"}, "bike_id": "a00a654d228a94903b7714e507776b91", "lat": 38.906187333333335, "name": "a00a654d228a94903b7714e507776b91", "lon": -77.00560216666666, "fusion_lon": 0.0}, {"is_reserved": 0, "type": "electric_scooter", "fusion_lat": 0.0, "is_disabled": 0, "rental_uris": {"ios": "https://dc.lft.to/lastmile_qr_scan", "android": "https://dc.lft.to/lastmile_qr_scan"}, "bike_id": "1bdd7339c25523cd40cde12e5d71292f", "lat": 38.8763815, "name": "1bdd7339c25523cd40cde12e5d71292f", "lon": -76.99295916666667, "fusion_lon": 0.0}, {"is_reserved": 0, "type": "electric_bike", "fusion_lat": 0.0, "is_disabled": 0, "rental_uris": {"ios": "https://dc.lft.to/lastmile_qr_scan", "android": "https://dc.lft.to/lastmile_qr_scan"}, "bike_id": "a9aaa97b333fc59f345efddbaf6d0a13", "lat": 38.9118945, "name": "a9aaa97b333fc59f345efddbaf6d0a13", "lon": -77.01119316666667, "fusion_lon": 0.0}, {"is_reserved": 0, "type": "electric_scooter", "fusion_lat": 0.0, "is_disabled": 0, "rental_uris": {"ios": "https://dc.lft.to/lastmile_qr_scan", "android": "https://dc.lft.to/lastmile_qr_scan"}, "bike_id": "fba503630549c3f9ad2a68604f5494bd", "lat": 38.901864333333336, "name": "fba503630549c3f9ad2a68604f5494bd", "lon": -77.00219966666667, "fusion_lon": 0.0}, {"is_reserved": 0, "type": "electric_scooter", "fusion_lat": 0.0, "is_disabled": 0, "rental_uris": {"ios": "https://dc.lft.to/lastmile_qr_scan", "android": "https://dc.lft.to/lastmile_qr_scan"}, "bike_id": "9c2eb4c718b71ea09e379e89f11ab958", "lat": 38.90237583333333, "name": "9c2eb4c718b71ea09e379e89f11ab958", "lon": -77.01957233333333, "fusion_lon": 0.0}, {"is_reserved": 0, "type": "electric_scooter", "fusion_lat": 0.0, "is_disabled": 0, "rental_uris": {"ios": "https://dc.lft.to/lastmile_qr_scan", "android": "https://dc.lft.to/lastmile_qr_scan"}, "bike_id": "e09fdecdbc2af735718e4dfcacfaca99", "lat": 38.901794, "name": "e09fdecdbc2af735718e4dfcacfaca99", "lon": -76.9985105, "fusion_lon": 0.0}, {"is_reserved": 0, "type": "electric_scooter", "fusion_lat": 0.0, "is_disabled": 0, "rental_uris": {"ios": "https://dc.lft.to/lastmile_qr_scan", "android": "https://dc.lft.to/lastmile_qr_scan"}, "bike_id": "56086a011e0cae60259e37f3dafa295c", "lat": 38.935073333333335, "name": "56086a011e0cae60259e37f3dafa295c", "lon": -77.05694766666667, "fusion_lon": 0.0}, {"is_reserved": 0, "type": "electric_scooter", "fusion_lat": 0.0, "is_disabled": 0, "rental_uris": {"ios": "https://dc.lft.to/lastmile_qr_scan", "android": "https://dc.lft.to/lastmile_qr_scan"}, "bike_id": "54b11ea570a1b63bb911fcb50f2a8298", "lat": 38.905282666666665, "name": "54b11ea570a1b63bb911fcb50f2a8298", "lon": -77.05697383333333, "fusion_lon": 0.0}, {"is_reserved": 0, "type": "electric_scooter", "fusion_lat": 0.0, "is_disabled": 0, "rental_uris": {"ios": "https://dc.lft.to/lastmile_qr_scan", "android": "https://dc.lft.to/lastmile_qr_scan"}, "bike_id": "b505b4cec8cedb8e85700a61cf70fbab", "lat": 38.909017, "name": "b505b4cec8cedb8e85700a61cf70fbab", "lon": -77.03522216666667, "fusion_lon": 0.0}, {"is_reserved": 0, "type": "electric_scooter", "fusion_lat": 0.0, "is_disabled": 0, "rental_uris": {"ios": "https://dc.lft.to/lastmile_qr_scan", "android": "https://dc.lft.to/lastmile_qr_scan"}, "bike_id": "9e115c5211e7dc7b5f05863711cb42ef", "lat": 38.901371833333336, "name": "9e115c5211e7dc7b5f05863711cb42ef", "lon": -77.0381535, "fusion_lon": 0.0}, {"is_reserved": 0, "type": "electric_bike", "fusion_lat": 0.0, "is_disabled": 0, "rental_uris": {"ios": "https://dc.lft.to/lastmile_qr_scan", "android": "https://dc.lft.to/lastmile_qr_scan"}, "bike_id": "f338c59b9809624fa6d42bc444225686", "lat": 38.8194115, "name": "f338c59b9809624fa6d42bc444225686", "lon": -77.00210833333334, "fusion_lon": 0.0}, {"is_reserved": 0, "type": "electric_scooter", "fusion_lat": 0.0, "is_disabled": 0, "rental_uris": {"ios": "https://dc.lft.to/lastmile_qr_scan", "android": "https://dc.lft.to/lastmile_qr_scan"}, "bike_id": "93801b542ced165c89787dcc8612acb2", "lat": 38.92160616666666, "name": "93801b542ced165c89787dcc8612acb2", "lon": -77.033839, "fusion_lon": 0.0}, {"is_reserved": 0, "type": "electric_scooter", "fusion_lat": 0.0, "is_disabled": 0, "rental_uris": {"ios": "https://dc.lft.to/lastmile_qr_scan", "android": "https://dc.lft.to/lastmile_qr_scan"}, "bike_id": "555d5bec2068929d2b914875707a3a7f", "lat": 38.9216115, "name": "555d5bec2068929d2b914875707a3a7f", "lon": -77.04030216666666, "fusion_lon": 0.0}, {"is_reserved": 0, "type": "electric_scooter", "fusion_lat": 0.0, "is_disabled": 0, "rental_uris": {"ios": "https://dc.lft.to/lastmile_qr_scan", "android": "https://dc.lft.to/lastmile_qr_scan"}, "bike_id": "709a87aff19fda8ffdcd5826fbd5d61d", "lat": 38.9050725, "name": "709a87aff19fda8ffdcd5826fbd5d61d", "lon": -76.951872, "fusion_lon": 0.0}, {"is_reserved": 0, "type": "electric_scooter", "fusion_lat": 0.0, "is_disabled": 0, "rental_uris": {"ios": "https://dc.lft.to/lastmile_qr_scan", "android": "https://dc.lft.to/lastmile_qr_scan"}, "bike_id": "71805303ce5ff7c20d30ad1319b24572", "lat": 38.908687, "name": "71805303ce5ff7c20d30ad1319b24572", "lon": -77.02363583333333, "fusion_lon": 0.0}, {"is_reserved": 0, "type": "electric_scooter", "fusion_lat": 0.0, "is_disabled": 0, "rental_uris": {"ios": "https://dc.lft.to/lastmile_qr_scan", "android": "https://dc.lft.to/lastmile_qr_scan"}, "bike_id": "55bc2fdd26bb04df3167b40b8026001b", "lat": 38.9219635, "name": "55bc2fdd26bb04df3167b40b8026001b", "lon": -77.02037966666667, "fusion_lon": 0.0}, {"is_reserved": 0, "type": "electric_scooter", "fusion_lat": 0.0, "is_disabled": 0, "rental_uris": {"ios": "https://dc.lft.to/lastmile_qr_scan", "android": "https://dc.lft.to/lastmile_qr_scan"}, "bike_id": "7f611d32888e1199a1b37deed52ab4b4", "lat": 38.927533833333335, "name": "7f611d32888e1199a1b37deed52ab4b4", "lon": -77.0525705, "fusion_lon": 0.0}, {"is_reserved": 0, "type": "electric_scooter", "fusion_lat": 0.0, "is_disabled": 0, "rental_uris": {"ios": "https://dc.lft.to/lastmile_qr_scan", "android": "https://dc.lft.to/lastmile_qr_scan"}, "bike_id": "ad8c5beecf243bc367a1d2fb01469be1", "lat": 38.88619833333333, "name": "ad8c5beecf243bc367a1d2fb01469be1", "lon": -76.9263655, "fusion_lon": 0.0}, {"is_reserved": 0, "type": "electric_scooter", "fusion_lat": 0.0, "is_disabled": 0, "rental_uris": {"ios": "https://dc.lft.to/lastmile_qr_scan", "android": "https://dc.lft.to/lastmile_qr_scan"}, "bike_id": "746cb0ac1d9e6721002ede632560a64a", "lat": 38.905666333333336, "name": "746cb0ac1d9e6721002ede632560a64a", "lon": -77.04342933333334, "fusion_lon": 0.0}, {"is_reserved": 0, "type": "electric_scooter", "fusion_lat": 0.0, "is_disabled": 0, "rental_uris": {"ios": "https://dc.lft.to/lastmile_qr_scan", "android": "https://dc.lft.to/lastmile_qr_scan"}, "bike_id": "981e9f91972b1434f0881d49b9bbc530", "lat": 38.8737525, "name": "981e9f91972b1434f0881d49b9bbc530", "lon": -77.00132433333333, "fusion_lon": 0.0}, {"is_reserved": 0, "type": "electric_scooter", "fusion_lat": 0.0, "is_disabled": 0, "rental_uris": {"ios": "https://dc.lft.to/lastmile_qr_scan", "android": "https://dc.lft.to/lastmile_qr_scan"}, "bike_id": "39c5a91860deb6f94c4608b12dbc8e34", "lat": 38.87652033333333, "name": "39c5a91860deb6f94c4608b12dbc8e34", "lon": -77.00572683333333, "fusion_lon": 0.0}, {"is_reserved": 0, "type": "electric_scooter", "fusion_lat": 0.0, "is_disabled": 0, "rental_uris": {"ios": "https://dc.lft.to/lastmile_qr_scan", "android": "https://dc.lft.to/lastmile_qr_scan"}, "bike_id": "e99cd74bd5976ccba8695ad84c3228c5", "lat": 38.88448483333333, "name": "e99cd74bd5976ccba8695ad84c3228c5", "lon": -77.02383766666667, "fusion_lon": 0.0}, {"is_reserved": 0, "type": "electric_scooter", "fusion_lat": 0.0, "is_disabled": 0, "rental_uris": {"ios": "https://dc.lft.to/lastmile_qr_scan", "android": "https://dc.lft.to/lastmile_qr_scan"}, "bike_id": "b4b047c4a4bd45f587b82af90deb345e", "lat": 38.89834116666667, "name": "b4b047c4a4bd45f587b82af90deb345e", "lon": -76.99623783333334, "fusion_lon": 0.0}, {"is_reserved": 0, "type": "electric_scooter", "fusion_lat": 0.0, "is_disabled": 0, "rental_uris": {"ios": "https://dc.lft.to/lastmile_qr_scan", "android": "https://dc.lft.to/lastmile_qr_scan"}, "bike_id": "7b3fd17a59787dcc863e16e077bee0d1", "lat": 38.92977233333333, "name": "7b3fd17a59787dcc863e16e077bee0d1", "lon": -77.05507333333334, "fusion_lon": 0.0}, {"is_reserved": 0, "type": "electric_scooter", "fusion_lat": 0.0, "is_disabled": 0, "rental_uris": {"ios": "https://dc.lft.to/lastmile_qr_scan", "android": "https://dc.lft.to/lastmile_qr_scan"}, "bike_id": "578653ffe8b54d1a8cd96509f6d7efc8", "lat": 38.89195683333333, "name": "578653ffe8b54d1a8cd96509f6d7efc8", "lon": -77.02123766666666, "fusion_lon": 0.0}, {"is_reserved": 0, "type": "electric_scooter", "fusion_lat": 0.0, "is_disabled": 0, "rental_uris": {"ios": "https://dc.lft.to/lastmile_qr_scan", "android": "https://dc.lft.to/lastmile_qr_scan"}, "bike_id": "c4af4997326143241ffd564208f14359", "lat": 38.95585283333333, "name": "c4af4997326143241ffd564208f14359", "lon": -77.01786716666666, "fusion_lon": 0.0}, {"is_reserved": 0, "type": "electric_scooter", "fusion_lat": 0.0, "is_disabled": 0, "rental_uris": {"ios": "https://dc.lft.to/lastmile_qr_scan", "android": "https://dc.lft.to/lastmile_qr_scan"}, "bike_id": "eb2b6b627258046ca3a7e210d7bcb83d", "lat": 38.934639833333335, "name": "eb2b6b627258046ca3a7e210d7bcb83d", "lon": -77.0276695, "fusion_lon": 0.0}, {"is_reserved": 0, "type": "electric_scooter", "fusion_lat": 0.0, "is_disabled": 0, "rental_uris": {"ios": "https://dc.lft.to/lastmile_qr_scan", "android": "https://dc.lft.to/lastmile_qr_scan"}, "bike_id": "56a9203eb6ebb7bcc66843f408dd009d", "lat": 38.909453666666664, "name": "56a9203eb6ebb7bcc66843f408dd009d", "lon": -77.044175, "fusion_lon": 0.0}, {"is_reserved": 0, "type": "electric_bike", "fusion_lat": 0.0, "is_disabled": 0, "rental_uris": {"ios": "https://dc.lft.to/lastmile_qr_scan", "android": "https://dc.lft.to/lastmile_qr_scan"}, "bike_id": "11bda998a592868f75e7512b664da2cd", "lat": 39.026464, "name": "11bda998a592868f75e7512b664da2cd", "lon": -77.03685633333333, "fusion_lon": 0.0}, {"is_reserved": 0, "type": "electric_scooter", "fusion_lat": 0.0, "is_disabled": 0, "rental_uris": {"ios": "https://dc.lft.to/lastmile_qr_scan", "android": "https://dc.lft.to/lastmile_qr_scan"}, "bike_id": "657254089c8e2933899f969c04d0d642", "lat": 38.904092, "name": "657254089c8e2933899f969c04d0d642", "lon": -77.03248, "fusion_lon": 0.0}, {"is_reserved": 0, "type": "electric_scooter", "fusion_lat": 0.0, "is_disabled": 0, "rental_uris": {"ios": "https://dc.lft.to/lastmile_qr_scan", "android": "https://dc.lft.to/lastmile_qr_scan"}, "bike_id": "e6d931edb7635385c2ca6a5ce718b628", "lat": 38.9278975, "name": "e6d931edb7635385c2ca6a5ce718b628", "lon": -77.0314835, "fusion_lon": 0.0}, {"is_reserved": 0, "type": "electric_scooter", "fusion_lat": 0.0, "is_disabled": 0, "rental_uris": {"ios": "https://dc.lft.to/lastmile_qr_scan", "android": "https://dc.lft.to/lastmile_qr_scan"}, "bike_id": "af88b2de503007530a2e184da7d41cda", "lat": 38.89503533333333, "name": "af88b2de503007530a2e184da7d41cda", "lon": -77.02281866666667, "fusion_lon": 0.0}, {"is_reserved": 0, "type": "electric_scooter", "fusion_lat": 0.0, "is_disabled": 0, "rental_uris": {"ios": "https://dc.lft.to/lastmile_qr_scan", "android": "https://dc.lft.to/lastmile_qr_scan"}, "bike_id": "68beb44978538decdd1b53b29d6ae7c4", "lat": 38.898748499999996, "name": "68beb44978538decdd1b53b29d6ae7c4", "lon": -77.046502, "fusion_lon": 0.0}, {"is_reserved": 0, "type": "electric_scooter", "fusion_lat": 0.0, "is_disabled": 0, "rental_uris": {"ios": "https://dc.lft.to/lastmile_qr_scan", "android": "https://dc.lft.to/lastmile_qr_scan"}, "bike_id": "7c73e16579e8333cb12382205e373f3d", "lat": 38.929765833333335, "name": "7c73e16579e8333cb12382205e373f3d", "lon": -77.02964, "fusion_lon": 0.0}, {"is_reserved": 0, "type": "electric_scooter", "fusion_lat": 0.0, "is_disabled": 0, "rental_uris": {"ios": "https://dc.lft.to/lastmile_qr_scan", "android": "https://dc.lft.to/lastmile_qr_scan"}, "bike_id": "441679086c9c27c053deb20892e3eba2", "lat": 38.8867335, "name": "441679086c9c27c053deb20892e3eba2", "lon": -76.99713616666666, "fusion_lon": 0.0}, {"is_reserved": 0, "type": "electric_scooter", "fusion_lat": 0.0, "is_disabled": 0, "rental_uris": {"ios": "https://dc.lft.to/lastmile_qr_scan", "android": "https://dc.lft.to/lastmile_qr_scan"}, "bike_id": "5cbb007cc60ac2a3c84d1cc2ea1a4e3d", "lat": 38.9128905, "name": "5cbb007cc60ac2a3c84d1cc2ea1a4e3d", "lon": -77.0317725, "fusion_lon": 0.0}, {"is_reserved": 0, "type": "electric_scooter", "fusion_lat": 0.0, "is_disabled": 0, "rental_uris": {"ios": "https://dc.lft.to/lastmile_qr_scan", "android": "https://dc.lft.to/lastmile_qr_scan"}, "bike_id": "c476f98a5caac14da282ba05b6c6cd6d", "lat": 38.9311195, "name": "c476f98a5caac14da282ba05b6c6cd6d", "lon": -77.02343966666666, "fusion_lon": 0.0}, {"is_reserved": 0, "type": "electric_scooter", "fusion_lat": 0.0, "is_disabled": 0, "rental_uris": {"ios": "https://dc.lft.to/lastmile_qr_scan", "android": "https://dc.lft.to/lastmile_qr_scan"}, "bike_id": "94812349f590e6ca6044610d227e82bd", "lat": 38.89520483333333, "name": "94812349f590e6ca6044610d227e82bd", "lon": -77.021997, "fusion_lon": 0.0}, {"is_reserved": 0, "type": "electric_scooter", "fusion_lat": 0.0, "is_disabled": 0, "rental_uris": {"ios": "https://dc.lft.to/lastmile_qr_scan", "android": "https://dc.lft.to/lastmile_qr_scan"}, "bike_id": "230880b7ae9c6627fa498fa24ae8b3d7", "lat": 38.876642333333336, "name": "230880b7ae9c6627fa498fa24ae8b3d7", "lon": -77.003109, "fusion_lon": 0.0}, {"is_reserved": 0, "type": "electric_scooter", "fusion_lat": 0.0, "is_disabled": 0, "rental_uris": {"ios": "https://dc.lft.to/lastmile_qr_scan", "android": "https://dc.lft.to/lastmile_qr_scan"}, "bike_id": "29ec77564ab18db7fa7c6a830ff1d2a4", "lat": 38.9174225, "name": "29ec77564ab18db7fa7c6a830ff1d2a4", "lon": -77.0108575, "fusion_lon": 0.0}, {"is_reserved": 0, "type": "electric_bike", "fusion_lat": 0.0, "is_disabled": 0, "rental_uris": {"ios": "https://dc.lft.to/lastmile_qr_scan", "android": "https://dc.lft.to/lastmile_qr_scan"}, "bike_id": "fdecf2dfffa645b54b81d38ac7abbace", "lat": 38.83577833333333, "name": "fdecf2dfffa645b54b81d38ac7abbace", "lon": -76.99029116666667, "fusion_lon": 0.0}, {"is_reserved": 0, "type": "electric_bike", "fusion_lat": 0.0, "is_disabled": 0, "rental_uris": {"ios": "https://dc.lft.to/lastmile_qr_scan", "android": "https://dc.lft.to/lastmile_qr_scan"}, "bike_id": "7a6036a79cdfbdfb0c250472580a3663", "lat": 38.91449383333333, "name": "7a6036a79cdfbdfb0c250472580a3663", "lon": -76.9728065, "fusion_lon": 0.0}, {"is_reserved": 0, "type": "electric_scooter", "fusion_lat": 0.0, "is_disabled": 0, "rental_uris": {"ios": "https://dc.lft.to/lastmile_qr_scan", "android": "https://dc.lft.to/lastmile_qr_scan"}, "bike_id": "e3dcd14282a83e5379345aec38127a63", "lat": 38.93329333333333, "name": "e3dcd14282a83e5379345aec38127a63", "lon": -77.02898666666667, "fusion_lon": 0.0}, {"is_reserved": 0, "type": "electric_bike", "fusion_lat": 0.0, "is_disabled": 0, "rental_uris": {"ios": "https://dc.lft.to/lastmile_qr_scan", "android": "https://dc.lft.to/lastmile_qr_scan"}, "bike_id": "ce10c3645688a63fe10dc16855496d89", "lat": 38.85086883333334, "name": "ce10c3645688a63fe10dc16855496d89", "lon": -76.98158716666667, "fusion_lon": 0.0}, {"is_reserved": 0, "type": "electric_scooter", "fusion_lat": 0.0, "is_disabled": 0, "rental_uris": {"ios": "https://dc.lft.to/lastmile_qr_scan", "android": "https://dc.lft.to/lastmile_qr_scan"}, "bike_id": "027552e1a24de27951473327d629a34a", "lat": 38.89645983333333, "name": "027552e1a24de27951473327d629a34a", "lon": -77.02734416666667, "fusion_lon": 0.0},