{"data": {"bikes": [{"bike_id": "a63ab8a1352ba0393516d2fef5a7eae2", "lat": 38.919287833333335, "is_disabled": 0, "lon": -77.0707665, "fusion_lon": 0.0, "is_reserved": 0, "fusion_lat": 0.0, "rental_uris": {"android": "https://dc.lft.to/lastmile_qr_scan", "ios": "https://dc.lft.to/lastmile_qr_scan"}, "type": "electric_scooter", "name": "a63ab8a1352ba0393516d2fef5a7eae2"}, {"bike_id": "a57e051d767992fa9c49f810a9a91e16", "lat": 38.91454433333333, "is_disabled": 0, "lon": -77.02197766666667, "fusion_lon": 0.0, "is_reserved": 0, "fusion_lat": 0.0, "rental_uris": {"android": "https://dc.lft.to/lastmile_qr_scan", "ios": "https://dc.lft.to/lastmile_qr_scan"}, "type": "electric_scooter", "name": "a57e051d767992fa9c49f810a9a91e16"}, {"bike_id": "b9cbddc74811ea786e1e7867f898d090", "lat": 38.8965625, "is_disabled": 0, "lon": -77.03374666666667, "fusion_lon": 0.0, "is_reserved": 0, "fusion_lat": 0.0, "rental_uris": {"android": "https://dc.lft.to/lastmile_qr_scan", "ios": "https://dc.lft.to/lastmile_qr_scan"}, "type": "electric_scooter", "name": "b9cbddc74811ea786e1e7867f898d090"}, {"bike_id": "14431bb76b0ac62adf42af21547102a5", "lat": 38.920998166666664, "is_disabled": 0, "lon": -77.03182033333333, "fusion_lon": 0.0, "is_reserved": 0, "fusion_lat": 0.0, "rental_uris": {"android": "https://dc.lft.to/lastmile_qr_scan", "ios": "https://dc.lft.to/lastmile_qr_scan"}, "type": "electric_scooter", "name": "14431bb76b0ac62adf42af21547102a5"}, {"bike_id": "2fb946ee910239c309e336adc2ed8d90", "lat": 38.8984975, "is_disabled": 0, "lon": -77.03923166666667, "fusion_lon": 0.0, "is_reserved": 0, "fusion_lat": 0.0, "rental_uris": {"android": "https://dc.lft.to/lastmile_qr_scan", "ios": "https://dc.lft.to/lastmile_qr_scan"}, "type": "electric_scooter", "name": "2fb946ee910239c309e336adc2ed8d90"}, {"bike_id": "dcacaf3706958c79c2236868d5681906", "lat": 38.892197833333334, "is_disabled": 0, "lon": -77.0237305, "fusion_lon": 0.0, "is_reserved": 0, "fusion_lat": 0.0, "rental_uris": {"android": "https://dc.lft.to/lastmile_qr_scan", "ios": "https://dc.lft.to/lastmile_qr_scan"}, "type": "electric_scooter", "name": "dcacaf3706958c79c2236868d5681906"}, {"bike_id": "dc55650eb25060a8cf359fde0d30dad6", "lat": 38.903697333333334, "is_disabled": 0, "lon": -77.03191633333333, "fusion_lon": 0.0, "is_reserved": 0, "fusion_lat": 0.0, "rental_uris": {"android": "https://dc.lft.to/lastmile_qr_scan", "ios": "https://dc.lft.to/lastmile_qr_scan"}, "type": "electric_scooter", "name": "dc55650eb25060a8cf359fde0d30dad6"}, {"bike_id": "a998df90619899f50ab68cc9278a9101", "lat": 38.8791965, "is_disabled": 0, "lon": -76.943272, "fusion_lon": 0.0, "is_reserved": 0, "fusion_lat": 0.0, "rental_uris": {"android": "https://dc.lft.to/lastmile_qr_scan", "ios": "https://dc.lft.to/lastmile_qr_scan"}, "type": "electric_scooter", "name": "a998df90619899f50ab68cc9278a9101"}, {"bike_id": "7d48ee15c2601068e0519a20bdc96711", "lat": 38.90047833333333, "is_disabled": 0, "lon": -76.99840616666667, "fusion_lon": 0.0, "is_reserved": 0, "fusion_lat": 0.0, "rental_uris": {"android": "https://dc.lft.to/lastmile_qr_scan", "ios": "https://dc.lft.to/lastmile_qr_scan"}, "type": "electric_scooter", "name": "7d48ee15c2601068e0519a20bdc96711"}, {"bike_id": "6ed3b0150907cfee78a9b9367f6c5736", "lat": 38.92455366666667, "is_disabled": 0, "lon": -77.04047016666667, "fusion_lon": 0.0, "is_reserved": 0, "fusion_lat": 0.0, "rental_uris": {"android": "https://dc.lft.to/lastmile_qr_scan", "ios": "https://dc.lft.to/lastmile_qr_scan"}, "type": "electric_scooter", "name": "6ed3b0150907cfee78a9b9367f6c5736"}, {"bike_id": "118a8b3e557121d44d203b69f6d28c04", "lat": 38.806438166666666, "is_disabled": 0, "lon": -77.062563, "fusion_lon": 0.0, "is_reserved": 0, "fusion_lat": 0.0, "rental_uris": {"android": "https://dc.lft.to/lastmile_qr_scan", "ios": "https://dc.lft.to/lastmile_qr_scan"}, "type": "electric_bike", "name": "118a8b3e557121d44d203b69f6d28c04"}, {"bike_id": "221534486f56670fa7dc1489e7a0ec98", "lat": 38.900238333333334, "is_disabled": 0, "lon": -77.0116985, "fusion_lon": 0.0, "is_reserved": 0, "fusion_lat": 0.0, "rental_uris": {"android": "https://dc.lft.to/lastmile_qr_scan", "ios": "https://dc.lft.to/lastmile_qr_scan"}, "type": "electric_scooter", "name": "221534486f56670fa7dc1489e7a0ec98"}, {"bike_id": "36f9f5210456c821ecfe65159f62c34b", "lat": 38.9296585, "is_disabled": 0, "lon": -77.02526833333333, "fusion_lon": 0.0, "is_reserved": 0, "fusion_lat": 0.0, "rental_uris": {"android": "https://dc.lft.to/lastmile_qr_scan", "ios": "https://dc.lft.to/lastmile_qr_scan"}, "type": "electric_scooter", "name": "36f9f5210456c821ecfe65159f62c34b"}, {"bike_id": "ca412f666f0abebb25b2e976143cb68d", "lat": 38.918393, "is_disabled": 0, "lon": -77.04015066666666, "fusion_lon": 0.0, "is_reserved": 0, "fusion_lat": 0.0, "rental_uris": {"android": "https://dc.lft.to/lastmile_qr_scan", "ios": "https://dc.lft.to/lastmile_qr_scan"}, "type": "electric_scooter", "name": "ca412f666f0abebb25b2e976143cb68d"}, {"bike_id": "b9f6e7819c5d96403df289453fa364bc", "lat": 38.9169, "is_disabled": 0, "lon": -77.02597516666667, "fusion_lon": 0.0, "is_reserved": 0, "fusion_lat": 0.0, "rental_uris": {"android": "https://dc.lft.to/lastmile_qr_scan", "ios": "https://dc.lft.to/lastmile_qr_scan"}, "type": "electric_scooter", "name": "b9f6e7819c5d96403df289453fa364bc"}, {"bike_id": "b26f056adc446878de5f80448b044da8", "lat": 38.89494466666667, "is_disabled": 0, "lon": -77.00207983333334, "fusion_lon": 0.0, "is_reserved": 0, "fusion_lat": 0.0, "rental_uris": {"android": "https://dc.lft.to/lastmile_qr_scan", "ios": "https://dc.lft.to/lastmile_qr_scan"}, "type": "electric_scooter", "name": "b26f056adc446878de5f80448b044da8"}, {"bike_id": "318e1300d1ab1ba19e2c3a2a60b72711", "lat": 38.887001833333336, "is_disabled": 0, "lon": -77.031864, "fusion_lon": 0.0, "is_reserved": 0, "fusion_lat": 0.0, "rental_uris": {"android": "https://dc.lft.to/lastmile_qr_scan", "ios": "https://dc.lft.to/lastmile_qr_scan"}, "type": "electric_scooter", "name": "318e1300d1ab1ba19e2c3a2a60b72711"}, {"bike_id": "75bbade5d6798435a2b638945034d0bf", "lat": 38.923397333333334, "is_disabled": 0, "lon": -77.0362795, "fusion_lon": 0.0, "is_reserved": 0, "fusion_lat": 0.0, "rental_uris": {"android": "https://dc.lft.to/lastmile_qr_scan", "ios": "https://dc.lft.to/lastmile_qr_scan"}, "type": "electric_scooter", "name": "75bbade5d6798435a2b638945034d0bf"}, {"bike_id": "a9ec6842258986ec16d97136e22b4f4a", "lat": 38.927923166666666, "is_disabled": 0, "lon": -77.0541445, "fusion_lon": 0.0, "is_reserved": 0, "fusion_lat": 0.0, "rental_uris": {"android": "https://dc.lft.to/lastmile_qr_scan", "ios": "https://dc.lft.to/lastmile_qr_scan"}, "type": "electric_scooter", "name": "a9ec6842258986ec16d97136e22b4f4a"}, {"bike_id": "50e2993fc6b83e24abe016afae62e48c", "lat": 38.9136145, "is_disabled": 0, "lon": -77.046574, "fusion_lon": 0.0, "is_reserved": 0, "fusion_lat": 0.0, "rental_uris": {"android": "https://dc.lft.to/lastmile_qr_scan", "ios": "https://dc.lft.to/lastmile_qr_scan"}, "type": "electric_scooter", "name": "50e2993fc6b83e24abe016afae62e48c"}, {"bike_id": "37c473b4224f2ca8ce8afe5f3519c275", "lat": 38.899175, "is_disabled": 0, "lon": -77.04187883333333, "fusion_lon": 0.0, "is_reserved": 0, "fusion_lat": 0.0, "rental_uris": {"android": "https://dc.lft.to/lastmile_qr_scan", "ios": "https://dc.lft.to/lastmile_qr_scan"}, "type": "electric_scooter", "name": "37c473b4224f2ca8ce8afe5f3519c275"}, {"bike_id": "15389708404e556f353f0ae41de516bc", "lat": 38.87658066666667, "is_disabled": 0, "lon": -77.0063, "fusion_lon": 0.0, "is_reserved": 0, "fusion_lat": 0.0, "rental_uris": {"android": "https://dc.lft.to/lastmile_qr_scan", "ios": "https://dc.lft.to/lastmile_qr_scan"}, "type": "electric_scooter", "name": "15389708404e556f353f0ae41de516bc"}, {"bike_id": "b52a9fada96b302e9d018a75d5b072a8", "lat": 38.92657833333333, "is_disabled": 0, "lon": -77.02715166666667, "fusion_lon": 0.0, "is_reserved": 0, "fusion_lat": 0.0, "rental_uris": {"android": "https://dc.lft.to/lastmile_qr_scan", "ios": "https://dc.lft.to/lastmile_qr_scan"}, "type": "electric_scooter", "name": "b52a9fada96b302e9d018a75d5b072a8"}, {"bike_id": "41a9de8cfd58d16242eda4e2b29647eb", "lat": 38.91012683333334, "is_disabled": 0, "lon": -77.04460466666667, "fusion_lon": 0.0, "is_reserved": 0, "fusion_lat": 0.0, "rental_uris": {"android": "https://dc.lft.to/lastmile_qr_scan", "ios": "https://dc.lft.to/lastmile_qr_scan"}, "type": "electric_scooter", "name": "41a9de8cfd58d16242eda4e2b29647eb"}, {"bike_id": "6cf86f63139dd4b34fa69def2f24e4da", "lat": 38.903989833333334, "is_disabled": 0, "lon": -77.0174515, "fusion_lon": 0.0, "is_reserved": 0, "fusion_lat": 0.0, "rental_uris": {"android": "https://dc.lft.to/lastmile_qr_scan", "ios": "https://dc.lft.to/lastmile_qr_scan"}, "type": "electric_scooter", "name": "6cf86f63139dd4b34fa69def2f24e4da"}, {"bike_id": "055716d42b09fccf09c0314cb69d9fd3", "lat": 38.93331833333333, "is_disabled": 0, "lon": -77.038075, "fusion_lon": 0.0, "is_reserved": 0, "fusion_lat": 0.0, "rental_uris": {"android": "https://dc.lft.to/lastmile_qr_scan", "ios": "https://dc.lft.to/lastmile_qr_scan"}, "type": "electric_scooter", "name": "055716d42b09fccf09c0314cb69d9fd3"}, {"bike_id": "abd39ee4d14c3367b46ed65da5ed93f1", "lat": 38.916265333333335, "is_disabled": 0, "lon": -77.0321315, "fusion_lon": 0.0, "is_reserved": 0, "fusion_lat": 0.0, "rental_uris": {"android": "https://dc.lft.to/lastmile_qr_scan", "ios": "https://dc.lft.to/lastmile_qr_scan"}, "type": "electric_scooter", "name": "abd39ee4d14c3367b46ed65da5ed93f1"}, {"bike_id": "929ac2f5226da72eef149394bcbeacf5", "lat": 38.90094916666666, "is_disabled": 0, "lon": -77.01620133333333, "fusion_lon": 0.0, "is_reserved": 0, "fusion_lat": 0.0, "rental_uris": {"android": "https://dc.lft.to/lastmile_qr_scan", "ios": "https://dc.lft.to/lastmile_qr_scan"}, "type": "electric_bike", "name": "929ac2f5226da72eef149394bcbeacf5"}, {"bike_id": "5c9eed4bec7f4cd290b4cee17b7434c7", "lat": 38.893499166666665, "is_disabled": 0, "lon": -76.95231716666666, "fusion_lon": 0.0, "is_reserved": 0, "fusion_lat": 0.0, "rental_uris": {"android": "https://dc.lft.to/lastmile_qr_scan", "ios": "https://dc.lft.to/lastmile_qr_scan"}, "type": "electric_scooter", "name": "5c9eed4bec7f4cd290b4cee17b7434c7"}, {"bike_id": "1bed6668d58e91869b5441ba94a984e9", "lat": 38.89726433333333, "is_disabled": 0, "lon": -77.019163, "fusion_lon": 0.0, "is_reserved": 0, "fusion_lat": 0.0, "rental_uris": {"android": "https://dc.lft.to/lastmile_qr_scan", "ios": "https://dc.lft.to/lastmile_qr_scan"}, "type": "electric_scooter", "name": "1bed6668d58e91869b5441ba94a984e9"}, {"bike_id": "3196200535d460f889e87e95ae25ced0", "lat": 38.9126255, "is_disabled": 0, "lon": -77.04156783333333, "fusion_lon": 0.0, "is_reserved": 0, "fusion_lat": 0.0, "rental_uris": {"android": "https://dc.lft.to/lastmile_qr_scan", "ios": "https://dc.lft.to/lastmile_qr_scan"}, "type": "electric_scooter", "name": "3196200535d460f889e87e95ae25ced0"}, {"bike_id": "7ae90da1758c89ade87a6067f905c89c", "lat": 38.9043885, "is_disabled": 0, "lon": -77.0580075, "fusion_lon": 0.0, "is_reserved": 0, "fusion_lat": 0.0, "rental_uris": {"android": "https://dc.lft.to/lastmile_qr_scan", "ios": "https://dc.lft.to/lastmile_qr_scan"}, "type": "electric_scooter", "name": "7ae90da1758c89ade87a6067f905c89c"}, {"bike_id": "18cd3dc161a780cc5fadb1d7f447c2cf", "lat": 38.93565666666667, "is_disabled": 0, "lon": -77.106103, "fusion_lon": 0.0, "is_reserved": 0, "fusion_lat": 0.0, "rental_uris": {"android": "https://dc.lft.to/lastmile_qr_scan", "ios": "https://dc.lft.to/lastmile_qr_scan"}, "type": "electric_bike", "name": "18cd3dc161a780cc5fadb1d7f447c2cf"}, {"bike_id": "56c381eff1e63a3f31ce8c9f7e7a9a31", "lat": 38.893460833333336, "is_disabled": 0, "lon": -76.99261016666667, "fusion_lon": 0.0, "is_reserved": 0, "fusion_lat": 0.0, "rental_uris": {"android": "https://dc.lft.to/lastmile_qr_scan", "ios": "https://dc.lft.to/lastmile_qr_scan"}, "type": "electric_bike", "name": "56c381eff1e63a3f31ce8c9f7e7a9a31"}, {"bike_id": "4e69ddd03ca69db2e1368e124f2b4c76", "lat": 38.84680183333333, "is_disabled": 0, "lon": -76.98271533333333, "fusion_lon": 0.0, "is_reserved": 0, "fusion_lat": 0.0, "rental_uris": {"android": "https://dc.lft.to/lastmile_qr_scan", "ios": "https://dc.lft.to/lastmile_qr_scan"}, "type": "electric_bike", "name": "4e69ddd03ca69db2e1368e124f2b4c76"}, {"bike_id": "90f5e851963e2a7b26e9296a73debbe1", "lat": 38.919465833333334, "is_disabled": 0, "lon": -77.01797016666667, "fusion_lon": 0.0, "is_reserved": 0, "fusion_lat": 0.0, "rental_uris": {"android": "https://dc.lft.to/lastmile_qr_scan", "ios": "https://dc.lft.to/lastmile_qr_scan"}, "type": "electric_scooter", "name": "90f5e851963e2a7b26e9296a73debbe1"}, {"bike_id": "5adacae7328663b8d33cf716dc729b9a", "lat": 38.9721555, "is_disabled": 0, "lon": -77.03336016666667, "fusion_lon": 0.0, "is_reserved": 0, "fusion_lat": 0.0, "rental_uris": {"android": "https://dc.lft.to/lastmile_qr_scan", "ios": "https://dc.lft.to/lastmile_qr_scan"}, "type": "electric_scooter", "name": "5adacae7328663b8d33cf716dc729b9a"}, {"bike_id": "fe953eeaaa24ba64b79ac08909ed1ca9", "lat": 38.918157666666666, "is_disabled": 0, "lon": -77.03262583333333, "fusion_lon": 0.0, "is_reserved": 0, "fusion_lat": 0.0, "rental_uris": {"android": "https://dc.lft.to/lastmile_qr_scan", "ios": "https://dc.lft.to/lastmile_qr_scan"}, "type": "electric_scooter", "name": "fe953eeaaa24ba64b79ac08909ed1ca9"}, {"bike_id": "91714c47d9b9176bad9c1efe6dfa69e1", "lat": 38.915694, "is_disabled": 0, "lon": -77.03177233333334, "fusion_lon": 0.0, "is_reserved": 0, "fusion_lat": 0.0, "rental_uris": {"android": "https://dc.lft.to/lastmile_qr_scan", "ios": "https://dc.lft.to/lastmile_qr_scan"}, "type": "electric_scooter", "name": "91714c47d9b9176bad9c1efe6dfa69e1"}, {"bike_id": "dcf132c6a68f36733df399023d8b14de", "lat": 38.8666715, "is_disabled": 0, "lon": -76.98372733333333, "fusion_lon": 0.0, "is_reserved": 0, "fusion_lat": 0.0, "rental_uris": {"android": "https://dc.lft.to/lastmile_qr_scan", "ios": "https://dc.lft.to/lastmile_qr_scan"}, "type": "electric_scooter", "name": "dcf132c6a68f36733df399023d8b14de"}, {"bike_id": "caf924818afadd5bb2b2b5a8cef3e7fd", "lat": 38.90626433333333, "is_disabled": 0, "lon": -77.05155383333333, "fusion_lon": 0.0, "is_reserved": 0, "fusion_lat": 0.0, "rental_uris": {"android": "https://dc.lft.to/lastmile_qr_scan", "ios": "https://dc.lft.to/lastmile_qr_scan"}, "type": "electric_scooter", "name": "caf924818afadd5bb2b2b5a8cef3e7fd"}, {"bike_id": "bbd351eb7ad150e0f49e5bfe0290c6b8", "lat": 38.92081916666667, "is_disabled": 0, "lon": -77.02515733333334, "fusion_lon": 0.0, "is_reserved": 0, "fusion_lat": 0.0, "rental_uris": {"android": "https://dc.lft.to/lastmile_qr_scan", "ios": "https://dc.lft.to/lastmile_qr_scan"}, "type": "electric_scooter", "name": "bbd351eb7ad150e0f49e5bfe0290c6b8"}, {"bike_id": "7642f81728a766c9cb074faebb79a127", "lat": 38.900457333333335, "is_disabled": 0, "lon": -77.037118, "fusion_lon": 0.0, "is_reserved": 0, "fusion_lat": 0.0, "rental_uris": {"android": "https://dc.lft.to/lastmile_qr_scan", "ios": "https://dc.lft.to/lastmile_qr_scan"}, "type": "electric_scooter", "name": "7642f81728a766c9cb074faebb79a127"}, {"bike_id": "464954e1ae49e0f98a2afe21020412e8", "lat": 38.9843105, "is_disabled": 0, "lon": -77.02672833333334, "fusion_lon": 0.0, "is_reserved": 0, "fusion_lat": 0.0, "rental_uris": {"android": "https://dc.lft.to/lastmile_qr_scan", "ios": "https://dc.lft.to/lastmile_qr_scan"}, "type": "electric_scooter", "name": "464954e1ae49e0f98a2afe21020412e8"}, {"bike_id": "6b0323634459d858aacd0c3306ab09ef", "lat": 38.893384166666664, "is_disabled": 0, "lon": -76.99158283333334, "fusion_lon": 0.0, "is_reserved": 0, "fusion_lat": 0.0, "rental_uris": {"android": "https://dc.lft.to/lastmile_qr_scan", "ios": "https://dc.lft.to/lastmile_qr_scan"}, "type": "electric_scooter", "name": "6b0323634459d858aacd0c3306ab09ef"}, {"bike_id": "718a601281da707289cd078672c2dfd0", "lat": 38.94196733333333, "is_disabled": 0, "lon": -77.033248, "fusion_lon": 0.0, "is_reserved": 0, "fusion_lat": 0.0, "rental_uris": {"android": "https://dc.lft.to/lastmile_qr_scan", "ios": "https://dc.lft.to/lastmile_qr_scan"}, "type": "electric_scooter", "name": "718a601281da707289cd078672c2dfd0"}, {"bike_id": "a11821f7626ffc984d58e24b83911630", "lat": 38.909737166666666, "is_disabled": 0, "lon": -77.0385885, "fusion_lon": 0.0, "is_reserved": 0, "fusion_lat": 0.0, "rental_uris": {"android": "https://dc.lft.to/lastmile_qr_scan", "ios": "https://dc.lft.to/lastmile_qr_scan"}, "type": "electric_scooter", "name": "a11821f7626ffc984d58e24b83911630"}, {"bike_id": "6adb5c1f0a42e05e873fad5b79b6005a", "lat": 38.892165166666665, "is_disabled": 0, "lon": -77.04866233333334, "fusion_lon": 0.0, "is_reserved": 0, "fusion_lat": 0.0, "rental_uris": {"android": "https://dc.lft.to/lastmile_qr_scan", "ios": "https://dc.lft.to/lastmile_qr_scan"}, "type": "electric_scooter", "name": "6adb5c1f0a42e05e873fad5b79b6005a"}, {"bike_id": "e081967528c3470a308a3528048cfe08", "lat": 38.879158333333336, "is_disabled": 0, "lon": -77.00783933333334, "fusion_lon": 0.0, "is_reserved": 0, "fusion_lat": 0.0, "rental_uris": {"android": "https://dc.lft.to/lastmile_qr_scan", "ios": "https://dc.lft.to/lastmile_qr_scan"}, "type": "electric_scooter", "name": "e081967528c3470a308a3528048cfe08"}, {"bike_id": "5bcb939334fbcc0750b4e1c15af35910", "lat": 38.9074825, "is_disabled": 0, "lon": -77.00391733333333, "fusion_lon": 0.0, "is_reserved": 0, "fusion_lat": 0.0, "rental_uris": {"android": "https://dc.lft.to/lastmile_qr_scan", "ios": "https://dc.lft.to/lastmile_qr_scan"}, "type": "electric_scooter", "name": "5bcb939334fbcc0750b4e1c15af35910"}, {"bike_id": "289e817b09abd2eea36d0672e6f97737", "lat": 38.937440333333335, "is_disabled": 0, "lon": -77.06868966666667, "fusion_lon": 0.0, "is_reserved": 0, "fusion_lat": 0.0, "rental_uris": {"android": "https://dc.lft.to/lastmile_qr_scan", "ios": "https://dc.lft.to/lastmile_qr_scan"}, "type": "electric_scooter", "name": "289e817b09abd2eea36d0672e6f97737"}, {"bike_id": "ad52e61ee1d8a3f9b51f43016927f07c", "lat": 38.9246835, "is_disabled": 0, "lon": -77.03961083333333, "fusion_lon": 0.0, "is_reserved": 0, "fusion_lat": 0.0, "rental_uris": {"android": "https://dc.lft.to/lastmile_qr_scan", "ios": "https://dc.lft.to/lastmile_qr_scan"}, "type": "electric_scooter", "name": "ad52e61ee1d8a3f9b51f43016927f07c"}, {"bike_id": "d2c1e811b7f982a534bd6f980de4c63d", "lat": 38.842727333333336, "is_disabled": 0, "lon": -76.98837516666667, "fusion_lon": 0.0, "is_reserved": 0, "fusion_lat": 0.0, "rental_uris": {"android": "https://dc.lft.to/lastmile_qr_scan", "ios": "https://dc.lft.to/lastmile_qr_scan"}, "type": "electric_bike", "name": "d2c1e811b7f982a534bd6f980de4c63d"}, {"bike_id": "154dd5e822d14b7d17e2ecfa66682d43", "lat": 38.917415166666665, "is_disabled": 0, "lon": -77.0281245, "fusion_lon": 0.0, "is_reserved": 0, "fusion_lat": 0.0, "rental_uris": {"android": "https://dc.lft.to/lastmile_qr_scan", "ios": "https://dc.lft.to/lastmile_qr_scan"}, "type": "electric_scooter", "name": "154dd5e822d14b7d17e2ecfa66682d43"}, {"bike_id": "9019226d0c9a3941acec6e4301ed2aee", "lat": 38.927347166666664, "is_disabled": 0, "lon": -77.05249883333333, "fusion_lon": 0.0, "is_reserved": 0, "fusion_lat": 0.0, "rental_uris": {"android": "https://dc.lft.to/lastmile_qr_scan", "ios": "https://dc.lft.to/lastmile_qr_scan"}, "type": "electric_scooter", "name": "9019226d0c9a3941acec6e4301ed2aee"}, {"bike_id": "12d678f9786e978ce2b99c6922bc5c1f", "lat": 38.9156505, "is_disabled": 0, "lon": -77.03727816666667, "fusion_lon": 0.0, "is_reserved": 0, "fusion_lat": 0.0, "rental_uris": {"android": "https://dc.lft.to/lastmile_qr_scan", "ios": "https://dc.lft.to/lastmile_qr_scan"}, "type": "electric_scooter", "name": "12d678f9786e978ce2b99c6922bc5c1f"}, {"bike_id": "37d29f0c1c28a5fb4a6900c080e1055f", "lat": 38.905931833333334, "is_disabled": 0, "lon": -77.04733766666666, "fusion_lon": 0.0, "is_reserved": 0, "fusion_lat": 0.0, "rental_uris": {"android": "https://dc.lft.to/lastmile_qr_scan", "ios": "https://dc.lft.to/lastmile_qr_scan"}, "type": "electric_scooter", "name": "37d29f0c1c28a5fb4a6900c080e1055f"}, {"bike_id": "31ca0a28195b44e447e7b40ef8bda838", "lat": 38.79984683333333, "is_disabled": 0, "lon": -77.12980166666667, "fusion_lon": 0.0, "is_reserved": 0, "fusion_lat": 0.0, "rental_uris": {"android": "https://dc.lft.to/lastmile_qr_scan", "ios": "https://dc.lft.to/lastmile_qr_scan"}, "type": "electric_bike", "name": "31ca0a28195b44e447e7b40ef8bda838"}, {"bike_id": "61cabb78552757f80ca6b5d052b24614", "lat": 38.937330833333334, "is_disabled": 0, "lon": -77.03275283333333, "fusion_lon": 0.0, "is_reserved": 0, "fusion_lat": 0.0, "rental_uris": {"android": "https://dc.lft.to/lastmile_qr_scan", "ios": "https://dc.lft.to/lastmile_qr_scan"}, "type": "electric_scooter", "name": "61cabb78552757f80ca6b5d052b24614"}, {"bike_id": "a839df08a43b584aa331892af8de5f93", "lat": 38.876796166666665, "is_disabled": 0, "lon": -77.01786866666667, "fusion_lon": 0.0, "is_reserved": 0, "fusion_lat": 0.0, "rental_uris": {"android": "https://dc.lft.to/lastmile_qr_scan", "ios": "https://dc.lft.to/lastmile_qr_scan"}, "type": "electric_scooter", "name": "a839df08a43b584aa331892af8de5f93"}, {"bike_id": "778195c4d94ad227d6c8a976c16d8d3e", "lat": 38.92419816666666, "is_disabled": 0, "lon": -77.02028216666666, "fusion_lon": 0.0, "is_reserved": 0, "fusion_lat": 0.0, "rental_uris": {"android": "https://dc.lft.to/lastmile_qr_scan", "ios": "https://dc.lft.to/lastmile_qr_scan"}, "type": "electric_scooter", "name": "778195c4d94ad227d6c8a976c16d8d3e"}, {"bike_id": "348c71d73d77118078c2bf65432d0f5e", "lat": 38.9199205, "is_disabled": 0, "lon": -77.032142, "fusion_lon": 0.0, "is_reserved": 0, "fusion_lat": 0.0, "rental_uris": {"android": "https://dc.lft.to/lastmile_qr_scan", "ios": "https://dc.lft.to/lastmile_qr_scan"}, "type": "electric_scooter", "name": "348c71d73d77118078c2bf65432d0f5e"}, {"bike_id": "51a725f18d0246b272d0ee3b3df54a6f", "lat": 38.934659833333335, "is_disabled": 0, "lon": -77.04129716666667, "fusion_lon": 0.0, "is_reserved": 0, "fusion_lat": 0.0, "rental_uris": {"android": "https://dc.lft.to/lastmile_qr_scan", "ios": "https://dc.lft.to/lastmile_qr_scan"}, "type": "electric_scooter", "name": "51a725f18d0246b272d0ee3b3df54a6f"}, {"bike_id": "a8afc43dc4234441f9334399bd33693c", "lat": 38.8989295, "is_disabled": 0, "lon": -77.02161683333334, "fusion_lon": 0.0, "is_reserved": 0, "fusion_lat": 0.0, "rental_uris": {"android": "https://dc.lft.to/lastmile_qr_scan", "ios": "https://dc.lft.to/lastmile_qr_scan"}, "type": "electric_scooter", "name": "a8afc43dc4234441f9334399bd33693c"}, {"bike_id": "e36a96ab09ca4667d965f7bdacff044f", "lat": 38.90547983333333, "is_disabled": 0, "lon": -77.0397055, "fusion_lon": 0.0, "is_reserved": 0, "fusion_lat": 0.0, "rental_uris": {"android": "https://dc.lft.to/lastmile_qr_scan", "ios": "https://dc.lft.to/lastmile_qr_scan"}, "type": "electric_scooter", "name": "e36a96ab09ca4667d965f7bdacff044f"}, {"bike_id": "87be7fe092847132ea5d9af586d4908b", "lat": 38.90947466666667, "is_disabled": 0, "lon": -77.01635583333334, "fusion_lon": 0.0, "is_reserved": 0, "fusion_lat": 0.0, "rental_uris": {"android": "https://dc.lft.to/lastmile_qr_scan", "ios": "https://dc.lft.to/lastmile_qr_scan"}, "type": "electric_bike", "name": "87be7fe092847132ea5d9af586d4908b"}, {"bike_id": "0a0ec8a0062be339bacff01c7094c829", "lat": 38.90672083333333, "is_disabled": 0, "lon": -77.00604766666666, "fusion_lon": 0.0, "is_reserved": 0, "fusion_lat": 0.0, "rental_uris": {"android": "https://dc.lft.to/lastmile_qr_scan", "ios": "https://dc.lft.to/lastmile_qr_scan"}, "type": "electric_scooter", "name": "0a0ec8a0062be339bacff01c7094c829"}, {"bike_id": "5008c9121f7e7c2b45ffd45634d88e55", "lat": 38.909568166666666, "is_disabled": 0, "lon": -77.04460516666667, "fusion_lon": 0.0, "is_reserved": 0, "fusion_lat": 0.0, "rental_uris": {"android": "https://dc.lft.to/lastmile_qr_scan", "ios": "https://dc.lft.to/lastmile_qr_scan"}, "type": "electric_scooter", "name": "5008c9121f7e7c2b45ffd45634d88e55"}, {"bike_id": "cc3112a6ca2e17bed3c2cbabf239a55e", "lat": 38.91039266666667, "is_disabled": 0, "lon": -77.04553216666666, "fusion_lon": 0.0, "is_reserved": 0, "fusion_lat": 0.0, "rental_uris": {"android": "https://dc.lft.to/lastmile_qr_scan", "ios": "https://dc.lft.to/lastmile_qr_scan"}, "type": "electric_scooter", "name": "cc3112a6ca2e17bed3c2cbabf239a55e"}, {"bike_id": "3b6a4b02f827f0ec205daf94303fb3b8", "lat": 38.94478133333333, "is_disabled": 0, "lon": -76.986806, "fusion_lon": 0.0, "is_reserved": 0, "fusion_lat": 0.0, "rental_uris": {"android": "https://dc.lft.to/lastmile_qr_scan", "ios": "https://dc.lft.to/lastmile_qr_scan"}, "type": "electric_bike", "name": "3b6a4b02f827f0ec205daf94303fb3b8"}, {"bike_id": "512dacbed066bb9f16a85ee7d6980bc7", "lat": 38.91499433333333, "is_disabled": 0, "lon": -77.01217383333334, "fusion_lon": 0.0, "is_reserved": 0, "fusion_lat": 0.0, "rental_uris": {"android": "https://dc.lft.to/lastmile_qr_scan", "ios": "https://dc.lft.to/lastmile_qr_scan"}, "type": "electric_scooter", "name": "512dacbed066bb9f16a85ee7d6980bc7"}, {"bike_id": "9b6999ad10f6bf954a562f1745bcec10", "lat": 38.9036485, "is_disabled": 0, "lon": -77.00742833333334, "fusion_lon": 0.0, "is_reserved": 0, "fusion_lat": 0.0, "rental_uris": {"android": "https://dc.lft.to/lastmile_qr_scan", "ios": "https://dc.lft.to/lastmile_qr_scan"}, "type": "electric_scooter", "name": "9b6999ad10f6bf954a562f1745bcec10"}, {"bike_id": "d1e229332a383d66d88641ebe9770ece", "lat": 38.904660166666666, "is_disabled": 0, "lon": -77.0485315, "fusion_lon": 0.0, "is_reserved": 0, "fusion_lat": 0.0, "rental_uris": {"android": "https://dc.lft.to/lastmile_qr_scan", "ios": "https://dc.lft.to/lastmile_qr_scan"}, "type": "electric_scooter", "name": "d1e229332a383d66d88641ebe9770ece"}, {"bike_id": "daf5565de2d55fb2a569d3e3964d471b", "lat": 38.927651, "is_disabled": 0, "lon": -77.02320783333333, "fusion_lon": 0.0, "is_reserved": 0, "fusion_lat": 0.0, "rental_uris": {"android": "https://dc.lft.to/lastmile_qr_scan", "ios": "https://dc.lft.to/lastmile_qr_scan"}, "type": "electric_scooter", "name": "daf5565de2d55fb2a569d3e3964d471b"}, {"bike_id": "a29afa3af59b963cbe22f5455d2f2016", "lat": 38.865861333333335, "is_disabled": 0, "lon": -76.98048583333333, "fusion_lon": 0.0, "is_reserved": 0, "fusion_lat": 0.0, "rental_uris": {"android": "https://dc.lft.to/lastmile_qr_scan", "ios": "https://dc.lft.to/lastmile_qr_scan"}, "type": "electric_bike", "name": "a29afa3af59b963cbe22f5455d2f2016"}, {"bike_id": "d05f935a1f481da24765dce1399e7b51", "lat": 38.892233, "is_disabled": 0, "lon": -77.01386683333334, "fusion_lon": 0.0, "is_reserved": 0, "fusion_lat": 0.0, "rental_uris": {"android": "https://dc.lft.to/lastmile_qr_scan", "ios": "https://dc.lft.to/lastmile_qr_scan"}, "type": "electric_scooter", "name": "d05f935a1f481da24765dce1399e7b51"}, {"bike_id": "e526a12f068891cd7af6a90e33418275", "lat": 38.884241833333334, "is_disabled": 0, "lon": -76.95751683333333, "fusion_lon": 0.0, "is_reserved": 0, "fusion_lat": 0.0, "rental_uris": {"android": "https://dc.lft.to/lastmile_qr_scan", "ios": "https://dc.lft.to/lastmile_qr_scan"}, "type": "electric_scooter", "name": "e526a12f068891cd7af6a90e33418275"}, {"bike_id": "826c18cdc886256cf082a753a4e1b4cb", "lat": 38.908704, "is_disabled": 0, "lon": -77.003903, "fusion_lon": 0.0, "is_reserved": 0, "fusion_lat": 0.0, "rental_uris": {"android": "https://dc.lft.to/lastmile_qr_scan", "ios": "https://dc.lft.to/lastmile_qr_scan"}, "type": "electric_scooter", "name": "826c18cdc886256cf082a753a4e1b4cb"}, {"bike_id": "b52cb939fd1b4442c2bcf71b65d817fb", "lat": 38.892224166666665, "is_disabled": 0, "lon": -77.03215483333334, "fusion_lon": 0.0, "is_reserved": 0, "fusion_lat": 0.0, "rental_uris": {"android": "https://dc.lft.to/lastmile_qr_scan", "ios": "https://dc.lft.to/lastmile_qr_scan"}, "type": "electric_scooter", "name": "b52cb939fd1b4442c2bcf71b65d817fb"}, {"bike_id": "4e3951046fb227f86cb03580cca5e61e", "lat": 38.91633066666667, "is_disabled": 0, "lon": -77.04559433333333, "fusion_lon": 0.0, "is_reserved": 0, "fusion_lat": 0.0, "rental_uris": {"android": "https://dc.lft.to/lastmile_qr_scan", "ios": "https://dc.lft.to/lastmile_qr_scan"}, "type": "electric_scooter", "name": "4e3951046fb227f86cb03580cca5e61e"}, {"bike_id": "3ac9fa557709fbf221e32a2e1b13ec62", "lat": 38.93630616666667, "is_disabled": 0, "lon": -77.0366375, "fusion_lon": 0.0, "is_reserved": 0, "fusion_lat": 0.0, "rental_uris": {"android": "https://dc.lft.to/lastmile_qr_scan", "ios": "https://dc.lft.to/lastmile_qr_scan"}, "type": "electric_scooter", "name": "3ac9fa557709fbf221e32a2e1b13ec62"}, {"bike_id": "4d288405609b20401ac607b85b6ede42", "lat": 38.907231833333334, "is_disabled": 0, "lon": -77.039879, "fusion_lon": 0.0, "is_reserved": 0, "fusion_lat": 0.0, "rental_uris": {"android": "https://dc.lft.to/lastmile_qr_scan", "ios": "https://dc.lft.to/lastmile_qr_scan"}, "type": "electric_scooter", "name": "4d288405609b20401ac607b85b6ede42"}, {"bike_id": "6b73ac654d603b8fc0a645a832150329", "lat": 38.9334735, "is_disabled": 0, "lon": -77.02982666666666, "fusion_lon": 0.0, "is_reserved": 0, "fusion_lat": 0.0, "rental_uris": {"android": "https://dc.lft.to/lastmile_qr_scan", "ios": "https://dc.lft.to/lastmile_qr_scan"}, "type": "electric_scooter", "name": "6b73ac654d603b8fc0a645a832150329"}, {"bike_id": "b9a43b7b51291acd19a5a3cd09287bbe", "lat": 38.923319666666664, "is_disabled": 0, "lon": -77.053938, "fusion_lon": 0.0, "is_reserved": 0, "fusion_lat": 0.0, "rental_uris": {"android": "https://dc.lft.to/lastmile_qr_scan", "ios": "https://dc.lft.to/lastmile_qr_scan"}, "type": "electric_scooter", "name": "b9a43b7b51291acd19a5a3cd09287bbe"}, {"bike_id": "08b042c5c679b05ccc332a030e7cd9b0", "lat": 38.87395733333334, "is_disabled": 0, "lon": -76.96977483333333, "fusion_lon": 0.0, "is_reserved": 0, "fusion_lat": 0.0, "rental_uris": {"android": "https://dc.lft.to/lastmile_qr_scan", "ios": "https://dc.lft.to/lastmile_qr_scan"}, "type": "electric_scooter", "name": "08b042c5c679b05ccc332a030e7cd9b0"}, {"bike_id": "8e7eaa9f07a63468bb92d6eb0488830d", "lat": 38.90381, "is_disabled": 0, "lon": -77.01746983333334, "fusion_lon": 0.0, "is_reserved": 0, "fusion_lat": 0.0, "rental_uris": {"android": "https://dc.lft.to/lastmile_qr_scan", "ios": "https://dc.lft.to/lastmile_qr_scan"}, "type": "electric_scooter", "name": "8e7eaa9f07a63468bb92d6eb0488830d"}, {"bike_id": "3f98c22458073ca17797efb1e6951c0e", "lat": 38.886423666666666, "is_disabled": 0, "lon": -76.98212483333333, "fusion_lon": 0.0, "is_reserved": 0, "fusion_lat": 0.0, "rental_uris": {"android": "https://dc.lft.to/lastmile_qr_scan", "ios": "https://dc.lft.to/lastmile_qr_scan"}, "type": "electric_scooter", "name": "3f98c22458073ca17797efb1e6951c0e"}, {"bike_id": "7fd4a52264bc22f9271f41a58e260c66", "lat": 38.916290000000004, "is_disabled": 0, "lon": -77.03213816666667, "fusion_lon": 0.0, "is_reserved": 0, "fusion_lat": 0.0, "rental_uris": {"android": "https://dc.lft.to/lastmile_qr_scan", "ios": "https://dc.lft.to/lastmile_qr_scan"}, "type": "electric_scooter", "name": "7fd4a52264bc22f9271f41a58e260c66"}, {"bike_id": "27abffc8d79bb5ba709e839a7099857d", "lat": 38.920490666666666, "is_disabled": 0, "lon": -77.042089, "fusion_lon": 0.0, "is_reserved": 0, "fusion_lat": 0.0, "rental_uris": {"android": "https://dc.lft.to/lastmile_qr_scan", "ios": "https://dc.lft.to/lastmile_qr_scan"}, "type": "electric_scooter", "name": "27abffc8d79bb5ba709e839a7099857d"}, {"bike_id": "8040f7359fad27d88b508821c10e79ba", "lat": 38.9002385, "is_disabled": 0, "lon": -77.01168283333334, "fusion_lon": 0.0, "is_reserved": 0, "fusion_lat": 0.0, "rental_uris": {"android": "https://dc.lft.to/lastmile_qr_scan", "ios": "https://dc.lft.to/lastmile_qr_scan"}, "type": "electric_scooter", "name": "8040f7359fad27d88b508821c10e79ba"}, {"bike_id": "6db06feb7a158f6ca64b415375cb4dee", "lat": 38.895320166666664, "is_disabled": 0, "lon": -76.949154, "fusion_lon": 0.0, "is_reserved": 0, "fusion_lat": 0.0, "rental_uris": {"android": "https://dc.lft.to/lastmile_qr_scan", "ios": "https://dc.lft.to/lastmile_qr_scan"}, "type": "electric_scooter", "name": "6db06feb7a158f6ca64b415375cb4dee"}, {"bike_id": "c68362128457978c7d3428e0e473733f", "lat": 38.926791333333334, "is_disabled": 0, "lon": -77.02299733333334, "fusion_lon": 0.0, "is_reserved": 0, "fusion_lat": 0.0, "rental_uris": {"android": "https://dc.lft.to/lastmile_qr_scan", "ios": "https://dc.lft.to/lastmile_qr_scan"}, "type": "electric_scooter", "name": "c68362128457978c7d3428e0e473733f"}, {"bike_id": "3d4a000c3a1a354536414b72d7a21270", "lat": 38.932445, "is_disabled": 0, "lon": -77.038535, "fusion_lon": 0.0, "is_reserved": 0, "fusion_lat": 0.0, "rental_uris": {"android": "https://dc.lft.to/lastmile_qr_scan", "ios": "https://dc.lft.to/lastmile_qr_scan"}, "type": "electric_scooter", "name": "3d4a000c3a1a354536414b72d7a21270"}, {"bike_id": "f800e5b938dcc8d9b13592b28e21a06c", "lat": 38.955621, "is_disabled": 0, "lon": -77.074568, "fusion_lon": 0.0, "is_reserved": 0, "fusion_lat": 0.0, "rental_uris": {"android": "https://dc.lft.to/lastmile_qr_scan", "ios": "https://dc.lft.to/lastmile_qr_scan"}, "type": "electric_scooter", "name": "f800e5b938dcc8d9b13592b28e21a06c"}, {"bike_id": "ef852f6879c6098bb50887da10fbced9", "lat": 38.90676633333333, "is_disabled": 0, "lon": -77.0380595, "fusion_lon": 0.0, "is_reserved": 0, "fusion_lat": 0.0, "rental_uris": {"android": "https://dc.lft.to/lastmile_qr_scan", "ios": "https://dc.lft.to/lastmile_qr_scan"}, "type": "electric_scooter", "name": "ef852f6879c6098bb50887da10fbced9"}, {"bike_id": "f653c50efbd066f51364bfd5d0777ca7", "lat": 38.8998645, "is_disabled": 0, "lon": -77.03169483333333, "fusion_lon": 0.0, "is_reserved": 0, "fusion_lat": 0.0, "rental_uris": {"android": "https://dc.lft.to/lastmile_qr_scan", "ios": "https://dc.lft.to/lastmile_qr_scan"}, "type": "electric_scooter", "name": "f653c50efbd066f51364bfd5d0777ca7"}, {"bike_id": "4c39c9c41320b89b0ebba71d8ed8c878", "lat": 38.9204485, "is_disabled": 0, "lon": -77.04194766666667, "fusion_lon": 0.0, "is_reserved": 0, "fusion_lat": 0.0, "rental_uris": {"android": "https://dc.lft.to/lastmile_qr_scan", "ios": "https://dc.lft.to/lastmile_qr_scan"}, "type": "electric_scooter", "name": "4c39c9c41320b89b0ebba71d8ed8c878"}, {"bike_id": "b75101b0ae8a47a7176ef6be7ea222bf", "lat": 38.91799316666667, "is_disabled": 0, "lon": -77.03434633333333, "fusion_lon": 0.0, "is_reserved": 0, "fusion_lat": 0.0, "rental_uris": {"android": "https://dc.lft.to/lastmile_qr_scan", "ios": "https://dc.lft.to/lastmile_qr_scan"}, "type": "electric_scooter", "name": "b75101b0ae8a47a7176ef6be7ea222bf"}, {"bike_id": "ac23835949c8f2ccba947f01051a31b8", "lat": 38.86499583333333, "is_disabled": 0, "lon": -76.98985666666667, "fusion_lon": 0.0, "is_reserved": 0, "fusion_lat": 0.0, "rental_uris": {"android": "https://dc.lft.to/lastmile_qr_scan", "ios": "https://dc.lft.to/lastmile_qr_scan"}, "type": "electric_scooter", "name": "ac23835949c8f2ccba947f01051a31b8"}, {"bike_id": "04bc8dad6163c55ae4d78e1327728479", "lat": 38.91645366666667, "is_disabled": 0, "lon": -77.047755, "fusion_lon": 0.0, "is_reserved": 0, "fusion_lat": 0.0, "rental_uris": {"android": "https://dc.lft.to/lastmile_qr_scan", "ios": "https://dc.lft.to/lastmile_qr_scan"}, "type": "electric_scooter", "name": "04bc8dad6163c55ae4d78e1327728479"}, {"bike_id": "7b6ad5e6c3cc6597da33831ba830ca0d", "lat": 38.88710183333333, "is_disabled": 0, "lon": -77.02198733333333, "fusion_lon": 0.0, "is_reserved": 0, "fusion_lat": 0.0, "rental_uris": {"android": "https://dc.lft.to/lastmile_qr_scan", "ios": "https://dc.lft.to/lastmile_qr_scan"}, "type": "electric_scooter", "name": "7b6ad5e6c3cc6597da33831ba830ca0d"}, {"bike_id": "791f4174a7e0913d2cceb12450641683", "lat": 38.924718666666664, "is_disabled": 0, "lon": -77.03912916666667, "fusion_lon": 0.0, "is_reserved": 0, "fusion_lat": 0.0, "rental_uris": {"android": "https://dc.lft.to/lastmile_qr_scan", "ios": "https://dc.lft.to/lastmile_qr_scan"}, "type": "electric_scooter", "name": "791f4174a7e0913d2cceb12450641683"}, {"bike_id": "ba316dddae193ddf65011a441a034eb3", "lat": 38.966074, "is_disabled": 0, "lon": -77.02749033333333, "fusion_lon": 0.0, "is_reserved": 0, "fusion_lat": 0.0, "rental_uris": {"android": "https://dc.lft.to/lastmile_qr_scan", "ios": "https://dc.lft.to/lastmile_qr_scan"}, "type": "electric_scooter", "name": "ba316dddae193ddf65011a441a034eb3"}, {"bike_id": "7de5fd5bffc95427adfb350088bff54d", "lat": 38.92086483333333, "is_disabled": 0, "lon": -77.02504583333334, "fusion_lon": 0.0, "is_reserved": 0, "fusion_lat": 0.0, "rental_uris": {"android": "https://dc.lft.to/lastmile_qr_scan", "ios": "https://dc.lft.to/lastmile_qr_scan"}, "type": "electric_scooter", "name": "7de5fd5bffc95427adfb350088bff54d"}, {"bike_id": "b1be12f829f5c2a91eddf74d7cf8549f", "lat": 38.83789433333333, "is_disabled": 0, "lon": -77.004474, "fusion_lon": 0.0, "is_reserved": 0, "fusion_lat": 0.0, "rental_uris": {"android": "https://dc.lft.to/lastmile_qr_scan", "ios": "https://dc.lft.to/lastmile_qr_scan"}, "type": "electric_scooter", "name": "b1be12f829f5c2a91eddf74d7cf8549f"}, {"bike_id": "2141137d0f0115d0e4d53075f3679c85", "lat": 38.9055905, "is_disabled": 0, "lon": -77.02657283333333, "fusion_lon": 0.0, "is_reserved": 0, "fusion_lat": 0.0, "rental_uris": {"android": "https://dc.lft.to/lastmile_qr_scan", "ios": "https://dc.lft.to/lastmile_qr_scan"}, "type": "electric_scooter", "name": "2141137d0f0115d0e4d53075f3679c85"}, {"bike_id": "c85659cc8dcc8a18b5c1be17cd130ddd", "lat": 38.921269833333334, "is_disabled": 0, "lon": -77.04209633333333, "fusion_lon": 0.0, "is_reserved": 0, "fusion_lat": 0.0, "rental_uris": {"android": "https://dc.lft.to/lastmile_qr_scan", "ios": "https://dc.lft.to/lastmile_qr_scan"}, "type": "electric_scooter", "name": "c85659cc8dcc8a18b5c1be17cd130ddd"}, {"bike_id": "6d6e58db4a1d88c7002bb683b93259c9", "lat": 38.8922185, "is_disabled": 0, "lon": -77.04367766666667, "fusion_lon": 0.0, "is_reserved": 0, "fusion_lat": 0.0, "rental_uris": {"android": "https://dc.lft.to/lastmile_qr_scan", "ios": "https://dc.lft.to/lastmile_qr_scan"}, "type": "electric_scooter", "name": "6d6e58db4a1d88c7002bb683b93259c9"}, {"bike_id": "361e2ea357464af4fa4c393b895e9c64", "lat": 38.877073, "is_disabled": 0, "lon": -77.01746316666667, "fusion_lon": 0.0, "is_reserved": 0, "fusion_lat": 0.0, "rental_uris": {"android": "https://dc.lft.to/lastmile_qr_scan", "ios": "https://dc.lft.to/lastmile_qr_scan"}, "type": "electric_scooter", "name": "361e2ea357464af4fa4c393b895e9c64"}, {"bike_id": "d879047e87d04845292cce6e28dd7457", "lat": 38.899050333333335, "is_disabled": 0, "lon": -77.04163616666666, "fusion_lon": 0.0, "is_reserved": 0, "fusion_lat": 0.0, "rental_uris": {"android": "https://dc.lft.to/lastmile_qr_scan", "ios": "https://dc.lft.to/lastmile_qr_scan"}, "type": "electric_scooter", "name": "d879047e87d04845292cce6e28dd7457"}, {"bike_id": "e4ee1dd3dd365b120acda4481db52a1d", "lat": 38.93045983333333, "is_disabled": 0, "lon": -77.0585055, "fusion_lon": 0.0, "is_reserved": 0, "fusion_lat": 0.0, "rental_uris": {"android": "https://dc.lft.to/lastmile_qr_scan", "ios": "https://dc.lft.to/lastmile_qr_scan"}, "type": "electric_scooter", "name": "e4ee1dd3dd365b120acda4481db52a1d"}, {"bike_id": "234f42c8d3e9f3e8eba6bd7b34bd0e73", "lat": 38.9196315, "is_disabled": 0, "lon": -77.01808033333333, "fusion_lon": 0.0, "is_reserved": 0, "fusion_lat": 0.0, "rental_uris": {"android": "https://dc.lft.to/lastmile_qr_scan", "ios": "https://dc.lft.to/lastmile_qr_scan"}, "type": "electric_scooter", "name": "234f42c8d3e9f3e8eba6bd7b34bd0e73"}, {"bike_id": "a71a297c87e33d2d167652d984f8c828", "lat": 38.90129066666667, "is_disabled": 0, "lon": -77.01573016666667, "fusion_lon": 0.0, "is_reserved": 0, "fusion_lat": 0.0, "rental_uris": {"android": "https://dc.lft.to/lastmile_qr_scan", "ios": "https://dc.lft.to/lastmile_qr_scan"}, "type": "electric_bike", "name": "a71a297c87e33d2d167652d984f8c828"}, {"bike_id": "57c8acbb0b364de213f69d81aeb5eab4", "lat": 38.934672166666665, "is_disabled": 0, "lon": -77.04108466666666, "fusion_lon": 0.0, "is_reserved": 0, "fusion_lat": 0.0, "rental_uris": {"android": "https://dc.lft.to/lastmile_qr_scan", "ios": "https://dc.lft.to/lastmile_qr_scan"}, "type": "electric_scooter", "name": "57c8acbb0b364de213f69d81aeb5eab4"}, {"bike_id": "f18bdc78e7565f18ae638a709b3bba52", "lat": 38.887330666666664, "is_disabled": 0, "lon": -77.02206066666666, "fusion_lon": 0.0, "is_reserved": 0, "fusion_lat": 0.0, "rental_uris": {"android": "https://dc.lft.to/lastmile_qr_scan", "ios": "https://dc.lft.to/lastmile_qr_scan"}, "type": "electric_scooter", "name": "f18bdc78e7565f18ae638a709b3bba52"}, {"bike_id": "c4d77f8eadb25eaa4a763a1555065d07", "lat": 38.86327433333334, "is_disabled": 0, "lon": -76.98717233333333, "fusion_lon": 0.0, "is_reserved": 0, "fusion_lat": 0.0, "rental_uris": {"android": "https://dc.lft.to/lastmile_qr_scan", "ios": "https://dc.lft.to/lastmile_qr_scan"}, "type": "electric_bike", "name": "c4d77f8eadb25eaa4a763a1555065d07"}, {"bike_id": "afc13e171e28e6b3fb7d69a024a91cb2", "lat": 38.89059816666666, "is_disabled": 0, "lon": -77.02299466666666, "fusion_lon": 0.0, "is_reserved": 0, "fusion_lat": 0.0, "rental_uris": {"android": "https://dc.lft.to/lastmile_qr_scan", "ios": "https://dc.lft.to/lastmile_qr_scan"}, "type": "electric_scooter", "name": "afc13e171e28e6b3fb7d69a024a91cb2"}, {"bike_id": "b4b86bb5688ca91f1d1d11356d319c56", "lat": 38.84098733333333, "is_disabled": 0, "lon": -77.089314, "fusion_lon": 0.0, "is_reserved": 0, "fusion_lat": 0.0, "rental_uris": {"android": "https://dc.lft.to/lastmile_qr_scan", "ios": "https://dc.lft.to/lastmile_qr_scan"}, "type": "electric_bike", "name": "b4b86bb5688ca91f1d1d11356d319c56"}, {"bike_id": "45fafc49b1c4ba47b0b3466f5eb24ca5", "lat": 38.907196, "is_disabled": 0, "lon": -77.03311666666667, "fusion_lon": 0.0, "is_reserved": 0, "fusion_lat": 0.0, "rental_uris": {"android": "https://dc.lft.to/lastmile_qr_scan", "ios": "https://dc.lft.to/lastmile_qr_scan"}, "type": "electric_bike", "name": "45fafc49b1c4ba47b0b3466f5eb24ca5"}, {"bike_id": "6cb56e4ab4fa38634d43dd8edb0eb295", "lat": 38.9132865, "is_disabled": 0, "lon": -77.049623, "fusion_lon": 0.0, "is_reserved": 0, "fusion_lat": 0.0, "rental_uris": {"android": "https://dc.lft.to/lastmile_qr_scan", "ios": "https://dc.lft.to/lastmile_qr_scan"}, "type": "electric_scooter", "name": "6cb56e4ab4fa38634d43dd8edb0eb295"}, {"bike_id": "cffe3518f0ee014f68a75c3266eb9c71", "lat": 38.91678116666667, "is_disabled": 0, "lon": -76.98030633333333, "fusion_lon": 0.0, "is_reserved": 0, "fusion_lat": 0.0, "rental_uris": {"android": "https://dc.lft.to/lastmile_qr_scan", "ios": "https://dc.lft.to/lastmile_qr_scan"}, "type": "electric_scooter", "name": "cffe3518f0ee014f68a75c3266eb9c71"}, {"bike_id": "d02a87e5129838d10e4a85cd7c168cae", "lat": 38.902315333333334, "is_disabled": 0, "lon": -77.02825916666667, "fusion_lon": 0.0, "is_reserved": 0, "fusion_lat": 0.0, "rental_uris": {"android": "https://dc.lft.to/lastmile_qr_scan", "ios": "https://dc.lft.to/lastmile_qr_scan"}, "type": "electric_scooter", "name": "d02a87e5129838d10e4a85cd7c168cae"}, {"bike_id": "a43af9c029bf283d96de35e605749343", "lat": 38.919438, "is_disabled": 0, "lon": -77.01809433333334, "fusion_lon": 0.0, "is_reserved": 0, "fusion_lat": 0.0, "rental_uris": {"android": "https://dc.lft.to/lastmile_qr_scan", "ios": "https://dc.lft.to/lastmile_qr_scan"}, "type": "electric_scooter", "name": "a43af9c029bf283d96de35e605749343"}, {"bike_id": "0d83d96062d0966085fbf0b5c9ad1bed", "lat": 38.9133735, "is_disabled": 0, "lon": -77.04874666666667, "fusion_lon": 0.0, "is_reserved": 0, "fusion_lat": 0.0, "rental_uris": {"android": "https://dc.lft.to/lastmile_qr_scan", "ios": "https://dc.lft.to/lastmile_qr_scan"}, "type": "electric_scooter", "name": "0d83d96062d0966085fbf0b5c9ad1bed"}, {"bike_id": "4ae1a7727a02b4e3f805cc81a638f854", "lat": 38.896204833333336, "is_disabled": 0, "lon": -76.907403, "fusion_lon": 0.0, "is_reserved": 0, "fusion_lat": 0.0, "rental_uris": {"android": "https://dc.lft.to/lastmile_qr_scan", "ios": "https://dc.lft.to/lastmile_qr_scan"}, "type": "electric_bike", "name": "4ae1a7727a02b4e3f805cc81a638f854"}, {"bike_id": "a7cf141b7380cda87e8abec5536392a1", "lat": 38.9250665, "is_disabled": 0, "lon": -77.038888, "fusion_lon": 0.0, "is_reserved": 0, "fusion_lat": 0.0, "rental_uris": {"android": "https://dc.lft.to/lastmile_qr_scan", "ios": "https://dc.lft.to/lastmile_qr_scan"}, "type": "electric_scooter", "name": "a7cf141b7380cda87e8abec5536392a1"}, {"bike_id": "25a464af9a2ee527baf09b80fccc8aed", "lat": 38.916623666666666, "is_disabled": 0, "lon": -77.02283083333333, "fusion_lon": 0.0, "is_reserved": 0, "fusion_lat": 0.0, "rental_uris": {"android": "https://dc.lft.to/lastmile_qr_scan", "ios": "https://dc.lft.to/lastmile_qr_scan"}, "type": "electric_scooter", "name": "25a464af9a2ee527baf09b80fccc8aed"}, {"bike_id": "ddc7049c5a89a7be0e6150d832fc5e4f", "lat": 38.920967166666664, "is_disabled": 0, "lon": -77.023955, "fusion_lon": 0.0, "is_reserved": 0, "fusion_lat": 0.0, "rental_uris": {"android": "https://dc.lft.to/lastmile_qr_scan", "ios": "https://dc.lft.to/lastmile_qr_scan"}, "type": "electric_scooter", "name": "ddc7049c5a89a7be0e6150d832fc5e4f"}, {"bike_id": "4a0383e3cf3f2d762851afe01fb2e105", "lat": 38.9229255, "is_disabled": 0, "lon": -77.04154883333334, "fusion_lon": 0.0, "is_reserved": 0, "fusion_lat": 0.0, "rental_uris": {"android": "https://dc.lft.to/lastmile_qr_scan", "ios": "https://dc.lft.to/lastmile_qr_scan"}, "type": "electric_scooter", "name": "4a0383e3cf3f2d762851afe01fb2e105"}, {"bike_id": "063cd7357484100a97e825e3f56f170b", "lat": 38.920601, "is_disabled": 0, "lon": -77.023621, "fusion_lon": 0.0, "is_reserved": 0, "fusion_lat": 0.0, "rental_uris": {"android": "https://dc.lft.to/lastmile_qr_scan", "ios": "https://dc.lft.to/lastmile_qr_scan"}, "type": "electric_scooter", "name": "063cd7357484100a97e825e3f56f170b"}, {"bike_id": "d6a8aca8a1dec9d60743a42720729be5", "lat": 38.915621333333334, "is_disabled": 0, "lon": -77.0200545, "fusion_lon": 0.0, "is_reserved": 0, "fusion_lat": 0.0, "rental_uris": {"android": "https://dc.lft.to/lastmile_qr_scan", "ios": "https://dc.lft.to/lastmile_qr_scan"}, "type": "electric_scooter", "name": "d6a8aca8a1dec9d60743a42720729be5"}, {"bike_id": "855552bc7b1106370db0dbd51a3426de", "lat": 38.92154583333333, "is_disabled": 0, "lon": -77.03386616666667, "fusion_lon": 0.0, "is_reserved": 0, "fusion_lat": 0.0, "rental_uris": {"android": "https://dc.lft.to/lastmile_qr_scan", "ios": "https://dc.lft.to/lastmile_qr_scan"}, "type": "electric_scooter", "name": "855552bc7b1106370db0dbd51a3426de"}, {"bike_id": "fb66f96d24ff242d82b1b49356116125", "lat": 38.91060616666667, "is_disabled": 0, "lon": -77.00913133333333, "fusion_lon": 0.0, "is_reserved": 0, "fusion_lat": 0.0, "rental_uris": {"android": "https://dc.lft.to/lastmile_qr_scan", "ios": "https://dc.lft.to/lastmile_qr_scan"}, "type": "electric_scooter", "name": "fb66f96d24ff242d82b1b49356116125"}, {"bike_id": "70ff352b189d7673b47cb17f243c3e3b", "lat": 38.887020666666665, "is_disabled": 0, "lon": -77.02813716666667, "fusion_lon": 0.0, "is_reserved": 0, "fusion_lat": 0.0, "rental_uris": {"android": "https://dc.lft.to/lastmile_qr_scan", "ios": "https://dc.lft.to/lastmile_qr_scan"}, "type": "electric_scooter", "name": "70ff352b189d7673b47cb17f243c3e3b"}, {"bike_id": "b3284cdde841b9bea7304fe49cc8e87a", "lat": 38.892226, "is_disabled": 0, "lon": -77.04334566666667, "fusion_lon": 0.0, "is_reserved": 0, "fusion_lat": 0.0, "rental_uris": {"android": "https://dc.lft.to/lastmile_qr_scan", "ios": "https://dc.lft.to/lastmile_qr_scan"}, "type": "electric_scooter", "name": "b3284cdde841b9bea7304fe49cc8e87a"}, {"bike_id": "47e2082f5d5ba7d3b8963fd1cb70e2a9", "lat": 38.92065816666667, "is_disabled": 0, "lon": -77.03244816666667, "fusion_lon": 0.0, "is_reserved": 0, "fusion_lat": 0.0, "rental_uris": {"android": "https://dc.lft.to/lastmile_qr_scan", "ios": "https://dc.lft.to/lastmile_qr_scan"}, "type": "electric_scooter", "name": "47e2082f5d5ba7d3b8963fd1cb70e2a9"}, {"bike_id": "a10c031baab98cbfdab2f19aea9bb908", "lat": 38.927821333333334, "is_disabled": 0, "lon": -77.01534633333333, "fusion_lon": 0.0, "is_reserved": 0, "fusion_lat": 0.0, "rental_uris": {"android": "https://dc.lft.to/lastmile_qr_scan", "ios": "https://dc.lft.to/lastmile_qr_scan"}, "type": "electric_scooter", "name": "a10c031baab98cbfdab2f19aea9bb908"}, {"bike_id": "797693192fc911f38d3afefc6ceb84d1", "lat": 38.92077233333333, "is_disabled": 0, "lon": -77.02555433333333, "fusion_lon": 0.0, "is_reserved": 0, "fusion_lat": 0.0, "rental_uris": {"android": "https://dc.lft.to/lastmile_qr_scan", "ios": "https://dc.lft.to/lastmile_qr_scan"}, "type": "electric_scooter", "name": "797693192fc911f38d3afefc6ceb84d1"}, {"bike_id": "1153e422b8afb5745d6f7ebd730c120b", "lat": 38.905036333333335, "is_disabled": 0, "lon": -76.9519615, "fusion_lon": 0.0, "is_reserved": 0, "fusion_lat": 0.0, "rental_uris": {"android": "https://dc.lft.to/lastmile_qr_scan", "ios": "https://dc.lft.to/lastmile_qr_scan"}, "type": "electric_scooter", "name": "1153e422b8afb5745d6f7ebd730c120b"}, {"bike_id": "c10bc0f2dcfb03ce95a5f4714c40948a", "lat": 38.864095, "is_disabled": 0, "lon": -77.01360816666667, "fusion_lon": 0.0, "is_reserved": 0, "fusion_lat": 0.0, "rental_uris": {"android": "https://dc.lft.to/lastmile_qr_scan", "ios": "https://dc.lft.to/lastmile_qr_scan"}, "type": "electric_scooter", "name": "c10bc0f2dcfb03ce95a5f4714c40948a"}, {"bike_id": "574218aee3b21faaa4b83c9eb2e759e7", "lat": 38.903832, "is_disabled": 0, "lon": -76.98489433333333, "fusion_lon": 0.0, "is_reserved": 0, "fusion_lat": 0.0, "rental_uris": {"android": "https://dc.lft.to/lastmile_qr_scan", "ios": "https://dc.lft.to/lastmile_qr_scan"}, "type": "electric_scooter", "name": "574218aee3b21faaa4b83c9eb2e759e7"}, {"bike_id": "86a57ecf63192ad4bde8300fa858aaa0", "lat": 38.8931045, "is_disabled": 0, "lon": -77.02036083333333, "fusion_lon": 0.0, "is_reserved": 0, "fusion_lat": 0.0, "rental_uris": {"android": "https://dc.lft.to/lastmile_qr_scan", "ios": "https://dc.lft.to/lastmile_qr_scan"}, "type": "electric_scooter", "name": "86a57ecf63192ad4bde8300fa858aaa0"}, {"bike_id": "aa654d50a6926f6073849f33a756f060", "lat": 38.896064333333335, "is_disabled": 0, "lon": -76.9809695, "fusion_lon": 0.0, "is_reserved": 0, "fusion_lat": 0.0, "rental_uris": {"android": "https://dc.lft.to/lastmile_qr_scan", "ios": "https://dc.lft.to/lastmile_qr_scan"}, "type": "electric_scooter", "name": "aa654d50a6926f6073849f33a756f060"}, {"bike_id": "b36c764f05ad72c0d755626e27be2926", "lat": 38.91769133333333, "is_disabled": 0, "lon": -77.0229965, "fusion_lon": 0.0, "is_reserved": 0, "fusion_lat": 0.0, "rental_uris": {"android": "https://dc.lft.to/lastmile_qr_scan", "ios": "https://dc.lft.to/lastmile_qr_scan"}, "type": "electric_scooter", "name": "b36c764f05ad72c0d755626e27be2926"}, {"bike_id": "8732b658ce32aff786618392820723d2", "lat": 38.8997555, "is_disabled": 0, "lon": -77.022242, "fusion_lon": 0.0, "is_reserved": 0, "fusion_lat": 0.0, "rental_uris": {"android": "https://dc.lft.to/lastmile_qr_scan", "ios": "https://dc.lft.to/lastmile_qr_scan"}, "type": "electric_scooter", "name": "8732b658ce32aff786618392820723d2"}, {"bike_id": "3d05a5e26cd2991ae9939bf8c420b2cb", "lat": 38.86470216666667, "is_disabled": 0, "lon": -76.9823245, "fusion_lon": 0.0, "is_reserved": 0, "fusion_lat": 0.0, "rental_uris": {"android": "https://dc.lft.to/lastmile_qr_scan", "ios": "https://dc.lft.to/lastmile_qr_scan"}, "type": "electric_scooter", "name": "3d05a5e26cd2991ae9939bf8c420b2cb"}, {"bike_id": "3204b9d6fe026c256a73d12c92be39af", "lat": 38.9414365, "is_disabled": 0, "lon": -77.0019025, "fusion_lon": 0.0, "is_reserved": 0, "fusion_lat": 0.0, "rental_uris": {"android": "https://dc.lft.to/lastmile_qr_scan", "ios": "https://dc.lft.to/lastmile_qr_scan"}, "type": "electric_bike", "name": "3204b9d6fe026c256a73d12c92be39af"}, {"bike_id": "a817cf6907ca499d68c7b1536c34a209", "lat": 38.92469716666667, "is_disabled": 0, "lon": -77.02219133333334, "fusion_lon": 0.0, "is_reserved": 0, "fusion_lat": 0.0, "rental_uris": {"android": "https://dc.lft.to/lastmile_qr_scan", "ios": "https://dc.lft.to/lastmile_qr_scan"}, "type": "electric_scooter", "name": "a817cf6907ca499d68c7b1536c34a209"}, {"bike_id": "d4022cbb5efcf70b39a24c0eba38077b", "lat": 38.918927833333335, "is_disabled": 0, "lon": -77.03174566666667, "fusion_lon": 0.0, "is_reserved": 0, "fusion_lat": 0.0, "rental_uris": {"android": "https://dc.lft.to/lastmile_qr_scan", "ios": "https://dc.lft.to/lastmile_qr_scan"}, "type": "electric_scooter", "name": "d4022cbb5efcf70b39a24c0eba38077b"}, {"bike_id": "5864a1d05d55d9a1df76f8c7c1cc9567", "lat": 38.905807833333334, "is_disabled": 0, "lon": -77.046134, "fusion_lon": 0.0, "is_reserved": 0, "fusion_lat": 0.0, "rental_uris": {"android": "https://dc.lft.to/lastmile_qr_scan", "ios": "https://dc.lft.to/lastmile_qr_scan"}, "type": "electric_scooter", "name": "5864a1d05d55d9a1df76f8c7c1cc9567"}, {"bike_id": "7a61bcfd9f061744924842d7263ce8b9", "lat": 38.91548066666667, "is_disabled": 0, "lon": -77.03246733333333, "fusion_lon": 0.0, "is_reserved": 0, "fusion_lat": 0.0, "rental_uris": {"android": "https://dc.lft.to/lastmile_qr_scan", "ios": "https://dc.lft.to/lastmile_qr_scan"}, "type": "electric_scooter", "name": "7a61bcfd9f061744924842d7263ce8b9"}, {"bike_id": "8ce04bea88f3ae7d36c8cee55698c4df", "lat": 38.90190883333333, "is_disabled": 0, "lon": -76.92633266666667, "fusion_lon": 0.0, "is_reserved": 0, "fusion_lat": 0.0, "rental_uris": {"android": "https://dc.lft.to/lastmile_qr_scan", "ios": "https://dc.lft.to/lastmile_qr_scan"}, "type": "electric_scooter", "name": "8ce04bea88f3ae7d36c8cee55698c4df"}, {"bike_id": "d8d35895a12b0ee3f216459c4b264db6", "lat": 38.90954716666667, "is_disabled": 0, "lon": -77.04885533333334, "fusion_lon": 0.0, "is_reserved": 0, "fusion_lat": 0.0, "rental_uris": {"android": "https://dc.lft.to/lastmile_qr_scan", "ios": "https://dc.lft.to/lastmile_qr_scan"}, "type": "electric_scooter", "name": "d8d35895a12b0ee3f216459c4b264db6"}, {"bike_id": "88ee82082ddfb3cc9cc55713f4d3b399", "lat": 38.88392566666667, "is_disabled": 0, "lon": -76.93039733333333, "fusion_lon": 0.0, "is_reserved": 0, "fusion_lat": 0.0, "rental_uris": {"android": "https://dc.lft.to/lastmile_qr_scan", "ios": "https://dc.lft.to/lastmile_qr_scan"}, "type": "electric_scooter", "name": "88ee82082ddfb3cc9cc55713f4d3b399"}, {"bike_id": "df7bb8467b73c161d4cc87db4d3e5acb", "lat": 38.894709166666665, "is_disabled": 0, "lon": -76.9496045, "fusion_lon": 0.0, "is_reserved": 0, "fusion_lat": 0.0, "rental_uris": {"android": "https://dc.lft.to/lastmile_qr_scan", "ios": "https://dc.lft.to/lastmile_qr_scan"}, "type": "electric_scooter", "name": "df7bb8467b73c161d4cc87db4d3e5acb"}, {"bike_id": "4e2bd84a55dfb969155f303aed3266f4", "lat": 38.91404416666666, "is_disabled": 0, "lon": -77.02836033333334, "fusion_lon": 0.0, "is_reserved": 0, "fusion_lat": 0.0, "rental_uris": {"android": "https://dc.lft.to/lastmile_qr_scan", "ios": "https://dc.lft.to/lastmile_qr_scan"}, "type": "electric_scooter", "name": "4e2bd84a55dfb969155f303aed3266f4"}, {"bike_id": "0f20322f1ea471537dc3e858b77bf211", "lat": 38.892769666666666, "is_disabled": 0, "lon": -77.02116116666667, "fusion_lon": 0.0, "is_reserved": 0, "fusion_lat": 0.0, "rental_uris": {"android": "https://dc.lft.to/lastmile_qr_scan", "ios": "https://dc.lft.to/lastmile_qr_scan"}, "type": "electric_scooter", "name": "0f20322f1ea471537dc3e858b77bf211"}, {"bike_id": "d57a8a316d0b5784303469cbc1ae6e86", "lat": 38.892241166666665, "is_disabled": 0, "lon": -77.04338833333334, "fusion_lon": 0.0, "is_reserved": 0, "fusion_lat": 0.0, "rental_uris": {"android": "https://dc.lft.to/lastmile_qr_scan", "ios": "https://dc.lft.to/lastmile_qr_scan"}, "type": "electric_scooter", "name": "d57a8a316d0b5784303469cbc1ae6e86"}, {"bike_id": "87a669df2458ea0bd447771bb5622939", "lat": 38.884249, "is_disabled": 0, "lon": -77.01512366666667, "fusion_lon": 0.0, "is_reserved": 0, "fusion_lat": 0.0, "rental_uris": {"android": "https://dc.lft.to/lastmile_qr_scan", "ios": "https://dc.lft.to/lastmile_qr_scan"}, "type": "electric_scooter", "name": "87a669df2458ea0bd447771bb5622939"}, {"bike_id": "e46054992731ec98db8fa5115dc53062", "lat": 38.911181666666664, "is_disabled": 0, "lon": -77.02198316666667, "fusion_lon": 0.0, "is_reserved": 0, "fusion_lat": 0.0, "rental_uris": {"android": "https://dc.lft.to/lastmile_qr_scan", "ios": "https://dc.lft.to/lastmile_qr_scan"}, "type": "electric_scooter", "name": "e46054992731ec98db8fa5115dc53062"}, {"bike_id": "97d02b43c1fd9f346b6aa74311a73772", "lat": 38.95734566666667, "is_disabled": 0, "lon": -77.02407233333334, "fusion_lon": 0.0, "is_reserved": 0, "fusion_lat": 0.0, "rental_uris": {"android": "https://dc.lft.to/lastmile_qr_scan", "ios": "https://dc.lft.to/lastmile_qr_scan"}, "type": "electric_scooter", "name": "97d02b43c1fd9f346b6aa74311a73772"}, {"bike_id": "6538a1f8a18d3c9167fa29219d635161", "lat": 39.084325666666665, "is_disabled": 0, "lon": -76.95160533333333, "fusion_lon": 0.0, "is_reserved": 0, "fusion_lat": 0.0, "rental_uris": {"android": "https://dc.lft.to/lastmile_qr_scan", "ios": "https://dc.lft.to/lastmile_qr_scan"}, "type": "electric_bike", "name": "6538a1f8a18d3c9167fa29219d635161"}, {"bike_id": "e7f697ebe31d0c9dbb470a7e8b302ad5", "lat": 38.905437, "is_disabled": 0, "lon": -77.005483, "fusion_lon": 0.0, "is_reserved": 0, "fusion_lat": 0.0, "rental_uris": {"android": "https://dc.lft.to/lastmile_qr_scan", "ios": "https://dc.lft.to/lastmile_qr_scan"}, "type": "electric_scooter", "name": "e7f697ebe31d0c9dbb470a7e8b302ad5"}, {"bike_id": "bf6284fab47f44711d6994b6a4f4ff38", "lat": 38.904824166666664, "is_disabled": 0, "lon": -77.0357225, "fusion_lon": 0.0, "is_reserved": 0, "fusion_lat": 0.0, "rental_uris": {"android": "https://dc.lft.to/lastmile_qr_scan", "ios": "https://dc.lft.to/lastmile_qr_scan"}, "type": "electric_scooter", "name": "bf6284fab47f44711d6994b6a4f4ff38"}, {"bike_id": "378af90873b4a5cf4d28adf340fe2571", "lat": 38.920720833333334, "is_disabled": 0, "lon": -77.02508866666666, "fusion_lon": 0.0, "is_reserved": 0, "fusion_lat": 0.0, "rental_uris": {"android": "https://dc.lft.to/lastmile_qr_scan", "ios": "https://dc.lft.to/lastmile_qr_scan"}, "type": "electric_scooter", "name": "378af90873b4a5cf4d28adf340fe2571"}, {"bike_id": "36f78bcd53a0500724f54978ac5f33d7", "lat": 38.924369166666665, "is_disabled": 0, "lon": -77.03329033333333, "fusion_lon": 0.0, "is_reserved": 0, "fusion_lat": 0.0, "rental_uris": {"android": "https://dc.lft.to/lastmile_qr_scan", "ios": "https://dc.lft.to/lastmile_qr_scan"}, "type": "electric_scooter", "name": "36f78bcd53a0500724f54978ac5f33d7"}, {"bike_id": "87a15a814c0483f98dcc700f0cb0a054", "lat": 38.8666115, "is_disabled": 0, "lon": -76.98886083333333, "fusion_lon": 0.0, "is_reserved": 0, "fusion_lat": 0.0, "rental_uris": {"android": "https://dc.lft.to/lastmile_qr_scan", "ios": "https://dc.lft.to/lastmile_qr_scan"}, "type": "electric_scooter", "name": "87a15a814c0483f98dcc700f0cb0a054"}, {"bike_id": "acffdf3c01d703ab83a1fb47b2dc02b3", "lat": 38.9235735, "is_disabled": 0, "lon": -77.03226483333333, "fusion_lon": 0.0, "is_reserved": 0, "fusion_lat": 0.0, "rental_uris": {"android": "https://dc.lft.to/lastmile_qr_scan", "ios": "https://dc.lft.to/lastmile_qr_scan"}, "type": "electric_scooter", "name": "acffdf3c01d703ab83a1fb47b2dc02b3"}, {"bike_id": "f69180099cd0f003812b6b11416a0f55", "lat": 38.905884, "is_disabled": 0, "lon": -77.04698416666666, "fusion_lon": 0.0, "is_reserved": 0, "fusion_lat": 0.0, "rental_uris": {"android": "https://dc.lft.to/lastmile_qr_scan", "ios": "https://dc.lft.to/lastmile_qr_scan"}, "type": "electric_scooter", "name": "f69180099cd0f003812b6b11416a0f55"}, {"bike_id": "f82f1c4c423ff5aa873bda8b557daf60", "lat": 38.919114, "is_disabled": 0, "lon": -77.03626983333334, "fusion_lon": 0.0, "is_reserved": 0, "fusion_lat": 0.0, "rental_uris": {"android": "https://dc.lft.to/lastmile_qr_scan", "ios": "https://dc.lft.to/lastmile_qr_scan"}, "type": "electric_scooter", "name": "f82f1c4c423ff5aa873bda8b557daf60"}, {"bike_id": "f1db57774f4ecfe430189f226b2862f7", "lat": 38.96116033333333, "is_disabled": 0, "lon": -77.03327083333333, "fusion_lon": 0.0, "is_reserved": 0, "fusion_lat": 0.0, "rental_uris": {"android": "https://dc.lft.to/lastmile_qr_scan", "ios": "https://dc.lft.to/lastmile_qr_scan"}, "type": "electric_scooter", "name": "f1db57774f4ecfe430189f226b2862f7"}, {"bike_id": "15da1e023abfdbf94d228d3b58a2776f", "lat": 38.928426333333334, "is_disabled": 0, "lon": -77.01597366666667, "fusion_lon": 0.0, "is_reserved": 0, "fusion_lat": 0.0, "rental_uris": {"android": "https://dc.lft.to/lastmile_qr_scan", "ios": "https://dc.lft.to/lastmile_qr_scan"}, "type": "electric_scooter", "name": "15da1e023abfdbf94d228d3b58a2776f"}, {"bike_id": "51f953fcde139064cefbee691e0a15dc", "lat": 38.87630166666667, "is_disabled": 0, "lon": -76.997987, "fusion_lon": 0.0, "is_reserved": 0, "fusion_lat": 0.0, "rental_uris": {"android": "https://dc.lft.to/lastmile_qr_scan", "ios": "https://dc.lft.to/lastmile_qr_scan"}, "type": "electric_scooter", "name": "51f953fcde139064cefbee691e0a15dc"}, {"bike_id": "c28d6554e1183e5f8a0b9383e0682099", "lat": 38.94192983333333, "is_disabled": 0, "lon": -77.02519266666667, "fusion_lon": 0.0, "is_reserved": 0, "fusion_lat": 0.0, "rental_uris": {"android": "https://dc.lft.to/lastmile_qr_scan", "ios": "https://dc.lft.to/lastmile_qr_scan"}, "type": "electric_scooter", "name": "c28d6554e1183e5f8a0b9383e0682099"}, {"bike_id": "086770a8c2a8d80855a9213843d2ba5a", "lat": 38.8899525, "is_disabled": 0, "lon": -77.00350516666667, "fusion_lon": 0.0, "is_reserved": 0, "fusion_lat": 0.0, "rental_uris": {"android": "https://dc.lft.to/lastmile_qr_scan", "ios": "https://dc.lft.to/lastmile_qr_scan"}, "type": "electric_scooter", "name": "086770a8c2a8d80855a9213843d2ba5a"}, {"bike_id": "8cb7d19e8d9e70c50428616744fedafa", "lat": 38.925685666666666, "is_disabled": 0, "lon": -77.0288535, "fusion_lon": 0.0, "is_reserved": 0, "fusion_lat": 0.0, "rental_uris": {"android": "https://dc.lft.to/lastmile_qr_scan", "ios": "https://dc.lft.to/lastmile_qr_scan"}, "type": "electric_scooter", "name": "8cb7d19e8d9e70c50428616744fedafa"}, {"bike_id": "be304d222c29767dc74432b732e3a6ed", "lat": 38.910395333333334, "is_disabled": 0, "lon": -77.07550516666667, "fusion_lon": 0.0, "is_reserved": 0, "fusion_lat": 0.0, "rental_uris": {"android": "https://dc.lft.to/lastmile_qr_scan", "ios": "https://dc.lft.to/lastmile_qr_scan"}, "type": "electric_scooter", "name": "be304d222c29767dc74432b732e3a6ed"}, {"bike_id": "cdce8c7899a6066d307716f06160a237", "lat": 38.903045666666664, "is_disabled": 0, "lon": -77.02603566666667, "fusion_lon": 0.0, "is_reserved": 0, "fusion_lat": 0.0, "rental_uris": {"android": "https://dc.lft.to/lastmile_qr_scan", "ios": "https://dc.lft.to/lastmile_qr_scan"}, "type": "electric_scooter", "name": "cdce8c7899a6066d307716f06160a237"}, {"bike_id": "742a713560fdd2d6d0fe647784b6030d", "lat": 38.9804355, "is_disabled": 0, "lon": -76.95797133333333, "fusion_lon": 0.0, "is_reserved": 0, "fusion_lat": 0.0, "rental_uris": {"android": "https://dc.lft.to/lastmile_qr_scan", "ios": "https://dc.lft.to/lastmile_qr_scan"}, "type": "electric_bike", "name": "742a713560fdd2d6d0fe647784b6030d"}, {"bike_id": "30b573c5930ff8123566618f25490f7a", "lat": 38.90543783333333, "is_disabled": 0, "lon": -77.04088833333333, "fusion_lon": 0.0, "is_reserved": 0, "fusion_lat": 0.0, "rental_uris": {"android": "https://dc.lft.to/lastmile_qr_scan", "ios": "https://dc.lft.to/lastmile_qr_scan"}, "type": "electric_scooter", "name": "30b573c5930ff8123566618f25490f7a"}, {"bike_id": "407383413f7bd5315a457e0c73d5d020", "lat": 38.952260333333335, "is_disabled": 0, "lon": -77.068299, "fusion_lon": 0.0, "is_reserved": 0, "fusion_lat": 0.0, "rental_uris": {"android": "https://dc.lft.to/lastmile_qr_scan", "ios": "https://dc.lft.to/lastmile_qr_scan"}, "type": "electric_scooter", "name": "407383413f7bd5315a457e0c73d5d020"}, {"bike_id": "2a1a6d0e2f15525781b53aa26026097d", "lat": 38.9021015, "is_disabled": 0, "lon": -77.03383533333333, "fusion_lon": 0.0, "is_reserved": 0, "fusion_lat": 0.0, "rental_uris": {"android": "https://dc.lft.to/lastmile_qr_scan", "ios": "https://dc.lft.to/lastmile_qr_scan"}, "type": "electric_scooter", "name": "2a1a6d0e2f15525781b53aa26026097d"}, {"bike_id": "0b9bc99a8f6b27cdfefd976c58a81203", "lat": 38.905938166666665, "is_disabled": 0, "lon": -77.03330566666666, "fusion_lon": 0.0, "is_reserved": 0, "fusion_lat": 0.0, "rental_uris": {"android": "https://dc.lft.to/lastmile_qr_scan", "ios": "https://dc.lft.to/lastmile_qr_scan"}, "type": "electric_scooter", "name": "0b9bc99a8f6b27cdfefd976c58a81203"}, {"bike_id": "a7709da27090baef15fbcee529d444bc", "lat": 38.924816, "is_disabled": 0, "lon": -77.03927633333333, "fusion_lon": 0.0, "is_reserved": 0, "fusion_lat": 0.0, "rental_uris": {"android": "https://dc.lft.to/lastmile_qr_scan", "ios": "https://dc.lft.to/lastmile_qr_scan"}, "type": "electric_scooter", "name": "a7709da27090baef15fbcee529d444bc"}, {"bike_id": "08ddff0bc4712f5ef9b314cef93033e3", "lat": 38.89901016666666, "is_disabled": 0, "lon": -77.024271, "fusion_lon": 0.0, "is_reserved": 0, "fusion_lat": 0.0, "rental_uris": {"android": "https://dc.lft.to/lastmile_qr_scan", "ios": "https://dc.lft.to/lastmile_qr_scan"}, "type": "electric_scooter", "name": "08ddff0bc4712f5ef9b314cef93033e3"}, {"bike_id": "37cdee99cc5a4bf1806bf82fc5cecb53", "lat": 38.87706, "is_disabled": 0, "lon": -77.00658283333334, "fusion_lon": 0.0, "is_reserved": 0, "fusion_lat": 0.0, "rental_uris": {"android": "https://dc.lft.to/lastmile_qr_scan", "ios": "https://dc.lft.to/lastmile_qr_scan"}, "type": "electric_scooter", "name": "37cdee99cc5a4bf1806bf82fc5cecb53"}, {"bike_id": "88cc28ede5c54fa0ca2eae3fdfe5b321", "lat": 38.9023095, "is_disabled": 0, "lon": -77.037219, "fusion_lon": 0.0, "is_reserved": 0, "fusion_lat": 0.0, "rental_uris": {"android": "https://dc.lft.to/lastmile_qr_scan", "ios": "https://dc.lft.to/lastmile_qr_scan"}, "type": "electric_scooter", "name": "88cc28ede5c54fa0ca2eae3fdfe5b321"}, {"bike_id": "a434093e807218a2367ba30762db23fe", "lat": 38.930637833333336, "is_disabled": 0, "lon": -77.033954, "fusion_lon": 0.0, "is_reserved": 0, "fusion_lat": 0.0, "rental_uris": {"android": "https://dc.lft.to/lastmile_qr_scan", "ios": "https://dc.lft.to/lastmile_qr_scan"}, "type": "electric_scooter", "name": "a434093e807218a2367ba30762db23fe"}, {"bike_id": "310c18ff5775c6a8be79573eab46523a", "lat": 38.898353, "is_disabled": 0, "lon": -77.023866, "fusion_lon": 0.0, "is_reserved": 0, "fusion_lat": 0.0, "rental_uris": {"android": "https://dc.lft.to/lastmile_qr_scan", "ios": "https://dc.lft.to/lastmile_qr_scan"}, "type": "electric_scooter", "name": "310c18ff5775c6a8be79573eab46523a"}, {"bike_id": "48c696952f4ab511338cfddba01ba56b", "lat": 38.89220983333333, "is_disabled": 0, "lon": -77.04509566666667, "fusion_lon": 0.0, "is_reserved": 0, "fusion_lat": 0.0, "rental_uris": {"android": "https://dc.lft.to/lastmile_qr_scan", "ios": "https://dc.lft.to/lastmile_qr_scan"}, "type": "electric_scooter", "name": "48c696952f4ab511338cfddba01ba56b"}, {"bike_id": "9f215adcbdee01c643fcbc4f59568ec0", "lat": 38.85758933333334, "is_disabled": 0, "lon": -76.987568, "fusion_lon": 0.0, "is_reserved": 0, "fusion_lat": 0.0, "rental_uris": {"android": "https://dc.lft.to/lastmile_qr_scan", "ios": "https://dc.lft.to/lastmile_qr_scan"}, "type": "electric_bike", "name": "9f215adcbdee01c643fcbc4f59568ec0"}, {"bike_id": "4b964cf2fd64e36d46f121bdb0a03f3f", "lat": 38.899602, "is_disabled": 0, "lon": -77.01636666666667, "fusion_lon": 0.0, "is_reserved": 0, "fusion_lat": 0.0, "rental_uris": {"android": "https://dc.lft.to/lastmile_qr_scan", "ios": "https://dc.lft.to/lastmile_qr_scan"}, "type": "electric_scooter", "name": "4b964cf2fd64e36d46f121bdb0a03f3f"}, {"bike_id": "5b4a896658ccbfdfa136cf30928ffcdb", "lat": 38.892179666666664, "is_disabled": 0, "lon": -77.02776816666666, "fusion_lon": 0.0, "is_reserved": 0, "fusion_lat": 0.0, "rental_uris": {"android": "https://dc.lft.to/lastmile_qr_scan", "ios": "https://dc.lft.to/lastmile_qr_scan"}, "type": "electric_scooter", "name": "5b4a896658ccbfdfa136cf30928ffcdb"}, {"bike_id": "b4ac0798dd5267a74745da417b4846f5", "lat": 38.88737666666667, "is_disabled": 0, "lon": -77.02205133333334, "fusion_lon": 0.0, "is_reserved": 0, "fusion_lat": 0.0, "rental_uris": {"android": "https://dc.lft.to/lastmile_qr_scan", "ios": "https://dc.lft.to/lastmile_qr_scan"}, "type": "electric_scooter", "name": "b4ac0798dd5267a74745da417b4846f5"}, {"bike_id": "248757922627afc47eef1d8b26823d45", "lat": 38.912639666666664, "is_disabled": 0, "lon": -77.034611, "fusion_lon": 0.0, "is_reserved": 0, "fusion_lat": 0.0, "rental_uris": {"android": "https://dc.lft.to/lastmile_qr_scan", "ios": "https://dc.lft.to/lastmile_qr_scan"}, "type": "electric_scooter", "name": "248757922627afc47eef1d8b26823d45"}, {"bike_id": "e6b75e25518dd260f58a1796bb8dc4f0", "lat": 38.91562066666667, "is_disabled": 0, "lon": -77.0200395, "fusion_lon": 0.0, "is_reserved": 0, "fusion_lat": 0.0, "rental_uris": {"android": "https://dc.lft.to/lastmile_qr_scan", "ios": "https://dc.lft.to/lastmile_qr_scan"}, "type": "electric_scooter", "name": "e6b75e25518dd260f58a1796bb8dc4f0"}, {"bike_id": "1ce162601aa7ae5930eb4364c8953c5e", "lat": 39.015628, "is_disabled": 0, "lon": -77.04424966666667, "fusion_lon": 0.0, "is_reserved": 0, "fusion_lat": 0.0, "rental_uris": {"android": "https://dc.lft.to/lastmile_qr_scan", "ios": "https://dc.lft.to/lastmile_qr_scan"}, "type": "electric_bike", "name": "1ce162601aa7ae5930eb4364c8953c5e"}, {"bike_id": "9a835337f51dbe26fd777339c67139de", "lat": 38.89266833333333, "is_disabled": 0, "lon": -77.04206516666666, "fusion_lon": 0.0, "is_reserved": 0, "fusion_lat": 0.0, "rental_uris": {"android": "https://dc.lft.to/lastmile_qr_scan", "ios": "https://dc.lft.to/lastmile_qr_scan"}, "type": "electric_scooter", "name": "9a835337f51dbe26fd777339c67139de"}, {"bike_id": "edc1a0a33106231b5447417b6fc79820", "lat": 38.89189783333333, "is_disabled": 0, "lon": -77.00294783333334, "fusion_lon": 0.0, "is_reserved": 0, "fusion_lat": 0.0, "rental_uris": {"android": "https://dc.lft.to/lastmile_qr_scan", "ios": "https://dc.lft.to/lastmile_qr_scan"}, "type": "electric_scooter", "name": "edc1a0a33106231b5447417b6fc79820"}, {"bike_id": "a3b6b5305022361b4889f5ba05e97dcc", "lat": 38.89730633333333, "is_disabled": 0, "lon": -77.00776666666667, "fusion_lon": 0.0, "is_reserved": 0, "fusion_lat": 0.0, "rental_uris": {"android": "https://dc.lft.to/lastmile_qr_scan", "ios": "https://dc.lft.to/lastmile_qr_scan"}, "type": "electric_scooter", "name": "a3b6b5305022361b4889f5ba05e97dcc"}, {"bike_id": "a08ee22c731d0fa1ca122e309a492850", "lat": 38.892254, "is_disabled": 0, "lon": -77.02823666666667, "fusion_lon": 0.0, "is_reserved": 0, "fusion_lat": 0.0, "rental_uris": {"android": "https://dc.lft.to/lastmile_qr_scan", "ios": "https://dc.lft.to/lastmile_qr_scan"}, "type": "electric_scooter", "name": "a08ee22c731d0fa1ca122e309a492850"}, {"bike_id": "0e31af9ecd3d310ccbff68597bb89e0c", "lat": 38.9355645, "is_disabled": 0, "lon": -77.074609, "fusion_lon": 0.0, "is_reserved": 0, "fusion_lat": 0.0, "rental_uris": {"android": "https://dc.lft.to/lastmile_qr_scan", "ios": "https://dc.lft.to/lastmile_qr_scan"}, "type": "electric_scooter", "name": "0e31af9ecd3d310ccbff68597bb89e0c"}, {"bike_id": "df66f2fc33e2b00e2d13a6e076615bbc", "lat": 38.892254666666666, "is_disabled": 0, "lon": -77.04183783333333, "fusion_lon": 0.0, "is_reserved": 0, "fusion_lat": 0.0, "rental_uris": {"android": "https://dc.lft.to/lastmile_qr_scan", "ios": "https://dc.lft.to/lastmile_qr_scan"}, "type": "electric_scooter", "name": "df66f2fc33e2b00e2d13a6e076615bbc"}, {"bike_id": "cdc4a3ebff60d254e72c2d1256d5d8ac", "lat": 38.911005333333335, "is_disabled": 0, "lon": -77.04462283333334, "fusion_lon": 0.0, "is_reserved": 0, "fusion_lat": 0.0, "rental_uris": {"android": "https://dc.lft.to/lastmile_qr_scan", "ios": "https://dc.lft.to/lastmile_qr_scan"}, "type": "electric_scooter", "name": "cdc4a3ebff60d254e72c2d1256d5d8ac"}, {"bike_id": "356f1383fdda8fc015ede268f164f6da", "lat": 38.892185, "is_disabled": 0, "lon": -77.0451115, "fusion_lon": 0.0, "is_reserved": 0, "fusion_lat": 0.0, "rental_uris": {"android": "https://dc.lft.to/lastmile_qr_scan", "ios": "https://dc.lft.to/lastmile_qr_scan"}, "type": "electric_scooter", "name": "356f1383fdda8fc015ede268f164f6da"}, {"bike_id": "57d883efb9c613539041c356bbab7f7a", "lat": 38.9073225, "is_disabled": 0, "lon": -77.04159116666666, "fusion_lon": 0.0, "is_reserved": 0, "fusion_lat": 0.0, "rental_uris": {"android": "https://dc.lft.to/lastmile_qr_scan", "ios": "https://dc.lft.to/lastmile_qr_scan"}, "type": "electric_scooter", "name": "57d883efb9c613539041c356bbab7f7a"}, {"bike_id": "c84090de576fabbd644c8c5117ab01a3", "lat": 38.900616, "is_disabled": 0, "lon": -77.026156, "fusion_lon": 0.0, "is_reserved": 0, "fusion_lat": 0.0, "rental_uris": {"android": "https://dc.lft.to/lastmile_qr_scan", "ios": "https://dc.lft.to/lastmile_qr_scan"}, "type": "electric_scooter", "name": "c84090de576fabbd644c8c5117ab01a3"}, {"bike_id": "72678b78f6c0911fa4b05132dd665c78", "lat": 38.90813433333334, "is_disabled": 0, "lon": -76.997126, "fusion_lon": 0.0, "is_reserved": 0, "fusion_lat": 0.0, "rental_uris": {"android": "https://dc.lft.to/lastmile_qr_scan", "ios": "https://dc.lft.to/lastmile_qr_scan"}, "type": "electric_scooter", "name": "72678b78f6c0911fa4b05132dd665c78"}, {"bike_id": "8d3c9214111b7d82207b9c15f5d12857", "lat": 38.938456333333335, "is_disabled": 0, "lon": -77.02837466666666, "fusion_lon": 0.0, "is_reserved": 0, "fusion_lat": 0.0, "rental_uris": {"android": "https://dc.lft.to/lastmile_qr_scan", "ios": "https://dc.lft.to/lastmile_qr_scan"}, "type": "electric_scooter", "name": "8d3c9214111b7d82207b9c15f5d12857"}, {"bike_id": "d961efd3a2f3bb337f11520a1909c3c1", "lat": 38.89224133333333, "is_disabled": 0, "lon": -77.0451385, "fusion_lon": 0.0, "is_reserved": 0, "fusion_lat": 0.0, "rental_uris": {"android": "https://dc.lft.to/lastmile_qr_scan", "ios": "https://dc.lft.to/lastmile_qr_scan"}, "type": "electric_scooter", "name": "d961efd3a2f3bb337f11520a1909c3c1"}, {"bike_id": "548de7ce456d18254d1eb7f75fd9110b", "lat": 38.8862685, "is_disabled": 0, "lon": -77.02219866666667, "fusion_lon": 0.0, "is_reserved": 0, "fusion_lat": 0.0, "rental_uris": {"android": "https://dc.lft.to/lastmile_qr_scan", "ios": "https://dc.lft.to/lastmile_qr_scan"}, "type": "electric_scooter", "name": "548de7ce456d18254d1eb7f75fd9110b"}, {"bike_id": "3b3d1f25c632d5efe241841a5f87288f", "lat": 38.91848733333333, "is_disabled": 0, "lon": -77.08996483333334, "fusion_lon": 0.0, "is_reserved": 0, "fusion_lat": 0.0, "rental_uris": {"android": "https://dc.lft.to/lastmile_qr_scan", "ios": "https://dc.lft.to/lastmile_qr_scan"}, "type": "electric_scooter", "name": "3b3d1f25c632d5efe241841a5f87288f"}, {"bike_id": "41b139cb3bfc244717e88c8f86e8a3c6", "lat": 38.887059666666666, "is_disabled": 0, "lon": -77.022036, "fusion_lon": 0.0, "is_reserved": 0, "fusion_lat": 0.0, "rental_uris": {"android": "https://dc.lft.to/lastmile_qr_scan", "ios": "https://dc.lft.to/lastmile_qr_scan"}, "type": "electric_scooter", "name": "41b139cb3bfc244717e88c8f86e8a3c6"}, {"bike_id": "a35392f250d3dc2854e343810bf1fb2d", "lat": 38.89222683333333, "is_disabled": 0, "lon": -77.03338416666666, "fusion_lon": 0.0, "is_reserved": 0, "fusion_lat": 0.0, "rental_uris": {"android": "https://dc.lft.to/lastmile_qr_scan", "ios": "https://dc.lft.to/lastmile_qr_scan"}, "type": "electric_scooter", "name": "a35392f250d3dc2854e343810bf1fb2d"}, {"bike_id": "30ad81741101c022869b0ce0a1adc097", "lat": 38.91774566666667, "is_disabled": 0, "lon": -77.02306333333334, "fusion_lon": 0.0, "is_reserved": 0, "fusion_lat": 0.0, "rental_uris": {"android": "https://dc.lft.to/lastmile_qr_scan", "ios": "https://dc.lft.to/lastmile_qr_scan"}, "type": "electric_scooter", "name": "30ad81741101c022869b0ce0a1adc097"}, {"bike_id": "4cb005262b52ce138a21c3e660a77855", "lat": 38.91975633333333, "is_disabled": 0, "lon": -77.0408745, "fusion_lon": 0.0, "is_reserved": 0, "fusion_lat": 0.0, "rental_uris": {"android": "https://dc.lft.to/lastmile_qr_scan", "ios": "https://dc.lft.to/lastmile_qr_scan"}, "type": "electric_scooter", "name": "4cb005262b52ce138a21c3e660a77855"}, {"bike_id": "fb396c8667e26366dcc99ee49d727802", "lat": 38.8198775, "is_disabled": 0, "lon": -76.99807783333333, "fusion_lon": 0.0, "is_reserved": 0, "fusion_lat": 0.0, "rental_uris": {"android": "https://dc.lft.to/lastmile_qr_scan", "ios": "https://dc.lft.to/lastmile_qr_scan"}, "type": "electric_bike", "name": "fb396c8667e26366dcc99ee49d727802"}, {"bike_id": "73b7a0f3952c065dbad82e5e2db5a026", "lat": 38.8716885, "is_disabled": 0, "lon": -77.0058055, "fusion_lon": 0.0, "is_reserved": 0, "fusion_lat": 0.0, "rental_uris": {"android": "https://dc.lft.to/lastmile_qr_scan", "ios": "https://dc.lft.to/lastmile_qr_scan"}, "type": "electric_scooter", "name": "73b7a0f3952c065dbad82e5e2db5a026"}, {"bike_id": "cf5722ed3506faf314048f502d94c0d4", "lat": 38.895891666666664, "is_disabled": 0, "lon": -77.04752766666667, "fusion_lon": 0.0, "is_reserved": 0, "fusion_lat": 0.0, "rental_uris": {"android": "https://dc.lft.to/lastmile_qr_scan", "ios": "https://dc.lft.to/lastmile_qr_scan"}, "type": "electric_scooter", "name": "cf5722ed3506faf314048f502d94c0d4"}, {"bike_id": "2165c7e23bbfc0d0bf71a59196023dc0", "lat": 38.891732833333336, "is_disabled": 0, "lon": -76.92660016666666, "fusion_lon": 0.0, "is_reserved": 0, "fusion_lat": 0.0, "rental_uris": {"android": "https://dc.lft.to/lastmile_qr_scan", "ios": "https://dc.lft.to/lastmile_qr_scan"}, "type": "electric_scooter", "name": "2165c7e23bbfc0d0bf71a59196023dc0"}, {"bike_id": "bb88fbccd36516a2e18bddbff3c3c954", "lat": 38.91199866666667, "is_disabled": 0, "lon": -76.98772816666667, "fusion_lon": 0.0, "is_reserved": 0, "fusion_lat": 0.0, "rental_uris": {"android": "https://dc.lft.to/lastmile_qr_scan", "ios": "https://dc.lft.to/lastmile_qr_scan"}, "type": "electric_scooter", "name": "bb88fbccd36516a2e18bddbff3c3c954"}, {"bike_id": "738b806a02e1fd4f91ebd3f6f0d2e14d", "lat": 38.942419666666666, "is_disabled": 0, "lon": -77.05873483333333, "fusion_lon": 0.0, "is_reserved": 0, "fusion_lat": 0.0, "rental_uris": {"android": "https://dc.lft.to/lastmile_qr_scan", "ios": "https://dc.lft.to/lastmile_qr_scan"}, "type": "electric_scooter", "name": "738b806a02e1fd4f91ebd3f6f0d2e14d"}, {"bike_id": "4671739bcdc40ed5d12129d5938cd3e4", "lat": 38.92104916666667, "is_disabled": 0, "lon": -77.0312255, "fusion_lon": 0.0, "is_reserved": 0, "fusion_lat": 0.0, "rental_uris": {"android": "https://dc.lft.to/lastmile_qr_scan", "ios": "https://dc.lft.to/lastmile_qr_scan"}, "type": "electric_scooter", "name": "4671739bcdc40ed5d12129d5938cd3e4"}, {"bike_id": "cd39ffdce340c4b1633c4a46267723d2", "lat": 38.95765433333333, "is_disabled": 0, "lon": -77.0149625, "fusion_lon": 0.0, "is_reserved": 0, "fusion_lat": 0.0, "rental_uris": {"android": "https://dc.lft.to/lastmile_qr_scan", "ios": "https://dc.lft.to/lastmile_qr_scan"}, "type": "electric_scooter", "name": "cd39ffdce340c4b1633c4a46267723d2"}, {"bike_id": "cb6a8afbfb9661627b7b9ca61a18b4a9", "lat": 38.920781, "is_disabled": 0, "lon": -77.02512383333334, "fusion_lon": 0.0, "is_reserved": 0, "fusion_lat": 0.0, "rental_uris": {"android": "https://dc.lft.to/lastmile_qr_scan", "ios": "https://dc.lft.to/lastmile_qr_scan"}, "type": "electric_scooter", "name": "cb6a8afbfb9661627b7b9ca61a18b4a9"}, {"bike_id": "ec029c3978cb1951e17ffb0ac87a4d15", "lat": 38.904063, "is_disabled": 0, "lon": -77.0678235, "fusion_lon": 0.0, "is_reserved": 0, "fusion_lat": 0.0, "rental_uris": {"android": "https://dc.lft.to/lastmile_qr_scan", "ios": "https://dc.lft.to/lastmile_qr_scan"}, "type": "electric_scooter", "name": "ec029c3978cb1951e17ffb0ac87a4d15"}, {"bike_id": "35c729a4b638bce32ea3aa5103700fcb", "lat": 38.900278166666666, "is_disabled": 0, "lon": -76.972275, "fusion_lon": 0.0, "is_reserved": 0, "fusion_lat": 0.0, "rental_uris": {"android": "https://dc.lft.to/lastmile_qr_scan", "ios": "https://dc.lft.to/lastmile_qr_scan"}, "type": "electric_bike", "name": "35c729a4b638bce32ea3aa5103700fcb"}, {"bike_id": "bd5e6f98a7c434e5385079ee75e8565c", "lat": 38.883682666666665, "is_disabled": 0, "lon": -76.99518316666666, "fusion_lon": 0.0, "is_reserved": 0, "fusion_lat": 0.0, "rental_uris": {"android": "https://dc.lft.to/lastmile_qr_scan", "ios": "https://dc.lft.to/lastmile_qr_scan"}, "type": "electric_scooter", "name": "bd5e6f98a7c434e5385079ee75e8565c"}, {"bike_id": "8604245a68fc44495f4370a2c67bed4a", "lat": 38.92437016666667, "is_disabled": 0, "lon": -77.039088, "fusion_lon": 0.0, "is_reserved": 0, "fusion_lat": 0.0, "rental_uris": {"android": "https://dc.lft.to/lastmile_qr_scan", "ios": "https://dc.lft.to/lastmile_qr_scan"}, "type": "electric_scooter", "name": "8604245a68fc44495f4370a2c67bed4a"}, {"bike_id": "1ddab4eabe63f107905725b5ec437a29", "lat": 38.892255166666665, "is_disabled": 0, "lon": -77.033387, "fusion_lon": 0.0, "is_reserved": 0, "fusion_lat": 0.0, "rental_uris": {"android": "https://dc.lft.to/lastmile_qr_scan", "ios": "https://dc.lft.to/lastmile_qr_scan"}, "type": "electric_scooter", "name": "1ddab4eabe63f107905725b5ec437a29"}, {"bike_id": "5c88efd57f5fbfd3fa11507425124290", "lat": 38.9219975, "is_disabled": 0, "lon": -77.041909, "fusion_lon": 0.0, "is_reserved": 0, "fusion_lat": 0.0, "rental_uris": {"android": "https://dc.lft.to/lastmile_qr_scan", "ios": "https://dc.lft.to/lastmile_qr_scan"}, "type": "electric_scooter", "name": "5c88efd57f5fbfd3fa11507425124290"}, {"bike_id": "1ee6e0e0f7d4fc4144397edb645ff1bc", "lat": 38.9350285, "is_disabled": 0, "lon": -77.05441066666667, "fusion_lon": 0.0, "is_reserved": 0, "fusion_lat": 0.0, "rental_uris": {"android": "https://dc.lft.to/lastmile_qr_scan", "ios": "https://dc.lft.to/lastmile_qr_scan"}, "type": "electric_scooter", "name": "1ee6e0e0f7d4fc4144397edb645ff1bc"}, {"bike_id": "59beb15e6ca9c8da9a387189a55935b0", "lat": 38.9016055, "is_disabled": 0, "lon": -77.0247125, "fusion_lon": 0.0, "is_reserved": 0, "fusion_lat": 0.0, "rental_uris": {"android": "https://dc.lft.to/lastmile_qr_scan", "ios": "https://dc.lft.to/lastmile_qr_scan"}, "type": "electric_scooter", "name": "59beb15e6ca9c8da9a387189a55935b0"}, {"bike_id": "b86902c4b338e1092eead76de68d64d7", "lat": 38.877636333333335, "is_disabled": 0, "lon": -76.99607616666667, "fusion_lon": 0.0, "is_reserved": 0, "fusion_lat": 0.0, "rental_uris": {"android": "https://dc.lft.to/lastmile_qr_scan", "ios": "https://dc.lft.to/lastmile_qr_scan"}, "type": "electric_scooter", "name": "b86902c4b338e1092eead76de68d64d7"}, {"bike_id": "248508af25f320d0536dbee5870fc8c1", "lat": 38.87670966666667, "is_disabled": 0, "lon": -76.93126566666666, "fusion_lon": 0.0, "is_reserved": 0, "fusion_lat": 0.0, "rental_uris": {"android": "https://dc.lft.to/lastmile_qr_scan", "ios": "https://dc.lft.to/lastmile_qr_scan"}, "type": "electric_scooter", "name": "248508af25f320d0536dbee5870fc8c1"}, {"bike_id": "16d46d9f3a1f6ac9142b4d3476372a82", "lat": 38.926546333333334, "is_disabled": 0, "lon": -77.02430416666667, "fusion_lon": 0.0, "is_reserved": 0, "fusion_lat": 0.0, "rental_uris": {"android": "https://dc.lft.to/lastmile_qr_scan", "ios": "https://dc.lft.to/lastmile_qr_scan"}, "type": "electric_scooter", "name": "16d46d9f3a1f6ac9142b4d3476372a82"}, {"bike_id": "087bead45bed9d90acc4ba6d5cc45ed6", "lat": 38.907069666666665, "is_disabled": 0, "lon": -76.9856195, "fusion_lon": 0.0, "is_reserved": 0, "fusion_lat": 0.0, "rental_uris": {"android": "https://dc.lft.to/lastmile_qr_scan", "ios": "https://dc.lft.to/lastmile_qr_scan"}, "type": "electric_scooter", "name": "087bead45bed9d90acc4ba6d5cc45ed6"}, {"bike_id": "eb673501d434dab858579f995bc4d812", "lat": 38.906382666666666, "is_disabled": 0, "lon": -77.04242583333334, "fusion_lon": 0.0, "is_reserved": 0, "fusion_lat": 0.0, "rental_uris": {"android": "https://dc.lft.to/lastmile_qr_scan", "ios": "https://dc.lft.to/lastmile_qr_scan"}, "type": "electric_scooter", "name": "eb673501d434dab858579f995bc4d812"}, {"bike_id": "993a91202993fe264985106742d5682d", "lat": 38.904533666666666, "is_disabled": 0, "lon": -77.006093, "fusion_lon": 0.0, "is_reserved": 0, "fusion_lat": 0.0, "rental_uris": {"android": "https://dc.lft.to/lastmile_qr_scan", "ios": "https://dc.lft.to/lastmile_qr_scan"}, "type": "electric_scooter", "name": "993a91202993fe264985106742d5682d"}, {"bike_id": "b862a47fe72b2df81ec7a8b67e67f7f6", "lat": 38.93279366666667, "is_disabled": 0, "lon": -77.04078766666666, "fusion_lon": 0.0, "is_reserved": 0, "fusion_lat": 0.0, "rental_uris": {"android": "https://dc.lft.to/lastmile_qr_scan", "ios": "https://dc.lft.to/lastmile_qr_scan"}, "type": "electric_scooter", "name": "b862a47fe72b2df81ec7a8b67e67f7f6"}, {"bike_id": "eb74c125a52ff607668e047db1e04ba5", "lat": 38.90338, "is_disabled": 0, "lon": -77.0192635, "fusion_lon": 0.0, "is_reserved": 0, "fusion_lat": 0.0, "rental_uris": {"android": "https://dc.lft.to/lastmile_qr_scan", "ios": "https://dc.lft.to/lastmile_qr_scan"}, "type": "electric_scooter", "name": "eb74c125a52ff607668e047db1e04ba5"}, {"bike_id": "66232706e5bf96674510b5a2c61c84bd", "lat": 38.89762666666667, "is_disabled": 0, "lon": -77.031926, "fusion_lon": 0.0, "is_reserved": 0, "fusion_lat": 0.0, "rental_uris": {"android": "https://dc.lft.to/lastmile_qr_scan", "ios": "https://dc.lft.to/lastmile_qr_scan"}, "type": "electric_scooter", "name": "66232706e5bf96674510b5a2c61c84bd"}, {"bike_id": "51ec64e8a64ee5bcff729773515ab66a", "lat": 38.899159166666664, "is_disabled": 0, "lon": -76.93382733333334, "fusion_lon": 0.0, "is_reserved": 0, "fusion_lat": 0.0, "rental_uris": {"android": "https://dc.lft.to/lastmile_qr_scan", "ios": "https://dc.lft.to/lastmile_qr_scan"}, "type": "electric_scooter", "name": "51ec64e8a64ee5bcff729773515ab66a"}, {"bike_id": "469b47f68b91bf73d2e2fe3684ebc4ef", "lat": 38.87646816666667, "is_disabled": 0, "lon": -76.9650465, "fusion_lon": 0.0, "is_reserved": 0, "fusion_lat": 0.0, "rental_uris": {"android": "https://dc.lft.to/lastmile_qr_scan", "ios": "https://dc.lft.to/lastmile_qr_scan"}, "type": "electric_scooter", "name": "469b47f68b91bf73d2e2fe3684ebc4ef"}, {"bike_id": "ee9e0b44a78bf6e699daa0d4bc9d8eea", "lat": 38.89003833333334, "is_disabled": 0, "lon": -77.00060683333334, "fusion_lon": 0.0, "is_reserved": 0, "fusion_lat": 0.0, "rental_uris": {"android": "https://dc.lft.to/lastmile_qr_scan", "ios": "https://dc.lft.to/lastmile_qr_scan"}, "type": "electric_scooter", "name": "ee9e0b44a78bf6e699daa0d4bc9d8eea"}, {"bike_id": "292bb0e4b3bcafb6c50abefbb3c5986e", "lat": 38.921038, "is_disabled": 0, "lon": -77.01770733333333, "fusion_lon": 0.0, "is_reserved": 0, "fusion_lat": 0.0, "rental_uris": {"android": "https://dc.lft.to/lastmile_qr_scan", "ios": "https://dc.lft.to/lastmile_qr_scan"}, "type": "electric_scooter", "name": "292bb0e4b3bcafb6c50abefbb3c5986e"}, {"bike_id": "fc45e917ca7c0f9f8c4c05de9b604bdf", "lat": 38.922478, "is_disabled": 0, "lon": -77.02123, "fusion_lon": 0.0, "is_reserved": 0, "fusion_lat": 0.0, "rental_uris": {"android": "https://dc.lft.to/lastmile_qr_scan", "ios": "https://dc.lft.to/lastmile_qr_scan"}, "type": "electric_scooter", "name": "fc45e917ca7c0f9f8c4c05de9b604bdf"}, {"bike_id": "7b86c4bf40eee0d143503a732b8ce9b5", "lat": 38.9090625, "is_disabled": 0, "lon": -77.04489966666667, "fusion_lon": 0.0, "is_reserved": 0, "fusion_lat": 0.0, "rental_uris": {"android": "https://dc.lft.to/lastmile_qr_scan", "ios": "https://dc.lft.to/lastmile_qr_scan"}, "type": "electric_scooter", "name": "7b86c4bf40eee0d143503a732b8ce9b5"}, {"bike_id": "796034c6648b720273ddba55bd0e8a8e", "lat": 38.8923735, "is_disabled": 0, "lon": -77.03213966666667, "fusion_lon": 0.0, "is_reserved": 0, "fusion_lat": 0.0, "rental_uris": {"android": "https://dc.lft.to/lastmile_qr_scan", "ios": "https://dc.lft.to/lastmile_qr_scan"}, "type": "electric_scooter", "name": "796034c6648b720273ddba55bd0e8a8e"}, {"bike_id": "1331c6108b121ba556715a38071dcab1", "lat": 38.91952716666667, "is_disabled": 0, "lon": -77.02588083333333, "fusion_lon": 0.0, "is_reserved": 0, "fusion_lat": 0.0, "rental_uris": {"android": "https://dc.lft.to/lastmile_qr_scan", "ios": "https://dc.lft.to/lastmile_qr_scan"}, "type": "electric_scooter", "name": "1331c6108b121ba556715a38071dcab1"}, {"bike_id": "813f3675493b7eb032a8ed3e19c5c7ea", "lat": 38.905823166666664, "is_disabled": 0, "lon": -77.04029066666666, "fusion_lon": 0.0, "is_reserved": 0, "fusion_lat": 0.0, "rental_uris": {"android": "https://dc.lft.to/lastmile_qr_scan", "ios": "https://dc.lft.to/lastmile_qr_scan"}, "type": "electric_scooter", "name": "813f3675493b7eb032a8ed3e19c5c7ea"}, {"bike_id": "cdb7fdf06590e05bba64af4610284c89", "lat": 38.88655083333333, "is_disabled": 0, "lon": -77.02813866666666, "fusion_lon": 0.0, "is_reserved": 0, "fusion_lat": 0.0, "rental_uris": {"android": "https://dc.lft.to/lastmile_qr_scan", "ios": "https://dc.lft.to/lastmile_qr_scan"}, "type": "electric_scooter", "name": "cdb7fdf06590e05bba64af4610284c89"}, {"bike_id": "ef6d5a5be041d54457f342d78a2e629b", "lat": 38.88179683333333, "is_disabled": 0, "lon": -77.0207995, "fusion_lon": 0.0, "is_reserved": 0, "fusion_lat": 0.0, "rental_uris": {"android": "https://dc.lft.to/lastmile_qr_scan", "ios": "https://dc.lft.to/lastmile_qr_scan"}, "type": "electric_scooter", "name": "ef6d5a5be041d54457f342d78a2e629b"}, {"bike_id": "a955728466e4e154bef205a76198cfc1", "lat": 38.835975833333336, "is_disabled": 0, "lon": -77.0012825, "fusion_lon": 0.0, "is_reserved": 0, "fusion_lat": 0.0, "rental_uris": {"android": "https://dc.lft.to/lastmile_qr_scan", "ios": "https://dc.lft.to/lastmile_qr_scan"}, "type": "electric_bike", "name": "a955728466e4e154bef205a76198cfc1"}, {"bike_id": "a7fb8d869699b950f5b78a2a58994cd3", "lat": 38.92652833333333, "is_disabled": 0, "lon": -77.02432483333334, "fusion_lon": 0.0, "is_reserved": 0, "fusion_lat": 0.0, "rental_uris": {"android": "https://dc.lft.to/lastmile_qr_scan", "ios": "https://dc.lft.to/lastmile_qr_scan"}, "type": "electric_scooter", "name": "a7fb8d869699b950f5b78a2a58994cd3"}, {"bike_id": "cc10b199e8839d14898acd42a4059bbd", "lat": 38.90034433333334, "is_disabled": 0, "lon": -77.04333366666667, "fusion_lon": 0.0, "is_reserved": 0, "fusion_lat": 0.0, "rental_uris": {"android": "https://dc.lft.to/lastmile_qr_scan", "ios": "https://dc.lft.to/lastmile_qr_scan"}, "type": "electric_scooter", "name": "cc10b199e8839d14898acd42a4059bbd"}, {"bike_id": "7af27f874845eb5f2423addbca236c70", "lat": 38.948878666666666, "is_disabled": 0, "lon": -77.0185455, "fusion_lon": 0.0, "is_reserved": 0, "fusion_lat": 0.0, "rental_uris": {"android": "https://dc.lft.to/lastmile_qr_scan", "ios": "https://dc.lft.to/lastmile_qr_scan"}, "type": "electric_scooter", "name": "7af27f874845eb5f2423addbca236c70"}, {"bike_id": "ff61177e6a04aa14b3b42a771c21c6a2", "lat": 38.87655616666667, "is_disabled": 0, "lon": -77.0034415, "fusion_lon": 0.0, "is_reserved": 0, "fusion_lat": 0.0, "rental_uris": {"android": "https://dc.lft.to/lastmile_qr_scan", "ios": "https://dc.lft.to/lastmile_qr_scan"}, "type": "electric_scooter", "name": "ff61177e6a04aa14b3b42a771c21c6a2"}, {"bike_id": "978d42258a2d9bad48a3f25fa95e16a4", "lat": 38.8985555, "is_disabled": 0, "lon": -77.02880883333333, "fusion_lon": 0.0, "is_reserved": 0, "fusion_lat": 0.0, "rental_uris": {"android": "https://dc.lft.to/lastmile_qr_scan", "ios": "https://dc.lft.to/lastmile_qr_scan"}, "type": "electric_scooter", "name": "978d42258a2d9bad48a3f25fa95e16a4"}, {"bike_id": "84064d00f91b8aa144a7bf05287fd25d", "lat": 38.91778266666667, "is_disabled": 0, "lon": -77.02333983333334, "fusion_lon": 0.0, "is_reserved": 0, "fusion_lat": 0.0, "rental_uris": {"android": "https://dc.lft.to/lastmile_qr_scan", "ios": "https://dc.lft.to/lastmile_qr_scan"}, "type": "electric_scooter", "name": "84064d00f91b8aa144a7bf05287fd25d"}, {"bike_id": "712981a5f8c85b52c016a8a8bbdb914a", "lat": 38.921218833333334, "is_disabled": 0, "lon": -77.04222116666666, "fusion_lon": 0.0, "is_reserved": 0, "fusion_lat": 0.0, "rental_uris": {"android": "https://dc.lft.to/lastmile_qr_scan", "ios": "https://dc.lft.to/lastmile_qr_scan"}, "type": "electric_scooter", "name": "712981a5f8c85b52c016a8a8bbdb914a"}, {"bike_id": "c8943f984b5dbd82742ff62ea7a0e345", "lat": 38.902371333333335, "is_disabled": 0, "lon": -77.00196783333334, "fusion_lon": 0.0, "is_reserved": 0, "fusion_lat": 0.0, "rental_uris": {"android": "https://dc.lft.to/lastmile_qr_scan", "ios": "https://dc.lft.to/lastmile_qr_scan"}, "type": "electric_scooter", "name": "c8943f984b5dbd82742ff62ea7a0e345"}, {"bike_id": "3fa707325a2369e028e15a36cde4f61a", "lat": 38.92735066666667, "is_disabled": 0, "lon": -76.955426, "fusion_lon": 0.0, "is_reserved": 0, "fusion_lat": 0.0, "rental_uris": {"android": "https://dc.lft.to/lastmile_qr_scan", "ios": "https://dc.lft.to/lastmile_qr_scan"}, "type": "electric_scooter", "name": "3fa707325a2369e028e15a36cde4f61a"}, {"bike_id": "a32c0144657d1c8a59c6d59e38d1d41d", "lat": 38.900314333333334, "is_disabled": 0, "lon": -77.01777516666667, "fusion_lon": 0.0, "is_reserved": 0, "fusion_lat": 0.0, "rental_uris": {"android": "https://dc.lft.to/lastmile_qr_scan", "ios": "https://dc.lft.to/lastmile_qr_scan"}, "type": "electric_scooter", "name": "a32c0144657d1c8a59c6d59e38d1d41d"}, {"bike_id": "e8c9babffc608fd6bcac12c5050a6024", "lat": 38.90085033333333, "is_disabled": 0, "lon": -77.024824, "fusion_lon": 0.0, "is_reserved": 0, "fusion_lat": 0.0, "rental_uris": {"android": "https://dc.lft.to/lastmile_qr_scan", "ios": "https://dc.lft.to/lastmile_qr_scan"}, "type": "electric_scooter", "name": "e8c9babffc608fd6bcac12c5050a6024"}, {"bike_id": "be1a75c0df55a5b6befb794ffb54bd33", "lat": 38.92027516666667, "is_disabled": 0, "lon": -77.04084666666667, "fusion_lon": 0.0, "is_reserved": 0, "fusion_lat": 0.0, "rental_uris": {"android": "https://dc.lft.to/lastmile_qr_scan", "ios": "https://dc.lft.to/lastmile_qr_scan"}, "type": "electric_scooter", "name": "be1a75c0df55a5b6befb794ffb54bd33"}, {"bike_id": "0568d556cecec65dc00089c434bfd3f6", "lat": 38.917779333333336, "is_disabled": 0, "lon": -77.0320795, "fusion_lon": 0.0, "is_reserved": 0, "fusion_lat": 0.0, "rental_uris": {"android": "https://dc.lft.to/lastmile_qr_scan", "ios": "https://dc.lft.to/lastmile_qr_scan"}, "type": "electric_scooter", "name": "0568d556cecec65dc00089c434bfd3f6"}, {"bike_id": "28bd451e9ab7c37b85892ed293084ff3", "lat": 38.9128735, "is_disabled": 0, "lon": -77.045145, "fusion_lon": 0.0, "is_reserved": 0, "fusion_lat": 0.0, "rental_uris": {"android": "https://dc.lft.to/lastmile_qr_scan", "ios": "https://dc.lft.to/lastmile_qr_scan"}, "type": "electric_scooter", "name": "28bd451e9ab7c37b85892ed293084ff3"}, {"bike_id": "f8bcfddd3a49196e7bc9076ff4b8931e", "lat": 38.88001216666667, "is_disabled": 0, "lon": -76.98542333333333, "fusion_lon": 0.0, "is_reserved": 0, "fusion_lat": 0.0, "rental_uris": {"android": "https://dc.lft.to/lastmile_qr_scan", "ios": "https://dc.lft.to/lastmile_qr_scan"}, "type": "electric_scooter", "name": "f8bcfddd3a49196e7bc9076ff4b8931e"}, {"bike_id": "e246f6f8f396ad86f3203f8c00e7b056", "lat": 38.932723333333335, "is_disabled": 0, "lon": -77.0413065, "fusion_lon": 0.0, "is_reserved": 0, "fusion_lat": 0.0, "rental_uris": {"android": "https://dc.lft.to/lastmile_qr_scan", "ios": "https://dc.lft.to/lastmile_qr_scan"}, "type": "electric_scooter", "name": "e246f6f8f396ad86f3203f8c00e7b056"}, {"bike_id": "bc56ef9495ef6120b3e7ceaef06a1627", "lat": 38.923207, "is_disabled": 0, "lon": -77.019567, "fusion_lon": 0.0, "is_reserved": 0, "fusion_lat": 0.0, "rental_uris": {"android": "https://dc.lft.to/lastmile_qr_scan", "ios": "https://dc.lft.to/lastmile_qr_scan"}, "type": "electric_scooter", "name": "bc56ef9495ef6120b3e7ceaef06a1627"}, {"bike_id": "c1025125a6bb79237bbbca2f942702bb", "lat": 38.8526875, "is_disabled": 0, "lon": -76.96993616666667, "fusion_lon": 0.0, "is_reserved": 0, "fusion_lat": 0.0, "rental_uris": {"android": "https://dc.lft.to/lastmile_qr_scan", "ios": "https://dc.lft.to/lastmile_qr_scan"}, "type": "electric_scooter", "name": "c1025125a6bb79237bbbca2f942702bb"}, {"bike_id": "2b41da932fcb5f26f014d3229a3c97b9", "lat": 38.916198333333334, "is_disabled": 0, "lon": -77.048865, "fusion_lon": 0.0, "is_reserved": 0, "fusion_lat": 0.0, "rental_uris": {"android": "https://dc.lft.to/lastmile_qr_scan", "ios": "https://dc.lft.to/lastmile_qr_scan"}, "type": "electric_scooter", "name": "2b41da932fcb5f26f014d3229a3c97b9"}, {"bike_id": "5f915f6b1aad8fc07613cde38646d257", "lat": 38.91105133333333, "is_disabled": 0, "lon": -77.045075, "fusion_lon": 0.0, "is_reserved": 0, "fusion_lat": 0.0, "rental_uris": {"android": "https://dc.lft.to/lastmile_qr_scan", "ios": "https://dc.lft.to/lastmile_qr_scan"}, "type": "electric_scooter", "name": "5f915f6b1aad8fc07613cde38646d257"}, {"bike_id": "9b515a7df781ca4608bcb2899db7da50", "lat": 38.89346916666667, "is_disabled": 0, "lon": -76.99145783333333, "fusion_lon": 0.0, "is_reserved": 0, "fusion_lat": 0.0, "rental_uris": {"android": "https://dc.lft.to/lastmile_qr_scan", "ios": "https://dc.lft.to/lastmile_qr_scan"}, "type": "electric_scooter", "name": "9b515a7df781ca4608bcb2899db7da50"}, {"bike_id": "bd4d1ba868cc6fb19de4f342cad822e8", "lat": 38.841923, "is_disabled": 0, "lon": -77.113544, "fusion_lon": 0.0, "is_reserved": 0, "fusion_lat": 0.0, "rental_uris": {"android": "https://dc.lft.to/lastmile_qr_scan", "ios": "https://dc.lft.to/lastmile_qr_scan"}, "type": "electric_bike", "name": "bd4d1ba868cc6fb19de4f342cad822e8"}, {"bike_id": "77e050154256ce19c4b73c644baec933", "lat": 39.03896, "is_disabled": 0, "lon": -77.05027866666667, "fusion_lon": 0.0, "is_reserved": 0, "fusion_lat": 0.0, "rental_uris": {"android": "https://dc.lft.to/lastmile_qr_scan", "ios": "https://dc.lft.to/lastmile_qr_scan"}, "type": "electric_bike", "name": "77e050154256ce19c4b73c644baec933"}, {"bike_id": "2138fe2412a3ef9b601f31c05ecb92bf", "lat": 38.919106, "is_disabled": 0, "lon": -77.03622, "fusion_lon": 0.0, "is_reserved": 0, "fusion_lat": 0.0, "rental_uris": {"android": "https://dc.lft.to/lastmile_qr_scan", "ios": "https://dc.lft.to/lastmile_qr_scan"}, "type": "electric_scooter", "name": "2138fe2412a3ef9b601f31c05ecb92bf"}, {"bike_id": "b7ada8e9d8203b38eb27eec915d61fef", "lat": 38.9162645, "is_disabled": 0, "lon": -77.03213033333333, "fusion_lon": 0.0, "is_reserved": 0, "fusion_lat": 0.0, "rental_uris": {"android": "https://dc.lft.to/lastmile_qr_scan", "ios": "https://dc.lft.to/lastmile_qr_scan"}, "type": "electric_scooter", "name": "b7ada8e9d8203b38eb27eec915d61fef"}, {"bike_id": "f0feca21d3697f1680f8acf21503a1ca", "lat": 38.892239833333335, "is_disabled": 0, "lon": -77.03988766666667, "fusion_lon": 0.0, "is_reserved": 0, "fusion_lat": 0.0, "rental_uris": {"android": "https://dc.lft.to/lastmile_qr_scan", "ios": "https://dc.lft.to/lastmile_qr_scan"}, "type": "electric_scooter", "name": "f0feca21d3697f1680f8acf21503a1ca"}, {"bike_id": "069d2c7dff27f60be8905aedb0350541", "lat": 38.9233345, "is_disabled": 0, "lon": -77.03505316666667, "fusion_lon": 0.0, "is_reserved": 0, "fusion_lat": 0.0, "rental_uris": {"android": "https://dc.lft.to/lastmile_qr_scan", "ios": "https://dc.lft.to/lastmile_qr_scan"}, "type": "electric_scooter", "name": "069d2c7dff27f60be8905aedb0350541"}, {"bike_id": "20cf9eac5144e86dd8f142b87eb9b3e0", "lat": 38.97194133333333, "is_disabled": 0, "lon": -77.02716083333334, "fusion_lon": 0.0, "is_reserved": 0, "fusion_lat": 0.0, "rental_uris": {"android": "https://dc.lft.to/lastmile_qr_scan", "ios": "https://dc.lft.to/lastmile_qr_scan"}, "type": "electric_bike", "name": "20cf9eac5144e86dd8f142b87eb9b3e0"},