{"data": {"bikes": [{"rental_uris": {"ios": "https://dc.lft.to/lastmile_qr_scan", "android": "https://dc.lft.to/lastmile_qr_scan"}, "type": "electric_scooter", "name": "ecf8030d0c01dc8859576bbf16e873f8", "is_reserved": 0, "lon": -76.98612433333334, "is_disabled": 0, "fusion_lat": 0.0, "lat": 38.878408666666665, "bike_id": "ecf8030d0c01dc8859576bbf16e873f8", "fusion_lon": 0.0}, {"rental_uris": {"ios": "https://dc.lft.to/lastmile_qr_scan", "android": "https://dc.lft.to/lastmile_qr_scan"}, "type": "electric_scooter", "name": "463a9c5c46ea06eecc2944daad54c98e", "is_reserved": 0, "lon": -77.01944666666667, "is_disabled": 0, "fusion_lat": 0.0, "lat": 38.8765065, "bike_id": "463a9c5c46ea06eecc2944daad54c98e", "fusion_lon": 0.0}, {"rental_uris": {"ios": "https://dc.lft.to/lastmile_qr_scan", "android": "https://dc.lft.to/lastmile_qr_scan"}, "type": "electric_scooter", "name": "b2a5d79712980ca7f6580b0720230e3e", "is_reserved": 0, "lon": -77.00876833333334, "is_disabled": 0, "fusion_lat": 0.0, "lat": 38.9126, "bike_id": "b2a5d79712980ca7f6580b0720230e3e", "fusion_lon": 0.0}, {"rental_uris": {"ios": "https://dc.lft.to/lastmile_qr_scan", "android": "https://dc.lft.to/lastmile_qr_scan"}, "type": "electric_scooter", "name": "94ea5fd6f737c39110705805f1756843", "is_reserved": 0, "lon": -77.024614, "is_disabled": 0, "fusion_lat": 0.0, "lat": 38.92503466666667, "bike_id": "94ea5fd6f737c39110705805f1756843", "fusion_lon": 0.0}, {"rental_uris": {"ios": "https://dc.lft.to/lastmile_qr_scan", "android": "https://dc.lft.to/lastmile_qr_scan"}, "type": "electric_scooter", "name": "2f8c24358f6627c171f16fac1d75c036", "is_reserved": 0, "lon": -76.99412716666667, "is_disabled": 0, "fusion_lat": 0.0, "lat": 38.8778325, "bike_id": "2f8c24358f6627c171f16fac1d75c036", "fusion_lon": 0.0}, {"rental_uris": {"ios": "https://dc.lft.to/lastmile_qr_scan", "android": "https://dc.lft.to/lastmile_qr_scan"}, "type": "electric_scooter", "name": "c263b333d73a3b6a0802dc977f801599", "is_reserved": 0, "lon": -77.02058383333333, "is_disabled": 0, "fusion_lat": 0.0, "lat": 38.92248083333333, "bike_id": "c263b333d73a3b6a0802dc977f801599", "fusion_lon": 0.0}, {"rental_uris": {"ios": "https://dc.lft.to/lastmile_qr_scan", "android": "https://dc.lft.to/lastmile_qr_scan"}, "type": "electric_scooter", "name": "a3cfd7bda9cf1b0e9e4af407d92dfe05", "is_reserved": 0, "lon": -77.009359, "is_disabled": 0, "fusion_lat": 0.0, "lat": 38.87672833333333, "bike_id": "a3cfd7bda9cf1b0e9e4af407d92dfe05", "fusion_lon": 0.0}, {"rental_uris": {"ios": "https://dc.lft.to/lastmile_qr_scan", "android": "https://dc.lft.to/lastmile_qr_scan"}, "type": "electric_scooter", "name": "a462e9a1b567e22b05f61ca1a0344d36", "is_reserved": 0, "lon": -76.9840005, "is_disabled": 0, "fusion_lat": 0.0, "lat": 38.925166833333336, "bike_id": "a462e9a1b567e22b05f61ca1a0344d36", "fusion_lon": 0.0}, {"rental_uris": {"ios": "https://dc.lft.to/lastmile_qr_scan", "android": "https://dc.lft.to/lastmile_qr_scan"}, "type": "electric_bike", "name": "d98eb88d5d1642b432bda81769699cf8", "is_reserved": 0, "lon": -76.88971983333333, "is_disabled": 0, "fusion_lat": 0.0, "lat": 39.0077535, "bike_id": "d98eb88d5d1642b432bda81769699cf8", "fusion_lon": 0.0}, {"rental_uris": {"ios": "https://dc.lft.to/lastmile_qr_scan", "android": "https://dc.lft.to/lastmile_qr_scan"}, "type": "electric_scooter", "name": "2990a14168b2b8dfcc28e998e0156bb9", "is_reserved": 0, "lon": -77.0296265, "is_disabled": 0, "fusion_lat": 0.0, "lat": 38.92383683333333, "bike_id": "2990a14168b2b8dfcc28e998e0156bb9", "fusion_lon": 0.0}, {"rental_uris": {"ios": "https://dc.lft.to/lastmile_qr_scan", "android": "https://dc.lft.to/lastmile_qr_scan"}, "type": "electric_scooter", "name": "69a32ea429dbc9b08b9844b332300200", "is_reserved": 0, "lon": -77.03955616666667, "is_disabled": 0, "fusion_lat": 0.0, "lat": 38.892462333333334, "bike_id": "69a32ea429dbc9b08b9844b332300200", "fusion_lon": 0.0}, {"rental_uris": {"ios": "https://dc.lft.to/lastmile_qr_scan", "android": "https://dc.lft.to/lastmile_qr_scan"}, "type": "electric_bike", "name": "242577c227da7dbd8c4152e01b6c7d7d", "is_reserved": 0, "lon": -76.983449, "is_disabled": 0, "fusion_lat": 0.0, "lat": 38.862691833333336, "bike_id": "242577c227da7dbd8c4152e01b6c7d7d", "fusion_lon": 0.0}, {"rental_uris": {"ios": "https://dc.lft.to/lastmile_qr_scan", "android": "https://dc.lft.to/lastmile_qr_scan"}, "type": "electric_scooter", "name": "7e7b4859d3edd43710cbe7aa224e0e15", "is_reserved": 0, "lon": -77.03473166666667, "is_disabled": 0, "fusion_lat": 0.0, "lat": 38.93023933333333, "bike_id": "7e7b4859d3edd43710cbe7aa224e0e15", "fusion_lon": 0.0}, {"rental_uris": {"ios": "https://dc.lft.to/lastmile_qr_scan", "android": "https://dc.lft.to/lastmile_qr_scan"}, "type": "electric_scooter", "name": "5dee7ad0c01e1dbf878a400203534486", "is_reserved": 0, "lon": -77.03445333333333, "is_disabled": 0, "fusion_lat": 0.0, "lat": 38.907348166666665, "bike_id": "5dee7ad0c01e1dbf878a400203534486", "fusion_lon": 0.0}, {"rental_uris": {"ios": "https://dc.lft.to/lastmile_qr_scan", "android": "https://dc.lft.to/lastmile_qr_scan"}, "type": "electric_scooter", "name": "8a30bb78aeaa5fbe02361c56e65db83d", "is_reserved": 0, "lon": -77.04742783333333, "is_disabled": 0, "fusion_lat": 0.0, "lat": 38.91257683333333, "bike_id": "8a30bb78aeaa5fbe02361c56e65db83d", "fusion_lon": 0.0}, {"rental_uris": {"ios": "https://dc.lft.to/lastmile_qr_scan", "android": "https://dc.lft.to/lastmile_qr_scan"}, "type": "electric_scooter", "name": "0501996ad384ff771c80424221bfd406", "is_reserved": 0, "lon": -77.02724166666667, "is_disabled": 0, "fusion_lat": 0.0, "lat": 38.934005, "bike_id": "0501996ad384ff771c80424221bfd406", "fusion_lon": 0.0}, {"rental_uris": {"ios": "https://dc.lft.to/lastmile_qr_scan", "android": "https://dc.lft.to/lastmile_qr_scan"}, "type": "electric_bike", "name": "0c6a73838b538b15d032fdff7b0ff207", "is_reserved": 0, "lon": -76.9701425, "is_disabled": 0, "fusion_lat": 0.0, "lat": 38.863672666666666, "bike_id": "0c6a73838b538b15d032fdff7b0ff207", "fusion_lon": 0.0}, {"rental_uris": {"ios": "https://dc.lft.to/lastmile_qr_scan", "android": "https://dc.lft.to/lastmile_qr_scan"}, "type": "electric_scooter", "name": "96c3d738a7e507a450fbfb903deeb07f", "is_reserved": 0, "lon": -77.0006645, "is_disabled": 0, "fusion_lat": 0.0, "lat": 38.91914283333333, "bike_id": "96c3d738a7e507a450fbfb903deeb07f", "fusion_lon": 0.0}, {"rental_uris": {"ios": "https://dc.lft.to/lastmile_qr_scan", "android": "https://dc.lft.to/lastmile_qr_scan"}, "type": "electric_scooter", "name": "2b67f2ef1f4e4cdc4f7b752fd6d4ab29", "is_reserved": 0, "lon": -77.07847833333334, "is_disabled": 0, "fusion_lat": 0.0, "lat": 38.9315295, "bike_id": "2b67f2ef1f4e4cdc4f7b752fd6d4ab29", "fusion_lon": 0.0}, {"rental_uris": {"ios": "https://dc.lft.to/lastmile_qr_scan", "android": "https://dc.lft.to/lastmile_qr_scan"}, "type": "electric_scooter", "name": "0016c9e0211e29767f643b02afb8ef90", "is_reserved": 0, "lon": -77.03995633333334, "is_disabled": 0, "fusion_lat": 0.0, "lat": 38.9418815, "bike_id": "0016c9e0211e29767f643b02afb8ef90", "fusion_lon": 0.0}, {"rental_uris": {"ios": "https://dc.lft.to/lastmile_qr_scan", "android": "https://dc.lft.to/lastmile_qr_scan"}, "type": "electric_scooter", "name": "dedc4dd36b83286d6cd9bc4502590c3e", "is_reserved": 0, "lon": -77.009578, "is_disabled": 0, "fusion_lat": 0.0, "lat": 38.89769583333333, "bike_id": "dedc4dd36b83286d6cd9bc4502590c3e", "fusion_lon": 0.0}, {"rental_uris": {"ios": "https://dc.lft.to/lastmile_qr_scan", "android": "https://dc.lft.to/lastmile_qr_scan"}, "type": "electric_bike", "name": "80fd9d23f6007deec84e825fa1015b34", "is_reserved": 0, "lon": -77.08141816666667, "is_disabled": 0, "fusion_lat": 0.0, "lat": 38.822981666666664, "bike_id": "80fd9d23f6007deec84e825fa1015b34", "fusion_lon": 0.0}, {"rental_uris": {"ios": "https://dc.lft.to/lastmile_qr_scan", "android": "https://dc.lft.to/lastmile_qr_scan"}, "type": "electric_bike", "name": "b2363603dc6232d22337289a27e672ad", "is_reserved": 0, "lon": -76.96325, "is_disabled": 0, "fusion_lat": 0.0, "lat": 38.9389495, "bike_id": "b2363603dc6232d22337289a27e672ad", "fusion_lon": 0.0}, {"rental_uris": {"ios": "https://dc.lft.to/lastmile_qr_scan", "android": "https://dc.lft.to/lastmile_qr_scan"}, "type": "electric_scooter", "name": "cda89fef8b0c643e4f254da384685d0e", "is_reserved": 0, "lon": -77.04257716666666, "is_disabled": 0, "fusion_lat": 0.0, "lat": 38.92064883333333, "bike_id": "cda89fef8b0c643e4f254da384685d0e", "fusion_lon": 0.0}, {"rental_uris": {"ios": "https://dc.lft.to/lastmile_qr_scan", "android": "https://dc.lft.to/lastmile_qr_scan"}, "type": "electric_scooter", "name": "61315a622d9c3fa7aad4f1297e48a8bf", "is_reserved": 0, "lon": -77.036316, "is_disabled": 0, "fusion_lat": 0.0, "lat": 38.948168333333335, "bike_id": "61315a622d9c3fa7aad4f1297e48a8bf", "fusion_lon": 0.0}, {"rental_uris": {"ios": "https://dc.lft.to/lastmile_qr_scan", "android": "https://dc.lft.to/lastmile_qr_scan"}, "type": "electric_scooter", "name": "1ee84d7db380c2fc98f2b3775164f957", "is_reserved": 0, "lon": -77.0395735, "is_disabled": 0, "fusion_lat": 0.0, "lat": 38.89247366666667, "bike_id": "1ee84d7db380c2fc98f2b3775164f957", "fusion_lon": 0.0}, {"rental_uris": {"ios": "https://dc.lft.to/lastmile_qr_scan", "android": "https://dc.lft.to/lastmile_qr_scan"}, "type": "electric_scooter", "name": "1082e6b8d05377977c402968f9cf5a50", "is_reserved": 0, "lon": -77.03778066666666, "is_disabled": 0, "fusion_lat": 0.0, "lat": 38.91254266666667, "bike_id": "1082e6b8d05377977c402968f9cf5a50", "fusion_lon": 0.0}, {"rental_uris": {"ios": "https://dc.lft.to/lastmile_qr_scan", "android": "https://dc.lft.to/lastmile_qr_scan"}, "type": "electric_scooter", "name": "9d1d1faee87894b7280f6deae2fff651", "is_reserved": 0, "lon": -77.032635, "is_disabled": 0, "fusion_lat": 0.0, "lat": 38.911153666666664, "bike_id": "9d1d1faee87894b7280f6deae2fff651", "fusion_lon": 0.0}, {"rental_uris": {"ios": "https://dc.lft.to/lastmile_qr_scan", "android": "https://dc.lft.to/lastmile_qr_scan"}, "type": "electric_scooter", "name": "c683f22a915ca00a85ed71418a52c03c", "is_reserved": 0, "lon": -77.04398016666667, "is_disabled": 0, "fusion_lat": 0.0, "lat": 38.91660916666667, "bike_id": "c683f22a915ca00a85ed71418a52c03c", "fusion_lon": 0.0}, {"rental_uris": {"ios": "https://dc.lft.to/lastmile_qr_scan", "android": "https://dc.lft.to/lastmile_qr_scan"}, "type": "electric_scooter", "name": "b9f7823b8e1967335fb32f832ca3b44f", "is_reserved": 0, "lon": -76.97803266666666, "is_disabled": 0, "fusion_lat": 0.0, "lat": 38.903092, "bike_id": "b9f7823b8e1967335fb32f832ca3b44f", "fusion_lon": 0.0}, {"rental_uris": {"ios": "https://dc.lft.to/lastmile_qr_scan", "android": "https://dc.lft.to/lastmile_qr_scan"}, "type": "electric_scooter", "name": "f55700f3ed0db744d8870ff384ffe2d6", "is_reserved": 0, "lon": -77.02761916666667, "is_disabled": 0, "fusion_lat": 0.0, "lat": 38.92386716666667, "bike_id": "f55700f3ed0db744d8870ff384ffe2d6", "fusion_lon": 0.0}, {"rental_uris": {"ios": "https://dc.lft.to/lastmile_qr_scan", "android": "https://dc.lft.to/lastmile_qr_scan"}, "type": "electric_scooter", "name": "190285e0e7842dc71ebdb650327ca664", "is_reserved": 0, "lon": -76.9697985, "is_disabled": 0, "fusion_lat": 0.0, "lat": 38.8740305, "bike_id": "190285e0e7842dc71ebdb650327ca664", "fusion_lon": 0.0}, {"rental_uris": {"ios": "https://dc.lft.to/lastmile_qr_scan", "android": "https://dc.lft.to/lastmile_qr_scan"}, "type": "electric_scooter", "name": "4b497b73b45a25290de7cf78609912e7", "is_reserved": 0, "lon": -77.03333033333334, "is_disabled": 0, "fusion_lat": 0.0, "lat": 38.896373833333335, "bike_id": "4b497b73b45a25290de7cf78609912e7", "fusion_lon": 0.0}, {"rental_uris": {"ios": "https://dc.lft.to/lastmile_qr_scan", "android": "https://dc.lft.to/lastmile_qr_scan"}, "type": "electric_scooter", "name": "40de7c9171e8cfd666021c5aad9cb300", "is_reserved": 0, "lon": -77.00982116666667, "is_disabled": 0, "fusion_lat": 0.0, "lat": 38.91033016666667, "bike_id": "40de7c9171e8cfd666021c5aad9cb300", "fusion_lon": 0.0}, {"rental_uris": {"ios": "https://dc.lft.to/lastmile_qr_scan", "android": "https://dc.lft.to/lastmile_qr_scan"}, "type": "electric_scooter", "name": "d6071eba3ba1d1381601108f2ed23537", "is_reserved": 0, "lon": -77.03073016666667, "is_disabled": 0, "fusion_lat": 0.0, "lat": 38.931723833333336, "bike_id": "d6071eba3ba1d1381601108f2ed23537", "fusion_lon": 0.0}, {"rental_uris": {"ios": "https://dc.lft.to/lastmile_qr_scan", "android": "https://dc.lft.to/lastmile_qr_scan"}, "type": "electric_scooter", "name": "0bb2e0cb8aa0a37d8ed58c32701e1832", "is_reserved": 0, "lon": -76.96158266666667, "is_disabled": 0, "fusion_lat": 0.0, "lat": 38.8836205, "bike_id": "0bb2e0cb8aa0a37d8ed58c32701e1832", "fusion_lon": 0.0}, {"rental_uris": {"ios": "https://dc.lft.to/lastmile_qr_scan", "android": "https://dc.lft.to/lastmile_qr_scan"}, "type": "electric_scooter", "name": "0b06844845d59abf3dd654d9b82e170c", "is_reserved": 0, "lon": -77.04682983333333, "is_disabled": 0, "fusion_lat": 0.0, "lat": 38.91405183333333, "bike_id": "0b06844845d59abf3dd654d9b82e170c", "fusion_lon": 0.0}, {"rental_uris": {"ios": "https://dc.lft.to/lastmile_qr_scan", "android": "https://dc.lft.to/lastmile_qr_scan"}, "type": "electric_scooter", "name": "067d63b2bed11e891a61163c7a6620b8", "is_reserved": 0, "lon": -77.04876483333334, "is_disabled": 0, "fusion_lat": 0.0, "lat": 38.9065045, "bike_id": "067d63b2bed11e891a61163c7a6620b8", "fusion_lon": 0.0}, {"rental_uris": {"ios": "https://dc.lft.to/lastmile_qr_scan", "android": "https://dc.lft.to/lastmile_qr_scan"}, "type": "electric_bike", "name": "06377f4c0625ac1a41226ecb27eebaf1", "is_reserved": 0, "lon": -77.10867283333333, "is_disabled": 0, "fusion_lat": 0.0, "lat": 38.93579583333333, "bike_id": "06377f4c0625ac1a41226ecb27eebaf1", "fusion_lon": 0.0}, {"rental_uris": {"ios": "https://dc.lft.to/lastmile_qr_scan", "android": "https://dc.lft.to/lastmile_qr_scan"}, "type": "electric_bike", "name": "9c730116af8a6a8d4eefbde0e85f088a", "is_reserved": 0, "lon": -76.9828525, "is_disabled": 0, "fusion_lat": 0.0, "lat": 38.84684416666666, "bike_id": "9c730116af8a6a8d4eefbde0e85f088a", "fusion_lon": 0.0}, {"rental_uris": {"ios": "https://dc.lft.to/lastmile_qr_scan", "android": "https://dc.lft.to/lastmile_qr_scan"}, "type": "electric_bike", "name": "a14ae812c19476f5758a13af9dbeb673", "is_reserved": 0, "lon": -77.04685516666666, "is_disabled": 0, "fusion_lat": 0.0, "lat": 38.921163666666665, "bike_id": "a14ae812c19476f5758a13af9dbeb673", "fusion_lon": 0.0}, {"rental_uris": {"ios": "https://dc.lft.to/lastmile_qr_scan", "android": "https://dc.lft.to/lastmile_qr_scan"}, "type": "electric_bike", "name": "e27b3863708ca64b6916e8b9394edbd6", "is_reserved": 0, "lon": -76.97567433333333, "is_disabled": 0, "fusion_lat": 0.0, "lat": 38.89948283333333, "bike_id": "e27b3863708ca64b6916e8b9394edbd6", "fusion_lon": 0.0}, {"rental_uris": {"ios": "https://dc.lft.to/lastmile_qr_scan", "android": "https://dc.lft.to/lastmile_qr_scan"}, "type": "electric_scooter", "name": "d262a658f9adc22e900e7eff294e6de7", "is_reserved": 0, "lon": -76.976119, "is_disabled": 0, "fusion_lat": 0.0, "lat": 38.873007666666666, "bike_id": "d262a658f9adc22e900e7eff294e6de7", "fusion_lon": 0.0}, {"rental_uris": {"ios": "https://dc.lft.to/lastmile_qr_scan", "android": "https://dc.lft.to/lastmile_qr_scan"}, "type": "electric_scooter", "name": "f7cd24271fcccdfbf6583470c56da3af", "is_reserved": 0, "lon": -77.045291, "is_disabled": 0, "fusion_lat": 0.0, "lat": 38.932775166666666, "bike_id": "f7cd24271fcccdfbf6583470c56da3af", "fusion_lon": 0.0}, {"rental_uris": {"ios": "https://dc.lft.to/lastmile_qr_scan", "android": "https://dc.lft.to/lastmile_qr_scan"}, "type": "electric_scooter", "name": "6aef7f8ecaa1f0ee96a8bf74044757e6", "is_reserved": 0, "lon": -77.02234933333334, "is_disabled": 0, "fusion_lat": 0.0, "lat": 38.878199333333335, "bike_id": "6aef7f8ecaa1f0ee96a8bf74044757e6", "fusion_lon": 0.0}, {"rental_uris": {"ios": "https://dc.lft.to/lastmile_qr_scan", "android": "https://dc.lft.to/lastmile_qr_scan"}, "type": "electric_scooter", "name": "8e4c0568224f855837fefe420a43a1f4", "is_reserved": 0, "lon": -77.02598466666667, "is_disabled": 0, "fusion_lat": 0.0, "lat": 38.905079, "bike_id": "8e4c0568224f855837fefe420a43a1f4", "fusion_lon": 0.0}, {"rental_uris": {"ios": "https://dc.lft.to/lastmile_qr_scan", "android": "https://dc.lft.to/lastmile_qr_scan"}, "type": "electric_scooter", "name": "9020b2e8a352eed511e9b56500c3aeaf", "is_reserved": 0, "lon": -77.02513966666666, "is_disabled": 0, "fusion_lat": 0.0, "lat": 38.91693016666667, "bike_id": "9020b2e8a352eed511e9b56500c3aeaf", "fusion_lon": 0.0}, {"rental_uris": {"ios": "https://dc.lft.to/lastmile_qr_scan", "android": "https://dc.lft.to/lastmile_qr_scan"}, "type": "electric_scooter", "name": "7d5056d488f6d0ea55f97912a8e5552d", "is_reserved": 0, "lon": -77.003817, "is_disabled": 0, "fusion_lat": 0.0, "lat": 38.940612333333334, "bike_id": "7d5056d488f6d0ea55f97912a8e5552d", "fusion_lon": 0.0}, {"rental_uris": {"ios": "https://dc.lft.to/lastmile_qr_scan", "android": "https://dc.lft.to/lastmile_qr_scan"}, "type": "electric_bike", "name": "53d94a6bd33aa47d1ca788a31d0f832d", "is_reserved": 0, "lon": -76.999212, "is_disabled": 0, "fusion_lat": 0.0, "lat": 38.994692, "bike_id": "53d94a6bd33aa47d1ca788a31d0f832d", "fusion_lon": 0.0}, {"rental_uris": {"ios": "https://dc.lft.to/lastmile_qr_scan", "android": "https://dc.lft.to/lastmile_qr_scan"}, "type": "electric_scooter", "name": "89b09c1e126c43986016e6e61a92534a", "is_reserved": 0, "lon": -77.04311216666666, "is_disabled": 0, "fusion_lat": 0.0, "lat": 38.922234333333336, "bike_id": "89b09c1e126c43986016e6e61a92534a", "fusion_lon": 0.0}, {"rental_uris": {"ios": "https://dc.lft.to/lastmile_qr_scan", "android": "https://dc.lft.to/lastmile_qr_scan"}, "type": "electric_scooter", "name": "0e0144a70d40440ca9754596b2964c3c", "is_reserved": 0, "lon": -77.04672083333334, "is_disabled": 0, "fusion_lat": 0.0, "lat": 38.892808333333335, "bike_id": "0e0144a70d40440ca9754596b2964c3c", "fusion_lon": 0.0}, {"rental_uris": {"ios": "https://dc.lft.to/lastmile_qr_scan", "android": "https://dc.lft.to/lastmile_qr_scan"}, "type": "electric_scooter", "name": "37996f480fbdf26c55c3fd6b8e9ea8a7", "is_reserved": 0, "lon": -77.04683866666667, "is_disabled": 0, "fusion_lat": 0.0, "lat": 38.89222916666667, "bike_id": "37996f480fbdf26c55c3fd6b8e9ea8a7", "fusion_lon": 0.0}, {"rental_uris": {"ios": "https://dc.lft.to/lastmile_qr_scan", "android": "https://dc.lft.to/lastmile_qr_scan"}, "type": "electric_scooter", "name": "73fbde81444815970e12bab48a905589", "is_reserved": 0, "lon": -77.03441333333333, "is_disabled": 0, "fusion_lat": 0.0, "lat": 38.91801016666667, "bike_id": "73fbde81444815970e12bab48a905589", "fusion_lon": 0.0}, {"rental_uris": {"ios": "https://dc.lft.to/lastmile_qr_scan", "android": "https://dc.lft.to/lastmile_qr_scan"}, "type": "electric_bike", "name": "441139062ef57c93e1ef155a27e07a3b", "is_reserved": 0, "lon": -77.0551935, "is_disabled": 0, "fusion_lat": 0.0, "lat": 38.94408266666667, "bike_id": "441139062ef57c93e1ef155a27e07a3b", "fusion_lon": 0.0}, {"rental_uris": {"ios": "https://dc.lft.to/lastmile_qr_scan", "android": "https://dc.lft.to/lastmile_qr_scan"}, "type": "electric_scooter", "name": "b95428edfcc27eaa56ac8044e4bd00e0", "is_reserved": 0, "lon": -77.03958366666667, "is_disabled": 0, "fusion_lat": 0.0, "lat": 38.892440666666666, "bike_id": "b95428edfcc27eaa56ac8044e4bd00e0", "fusion_lon": 0.0}, {"rental_uris": {"ios": "https://dc.lft.to/lastmile_qr_scan", "android": "https://dc.lft.to/lastmile_qr_scan"}, "type": "electric_scooter", "name": "d95ac0ab9254761892e9c59d0f938409", "is_reserved": 0, "lon": -77.04477516666667, "is_disabled": 0, "fusion_lat": 0.0, "lat": 38.922977333333336, "bike_id": "d95ac0ab9254761892e9c59d0f938409", "fusion_lon": 0.0}, {"rental_uris": {"ios": "https://dc.lft.to/lastmile_qr_scan", "android": "https://dc.lft.to/lastmile_qr_scan"}, "type": "electric_scooter", "name": "f9ef6db3dab89ab04f4c23777a5a06c0", "is_reserved": 0, "lon": -77.0660715, "is_disabled": 0, "fusion_lat": 0.0, "lat": 38.9111725, "bike_id": "f9ef6db3dab89ab04f4c23777a5a06c0", "fusion_lon": 0.0}, {"rental_uris": {"ios": "https://dc.lft.to/lastmile_qr_scan", "android": "https://dc.lft.to/lastmile_qr_scan"}, "type": "electric_scooter", "name": "267b6257e518a90c64c3ce58a12784e8", "is_reserved": 0, "lon": -77.023571, "is_disabled": 0, "fusion_lat": 0.0, "lat": 38.925071333333335, "bike_id": "267b6257e518a90c64c3ce58a12784e8", "fusion_lon": 0.0}, {"rental_uris": {"ios": "https://dc.lft.to/lastmile_qr_scan", "android": "https://dc.lft.to/lastmile_qr_scan"}, "type": "electric_scooter", "name": "70a07d329e8c4351617658c46d3838e9", "is_reserved": 0, "lon": -77.02780033333333, "is_disabled": 0, "fusion_lat": 0.0, "lat": 38.962448, "bike_id": "70a07d329e8c4351617658c46d3838e9", "fusion_lon": 0.0}, {"rental_uris": {"ios": "https://dc.lft.to/lastmile_qr_scan", "android": "https://dc.lft.to/lastmile_qr_scan"}, "type": "electric_scooter", "name": "d95ce109cb2ad7b43b34351adee902d1", "is_reserved": 0, "lon": -77.041728, "is_disabled": 0, "fusion_lat": 0.0, "lat": 38.917257166666666, "bike_id": "d95ce109cb2ad7b43b34351adee902d1", "fusion_lon": 0.0}, {"rental_uris": {"ios": "https://dc.lft.to/lastmile_qr_scan", "android": "https://dc.lft.to/lastmile_qr_scan"}, "type": "electric_scooter", "name": "d77ff32e47199d26f524c8618cd8a568", "is_reserved": 0, "lon": -77.04491716666666, "is_disabled": 0, "fusion_lat": 0.0, "lat": 38.91523433333333, "bike_id": "d77ff32e47199d26f524c8618cd8a568", "fusion_lon": 0.0}, {"rental_uris": {"ios": "https://dc.lft.to/lastmile_qr_scan", "android": "https://dc.lft.to/lastmile_qr_scan"}, "type": "electric_scooter", "name": "ffa97b205d865b4db19f5475653260dc", "is_reserved": 0, "lon": -77.03288283333333, "is_disabled": 0, "fusion_lat": 0.0, "lat": 38.924543, "bike_id": "ffa97b205d865b4db19f5475653260dc", "fusion_lon": 0.0}, {"rental_uris": {"ios": "https://dc.lft.to/lastmile_qr_scan", "android": "https://dc.lft.to/lastmile_qr_scan"}, "type": "electric_scooter", "name": "0272a2ba4e61e5b2e59114520671c03a", "is_reserved": 0, "lon": -77.0390745, "is_disabled": 0, "fusion_lat": 0.0, "lat": 38.92252966666667, "bike_id": "0272a2ba4e61e5b2e59114520671c03a", "fusion_lon": 0.0}, {"rental_uris": {"ios": "https://dc.lft.to/lastmile_qr_scan", "android": "https://dc.lft.to/lastmile_qr_scan"}, "type": "electric_scooter", "name": "ae5f04e5f5c40a62d3b7afa0f0ec94b1", "is_reserved": 0, "lon": -77.01359683333334, "is_disabled": 0, "fusion_lat": 0.0, "lat": 38.91939266666667, "bike_id": "ae5f04e5f5c40a62d3b7afa0f0ec94b1", "fusion_lon": 0.0}, {"rental_uris": {"ios": "https://dc.lft.to/lastmile_qr_scan", "android": "https://dc.lft.to/lastmile_qr_scan"}, "type": "electric_scooter", "name": "32ae2bc23d8d6c1d797aea3005466122", "is_reserved": 0, "lon": -77.03869833333333, "is_disabled": 0, "fusion_lat": 0.0, "lat": 38.909810666666665, "bike_id": "32ae2bc23d8d6c1d797aea3005466122", "fusion_lon": 0.0}, {"rental_uris": {"ios": "https://dc.lft.to/lastmile_qr_scan", "android": "https://dc.lft.to/lastmile_qr_scan"}, "type": "electric_scooter", "name": "955e68e22d2e4e20fdf2b5b0be6f50b9", "is_reserved": 0, "lon": -77.03693583333333, "is_disabled": 0, "fusion_lat": 0.0, "lat": 38.932842, "bike_id": "955e68e22d2e4e20fdf2b5b0be6f50b9", "fusion_lon": 0.0}, {"rental_uris": {"ios": "https://dc.lft.to/lastmile_qr_scan", "android": "https://dc.lft.to/lastmile_qr_scan"}, "type": "electric_scooter", "name": "9544d782ad8da2e6da4f4858ecb8e19e", "is_reserved": 0, "lon": -77.02355466666667, "is_disabled": 0, "fusion_lat": 0.0, "lat": 38.93533583333333, "bike_id": "9544d782ad8da2e6da4f4858ecb8e19e", "fusion_lon": 0.0}, {"rental_uris": {"ios": "https://dc.lft.to/lastmile_qr_scan", "android": "https://dc.lft.to/lastmile_qr_scan"}, "type": "electric_scooter", "name": "2c6da6154faeaf31d1ec601cd2804045", "is_reserved": 0, "lon": -77.03668816666666, "is_disabled": 0, "fusion_lat": 0.0, "lat": 38.91005766666667, "bike_id": "2c6da6154faeaf31d1ec601cd2804045", "fusion_lon": 0.0}, {"rental_uris": {"ios": "https://dc.lft.to/lastmile_qr_scan", "android": "https://dc.lft.to/lastmile_qr_scan"}, "type": "electric_scooter", "name": "96c83c08c18d7a812269bb81a6577262", "is_reserved": 0, "lon": -77.02283683333333, "is_disabled": 0, "fusion_lat": 0.0, "lat": 38.924118166666666, "bike_id": "96c83c08c18d7a812269bb81a6577262", "fusion_lon": 0.0}, {"rental_uris": {"ios": "https://dc.lft.to/lastmile_qr_scan", "android": "https://dc.lft.to/lastmile_qr_scan"}, "type": "electric_scooter", "name": "44cc6fcab03e0793db263751aa122773", "is_reserved": 0, "lon": -77.04241383333333, "is_disabled": 0, "fusion_lat": 0.0, "lat": 38.92208933333333, "bike_id": "44cc6fcab03e0793db263751aa122773", "fusion_lon": 0.0}, {"rental_uris": {"ios": "https://dc.lft.to/lastmile_qr_scan", "android": "https://dc.lft.to/lastmile_qr_scan"}, "type": "electric_scooter", "name": "84422a7d25867c70736728564beb7faf", "is_reserved": 0, "lon": -77.06514716666666, "is_disabled": 0, "fusion_lat": 0.0, "lat": 38.90590383333333, "bike_id": "84422a7d25867c70736728564beb7faf", "fusion_lon": 0.0}, {"rental_uris": {"ios": "https://dc.lft.to/lastmile_qr_scan", "android": "https://dc.lft.to/lastmile_qr_scan"}, "type": "electric_scooter", "name": "a773591dbb15b52f0c43a1e2b9bbcff1", "is_reserved": 0, "lon": -77.0213885, "is_disabled": 0, "fusion_lat": 0.0, "lat": 38.91319, "bike_id": "a773591dbb15b52f0c43a1e2b9bbcff1", "fusion_lon": 0.0}, {"rental_uris": {"ios": "https://dc.lft.to/lastmile_qr_scan", "android": "https://dc.lft.to/lastmile_qr_scan"}, "type": "electric_scooter", "name": "a045371672635fbe5a6dd461e08bd5dd", "is_reserved": 0, "lon": -77.0318725, "is_disabled": 0, "fusion_lat": 0.0, "lat": 38.908745833333334, "bike_id": "a045371672635fbe5a6dd461e08bd5dd", "fusion_lon": 0.0}, {"rental_uris": {"ios": "https://dc.lft.to/lastmile_qr_scan", "android": "https://dc.lft.to/lastmile_qr_scan"}, "type": "electric_scooter", "name": "6c6815b3c0bc490d7baa28445850b801", "is_reserved": 0, "lon": -77.03128083333333, "is_disabled": 0, "fusion_lat": 0.0, "lat": 38.923734333333336, "bike_id": "6c6815b3c0bc490d7baa28445850b801", "fusion_lon": 0.0}, {"rental_uris": {"ios": "https://dc.lft.to/lastmile_qr_scan", "android": "https://dc.lft.to/lastmile_qr_scan"}, "type": "electric_scooter", "name": "c6502d99774b56e3797a2f9aa997c87e", "is_reserved": 0, "lon": -76.97956166666667, "is_disabled": 0, "fusion_lat": 0.0, "lat": 38.896194666666666, "bike_id": "c6502d99774b56e3797a2f9aa997c87e", "fusion_lon": 0.0}, {"rental_uris": {"ios": "https://dc.lft.to/lastmile_qr_scan", "android": "https://dc.lft.to/lastmile_qr_scan"}, "type": "electric_scooter", "name": "f26fa9271c8ffb8228deb516f7b713aa", "is_reserved": 0, "lon": -77.0077285, "is_disabled": 0, "fusion_lat": 0.0, "lat": 38.906974, "bike_id": "f26fa9271c8ffb8228deb516f7b713aa", "fusion_lon": 0.0}, {"rental_uris": {"ios": "https://dc.lft.to/lastmile_qr_scan", "android": "https://dc.lft.to/lastmile_qr_scan"}, "type": "electric_bike", "name": "3500fc9058773cdb6412d8f6ad88e7e3", "is_reserved": 0, "lon": -76.90734133333333, "is_disabled": 0, "fusion_lat": 0.0, "lat": 38.896175166666666, "bike_id": "3500fc9058773cdb6412d8f6ad88e7e3", "fusion_lon": 0.0}, {"rental_uris": {"ios": "https://dc.lft.to/lastmile_qr_scan", "android": "https://dc.lft.to/lastmile_qr_scan"}, "type": "electric_scooter", "name": "9cc693376193e3f0a37a2ac0e482bf50", "is_reserved": 0, "lon": -77.05626683333334, "is_disabled": 0, "fusion_lat": 0.0, "lat": 38.906835, "bike_id": "9cc693376193e3f0a37a2ac0e482bf50", "fusion_lon": 0.0}, {"rental_uris": {"ios": "https://dc.lft.to/lastmile_qr_scan", "android": "https://dc.lft.to/lastmile_qr_scan"}, "type": "electric_scooter", "name": "4773eeafcb642f0fa4fb019ab4059026", "is_reserved": 0, "lon": -77.03256683333333, "is_disabled": 0, "fusion_lat": 0.0, "lat": 38.9287135, "bike_id": "4773eeafcb642f0fa4fb019ab4059026", "fusion_lon": 0.0}, {"rental_uris": {"ios": "https://dc.lft.to/lastmile_qr_scan", "android": "https://dc.lft.to/lastmile_qr_scan"}, "type": "electric_scooter", "name": "e0a08553ce557e375427685287b5e1a1", "is_reserved": 0, "lon": -76.9983685, "is_disabled": 0, "fusion_lat": 0.0, "lat": 38.89196366666667, "bike_id": "e0a08553ce557e375427685287b5e1a1", "fusion_lon": 0.0}, {"rental_uris": {"ios": "https://dc.lft.to/lastmile_qr_scan", "android": "https://dc.lft.to/lastmile_qr_scan"}, "type": "electric_scooter", "name": "6f2ae7ee80654161c95e27155dd557ef", "is_reserved": 0, "lon": -77.03501666666666, "is_disabled": 0, "fusion_lat": 0.0, "lat": 38.93458066666667, "bike_id": "6f2ae7ee80654161c95e27155dd557ef", "fusion_lon": 0.0}, {"rental_uris": {"ios": "https://dc.lft.to/lastmile_qr_scan", "android": "https://dc.lft.to/lastmile_qr_scan"}, "type": "electric_scooter", "name": "5f3e78b35fa7200ad8760ee049cd0f61", "is_reserved": 0, "lon": -77.03955833333333, "is_disabled": 0, "fusion_lat": 0.0, "lat": 38.892473333333335, "bike_id": "5f3e78b35fa7200ad8760ee049cd0f61", "fusion_lon": 0.0}, {"rental_uris": {"ios": "https://dc.lft.to/lastmile_qr_scan", "android": "https://dc.lft.to/lastmile_qr_scan"}, "type": "electric_scooter", "name": "822df125bd2c1561073e09a36205686e", "is_reserved": 0, "lon": -77.02811, "is_disabled": 0, "fusion_lat": 0.0, "lat": 38.902399, "bike_id": "822df125bd2c1561073e09a36205686e", "fusion_lon": 0.0}, {"rental_uris": {"ios": "https://dc.lft.to/lastmile_qr_scan", "android": "https://dc.lft.to/lastmile_qr_scan"}, "type": "electric_scooter", "name": "f15542c4138fd626c3f0974c74fe642f", "is_reserved": 0, "lon": -76.99234583333333, "is_disabled": 0, "fusion_lat": 0.0, "lat": 38.88755533333333, "bike_id": "f15542c4138fd626c3f0974c74fe642f", "fusion_lon": 0.0}, {"rental_uris": {"ios": "https://dc.lft.to/lastmile_qr_scan", "android": "https://dc.lft.to/lastmile_qr_scan"}, "type": "electric_scooter", "name": "8dc47213a3b62d923824fc06054daee3", "is_reserved": 0, "lon": -77.028231, "is_disabled": 0, "fusion_lat": 0.0, "lat": 38.9239195, "bike_id": "8dc47213a3b62d923824fc06054daee3", "fusion_lon": 0.0}, {"rental_uris": {"ios": "https://dc.lft.to/lastmile_qr_scan", "android": "https://dc.lft.to/lastmile_qr_scan"}, "type": "electric_scooter", "name": "b872ec33abe1d7c084a1523731c1204b", "is_reserved": 0, "lon": -77.02194033333333, "is_disabled": 0, "fusion_lat": 0.0, "lat": 38.910033166666665, "bike_id": "b872ec33abe1d7c084a1523731c1204b", "fusion_lon": 0.0}, {"rental_uris": {"ios": "https://dc.lft.to/lastmile_qr_scan", "android": "https://dc.lft.to/lastmile_qr_scan"}, "type": "electric_scooter", "name": "fcd0bf35e48b546972a0de780f2ede22", "is_reserved": 0, "lon": -77.013302, "is_disabled": 0, "fusion_lat": 0.0, "lat": 38.912558833333335, "bike_id": "fcd0bf35e48b546972a0de780f2ede22", "fusion_lon": 0.0}, {"rental_uris": {"ios": "https://dc.lft.to/lastmile_qr_scan", "android": "https://dc.lft.to/lastmile_qr_scan"}, "type": "electric_scooter", "name": "3066717ea2b5a5d3dbce4ff720846109", "is_reserved": 0, "lon": -77.03175333333333, "is_disabled": 0, "fusion_lat": 0.0, "lat": 38.88733716666667, "bike_id": "3066717ea2b5a5d3dbce4ff720846109", "fusion_lon": 0.0}, {"rental_uris": {"ios": "https://dc.lft.to/lastmile_qr_scan", "android": "https://dc.lft.to/lastmile_qr_scan"}, "type": "electric_scooter", "name": "3b826b0ae52382220caefc119ba1873f", "is_reserved": 0, "lon": -77.0246, "is_disabled": 0, "fusion_lat": 0.0, "lat": 38.93946966666667, "bike_id": "3b826b0ae52382220caefc119ba1873f", "fusion_lon": 0.0}, {"rental_uris": {"ios": "https://dc.lft.to/lastmile_qr_scan", "android": "https://dc.lft.to/lastmile_qr_scan"}, "type": "electric_bike", "name": "6589ebb871e31e64834838ab7684902c", "is_reserved": 0, "lon": -76.95743783333333, "is_disabled": 0, "fusion_lat": 0.0, "lat": 38.888578333333335, "bike_id": "6589ebb871e31e64834838ab7684902c", "fusion_lon": 0.0}, {"rental_uris": {"ios": "https://dc.lft.to/lastmile_qr_scan", "android": "https://dc.lft.to/lastmile_qr_scan"}, "type": "electric_scooter", "name": "65380531c20f82794635af006d3de6b9", "is_reserved": 0, "lon": -77.04382166666667, "is_disabled": 0, "fusion_lat": 0.0, "lat": 38.917097, "bike_id": "65380531c20f82794635af006d3de6b9", "fusion_lon": 0.0}, {"rental_uris": {"ios": "https://dc.lft.to/lastmile_qr_scan", "android": "https://dc.lft.to/lastmile_qr_scan"}, "type": "electric_scooter", "name": "f9e4ff741e1a4776edac260db673018b", "is_reserved": 0, "lon": -77.02785983333334, "is_disabled": 0, "fusion_lat": 0.0, "lat": 38.927714333333334, "bike_id": "f9e4ff741e1a4776edac260db673018b", "fusion_lon": 0.0}, {"rental_uris": {"ios": "https://dc.lft.to/lastmile_qr_scan", "android": "https://dc.lft.to/lastmile_qr_scan"}, "type": "electric_scooter", "name": "5da41354fcec9ca15994c234c2403c29", "is_reserved": 0, "lon": -77.03174466666667, "is_disabled": 0, "fusion_lat": 0.0, "lat": 38.91570133333333, "bike_id": "5da41354fcec9ca15994c234c2403c29", "fusion_lon": 0.0}, {"rental_uris": {"ios": "https://dc.lft.to/lastmile_qr_scan", "android": "https://dc.lft.to/lastmile_qr_scan"}, "type": "electric_scooter", "name": "cebf37d76a07787ab9598987b7ef880f", "is_reserved": 0, "lon": -77.03869933333333, "is_disabled": 0, "fusion_lat": 0.0, "lat": 38.9110655, "bike_id": "cebf37d76a07787ab9598987b7ef880f", "fusion_lon": 0.0}, {"rental_uris": {"ios": "https://dc.lft.to/lastmile_qr_scan", "android": "https://dc.lft.to/lastmile_qr_scan"}, "type": "electric_scooter", "name": "28aa5e8fd4c0fdce9966e3c4a46539ef", "is_reserved": 0, "lon": -77.0677755, "is_disabled": 0, "fusion_lat": 0.0, "lat": 38.90882533333333, "bike_id": "28aa5e8fd4c0fdce9966e3c4a46539ef", "fusion_lon": 0.0}, {"rental_uris": {"ios": "https://dc.lft.to/lastmile_qr_scan", "android": "https://dc.lft.to/lastmile_qr_scan"}, "type": "electric_scooter", "name": "d287c96585b74e71f0d028d4fa2eba14", "is_reserved": 0, "lon": -77.04552766666667, "is_disabled": 0, "fusion_lat": 0.0, "lat": 38.909649, "bike_id": "d287c96585b74e71f0d028d4fa2eba14", "fusion_lon": 0.0}, {"rental_uris": {"ios": "https://dc.lft.to/lastmile_qr_scan", "android": "https://dc.lft.to/lastmile_qr_scan"}, "type": "electric_scooter", "name": "2a6df553217915a3e3c8fade9e1bab07", "is_reserved": 0, "lon": -77.0395625, "is_disabled": 0, "fusion_lat": 0.0, "lat": 38.892504833333334, "bike_id": "2a6df553217915a3e3c8fade9e1bab07", "fusion_lon": 0.0}, {"rental_uris": {"ios": "https://dc.lft.to/lastmile_qr_scan", "android": "https://dc.lft.to/lastmile_qr_scan"}, "type": "electric_scooter", "name": "31c615983ea7087825a34a75a2fcace4", "is_reserved": 0, "lon": -76.94718466666667, "is_disabled": 0, "fusion_lat": 0.0, "lat": 38.89084283333333, "bike_id": "31c615983ea7087825a34a75a2fcace4", "fusion_lon": 0.0}, {"rental_uris": {"ios": "https://dc.lft.to/lastmile_qr_scan", "android": "https://dc.lft.to/lastmile_qr_scan"}, "type": "electric_scooter", "name": "26c4fdfef26b2ae3a4fb9671bea07701", "is_reserved": 0, "lon": -77.03338, "is_disabled": 0, "fusion_lat": 0.0, "lat": 38.897353333333335, "bike_id": "26c4fdfef26b2ae3a4fb9671bea07701", "fusion_lon": 0.0}, {"rental_uris": {"ios": "https://dc.lft.to/lastmile_qr_scan", "android": "https://dc.lft.to/lastmile_qr_scan"}, "type": "electric_scooter", "name": "ed8adc66a51f373b0ae2f57c32632d68", "is_reserved": 0, "lon": -77.025933, "is_disabled": 0, "fusion_lat": 0.0, "lat": 38.91954883333333, "bike_id": "ed8adc66a51f373b0ae2f57c32632d68", "fusion_lon": 0.0}, {"rental_uris": {"ios": "https://dc.lft.to/lastmile_qr_scan", "android": "https://dc.lft.to/lastmile_qr_scan"}, "type": "electric_scooter", "name": "cac7931d29180d03b913736b063f9660", "is_reserved": 0, "lon": -77.044979, "is_disabled": 0, "fusion_lat": 0.0, "lat": 38.914152333333334, "bike_id": "cac7931d29180d03b913736b063f9660", "fusion_lon": 0.0}, {"rental_uris": {"ios": "https://dc.lft.to/lastmile_qr_scan", "android": "https://dc.lft.to/lastmile_qr_scan"}, "type": "electric_scooter", "name": "0cbe19c7334a9eb176ed46538a7a81bf", "is_reserved": 0, "lon": -76.92985116666667, "is_disabled": 0, "fusion_lat": 0.0, "lat": 38.892913, "bike_id": "0cbe19c7334a9eb176ed46538a7a81bf", "fusion_lon": 0.0}, {"rental_uris": {"ios": "https://dc.lft.to/lastmile_qr_scan", "android": "https://dc.lft.to/lastmile_qr_scan"}, "type": "electric_scooter", "name": "1073f09635694b212c4a29b391044b58", "is_reserved": 0, "lon": -77.0505075, "is_disabled": 0, "fusion_lat": 0.0, "lat": 38.925879333333334, "bike_id": "1073f09635694b212c4a29b391044b58", "fusion_lon": 0.0}, {"rental_uris": {"ios": "https://dc.lft.to/lastmile_qr_scan", "android": "https://dc.lft.to/lastmile_qr_scan"}, "type": "electric_scooter", "name": "7b5216f2c85e72389ea699941171022a", "is_reserved": 0, "lon": -77.02218216666667, "is_disabled": 0, "fusion_lat": 0.0, "lat": 38.924739833333334, "bike_id": "7b5216f2c85e72389ea699941171022a", "fusion_lon": 0.0}, {"rental_uris": {"ios": "https://dc.lft.to/lastmile_qr_scan", "android": "https://dc.lft.to/lastmile_qr_scan"}, "type": "electric_scooter", "name": "4843f0df73be474d7a160eb46c7f24c1", "is_reserved": 0, "lon": -77.00629933333333, "is_disabled": 0, "fusion_lat": 0.0, "lat": 38.8998525, "bike_id": "4843f0df73be474d7a160eb46c7f24c1", "fusion_lon": 0.0}, {"rental_uris": {"ios": "https://dc.lft.to/lastmile_qr_scan", "android": "https://dc.lft.to/lastmile_qr_scan"}, "type": "electric_scooter", "name": "f80388400a78891e68d3acbe248070e0", "is_reserved": 0, "lon": -77.04065483333333, "is_disabled": 0, "fusion_lat": 0.0, "lat": 38.92772266666667, "bike_id": "f80388400a78891e68d3acbe248070e0", "fusion_lon": 0.0}, {"rental_uris": {"ios": "https://dc.lft.to/lastmile_qr_scan", "android": "https://dc.lft.to/lastmile_qr_scan"}, "type": "electric_scooter", "name": "952729984dad3d2ee4d7546d9d899a91", "is_reserved": 0, "lon": -76.99302516666667, "is_disabled": 0, "fusion_lat": 0.0, "lat": 38.935761166666666, "bike_id": "952729984dad3d2ee4d7546d9d899a91", "fusion_lon": 0.0}, {"rental_uris": {"ios": "https://dc.lft.to/lastmile_qr_scan", "android": "https://dc.lft.to/lastmile_qr_scan"}, "type": "electric_scooter", "name": "92731c48146e247db2139b5085bc8f8e", "is_reserved": 0, "lon": -77.03637733333333, "is_disabled": 0, "fusion_lat": 0.0, "lat": 38.9243905, "bike_id": "92731c48146e247db2139b5085bc8f8e", "fusion_lon": 0.0}, {"rental_uris": {"ios": "https://dc.lft.to/lastmile_qr_scan", "android": "https://dc.lft.to/lastmile_qr_scan"}, "type": "electric_scooter", "name": "fc834364773d5b62153142361230f34f", "is_reserved": 0, "lon": -77.0393345, "is_disabled": 0, "fusion_lat": 0.0, "lat": 38.90811266666667, "bike_id": "fc834364773d5b62153142361230f34f", "fusion_lon": 0.0}, {"rental_uris": {"ios": "https://dc.lft.to/lastmile_qr_scan", "android": "https://dc.lft.to/lastmile_qr_scan"}, "type": "electric_scooter", "name": "176c86302bca1548d23ae77a089c21ea", "is_reserved": 0, "lon": -76.974088, "is_disabled": 0, "fusion_lat": 0.0, "lat": 38.901441166666665, "bike_id": "176c86302bca1548d23ae77a089c21ea", "fusion_lon": 0.0}, {"rental_uris": {"ios": "https://dc.lft.to/lastmile_qr_scan", "android": "https://dc.lft.to/lastmile_qr_scan"}, "type": "electric_scooter", "name": "4a2a6e0857eb5827bcdd9dd8e6cb4a07", "is_reserved": 0, "lon": -77.00581533333333, "is_disabled": 0, "fusion_lat": 0.0, "lat": 38.90558, "bike_id": "4a2a6e0857eb5827bcdd9dd8e6cb4a07", "fusion_lon": 0.0}, {"rental_uris": {"ios": "https://dc.lft.to/lastmile_qr_scan", "android": "https://dc.lft.to/lastmile_qr_scan"}, "type": "electric_scooter", "name": "a9bc0f31500987a8116ca629040ccae8", "is_reserved": 0, "lon": -77.0395235, "is_disabled": 0, "fusion_lat": 0.0, "lat": 38.892503833333336, "bike_id": "a9bc0f31500987a8116ca629040ccae8", "fusion_lon": 0.0}, {"rental_uris": {"ios": "https://dc.lft.to/lastmile_qr_scan", "android": "https://dc.lft.to/lastmile_qr_scan"}, "type": "electric_scooter", "name": "37f1525a65b2e7eedaba1868266d6116", "is_reserved": 0, "lon": -76.98494333333333, "is_disabled": 0, "fusion_lat": 0.0, "lat": 38.92005733333333, "bike_id": "37f1525a65b2e7eedaba1868266d6116", "fusion_lon": 0.0}, {"rental_uris": {"ios": "https://dc.lft.to/lastmile_qr_scan", "android": "https://dc.lft.to/lastmile_qr_scan"}, "type": "electric_scooter", "name": "e319b67d539d3725a89e448459551dea", "is_reserved": 0, "lon": -77.0306515, "is_disabled": 0, "fusion_lat": 0.0, "lat": 38.922551166666665, "bike_id": "e319b67d539d3725a89e448459551dea", "fusion_lon": 0.0}, {"rental_uris": {"ios": "https://dc.lft.to/lastmile_qr_scan", "android": "https://dc.lft.to/lastmile_qr_scan"}, "type": "electric_scooter", "name": "dadaed37351fef26dd82a64e8d9de54e", "is_reserved": 0, "lon": -77.0759225, "is_disabled": 0, "fusion_lat": 0.0, "lat": 38.93758583333333, "bike_id": "dadaed37351fef26dd82a64e8d9de54e", "fusion_lon": 0.0}, {"rental_uris": {"ios": "https://dc.lft.to/lastmile_qr_scan", "android": "https://dc.lft.to/lastmile_qr_scan"}, "type": "electric_scooter", "name": "427fc8ecb2a45ea8a61781ff49a0b997", "is_reserved": 0, "lon": -77.02062966666666, "is_disabled": 0, "fusion_lat": 0.0, "lat": 38.92405866666667, "bike_id": "427fc8ecb2a45ea8a61781ff49a0b997", "fusion_lon": 0.0}, {"rental_uris": {"ios": "https://dc.lft.to/lastmile_qr_scan", "android": "https://dc.lft.to/lastmile_qr_scan"}, "type": "electric_scooter", "name": "231f135c31af88501f46f7a2fbe46079", "is_reserved": 0, "lon": -76.92956233333334, "is_disabled": 0, "fusion_lat": 0.0, "lat": 38.90334, "bike_id": "231f135c31af88501f46f7a2fbe46079", "fusion_lon": 0.0}, {"rental_uris": {"ios": "https://dc.lft.to/lastmile_qr_scan", "android": "https://dc.lft.to/lastmile_qr_scan"}, "type": "electric_scooter", "name": "69ab143dd718a564f4cc6c4d27a78886", "is_reserved": 0, "lon": -77.02337866666667, "is_disabled": 0, "fusion_lat": 0.0, "lat": 38.9112345, "bike_id": "69ab143dd718a564f4cc6c4d27a78886", "fusion_lon": 0.0}, {"rental_uris": {"ios": "https://dc.lft.to/lastmile_qr_scan", "android": "https://dc.lft.to/lastmile_qr_scan"}, "type": "electric_scooter", "name": "6e1e0a58d79ac40a7ed972eec15a9cf9", "is_reserved": 0, "lon": -76.98785916666667, "is_disabled": 0, "fusion_lat": 0.0, "lat": 38.87986983333333, "bike_id": "6e1e0a58d79ac40a7ed972eec15a9cf9", "fusion_lon": 0.0}, {"rental_uris": {"ios": "https://dc.lft.to/lastmile_qr_scan", "android": "https://dc.lft.to/lastmile_qr_scan"}, "type": "electric_scooter", "name": "4b327918c99d6bb0effb70c5be2c8bee", "is_reserved": 0, "lon": -77.01064666666667, "is_disabled": 0, "fusion_lat": 0.0, "lat": 38.91341516666667, "bike_id": "4b327918c99d6bb0effb70c5be2c8bee", "fusion_lon": 0.0}, {"rental_uris": {"ios": "https://dc.lft.to/lastmile_qr_scan", "android": "https://dc.lft.to/lastmile_qr_scan"}, "type": "electric_scooter", "name": "198d217351abf55b551919cf16e7aef5", "is_reserved": 0, "lon": -77.030468, "is_disabled": 0, "fusion_lat": 0.0, "lat": 38.88431033333333, "bike_id": "198d217351abf55b551919cf16e7aef5", "fusion_lon": 0.0}, {"rental_uris": {"ios": "https://dc.lft.to/lastmile_qr_scan", "android": "https://dc.lft.to/lastmile_qr_scan"}, "type": "electric_scooter", "name": "4a8be7dce2d0e34a271692235d8a2b10", "is_reserved": 0, "lon": -77.017615, "is_disabled": 0, "fusion_lat": 0.0, "lat": 38.876692166666665, "bike_id": "4a8be7dce2d0e34a271692235d8a2b10", "fusion_lon": 0.0}, {"rental_uris": {"ios": "https://dc.lft.to/lastmile_qr_scan", "android": "https://dc.lft.to/lastmile_qr_scan"}, "type": "electric_scooter", "name": "362f67e1ddc682c1bef0268f8fc6f5b5", "is_reserved": 0, "lon": -77.04026533333334, "is_disabled": 0, "fusion_lat": 0.0, "lat": 38.92255683333333, "bike_id": "362f67e1ddc682c1bef0268f8fc6f5b5", "fusion_lon": 0.0}, {"rental_uris": {"ios": "https://dc.lft.to/lastmile_qr_scan", "android": "https://dc.lft.to/lastmile_qr_scan"}, "type": "electric_scooter", "name": "eceb3c9b1e951b36bbab1a5800be79b4", "is_reserved": 0, "lon": -77.004502, "is_disabled": 0, "fusion_lat": 0.0, "lat": 38.8379195, "bike_id": "eceb3c9b1e951b36bbab1a5800be79b4", "fusion_lon": 0.0}, {"rental_uris": {"ios": "https://dc.lft.to/lastmile_qr_scan", "android": "https://dc.lft.to/lastmile_qr_scan"}, "type": "electric_scooter", "name": "9b1455240365b64c2d37105ed6d3c6ed", "is_reserved": 0, "lon": -77.029731, "is_disabled": 0, "fusion_lat": 0.0, "lat": 38.923126833333335, "bike_id": "9b1455240365b64c2d37105ed6d3c6ed", "fusion_lon": 0.0}, {"rental_uris": {"ios": "https://dc.lft.to/lastmile_qr_scan", "android": "https://dc.lft.to/lastmile_qr_scan"}, "type": "electric_scooter", "name": "f6bfea19218f62a8d84c0063709fe1a7", "is_reserved": 0, "lon": -77.04009866666667, "is_disabled": 0, "fusion_lat": 0.0, "lat": 38.9225945, "bike_id": "f6bfea19218f62a8d84c0063709fe1a7", "fusion_lon": 0.0}, {"rental_uris": {"ios": "https://dc.lft.to/lastmile_qr_scan", "android": "https://dc.lft.to/lastmile_qr_scan"}, "type": "electric_scooter", "name": "27b8eea04d63e4154d3c44f0679a2e66", "is_reserved": 0, "lon": -76.99630366666666, "is_disabled": 0, "fusion_lat": 0.0, "lat": 38.87737216666667, "bike_id": "27b8eea04d63e4154d3c44f0679a2e66", "fusion_lon": 0.0}, {"rental_uris": {"ios": "https://dc.lft.to/lastmile_qr_scan", "android": "https://dc.lft.to/lastmile_qr_scan"}, "type": "electric_bike", "name": "339316299f842262cf433257321e1d4e", "is_reserved": 0, "lon": -76.93332216666667, "is_disabled": 0, "fusion_lat": 0.0, "lat": 38.95154516666667, "bike_id": "339316299f842262cf433257321e1d4e", "fusion_lon": 0.0}, {"rental_uris": {"ios": "https://dc.lft.to/lastmile_qr_scan", "android": "https://dc.lft.to/lastmile_qr_scan"}, "type": "electric_scooter", "name": "1d4ac934c8aeffdc9cde204a304c8dbd", "is_reserved": 0, "lon": -77.04148233333333, "is_disabled": 0, "fusion_lat": 0.0, "lat": 38.9229955, "bike_id": "1d4ac934c8aeffdc9cde204a304c8dbd", "fusion_lon": 0.0}, {"rental_uris": {"ios": "https://dc.lft.to/lastmile_qr_scan", "android": "https://dc.lft.to/lastmile_qr_scan"}, "type": "electric_scooter", "name": "d29dd5021cb2bc7fd47116e4189cc3d7", "is_reserved": 0, "lon": -77.05321933333333, "is_disabled": 0, "fusion_lat": 0.0, "lat": 38.906478166666666, "bike_id": "d29dd5021cb2bc7fd47116e4189cc3d7", "fusion_lon": 0.0}, {"rental_uris": {"ios": "https://dc.lft.to/lastmile_qr_scan", "android": "https://dc.lft.to/lastmile_qr_scan"}, "type": "electric_scooter", "name": "5d078d33eaec54a351fe8a6e04ebd7d8", "is_reserved": 0, "lon": -77.050007, "is_disabled": 0, "fusion_lat": 0.0, "lat": 38.900728, "bike_id": "5d078d33eaec54a351fe8a6e04ebd7d8", "fusion_lon": 0.0}, {"rental_uris": {"ios": "https://dc.lft.to/lastmile_qr_scan", "android": "https://dc.lft.to/lastmile_qr_scan"}, "type": "electric_scooter", "name": "42ca04ce2603ddbc2720ed8ba1dde978", "is_reserved": 0, "lon": -77.0338475, "is_disabled": 0, "fusion_lat": 0.0, "lat": 38.90266616666667, "bike_id": "42ca04ce2603ddbc2720ed8ba1dde978", "fusion_lon": 0.0}, {"rental_uris": {"ios": "https://dc.lft.to/lastmile_qr_scan", "android": "https://dc.lft.to/lastmile_qr_scan"}, "type": "electric_scooter", "name": "ae81bed0623fd008ba581e50a07b0b60", "is_reserved": 0, "lon": -77.02973866666666, "is_disabled": 0, "fusion_lat": 0.0, "lat": 38.905574, "bike_id": "ae81bed0623fd008ba581e50a07b0b60", "fusion_lon": 0.0}, {"rental_uris": {"ios": "https://dc.lft.to/lastmile_qr_scan", "android": "https://dc.lft.to/lastmile_qr_scan"}, "type": "electric_scooter", "name": "f27f67fe6d570139a3f4b12a32022107", "is_reserved": 0, "lon": -77.00919566666667, "is_disabled": 0, "fusion_lat": 0.0, "lat": 38.923402, "bike_id": "f27f67fe6d570139a3f4b12a32022107", "fusion_lon": 0.0}, {"rental_uris": {"ios": "https://dc.lft.to/lastmile_qr_scan", "android": "https://dc.lft.to/lastmile_qr_scan"}, "type": "electric_scooter", "name": "4d36380c6b1bab4c1de2dc6437d742c2", "is_reserved": 0, "lon": -77.028937, "is_disabled": 0, "fusion_lat": 0.0, "lat": 38.90433916666667, "bike_id": "4d36380c6b1bab4c1de2dc6437d742c2", "fusion_lon": 0.0}, {"rental_uris": {"ios": "https://dc.lft.to/lastmile_qr_scan", "android": "https://dc.lft.to/lastmile_qr_scan"}, "type": "electric_scooter", "name": "21a4d2a42f116ad35bfa4aec4c849f2c", "is_reserved": 0, "lon": -77.00821016666667, "is_disabled": 0, "fusion_lat": 0.0, "lat": 38.8765495, "bike_id": "21a4d2a42f116ad35bfa4aec4c849f2c", "fusion_lon": 0.0}, {"rental_uris": {"ios": "https://dc.lft.to/lastmile_qr_scan", "android": "https://dc.lft.to/lastmile_qr_scan"}, "type": "electric_scooter", "name": "1b80cfdc21c0d99e78a7b6dd97075242", "is_reserved": 0, "lon": -77.03860233333333, "is_disabled": 0, "fusion_lat": 0.0, "lat": 38.91186366666667, "bike_id": "1b80cfdc21c0d99e78a7b6dd97075242", "fusion_lon": 0.0}, {"rental_uris": {"ios": "https://dc.lft.to/lastmile_qr_scan", "android": "https://dc.lft.to/lastmile_qr_scan"}, "type": "electric_scooter", "name": "8d16c2c423b26beea09d66665979c307", "is_reserved": 0, "lon": -77.04800633333333, "is_disabled": 0, "fusion_lat": 0.0, "lat": 38.89223066666667, "bike_id": "8d16c2c423b26beea09d66665979c307", "fusion_lon": 0.0}, {"rental_uris": {"ios": "https://dc.lft.to/lastmile_qr_scan", "android": "https://dc.lft.to/lastmile_qr_scan"}, "type": "electric_scooter", "name": "40048c6d3bc6d5b82c65eefc57937fe2", "is_reserved": 0, "lon": -77.00759883333333, "is_disabled": 0, "fusion_lat": 0.0, "lat": 38.92680983333333, "bike_id": "40048c6d3bc6d5b82c65eefc57937fe2", "fusion_lon": 0.0}, {"rental_uris": {"ios": "https://dc.lft.to/lastmile_qr_scan", "android": "https://dc.lft.to/lastmile_qr_scan"}, "type": "electric_scooter", "name": "e3d5686b12c80ad95cc51914ac41a9e2", "is_reserved": 0, "lon": -77.04437883333334, "is_disabled": 0, "fusion_lat": 0.0, "lat": 38.9260445, "bike_id": "e3d5686b12c80ad95cc51914ac41a9e2", "fusion_lon": 0.0}, {"rental_uris": {"ios": "https://dc.lft.to/lastmile_qr_scan", "android": "https://dc.lft.to/lastmile_qr_scan"}, "type": "electric_scooter", "name": "e51fb9f22ad6fbd7224ac4b6b85e94a1", "is_reserved": 0, "lon": -77.0185285, "is_disabled": 0, "fusion_lat": 0.0, "lat": 38.95428666666667, "bike_id": "e51fb9f22ad6fbd7224ac4b6b85e94a1", "fusion_lon": 0.0}, {"rental_uris": {"ios": "https://dc.lft.to/lastmile_qr_scan", "android": "https://dc.lft.to/lastmile_qr_scan"}, "type": "electric_scooter", "name": "58acec03664b11564fba072ed757e039", "is_reserved": 0, "lon": -77.03739633333333, "is_disabled": 0, "fusion_lat": 0.0, "lat": 38.92917833333333, "bike_id": "58acec03664b11564fba072ed757e039", "fusion_lon": 0.0}, {"rental_uris": {"ios": "https://dc.lft.to/lastmile_qr_scan", "android": "https://dc.lft.to/lastmile_qr_scan"}, "type": "electric_scooter", "name": "4c01e66ac1804c173a4c2a66f5df04ef", "is_reserved": 0, "lon": -77.04471466666666, "is_disabled": 0, "fusion_lat": 0.0, "lat": 38.907940333333336, "bike_id": "4c01e66ac1804c173a4c2a66f5df04ef", "fusion_lon": 0.0}, {"rental_uris": {"ios": "https://dc.lft.to/lastmile_qr_scan", "android": "https://dc.lft.to/lastmile_qr_scan"}, "type": "electric_scooter", "name": "97920785e6457f6babe551dd981c8b1b", "is_reserved": 0, "lon": -77.02340133333334, "is_disabled": 0, "fusion_lat": 0.0, "lat": 38.92703933333333, "bike_id": "97920785e6457f6babe551dd981c8b1b", "fusion_lon": 0.0}, {"rental_uris": {"ios": "https://dc.lft.to/lastmile_qr_scan", "android": "https://dc.lft.to/lastmile_qr_scan"}, "type": "electric_scooter", "name": "d486e990aaeaded7b1d0188c83218023", "is_reserved": 0, "lon": -77.07459833333333, "is_disabled": 0, "fusion_lat": 0.0, "lat": 38.920811666666665, "bike_id": "d486e990aaeaded7b1d0188c83218023", "fusion_lon": 0.0}, {"rental_uris": {"ios": "https://dc.lft.to/lastmile_qr_scan", "android": "https://dc.lft.to/lastmile_qr_scan"}, "type": "electric_scooter", "name": "77877e49b7b8abd9642b2ce7961ad862", "is_reserved": 0, "lon": -76.98537, "is_disabled": 0, "fusion_lat": 0.0, "lat": 38.90955266666667, "bike_id": "77877e49b7b8abd9642b2ce7961ad862", "fusion_lon": 0.0}, {"rental_uris": {"ios": "https://dc.lft.to/lastmile_qr_scan", "android": "https://dc.lft.to/lastmile_qr_scan"}, "type": "electric_scooter", "name": "5332ab5603ed7e8f141e66e4e1b76a9e", "is_reserved": 0, "lon": -77.02307333333333, "is_disabled": 0, "fusion_lat": 0.0, "lat": 38.91056233333333, "bike_id": "5332ab5603ed7e8f141e66e4e1b76a9e", "fusion_lon": 0.0}, {"rental_uris": {"ios": "https://dc.lft.to/lastmile_qr_scan", "android": "https://dc.lft.to/lastmile_qr_scan"}, "type": "electric_scooter", "name": "a1ce491ca2385fc87458ee43c2cbc6b2", "is_reserved": 0, "lon": -76.98555316666666, "is_disabled": 0, "fusion_lat": 0.0, "lat": 38.88995766666667, "bike_id": "a1ce491ca2385fc87458ee43c2cbc6b2", "fusion_lon": 0.0}, {"rental_uris": {"ios": "https://dc.lft.to/lastmile_qr_scan", "android": "https://dc.lft.to/lastmile_qr_scan"}, "type": "electric_scooter", "name": "6d70f0ba9c24654e414f1481c17906e4", "is_reserved": 0, "lon": -77.02842183333334, "is_disabled": 0, "fusion_lat": 0.0, "lat": 38.934416, "bike_id": "6d70f0ba9c24654e414f1481c17906e4", "fusion_lon": 0.0}, {"rental_uris": {"ios": "https://dc.lft.to/lastmile_qr_scan", "android": "https://dc.lft.to/lastmile_qr_scan"}, "type": "electric_scooter", "name": "232e91b2990ccb51ec3c5d3d10cdb822", "is_reserved": 0, "lon": -76.984525, "is_disabled": 0, "fusion_lat": 0.0, "lat": 38.91458316666667, "bike_id": "232e91b2990ccb51ec3c5d3d10cdb822", "fusion_lon": 0.0}, {"rental_uris": {"ios": "https://dc.lft.to/lastmile_qr_scan", "android": "https://dc.lft.to/lastmile_qr_scan"}, "type": "electric_scooter", "name": "38d17280237e52d385773bc45116f5dd", "is_reserved": 0, "lon": -77.04214916666666, "is_disabled": 0, "fusion_lat": 0.0, "lat": 38.92400283333333, "bike_id": "38d17280237e52d385773bc45116f5dd", "fusion_lon": 0.0}, {"rental_uris": {"ios": "https://dc.lft.to/lastmile_qr_scan", "android": "https://dc.lft.to/lastmile_qr_scan"}, "type": "electric_scooter", "name": "06d4ff034bce94b87f185592192f6e49", "is_reserved": 0, "lon": -77.053234, "is_disabled": 0, "fusion_lat": 0.0, "lat": 38.907276833333334, "bike_id": "06d4ff034bce94b87f185592192f6e49", "fusion_lon": 0.0}, {"rental_uris": {"ios": "https://dc.lft.to/lastmile_qr_scan", "android": "https://dc.lft.to/lastmile_qr_scan"}, "type": "electric_scooter", "name": "70ede2122d44bc379dd12a233851c27e", "is_reserved": 0, "lon": -77.03919583333334, "is_disabled": 0, "fusion_lat": 0.0, "lat": 38.90808966666667, "bike_id": "70ede2122d44bc379dd12a233851c27e", "fusion_lon": 0.0}, {"rental_uris": {"ios": "https://dc.lft.to/lastmile_qr_scan", "android": "https://dc.lft.to/lastmile_qr_scan"}, "type": "electric_scooter", "name": "51430ba2b2c8dc11ed21dfd39e529590", "is_reserved": 0, "lon": -77.036656, "is_disabled": 0, "fusion_lat": 0.0, "lat": 38.936326666666666, "bike_id": "51430ba2b2c8dc11ed21dfd39e529590", "fusion_lon": 0.0}, {"rental_uris": {"ios": "https://dc.lft.to/lastmile_qr_scan", "android": "https://dc.lft.to/lastmile_qr_scan"}, "type": "electric_scooter", "name": "28d608e1af51482af6e290b5cf97db47", "is_reserved": 0, "lon": -76.970402, "is_disabled": 0, "fusion_lat": 0.0, "lat": 38.8633145, "bike_id": "28d608e1af51482af6e290b5cf97db47", "fusion_lon": 0.0}, {"rental_uris": {"ios": "https://dc.lft.to/lastmile_qr_scan", "android": "https://dc.lft.to/lastmile_qr_scan"}, "type": "electric_scooter", "name": "28733a62fd0fcca6100cce632819e17c", "is_reserved": 0, "lon": -77.03668266666666, "is_disabled": 0, "fusion_lat": 0.0, "lat": 38.91383183333333, "bike_id": "28733a62fd0fcca6100cce632819e17c", "fusion_lon": 0.0}, {"rental_uris": {"ios": "https://dc.lft.to/lastmile_qr_scan", "android": "https://dc.lft.to/lastmile_qr_scan"}, "type": "electric_scooter", "name": "152701998eea687bc177a3158d6087cf", "is_reserved": 0, "lon": -77.04194216666667, "is_disabled": 0, "fusion_lat": 0.0, "lat": 38.92200033333334, "bike_id": "152701998eea687bc177a3158d6087cf", "fusion_lon": 0.0}, {"rental_uris": {"ios": "https://dc.lft.to/lastmile_qr_scan", "android": "https://dc.lft.to/lastmile_qr_scan"}, "type": "electric_scooter", "name": "0d2041f3a20d77d2ad5b921161d00d77", "is_reserved": 0, "lon": -77.01917216666666, "is_disabled": 0, "fusion_lat": 0.0, "lat": 38.923633333333335, "bike_id": "0d2041f3a20d77d2ad5b921161d00d77", "fusion_lon": 0.0}, {"rental_uris": {"ios": "https://dc.lft.to/lastmile_qr_scan", "android": "https://dc.lft.to/lastmile_qr_scan"}, "type": "electric_scooter", "name": "fbcbf4fb1c56ef53993a4225cfc989e0", "is_reserved": 0, "lon": -76.9817085, "is_disabled": 0, "fusion_lat": 0.0, "lat": 38.91672116666667, "bike_id": "fbcbf4fb1c56ef53993a4225cfc989e0", "fusion_lon": 0.0}, {"rental_uris": {"ios": "https://dc.lft.to/lastmile_qr_scan", "android": "https://dc.lft.to/lastmile_qr_scan"}, "type": "electric_scooter", "name": "f86eb5007a82849c2abeb82c4f1ec97e", "is_reserved": 0, "lon": -77.02960616666667, "is_disabled": 0, "fusion_lat": 0.0, "lat": 38.907179166666666, "bike_id": "f86eb5007a82849c2abeb82c4f1ec97e", "fusion_lon": 0.0}, {"rental_uris": {"ios": "https://dc.lft.to/lastmile_qr_scan", "android": "https://dc.lft.to/lastmile_qr_scan"}, "type": "electric_scooter", "name": "394a196a8eb4c9ae1260479794c47724", "is_reserved": 0, "lon": -77.05871383333333, "is_disabled": 0, "fusion_lat": 0.0, "lat": 38.942442, "bike_id": "394a196a8eb4c9ae1260479794c47724", "fusion_lon": 0.0}, {"rental_uris": {"ios": "https://dc.lft.to/lastmile_qr_scan", "android": "https://dc.lft.to/lastmile_qr_scan"}, "type": "electric_scooter", "name": "d6005b4ceb7d47f638456d147710a975", "is_reserved": 0, "lon": -77.06765616666667, "is_disabled": 0, "fusion_lat": 0.0, "lat": 38.904053, "bike_id": "d6005b4ceb7d47f638456d147710a975", "fusion_lon": 0.0}, {"rental_uris": {"ios": "https://dc.lft.to/lastmile_qr_scan", "android": "https://dc.lft.to/lastmile_qr_scan"}, "type": "electric_scooter", "name": "b7176d40b0aa75b47d9485badf9085d7", "is_reserved": 0, "lon": -76.99562316666666, "is_disabled": 0, "fusion_lat": 0.0, "lat": 38.92669133333333, "bike_id": "b7176d40b0aa75b47d9485badf9085d7", "fusion_lon": 0.0}, {"rental_uris": {"ios": "https://dc.lft.to/lastmile_qr_scan", "android": "https://dc.lft.to/lastmile_qr_scan"}, "type": "electric_scooter", "name": "1261227b826bf84435d1322613f010aa", "is_reserved": 0, "lon": -76.93714566666667, "is_disabled": 0, "fusion_lat": 0.0, "lat": 38.8902, "bike_id": "1261227b826bf84435d1322613f010aa", "fusion_lon": 0.0}, {"rental_uris": {"ios": "https://dc.lft.to/lastmile_qr_scan", "android": "https://dc.lft.to/lastmile_qr_scan"}, "type": "electric_scooter", "name": "a5c0a5700750f298732547b6393637f0", "is_reserved": 0, "lon": -77.03918133333333, "is_disabled": 0, "fusion_lat": 0.0, "lat": 38.924407333333335, "bike_id": "a5c0a5700750f298732547b6393637f0", "fusion_lon": 0.0}, {"rental_uris": {"ios": "https://dc.lft.to/lastmile_qr_scan", "android": "https://dc.lft.to/lastmile_qr_scan"}, "type": "electric_scooter", "name": "5716a4875d8660a279f7d044e7b4d196", "is_reserved": 0, "lon": -77.03473333333334, "is_disabled": 0, "fusion_lat": 0.0, "lat": 38.935649, "bike_id": "5716a4875d8660a279f7d044e7b4d196", "fusion_lon": 0.0}, {"rental_uris": {"ios": "https://dc.lft.to/lastmile_qr_scan", "android": "https://dc.lft.to/lastmile_qr_scan"}, "type": "electric_scooter", "name": "07ebf75a54951a32d5682a2f80942bb2", "is_reserved": 0, "lon": -77.05839416666667, "is_disabled": 0, "fusion_lat": 0.0, "lat": 38.9306235, "bike_id": "07ebf75a54951a32d5682a2f80942bb2", "fusion_lon": 0.0}, {"rental_uris": {"ios": "https://dc.lft.to/lastmile_qr_scan", "android": "https://dc.lft.to/lastmile_qr_scan"}, "type": "electric_scooter", "name": "95f598d58f569a0d0da7d82c6138ee7e", "is_reserved": 0, "lon": -77.04224383333333, "is_disabled": 0, "fusion_lat": 0.0, "lat": 38.921098666666666, "bike_id": "95f598d58f569a0d0da7d82c6138ee7e", "fusion_lon": 0.0}, {"rental_uris": {"ios": "https://dc.lft.to/lastmile_qr_scan", "android": "https://dc.lft.to/lastmile_qr_scan"}, "type": "electric_scooter", "name": "d01359b3a5b5effe5090791c5a0df6df", "is_reserved": 0, "lon": -77.03247233333333, "is_disabled": 0, "fusion_lat": 0.0, "lat": 38.905470666666666, "bike_id": "d01359b3a5b5effe5090791c5a0df6df", "fusion_lon": 0.0}, {"rental_uris": {"ios": "https://dc.lft.to/lastmile_qr_scan", "android": "https://dc.lft.to/lastmile_qr_scan"}, "type": "electric_scooter", "name": "1e2c1055031b1d82d735928c22f38caf", "is_reserved": 0, "lon": -77.02436533333334, "is_disabled": 0, "fusion_lat": 0.0, "lat": 38.89729583333333, "bike_id": "1e2c1055031b1d82d735928c22f38caf", "fusion_lon": 0.0}, {"rental_uris": {"ios": "https://dc.lft.to/lastmile_qr_scan", "android": "https://dc.lft.to/lastmile_qr_scan"}, "type": "electric_scooter", "name": "716f1fe1125fb3a600b544788e1e2051", "is_reserved": 0, "lon": -77.04893066666666, "is_disabled": 0, "fusion_lat": 0.0, "lat": 38.903751666666665, "bike_id": "716f1fe1125fb3a600b544788e1e2051", "fusion_lon": 0.0}, {"rental_uris": {"ios": "https://dc.lft.to/lastmile_qr_scan", "android": "https://dc.lft.to/lastmile_qr_scan"}, "type": "electric_scooter", "name": "8710a6980e022950b157b2efdd0b12d9", "is_reserved": 0, "lon": -77.01215966666666, "is_disabled": 0, "fusion_lat": 0.0, "lat": 38.871796833333335, "bike_id": "8710a6980e022950b157b2efdd0b12d9", "fusion_lon": 0.0}, {"rental_uris": {"ios": "https://dc.lft.to/lastmile_qr_scan", "android": "https://dc.lft.to/lastmile_qr_scan"}, "type": "electric_scooter", "name": "c1eaa1f1132e07117056b562e9150ef1", "is_reserved": 0, "lon": -77.0071885, "is_disabled": 0, "fusion_lat": 0.0, "lat": 38.90550266666666, "bike_id": "c1eaa1f1132e07117056b562e9150ef1", "fusion_lon": 0.0}, {"rental_uris": {"ios": "https://dc.lft.to/lastmile_qr_scan", "android": "https://dc.lft.to/lastmile_qr_scan"}, "type": "electric_bike", "name": "11becb8fd1ce12109b2410ac2e6e00a3", "is_reserved": 0, "lon": -77.03660416666666, "is_disabled": 0, "fusion_lat": 0.0, "lat": 38.93631666666667, "bike_id": "11becb8fd1ce12109b2410ac2e6e00a3", "fusion_lon": 0.0}, {"rental_uris": {"ios": "https://dc.lft.to/lastmile_qr_scan", "android": "https://dc.lft.to/lastmile_qr_scan"}, "type": "electric_bike", "name": "a5222bbfb5e649df1f846173b46fd2c7", "is_reserved": 0, "lon": -76.97958616666666, "is_disabled": 0, "fusion_lat": 0.0, "lat": 38.92039366666667, "bike_id": "a5222bbfb5e649df1f846173b46fd2c7", "fusion_lon": 0.0}, {"rental_uris": {"ios": "https://dc.lft.to/lastmile_qr_scan", "android": "https://dc.lft.to/lastmile_qr_scan"}, "type": "electric_scooter", "name": "6d11edb33e2f28d6c55be211ef4474f2", "is_reserved": 0, "lon": -77.02204, "is_disabled": 0, "fusion_lat": 0.0, "lat": 38.9105355, "bike_id": "6d11edb33e2f28d6c55be211ef4474f2", "fusion_lon": 0.0}, {"rental_uris": {"ios": "https://dc.lft.to/lastmile_qr_scan", "android": "https://dc.lft.to/lastmile_qr_scan"}, "type": "electric_scooter", "name": "a89bc00d2f07f86c2ee011fe2b83de78", "is_reserved": 0, "lon": -77.0420745, "is_disabled": 0, "fusion_lat": 0.0, "lat": 38.92115016666666, "bike_id": "a89bc00d2f07f86c2ee011fe2b83de78", "fusion_lon": 0.0}, {"rental_uris": {"ios": "https://dc.lft.to/lastmile_qr_scan", "android": "https://dc.lft.to/lastmile_qr_scan"}, "type": "electric_scooter", "name": "148f1e3c21e41f30a611549cd1c0b4c1", "is_reserved": 0, "lon": -77.00743116666666, "is_disabled": 0, "fusion_lat": 0.0, "lat": 38.905044, "bike_id": "148f1e3c21e41f30a611549cd1c0b4c1", "fusion_lon": 0.0}, {"rental_uris": {"ios": "https://dc.lft.to/lastmile_qr_scan", "android": "https://dc.lft.to/lastmile_qr_scan"}, "type": "electric_scooter", "name": "a6d6e04d4233f5b0000b566555964fa5", "is_reserved": 0, "lon": -77.03180316666666, "is_disabled": 0, "fusion_lat": 0.0, "lat": 38.9156465, "bike_id": "a6d6e04d4233f5b0000b566555964fa5", "fusion_lon": 0.0}, {"rental_uris": {"ios": "https://dc.lft.to/lastmile_qr_scan", "android": "https://dc.lft.to/lastmile_qr_scan"}, "type": "electric_scooter", "name": "30d599daf8cc165d375a8cae550c6ec5", "is_reserved": 0, "lon": -77.02318116666666, "is_disabled": 0, "fusion_lat": 0.0, "lat": 38.961319833333334, "bike_id": "30d599daf8cc165d375a8cae550c6ec5", "fusion_lon": 0.0}, {"rental_uris": {"ios": "https://dc.lft.to/lastmile_qr_scan", "android": "https://dc.lft.to/lastmile_qr_scan"}, "type": "electric_scooter", "name": "9f7850f292ecd7b0eb9b0b5300309587", "is_reserved": 0, "lon": -77.0271705, "is_disabled": 0, "fusion_lat": 0.0, "lat": 38.91217416666667, "bike_id": "9f7850f292ecd7b0eb9b0b5300309587", "fusion_lon": 0.0}, {"rental_uris": {"ios": "https://dc.lft.to/lastmile_qr_scan", "android": "https://dc.lft.to/lastmile_qr_scan"}, "type": "electric_scooter", "name": "3d3c6209fbcd7afb2a20076a05f63f46", "is_reserved": 0, "lon": -77.02597683333333, "is_disabled": 0, "fusion_lat": 0.0, "lat": 38.90512716666667, "bike_id": "3d3c6209fbcd7afb2a20076a05f63f46", "fusion_lon": 0.0}, {"rental_uris": {"ios": "https://dc.lft.to/lastmile_qr_scan", "android": "https://dc.lft.to/lastmile_qr_scan"}, "type": "electric_scooter", "name": "dceb9d3144c098149319f38e742055a1", "is_reserved": 0, "lon": -77.0212115, "is_disabled": 0, "fusion_lat": 0.0, "lat": 38.89400033333333, "bike_id": "dceb9d3144c098149319f38e742055a1", "fusion_lon": 0.0}, {"rental_uris": {"ios": "https://dc.lft.to/lastmile_qr_scan", "android": "https://dc.lft.to/lastmile_qr_scan"}, "type": "electric_bike", "name": "d41d8b5d6d395d98aa66304568bde6cb", "is_reserved": 0, "lon": -77.0282105, "is_disabled": 0, "fusion_lat": 0.0, "lat": 38.9653925, "bike_id": "d41d8b5d6d395d98aa66304568bde6cb", "fusion_lon": 0.0}, {"rental_uris": {"ios": "https://dc.lft.to/lastmile_qr_scan", "android": "https://dc.lft.to/lastmile_qr_scan"}, "type": "electric_scooter", "name": "b0d636f38aceaca8878987d79c7fae69", "is_reserved": 0, "lon": -77.03176483333333, "is_disabled": 0, "fusion_lat": 0.0, "lat": 38.92016366666667, "bike_id": "b0d636f38aceaca8878987d79c7fae69", "fusion_lon": 0.0}, {"rental_uris": {"ios": "https://dc.lft.to/lastmile_qr_scan", "android": "https://dc.lft.to/lastmile_qr_scan"}, "type": "electric_scooter", "name": "f4702da42d61f11d0b5b111737ee34f9", "is_reserved": 0, "lon": -77.04134033333334, "is_disabled": 0, "fusion_lat": 0.0, "lat": 38.934654333333334, "bike_id": "f4702da42d61f11d0b5b111737ee34f9", "fusion_lon": 0.0}, {"rental_uris": {"ios": "https://dc.lft.to/lastmile_qr_scan", "android": "https://dc.lft.to/lastmile_qr_scan"}, "type": "electric_scooter", "name": "14b2d136ea876a0ffeba2d8d14a09a7b", "is_reserved": 0, "lon": -77.02462566666667, "is_disabled": 0, "fusion_lat": 0.0, "lat": 38.89738716666667, "bike_id": "14b2d136ea876a0ffeba2d8d14a09a7b", "fusion_lon": 0.0}, {"rental_uris": {"ios": "https://dc.lft.to/lastmile_qr_scan", "android": "https://dc.lft.to/lastmile_qr_scan"}, "type": "electric_scooter", "name": "d356f80d474fa71007fd7916fcc2a056", "is_reserved": 0, "lon": -77.033411, "is_disabled": 0, "fusion_lat": 0.0, "lat": 38.892242, "bike_id": "d356f80d474fa71007fd7916fcc2a056", "fusion_lon": 0.0}, {"rental_uris": {"ios": "https://dc.lft.to/lastmile_qr_scan", "android": "https://dc.lft.to/lastmile_qr_scan"}, "type": "electric_scooter", "name": "ca2e9d9f50a52b41795ff96c756dffec", "is_reserved": 0, "lon": -76.996294, "is_disabled": 0, "fusion_lat": 0.0, "lat": 38.89181583333333, "bike_id": "ca2e9d9f50a52b41795ff96c756dffec", "fusion_lon": 0.0}, {"rental_uris": {"ios": "https://dc.lft.to/lastmile_qr_scan", "android": "https://dc.lft.to/lastmile_qr_scan"}, "type": "electric_scooter", "name": "c793193f5b5b779c390975c9bd2eab81", "is_reserved": 0, "lon": -77.00991316666666, "is_disabled": 0, "fusion_lat": 0.0, "lat": 38.91127616666667, "bike_id": "c793193f5b5b779c390975c9bd2eab81", "fusion_lon": 0.0}, {"rental_uris": {"ios": "https://dc.lft.to/lastmile_qr_scan", "android": "https://dc.lft.to/lastmile_qr_scan"}, "type": "electric_bike", "name": "2435607cf28fab1627ead65ef179a8e3", "is_reserved": 0, "lon": -77.044219, "is_disabled": 0, "fusion_lat": 0.0, "lat": 39.01565983333333, "bike_id": "2435607cf28fab1627ead65ef179a8e3", "fusion_lon": 0.0}, {"rental_uris": {"ios": "https://dc.lft.to/lastmile_qr_scan", "android": "https://dc.lft.to/lastmile_qr_scan"}, "type": "electric_scooter", "name": "643e0688da599c5014b7b145179ca613", "is_reserved": 0, "lon": -77.02693283333333, "is_disabled": 0, "fusion_lat": 0.0, "lat": 38.94983383333334, "bike_id": "643e0688da599c5014b7b145179ca613", "fusion_lon": 0.0}, {"rental_uris": {"ios": "https://dc.lft.to/lastmile_qr_scan", "android": "https://dc.lft.to/lastmile_qr_scan"}, "type": "electric_bike", "name": "f3be6df0a238140c3b1f2115131e79fa", "is_reserved": 0, "lon": -77.12742233333333, "is_disabled": 0, "fusion_lat": 0.0, "lat": 38.89566266666667, "bike_id": "f3be6df0a238140c3b1f2115131e79fa", "fusion_lon": 0.0}, {"rental_uris": {"ios": "https://dc.lft.to/lastmile_qr_scan", "android": "https://dc.lft.to/lastmile_qr_scan"}, "type": "electric_scooter", "name": "bdb4ad76687a4d05d6d4334cdb377169", "is_reserved": 0, "lon": -77.00051833333333, "is_disabled": 0, "fusion_lat": 0.0, "lat": 38.9233175, "bike_id": "bdb4ad76687a4d05d6d4334cdb377169", "fusion_lon": 0.0}, {"rental_uris": {"ios": "https://dc.lft.to/lastmile_qr_scan", "android": "https://dc.lft.to/lastmile_qr_scan"}, "type": "electric_bike", "name": "cd0a8720ae49b009697a351b3f01365e", "is_reserved": 0, "lon": -77.0342355, "is_disabled": 0, "fusion_lat": 0.0, "lat": 38.965362999999996, "bike_id": "cd0a8720ae49b009697a351b3f01365e", "fusion_lon": 0.0}, {"rental_uris": {"ios": "https://dc.lft.to/lastmile_qr_scan", "android": "https://dc.lft.to/lastmile_qr_scan"}, "type": "electric_bike", "name": "9a4ec864fb519ffc300bf72bd23b8f71", "is_reserved": 0, "lon": -77.0962845, "is_disabled": 0, "fusion_lat": 0.0, "lat": 38.952485333333335, "bike_id": "9a4ec864fb519ffc300bf72bd23b8f71", "fusion_lon": 0.0}, {"rental_uris": {"ios": "https://dc.lft.to/lastmile_qr_scan", "android": "https://dc.lft.to/lastmile_qr_scan"}, "type": "electric_bike", "name": "a164688b3f7705e02c7b593087f43e2d", "is_reserved": 0, "lon": -77.085289, "is_disabled": 0, "fusion_lat": 0.0, "lat": 38.85651583333333, "bike_id": "a164688b3f7705e02c7b593087f43e2d", "fusion_lon": 0.0}, {"rental_uris": {"ios": "https://dc.lft.to/lastmile_qr_scan", "android": "https://dc.lft.to/lastmile_qr_scan"}, "type": "electric_scooter", "name": "3d427b8dc5ee81e0cf80f425b062a959", "is_reserved": 0, "lon": -77.04366733333333, "is_disabled": 0, "fusion_lat": 0.0, "lat": 38.89223583333333, "bike_id": "3d427b8dc5ee81e0cf80f425b062a959", "fusion_lon": 0.0}, {"rental_uris": {"ios": "https://dc.lft.to/lastmile_qr_scan", "android": "https://dc.lft.to/lastmile_qr_scan"}, "type": "electric_scooter", "name": "b337c7cd405f3d05e9405e892fb41cce", "is_reserved": 0, "lon": -77.01949866666666, "is_disabled": 0, "fusion_lat": 0.0, "lat": 38.9242555, "bike_id": "b337c7cd405f3d05e9405e892fb41cce", "fusion_lon": 0.0}, {"rental_uris": {"ios": "https://dc.lft.to/lastmile_qr_scan", "android": "https://dc.lft.to/lastmile_qr_scan"}, "type": "electric_scooter", "name": "077c381190b8a5ef3f0c3f125c65539d", "is_reserved": 0, "lon": -77.0327985, "is_disabled": 0, "fusion_lat": 0.0, "lat": 38.92362166666667, "bike_id": "077c381190b8a5ef3f0c3f125c65539d", "fusion_lon": 0.0}, {"rental_uris": {"ios": "https://dc.lft.to/lastmile_qr_scan", "android": "https://dc.lft.to/lastmile_qr_scan"}, "type": "electric_scooter", "name": "39c1fbce64e22ac6a7aabe77194c26e7", "is_reserved": 0, "lon": -76.9697805, "is_disabled": 0, "fusion_lat": 0.0, "lat": 38.86145416666667, "bike_id": "39c1fbce64e22ac6a7aabe77194c26e7", "fusion_lon": 0.0}, {"rental_uris": {"ios": "https://dc.lft.to/lastmile_qr_scan", "android": "https://dc.lft.to/lastmile_qr_scan"}, "type": "electric_scooter", "name": "d87d6e46e50214139631b40e83fc8c4c", "is_reserved": 0, "lon": -77.0902985, "is_disabled": 0, "fusion_lat": 0.0, "lat": 38.95606216666667, "bike_id": "d87d6e46e50214139631b40e83fc8c4c", "fusion_lon": 0.0}, {"rental_uris": {"ios": "https://dc.lft.to/lastmile_qr_scan", "android": "https://dc.lft.to/lastmile_qr_scan"}, "type": "electric_scooter", "name": "4677a7d61cf4f2244dec2ea09dc2ef30", "is_reserved": 0, "lon": -77.033183, "is_disabled": 0, "fusion_lat": 0.0, "lat": 38.89893133333333, "bike_id": "4677a7d61cf4f2244dec2ea09dc2ef30", "fusion_lon": 0.0}, {"rental_uris": {"ios": "https://dc.lft.to/lastmile_qr_scan", "android": "https://dc.lft.to/lastmile_qr_scan"}, "type": "electric_scooter", "name": "728b1278ea1c6326aa5ee1958305155c", "is_reserved": 0, "lon": -77.032724, "is_disabled": 0, "fusion_lat": 0.0, "lat": 38.929534333333336, "bike_id": "728b1278ea1c6326aa5ee1958305155c", "fusion_lon": 0.0}, {"rental_uris": {"ios": "https://dc.lft.to/lastmile_qr_scan", "android": "https://dc.lft.to/lastmile_qr_scan"}, "type": "electric_scooter", "name": "574da7baaeb7766ef3fa9ffca255996f", "is_reserved": 0, "lon": -77.017651, "is_disabled": 0, "fusion_lat": 0.0, "lat": 38.90097866666667, "bike_id": "574da7baaeb7766ef3fa9ffca255996f", "fusion_lon": 0.0}, {"rental_uris": {"ios": "https://dc.lft.to/lastmile_qr_scan", "android": "https://dc.lft.to/lastmile_qr_scan"}, "type": "electric_bike", "name": "5d50b73f34f4363135d5d1550475b5ba", "is_reserved": 0, "lon": -76.94534383333334, "is_disabled": 0, "fusion_lat": 0.0, "lat": 38.8675555, "bike_id": "5d50b73f34f4363135d5d1550475b5ba", "fusion_lon": 0.0}, {"rental_uris": {"ios": "https://dc.lft.to/lastmile_qr_scan", "android": "https://dc.lft.to/lastmile_qr_scan"}, "type": "electric_scooter", "name": "99ba4773f1e271ef23a33a9b52cd5fc5", "is_reserved": 0, "lon": -77.03443366666667, "is_disabled": 0, "fusion_lat": 0.0, "lat": 38.909764, "bike_id": "99ba4773f1e271ef23a33a9b52cd5fc5", "fusion_lon": 0.0}, {"rental_uris": {"ios": "https://dc.lft.to/lastmile_qr_scan", "android": "https://dc.lft.to/lastmile_qr_scan"}, "type": "electric_scooter", "name": "84a20eed0453072f3cb2cbc3efd4badf", "is_reserved": 0, "lon": -77.0266705, "is_disabled": 0, "fusion_lat": 0.0, "lat": 38.90257883333334, "bike_id": "84a20eed0453072f3cb2cbc3efd4badf", "fusion_lon": 0.0}, {"rental_uris": {"ios": "https://dc.lft.to/lastmile_qr_scan", "android": "https://dc.lft.to/lastmile_qr_scan"}, "type": "electric_scooter", "name": "249132d7a62491871b8ad51674583613", "is_reserved": 0, "lon": -77.051445, "is_disabled": 0, "fusion_lat": 0.0, "lat": 38.90456616666667, "bike_id": "249132d7a62491871b8ad51674583613", "fusion_lon": 0.0}, {"rental_uris": {"ios": "https://dc.lft.to/lastmile_qr_scan", "android": "https://dc.lft.to/lastmile_qr_scan"}, "type": "electric_scooter", "name": "c80a2fe4c0b41eb1ad5c136dfd9dc036", "is_reserved": 0, "lon": -77.01585033333333, "is_disabled": 0, "fusion_lat": 0.0, "lat": 38.876586333333336, "bike_id": "c80a2fe4c0b41eb1ad5c136dfd9dc036", "fusion_lon": 0.0}, {"rental_uris": {"ios": "https://dc.lft.to/lastmile_qr_scan", "android": "https://dc.lft.to/lastmile_qr_scan"}, "type": "electric_scooter", "name": "9e9bf5cca4aa28b0f2847f37216c1520", "is_reserved": 0, "lon": -77.01241983333334, "is_disabled": 0, "fusion_lat": 0.0, "lat": 38.91581566666667, "bike_id": "9e9bf5cca4aa28b0f2847f37216c1520", "fusion_lon": 0.0}, {"rental_uris": {"ios": "https://dc.lft.to/lastmile_qr_scan", "android": "https://dc.lft.to/lastmile_qr_scan"}, "type": "electric_bike", "name": "b4176b44c2ffc8047ac45571d809e7c7", "is_reserved": 0, "lon": -76.94153233333333, "is_disabled": 0, "fusion_lat": 0.0, "lat": 38.890114, "bike_id": "b4176b44c2ffc8047ac45571d809e7c7", "fusion_lon": 0.0}, {"rental_uris": {"ios": "https://dc.lft.to/lastmile_qr_scan", "android": "https://dc.lft.to/lastmile_qr_scan"}, "type": "electric_scooter", "name": "fbb2b1a705c109b3ca916864631668c8", "is_reserved": 0, "lon": -77.03342066666667, "is_disabled": 0, "fusion_lat": 0.0, "lat": 38.928717666666664, "bike_id": "fbb2b1a705c109b3ca916864631668c8", "fusion_lon": 0.0}, {"rental_uris": {"ios": "https://dc.lft.to/lastmile_qr_scan", "android": "https://dc.lft.to/lastmile_qr_scan"}, "type": "electric_scooter", "name": "dd3cb6ec7101fdea444ac7bba8fc7cf6", "is_reserved": 0, "lon": -77.05001166666666, "is_disabled": 0, "fusion_lat": 0.0, "lat": 38.8923255, "bike_id": "dd3cb6ec7101fdea444ac7bba8fc7cf6", "fusion_lon": 0.0}, {"rental_uris": {"ios": "https://dc.lft.to/lastmile_qr_scan", "android": "https://dc.lft.to/lastmile_qr_scan"}, "type": "electric_scooter", "name": "c285529f82e173213ea84c47f49d773f", "is_reserved": 0, "lon": -77.03329183333334, "is_disabled": 0, "fusion_lat": 0.0, "lat": 38.925397, "bike_id": "c285529f82e173213ea84c47f49d773f", "fusion_lon": 0.0}, {"rental_uris": {"ios": "https://dc.lft.to/lastmile_qr_scan", "android": "https://dc.lft.to/lastmile_qr_scan"}, "type": "electric_scooter", "name": "c6b34c0b74e005028e40867c50249ea7", "is_reserved": 0, "lon": -76.99946933333334, "is_disabled": 0, "fusion_lat": 0.0, "lat": 38.900583, "bike_id": "c6b34c0b74e005028e40867c50249ea7", "fusion_lon": 0.0}, {"rental_uris": {"ios": "https://dc.lft.to/lastmile_qr_scan", "android": "https://dc.lft.to/lastmile_qr_scan"}, "type": "electric_scooter", "name": "af3cf8c91a8cbdb6be2dd9bb4176a09c", "is_reserved": 0, "lon": -76.99054433333333, "is_disabled": 0, "fusion_lat": 0.0, "lat": 38.86380066666667, "bike_id": "af3cf8c91a8cbdb6be2dd9bb4176a09c", "fusion_lon": 0.0}, {"rental_uris": {"ios": "https://dc.lft.to/lastmile_qr_scan", "android": "https://dc.lft.to/lastmile_qr_scan"}, "type": "electric_scooter", "name": "a5bb7f483d43a6641e9c6c3ab72f8705", "is_reserved": 0, "lon": -77.07021183333333, "is_disabled": 0, "fusion_lat": 0.0, "lat": 38.89338683333333, "bike_id": "a5bb7f483d43a6641e9c6c3ab72f8705", "fusion_lon": 0.0}, {"rental_uris": {"ios": "https://dc.lft.to/lastmile_qr_scan", "android": "https://dc.lft.to/lastmile_qr_scan"}, "type": "electric_scooter", "name": "8a0ebfcb9e0c22af18203baa0a25f382", "is_reserved": 0, "lon": -76.96543933333334, "is_disabled": 0, "fusion_lat": 0.0, "lat": 38.87885933333333, "bike_id": "8a0ebfcb9e0c22af18203baa0a25f382", "fusion_lon": 0.0}, {"rental_uris": {"ios": "https://dc.lft.to/lastmile_qr_scan", "android": "https://dc.lft.to/lastmile_qr_scan"}, "type": "electric_scooter", "name": "1a89c9137c87b1f622ff124f982c722c", "is_reserved": 0, "lon": -77.02715583333334, "is_disabled": 0, "fusion_lat": 0.0, "lat": 38.915254, "bike_id": "1a89c9137c87b1f622ff124f982c722c", "fusion_lon": 0.0}, {"rental_uris": {"ios": "https://dc.lft.to/lastmile_qr_scan", "android": "https://dc.lft.to/lastmile_qr_scan"}, "type": "electric_bike", "name": "7d1654913f3f8776dbd8dbe749a2b069", "is_reserved": 0, "lon": -76.99444533333333, "is_disabled": 0, "fusion_lat": 0.0, "lat": 38.8310635, "bike_id": "7d1654913f3f8776dbd8dbe749a2b069", "fusion_lon": 0.0}, {"rental_uris": {"ios": "https://dc.lft.to/lastmile_qr_scan", "android": "https://dc.lft.to/lastmile_qr_scan"}, "type": "electric_scooter", "name": "daa16198e54a150b4e9be429ed099db5", "is_reserved": 0, "lon": -77.02284666666667, "is_disabled": 0, "fusion_lat": 0.0, "lat": 38.909611, "bike_id": "daa16198e54a150b4e9be429ed099db5", "fusion_lon": 0.0}, {"rental_uris": {"ios": "https://dc.lft.to/lastmile_qr_scan", "android": "https://dc.lft.to/lastmile_qr_scan"}, "type": "electric_scooter", "name": "89c0b337020cfc0727e3032a8e733747", "is_reserved": 0, "lon": -77.0381415, "is_disabled": 0, "fusion_lat": 0.0, "lat": 38.915537666666665, "bike_id": "89c0b337020cfc0727e3032a8e733747", "fusion_lon": 0.0}, {"rental_uris": {"ios": "https://dc.lft.to/lastmile_qr_scan", "android": "https://dc.lft.to/lastmile_qr_scan"}, "type": "electric_bike", "name": "c44dc5d89d42e92c245fc767496a31f8", "is_reserved": 0, "lon": -77.08318966666667, "is_disabled": 0, "fusion_lat": 0.0, "lat": 38.85439, "bike_id": "c44dc5d89d42e92c245fc767496a31f8", "fusion_lon": 0.0}, {"rental_uris": {"ios": "https://dc.lft.to/lastmile_qr_scan", "android": "https://dc.lft.to/lastmile_qr_scan"}, "type": "electric_scooter", "name": "fc4a577d90dd3dc23cd56f6e46d20499", "is_reserved": 0, "lon": -77.0049755, "is_disabled": 0, "fusion_lat": 0.0, "lat": 38.87947316666666, "bike_id": "fc4a577d90dd3dc23cd56f6e46d20499", "fusion_lon": 0.0}, {"rental_uris": {"ios": "https://dc.lft.to/lastmile_qr_scan", "android": "https://dc.lft.to/lastmile_qr_scan"}, "type": "electric_scooter", "name": "78a55e0ae643522ba56313c2730083dc", "is_reserved": 0, "lon": -77.00417366666667, "is_disabled": 0, "fusion_lat": 0.0, "lat": 38.9118615, "bike_id": "78a55e0ae643522ba56313c2730083dc", "fusion_lon": 0.0}, {"rental_uris": {"ios": "https://dc.lft.to/lastmile_qr_scan", "android": "https://dc.lft.to/lastmile_qr_scan"}, "type": "electric_scooter", "name": "e792d0ac312a15973529267947a6c9b9", "is_reserved": 0, "lon": -77.04689816666667, "is_disabled": 0, "fusion_lat": 0.0, "lat": 38.892230833333336, "bike_id": "e792d0ac312a15973529267947a6c9b9", "fusion_lon": 0.0}, {"rental_uris": {"ios": "https://dc.lft.to/lastmile_qr_scan", "android": "https://dc.lft.to/lastmile_qr_scan"}, "type": "electric_scooter", "name": "361b1cb0f3bef5eca942e1f2558b3272", "is_reserved": 0, "lon": -77.03662466666667, "is_disabled": 0, "fusion_lat": 0.0, "lat": 38.917266166666664, "bike_id": "361b1cb0f3bef5eca942e1f2558b3272", "fusion_lon": 0.0}, {"rental_uris": {"ios": "https://dc.lft.to/lastmile_qr_scan", "android": "https://dc.lft.to/lastmile_qr_scan"}, "type": "electric_scooter", "name": "c9a5a351726b7b12f5bbadcd873f4a2b", "is_reserved": 0, "lon": -77.0261315, "is_disabled": 0, "fusion_lat": 0.0, "lat": 38.95181733333333, "bike_id": "c9a5a351726b7b12f5bbadcd873f4a2b", "fusion_lon": 0.0}, {"rental_uris": {"ios": "https://dc.lft.to/lastmile_qr_scan", "android": "https://dc.lft.to/lastmile_qr_scan"}, "type": "electric_bike", "name": "26a9302e46af4d4f04fa225b2bb0a06f", "is_reserved": 0, "lon": -77.00726316666666, "is_disabled": 0, "fusion_lat": 0.0, "lat": 38.83246916666667, "bike_id": "26a9302e46af4d4f04fa225b2bb0a06f", "fusion_lon": 0.0}, {"rental_uris": {"ios": "https://dc.lft.to/lastmile_qr_scan", "android": "https://dc.lft.to/lastmile_qr_scan"}, "type": "electric_scooter", "name": "12355e7b91f1a95e26bc634618edc8cd", "is_reserved": 0, "lon": -77.02570666666666, "is_disabled": 0, "fusion_lat": 0.0, "lat": 38.8874595, "bike_id": "12355e7b91f1a95e26bc634618edc8cd", "fusion_lon": 0.0}, {"rental_uris": {"ios": "https://dc.lft.to/lastmile_qr_scan", "android": "https://dc.lft.to/lastmile_qr_scan"}, "type": "electric_scooter", "name": "7c99d749f3af84adba1239b5833d7747", "is_reserved": 0, "lon": -76.98315916666667, "is_disabled": 0, "fusion_lat": 0.0, "lat": 38.925900166666665, "bike_id": "7c99d749f3af84adba1239b5833d7747", "fusion_lon": 0.0}, {"rental_uris": {"ios": "https://dc.lft.to/lastmile_qr_scan", "android": "https://dc.lft.to/lastmile_qr_scan"}, "type": "electric_scooter", "name": "8c0bafbd5cbcc1bf8b09f38e35142945", "is_reserved": 0, "lon": -77.025034, "is_disabled": 0, "fusion_lat": 0.0, "lat": 38.9421055, "bike_id": "8c0bafbd5cbcc1bf8b09f38e35142945", "fusion_lon": 0.0}, {"rental_uris": {"ios": "https://dc.lft.to/lastmile_qr_scan", "android": "https://dc.lft.to/lastmile_qr_scan"}, "type": "electric_scooter", "name": "bec686bbb6aca148d6442b2367d7b434", "is_reserved": 0, "lon": -76.9807765, "is_disabled": 0, "fusion_lat": 0.0, "lat": 38.901756666666664, "bike_id": "bec686bbb6aca148d6442b2367d7b434", "fusion_lon": 0.0}, {"rental_uris": {"ios": "https://dc.lft.to/lastmile_qr_scan", "android": "https://dc.lft.to/lastmile_qr_scan"}, "type": "electric_scooter", "name": "2b33d650e4555b9a702ff9056ee2fdc5", "is_reserved": 0, "lon": -77.03870466666666, "is_disabled": 0, "fusion_lat": 0.0, "lat": 38.91186966666667, "bike_id": "2b33d650e4555b9a702ff9056ee2fdc5", "fusion_lon": 0.0}, {"rental_uris": {"ios": "https://dc.lft.to/lastmile_qr_scan", "android": "https://dc.lft.to/lastmile_qr_scan"}, "type": "electric_bike", "name": "007ab033ce3132f749096c09f7dd10e3", "is_reserved": 0, "lon": -76.91724783333333, "is_disabled": 0, "fusion_lat": 0.0, "lat": 38.88029816666667, "bike_id": "007ab033ce3132f749096c09f7dd10e3", "fusion_lon": 0.0}, {"rental_uris": {"ios": "https://dc.lft.to/lastmile_qr_scan", "android": "https://dc.lft.to/lastmile_qr_scan"}, "type": "electric_scooter", "name": "8220f1c448741d6b38a97ad46f7404a2", "is_reserved": 0, "lon": -77.06419866666667, "is_disabled": 0, "fusion_lat": 0.0, "lat": 38.90263133333333, "bike_id": "8220f1c448741d6b38a97ad46f7404a2", "fusion_lon": 0.0}, {"rental_uris": {"ios": "https://dc.lft.to/lastmile_qr_scan", "android": "https://dc.lft.to/lastmile_qr_scan"}, "type": "electric_scooter", "name": "82e559a322e7c2837a9ed98fbe679eb4", "is_reserved": 0, "lon": -77.04363533333333, "is_disabled": 0, "fusion_lat": 0.0, "lat": 38.926751, "bike_id": "82e559a322e7c2837a9ed98fbe679eb4", "fusion_lon": 0.0}, {"rental_uris": {"ios": "https://dc.lft.to/lastmile_qr_scan", "android": "https://dc.lft.to/lastmile_qr_scan"}, "type": "electric_scooter", "name": "b7c84784f55758d8f2243f815b84f58a", "is_reserved": 0, "lon": -77.007146, "is_disabled": 0, "fusion_lat": 0.0, "lat": 38.905554, "bike_id": "b7c84784f55758d8f2243f815b84f58a", "fusion_lon": 0.0}, {"rental_uris": {"ios": "https://dc.lft.to/lastmile_qr_scan", "android": "https://dc.lft.to/lastmile_qr_scan"}, "type": "electric_scooter", "name": "4234b3d63d7513d908cd79571828332a", "is_reserved": 0, "lon": -77.03248416666666, "is_disabled": 0, "fusion_lat": 0.0, "lat": 38.919904333333335, "bike_id": "4234b3d63d7513d908cd79571828332a", "fusion_lon": 0.0}, {"rental_uris": {"ios": "https://dc.lft.to/lastmile_qr_scan", "android": "https://dc.lft.to/lastmile_qr_scan"}, "type": "electric_scooter", "name": "788579103fbe5ddc61f98ad6bcbfdec4", "is_reserved": 0, "lon": -77.020919, "is_disabled": 0, "fusion_lat": 0.0, "lat": 38.927086333333335, "bike_id": "788579103fbe5ddc61f98ad6bcbfdec4", "fusion_lon": 0.0}, {"rental_uris": {"ios": "https://dc.lft.to/lastmile_qr_scan", "android": "https://dc.lft.to/lastmile_qr_scan"}, "type": "electric_scooter", "name": "a1b9659110117d4b3510ed4595b24a22", "is_reserved": 0, "lon": -77.0494695, "is_disabled": 0, "fusion_lat": 0.0, "lat": 38.92020133333333, "bike_id": "a1b9659110117d4b3510ed4595b24a22", "fusion_lon": 0.0}, {"rental_uris": {"ios": "https://dc.lft.to/lastmile_qr_scan", "android": "https://dc.lft.to/lastmile_qr_scan"}, "type": "electric_bike", "name": "f77df1399f3d333b2361ab7daddc814f", "is_reserved": 0, "lon": -77.22826333333333, "is_disabled": 0, "fusion_lat": 0.0, "lat": 38.88268266666667, "bike_id": "f77df1399f3d333b2361ab7daddc814f", "fusion_lon": 0.0}, {"rental_uris": {"ios": "https://dc.lft.to/lastmile_qr_scan", "android": "https://dc.lft.to/lastmile_qr_scan"}, "type": "electric_bike", "name": "227b63564eb57f4d7cd3ad303538740e", "is_reserved": 0, "lon": -77.014594, "is_disabled": 0, "fusion_lat": 0.0, "lat": 38.87674533333333, "bike_id": "227b63564eb57f4d7cd3ad303538740e", "fusion_lon": 0.0}, {"rental_uris": {"ios": "https://dc.lft.to/lastmile_qr_scan", "android": "https://dc.lft.to/lastmile_qr_scan"}, "type": "electric_scooter", "name": "17a68934d832173473a93c2e092efed0", "is_reserved": 0, "lon": -77.01822866666667, "is_disabled": 0, "fusion_lat": 0.0, "lat": 38.90084183333333, "bike_id": "17a68934d832173473a93c2e092efed0", "fusion_lon": 0.0}, {"rental_uris": {"ios": "https://dc.lft.to/lastmile_qr_scan", "android": "https://dc.lft.to/lastmile_qr_scan"}, "type": "electric_scooter", "name": "8324d48ad9e824d77751768c06b6fd68", "is_reserved": 0, "lon": -77.00156033333333, "is_disabled": 0, "fusion_lat": 0.0, "lat": 38.821330333333336, "bike_id": "8324d48ad9e824d77751768c06b6fd68", "fusion_lon": 0.0}, {"rental_uris": {"ios": "https://dc.lft.to/lastmile_qr_scan", "android": "https://dc.lft.to/lastmile_qr_scan"}, "type": "electric_scooter", "name": "70fec8fdd1c18e51a4a8b0e38d9ada4f", "is_reserved": 0, "lon": -76.94826666666667, "is_disabled": 0, "fusion_lat": 0.0, "lat": 38.8852235, "bike_id": "70fec8fdd1c18e51a4a8b0e38d9ada4f", "fusion_lon": 0.0}, {"rental_uris": {"ios": "https://dc.lft.to/lastmile_qr_scan", "android": "https://dc.lft.to/lastmile_qr_scan"}, "type": "electric_scooter", "name": "242c44527fd94bf6c25c7818fc173896", "is_reserved": 0, "lon": -76.9303765, "is_disabled": 0, "fusion_lat": 0.0, "lat": 38.88393, "bike_id": "242c44527fd94bf6c25c7818fc173896", "fusion_lon": 0.0}, {"rental_uris": {"ios": "https://dc.lft.to/lastmile_qr_scan", "android": "https://dc.lft.to/lastmile_qr_scan"}, "type": "electric_scooter", "name": "3cd4325b43565600baadcd8eda56a6ff", "is_reserved": 0, "lon": -77.01936933333333, "is_disabled": 0, "fusion_lat": 0.0, "lat": 38.94703583333333, "bike_id": "3cd4325b43565600baadcd8eda56a6ff", "fusion_lon": 0.0}, {"rental_uris": {"ios": "https://dc.lft.to/lastmile_qr_scan", "android": "https://dc.lft.to/lastmile_qr_scan"}, "type": "electric_scooter", "name": "0e30d2f1af45b2e049cf19f1306e9d2c", "is_reserved": 0, "lon": -77.042059, "is_disabled": 0, "fusion_lat": 0.0, "lat": 38.921251833333336, "bike_id": "0e30d2f1af45b2e049cf19f1306e9d2c", "fusion_lon": 0.0}, {"rental_uris": {"ios": "https://dc.lft.to/lastmile_qr_scan", "android": "https://dc.lft.to/lastmile_qr_scan"}, "type": "electric_bike", "name": "8c7eacaa5a435fab7d59cc23ff7390d3", "is_reserved": 0, "lon": -76.97557983333333, "is_disabled": 0, "fusion_lat": 0.0, "lat": 38.904389333333334, "bike_id": "8c7eacaa5a435fab7d59cc23ff7390d3", "fusion_lon": 0.0}, {"rental_uris": {"ios": "https://dc.lft.to/lastmile_qr_scan", "android": "https://dc.lft.to/lastmile_qr_scan"}, "type": "electric_scooter", "name": "41d0f64e8457ab210a95d4feba990d5e", "is_reserved": 0, "lon": -77.043354, "is_disabled": 0, "fusion_lat": 0.0, "lat": 38.8922365, "bike_id": "41d0f64e8457ab210a95d4feba990d5e", "fusion_lon": 0.0}, {"rental_uris": {"ios": "https://dc.lft.to/lastmile_qr_scan", "android": "https://dc.lft.to/lastmile_qr_scan"}, "type": "electric_scooter", "name": "2246053279a26ab390446f4a62a49594", "is_reserved": 0, "lon": -77.02616516666667, "is_disabled": 0, "fusion_lat": 0.0, "lat": 38.905380666666666, "bike_id": "2246053279a26ab390446f4a62a49594", "fusion_lon": 0.0}, {"rental_uris": {"ios": "https://dc.lft.to/lastmile_qr_scan", "android": "https://dc.lft.to/lastmile_qr_scan"}, "type": "electric_scooter", "name": "943e6542dd903f931ed4d672c2b4b854", "is_reserved": 0, "lon": -77.038592, "is_disabled": 0, "fusion_lat": 0.0, "lat": 38.90659083333333, "bike_id": "943e6542dd903f931ed4d672c2b4b854", "fusion_lon": 0.0}, {"rental_uris": {"ios": "https://dc.lft.to/lastmile_qr_scan", "android": "https://dc.lft.to/lastmile_qr_scan"}, "type": "electric_scooter", "name": "28e1938d0db86dc36512809bbb35be79", "is_reserved": 0, "lon": -77.04470266666667, "is_disabled": 0, "fusion_lat": 0.0, "lat": 38.919115, "bike_id": "28e1938d0db86dc36512809bbb35be79", "fusion_lon": 0.0}, {"rental_uris": {"ios": "https://dc.lft.to/lastmile_qr_scan", "android": "https://dc.lft.to/lastmile_qr_scan"}, "type": "electric_scooter", "name": "a761c303976766a49a0f1dca64d14abb", "is_reserved": 0, "lon": -77.03087066666667, "is_disabled": 0, "fusion_lat": 0.0, "lat": 38.93308533333333, "bike_id": "a761c303976766a49a0f1dca64d14abb", "fusion_lon": 0.0}, {"rental_uris": {"ios": "https://dc.lft.to/lastmile_qr_scan", "android": "https://dc.lft.to/lastmile_qr_scan"}, "type": "electric_scooter", "name": "e30a65ef3b351c52b5cb23611dbb392f", "is_reserved": 0, "lon": -77.00779283333334, "is_disabled": 0, "fusion_lat": 0.0, "lat": 38.952456166666664, "bike_id": "e30a65ef3b351c52b5cb23611dbb392f", "fusion_lon": 0.0}, {"rental_uris": {"ios": "https://dc.lft.to/lastmile_qr_scan", "android": "https://dc.lft.to/lastmile_qr_scan"}, "type": "electric_bike", "name": "b842769cadd7ed270f21cb229820b57f", "is_reserved": 0, "lon": -76.95161283333333, "is_disabled": 0, "fusion_lat": 0.0, "lat": 39.08436666666667, "bike_id": "b842769cadd7ed270f21cb229820b57f", "fusion_lon": 0.0}, {"rental_uris": {"ios": "https://dc.lft.to/lastmile_qr_scan", "android": "https://dc.lft.to/lastmile_qr_scan"}, "type": "electric_scooter", "name": "2c60a32e0e92d6c2a1d3fc29584e011a", "is_reserved": 0, "lon": -77.02834716666666, "is_disabled": 0, "fusion_lat": 0.0, "lat": 38.91407916666667, "bike_id": "2c60a32e0e92d6c2a1d3fc29584e011a", "fusion_lon": 0.0}, {"rental_uris": {"ios": "https://dc.lft.to/lastmile_qr_scan", "android": "https://dc.lft.to/lastmile_qr_scan"}, "type": "electric_scooter", "name": "4efcac6ebb0f0843ea1c0dda805605f9", "is_reserved": 0, "lon": -77.03555483333334, "is_disabled": 0, "fusion_lat": 0.0, "lat": 38.90492016666666, "bike_id": "4efcac6ebb0f0843ea1c0dda805605f9", "fusion_lon": 0.0}, {"rental_uris": {"ios": "https://dc.lft.to/lastmile_qr_scan", "android": "https://dc.lft.to/lastmile_qr_scan"}, "type": "electric_scooter", "name": "bde37812cafd20e63950931778e62a20", "is_reserved": 0, "lon": -77.03449533333334, "is_disabled": 0, "fusion_lat": 0.0, "lat": 38.90733816666667, "bike_id": "bde37812cafd20e63950931778e62a20", "fusion_lon": 0.0}, {"rental_uris": {"ios": "https://dc.lft.to/lastmile_qr_scan", "android": "https://dc.lft.to/lastmile_qr_scan"}, "type": "electric_scooter", "name": "867c73a81f640ffbe8969590e625602d", "is_reserved": 0, "lon": -77.00407383333334, "is_disabled": 0, "fusion_lat": 0.0, "lat": 38.90557716666667, "bike_id": "867c73a81f640ffbe8969590e625602d", "fusion_lon": 0.0}, {"rental_uris": {"ios": "https://dc.lft.to/lastmile_qr_scan", "android": "https://dc.lft.to/lastmile_qr_scan"}, "type": "electric_bike", "name": "e9c3ce868eb988b2beb4549bd7bb60d7", "is_reserved": 0, "lon": -77.00141316666667, "is_disabled": 0, "fusion_lat": 0.0, "lat": 38.99503283333333, "bike_id": "e9c3ce868eb988b2beb4549bd7bb60d7", "fusion_lon": 0.0}, {"rental_uris": {"ios": "https://dc.lft.to/lastmile_qr_scan", "android": "https://dc.lft.to/lastmile_qr_scan"}, "type": "electric_scooter", "name": "f671ab2c627b6c2427e0977b61381b9b", "is_reserved": 0, "lon": -76.97939966666667, "is_disabled": 0, "fusion_lat": 0.0, "lat": 38.9066145, "bike_id": "f671ab2c627b6c2427e0977b61381b9b", "fusion_lon": 0.0}, {"rental_uris": {"ios": "https://dc.lft.to/lastmile_qr_scan", "android": "https://dc.lft.to/lastmile_qr_scan"}, "type": "electric_scooter", "name": "610d5e6a76e41d495f4f16c7ca2d1b3f", "is_reserved": 0, "lon": -77.05216633333333, "is_disabled": 0, "fusion_lat": 0.0, "lat": 38.9001615, "bike_id": "610d5e6a76e41d495f4f16c7ca2d1b3f", "fusion_lon": 0.0}, {"rental_uris": {"ios": "https://dc.lft.to/lastmile_qr_scan", "android": "https://dc.lft.to/lastmile_qr_scan"}, "type": "electric_scooter", "name": "2ff09c73835464785aa4e2f12944c636", "is_reserved": 0, "lon": -77.0333785, "is_disabled": 0, "fusion_lat": 0.0, "lat": 38.9132605, "bike_id": "2ff09c73835464785aa4e2f12944c636", "fusion_lon": 0.0}, {"rental_uris": {"ios": "https://dc.lft.to/lastmile_qr_scan", "android": "https://dc.lft.to/lastmile_qr_scan"}, "type": "electric_scooter", "name": "9a2b03cfb5140b3e8e4f85571c438806", "is_reserved": 0, "lon": -77.00756833333334, "is_disabled": 0, "fusion_lat": 0.0, "lat": 38.9253125, "bike_id": "9a2b03cfb5140b3e8e4f85571c438806", "fusion_lon": 0.0}, {"rental_uris": {"ios": "https://dc.lft.to/lastmile_qr_scan", "android": "https://dc.lft.to/lastmile_qr_scan"}, "type": "electric_scooter", "name": "ba51f57b39f30d1505637c66c640d4a9", "is_reserved": 0, "lon": -77.06476866666667, "is_disabled": 0, "fusion_lat": 0.0, "lat": 38.91026333333333, "bike_id": "ba51f57b39f30d1505637c66c640d4a9", "fusion_lon": 0.0}, {"rental_uris": {"ios": "https://dc.lft.to/lastmile_qr_scan", "android": "https://dc.lft.to/lastmile_qr_scan"}, "type": "electric_bike", "name": "31f0a7f2cd49f8173b1dbfcf0a73225c", "is_reserved": 0, "lon": -76.96916433333334, "is_disabled": 0, "fusion_lat": 0.0, "lat": 38.846171166666664, "bike_id": "31f0a7f2cd49f8173b1dbfcf0a73225c", "fusion_lon": 0.0}, {"rental_uris": {"ios": "https://dc.lft.to/lastmile_qr_scan", "android": "https://dc.lft.to/lastmile_qr_scan"}, "type": "electric_scooter", "name": "76ea1e46c62ef4f6e914285aca0f9d40", "is_reserved": 0, "lon": -77.00921166666667, "is_disabled": 0, "fusion_lat": 0.0, "lat": 38.8988145, "bike_id": "76ea1e46c62ef4f6e914285aca0f9d40", "fusion_lon": 0.0}, {"rental_uris": {"ios": "https://dc.lft.to/lastmile_qr_scan", "android": "https://dc.lft.to/lastmile_qr_scan"}, "type": "electric_scooter", "name": "30a2f1cc9cf1247f6a117e7ed43d766e", "is_reserved": 0, "lon": -77.04740866666667, "is_disabled": 0, "fusion_lat": 0.0, "lat": 38.908534833333334, "bike_id": "30a2f1cc9cf1247f6a117e7ed43d766e", "fusion_lon": 0.0}, {"rental_uris": {"ios": "https://dc.lft.to/lastmile_qr_scan", "android": "https://dc.lft.to/lastmile_qr_scan"}, "type": "electric_scooter", "name": "0e77dbdf83939e4dd0b0eb6e3efdc39d", "is_reserved": 0, "lon": -77.03031983333334, "is_disabled": 0, "fusion_lat": 0.0, "lat": 38.922524833333334, "bike_id": "0e77dbdf83939e4dd0b0eb6e3efdc39d", "fusion_lon": 0.0}, {"rental_uris": {"ios": "https://dc.lft.to/lastmile_qr_scan", "android": "https://dc.lft.to/lastmile_qr_scan"}, "type": "electric_scooter", "name": "19d575b71161eea897965fe23cd09b89", "is_reserved": 0, "lon": -77.03270183333333, "is_disabled": 0, "fusion_lat": 0.0, "lat": 38.93269866666667, "bike_id": "19d575b71161eea897965fe23cd09b89", "fusion_lon": 0.0}, {"rental_uris": {"ios": "https://dc.lft.to/lastmile_qr_scan", "android": "https://dc.lft.to/lastmile_qr_scan"}, "type": "electric_scooter", "name": "b41bf77e4ab1fc5ae2445921871a0430", "is_reserved": 0, "lon": -76.98376066666667, "is_disabled": 0, "fusion_lat": 0.0, "lat": 38.86691833333333, "bike_id": "b41bf77e4ab1fc5ae2445921871a0430", "fusion_lon": 0.0}, {"rental_uris": {"ios": "https://dc.lft.to/lastmile_qr_scan", "android": "https://dc.lft.to/lastmile_qr_scan"}, "type": "electric_scooter", "name": "b8962aabac8f2b6522212f2a77dc6e21", "is_reserved": 0, "lon": -77.03219716666666, "is_disabled": 0, "fusion_lat": 0.0, "lat": 38.896293166666666, "bike_id": "b8962aabac8f2b6522212f2a77dc6e21", "fusion_lon": 0.0}, {"rental_uris": {"ios": "https://dc.lft.to/lastmile_qr_scan", "android": "https://dc.lft.to/lastmile_qr_scan"}, "type": "electric_scooter", "name": "d72e9bd32d3d5b41a44a085d6ab4bf6a", "is_reserved": 0, "lon": -77.02356916666666, "is_disabled": 0, "fusion_lat": 0.0, "lat": 38.90853, "bike_id": "d72e9bd32d3d5b41a44a085d6ab4bf6a", "fusion_lon": 0.0}, {"rental_uris": {"ios": "https://dc.lft.to/lastmile_qr_scan", "android": "https://dc.lft.to/lastmile_qr_scan"}, "type": "electric_scooter", "name": "10c832628a7a75a4b4ede509f546dbff", "is_reserved": 0, "lon": -77.02696433333334, "is_disabled": 0, "fusion_lat": 0.0, "lat": 38.949837, "bike_id": "10c832628a7a75a4b4ede509f546dbff", "fusion_lon": 0.0}, {"rental_uris": {"ios": "https://dc.lft.to/lastmile_qr_scan", "android": "https://dc.lft.to/lastmile_qr_scan"}, "type": "electric_bike", "name": "4846ca28cc37d1275ff05f847691a400", "is_reserved": 0, "lon": -76.98689483333334, "is_disabled": 0, "fusion_lat": 0.0, "lat": 38.944752, "bike_id": "4846ca28cc37d1275ff05f847691a400", "fusion_lon": 0.0}, {"rental_uris": {"ios": "https://dc.lft.to/lastmile_qr_scan", "android": "https://dc.lft.to/lastmile_qr_scan"}, "type": "electric_scooter", "name": "ee09a10b6163dca584e3d34021777b02", "is_reserved": 0, "lon": -77.01821133333333, "is_disabled": 0, "fusion_lat": 0.0, "lat": 38.919833833333335, "bike_id": "ee09a10b6163dca584e3d34021777b02", "fusion_lon": 0.0}, {"rental_uris": {"ios": "https://dc.lft.to/lastmile_qr_scan", "android": "https://dc.lft.to/lastmile_qr_scan"}, "type": "electric_scooter", "name": "064909c09b023ebba0de488881cd04fa", "is_reserved": 0, "lon": -77.03801683333333, "is_disabled": 0, "fusion_lat": 0.0, "lat": 38.915409333333336, "bike_id": "064909c09b023ebba0de488881cd04fa", "fusion_lon": 0.0}, {"rental_uris": {"ios": "https://dc.lft.to/lastmile_qr_scan", "android": "https://dc.lft.to/lastmile_qr_scan"}, "type": "electric_scooter", "name": "675725992dd06e7299e3e77825a0827f", "is_reserved": 0, "lon": -77.009518, "is_disabled": 0, "fusion_lat": 0.0, "lat": 38.895024666666664, "bike_id": "675725992dd06e7299e3e77825a0827f", "fusion_lon": 0.0}, {"rental_uris": {"ios": "https://dc.lft.to/lastmile_qr_scan", "android": "https://dc.lft.to/lastmile_qr_scan"}, "type": "electric_scooter", "name": "99c5a991079c4b62a3244effd08ace51", "is_reserved": 0, "lon": -77.02255166666667, "is_disabled": 0, "fusion_lat": 0.0, "lat": 38.92822733333333, "bike_id": "99c5a991079c4b62a3244effd08ace51", "fusion_lon": 0.0},