{"data": {"bikes": [{"lon": -77.02463683333333, "bike_id": "34d4583a236b4da280a3725822f3a89f", "lat": 38.938778666666664, "fusion_lon": 0.0, "fusion_lat": 0.0, "type": "electric_scooter", "name": "34d4583a236b4da280a3725822f3a89f", "is_disabled": 0, "rental_uris": {"ios": "https://dc.lft.to/lastmile_qr_scan", "android": "https://dc.lft.to/lastmile_qr_scan"}, "is_reserved": 0}, {"lon": -77.029709, "bike_id": "204d986a928515f2922639883b22a755", "lat": 38.916738, "fusion_lon": 0.0, "fusion_lat": 0.0, "type": "electric_scooter", "name": "204d986a928515f2922639883b22a755", "is_disabled": 0, "rental_uris": {"ios": "https://dc.lft.to/lastmile_qr_scan", "android": "https://dc.lft.to/lastmile_qr_scan"}, "is_reserved": 0}, {"lon": -77.0206595, "bike_id": "0c9bf5bd61056e7070974f1e932a66df", "lat": 38.89707716666667, "fusion_lon": 0.0, "fusion_lat": 0.0, "type": "electric_scooter", "name": "0c9bf5bd61056e7070974f1e932a66df", "is_disabled": 0, "rental_uris": {"ios": "https://dc.lft.to/lastmile_qr_scan", "android": "https://dc.lft.to/lastmile_qr_scan"}, "is_reserved": 0}, {"lon": -76.97481616666667, "bike_id": "d163ff84d6e317a7ee153bb7e34c90f0", "lat": 38.9034945, "fusion_lon": 0.0, "fusion_lat": 0.0, "type": "electric_scooter", "name": "d163ff84d6e317a7ee153bb7e34c90f0", "is_disabled": 0, "rental_uris": {"ios": "https://dc.lft.to/lastmile_qr_scan", "android": "https://dc.lft.to/lastmile_qr_scan"}, "is_reserved": 0}, {"lon": -77.02719783333333, "bike_id": "40e39fab2efeb40f3236be6f371d7004", "lat": 38.91813116666667, "fusion_lon": 0.0, "fusion_lat": 0.0, "type": "electric_scooter", "name": "40e39fab2efeb40f3236be6f371d7004", "is_disabled": 0, "rental_uris": {"ios": "https://dc.lft.to/lastmile_qr_scan", "android": "https://dc.lft.to/lastmile_qr_scan"}, "is_reserved": 0}, {"lon": -77.0387105, "bike_id": "1de9950ac733aafa6d490e0d8069cb72", "lat": 38.91551366666667, "fusion_lon": 0.0, "fusion_lat": 0.0, "type": "electric_scooter", "name": "1de9950ac733aafa6d490e0d8069cb72", "is_disabled": 0, "rental_uris": {"ios": "https://dc.lft.to/lastmile_qr_scan", "android": "https://dc.lft.to/lastmile_qr_scan"}, "is_reserved": 0}, {"lon": -77.00683283333333, "bike_id": "51e3bbcd6bba623691c6da019318760f", "lat": 38.900296, "fusion_lon": 0.0, "fusion_lat": 0.0, "type": "electric_scooter", "name": "51e3bbcd6bba623691c6da019318760f", "is_disabled": 0, "rental_uris": {"ios": "https://dc.lft.to/lastmile_qr_scan", "android": "https://dc.lft.to/lastmile_qr_scan"}, "is_reserved": 0}, {"lon": -77.04203133333333, "bike_id": "b6e66835a5d9fbfdc8430d1384d0fd15", "lat": 38.90658833333333, "fusion_lon": 0.0, "fusion_lat": 0.0, "type": "electric_scooter", "name": "b6e66835a5d9fbfdc8430d1384d0fd15", "is_disabled": 0, "rental_uris": {"ios": "https://dc.lft.to/lastmile_qr_scan", "android": "https://dc.lft.to/lastmile_qr_scan"}, "is_reserved": 0}, {"lon": -77.0268785, "bike_id": "e5ab69986b3f565cfe2554f08fdb262e", "lat": 38.91145133333333, "fusion_lon": 0.0, "fusion_lat": 0.0, "type": "electric_bike", "name": "e5ab69986b3f565cfe2554f08fdb262e", "is_disabled": 0, "rental_uris": {"ios": "https://dc.lft.to/lastmile_qr_scan", "android": "https://dc.lft.to/lastmile_qr_scan"}, "is_reserved": 0}, {"lon": -77.03434233333333, "bike_id": "76ca29e2834ffa58f6802fe409495129", "lat": 38.90692666666666, "fusion_lon": 0.0, "fusion_lat": 0.0, "type": "electric_scooter", "name": "76ca29e2834ffa58f6802fe409495129", "is_disabled": 0, "rental_uris": {"ios": "https://dc.lft.to/lastmile_qr_scan", "android": "https://dc.lft.to/lastmile_qr_scan"}, "is_reserved": 0}, {"lon": -76.99022783333334, "bike_id": "c6716b4f600219c6c68a12299c51b104", "lat": 38.866431, "fusion_lon": 0.0, "fusion_lat": 0.0, "type": "electric_scooter", "name": "c6716b4f600219c6c68a12299c51b104", "is_disabled": 0, "rental_uris": {"ios": "https://dc.lft.to/lastmile_qr_scan", "android": "https://dc.lft.to/lastmile_qr_scan"}, "is_reserved": 0}, {"lon": -77.04387033333333, "bike_id": "b6803958a56ccf881f8f543ebd2ffe3a", "lat": 38.9231665, "fusion_lon": 0.0, "fusion_lat": 0.0, "type": "electric_scooter", "name": "b6803958a56ccf881f8f543ebd2ffe3a", "is_disabled": 0, "rental_uris": {"ios": "https://dc.lft.to/lastmile_qr_scan", "android": "https://dc.lft.to/lastmile_qr_scan"}, "is_reserved": 0}, {"lon": -77.04875983333334, "bike_id": "e5407d3d769f80086a6ab6f89bff29fe", "lat": 38.9155615, "fusion_lon": 0.0, "fusion_lat": 0.0, "type": "electric_scooter", "name": "e5407d3d769f80086a6ab6f89bff29fe", "is_disabled": 0, "rental_uris": {"ios": "https://dc.lft.to/lastmile_qr_scan", "android": "https://dc.lft.to/lastmile_qr_scan"}, "is_reserved": 0}, {"lon": -77.042728, "bike_id": "f2119aa503d328a3e0b26288d6eb965d", "lat": 38.914905833333336, "fusion_lon": 0.0, "fusion_lat": 0.0, "type": "electric_scooter", "name": "f2119aa503d328a3e0b26288d6eb965d", "is_disabled": 0, "rental_uris": {"ios": "https://dc.lft.to/lastmile_qr_scan", "android": "https://dc.lft.to/lastmile_qr_scan"}, "is_reserved": 0}, {"lon": -77.08066266666667, "bike_id": "91bba1ddf91f11a882e88561036c8cc9", "lat": 39.0527745, "fusion_lon": 0.0, "fusion_lat": 0.0, "type": "electric_bike", "name": "91bba1ddf91f11a882e88561036c8cc9", "is_disabled": 0, "rental_uris": {"ios": "https://dc.lft.to/lastmile_qr_scan", "android": "https://dc.lft.to/lastmile_qr_scan"}, "is_reserved": 0}, {"lon": -77.02851533333333, "bike_id": "51cbba4993477dcad380947221c873f2", "lat": 38.95628983333334, "fusion_lon": 0.0, "fusion_lat": 0.0, "type": "electric_scooter", "name": "51cbba4993477dcad380947221c873f2", "is_disabled": 0, "rental_uris": {"ios": "https://dc.lft.to/lastmile_qr_scan", "android": "https://dc.lft.to/lastmile_qr_scan"}, "is_reserved": 0}, {"lon": -77.02805783333334, "bike_id": "dd3ada8466287b1c6b8bc1f6f88c21f4", "lat": 38.93141833333333, "fusion_lon": 0.0, "fusion_lat": 0.0, "type": "electric_scooter", "name": "dd3ada8466287b1c6b8bc1f6f88c21f4", "is_disabled": 0, "rental_uris": {"ios": "https://dc.lft.to/lastmile_qr_scan", "android": "https://dc.lft.to/lastmile_qr_scan"}, "is_reserved": 0}, {"lon": -76.99085666666667, "bike_id": "0c3a24c4b018e4b28477d9a13ae13e9a", "lat": 38.86233466666667, "fusion_lon": 0.0, "fusion_lat": 0.0, "type": "electric_bike", "name": "0c3a24c4b018e4b28477d9a13ae13e9a", "is_disabled": 0, "rental_uris": {"ios": "https://dc.lft.to/lastmile_qr_scan", "android": "https://dc.lft.to/lastmile_qr_scan"}, "is_reserved": 0}, {"lon": -77.02012283333333, "bike_id": "74fbfed0912acfe38ee4af65395782ca", "lat": 38.92414516666667, "fusion_lon": 0.0, "fusion_lat": 0.0, "type": "electric_scooter", "name": "74fbfed0912acfe38ee4af65395782ca", "is_disabled": 0, "rental_uris": {"ios": "https://dc.lft.to/lastmile_qr_scan", "android": "https://dc.lft.to/lastmile_qr_scan"}, "is_reserved": 0}, {"lon": -77.0318585, "bike_id": "e52bee5315602f7b3e91385056465e5e", "lat": 38.914178666666665, "fusion_lon": 0.0, "fusion_lat": 0.0, "type": "electric_scooter", "name": "e52bee5315602f7b3e91385056465e5e", "is_disabled": 0, "rental_uris": {"ios": "https://dc.lft.to/lastmile_qr_scan", "android": "https://dc.lft.to/lastmile_qr_scan"}, "is_reserved": 0}, {"lon": -77.0397705, "bike_id": "a88853da9f62e2698de201aeff69d592", "lat": 38.92320766666667, "fusion_lon": 0.0, "fusion_lat": 0.0, "type": "electric_scooter", "name": "a88853da9f62e2698de201aeff69d592", "is_disabled": 0, "rental_uris": {"ios": "https://dc.lft.to/lastmile_qr_scan", "android": "https://dc.lft.to/lastmile_qr_scan"}, "is_reserved": 0}, {"lon": -77.01914416666666, "bike_id": "3971e44d126a8e89e975173106d6c6bd", "lat": 38.88602566666667, "fusion_lon": 0.0, "fusion_lat": 0.0, "type": "electric_scooter", "name": "3971e44d126a8e89e975173106d6c6bd", "is_disabled": 0, "rental_uris": {"ios": "https://dc.lft.to/lastmile_qr_scan", "android": "https://dc.lft.to/lastmile_qr_scan"}, "is_reserved": 0}, {"lon": -77.02476533333333, "bike_id": "d849a0e0b2eaac30c309161ccff6d567", "lat": 38.897255333333334, "fusion_lon": 0.0, "fusion_lat": 0.0, "type": "electric_scooter", "name": "d849a0e0b2eaac30c309161ccff6d567", "is_disabled": 0, "rental_uris": {"ios": "https://dc.lft.to/lastmile_qr_scan", "android": "https://dc.lft.to/lastmile_qr_scan"}, "is_reserved": 0}, {"lon": -77.02812666666667, "bike_id": "94ea6b021f8b5581185a37b99cbbeebb", "lat": 38.924728, "fusion_lon": 0.0, "fusion_lat": 0.0, "type": "electric_scooter", "name": "94ea6b021f8b5581185a37b99cbbeebb", "is_disabled": 0, "rental_uris": {"ios": "https://dc.lft.to/lastmile_qr_scan", "android": "https://dc.lft.to/lastmile_qr_scan"}, "is_reserved": 0}, {"lon": -77.05343, "bike_id": "b6518a5aed9b756b5473c0164107c4d4", "lat": 38.92703766666666, "fusion_lon": 0.0, "fusion_lat": 0.0, "type": "electric_scooter", "name": "b6518a5aed9b756b5473c0164107c4d4", "is_disabled": 0, "rental_uris": {"ios": "https://dc.lft.to/lastmile_qr_scan", "android": "https://dc.lft.to/lastmile_qr_scan"}, "is_reserved": 0}, {"lon": -77.030703, "bike_id": "2f9a2c8af4b3fcecc3fd56361a9c331f", "lat": 38.88589183333333, "fusion_lon": 0.0, "fusion_lat": 0.0, "type": "electric_scooter", "name": "2f9a2c8af4b3fcecc3fd56361a9c331f", "is_disabled": 0, "rental_uris": {"ios": "https://dc.lft.to/lastmile_qr_scan", "android": "https://dc.lft.to/lastmile_qr_scan"}, "is_reserved": 0}, {"lon": -76.997682, "bike_id": "de4dfc89f2f5307b6b3d5f504b2878d3", "lat": 38.924491, "fusion_lon": 0.0, "fusion_lat": 0.0, "type": "electric_scooter", "name": "de4dfc89f2f5307b6b3d5f504b2878d3", "is_disabled": 0, "rental_uris": {"ios": "https://dc.lft.to/lastmile_qr_scan", "android": "https://dc.lft.to/lastmile_qr_scan"}, "is_reserved": 0}, {"lon": -77.03451533333333, "bike_id": "57ddfb315ad36c20055b2bc8b8e15f69", "lat": 38.905569, "fusion_lon": 0.0, "fusion_lat": 0.0, "type": "electric_scooter", "name": "57ddfb315ad36c20055b2bc8b8e15f69", "is_disabled": 0, "rental_uris": {"ios": "https://dc.lft.to/lastmile_qr_scan", "android": "https://dc.lft.to/lastmile_qr_scan"}, "is_reserved": 0}, {"lon": -77.02989283333334, "bike_id": "405bd77f79e3317844feec2404774987", "lat": 38.974396, "fusion_lon": 0.0, "fusion_lat": 0.0, "type": "electric_bike", "name": "405bd77f79e3317844feec2404774987", "is_disabled": 0, "rental_uris": {"ios": "https://dc.lft.to/lastmile_qr_scan", "android": "https://dc.lft.to/lastmile_qr_scan"}, "is_reserved": 0}, {"lon": -77.04868316666666, "bike_id": "9e3362aee1c71fb95d8b41d5590d4c86", "lat": 38.89220783333333, "fusion_lon": 0.0, "fusion_lat": 0.0, "type": "electric_scooter", "name": "9e3362aee1c71fb95d8b41d5590d4c86", "is_disabled": 0, "rental_uris": {"ios": "https://dc.lft.to/lastmile_qr_scan", "android": "https://dc.lft.to/lastmile_qr_scan"}, "is_reserved": 0}, {"lon": -77.0231425, "bike_id": "3a03c01ac77ed5e7c7a5ab7072f3fc86", "lat": 38.90963933333333, "fusion_lon": 0.0, "fusion_lat": 0.0, "type": "electric_scooter", "name": "3a03c01ac77ed5e7c7a5ab7072f3fc86", "is_disabled": 0, "rental_uris": {"ios": "https://dc.lft.to/lastmile_qr_scan", "android": "https://dc.lft.to/lastmile_qr_scan"}, "is_reserved": 0}, {"lon": -77.05131816666666, "bike_id": "da7fdbd413395f7985c102cb48a2e4d0", "lat": 38.92361, "fusion_lon": 0.0, "fusion_lat": 0.0, "type": "electric_scooter", "name": "da7fdbd413395f7985c102cb48a2e4d0", "is_disabled": 0, "rental_uris": {"ios": "https://dc.lft.to/lastmile_qr_scan", "android": "https://dc.lft.to/lastmile_qr_scan"}, "is_reserved": 0}, {"lon": -77.00347766666667, "bike_id": "d3e5d3f39ef3710663767a190e584f55", "lat": 38.89522516666667, "fusion_lon": 0.0, "fusion_lat": 0.0, "type": "electric_scooter", "name": "d3e5d3f39ef3710663767a190e584f55", "is_disabled": 0, "rental_uris": {"ios": "https://dc.lft.to/lastmile_qr_scan", "android": "https://dc.lft.to/lastmile_qr_scan"}, "is_reserved": 0}, {"lon": -77.03185733333333, "bike_id": "95ecc2b5e970699f4e06bd6a4a27eb52", "lat": 38.91688333333333, "fusion_lon": 0.0, "fusion_lat": 0.0, "type": "electric_scooter", "name": "95ecc2b5e970699f4e06bd6a4a27eb52", "is_disabled": 0, "rental_uris": {"ios": "https://dc.lft.to/lastmile_qr_scan", "android": "https://dc.lft.to/lastmile_qr_scan"}, "is_reserved": 0}, {"lon": -77.02445866666666, "bike_id": "04699af176b89c93a68d6bf26410f6ae", "lat": 38.93412816666667, "fusion_lon": 0.0, "fusion_lat": 0.0, "type": "electric_bike", "name": "04699af176b89c93a68d6bf26410f6ae", "is_disabled": 0, "rental_uris": {"ios": "https://dc.lft.to/lastmile_qr_scan", "android": "https://dc.lft.to/lastmile_qr_scan"}, "is_reserved": 0}, {"lon": -77.058557, "bike_id": "d94badb58574c9b2b4f37e11d92d536a", "lat": 38.936023, "fusion_lon": 0.0, "fusion_lat": 0.0, "type": "electric_scooter", "name": "d94badb58574c9b2b4f37e11d92d536a", "is_disabled": 0, "rental_uris": {"ios": "https://dc.lft.to/lastmile_qr_scan", "android": "https://dc.lft.to/lastmile_qr_scan"}, "is_reserved": 0}, {"lon": -77.05021366666666, "bike_id": "746b5c39860b327478d84a0339b099f3", "lat": 38.89773066666667, "fusion_lon": 0.0, "fusion_lat": 0.0, "type": "electric_scooter", "name": "746b5c39860b327478d84a0339b099f3", "is_disabled": 0, "rental_uris": {"ios": "https://dc.lft.to/lastmile_qr_scan", "android": "https://dc.lft.to/lastmile_qr_scan"}, "is_reserved": 0}, {"lon": -76.99034, "bike_id": "cf8ecb0eff64905c01cbbfcfa594564a", "lat": 38.89799266666667, "fusion_lon": 0.0, "fusion_lat": 0.0, "type": "electric_scooter", "name": "cf8ecb0eff64905c01cbbfcfa594564a", "is_disabled": 0, "rental_uris": {"ios": "https://dc.lft.to/lastmile_qr_scan", "android": "https://dc.lft.to/lastmile_qr_scan"}, "is_reserved": 0}, {"lon": -76.98197, "bike_id": "4b341f1f6b6eb7c6a32c8958c57ad119", "lat": 38.8994655, "fusion_lon": 0.0, "fusion_lat": 0.0, "type": "electric_scooter", "name": "4b341f1f6b6eb7c6a32c8958c57ad119", "is_disabled": 0, "rental_uris": {"ios": "https://dc.lft.to/lastmile_qr_scan", "android": "https://dc.lft.to/lastmile_qr_scan"}, "is_reserved": 0}, {"lon": -77.02963766666667, "bike_id": "d408e5d65415709367e3250798474dd2", "lat": 38.9167455, "fusion_lon": 0.0, "fusion_lat": 0.0, "type": "electric_scooter", "name": "d408e5d65415709367e3250798474dd2", "is_disabled": 0, "rental_uris": {"ios": "https://dc.lft.to/lastmile_qr_scan", "android": "https://dc.lft.to/lastmile_qr_scan"}, "is_reserved": 0}, {"lon": -77.0316065, "bike_id": "a5bf9ded741da999e9394440bcceb148", "lat": 38.892166833333334, "fusion_lon": 0.0, "fusion_lat": 0.0, "type": "electric_scooter", "name": "a5bf9ded741da999e9394440bcceb148", "is_disabled": 0, "rental_uris": {"ios": "https://dc.lft.to/lastmile_qr_scan", "android": "https://dc.lft.to/lastmile_qr_scan"}, "is_reserved": 0}, {"lon": -76.95184766666667, "bike_id": "2ae55587fbbdcd825ac0cf9b91274935", "lat": 38.907389333333334, "fusion_lon": 0.0, "fusion_lat": 0.0, "type": "electric_scooter", "name": "2ae55587fbbdcd825ac0cf9b91274935", "is_disabled": 0, "rental_uris": {"ios": "https://dc.lft.to/lastmile_qr_scan", "android": "https://dc.lft.to/lastmile_qr_scan"}, "is_reserved": 0}, {"lon": -76.97995783333333, "bike_id": "1a3cd7cd81a9eba011d402220a617ae5", "lat": 38.90680033333334, "fusion_lon": 0.0, "fusion_lat": 0.0, "type": "electric_scooter", "name": "1a3cd7cd81a9eba011d402220a617ae5", "is_disabled": 0, "rental_uris": {"ios": "https://dc.lft.to/lastmile_qr_scan", "android": "https://dc.lft.to/lastmile_qr_scan"}, "is_reserved": 0}, {"lon": -76.98714466666667, "bike_id": "c6896d6b905720cb349f9912f8362bad", "lat": 38.8662905, "fusion_lon": 0.0, "fusion_lat": 0.0, "type": "electric_scooter", "name": "c6896d6b905720cb349f9912f8362bad", "is_disabled": 0, "rental_uris": {"ios": "https://dc.lft.to/lastmile_qr_scan", "android": "https://dc.lft.to/lastmile_qr_scan"}, "is_reserved": 0}, {"lon": -77.03260833333333, "bike_id": "9d354d904575b673178f734477367060", "lat": 38.9352095, "fusion_lon": 0.0, "fusion_lat": 0.0, "type": "electric_scooter", "name": "9d354d904575b673178f734477367060", "is_disabled": 0, "rental_uris": {"ios": "https://dc.lft.to/lastmile_qr_scan", "android": "https://dc.lft.to/lastmile_qr_scan"}, "is_reserved": 0}, {"lon": -77.0367085, "bike_id": "24e726b0bf5c3ada7267e9048b3323b4", "lat": 38.909576333333334, "fusion_lon": 0.0, "fusion_lat": 0.0, "type": "electric_scooter", "name": "24e726b0bf5c3ada7267e9048b3323b4", "is_disabled": 0, "rental_uris": {"ios": "https://dc.lft.to/lastmile_qr_scan", "android": "https://dc.lft.to/lastmile_qr_scan"}, "is_reserved": 0}, {"lon": -77.02838816666667, "bike_id": "0d1cd693ac1c685fe23ad65810eb9ab8", "lat": 38.892209, "fusion_lon": 0.0, "fusion_lat": 0.0, "type": "electric_scooter", "name": "0d1cd693ac1c685fe23ad65810eb9ab8", "is_disabled": 0, "rental_uris": {"ios": "https://dc.lft.to/lastmile_qr_scan", "android": "https://dc.lft.to/lastmile_qr_scan"}, "is_reserved": 0}, {"lon": -76.98963583333334, "bike_id": "2e351bd6fa485e6257de9e47507f8f23", "lat": 38.856905, "fusion_lon": 0.0, "fusion_lat": 0.0, "type": "electric_scooter", "name": "2e351bd6fa485e6257de9e47507f8f23", "is_disabled": 0, "rental_uris": {"ios": "https://dc.lft.to/lastmile_qr_scan", "android": "https://dc.lft.to/lastmile_qr_scan"}, "is_reserved": 0}, {"lon": -76.98259233333333, "bike_id": "2c1f8301e56b201ec1a0ae1b9ff94d27", "lat": 38.908537333333335, "fusion_lon": 0.0, "fusion_lat": 0.0, "type": "electric_scooter", "name": "2c1f8301e56b201ec1a0ae1b9ff94d27", "is_disabled": 0, "rental_uris": {"ios": "https://dc.lft.to/lastmile_qr_scan", "android": "https://dc.lft.to/lastmile_qr_scan"}, "is_reserved": 0}, {"lon": -77.0261525, "bike_id": "a9556022951511dadcc32aed19b8ee5f", "lat": 38.91691133333333, "fusion_lon": 0.0, "fusion_lat": 0.0, "type": "electric_scooter", "name": "a9556022951511dadcc32aed19b8ee5f", "is_disabled": 0, "rental_uris": {"ios": "https://dc.lft.to/lastmile_qr_scan", "android": "https://dc.lft.to/lastmile_qr_scan"}, "is_reserved": 0}, {"lon": -77.00914766666666, "bike_id": "99fc2f686e9ed37bfd50ad7a6ef19e74", "lat": 38.910646166666666, "fusion_lon": 0.0, "fusion_lat": 0.0, "type": "electric_scooter", "name": "99fc2f686e9ed37bfd50ad7a6ef19e74", "is_disabled": 0, "rental_uris": {"ios": "https://dc.lft.to/lastmile_qr_scan", "android": "https://dc.lft.to/lastmile_qr_scan"}, "is_reserved": 0}, {"lon": -77.04927933333333, "bike_id": "3a2d0a262a2442e0d0cfc5ff13cfc31a", "lat": 38.90370216666667, "fusion_lon": 0.0, "fusion_lat": 0.0, "type": "electric_scooter", "name": "3a2d0a262a2442e0d0cfc5ff13cfc31a", "is_disabled": 0, "rental_uris": {"ios": "https://dc.lft.to/lastmile_qr_scan", "android": "https://dc.lft.to/lastmile_qr_scan"}, "is_reserved": 0}, {"lon": -77.02366216666667, "bike_id": "f2357392f1c4bf6f9e1514920f844208", "lat": 38.8921905, "fusion_lon": 0.0, "fusion_lat": 0.0, "type": "electric_scooter", "name": "f2357392f1c4bf6f9e1514920f844208", "is_disabled": 0, "rental_uris": {"ios": "https://dc.lft.to/lastmile_qr_scan", "android": "https://dc.lft.to/lastmile_qr_scan"}, "is_reserved": 0}, {"lon": -77.03292616666667, "bike_id": "f914c1c73de79e1d98043e4af8899b2d", "lat": 38.956491, "fusion_lon": 0.0, "fusion_lat": 0.0, "type": "electric_scooter", "name": "f914c1c73de79e1d98043e4af8899b2d", "is_disabled": 0, "rental_uris": {"ios": "https://dc.lft.to/lastmile_qr_scan", "android": "https://dc.lft.to/lastmile_qr_scan"}, "is_reserved": 0}, {"lon": -77.023962, "bike_id": "e1ecf6f9e51664b0e0418ca7146ef6e2", "lat": 38.920717, "fusion_lon": 0.0, "fusion_lat": 0.0, "type": "electric_scooter", "name": "e1ecf6f9e51664b0e0418ca7146ef6e2", "is_disabled": 0, "rental_uris": {"ios": "https://dc.lft.to/lastmile_qr_scan", "android": "https://dc.lft.to/lastmile_qr_scan"}, "is_reserved": 0}, {"lon": -77.04193683333334, "bike_id": "d0e33591f7f13cebc7aa1e6f10974bee", "lat": 38.9262385, "fusion_lon": 0.0, "fusion_lat": 0.0, "type": "electric_scooter", "name": "d0e33591f7f13cebc7aa1e6f10974bee", "is_disabled": 0, "rental_uris": {"ios": "https://dc.lft.to/lastmile_qr_scan", "android": "https://dc.lft.to/lastmile_qr_scan"}, "is_reserved": 0}, {"lon": -76.93644516666667, "bike_id": "08b591620ed7abda7dee11f172612bb0", "lat": 38.9006155, "fusion_lon": 0.0, "fusion_lat": 0.0, "type": "electric_scooter", "name": "08b591620ed7abda7dee11f172612bb0", "is_disabled": 0, "rental_uris": {"ios": "https://dc.lft.to/lastmile_qr_scan", "android": "https://dc.lft.to/lastmile_qr_scan"}, "is_reserved": 0}, {"lon": -77.03280633333334, "bike_id": "122b30173ba962b0c88170f3c8c15cb0", "lat": 38.92977116666667, "fusion_lon": 0.0, "fusion_lat": 0.0, "type": "electric_scooter", "name": "122b30173ba962b0c88170f3c8c15cb0", "is_disabled": 0, "rental_uris": {"ios": "https://dc.lft.to/lastmile_qr_scan", "android": "https://dc.lft.to/lastmile_qr_scan"}, "is_reserved": 0}, {"lon": -77.0131785, "bike_id": "d0fb1e6ee611d3a5a23320cb2d55610f", "lat": 38.90067283333333, "fusion_lon": 0.0, "fusion_lat": 0.0, "type": "electric_scooter", "name": "d0fb1e6ee611d3a5a23320cb2d55610f", "is_disabled": 0, "rental_uris": {"ios": "https://dc.lft.to/lastmile_qr_scan", "android": "https://dc.lft.to/lastmile_qr_scan"}, "is_reserved": 0}, {"lon": -76.93014183333334, "bike_id": "1fe24c55af84e643c90969a55e623293", "lat": 38.896550833333336, "fusion_lon": 0.0, "fusion_lat": 0.0, "type": "electric_bike", "name": "1fe24c55af84e643c90969a55e623293", "is_disabled": 0, "rental_uris": {"ios": "https://dc.lft.to/lastmile_qr_scan", "android": "https://dc.lft.to/lastmile_qr_scan"}, "is_reserved": 0}, {"lon": -77.01727583333333, "bike_id": "ba9e97193e9bf60899747ba26eee44c7", "lat": 38.9431065, "fusion_lon": 0.0, "fusion_lat": 0.0, "type": "electric_scooter", "name": "ba9e97193e9bf60899747ba26eee44c7", "is_disabled": 0, "rental_uris": {"ios": "https://dc.lft.to/lastmile_qr_scan", "android": "https://dc.lft.to/lastmile_qr_scan"}, "is_reserved": 0}, {"lon": -76.93175183333334, "bike_id": "bd657c7d2a37819465476b6d499dd9a8", "lat": 38.8988165, "fusion_lon": 0.0, "fusion_lat": 0.0, "type": "electric_scooter", "name": "bd657c7d2a37819465476b6d499dd9a8", "is_disabled": 0, "rental_uris": {"ios": "https://dc.lft.to/lastmile_qr_scan", "android": "https://dc.lft.to/lastmile_qr_scan"}, "is_reserved": 0}, {"lon": -77.03807433333333, "bike_id": "494f2992c0d5088c437fdf64c9a2ee0c", "lat": 38.92059533333333, "fusion_lon": 0.0, "fusion_lat": 0.0, "type": "electric_scooter", "name": "494f2992c0d5088c437fdf64c9a2ee0c", "is_disabled": 0, "rental_uris": {"ios": "https://dc.lft.to/lastmile_qr_scan", "android": "https://dc.lft.to/lastmile_qr_scan"}, "is_reserved": 0}, {"lon": -77.00851683333333, "bike_id": "ae41bceeef0254639ec95bbdff2e88ca", "lat": 38.877867333333334, "fusion_lon": 0.0, "fusion_lat": 0.0, "type": "electric_bike", "name": "ae41bceeef0254639ec95bbdff2e88ca", "is_disabled": 0, "rental_uris": {"ios": "https://dc.lft.to/lastmile_qr_scan", "android": "https://dc.lft.to/lastmile_qr_scan"}, "is_reserved": 0}, {"lon": -77.0209275, "bike_id": "a291aad9b3a64a6d925f4c65269d3cdb", "lat": 38.95748183333333, "fusion_lon": 0.0, "fusion_lat": 0.0, "type": "electric_scooter", "name": "a291aad9b3a64a6d925f4c65269d3cdb", "is_disabled": 0, "rental_uris": {"ios": "https://dc.lft.to/lastmile_qr_scan", "android": "https://dc.lft.to/lastmile_qr_scan"}, "is_reserved": 0}, {"lon": -76.98726033333334, "bike_id": "a56c3c24dd4a1624117d86e1e66fd030", "lat": 38.86706483333333, "fusion_lon": 0.0, "fusion_lat": 0.0, "type": "electric_scooter", "name": "a56c3c24dd4a1624117d86e1e66fd030", "is_disabled": 0, "rental_uris": {"ios": "https://dc.lft.to/lastmile_qr_scan", "android": "https://dc.lft.to/lastmile_qr_scan"}, "is_reserved": 0}, {"lon": -77.033364, "bike_id": "7ed1ab4ba065cb3cef8e739789e95ddc", "lat": 38.936419, "fusion_lon": 0.0, "fusion_lat": 0.0, "type": "electric_scooter", "name": "7ed1ab4ba065cb3cef8e739789e95ddc", "is_disabled": 0, "rental_uris": {"ios": "https://dc.lft.to/lastmile_qr_scan", "android": "https://dc.lft.to/lastmile_qr_scan"}, "is_reserved": 0}, {"lon": -76.948862, "bike_id": "481227e1d49413eff785649ca0925046", "lat": 38.895123166666664, "fusion_lon": 0.0, "fusion_lat": 0.0, "type": "electric_scooter", "name": "481227e1d49413eff785649ca0925046", "is_disabled": 0, "rental_uris": {"ios": "https://dc.lft.to/lastmile_qr_scan", "android": "https://dc.lft.to/lastmile_qr_scan"}, "is_reserved": 0}, {"lon": -77.022015, "bike_id": "a80fedb49d5bef973950ac5cc019cca7", "lat": 38.902784833333335, "fusion_lon": 0.0, "fusion_lat": 0.0, "type": "electric_scooter", "name": "a80fedb49d5bef973950ac5cc019cca7", "is_disabled": 0, "rental_uris": {"ios": "https://dc.lft.to/lastmile_qr_scan", "android": "https://dc.lft.to/lastmile_qr_scan"}, "is_reserved": 0}, {"lon": -77.01648083333333, "bike_id": "2a53e15bac01dbf6a6c7427b7c735d18", "lat": 38.90570866666667, "fusion_lon": 0.0, "fusion_lat": 0.0, "type": "electric_scooter", "name": "2a53e15bac01dbf6a6c7427b7c735d18", "is_disabled": 0, "rental_uris": {"ios": "https://dc.lft.to/lastmile_qr_scan", "android": "https://dc.lft.to/lastmile_qr_scan"}, "is_reserved": 0}, {"lon": -76.98865016666667, "bike_id": "6af7afcb99d4a4aca2317ff6588fc481", "lat": 38.9547755, "fusion_lon": 0.0, "fusion_lat": 0.0, "type": "electric_bike", "name": "6af7afcb99d4a4aca2317ff6588fc481", "is_disabled": 0, "rental_uris": {"ios": "https://dc.lft.to/lastmile_qr_scan", "android": "https://dc.lft.to/lastmile_qr_scan"}, "is_reserved": 0}, {"lon": -77.025042, "bike_id": "615138c35d4874e29ef10abfc581acdb", "lat": 38.920181166666666, "fusion_lon": 0.0, "fusion_lat": 0.0, "type": "electric_scooter", "name": "615138c35d4874e29ef10abfc581acdb", "is_disabled": 0, "rental_uris": {"ios": "https://dc.lft.to/lastmile_qr_scan", "android": "https://dc.lft.to/lastmile_qr_scan"}, "is_reserved": 0}, {"lon": -77.032031, "bike_id": "3758f563bc996a265f3d640b481c4e85", "lat": 38.9078185, "fusion_lon": 0.0, "fusion_lat": 0.0, "type": "electric_scooter", "name": "3758f563bc996a265f3d640b481c4e85", "is_disabled": 0, "rental_uris": {"ios": "https://dc.lft.to/lastmile_qr_scan", "android": "https://dc.lft.to/lastmile_qr_scan"}, "is_reserved": 0}, {"lon": -76.972269, "bike_id": "286b6f1a1367f2066fb2c7d437a70ccb", "lat": 38.914420666666665, "fusion_lon": 0.0, "fusion_lat": 0.0, "type": "electric_bike", "name": "286b6f1a1367f2066fb2c7d437a70ccb", "is_disabled": 0, "rental_uris": {"ios": "https://dc.lft.to/lastmile_qr_scan", "android": "https://dc.lft.to/lastmile_qr_scan"}, "is_reserved": 0}, {"lon": -77.02800883333333, "bike_id": "e7fbb7eb11cb51996dda7e67c701fb1a", "lat": 38.89711333333333, "fusion_lon": 0.0, "fusion_lat": 0.0, "type": "electric_scooter", "name": "e7fbb7eb11cb51996dda7e67c701fb1a", "is_disabled": 0, "rental_uris": {"ios": "https://dc.lft.to/lastmile_qr_scan", "android": "https://dc.lft.to/lastmile_qr_scan"}, "is_reserved": 0}, {"lon": -76.987071, "bike_id": "a961b422c435d27d5d80634513c8db11", "lat": 38.86535283333333, "fusion_lon": 0.0, "fusion_lat": 0.0, "type": "electric_scooter", "name": "a961b422c435d27d5d80634513c8db11", "is_disabled": 0, "rental_uris": {"ios": "https://dc.lft.to/lastmile_qr_scan", "android": "https://dc.lft.to/lastmile_qr_scan"}, "is_reserved": 0}, {"lon": -76.98545666666666, "bike_id": "07563ee933ee962d4c4c8bec1c5cdfea", "lat": 38.91059383333333, "fusion_lon": 0.0, "fusion_lat": 0.0, "type": "electric_scooter", "name": "07563ee933ee962d4c4c8bec1c5cdfea", "is_disabled": 0, "rental_uris": {"ios": "https://dc.lft.to/lastmile_qr_scan", "android": "https://dc.lft.to/lastmile_qr_scan"}, "is_reserved": 0}, {"lon": -77.04934283333333, "bike_id": "a86f7fee1dcfd1b12597940296883db2", "lat": 38.91828233333333, "fusion_lon": 0.0, "fusion_lat": 0.0, "type": "electric_scooter", "name": "a86f7fee1dcfd1b12597940296883db2", "is_disabled": 0, "rental_uris": {"ios": "https://dc.lft.to/lastmile_qr_scan", "android": "https://dc.lft.to/lastmile_qr_scan"}, "is_reserved": 0}, {"lon": -76.99333533333333, "bike_id": "54f21a0d87308448ef1e6b091ba49c07", "lat": 38.871440166666666, "fusion_lon": 0.0, "fusion_lat": 0.0, "type": "electric_scooter", "name": "54f21a0d87308448ef1e6b091ba49c07", "is_disabled": 0, "rental_uris": {"ios": "https://dc.lft.to/lastmile_qr_scan", "android": "https://dc.lft.to/lastmile_qr_scan"}, "is_reserved": 0}, {"lon": -76.96057366666666, "bike_id": "973695e4ebe0c84047c5b2bf9fff6cb8", "lat": 38.884054, "fusion_lon": 0.0, "fusion_lat": 0.0, "type": "electric_bike", "name": "973695e4ebe0c84047c5b2bf9fff6cb8", "is_disabled": 0, "rental_uris": {"ios": "https://dc.lft.to/lastmile_qr_scan", "android": "https://dc.lft.to/lastmile_qr_scan"}, "is_reserved": 0}, {"lon": -77.0384855, "bike_id": "b391764a31b935cbc140cd3a6431268b", "lat": 38.90748, "fusion_lon": 0.0, "fusion_lat": 0.0, "type": "electric_scooter", "name": "b391764a31b935cbc140cd3a6431268b", "is_disabled": 0, "rental_uris": {"ios": "https://dc.lft.to/lastmile_qr_scan", "android": "https://dc.lft.to/lastmile_qr_scan"}, "is_reserved": 0}, {"lon": -76.99934433333334, "bike_id": "883f18b61d825b3e3bd5b1fc1fd7f605", "lat": 38.843002, "fusion_lon": 0.0, "fusion_lat": 0.0, "type": "electric_scooter", "name": "883f18b61d825b3e3bd5b1fc1fd7f605", "is_disabled": 0, "rental_uris": {"ios": "https://dc.lft.to/lastmile_qr_scan", "android": "https://dc.lft.to/lastmile_qr_scan"}, "is_reserved": 0}, {"lon": -77.07008433333333, "bike_id": "32b94a3209af660ca8c3f3009327edee", "lat": 38.958499833333335, "fusion_lon": 0.0, "fusion_lat": 0.0, "type": "electric_scooter", "name": "32b94a3209af660ca8c3f3009327edee", "is_disabled": 0, "rental_uris": {"ios": "https://dc.lft.to/lastmile_qr_scan", "android": "https://dc.lft.to/lastmile_qr_scan"}, "is_reserved": 0}, {"lon": -76.9488025, "bike_id": "d2dc561e2aa40d17dd82b2a6aee0904a", "lat": 38.895537833333336, "fusion_lon": 0.0, "fusion_lat": 0.0, "type": "electric_scooter", "name": "d2dc561e2aa40d17dd82b2a6aee0904a", "is_disabled": 0, "rental_uris": {"ios": "https://dc.lft.to/lastmile_qr_scan", "android": "https://dc.lft.to/lastmile_qr_scan"}, "is_reserved": 0}, {"lon": -77.03126016666667, "bike_id": "384c0ed4998a399b76023bcc7267ab8c", "lat": 38.91687533333333, "fusion_lon": 0.0, "fusion_lat": 0.0, "type": "electric_scooter", "name": "384c0ed4998a399b76023bcc7267ab8c", "is_disabled": 0, "rental_uris": {"ios": "https://dc.lft.to/lastmile_qr_scan", "android": "https://dc.lft.to/lastmile_qr_scan"}, "is_reserved": 0}, {"lon": -77.08073666666667, "bike_id": "5b798de56ad0a603fe743bc7417c4216", "lat": 38.96312116666667, "fusion_lon": 0.0, "fusion_lat": 0.0, "type": "electric_bike", "name": "5b798de56ad0a603fe743bc7417c4216", "is_disabled": 0, "rental_uris": {"ios": "https://dc.lft.to/lastmile_qr_scan", "android": "https://dc.lft.to/lastmile_qr_scan"}, "is_reserved": 0}, {"lon": -77.03760766666667, "bike_id": "6cbf2ee821b6827b0a53dcc1a6f39238", "lat": 38.902695, "fusion_lon": 0.0, "fusion_lat": 0.0, "type": "electric_scooter", "name": "6cbf2ee821b6827b0a53dcc1a6f39238", "is_disabled": 0, "rental_uris": {"ios": "https://dc.lft.to/lastmile_qr_scan", "android": "https://dc.lft.to/lastmile_qr_scan"}, "is_reserved": 0}, {"lon": -76.99374416666667, "bike_id": "29b44feae7602c055b111d48d8c59b0c", "lat": 38.971821166666665, "fusion_lon": 0.0, "fusion_lat": 0.0, "type": "electric_bike", "name": "29b44feae7602c055b111d48d8c59b0c", "is_disabled": 0, "rental_uris": {"ios": "https://dc.lft.to/lastmile_qr_scan", "android": "https://dc.lft.to/lastmile_qr_scan"}, "is_reserved": 0}, {"lon": -77.020892, "bike_id": "a19fbc030a09e57a54cb60c05a862897", "lat": 38.94527, "fusion_lon": 0.0, "fusion_lat": 0.0, "type": "electric_scooter", "name": "a19fbc030a09e57a54cb60c05a862897", "is_disabled": 0, "rental_uris": {"ios": "https://dc.lft.to/lastmile_qr_scan", "android": "https://dc.lft.to/lastmile_qr_scan"}, "is_reserved": 0}, {"lon": -77.03157366666667, "bike_id": "156033f982d2da2b737b2f142763cd8b", "lat": 38.935994, "fusion_lon": 0.0, "fusion_lat": 0.0, "type": "electric_scooter", "name": "156033f982d2da2b737b2f142763cd8b", "is_disabled": 0, "rental_uris": {"ios": "https://dc.lft.to/lastmile_qr_scan", "android": "https://dc.lft.to/lastmile_qr_scan"}, "is_reserved": 0}, {"lon": -77.052513, "bike_id": "074668b2d80f4064f73787210c102dd1", "lat": 38.923738666666665, "fusion_lon": 0.0, "fusion_lat": 0.0, "type": "electric_scooter", "name": "074668b2d80f4064f73787210c102dd1", "is_disabled": 0, "rental_uris": {"ios": "https://dc.lft.to/lastmile_qr_scan", "android": "https://dc.lft.to/lastmile_qr_scan"}, "is_reserved": 0}, {"lon": -77.01756316666666, "bike_id": "003f9442a6ff508edf463c920e03ea7f", "lat": 38.90379816666667, "fusion_lon": 0.0, "fusion_lat": 0.0, "type": "electric_scooter", "name": "003f9442a6ff508edf463c920e03ea7f", "is_disabled": 0, "rental_uris": {"ios": "https://dc.lft.to/lastmile_qr_scan", "android": "https://dc.lft.to/lastmile_qr_scan"}, "is_reserved": 0}, {"lon": -77.02437166666667, "bike_id": "9bac102f64471c51141d858d680919a0", "lat": 38.91689616666667, "fusion_lon": 0.0, "fusion_lat": 0.0, "type": "electric_scooter", "name": "9bac102f64471c51141d858d680919a0", "is_disabled": 0, "rental_uris": {"ios": "https://dc.lft.to/lastmile_qr_scan", "android": "https://dc.lft.to/lastmile_qr_scan"}, "is_reserved": 0}, {"lon": -77.0433395, "bike_id": "c4919beac61d68a400416ce38d9490af", "lat": 38.90452333333333, "fusion_lon": 0.0, "fusion_lat": 0.0, "type": "electric_bike", "name": "c4919beac61d68a400416ce38d9490af", "is_disabled": 0, "rental_uris": {"ios": "https://dc.lft.to/lastmile_qr_scan", "android": "https://dc.lft.to/lastmile_qr_scan"}, "is_reserved": 0}, {"lon": -77.022912, "bike_id": "80e887dfa8fa58debfb6854c1c0870f3", "lat": 38.916796833333336, "fusion_lon": 0.0, "fusion_lat": 0.0, "type": "electric_scooter", "name": "80e887dfa8fa58debfb6854c1c0870f3", "is_disabled": 0, "rental_uris": {"ios": "https://dc.lft.to/lastmile_qr_scan", "android": "https://dc.lft.to/lastmile_qr_scan"}, "is_reserved": 0}, {"lon": -77.0033555, "bike_id": "3b8f9579f3b6be51402105129aea511d", "lat": 38.895205833333335, "fusion_lon": 0.0, "fusion_lat": 0.0, "type": "electric_scooter", "name": "3b8f9579f3b6be51402105129aea511d", "is_disabled": 0, "rental_uris": {"ios": "https://dc.lft.to/lastmile_qr_scan", "android": "https://dc.lft.to/lastmile_qr_scan"}, "is_reserved": 0}, {"lon": -76.92371733333333, "bike_id": "a38c58397c2cce73704b330bcd9d3480", "lat": 38.88374866666667, "fusion_lon": 0.0, "fusion_lat": 0.0, "type": "electric_bike", "name": "a38c58397c2cce73704b330bcd9d3480", "is_disabled": 0, "rental_uris": {"ios": "https://dc.lft.to/lastmile_qr_scan", "android": "https://dc.lft.to/lastmile_qr_scan"}, "is_reserved": 0}, {"lon": -76.99465483333333, "bike_id": "497845984a08d5b7275006025807ce39", "lat": 38.862225333333335, "fusion_lon": 0.0, "fusion_lat": 0.0, "type": "electric_scooter", "name": "497845984a08d5b7275006025807ce39", "is_disabled": 0, "rental_uris": {"ios": "https://dc.lft.to/lastmile_qr_scan", "android": "https://dc.lft.to/lastmile_qr_scan"}, "is_reserved": 0}, {"lon": -77.00202983333334, "bike_id": "9f2cf2fc9ea424a89afed6fa99a3ff68", "lat": 38.9003795, "fusion_lon": 0.0, "fusion_lat": 0.0, "type": "electric_scooter", "name": "9f2cf2fc9ea424a89afed6fa99a3ff68", "is_disabled": 0, "rental_uris": {"ios": "https://dc.lft.to/lastmile_qr_scan", "android": "https://dc.lft.to/lastmile_qr_scan"}, "is_reserved": 0}, {"lon": -77.0481695, "bike_id": "039306f6656bf8ec2058aba1476c1717", "lat": 38.91636616666667, "fusion_lon": 0.0, "fusion_lat": 0.0, "type": "electric_scooter", "name": "039306f6656bf8ec2058aba1476c1717", "is_disabled": 0, "rental_uris": {"ios": "https://dc.lft.to/lastmile_qr_scan", "android": "https://dc.lft.to/lastmile_qr_scan"}, "is_reserved": 0}, {"lon": -77.03404066666667, "bike_id": "c55857475bd6349b6606095c2cef3f75", "lat": 38.931248333333336, "fusion_lon": 0.0, "fusion_lat": 0.0, "type": "electric_scooter", "name": "c55857475bd6349b6606095c2cef3f75", "is_disabled": 0, "rental_uris": {"ios": "https://dc.lft.to/lastmile_qr_scan", "android": "https://dc.lft.to/lastmile_qr_scan"}, "is_reserved": 0}, {"lon": -77.06491166666666, "bike_id": "0742875ae4786c778cc1f9b4ed487711", "lat": 38.928993, "fusion_lon": 0.0, "fusion_lat": 0.0, "type": "electric_scooter", "name": "0742875ae4786c778cc1f9b4ed487711", "is_disabled": 0, "rental_uris": {"ios": "https://dc.lft.to/lastmile_qr_scan", "android": "https://dc.lft.to/lastmile_qr_scan"}, "is_reserved": 0}, {"lon": -77.0267425, "bike_id": "6c4c7711ce756412c41f4403be8dd545", "lat": 38.984295, "fusion_lon": 0.0, "fusion_lat": 0.0, "type": "electric_scooter", "name": "6c4c7711ce756412c41f4403be8dd545", "is_disabled": 0, "rental_uris": {"ios": "https://dc.lft.to/lastmile_qr_scan", "android": "https://dc.lft.to/lastmile_qr_scan"}, "is_reserved": 0}, {"lon": -77.02387033333333, "bike_id": "8e95e891acc99cd6f6dc901ae26466bc", "lat": 38.908466, "fusion_lon": 0.0, "fusion_lat": 0.0, "type": "electric_scooter", "name": "8e95e891acc99cd6f6dc901ae26466bc", "is_disabled": 0, "rental_uris": {"ios": "https://dc.lft.to/lastmile_qr_scan", "android": "https://dc.lft.to/lastmile_qr_scan"}, "is_reserved": 0}, {"lon": -77.022914, "bike_id": "0303bd13104204412d48f859fae9eee6", "lat": 38.9167485, "fusion_lon": 0.0, "fusion_lat": 0.0, "type": "electric_scooter", "name": "0303bd13104204412d48f859fae9eee6", "is_disabled": 0, "rental_uris": {"ios": "https://dc.lft.to/lastmile_qr_scan", "android": "https://dc.lft.to/lastmile_qr_scan"}, "is_reserved": 0}, {"lon": -76.98037233333334, "bike_id": "6dbb00475e08187c6f6bbac66ede35f7", "lat": 38.88963966666667, "fusion_lon": 0.0, "fusion_lat": 0.0, "type": "electric_scooter", "name": "6dbb00475e08187c6f6bbac66ede35f7", "is_disabled": 0, "rental_uris": {"ios": "https://dc.lft.to/lastmile_qr_scan", "android": "https://dc.lft.to/lastmile_qr_scan"}, "is_reserved": 0}, {"lon": -77.04814083333333, "bike_id": "59db7e7e97698e8258e75b32747af1e3", "lat": 38.92034816666666, "fusion_lon": 0.0, "fusion_lat": 0.0, "type": "electric_scooter", "name": "59db7e7e97698e8258e75b32747af1e3", "is_disabled": 0, "rental_uris": {"ios": "https://dc.lft.to/lastmile_qr_scan", "android": "https://dc.lft.to/lastmile_qr_scan"}, "is_reserved": 0}, {"lon": -77.00236233333334, "bike_id": "b0502905ce9445a62be0e3e9d8847725", "lat": 38.900385166666666, "fusion_lon": 0.0, "fusion_lat": 0.0, "type": "electric_scooter", "name": "b0502905ce9445a62be0e3e9d8847725", "is_disabled": 0, "rental_uris": {"ios": "https://dc.lft.to/lastmile_qr_scan", "android": "https://dc.lft.to/lastmile_qr_scan"}, "is_reserved": 0}, {"lon": -77.02613683333334, "bike_id": "caf2a542ea2d890f22cc04ad62d3b7cc", "lat": 38.916918833333334, "fusion_lon": 0.0, "fusion_lat": 0.0, "type": "electric_scooter", "name": "caf2a542ea2d890f22cc04ad62d3b7cc", "is_disabled": 0, "rental_uris": {"ios": "https://dc.lft.to/lastmile_qr_scan", "android": "https://dc.lft.to/lastmile_qr_scan"}, "is_reserved": 0}, {"lon": -77.00886716666666, "bike_id": "5a95789e8dd980ff1ff3eee95a162bba", "lat": 38.91713033333333, "fusion_lon": 0.0, "fusion_lat": 0.0, "type": "electric_scooter", "name": "5a95789e8dd980ff1ff3eee95a162bba", "is_disabled": 0, "rental_uris": {"ios": "https://dc.lft.to/lastmile_qr_scan", "android": "https://dc.lft.to/lastmile_qr_scan"}, "is_reserved": 0}, {"lon": -77.03780483333334, "bike_id": "92eaeb94e693c98688eddbec07982d55", "lat": 38.925742166666666, "fusion_lon": 0.0, "fusion_lat": 0.0, "type": "electric_scooter", "name": "92eaeb94e693c98688eddbec07982d55", "is_disabled": 0, "rental_uris": {"ios": "https://dc.lft.to/lastmile_qr_scan", "android": "https://dc.lft.to/lastmile_qr_scan"}, "is_reserved": 0}, {"lon": -77.02588733333333, "bike_id": "8e38a6cd32d5b0732fd6518dbfe1df88", "lat": 38.89228033333333, "fusion_lon": 0.0, "fusion_lat": 0.0, "type": "electric_scooter", "name": "8e38a6cd32d5b0732fd6518dbfe1df88", "is_disabled": 0, "rental_uris": {"ios": "https://dc.lft.to/lastmile_qr_scan", "android": "https://dc.lft.to/lastmile_qr_scan"}, "is_reserved": 0}, {"lon": -77.0008265, "bike_id": "6006bcc04e64cd59891ed6cd146adfa1", "lat": 38.89476883333333, "fusion_lon": 0.0, "fusion_lat": 0.0, "type": "electric_scooter", "name": "6006bcc04e64cd59891ed6cd146adfa1", "is_disabled": 0, "rental_uris": {"ios": "https://dc.lft.to/lastmile_qr_scan", "android": "https://dc.lft.to/lastmile_qr_scan"}, "is_reserved": 0}, {"lon": -77.0414735, "bike_id": "7051c1df08f8e15f12df2848a1515b97", "lat": 38.90736733333333, "fusion_lon": 0.0, "fusion_lat": 0.0, "type": "electric_scooter", "name": "7051c1df08f8e15f12df2848a1515b97", "is_disabled": 0, "rental_uris": {"ios": "https://dc.lft.to/lastmile_qr_scan", "android": "https://dc.lft.to/lastmile_qr_scan"}, "is_reserved": 0}, {"lon": -76.99038733333333, "bike_id": "0dac11fcb69de6f1f268ad5134762cb4", "lat": 38.863747833333335, "fusion_lon": 0.0, "fusion_lat": 0.0, "type": "electric_scooter", "name": "0dac11fcb69de6f1f268ad5134762cb4", "is_disabled": 0, "rental_uris": {"ios": "https://dc.lft.to/lastmile_qr_scan", "android": "https://dc.lft.to/lastmile_qr_scan"}, "is_reserved": 0}, {"lon": -77.02281616666667, "bike_id": "211da1ca22e2c34bee68836e5d5333eb", "lat": 38.909631833333336, "fusion_lon": 0.0, "fusion_lat": 0.0, "type": "electric_scooter", "name": "211da1ca22e2c34bee68836e5d5333eb", "is_disabled": 0, "rental_uris": {"ios": "https://dc.lft.to/lastmile_qr_scan", "android": "https://dc.lft.to/lastmile_qr_scan"}, "is_reserved": 0}, {"lon": -77.03854266666667, "bike_id": "0da57af2dcd3e232f9adf8a856b667de", "lat": 38.916581666666666, "fusion_lon": 0.0, "fusion_lat": 0.0, "type": "electric_scooter", "name": "0da57af2dcd3e232f9adf8a856b667de", "is_disabled": 0, "rental_uris": {"ios": "https://dc.lft.to/lastmile_qr_scan", "android": "https://dc.lft.to/lastmile_qr_scan"}, "is_reserved": 0}, {"lon": -77.0190405, "bike_id": "89c73135020c5da06e226ff7f7c1cf8d", "lat": 38.912658, "fusion_lon": 0.0, "fusion_lat": 0.0, "type": "electric_scooter", "name": "89c73135020c5da06e226ff7f7c1cf8d", "is_disabled": 0, "rental_uris": {"ios": "https://dc.lft.to/lastmile_qr_scan", "android": "https://dc.lft.to/lastmile_qr_scan"}, "is_reserved": 0}, {"lon": -77.063957, "bike_id": "6ba9fb6857afe96142ebd6f584946064", "lat": 38.943235333333334, "fusion_lon": 0.0, "fusion_lat": 0.0, "type": "electric_scooter", "name": "6ba9fb6857afe96142ebd6f584946064", "is_disabled": 0, "rental_uris": {"ios": "https://dc.lft.to/lastmile_qr_scan", "android": "https://dc.lft.to/lastmile_qr_scan"}, "is_reserved": 0}, {"lon": -77.03266816666667, "bike_id": "3398d86a2c5f7888789740e68bace19d", "lat": 38.934387, "fusion_lon": 0.0, "fusion_lat": 0.0, "type": "electric_scooter", "name": "3398d86a2c5f7888789740e68bace19d", "is_disabled": 0, "rental_uris": {"ios": "https://dc.lft.to/lastmile_qr_scan", "android": "https://dc.lft.to/lastmile_qr_scan"}, "is_reserved": 0}, {"lon": -76.99609283333334, "bike_id": "f5d01671dbf03637afbfc379be2c7fdc", "lat": 38.9038975, "fusion_lon": 0.0, "fusion_lat": 0.0, "type": "electric_scooter", "name": "f5d01671dbf03637afbfc379be2c7fdc", "is_disabled": 0, "rental_uris": {"ios": "https://dc.lft.to/lastmile_qr_scan", "android": "https://dc.lft.to/lastmile_qr_scan"}, "is_reserved": 0}, {"lon": -76.990351, "bike_id": "58e8b6992954363f05dc4503d550ad33", "lat": 38.902881, "fusion_lon": 0.0, "fusion_lat": 0.0, "type": "electric_scooter", "name": "58e8b6992954363f05dc4503d550ad33", "is_disabled": 0, "rental_uris": {"ios": "https://dc.lft.to/lastmile_qr_scan", "android": "https://dc.lft.to/lastmile_qr_scan"}, "is_reserved": 0}, {"lon": -77.02388716666667, "bike_id": "eecea7e58770f95f914e3b75a5881e9e", "lat": 38.90736066666667, "fusion_lon": 0.0, "fusion_lat": 0.0, "type": "electric_scooter", "name": "eecea7e58770f95f914e3b75a5881e9e", "is_disabled": 0, "rental_uris": {"ios": "https://dc.lft.to/lastmile_qr_scan", "android": "https://dc.lft.to/lastmile_qr_scan"}, "is_reserved": 0}, {"lon": -77.029602, "bike_id": "cfbe9af0a9508dce7d2e8b74c2655aff", "lat": 38.904755, "fusion_lon": 0.0, "fusion_lat": 0.0, "type": "electric_scooter", "name": "cfbe9af0a9508dce7d2e8b74c2655aff", "is_disabled": 0, "rental_uris": {"ios": "https://dc.lft.to/lastmile_qr_scan", "android": "https://dc.lft.to/lastmile_qr_scan"}, "is_reserved": 0}, {"lon": -76.97671366666667, "bike_id": "b89281dbc1b963ff5bde3c10411f9047", "lat": 38.952425833333336, "fusion_lon": 0.0, "fusion_lat": 0.0, "type": "electric_bike", "name": "b89281dbc1b963ff5bde3c10411f9047", "is_disabled": 0, "rental_uris": {"ios": "https://dc.lft.to/lastmile_qr_scan", "android": "https://dc.lft.to/lastmile_qr_scan"}, "is_reserved": 0}, {"lon": -77.041732, "bike_id": "2f98db5b866947bd430bb1c36e762242", "lat": 38.917026166666666, "fusion_lon": 0.0, "fusion_lat": 0.0, "type": "electric_scooter", "name": "2f98db5b866947bd430bb1c36e762242", "is_disabled": 0, "rental_uris": {"ios": "https://dc.lft.to/lastmile_qr_scan", "android": "https://dc.lft.to/lastmile_qr_scan"}, "is_reserved": 0}, {"lon": -77.03113816666666, "bike_id": "11d4d71452e43fec32c37d4b3dd5bc3d", "lat": 38.920593333333336, "fusion_lon": 0.0, "fusion_lat": 0.0, "type": "electric_bike", "name": "11d4d71452e43fec32c37d4b3dd5bc3d", "is_disabled": 0, "rental_uris": {"ios": "https://dc.lft.to/lastmile_qr_scan", "android": "https://dc.lft.to/lastmile_qr_scan"}, "is_reserved": 0}, {"lon": -76.98149133333334, "bike_id": "fd1b723b94ffd27dec7f5a88346ea036", "lat": 38.903155166666664, "fusion_lon": 0.0, "fusion_lat": 0.0, "type": "electric_scooter", "name": "fd1b723b94ffd27dec7f5a88346ea036", "is_disabled": 0, "rental_uris": {"ios": "https://dc.lft.to/lastmile_qr_scan", "android": "https://dc.lft.to/lastmile_qr_scan"}, "is_reserved": 0}, {"lon": -77.04346633333333, "bike_id": "44e68f316756c2ad83736369f1e65a08", "lat": 38.90810916666667, "fusion_lon": 0.0, "fusion_lat": 0.0, "type": "electric_scooter", "name": "44e68f316756c2ad83736369f1e65a08", "is_disabled": 0, "rental_uris": {"ios": "https://dc.lft.to/lastmile_qr_scan", "android": "https://dc.lft.to/lastmile_qr_scan"}, "is_reserved": 0}, {"lon": -77.0434745, "bike_id": "98c3108c3d67a3ad2d688977c45340d4", "lat": 38.904052, "fusion_lon": 0.0, "fusion_lat": 0.0, "type": "electric_scooter", "name": "98c3108c3d67a3ad2d688977c45340d4", "is_disabled": 0, "rental_uris": {"ios": "https://dc.lft.to/lastmile_qr_scan", "android": "https://dc.lft.to/lastmile_qr_scan"}, "is_reserved": 0}, {"lon": -77.030241, "bike_id": "46c99a8a5f7e8024745a413fbbd7369b", "lat": 38.88394366666667, "fusion_lon": 0.0, "fusion_lat": 0.0, "type": "electric_scooter", "name": "46c99a8a5f7e8024745a413fbbd7369b", "is_disabled": 0, "rental_uris": {"ios": "https://dc.lft.to/lastmile_qr_scan", "android": "https://dc.lft.to/lastmile_qr_scan"}, "is_reserved": 0}, {"lon": -77.02971466666666, "bike_id": "ab92e99a95ae8ffd282af79e5b948b59", "lat": 38.90713433333333, "fusion_lon": 0.0, "fusion_lat": 0.0, "type": "electric_scooter", "name": "ab92e99a95ae8ffd282af79e5b948b59", "is_disabled": 0, "rental_uris": {"ios": "https://dc.lft.to/lastmile_qr_scan", "android": "https://dc.lft.to/lastmile_qr_scan"}, "is_reserved": 0}, {"lon": -76.99848516666667, "bike_id": "efb6c5d28494a86307fb425ec22cd7e2", "lat": 38.89079066666667, "fusion_lon": 0.0, "fusion_lat": 0.0, "type": "electric_scooter", "name": "efb6c5d28494a86307fb425ec22cd7e2", "is_disabled": 0, "rental_uris": {"ios": "https://dc.lft.to/lastmile_qr_scan", "android": "https://dc.lft.to/lastmile_qr_scan"}, "is_reserved": 0}, {"lon": -76.9879865, "bike_id": "0d31db97a43ed1f41faad8d5b48f50b7", "lat": 38.867425833333336, "fusion_lon": 0.0, "fusion_lat": 0.0, "type": "electric_scooter", "name": "0d31db97a43ed1f41faad8d5b48f50b7", "is_disabled": 0, "rental_uris": {"ios": "https://dc.lft.to/lastmile_qr_scan", "android": "https://dc.lft.to/lastmile_qr_scan"}, "is_reserved": 0}, {"lon": -77.03087283333333, "bike_id": "ed4870b5f7fa985edb758e199a3fdd7a", "lat": 38.927249833333335, "fusion_lon": 0.0, "fusion_lat": 0.0, "type": "electric_scooter", "name": "ed4870b5f7fa985edb758e199a3fdd7a", "is_disabled": 0, "rental_uris": {"ios": "https://dc.lft.to/lastmile_qr_scan", "android": "https://dc.lft.to/lastmile_qr_scan"}, "is_reserved": 0}, {"lon": -77.04863883333333, "bike_id": "6d851faedfd4ef741704c1743a733e28", "lat": 38.89218433333333, "fusion_lon": 0.0, "fusion_lat": 0.0, "type": "electric_scooter", "name": "6d851faedfd4ef741704c1743a733e28", "is_disabled": 0, "rental_uris": {"ios": "https://dc.lft.to/lastmile_qr_scan", "android": "https://dc.lft.to/lastmile_qr_scan"}, "is_reserved": 0}, {"lon": -77.00199866666667, "bike_id": "c9ec3e570ace05e67ed8bd59b2dc6c08", "lat": 38.90235583333333, "fusion_lon": 0.0, "fusion_lat": 0.0, "type": "electric_scooter", "name": "c9ec3e570ace05e67ed8bd59b2dc6c08", "is_disabled": 0, "rental_uris": {"ios": "https://dc.lft.to/lastmile_qr_scan", "android": "https://dc.lft.to/lastmile_qr_scan"}, "is_reserved": 0}, {"lon": -77.03260583333333, "bike_id": "2df86d4fb717e743c9c06bf781617cc2", "lat": 38.90587516666667, "fusion_lon": 0.0, "fusion_lat": 0.0, "type": "electric_scooter", "name": "2df86d4fb717e743c9c06bf781617cc2", "is_disabled": 0, "rental_uris": {"ios": "https://dc.lft.to/lastmile_qr_scan", "android": "https://dc.lft.to/lastmile_qr_scan"}, "is_reserved": 0}, {"lon": -77.02235833333333, "bike_id": "91a01ed08056c19b26f1d8104b74de05", "lat": 38.91564566666667, "fusion_lon": 0.0, "fusion_lat": 0.0, "type": "electric_scooter", "name": "91a01ed08056c19b26f1d8104b74de05", "is_disabled": 0, "rental_uris": {"ios": "https://dc.lft.to/lastmile_qr_scan", "android": "https://dc.lft.to/lastmile_qr_scan"}, "is_reserved": 0}, {"lon": -77.07896583333333, "bike_id": "fa56cb557aa7ff0e9537eecdea9fdd29", "lat": 38.931057833333334, "fusion_lon": 0.0, "fusion_lat": 0.0, "type": "electric_scooter", "name": "fa56cb557aa7ff0e9537eecdea9fdd29", "is_disabled": 0, "rental_uris": {"ios": "https://dc.lft.to/lastmile_qr_scan", "android": "https://dc.lft.to/lastmile_qr_scan"}, "is_reserved": 0}, {"lon": -77.02501233333334, "bike_id": "431dca229cf0df3b2c0912d526278a9b", "lat": 38.94199066666667, "fusion_lon": 0.0, "fusion_lat": 0.0, "type": "electric_scooter", "name": "431dca229cf0df3b2c0912d526278a9b", "is_disabled": 0, "rental_uris": {"ios": "https://dc.lft.to/lastmile_qr_scan", "android": "https://dc.lft.to/lastmile_qr_scan"}, "is_reserved": 0}, {"lon": -77.0359895, "bike_id": "6c00ca09b450105941f7f4769c824e54", "lat": 38.939357, "fusion_lon": 0.0, "fusion_lat": 0.0, "type": "electric_scooter", "name": "6c00ca09b450105941f7f4769c824e54", "is_disabled": 0, "rental_uris": {"ios": "https://dc.lft.to/lastmile_qr_scan", "android": "https://dc.lft.to/lastmile_qr_scan"}, "is_reserved": 0}, {"lon": -76.99461966666667, "bike_id": "b36889d1ee8ca2b41eba8cf0812b9ab9", "lat": 38.94064766666666, "fusion_lon": 0.0, "fusion_lat": 0.0, "type": "electric_scooter", "name": "b36889d1ee8ca2b41eba8cf0812b9ab9", "is_disabled": 0, "rental_uris": {"ios": "https://dc.lft.to/lastmile_qr_scan", "android": "https://dc.lft.to/lastmile_qr_scan"}, "is_reserved": 0}, {"lon": -77.0410655, "bike_id": "2d6f84f9ae4aa3013af62fe420d077fe", "lat": 38.898473, "fusion_lon": 0.0, "fusion_lat": 0.0, "type": "electric_scooter", "name": "2d6f84f9ae4aa3013af62fe420d077fe", "is_disabled": 0, "rental_uris": {"ios": "https://dc.lft.to/lastmile_qr_scan", "android": "https://dc.lft.to/lastmile_qr_scan"}, "is_reserved": 0}, {"lon": -76.9977925, "bike_id": "b98e48b36061303866c77b588459c3ab", "lat": 38.84302683333333, "fusion_lon": 0.0, "fusion_lat": 0.0, "type": "electric_scooter", "name": "b98e48b36061303866c77b588459c3ab", "is_disabled": 0, "rental_uris": {"ios": "https://dc.lft.to/lastmile_qr_scan", "android": "https://dc.lft.to/lastmile_qr_scan"}, "is_reserved": 0}, {"lon": -77.00710383333333, "bike_id": "d6ea1f793e42150ce75084980f58c269", "lat": 38.88489233333333, "fusion_lon": 0.0, "fusion_lat": 0.0, "type": "electric_scooter", "name": "d6ea1f793e42150ce75084980f58c269", "is_disabled": 0, "rental_uris": {"ios": "https://dc.lft.to/lastmile_qr_scan", "android": "https://dc.lft.to/lastmile_qr_scan"}, "is_reserved": 0}, {"lon": -76.9412805, "bike_id": "3b700e662cef20d12c835c0b7046298f", "lat": 38.90823, "fusion_lon": 0.0, "fusion_lat": 0.0, "type": "electric_scooter", "name": "3b700e662cef20d12c835c0b7046298f", "is_disabled": 0, "rental_uris": {"ios": "https://dc.lft.to/lastmile_qr_scan", "android": "https://dc.lft.to/lastmile_qr_scan"}, "is_reserved": 0}, {"lon": -77.03382466666666, "bike_id": "2cbe01901604ed117d057cad18521e0b", "lat": 38.93862683333333, "fusion_lon": 0.0, "fusion_lat": 0.0, "type": "electric_scooter", "name": "2cbe01901604ed117d057cad18521e0b", "is_disabled": 0, "rental_uris": {"ios": "https://dc.lft.to/lastmile_qr_scan", "android": "https://dc.lft.to/lastmile_qr_scan"}, "is_reserved": 0}, {"lon": -77.02376016666666, "bike_id": "77d002a0c64285f6c4904ae471e3bf88", "lat": 38.9068105, "fusion_lon": 0.0, "fusion_lat": 0.0, "type": "electric_scooter", "name": "77d002a0c64285f6c4904ae471e3bf88", "is_disabled": 0, "rental_uris": {"ios": "https://dc.lft.to/lastmile_qr_scan", "android": "https://dc.lft.to/lastmile_qr_scan"}, "is_reserved": 0}, {"lon": -77.04213433333334, "bike_id": "b8a0209699ed9101b2b231eb8cc0b689", "lat": 38.892694166666665, "fusion_lon": 0.0, "fusion_lat": 0.0, "type": "electric_scooter", "name": "b8a0209699ed9101b2b231eb8cc0b689", "is_disabled": 0, "rental_uris": {"ios": "https://dc.lft.to/lastmile_qr_scan", "android": "https://dc.lft.to/lastmile_qr_scan"}, "is_reserved": 0}, {"lon": -77.00198533333334, "bike_id": "9f3f5eb245ece9d7ef367f00978098f3", "lat": 38.9083135, "fusion_lon": 0.0, "fusion_lat": 0.0, "type": "electric_scooter", "name": "9f3f5eb245ece9d7ef367f00978098f3", "is_disabled": 0, "rental_uris": {"ios": "https://dc.lft.to/lastmile_qr_scan", "android": "https://dc.lft.to/lastmile_qr_scan"}, "is_reserved": 0}, {"lon": -77.03273, "bike_id": "081644730e333cf7122f5bf546b2d207", "lat": 38.93443116666667, "fusion_lon": 0.0, "fusion_lat": 0.0, "type": "electric_scooter", "name": "081644730e333cf7122f5bf546b2d207", "is_disabled": 0, "rental_uris": {"ios": "https://dc.lft.to/lastmile_qr_scan", "android": "https://dc.lft.to/lastmile_qr_scan"}, "is_reserved": 0}, {"lon": -76.948015, "bike_id": "d8b494b30b17d485fbcceba1aed2ed9e", "lat": 38.86193733333333, "fusion_lon": 0.0, "fusion_lat": 0.0, "type": "electric_bike", "name": "d8b494b30b17d485fbcceba1aed2ed9e", "is_disabled": 0, "rental_uris": {"ios": "https://dc.lft.to/lastmile_qr_scan", "android": "https://dc.lft.to/lastmile_qr_scan"}, "is_reserved": 0}, {"lon": -77.01551366666666, "bike_id": "63d7c31ba112180b2d221361f49b575c", "lat": 38.89221533333333, "fusion_lon": 0.0, "fusion_lat": 0.0, "type": "electric_scooter", "name": "63d7c31ba112180b2d221361f49b575c", "is_disabled": 0, "rental_uris": {"ios": "https://dc.lft.to/lastmile_qr_scan", "android": "https://dc.lft.to/lastmile_qr_scan"}, "is_reserved": 0}, {"lon": -77.02397816666667, "bike_id": "20f6b9a19f73118a005d09bd0980142b", "lat": 38.900314333333334, "fusion_lon": 0.0, "fusion_lat": 0.0, "type": "electric_scooter", "name": "20f6b9a19f73118a005d09bd0980142b", "is_disabled": 0, "rental_uris": {"ios": "https://dc.lft.to/lastmile_qr_scan", "android": "https://dc.lft.to/lastmile_qr_scan"}, "is_reserved": 0}, {"lon": -76.98841466666667, "bike_id": "b58d619c338ba1c869ef68c7c3470046", "lat": 38.9006615, "fusion_lon": 0.0, "fusion_lat": 0.0, "type": "electric_scooter", "name": "b58d619c338ba1c869ef68c7c3470046", "is_disabled": 0, "rental_uris": {"ios": "https://dc.lft.to/lastmile_qr_scan", "android": "https://dc.lft.to/lastmile_qr_scan"}, "is_reserved": 0}, {"lon": -76.99519616666667, "bike_id": "cdbd025dd036a7fdb0ddd15affc79096", "lat": 38.89607733333333, "fusion_lon": 0.0, "fusion_lat": 0.0, "type": "electric_scooter", "name": "cdbd025dd036a7fdb0ddd15affc79096", "is_disabled": 0, "rental_uris": {"ios": "https://dc.lft.to/lastmile_qr_scan", "android": "https://dc.lft.to/lastmile_qr_scan"}, "is_reserved": 0}, {"lon": -77.00656433333333, "bike_id": "bcf8123ffcbe655d6e28a5f516fbb251", "lat": 38.900307833333336, "fusion_lon": 0.0, "fusion_lat": 0.0, "type": "electric_scooter", "name": "bcf8123ffcbe655d6e28a5f516fbb251", "is_disabled": 0, "rental_uris": {"ios": "https://dc.lft.to/lastmile_qr_scan", "android": "https://dc.lft.to/lastmile_qr_scan"}, "is_reserved": 0}, {"lon": -77.038541, "bike_id": "79fb581a56dba83c43488c132bcf552d", "lat": 38.90364266666667, "fusion_lon": 0.0, "fusion_lat": 0.0, "type": "electric_scooter", "name": "79fb581a56dba83c43488c132bcf552d", "is_disabled": 0, "rental_uris": {"ios": "https://dc.lft.to/lastmile_qr_scan", "android": "https://dc.lft.to/lastmile_qr_scan"}, "is_reserved": 0}, {"lon": -76.9440245, "bike_id": "44688b59b242518ac9a1ebd35230c9a3", "lat": 38.88139483333333, "fusion_lon": 0.0, "fusion_lat": 0.0, "type": "electric_scooter", "name": "44688b59b242518ac9a1ebd35230c9a3", "is_disabled": 0, "rental_uris": {"ios": "https://dc.lft.to/lastmile_qr_scan", "android": "https://dc.lft.to/lastmile_qr_scan"}, "is_reserved": 0}, {"lon": -77.0297935, "bike_id": "2f258a0f502403dd3bff1477c339d8e0", "lat": 38.916775666666666, "fusion_lon": 0.0, "fusion_lat": 0.0, "type": "electric_scooter", "name": "2f258a0f502403dd3bff1477c339d8e0", "is_disabled": 0, "rental_uris": {"ios": "https://dc.lft.to/lastmile_qr_scan", "android": "https://dc.lft.to/lastmile_qr_scan"}, "is_reserved": 0}, {"lon": -77.022084, "bike_id": "e49b67c98869477e8f74f14b303e2415", "lat": 38.899743, "fusion_lon": 0.0, "fusion_lat": 0.0, "type": "electric_scooter", "name": "e49b67c98869477e8f74f14b303e2415", "is_disabled": 0, "rental_uris": {"ios": "https://dc.lft.to/lastmile_qr_scan", "android": "https://dc.lft.to/lastmile_qr_scan"}, "is_reserved": 0}, {"lon": -76.99500483333334, "bike_id": "f89e9c7083cb3175d6e193f4b6d011d7", "lat": 38.88344216666667, "fusion_lon": 0.0, "fusion_lat": 0.0, "type": "electric_scooter", "name": "f89e9c7083cb3175d6e193f4b6d011d7", "is_disabled": 0, "rental_uris": {"ios": "https://dc.lft.to/lastmile_qr_scan", "android": "https://dc.lft.to/lastmile_qr_scan"}, "is_reserved": 0}, {"lon": -77.02274566666667, "bike_id": "0b134c4d87152eea2f357bc1cf193bcf", "lat": 38.92728116666667, "fusion_lon": 0.0, "fusion_lat": 0.0, "type": "electric_scooter", "name": "0b134c4d87152eea2f357bc1cf193bcf", "is_disabled": 0, "rental_uris": {"ios": "https://dc.lft.to/lastmile_qr_scan", "android": "https://dc.lft.to/lastmile_qr_scan"}, "is_reserved": 0}, {"lon": -76.993524, "bike_id": "a8f47f4d5b7ba5e8e6dfb4ee5b5cd74c", "lat": 38.845051833333336, "fusion_lon": 0.0, "fusion_lat": 0.0, "type": "electric_bike", "name": "a8f47f4d5b7ba5e8e6dfb4ee5b5cd74c", "is_disabled": 0, "rental_uris": {"ios": "https://dc.lft.to/lastmile_qr_scan", "android": "https://dc.lft.to/lastmile_qr_scan"}, "is_reserved": 0}, {"lon": -77.0434005, "bike_id": "47147108aa985a5414e2be55a7aabb50", "lat": 38.908205833333334, "fusion_lon": 0.0, "fusion_lat": 0.0, "type": "electric_scooter", "name": "47147108aa985a5414e2be55a7aabb50", "is_disabled": 0, "rental_uris": {"ios": "https://dc.lft.to/lastmile_qr_scan", "android": "https://dc.lft.to/lastmile_qr_scan"}, "is_reserved": 0}, {"lon": -77.04579033333333, "bike_id": "270ef925d1f262e4c5cacb1354872ca2", "lat": 38.92123383333333, "fusion_lon": 0.0, "fusion_lat": 0.0, "type": "electric_scooter", "name": "270ef925d1f262e4c5cacb1354872ca2", "is_disabled": 0, "rental_uris": {"ios": "https://dc.lft.to/lastmile_qr_scan", "android": "https://dc.lft.to/lastmile_qr_scan"}, "is_reserved": 0}, {"lon": -76.99623866666667, "bike_id": "579d907f4f0a7f0402cc40cc65ff16cf", "lat": 38.900583833333336, "fusion_lon": 0.0, "fusion_lat": 0.0, "type": "electric_scooter", "name": "579d907f4f0a7f0402cc40cc65ff16cf", "is_disabled": 0, "rental_uris": {"ios": "https://dc.lft.to/lastmile_qr_scan", "android": "https://dc.lft.to/lastmile_qr_scan"}, "is_reserved": 0}, {"lon": -77.0329775, "bike_id": "2fdae9465a3620a29ba277ceabbb4646", "lat": 38.923609166666665, "fusion_lon": 0.0, "fusion_lat": 0.0, "type": "electric_scooter", "name": "2fdae9465a3620a29ba277ceabbb4646", "is_disabled": 0, "rental_uris": {"ios": "https://dc.lft.to/lastmile_qr_scan", "android": "https://dc.lft.to/lastmile_qr_scan"}, "is_reserved": 0}, {"lon": -77.03395466666667, "bike_id": "506c4b9ae71b83f8391a99a15c34bcf7", "lat": 38.96031383333333, "fusion_lon": 0.0, "fusion_lat": 0.0, "type": "electric_bike", "name": "506c4b9ae71b83f8391a99a15c34bcf7", "is_disabled": 0, "rental_uris": {"ios": "https://dc.lft.to/lastmile_qr_scan", "android": "https://dc.lft.to/lastmile_qr_scan"}, "is_reserved": 0}, {"lon": -76.96578166666667, "bike_id": "dc87df2b02395194b649909c43c150ea", "lat": 38.8714335, "fusion_lon": 0.0, "fusion_lat": 0.0, "type": "electric_scooter", "name": "dc87df2b02395194b649909c43c150ea", "is_disabled": 0, "rental_uris": {"ios": "https://dc.lft.to/lastmile_qr_scan", "android": "https://dc.lft.to/lastmile_qr_scan"}, "is_reserved": 0}, {"lon": -77.00361166666667, "bike_id": "8cd6ab31a246afe84ca7efd9c3d15d4a", "lat": 38.91556516666667, "fusion_lon": 0.0, "fusion_lat": 0.0, "type": "electric_scooter", "name": "8cd6ab31a246afe84ca7efd9c3d15d4a", "is_disabled": 0, "rental_uris": {"ios": "https://dc.lft.to/lastmile_qr_scan", "android": "https://dc.lft.to/lastmile_qr_scan"}, "is_reserved": 0}, {"lon": -77.042196, "bike_id": "3c4bf03312b7070a6062ed6fd226775d", "lat": 38.9111555, "fusion_lon": 0.0, "fusion_lat": 0.0, "type": "electric_scooter", "name": "3c4bf03312b7070a6062ed6fd226775d", "is_disabled": 0, "rental_uris": {"ios": "https://dc.lft.to/lastmile_qr_scan", "android": "https://dc.lft.to/lastmile_qr_scan"}, "is_reserved": 0}, {"lon": -76.99777716666667, "bike_id": "b49a6a858c0f061a0f4d34e67ab0bb19", "lat": 38.84429266666667, "fusion_lon": 0.0, "fusion_lat": 0.0, "type": "electric_scooter", "name": "b49a6a858c0f061a0f4d34e67ab0bb19", "is_disabled": 0, "rental_uris": {"ios": "https://dc.lft.to/lastmile_qr_scan", "android": "https://dc.lft.to/lastmile_qr_scan"}, "is_reserved": 0}, {"lon": -77.031782, "bike_id": "f92b9189d2e8060639e246c3ad650cc8", "lat": 38.919141, "fusion_lon": 0.0, "fusion_lat": 0.0, "type": "electric_scooter", "name": "f92b9189d2e8060639e246c3ad650cc8", "is_disabled": 0, "rental_uris": {"ios": "https://dc.lft.to/lastmile_qr_scan", "android": "https://dc.lft.to/lastmile_qr_scan"}, "is_reserved": 0}, {"lon": -77.07027033333334, "bike_id": "782d4735d3806b4d1516639bace0e9a2", "lat": 38.906217, "fusion_lon": 0.0, "fusion_lat": 0.0, "type": "electric_scooter", "name": "782d4735d3806b4d1516639bace0e9a2", "is_disabled": 0, "rental_uris": {"ios": "https://dc.lft.to/lastmile_qr_scan", "android": "https://dc.lft.to/lastmile_qr_scan"}, "is_reserved": 0}, {"lon": -77.03260483333334, "bike_id": "bf1deb4c94605a0ad0887bc1de24b3c0", "lat": 38.92916, "fusion_lon": 0.0, "fusion_lat": 0.0, "type": "electric_scooter", "name": "bf1deb4c94605a0ad0887bc1de24b3c0", "is_disabled": 0, "rental_uris": {"ios": "https://dc.lft.to/lastmile_qr_scan", "android": "https://dc.lft.to/lastmile_qr_scan"}, "is_reserved": 0}, {"lon": -77.0028675, "bike_id": "f26c19e624bc074563f8549b397d2b99", "lat": 38.95698133333333, "fusion_lon": 0.0, "fusion_lat": 0.0, "type": "electric_bike", "name": "f26c19e624bc074563f8549b397d2b99", "is_disabled": 0, "rental_uris": {"ios": "https://dc.lft.to/lastmile_qr_scan", "android": "https://dc.lft.to/lastmile_qr_scan"}, "is_reserved": 0}, {"lon": -77.06523183333333, "bike_id": "65e1e30f7797df7626262aab72177f39", "lat": 38.9474345, "fusion_lon": 0.0, "fusion_lat": 0.0, "type": "electric_scooter", "name": "65e1e30f7797df7626262aab72177f39", "is_disabled": 0, "rental_uris": {"ios": "https://dc.lft.to/lastmile_qr_scan", "android": "https://dc.lft.to/lastmile_qr_scan"}, "is_reserved": 0}, {"lon": -77.04322983333333, "bike_id": "020c5dbea15ebdb824ff808fd56f9bf6", "lat": 38.9188075, "fusion_lon": 0.0, "fusion_lat": 0.0, "type": "electric_scooter", "name": "020c5dbea15ebdb824ff808fd56f9bf6", "is_disabled": 0, "rental_uris": {"ios": "https://dc.lft.to/lastmile_qr_scan", "android": "https://dc.lft.to/lastmile_qr_scan"}, "is_reserved": 0}, {"lon": -77.00088316666667, "bike_id": "1df42db07325ab07664343228bba8baa", "lat": 38.894770333333334, "fusion_lon": 0.0, "fusion_lat": 0.0, "type": "electric_scooter", "name": "1df42db07325ab07664343228bba8baa", "is_disabled": 0, "rental_uris": {"ios": "https://dc.lft.to/lastmile_qr_scan", "android": "https://dc.lft.to/lastmile_qr_scan"}, "is_reserved": 0}, {"lon": -77.02694266666667, "bike_id": "90600acc37a700334470d634e8335b5a", "lat": 38.910379, "fusion_lon": 0.0, "fusion_lat": 0.0, "type": "electric_scooter", "name": "90600acc37a700334470d634e8335b5a", "is_disabled": 0, "rental_uris": {"ios": "https://dc.lft.to/lastmile_qr_scan", "android": "https://dc.lft.to/lastmile_qr_scan"}, "is_reserved": 0}, {"lon": -76.98485516666666, "bike_id": "56282e987f2aba2eb6527f08a7aadcae", "lat": 38.89900016666667, "fusion_lon": 0.0, "fusion_lat": 0.0, "type": "electric_scooter", "name": "56282e987f2aba2eb6527f08a7aadcae", "is_disabled": 0, "rental_uris": {"ios": "https://dc.lft.to/lastmile_qr_scan", "android": "https://dc.lft.to/lastmile_qr_scan"}, "is_reserved": 0}, {"lon": -77.00907016666666, "bike_id": "924c79dd15cf44fcd1d45621a01db68b", "lat": 38.89552283333333, "fusion_lon": 0.0, "fusion_lat": 0.0, "type": "electric_scooter", "name": "924c79dd15cf44fcd1d45621a01db68b", "is_disabled": 0, "rental_uris": {"ios": "https://dc.lft.to/lastmile_qr_scan", "android": "https://dc.lft.to/lastmile_qr_scan"}, "is_reserved": 0}, {"lon": -77.0306145, "bike_id": "d5562542c5f62a683fcee39ce730f8d9", "lat": 38.9247895, "fusion_lon": 0.0, "fusion_lat": 0.0, "type": "electric_scooter", "name": "d5562542c5f62a683fcee39ce730f8d9", "is_disabled": 0, "rental_uris": {"ios": "https://dc.lft.to/lastmile_qr_scan", "android": "https://dc.lft.to/lastmile_qr_scan"}, "is_reserved": 0}, {"lon": -77.0242615, "bike_id": "699968d5b58aaa18e9add194127c3bf6", "lat": 38.914064333333336, "fusion_lon": 0.0, "fusion_lat": 0.0, "type": "electric_scooter", "name": "699968d5b58aaa18e9add194127c3bf6", "is_disabled": 0, "rental_uris": {"ios": "https://dc.lft.to/lastmile_qr_scan", "android": "https://dc.lft.to/lastmile_qr_scan"}, "is_reserved": 0}, {"lon": -76.98017016666667, "bike_id": "1104ba18a059dbd3698bc77fccfa0abb", "lat": 38.898889833333335, "fusion_lon": 0.0, "fusion_lat": 0.0, "type": "electric_scooter", "name": "1104ba18a059dbd3698bc77fccfa0abb", "is_disabled": 0, "rental_uris": {"ios": "https://dc.lft.to/lastmile_qr_scan", "android": "https://dc.lft.to/lastmile_qr_scan"}, "is_reserved": 0}, {"lon": -77.01447966666667, "bike_id": "c68d05f7f9c2ee9975859f2e57c72175", "lat": 38.879323666666664, "fusion_lon": 0.0, "fusion_lat": 0.0, "type": "electric_scooter", "name": "c68d05f7f9c2ee9975859f2e57c72175", "is_disabled": 0, "rental_uris": {"ios": "https://dc.lft.to/lastmile_qr_scan", "android": "https://dc.lft.to/lastmile_qr_scan"}, "is_reserved": 0}, {"lon": -77.00736283333333, "bike_id": "54a60db9ba5f387b6e6baa4bf28e2d33", "lat": 38.9162315, "fusion_lon": 0.0, "fusion_lat": 0.0, "type": "electric_scooter", "name": "54a60db9ba5f387b6e6baa4bf28e2d33", "is_disabled": 0, "rental_uris": {"ios": "https://dc.lft.to/lastmile_qr_scan", "android": "https://dc.lft.to/lastmile_qr_scan"}, "is_reserved": 0}, {"lon": -77.07434066666667, "bike_id": "cb7fde94984fd23b5017f34cbee98c91", "lat": 38.999427, "fusion_lon": 0.0, "fusion_lat": 0.0, "type": "electric_bike", "name": "cb7fde94984fd23b5017f34cbee98c91", "is_disabled": 0, "rental_uris": {"ios": "https://dc.lft.to/lastmile_qr_scan", "android": "https://dc.lft.to/lastmile_qr_scan"}, "is_reserved": 0}, {"lon": -77.014293, "bike_id": "5800d5959cea5039927634345c3839f8", "lat": 38.914613833333334, "fusion_lon": 0.0, "fusion_lat": 0.0, "type": "electric_scooter", "name": "5800d5959cea5039927634345c3839f8", "is_disabled": 0, "rental_uris": {"ios": "https://dc.lft.to/lastmile_qr_scan", "android": "https://dc.lft.to/lastmile_qr_scan"}, "is_reserved": 0}, {"lon": -76.98714533333333, "bike_id": "4ffa52b4012e7b8c26da433bdc2ca52b", "lat": 38.86622466666667, "fusion_lon": 0.0, "fusion_lat": 0.0, "type": "electric_scooter", "name": "4ffa52b4012e7b8c26da433bdc2ca52b", "is_disabled": 0, "rental_uris": {"ios": "https://dc.lft.to/lastmile_qr_scan", "android": "https://dc.lft.to/lastmile_qr_scan"}, "is_reserved": 0}, {"lon": -77.020307, "bike_id": "8d0fa2c715a18e1bf29aac35ac34dd37", "lat": 38.924432333333336, "fusion_lon": 0.0, "fusion_lat": 0.0, "type": "electric_scooter", "name": "8d0fa2c715a18e1bf29aac35ac34dd37", "is_disabled": 0, "rental_uris": {"ios": "https://dc.lft.to/lastmile_qr_scan", "android": "https://dc.lft.to/lastmile_qr_scan"}, "is_reserved": 0}, {"lon": -77.03256533333334, "bike_id": "48409da097136545563c5751258b580e", "lat": 38.935606666666665, "fusion_lon": 0.0, "fusion_lat": 0.0, "type": "electric_scooter", "name": "48409da097136545563c5751258b580e", "is_disabled": 0, "rental_uris": {"ios": "https://dc.lft.to/lastmile_qr_scan", "android": "https://dc.lft.to/lastmile_qr_scan"}, "is_reserved": 0}, {"lon": -77.05859116666667, "bike_id": "712786b043718e3deff6e05b2182ca06", "lat": 38.9360485, "fusion_lon": 0.0, "fusion_lat": 0.0, "type": "electric_scooter", "name": "712786b043718e3deff6e05b2182ca06", "is_disabled": 0, "rental_uris": {"ios": "https://dc.lft.to/lastmile_qr_scan", "android": "https://dc.lft.to/lastmile_qr_scan"}, "is_reserved": 0}, {"lon": -76.94993533333333, "bike_id": "237bd3a337cae348480ea40811c0aa89", "lat": 38.89383616666667, "fusion_lon": 0.0, "fusion_lat": 0.0, "type": "electric_scooter", "name": "237bd3a337cae348480ea40811c0aa89", "is_disabled": 0, "rental_uris": {"ios": "https://dc.lft.to/lastmile_qr_scan", "android": "https://dc.lft.to/lastmile_qr_scan"}, "is_reserved": 0}, {"lon": -76.99540966666666, "bike_id": "2449931073bc31f253df9b3b4ce5117a", "lat": 38.92671883333333, "fusion_lon": 0.0, "fusion_lat": 0.0, "type": "electric_scooter", "name": "2449931073bc31f253df9b3b4ce5117a", "is_disabled": 0, "rental_uris": {"ios": "https://dc.lft.to/lastmile_qr_scan", "android": "https://dc.lft.to/lastmile_qr_scan"}, "is_reserved": 0}, {"lon": -77.02618033333333, "bike_id": "2b764194311d0f5898e38421ff73d1e0", "lat": 38.8961675, "fusion_lon": 0.0, "fusion_lat": 0.0, "type": "electric_scooter", "name": "2b764194311d0f5898e38421ff73d1e0", "is_disabled": 0, "rental_uris": {"ios": "https://dc.lft.to/lastmile_qr_scan", "android": "https://dc.lft.to/lastmile_qr_scan"}, "is_reserved": 0}, {"lon": -77.0385635, "bike_id": "1fb962804465d9756180231ed67cdd66", "lat": 38.931320666666664, "fusion_lon": 0.0, "fusion_lat": 0.0, "type": "electric_scooter", "name": "1fb962804465d9756180231ed67cdd66", "is_disabled": 0, "rental_uris": {"ios": "https://dc.lft.to/lastmile_qr_scan", "android": "https://dc.lft.to/lastmile_qr_scan"}, "is_reserved": 0}, {"lon": -76.93738833333333, "bike_id": "a9744722a73cea746a1aae8b46cec1e8", "lat": 38.8900925, "fusion_lon": 0.0, "fusion_lat": 0.0, "type": "electric_scooter", "name": "a9744722a73cea746a1aae8b46cec1e8", "is_disabled": 0, "rental_uris": {"ios": "https://dc.lft.to/lastmile_qr_scan", "android": "https://dc.lft.to/lastmile_qr_scan"}, "is_reserved": 0}, {"lon": -77.029962, "bike_id": "df3cc2a4dd97afac15f3be21004da6ff", "lat": 38.924698, "fusion_lon": 0.0, "fusion_lat": 0.0, "type": "electric_scooter", "name": "df3cc2a4dd97afac15f3be21004da6ff", "is_disabled": 0, "rental_uris": {"ios": "https://dc.lft.to/lastmile_qr_scan", "android": "https://dc.lft.to/lastmile_qr_scan"}, "is_reserved": 0}, {"lon": -76.93131716666667, "bike_id": "f46f8a6377933c01e903b3f2cb389e7d", "lat": 38.876093833333336, "fusion_lon": 0.0, "fusion_lat": 0.0, "type": "electric_scooter", "name": "f46f8a6377933c01e903b3f2cb389e7d", "is_disabled": 0, "rental_uris": {"ios": "https://dc.lft.to/lastmile_qr_scan", "android": "https://dc.lft.to/lastmile_qr_scan"}, "is_reserved": 0}, {"lon": -77.03157366666667, "bike_id": "2dbd777216312fe735f67170bf9fe385", "lat": 38.89209433333333, "fusion_lon": 0.0, "fusion_lat": 0.0, "type": "electric_scooter", "name": "2dbd777216312fe735f67170bf9fe385", "is_disabled": 0, "rental_uris": {"ios": "https://dc.lft.to/lastmile_qr_scan", "android": "https://dc.lft.to/lastmile_qr_scan"}, "is_reserved": 0}, {"lon": -77.0580365, "bike_id": "cba76ba0acd8064f36b55eed7c412006", "lat": 38.934509, "fusion_lon": 0.0, "fusion_lat": 0.0, "type": "electric_scooter", "name": "cba76ba0acd8064f36b55eed7c412006", "is_disabled": 0, "rental_uris": {"ios": "https://dc.lft.to/lastmile_qr_scan", "android": "https://dc.lft.to/lastmile_qr_scan"}, "is_reserved": 0}, {"lon": -77.0240045, "bike_id": "73ef729878761c6654730d845f7a2962", "lat": 38.93695266666667, "fusion_lon": 0.0, "fusion_lat": 0.0, "type": "electric_scooter", "name": "73ef729878761c6654730d845f7a2962", "is_disabled": 0, "rental_uris": {"ios": "https://dc.lft.to/lastmile_qr_scan", "android": "https://dc.lft.to/lastmile_qr_scan"}, "is_reserved": 0}, {"lon": -77.03185033333334, "bike_id": "557d2274ef7e2a233a795e29aad5742e", "lat": 38.91329316666667, "fusion_lon": 0.0, "fusion_lat": 0.0, "type": "electric_scooter", "name": "557d2274ef7e2a233a795e29aad5742e", "is_disabled": 0, "rental_uris": {"ios": "https://dc.lft.to/lastmile_qr_scan", "android": "https://dc.lft.to/lastmile_qr_scan"}, "is_reserved": 0}, {"lon": -77.04911016666667, "bike_id": "e1ed107f802d675a5da2a2b9c4a6e21f", "lat": 38.90341166666666, "fusion_lon": 0.0, "fusion_lat": 0.0, "type": "electric_scooter", "name": "e1ed107f802d675a5da2a2b9c4a6e21f", "is_disabled": 0, "rental_uris": {"ios": "https://dc.lft.to/lastmile_qr_scan", "android": "https://dc.lft.to/lastmile_qr_scan"}, "is_reserved": 0}, {"lon": -77.01663133333334, "bike_id": "a9579c67371607a3f565d2d14d4e7b5a", "lat": 38.929046, "fusion_lon": 0.0, "fusion_lat": 0.0, "type": "electric_scooter", "name": "a9579c67371607a3f565d2d14d4e7b5a", "is_disabled": 0, "rental_uris": {"ios": "https://dc.lft.to/lastmile_qr_scan", "android": "https://dc.lft.to/lastmile_qr_scan"}, "is_reserved": 0}, {"lon": -76.99544766666666, "bike_id": "183473855e7f397271dbea5bc11e7569", "lat": 38.862565833333335, "fusion_lon": 0.0, "fusion_lat": 0.0, "type": "electric_scooter", "name": "183473855e7f397271dbea5bc11e7569", "is_disabled": 0, "rental_uris": {"ios": "https://dc.lft.to/lastmile_qr_scan", "android": "https://dc.lft.to/lastmile_qr_scan"}, "is_reserved": 0}, {"lon": -77.00316416666666, "bike_id": "ad57dcaee28eafd1fda4282295ce4fcc", "lat": 38.91894716666667, "fusion_lon": 0.0, "fusion_lat": 0.0, "type": "electric_bike", "name": "ad57dcaee28eafd1fda4282295ce4fcc", "is_disabled": 0, "rental_uris": {"ios": "https://dc.lft.to/lastmile_qr_scan", "android": "https://dc.lft.to/lastmile_qr_scan"}, "is_reserved": 0}, {"lon": -77.03855283333333, "bike_id": "7f2154eee6bd83d2d55d47d1b0d81a55", "lat": 38.91742566666667, "fusion_lon": 0.0, "fusion_lat": 0.0, "type": "electric_scooter", "name": "7f2154eee6bd83d2d55d47d1b0d81a55", "is_disabled": 0, "rental_uris": {"ios": "https://dc.lft.to/lastmile_qr_scan", "android": "https://dc.lft.to/lastmile_qr_scan"}, "is_reserved": 0}, {"lon": -77.04474183333333, "bike_id": "b0e00c993e0295248f97eb9d5471f3de", "lat": 38.92140366666667, "fusion_lon": 0.0, "fusion_lat": 0.0, "type": "electric_scooter", "name": "b0e00c993e0295248f97eb9d5471f3de", "is_disabled": 0, "rental_uris": {"ios": "https://dc.lft.to/lastmile_qr_scan", "android": "https://dc.lft.to/lastmile_qr_scan"}, "is_reserved": 0}, {"lon": -76.94154783333333, "bike_id": "e1f85a323faa7595441c0f57af7e3c04", "lat": 38.87905766666667, "fusion_lon": 0.0, "fusion_lat": 0.0, "type": "electric_scooter", "name": "e1f85a323faa7595441c0f57af7e3c04", "is_disabled": 0, "rental_uris": {"ios": "https://dc.lft.to/lastmile_qr_scan", "android": "https://dc.lft.to/lastmile_qr_scan"}, "is_reserved": 0}, {"lon": -77.04603733333333, "bike_id": "9eef29110de6cef090a71a4c1dbf97c8", "lat": 38.92176216666667, "fusion_lon": 0.0, "fusion_lat": 0.0, "type": "electric_scooter", "name": "9eef29110de6cef090a71a4c1dbf97c8", "is_disabled": 0, "rental_uris": {"ios": "https://dc.lft.to/lastmile_qr_scan", "android": "https://dc.lft.to/lastmile_qr_scan"}, "is_reserved": 0}, {"lon": -76.992698, "bike_id": "4882f7de4db6695b386127fd77d72843", "lat": 38.89766616666667, "fusion_lon": 0.0, "fusion_lat": 0.0, "type": "electric_scooter", "name": "4882f7de4db6695b386127fd77d72843", "is_disabled": 0, "rental_uris": {"ios": "https://dc.lft.to/lastmile_qr_scan", "android": "https://dc.lft.to/lastmile_qr_scan"}, "is_reserved": 0}, {"lon": -77.00710366666667, "bike_id": "2a0e11a2a8e9e43cb1fbc39aae48f7cc", "lat": 38.88490183333333, "fusion_lon": 0.0, "fusion_lat": 0.0, "type": "electric_scooter", "name": "2a0e11a2a8e9e43cb1fbc39aae48f7cc", "is_disabled": 0, "rental_uris": {"ios": "https://dc.lft.to/lastmile_qr_scan", "android": "https://dc.lft.to/lastmile_qr_scan"}, "is_reserved": 0}, {"lon": -77.02202116666666, "bike_id": "c8143cb5f1b2dec0f46903d8d61259e6", "lat": 38.90543383333333, "fusion_lon": 0.0, "fusion_lat": 0.0, "type": "electric_scooter", "name": "c8143cb5f1b2dec0f46903d8d61259e6", "is_disabled": 0, "rental_uris": {"ios": "https://dc.lft.to/lastmile_qr_scan", "android": "https://dc.lft.to/lastmile_qr_scan"}, "is_reserved": 0}, {"lon": -77.03309233333333, "bike_id": "f60b22471759e23a2a055e72625693f5", "lat": 38.92896116666667, "fusion_lon": 0.0, "fusion_lat": 0.0, "type": "electric_scooter", "name": "f60b22471759e23a2a055e72625693f5", "is_disabled": 0, "rental_uris": {"ios": "https://dc.lft.to/lastmile_qr_scan", "android": "https://dc.lft.to/lastmile_qr_scan"}, "is_reserved": 0}, {"lon": -77.00746016666666, "bike_id": "c07d50b4334988690d2efe0c62d8fa9c", "lat": 38.87632883333333, "fusion_lon": 0.0, "fusion_lat": 0.0, "type": "electric_scooter", "name": "c07d50b4334988690d2efe0c62d8fa9c", "is_disabled": 0, "rental_uris": {"ios": "https://dc.lft.to/lastmile_qr_scan", "android": "https://dc.lft.to/lastmile_qr_scan"}, "is_reserved": 0}, {"lon": -77.00528533333333, "bike_id": "f510a980439b67394a0c2b65ccf8a21c", "lat": 38.9095675, "fusion_lon": 0.0, "fusion_lat": 0.0, "type": "electric_scooter", "name": "f510a980439b67394a0c2b65ccf8a21c", "is_disabled": 0, "rental_uris": {"ios": "https://dc.lft.to/lastmile_qr_scan", "android": "https://dc.lft.to/lastmile_qr_scan"}, "is_reserved": 0}, {"lon": -77.02212283333333, "bike_id": "8b8ced948c2460483ba07a173428f43d", "lat": 38.90528066666667, "fusion_lon": 0.0, "fusion_lat": 0.0, "type": "electric_scooter", "name": "8b8ced948c2460483ba07a173428f43d", "is_disabled": 0, "rental_uris": {"ios": "https://dc.lft.to/lastmile_qr_scan", "android": "https://dc.lft.to/lastmile_qr_scan"}, "is_reserved": 0}, {"lon": -76.9833345, "bike_id": "faaafac00ca95317c754c56a68416d37", "lat": 38.900868333333335, "fusion_lon": 0.0, "fusion_lat": 0.0, "type": "electric_scooter", "name": "faaafac00ca95317c754c56a68416d37", "is_disabled": 0, "rental_uris": {"ios": "https://dc.lft.to/lastmile_qr_scan", "android": "https://dc.lft.to/lastmile_qr_scan"}, "is_reserved": 0}, {"lon": -77.00189983333334, "bike_id": "8be45c824275632d8b47f5e53581ce91", "lat": 38.911907, "fusion_lon": 0.0, "fusion_lat": 0.0, "type": "electric_scooter", "name": "8be45c824275632d8b47f5e53581ce91", "is_disabled": 0, "rental_uris": {"ios": "https://dc.lft.to/lastmile_qr_scan", "android": "https://dc.lft.to/lastmile_qr_scan"}, "is_reserved": 0}, {"lon": -77.06348766666666, "bike_id": "2233d421cbc96a8c908e68a652c323cf", "lat": 38.94446583333333, "fusion_lon": 0.0, "fusion_lat": 0.0, "type": "electric_scooter", "name": "2233d421cbc96a8c908e68a652c323cf", "is_disabled": 0, "rental_uris": {"ios": "https://dc.lft.to/lastmile_qr_scan", "android": "https://dc.lft.to/lastmile_qr_scan"}, "is_reserved": 0}, {"lon": -77.02283416666667, "bike_id": "78a8a8518a8d2f6898af878afa73df80", "lat": 38.916576166666665, "fusion_lon": 0.0, "fusion_lat": 0.0, "type": "electric_scooter", "name": "78a8a8518a8d2f6898af878afa73df80", "is_disabled": 0, "rental_uris": {"ios": "https://dc.lft.to/lastmile_qr_scan", "android": "https://dc.lft.to/lastmile_qr_scan"}, "is_reserved": 0}, {"lon": -77.0745075, "bike_id": "c34f96f788651d1f6ca387dd647ae2bd", "lat": 38.94511766666667, "fusion_lon": 0.0, "fusion_lat": 0.0, "type": "electric_scooter", "name": "c34f96f788651d1f6ca387dd647ae2bd", "is_disabled": 0, "rental_uris": {"ios": "https://dc.lft.to/lastmile_qr_scan", "android": "https://dc.lft.to/lastmile_qr_scan"}, "is_reserved": 0}, {"lon": -76.97624783333333, "bike_id": "36664a37c9b5bf59c3c4d7f21301df29", "lat": 38.905682166666665, "fusion_lon": 0.0, "fusion_lat": 0.0, "type": "electric_scooter", "name": "36664a37c9b5bf59c3c4d7f21301df29", "is_disabled": 0, "rental_uris": {"ios": "https://dc.lft.to/lastmile_qr_scan", "android": "https://dc.lft.to/lastmile_qr_scan"}, "is_reserved": 0}, {"lon": -77.03847266666666, "bike_id": "5e39281af818d2e9c5129128f20ff0aa", "lat": 38.90126733333334, "fusion_lon": 0.0, "fusion_lat": 0.0, "type": "electric_scooter", "name": "5e39281af818d2e9c5129128f20ff0aa", "is_disabled": 0, "rental_uris": {"ios": "https://dc.lft.to/lastmile_qr_scan", "android": "https://dc.lft.to/lastmile_qr_scan"}, "is_reserved": 0}, {"lon": -77.03356533333333, "bike_id": "0dd72ee3a8c552ac0314d793f6f7fdc7", "lat": 38.8869335, "fusion_lon": 0.0, "fusion_lat": 0.0, "type": "electric_scooter", "name": "0dd72ee3a8c552ac0314d793f6f7fdc7", "is_disabled": 0, "rental_uris": {"ios": "https://dc.lft.to/lastmile_qr_scan", "android": "https://dc.lft.to/lastmile_qr_scan"}, "is_reserved": 0}, {"lon": -76.99863483333333, "bike_id": "b323ebc68806610175c242d146697b29", "lat": 38.900271333333336, "fusion_lon": 0.0, "fusion_lat": 0.0, "type": "electric_scooter", "name": "b323ebc68806610175c242d146697b29", "is_disabled": 0, "rental_uris": {"ios": "https://dc.lft.to/lastmile_qr_scan", "android": "https://dc.lft.to/lastmile_qr_scan"}, "is_reserved": 0}, {"lon": -77.05902516666667, "bike_id": "05ff46fc04000a5b129d8822777d25b5", "lat": 38.90358166666667, "fusion_lon": 0.0, "fusion_lat": 0.0, "type": "electric_scooter", "name": "05ff46fc04000a5b129d8822777d25b5", "is_disabled": 0, "rental_uris": {"ios": "https://dc.lft.to/lastmile_qr_scan", "android": "https://dc.lft.to/lastmile_qr_scan"}, "is_reserved": 0}, {"lon": -77.075454, "bike_id": "7b909e14bd150771275e7b3e1a1dbd84", "lat": 38.894644, "fusion_lon": 0.0, "fusion_lat": 0.0, "type": "electric_scooter", "name": "7b909e14bd150771275e7b3e1a1dbd84", "is_disabled": 0, "rental_uris": {"ios": "https://dc.lft.to/lastmile_qr_scan", "android": "https://dc.lft.to/lastmile_qr_scan"}, "is_reserved": 0}, {"lon": -77.04485716666667, "bike_id": "18f6e167dee18b3c822685d28af2a70f", "lat": 38.892603333333334, "fusion_lon": 0.0, "fusion_lat": 0.0, "type": "electric_scooter", "name": "18f6e167dee18b3c822685d28af2a70f", "is_disabled": 0, "rental_uris": {"ios": "https://dc.lft.to/lastmile_qr_scan", "android": "https://dc.lft.to/lastmile_qr_scan"}, "is_reserved": 0}, {"lon": -77.1252545, "bike_id": "da131833170b9af881186754fcd290a5", "lat": 39.056334666666665, "fusion_lon": 0.0, "fusion_lat": 0.0, "type": "electric_bike", "name": "da131833170b9af881186754fcd290a5", "is_disabled": 0, "rental_uris": {"ios": "https://dc.lft.to/lastmile_qr_scan", "android": "https://dc.lft.to/lastmile_qr_scan"}, "is_reserved": 0}, {"lon": -77.025713, "bike_id": "26239c56a1e46d61bf3c7dc979fc7629", "lat": 38.92461483333334, "fusion_lon": 0.0, "fusion_lat": 0.0, "type": "electric_scooter", "name": "26239c56a1e46d61bf3c7dc979fc7629", "is_disabled": 0, "rental_uris": {"ios": "https://dc.lft.to/lastmile_qr_scan", "android": "https://dc.lft.to/lastmile_qr_scan"}, "is_reserved": 0}, {"lon": -77.00159083333334, "bike_id": "df3bf41cd72cc0931aae4e0b3a2265bb", "lat": 38.87509566666667, "fusion_lon": 0.0, "fusion_lat": 0.0, "type": "electric_scooter", "name": "df3bf41cd72cc0931aae4e0b3a2265bb", "is_disabled": 0, "rental_uris": {"ios": "https://dc.lft.to/lastmile_qr_scan", "android": "https://dc.lft.to/lastmile_qr_scan"}, "is_reserved": 0}, {"lon": -77.02393233333333, "bike_id": "b4bc245d7d8d729993a0b339664693e1", "lat": 38.915239666666665, "fusion_lon": 0.0, "fusion_lat": 0.0, "type": "electric_scooter", "name": "b4bc245d7d8d729993a0b339664693e1", "is_disabled": 0, "rental_uris": {"ios": "https://dc.lft.to/lastmile_qr_scan", "android": "https://dc.lft.to/lastmile_qr_scan"}, "is_reserved": 0}, {"lon": -77.036232, "bike_id": "9e7af9a3f9963a15c6077a98d4bcb973", "lat": 38.9316205, "fusion_lon": 0.0, "fusion_lat": 0.0, "type": "electric_scooter", "name": "9e7af9a3f9963a15c6077a98d4bcb973", "is_disabled": 0, "rental_uris": {"ios": "https://dc.lft.to/lastmile_qr_scan", "android": "https://dc.lft.to/lastmile_qr_scan"}, "is_reserved": 0}, {"lon": -76.98366916666667, "bike_id": "929f95ce0340fd8cea564cba05e87032", "lat": 38.9088215, "fusion_lon": 0.0, "fusion_lat": 0.0, "type": "electric_scooter", "name": "929f95ce0340fd8cea564cba05e87032", "is_disabled": 0, "rental_uris": {"ios": "https://dc.lft.to/lastmile_qr_scan", "android": "https://dc.lft.to/lastmile_qr_scan"}, "is_reserved": 0}, {"lon": -77.00376716666666, "bike_id": "0a9a64b68e473facddd5b7dddff2c45f", "lat": 38.897276833333336, "fusion_lon": 0.0, "fusion_lat": 0.0, "type": "electric_scooter", "name": "0a9a64b68e473facddd5b7dddff2c45f", "is_disabled": 0, "rental_uris": {"ios": "https://dc.lft.to/lastmile_qr_scan", "android": "https://dc.lft.to/lastmile_qr_scan"}, "is_reserved": 0}, {"lon": -77.00664166666667, "bike_id": "a2db8ec94b76bbece10029a7c3bc0818", "lat": 38.87657683333333, "fusion_lon": 0.0, "fusion_lat": 0.0, "type": "electric_scooter", "name": "a2db8ec94b76bbece10029a7c3bc0818", "is_disabled": 0, "rental_uris": {"ios": "https://dc.lft.to/lastmile_qr_scan", "android": "https://dc.lft.to/lastmile_qr_scan"}, "is_reserved": 0}, {"lon": -76.9954495, "bike_id": "56ad425fa0caf4cb5d0dbc00bc247351", "lat": 38.8625445, "fusion_lon": 0.0, "fusion_lat": 0.0, "type": "electric_scooter", "name": "56ad425fa0caf4cb5d0dbc00bc247351", "is_disabled": 0, "rental_uris": {"ios": "https://dc.lft.to/lastmile_qr_scan", "android": "https://dc.lft.to/lastmile_qr_scan"}, "is_reserved": 0}, {"lon": -77.03205216666667, "bike_id": "9a18a60626e63b128e698fa9e44cd838", "lat": 38.90947116666667, "fusion_lon": 0.0, "fusion_lat": 0.0, "type": "electric_scooter", "name": "9a18a60626e63b128e698fa9e44cd838", "is_disabled": 0, "rental_uris": {"ios": "https://dc.lft.to/lastmile_qr_scan", "android": "https://dc.lft.to/lastmile_qr_scan"}, "is_reserved": 0}, {"lon": -77.00848833333333, "bike_id": "bed43fea423919059ce537b5e3fb18ed", "lat": 38.90627516666667, "fusion_lon": 0.0, "fusion_lat": 0.0, "type": "electric_scooter", "name": "bed43fea423919059ce537b5e3fb18ed", "is_disabled": 0, "rental_uris": {"ios": "https://dc.lft.to/lastmile_qr_scan", "android": "https://dc.lft.to/lastmile_qr_scan"}, "is_reserved": 0}, {"lon": -77.0004925, "bike_id": "fbe8ecf259bd3e514d1283d9d95e4700", "lat": 38.89648416666667, "fusion_lon": 0.0, "fusion_lat": 0.0, "type": "electric_scooter", "name": "fbe8ecf259bd3e514d1283d9d95e4700", "is_disabled": 0, "rental_uris": {"ios": "https://dc.lft.to/lastmile_qr_scan", "android": "https://dc.lft.to/lastmile_qr_scan"}, "is_reserved": 0}, {"lon": -77.0049645, "bike_id": "e01d4c352e442c4a6775c63843725600", "lat": 38.876340666666664, "fusion_lon": 0.0, "fusion_lat": 0.0, "type": "electric_scooter", "name": "e01d4c352e442c4a6775c63843725600", "is_disabled": 0, "rental_uris": {"ios": "https://dc.lft.to/lastmile_qr_scan", "android": "https://dc.lft.to/lastmile_qr_scan"}, "is_reserved": 0}, {"lon": -77.03547216666666, "bike_id": "599ef51100f377e9678d37be1578c80d", "lat": 38.917108166666665, "fusion_lon": 0.0, "fusion_lat": 0.0, "type": "electric_scooter", "name": "599ef51100f377e9678d37be1578c80d", "is_disabled": 0, "rental_uris": {"ios": "https://dc.lft.to/lastmile_qr_scan", "android": "https://dc.lft.to/lastmile_qr_scan"}, "is_reserved": 0}, {"lon": -77.01321733333333, "bike_id": "cdc158e6f42c7ad3bda0adc19b760d79", "lat": 38.871641333333336, "fusion_lon": 0.0, "fusion_lat": 0.0, "type": "electric_scooter", "name": "cdc158e6f42c7ad3bda0adc19b760d79", "is_disabled": 0, "rental_uris": {"ios": "https://dc.lft.to/lastmile_qr_scan", "android": "https://dc.lft.to/lastmile_qr_scan"}, "is_reserved": 0}, {"lon": -77.0083385, "bike_id": "b87125be955e5c7d157e2b8d4d6dfa4b", "lat": 38.9156245, "fusion_lon": 0.0, "fusion_lat": 0.0, "type": "electric_scooter", "name": "b87125be955e5c7d157e2b8d4d6dfa4b", "is_disabled": 0, "rental_uris": {"ios": "https://dc.lft.to/lastmile_qr_scan", "android": "https://dc.lft.to/lastmile_qr_scan"}, "is_reserved": 0}, {"lon": -77.0986975, "bike_id": "0b27974eb1d9029c540c55447e9dde85", "lat": 38.949651333333335, "fusion_lon": 0.0, "fusion_lat": 0.0, "type": "electric_scooter", "name": "0b27974eb1d9029c540c55447e9dde85", "is_disabled": 0, "rental_uris": {"ios": "https://dc.lft.to/lastmile_qr_scan", "android": "https://dc.lft.to/lastmile_qr_scan"}, "is_reserved": 0}, {"lon": -77.021978, "bike_id": "a4ae4d091cdc6b9c50a0a2e0873a926e", "lat": 38.91126416666667, "fusion_lon": 0.0, "fusion_lat": 0.0, "type": "electric_scooter", "name": "a4ae4d091cdc6b9c50a0a2e0873a926e", "is_disabled": 0, "rental_uris": {"ios": "https://dc.lft.to/lastmile_qr_scan", "android": "https://dc.lft.to/lastmile_qr_scan"}, "is_reserved": 0}, {"lon": -77.0249365, "bike_id": "a4385dbca44209ee47b54ec5f85b7e5c", "lat": 38.9191655, "fusion_lon": 0.0, "fusion_lat": 0.0, "type": "electric_scooter", "name": "a4385dbca44209ee47b54ec5f85b7e5c", "is_disabled": 0, "rental_uris": {"ios": "https://dc.lft.to/lastmile_qr_scan", "android": "https://dc.lft.to/lastmile_qr_scan"}, "is_reserved": 0}, {"lon": -76.990043, "bike_id": "f87dc48c1adfff11b4bd85e006b2f065", "lat": 38.865062333333334, "fusion_lon": 0.0, "fusion_lat": 0.0, "type": "electric_scooter", "name": "f87dc48c1adfff11b4bd85e006b2f065", "is_disabled": 0, "rental_uris": {"ios": "https://dc.lft.to/lastmile_qr_scan", "android": "https://dc.lft.to/lastmile_qr_scan"}, "is_reserved": 0}, {"lon": -76.994561, "bike_id": "338f631eed4d65e77f3dc22a7470788f", "lat": 38.966139166666665, "fusion_lon": 0.0, "fusion_lat": 0.0, "type": "electric_bike", "name": "338f631eed4d65e77f3dc22a7470788f", "is_disabled": 0, "rental_uris": {"ios": "https://dc.lft.to/lastmile_qr_scan", "android": "https://dc.lft.to/lastmile_qr_scan"}, "is_reserved": 0}, {"lon": -77.045831, "bike_id": "e6f316b91c6c31b8568d3f805f7646d4", "lat": 38.91861466666667, "fusion_lon": 0.0, "fusion_lat": 0.0, "type": "electric_scooter", "name": "e6f316b91c6c31b8568d3f805f7646d4", "is_disabled": 0, "rental_uris": {"ios": "https://dc.lft.to/lastmile_qr_scan", "android": "https://dc.lft.to/lastmile_qr_scan"}, "is_reserved": 0}, {"lon": -76.98571116666666, "bike_id": "7a52f87ffa394f03e8a614d860d4e1ae", "lat": 38.88347233333333, "fusion_lon": 0.0, "fusion_lat": 0.0, "type": "electric_scooter", "name": "7a52f87ffa394f03e8a614d860d4e1ae", "is_disabled": 0, "rental_uris": {"ios": "https://dc.lft.to/lastmile_qr_scan", "android": "https://dc.lft.to/lastmile_qr_scan"}, "is_reserved": 0}, {"lon": -77.02158266666666, "bike_id": "1fbf3e4c4528d7d80f4deadce130586c", "lat": 38.9030715, "fusion_lon": 0.0, "fusion_lat": 0.0, "type": "electric_scooter", "name": "1fbf3e4c4528d7d80f4deadce130586c", "is_disabled": 0, "rental_uris": {"ios": "https://dc.lft.to/lastmile_qr_scan", "android": "https://dc.lft.to/lastmile_qr_scan"}, "is_reserved": 0}, {"lon": -76.97514566666666, "bike_id": "2ebaa7d783368252e139816b3be8b8ba", "lat": 38.8659255, "fusion_lon": 0.0, "fusion_lat": 0.0, "type": "electric_scooter", "name": "2ebaa7d783368252e139816b3be8b8ba", "is_disabled": 0, "rental_uris": {"ios": "https://dc.lft.to/lastmile_qr_scan", "android": "https://dc.lft.to/lastmile_qr_scan"}, "is_reserved": 0}, {"lon": -77.0459865, "bike_id": "48ee5c922a1c90698285c44cb9f54d70", "lat": 39.02454066666667, "fusion_lon": 0.0, "fusion_lat": 0.0, "type": "electric_bike", "name": "48ee5c922a1c90698285c44cb9f54d70", "is_disabled": 0, "rental_uris": {"ios": "https://dc.lft.to/lastmile_qr_scan", "android": "https://dc.lft.to/lastmile_qr_scan"}, "is_reserved": 0}, {"lon": -76.99957233333333, "bike_id": "b8a2cfffca61290c3a4972fcc39562ca", "lat": 38.90863783333333, "fusion_lon": 0.0, "fusion_lat": 0.0, "type": "electric_bike", "name": "b8a2cfffca61290c3a4972fcc39562ca", "is_disabled": 0, "rental_uris": {"ios": "https://dc.lft.to/lastmile_qr_scan", "android": "https://dc.lft.to/lastmile_qr_scan"}, "is_reserved": 0}, {"lon": -77.036618, "bike_id": "172af0f9337a2f8661623238510e63aa", "lat": 38.922925166666666, "fusion_lon": 0.0, "fusion_lat": 0.0, "type": "electric_scooter", "name": "172af0f9337a2f8661623238510e63aa", "is_disabled": 0, "rental_uris": {"ios": "https://dc.lft.to/lastmile_qr_scan", "android": "https://dc.lft.to/lastmile_qr_scan"}, "is_reserved": 0}, {"lon": -77.030461, "bike_id": "55001ab948302d26282a4843545b576d", "lat": 38.913337166666665, "fusion_lon": 0.0, "fusion_lat": 0.0, "type": "electric_scooter", "name": "55001ab948302d26282a4843545b576d", "is_disabled": 0, "rental_uris": {"ios": "https://dc.lft.to/lastmile_qr_scan", "android": "https://dc.lft.to/lastmile_qr_scan"}, "is_reserved": 0}, {"lon": -77.02964766666666, "bike_id": "7694b59b37990bf7097d816a97826b16", "lat": 38.91672883333333, "fusion_lon": 0.0, "fusion_lat": 0.0, "type": "electric_scooter", "name": "7694b59b37990bf7097d816a97826b16", "is_disabled": 0, "rental_uris": {"ios": "https://dc.lft.to/lastmile_qr_scan", "android": "https://dc.lft.to/lastmile_qr_scan"}, "is_reserved": 0}, {"lon": -77.02529983333334, "bike_id": "990fcd925979edea3f03773eadcbf313", "lat": 38.937494, "fusion_lon": 0.0, "fusion_lat": 0.0, "type": "electric_scooter", "name": "990fcd925979edea3f03773eadcbf313", "is_disabled": 0, "rental_uris": {"ios": "https://dc.lft.to/lastmile_qr_scan", "android": "https://dc.lft.to/lastmile_qr_scan"}, "is_reserved": 0}, {"lon": -77.0038245, "bike_id": "4c0ee8ea2804137d1e66f30637286706", "lat": 38.87638183333333, "fusion_lon": 0.0, "fusion_lat": 0.0, "type": "electric_scooter", "name": "4c0ee8ea2804137d1e66f30637286706", "is_disabled": 0, "rental_uris": {"ios": "https://dc.lft.to/lastmile_qr_scan", "android": "https://dc.lft.to/lastmile_qr_scan"}, "is_reserved": 0}, {"lon": -76.98616483333333, "bike_id": "ca3ef25b4e4266e4e253dcd5214c6711", "lat": 38.90584033333333, "fusion_lon": 0.0, "fusion_lat": 0.0, "type": "electric_scooter", "name": "ca3ef25b4e4266e4e253dcd5214c6711", "is_disabled": 0, "rental_uris": {"ios": "https://dc.lft.to/lastmile_qr_scan", "android": "https://dc.lft.to/lastmile_qr_scan"}, "is_reserved": 0}, {"lon": -77.0319235, "bike_id": "6bccc36bca99db3c612b9b9513f178fe", "lat": 38.8841395, "fusion_lon": 0.0, "fusion_lat": 0.0, "type": "electric_scooter", "name": "6bccc36bca99db3c612b9b9513f178fe", "is_disabled": 0, "rental_uris": {"ios": "https://dc.lft.to/lastmile_qr_scan", "android": "https://dc.lft.to/lastmile_qr_scan"}, "is_reserved": 0}, {"lon": -77.02175616666666, "bike_id": "1777c45dd8751ec47a973c98f0dd662b", "lat": 38.94291166666667, "fusion_lon": 0.0, "fusion_lat": 0.0, "type": "electric_scooter", "name": "1777c45dd8751ec47a973c98f0dd662b", "is_disabled": 0, "rental_uris": {"ios": "https://dc.lft.to/lastmile_qr_scan", "android": "https://dc.lft.to/lastmile_qr_scan"}, "is_reserved": 0}, {"lon": -76.95013466666667, "bike_id": "5f0b01470fd50769b6b433e3e10d7322", "lat": 38.89398416666667, "fusion_lon": 0.0, "fusion_lat": 0.0, "type": "electric_scooter", "name": "5f0b01470fd50769b6b433e3e10d7322", "is_disabled": 0, "rental_uris": {"ios": "https://dc.lft.to/lastmile_qr_scan", "android": "https://dc.lft.to/lastmile_qr_scan"}, "is_reserved": 0}, {"lon": -77.03259933333334, "bike_id": "6004b030374b6a9b0061d4b0e0f0f1cd", "lat": 38.897084166666666, "fusion_lon": 0.0, "fusion_lat": 0.0, "type": "electric_bike", "name": "6004b030374b6a9b0061d4b0e0f0f1cd", "is_disabled": 0, "rental_uris": {"ios": "https://dc.lft.to/lastmile_qr_scan", "android": "https://dc.lft.to/lastmile_qr_scan"}, "is_reserved": 0}, {"lon": -77.01407716666667, "bike_id": "93194bae6b073972b63edaeb2cea68ad", "lat": 38.928323666666664, "fusion_lon": 0.0, "fusion_lat": 0.0, "type": "electric_scooter", "name": "93194bae6b073972b63edaeb2cea68ad", "is_disabled": 0, "rental_uris": {"ios": "https://dc.lft.to/lastmile_qr_scan", "android": "https://dc.lft.to/lastmile_qr_scan"}, "is_reserved": 0}, {"lon": -77.04322733333333, "bike_id": "bd3fb6a110eb400e55393bca436396ce", "lat": 38.918775833333335, "fusion_lon": 0.0, "fusion_lat": 0.0, "type": "electric_scooter", "name": "bd3fb6a110eb400e55393bca436396ce", "is_disabled": 0, "rental_uris": {"ios": "https://dc.lft.to/lastmile_qr_scan", "android": "https://dc.lft.to/lastmile_qr_scan"}, "is_reserved": 0}, {"lon": -77.0013375, "bike_id": "e4f8261f3cb4f6cdcadc888a16261ec3", "lat": 38.84280833333333, "fusion_lon": 0.0, "fusion_lat": 0.0, "type": "electric_scooter", "name": "e4f8261f3cb4f6cdcadc888a16261ec3", "is_disabled": 0, "rental_uris": {"ios": "https://dc.lft.to/lastmile_qr_scan", "android": "https://dc.lft.to/lastmile_qr_scan"}, "is_reserved": 0}, {"lon": -77.02692833333333, "bike_id": "3f8db6fc07ac099e6a8d5a25296113a3", "lat": 38.948896166666664, "fusion_lon": 0.0, "fusion_lat": 0.0, "type": "electric_scooter", "name": "3f8db6fc07ac099e6a8d5a25296113a3", "is_disabled": 0, "rental_uris": {"ios": "https://dc.lft.to/lastmile_qr_scan", "android": "https://dc.lft.to/lastmile_qr_scan"}, "is_reserved": 0}, {"lon": -77.03196883333334, "bike_id": "c2659328e2dc5495502011b65c794430", "lat": 38.922875, "fusion_lon": 0.0, "fusion_lat": 0.0, "type": "electric_scooter", "name": "c2659328e2dc5495502011b65c794430", "is_disabled": 0, "rental_uris": {"ios": "https://dc.lft.to/lastmile_qr_scan", "android": "https://dc.lft.to/lastmile_qr_scan"}, "is_reserved": 0}, {"lon": -76.985345, "bike_id": "e25e3bed08dd84cc6b739a82e84864dc", "lat": 38.910221, "fusion_lon": 0.0, "fusion_lat": 0.0, "type": "electric_scooter", "name": "e25e3bed08dd84cc6b739a82e84864dc", "is_disabled": 0, "rental_uris": {"ios": "https://dc.lft.to/lastmile_qr_scan", "android": "https://dc.lft.to/lastmile_qr_scan"}, "is_reserved": 0}, {"lon": -77.03652066666666, "bike_id": "1b890c5c21b1f4a749cd92056336f44e", "lat": 38.921047, "fusion_lon": 0.0, "fusion_lat": 0.0, "type": "electric_scooter", "name": "1b890c5c21b1f4a749cd92056336f44e", "is_disabled": 0, "rental_uris": {"ios": "https://dc.lft.to/lastmile_qr_scan", "android": "https://dc.lft.to/lastmile_qr_scan"}, "is_reserved": 0}, {"lon": -77.0268195, "bike_id": "6a4200eded13fbc47142a7381f14b7b5", "lat": 38.984867333333334, "fusion_lon": 0.0, "fusion_lat": 0.0, "type": "electric_scooter", "name": "6a4200eded13fbc47142a7381f14b7b5", "is_disabled": 0, "rental_uris": {"ios": "https://dc.lft.to/lastmile_qr_scan", "android": "https://dc.lft.to/lastmile_qr_scan"}, "is_reserved": 0}, {"lon": -77.01534083333334, "bike_id": "626620e81b8b710dc6be6df8801d2ab8", "lat": 38.883224166666665, "fusion_lon": 0.0, "fusion_lat": 0.0, "type": "electric_scooter", "name": "626620e81b8b710dc6be6df8801d2ab8", "is_disabled": 0, "rental_uris": {"ios": "https://dc.lft.to/lastmile_qr_scan", "android": "https://dc.lft.to/lastmile_qr_scan"}, "is_reserved": 0}, {"lon": -77.04261333333334, "bike_id": "6f2f0d8746e89b52f74bea0560e09b45", "lat": 38.916914, "fusion_lon": 0.0, "fusion_lat": 0.0, "type": "electric_scooter", "name": "6f2f0d8746e89b52f74bea0560e09b45", "is_disabled": 0, "rental_uris": {"ios": "https://dc.lft.to/lastmile_qr_scan", "android": "https://dc.lft.to/lastmile_qr_scan"}, "is_reserved": 0}, {"lon": -77.02155666666667, "bike_id": "d23a6ca8229562676032c52269e39ca6", "lat": 38.92600016666667, "fusion_lon": 0.0, "fusion_lat": 0.0, "type": "electric_scooter", "name": "d23a6ca8229562676032c52269e39ca6", "is_disabled": 0, "rental_uris": {"ios": "https://dc.lft.to/lastmile_qr_scan", "android": "https://dc.lft.to/lastmile_qr_scan"}, "is_reserved": 0}, {"lon": -77.06347166666667, "bike_id": "cb5cded274f695a07b78764a99696f11", "lat": 38.94450916666667, "fusion_lon": 0.0, "fusion_lat": 0.0, "type": "electric_scooter", "name": "cb5cded274f695a07b78764a99696f11", "is_disabled": 0, "rental_uris": {"ios": "https://dc.lft.to/lastmile_qr_scan", "android": "https://dc.lft.to/lastmile_qr_scan"}, "is_reserved": 0},