{"data": {"bikes": [{"rental_uris": {"ios": "https://dc.lft.to/lastmile_qr_scan", "android": "https://dc.lft.to/lastmile_qr_scan"}, "lon": -77.04382566666666, "type": "electric_scooter", "fusion_lat": 0.0, "lat": 38.91659966666667, "name": "e209d7b0061d657c76ad023c84c8156b", "fusion_lon": 0.0, "bike_id": "e209d7b0061d657c76ad023c84c8156b", "is_disabled": 0, "is_reserved": 0}, {"rental_uris": {"ios": "https://dc.lft.to/lastmile_qr_scan", "android": "https://dc.lft.to/lastmile_qr_scan"}, "lon": -77.0373015, "type": "electric_scooter", "fusion_lat": 0.0, "lat": 38.933582, "name": "ccf1b7ea584f5363bc3ad3e3a955553d", "fusion_lon": 0.0, "bike_id": "ccf1b7ea584f5363bc3ad3e3a955553d", "is_disabled": 0, "is_reserved": 0}, {"rental_uris": {"ios": "https://dc.lft.to/lastmile_qr_scan", "android": "https://dc.lft.to/lastmile_qr_scan"}, "lon": -77.0513895, "type": "electric_scooter", "fusion_lat": 0.0, "lat": 38.90231083333333, "name": "58904f8ce1fcfde283dd37dcec644d21", "fusion_lon": 0.0, "bike_id": "58904f8ce1fcfde283dd37dcec644d21", "is_disabled": 0, "is_reserved": 0}, {"rental_uris": {"ios": "https://dc.lft.to/lastmile_qr_scan", "android": "https://dc.lft.to/lastmile_qr_scan"}, "lon": -77.1120385, "type": "electric_bike", "fusion_lat": 0.0, "lat": 38.813085, "name": "6f4538436fdced16bc59f6299bdccae7", "fusion_lon": 0.0, "bike_id": "6f4538436fdced16bc59f6299bdccae7", "is_disabled": 0, "is_reserved": 0}, {"rental_uris": {"ios": "https://dc.lft.to/lastmile_qr_scan", "android": "https://dc.lft.to/lastmile_qr_scan"}, "lon": -77.04173783333333, "type": "electric_scooter", "fusion_lat": 0.0, "lat": 38.911531, "name": "ccf9fdf4cba7fa1969b1af3636bcb34c", "fusion_lon": 0.0, "bike_id": "ccf9fdf4cba7fa1969b1af3636bcb34c", "is_disabled": 0, "is_reserved": 0}, {"rental_uris": {"ios": "https://dc.lft.to/lastmile_qr_scan", "android": "https://dc.lft.to/lastmile_qr_scan"}, "lon": -77.1225795, "type": "electric_bike", "fusion_lat": 0.0, "lat": 38.891889, "name": "8c1e74656eeecaf33e4de8a16a229b21", "fusion_lon": 0.0, "bike_id": "8c1e74656eeecaf33e4de8a16a229b21", "is_disabled": 0, "is_reserved": 0}, {"rental_uris": {"ios": "https://dc.lft.to/lastmile_qr_scan", "android": "https://dc.lft.to/lastmile_qr_scan"}, "lon": -77.0241125, "type": "electric_scooter", "fusion_lat": 0.0, "lat": 38.89219966666667, "name": "01c64f54a890fab1f14cdaa072cc067c", "fusion_lon": 0.0, "bike_id": "01c64f54a890fab1f14cdaa072cc067c", "is_disabled": 0, "is_reserved": 0}, {"rental_uris": {"ios": "https://dc.lft.to/lastmile_qr_scan", "android": "https://dc.lft.to/lastmile_qr_scan"}, "lon": -76.93520633333333, "type": "electric_bike", "fusion_lat": 0.0, "lat": 38.955501, "name": "46f495933f453494a8302b8390090035", "fusion_lon": 0.0, "bike_id": "46f495933f453494a8302b8390090035", "is_disabled": 0, "is_reserved": 0}, {"rental_uris": {"ios": "https://dc.lft.to/lastmile_qr_scan", "android": "https://dc.lft.to/lastmile_qr_scan"}, "lon": -77.076804, "type": "electric_bike", "fusion_lat": 0.0, "lat": 38.8319325, "name": "82d75b1139140bd341421f8ba290305c", "fusion_lon": 0.0, "bike_id": "82d75b1139140bd341421f8ba290305c", "is_disabled": 0, "is_reserved": 0}, {"rental_uris": {"ios": "https://dc.lft.to/lastmile_qr_scan", "android": "https://dc.lft.to/lastmile_qr_scan"}, "lon": -77.043778, "type": "electric_scooter", "fusion_lat": 0.0, "lat": 38.920718, "name": "0b8d00639f195163d2c15fdf68017d21", "fusion_lon": 0.0, "bike_id": "0b8d00639f195163d2c15fdf68017d21", "is_disabled": 0, "is_reserved": 0}, {"rental_uris": {"ios": "https://dc.lft.to/lastmile_qr_scan", "android": "https://dc.lft.to/lastmile_qr_scan"}, "lon": -77.03200983333333, "type": "electric_scooter", "fusion_lat": 0.0, "lat": 38.918085833333336, "name": "0aeae8450f7fa50218030fe9daa49cd4", "fusion_lon": 0.0, "bike_id": "0aeae8450f7fa50218030fe9daa49cd4", "is_disabled": 0, "is_reserved": 0}, {"rental_uris": {"ios": "https://dc.lft.to/lastmile_qr_scan", "android": "https://dc.lft.to/lastmile_qr_scan"}, "lon": -76.97808466666666, "type": "electric_scooter", "fusion_lat": 0.0, "lat": 38.906756666666666, "name": "86c6b5988be20d9f8db2c141e1ffc3fa", "fusion_lon": 0.0, "bike_id": "86c6b5988be20d9f8db2c141e1ffc3fa", "is_disabled": 0, "is_reserved": 0}, {"rental_uris": {"ios": "https://dc.lft.to/lastmile_qr_scan", "android": "https://dc.lft.to/lastmile_qr_scan"}, "lon": -77.032168, "type": "electric_scooter", "fusion_lat": 0.0, "lat": 38.9258665, "name": "c91db6e291e92ed2684b6a4c8318423d", "fusion_lon": 0.0, "bike_id": "c91db6e291e92ed2684b6a4c8318423d", "is_disabled": 0, "is_reserved": 0}, {"rental_uris": {"ios": "https://dc.lft.to/lastmile_qr_scan", "android": "https://dc.lft.to/lastmile_qr_scan"}, "lon": -76.9895305, "type": "electric_scooter", "fusion_lat": 0.0, "lat": 38.9013855, "name": "b9771935f4ab38d74fa9c62f93d94af1", "fusion_lon": 0.0, "bike_id": "b9771935f4ab38d74fa9c62f93d94af1", "is_disabled": 0, "is_reserved": 0}, {"rental_uris": {"ios": "https://dc.lft.to/lastmile_qr_scan", "android": "https://dc.lft.to/lastmile_qr_scan"}, "lon": -76.98840033333333, "type": "electric_bike", "fusion_lat": 0.0, "lat": 38.84274116666667, "name": "cb7dace16a32773455d82a4af3837477", "fusion_lon": 0.0, "bike_id": "cb7dace16a32773455d82a4af3837477", "is_disabled": 0, "is_reserved": 0}, {"rental_uris": {"ios": "https://dc.lft.to/lastmile_qr_scan", "android": "https://dc.lft.to/lastmile_qr_scan"}, "lon": -77.04363283333333, "type": "electric_scooter", "fusion_lat": 0.0, "lat": 38.892320166666664, "name": "1909cd3482fe815b1d04edfe87006aee", "fusion_lon": 0.0, "bike_id": "1909cd3482fe815b1d04edfe87006aee", "is_disabled": 0, "is_reserved": 0}, {"rental_uris": {"ios": "https://dc.lft.to/lastmile_qr_scan", "android": "https://dc.lft.to/lastmile_qr_scan"}, "lon": -77.03459966666667, "type": "electric_scooter", "fusion_lat": 0.0, "lat": 38.90639133333333, "name": "8a0483be85636c4a60ed0847f2644d24", "fusion_lon": 0.0, "bike_id": "8a0483be85636c4a60ed0847f2644d24", "is_disabled": 0, "is_reserved": 0}, {"rental_uris": {"ios": "https://dc.lft.to/lastmile_qr_scan", "android": "https://dc.lft.to/lastmile_qr_scan"}, "lon": -77.01228866666666, "type": "electric_scooter", "fusion_lat": 0.0, "lat": 38.9003695, "name": "b444c78bff09302744a7a2c652b6b363", "fusion_lon": 0.0, "bike_id": "b444c78bff09302744a7a2c652b6b363", "is_disabled": 0, "is_reserved": 0}, {"rental_uris": {"ios": "https://dc.lft.to/lastmile_qr_scan", "android": "https://dc.lft.to/lastmile_qr_scan"}, "lon": -77.03787383333334, "type": "electric_scooter", "fusion_lat": 0.0, "lat": 38.92627566666667, "name": "8f38f75a7d12a941212382c77147cdfb", "fusion_lon": 0.0, "bike_id": "8f38f75a7d12a941212382c77147cdfb", "is_disabled": 0, "is_reserved": 0}, {"rental_uris": {"ios": "https://dc.lft.to/lastmile_qr_scan", "android": "https://dc.lft.to/lastmile_qr_scan"}, "lon": -77.01578716666667, "type": "electric_scooter", "fusion_lat": 0.0, "lat": 38.876644166666665, "name": "f886d75693e7a2356896713354b4a66e", "fusion_lon": 0.0, "bike_id": "f886d75693e7a2356896713354b4a66e", "is_disabled": 0, "is_reserved": 0}, {"rental_uris": {"ios": "https://dc.lft.to/lastmile_qr_scan", "android": "https://dc.lft.to/lastmile_qr_scan"}, "lon": -77.07772483333333, "type": "electric_scooter", "fusion_lat": 0.0, "lat": 38.945608166666666, "name": "fb8d01f902a680347409aa2b91729806", "fusion_lon": 0.0, "bike_id": "fb8d01f902a680347409aa2b91729806", "is_disabled": 0, "is_reserved": 0}, {"rental_uris": {"ios": "https://dc.lft.to/lastmile_qr_scan", "android": "https://dc.lft.to/lastmile_qr_scan"}, "lon": -77.024117, "type": "electric_scooter", "fusion_lat": 0.0, "lat": 38.921808, "name": "3dea5b667631be554e4f7e9c844bfb17", "fusion_lon": 0.0, "bike_id": "3dea5b667631be554e4f7e9c844bfb17", "is_disabled": 0, "is_reserved": 0}, {"rental_uris": {"ios": "https://dc.lft.to/lastmile_qr_scan", "android": "https://dc.lft.to/lastmile_qr_scan"}, "lon": -77.03847266666666, "type": "electric_scooter", "fusion_lat": 0.0, "lat": 38.90476133333333, "name": "e759c24ef9f8e1b233c8a26d3d07a321", "fusion_lon": 0.0, "bike_id": "e759c24ef9f8e1b233c8a26d3d07a321", "is_disabled": 0, "is_reserved": 0}, {"rental_uris": {"ios": "https://dc.lft.to/lastmile_qr_scan", "android": "https://dc.lft.to/lastmile_qr_scan"}, "lon": -77.04900966666666, "type": "electric_scooter", "fusion_lat": 0.0, "lat": 38.903831, "name": "2a7b089e3748d23e90da0beaf1a29502", "fusion_lon": 0.0, "bike_id": "2a7b089e3748d23e90da0beaf1a29502", "is_disabled": 0, "is_reserved": 0}, {"rental_uris": {"ios": "https://dc.lft.to/lastmile_qr_scan", "android": "https://dc.lft.to/lastmile_qr_scan"}, "lon": -77.03860516666667, "type": "electric_scooter", "fusion_lat": 0.0, "lat": 38.9215215, "name": "fc6fcd76811ff3527773780d5b666936", "fusion_lon": 0.0, "bike_id": "fc6fcd76811ff3527773780d5b666936", "is_disabled": 0, "is_reserved": 0}, {"rental_uris": {"ios": "https://dc.lft.to/lastmile_qr_scan", "android": "https://dc.lft.to/lastmile_qr_scan"}, "lon": -77.03187283333334, "type": "electric_scooter", "fusion_lat": 0.0, "lat": 38.918000666666664, "name": "d35a2b8b8f14486dfbc0eaff3d4e3ffe", "fusion_lon": 0.0, "bike_id": "d35a2b8b8f14486dfbc0eaff3d4e3ffe", "is_disabled": 0, "is_reserved": 0}, {"rental_uris": {"ios": "https://dc.lft.to/lastmile_qr_scan", "android": "https://dc.lft.to/lastmile_qr_scan"}, "lon": -76.965255, "type": "electric_scooter", "fusion_lat": 0.0, "lat": 38.876305333333335, "name": "dff18105eb34ae991a022b0448c41837", "fusion_lon": 0.0, "bike_id": "dff18105eb34ae991a022b0448c41837", "is_disabled": 0, "is_reserved": 0}, {"rental_uris": {"ios": "https://dc.lft.to/lastmile_qr_scan", "android": "https://dc.lft.to/lastmile_qr_scan"}, "lon": -77.0480615, "type": "electric_bike", "fusion_lat": 0.0, "lat": 38.88817616666667, "name": "f745d429cd8db137a330c7db40695542", "fusion_lon": 0.0, "bike_id": "f745d429cd8db137a330c7db40695542", "is_disabled": 0, "is_reserved": 0}, {"rental_uris": {"ios": "https://dc.lft.to/lastmile_qr_scan", "android": "https://dc.lft.to/lastmile_qr_scan"}, "lon": -77.0343965, "type": "electric_scooter", "fusion_lat": 0.0, "lat": 38.91824533333333, "name": "bd96584b40dd73bbfc53722f273e5678", "fusion_lon": 0.0, "bike_id": "bd96584b40dd73bbfc53722f273e5678", "is_disabled": 0, "is_reserved": 0}, {"rental_uris": {"ios": "https://dc.lft.to/lastmile_qr_scan", "android": "https://dc.lft.to/lastmile_qr_scan"}, "lon": -77.03213483333333, "type": "electric_scooter", "fusion_lat": 0.0, "lat": 38.911958166666665, "name": "32f055e96f669eac31a3c9b7d553c578", "fusion_lon": 0.0, "bike_id": "32f055e96f669eac31a3c9b7d553c578", "is_disabled": 0, "is_reserved": 0}, {"rental_uris": {"ios": "https://dc.lft.to/lastmile_qr_scan", "android": "https://dc.lft.to/lastmile_qr_scan"}, "lon": -77.032172, "type": "electric_scooter", "fusion_lat": 0.0, "lat": 38.92590233333333, "name": "63c2569d7f81261d4103b4f8d6b6a207", "fusion_lon": 0.0, "bike_id": "63c2569d7f81261d4103b4f8d6b6a207", "is_disabled": 0, "is_reserved": 0}, {"rental_uris": {"ios": "https://dc.lft.to/lastmile_qr_scan", "android": "https://dc.lft.to/lastmile_qr_scan"}, "lon": -76.963727, "type": "electric_bike", "fusion_lat": 0.0, "lat": 38.94898333333333, "name": "dd5d13e6c14aa16cd55b01e30a787742", "fusion_lon": 0.0, "bike_id": "dd5d13e6c14aa16cd55b01e30a787742", "is_disabled": 0, "is_reserved": 0}, {"rental_uris": {"ios": "https://dc.lft.to/lastmile_qr_scan", "android": "https://dc.lft.to/lastmile_qr_scan"}, "lon": -77.01109133333334, "type": "electric_scooter", "fusion_lat": 0.0, "lat": 38.90357, "name": "867c72801ee7a207fc9b25ea994bf188", "fusion_lon": 0.0, "bike_id": "867c72801ee7a207fc9b25ea994bf188", "is_disabled": 0, "is_reserved": 0}, {"rental_uris": {"ios": "https://dc.lft.to/lastmile_qr_scan", "android": "https://dc.lft.to/lastmile_qr_scan"}, "lon": -77.0369065, "type": "electric_scooter", "fusion_lat": 0.0, "lat": 38.93055733333333, "name": "83276e32c0241442b934f9f7d6d79287", "fusion_lon": 0.0, "bike_id": "83276e32c0241442b934f9f7d6d79287", "is_disabled": 0, "is_reserved": 0}, {"rental_uris": {"ios": "https://dc.lft.to/lastmile_qr_scan", "android": "https://dc.lft.to/lastmile_qr_scan"}, "lon": -76.9475885, "type": "electric_scooter", "fusion_lat": 0.0, "lat": 38.90062566666667, "name": "705a2cb9ac5f797c82860370e9dcbd34", "fusion_lon": 0.0, "bike_id": "705a2cb9ac5f797c82860370e9dcbd34", "is_disabled": 0, "is_reserved": 0}, {"rental_uris": {"ios": "https://dc.lft.to/lastmile_qr_scan", "android": "https://dc.lft.to/lastmile_qr_scan"}, "lon": -76.99148433333333, "type": "electric_scooter", "fusion_lat": 0.0, "lat": 38.900406333333336, "name": "59f6a5e573cbc005f18b9e9019534c1e", "fusion_lon": 0.0, "bike_id": "59f6a5e573cbc005f18b9e9019534c1e", "is_disabled": 0, "is_reserved": 0}, {"rental_uris": {"ios": "https://dc.lft.to/lastmile_qr_scan", "android": "https://dc.lft.to/lastmile_qr_scan"}, "lon": -77.03865983333333, "type": "electric_scooter", "fusion_lat": 0.0, "lat": 38.9156285, "name": "b829de8c2eb946b4afe93d32a4e5af95", "fusion_lon": 0.0, "bike_id": "b829de8c2eb946b4afe93d32a4e5af95", "is_disabled": 0, "is_reserved": 0}, {"rental_uris": {"ios": "https://dc.lft.to/lastmile_qr_scan", "android": "https://dc.lft.to/lastmile_qr_scan"}, "lon": -76.9541025, "type": "electric_scooter", "fusion_lat": 0.0, "lat": 38.890001, "name": "ef89e4b70ceeaa417f222a0202079eb9", "fusion_lon": 0.0, "bike_id": "ef89e4b70ceeaa417f222a0202079eb9", "is_disabled": 0, "is_reserved": 0}, {"rental_uris": {"ios": "https://dc.lft.to/lastmile_qr_scan", "android": "https://dc.lft.to/lastmile_qr_scan"}, "lon": -77.05464783333333, "type": "electric_scooter", "fusion_lat": 0.0, "lat": 38.920964166666664, "name": "6021947699e69c3c1f61a35bd86902e6", "fusion_lon": 0.0, "bike_id": "6021947699e69c3c1f61a35bd86902e6", "is_disabled": 0, "is_reserved": 0}, {"rental_uris": {"ios": "https://dc.lft.to/lastmile_qr_scan", "android": "https://dc.lft.to/lastmile_qr_scan"}, "lon": -77.02093533333333, "type": "electric_scooter", "fusion_lat": 0.0, "lat": 38.914167, "name": "aca0e7dd78844530b6fdd57f642988ef", "fusion_lon": 0.0, "bike_id": "aca0e7dd78844530b6fdd57f642988ef", "is_disabled": 0, "is_reserved": 0}, {"rental_uris": {"ios": "https://dc.lft.to/lastmile_qr_scan", "android": "https://dc.lft.to/lastmile_qr_scan"}, "lon": -77.046325, "type": "electric_scooter", "fusion_lat": 0.0, "lat": 38.906615333333335, "name": "72ffbbc9ff2951221db91fc323ac7347", "fusion_lon": 0.0, "bike_id": "72ffbbc9ff2951221db91fc323ac7347", "is_disabled": 0, "is_reserved": 0}, {"rental_uris": {"ios": "https://dc.lft.to/lastmile_qr_scan", "android": "https://dc.lft.to/lastmile_qr_scan"}, "lon": -76.98711083333333, "type": "electric_scooter", "fusion_lat": 0.0, "lat": 38.862601, "name": "ca68c4e29c825debc7ba2c0717ce4a2f", "fusion_lon": 0.0, "bike_id": "ca68c4e29c825debc7ba2c0717ce4a2f", "is_disabled": 0, "is_reserved": 0}, {"rental_uris": {"ios": "https://dc.lft.to/lastmile_qr_scan", "android": "https://dc.lft.to/lastmile_qr_scan"}, "lon": -77.03617416666667, "type": "electric_scooter", "fusion_lat": 0.0, "lat": 38.93253033333333, "name": "b1961f42d94ea42dbdf72633580a2b65", "fusion_lon": 0.0, "bike_id": "b1961f42d94ea42dbdf72633580a2b65", "is_disabled": 0, "is_reserved": 0}, {"rental_uris": {"ios": "https://dc.lft.to/lastmile_qr_scan", "android": "https://dc.lft.to/lastmile_qr_scan"}, "lon": -76.94178483333333, "type": "electric_scooter", "fusion_lat": 0.0, "lat": 38.882197166666664, "name": "d9883bc24afc47b859ff9a8415ad5623", "fusion_lon": 0.0, "bike_id": "d9883bc24afc47b859ff9a8415ad5623", "is_disabled": 0, "is_reserved": 0}, {"rental_uris": {"ios": "https://dc.lft.to/lastmile_qr_scan", "android": "https://dc.lft.to/lastmile_qr_scan"}, "lon": -77.044869, "type": "electric_scooter", "fusion_lat": 0.0, "lat": 38.9105335, "name": "da9ae9071ea9f2412d41a9fbc95e70e3", "fusion_lon": 0.0, "bike_id": "da9ae9071ea9f2412d41a9fbc95e70e3", "is_disabled": 0, "is_reserved": 0}, {"rental_uris": {"ios": "https://dc.lft.to/lastmile_qr_scan", "android": "https://dc.lft.to/lastmile_qr_scan"}, "lon": -77.04257066666666, "type": "electric_scooter", "fusion_lat": 0.0, "lat": 38.922124, "name": "10e50bca863c7da71859a7785fabfcc3", "fusion_lon": 0.0, "bike_id": "10e50bca863c7da71859a7785fabfcc3", "is_disabled": 0, "is_reserved": 0}, {"rental_uris": {"ios": "https://dc.lft.to/lastmile_qr_scan", "android": "https://dc.lft.to/lastmile_qr_scan"}, "lon": -77.04445433333333, "type": "electric_scooter", "fusion_lat": 0.0, "lat": 38.91019633333333, "name": "123cd9195622bebf726978087d141f17", "fusion_lon": 0.0, "bike_id": "123cd9195622bebf726978087d141f17", "is_disabled": 0, "is_reserved": 0}, {"rental_uris": {"ios": "https://dc.lft.to/lastmile_qr_scan", "android": "https://dc.lft.to/lastmile_qr_scan"}, "lon": -77.01967166666667, "type": "electric_scooter", "fusion_lat": 0.0, "lat": 38.9342145, "name": "3d091bfbaa31c9fc09bd135f2e6197f4", "fusion_lon": 0.0, "bike_id": "3d091bfbaa31c9fc09bd135f2e6197f4", "is_disabled": 0, "is_reserved": 0}, {"rental_uris": {"ios": "https://dc.lft.to/lastmile_qr_scan", "android": "https://dc.lft.to/lastmile_qr_scan"}, "lon": -77.02363616666666, "type": "electric_scooter", "fusion_lat": 0.0, "lat": 38.895533666666665, "name": "0a36af97a731fd52f2acf34e61a97046", "fusion_lon": 0.0, "bike_id": "0a36af97a731fd52f2acf34e61a97046", "is_disabled": 0, "is_reserved": 0}, {"rental_uris": {"ios": "https://dc.lft.to/lastmile_qr_scan", "android": "https://dc.lft.to/lastmile_qr_scan"}, "lon": -77.032788, "type": "electric_scooter", "fusion_lat": 0.0, "lat": 38.938992999999996, "name": "b7ac9cab343d1902797f69954333f08b", "fusion_lon": 0.0, "bike_id": "b7ac9cab343d1902797f69954333f08b", "is_disabled": 0, "is_reserved": 0}, {"rental_uris": {"ios": "https://dc.lft.to/lastmile_qr_scan", "android": "https://dc.lft.to/lastmile_qr_scan"}, "lon": -76.98158483333333, "type": "electric_scooter", "fusion_lat": 0.0, "lat": 38.93297066666667, "name": "2454c37666e1b1b167bba06a73875ec6", "fusion_lon": 0.0, "bike_id": "2454c37666e1b1b167bba06a73875ec6", "is_disabled": 0, "is_reserved": 0}, {"rental_uris": {"ios": "https://dc.lft.to/lastmile_qr_scan", "android": "https://dc.lft.to/lastmile_qr_scan"}, "lon": -77.04681333333333, "type": "electric_scooter", "fusion_lat": 0.0, "lat": 38.90067583333333, "name": "7f4642604c37860177f07dbefa23ec4c", "fusion_lon": 0.0, "bike_id": "7f4642604c37860177f07dbefa23ec4c", "is_disabled": 0, "is_reserved": 0}, {"rental_uris": {"ios": "https://dc.lft.to/lastmile_qr_scan", "android": "https://dc.lft.to/lastmile_qr_scan"}, "lon": -76.98692083333333, "type": "electric_scooter", "fusion_lat": 0.0, "lat": 38.9070875, "name": "1c1e2966dd4a62451d7a3d18ed853901", "fusion_lon": 0.0, "bike_id": "1c1e2966dd4a62451d7a3d18ed853901", "is_disabled": 0, "is_reserved": 0}, {"rental_uris": {"ios": "https://dc.lft.to/lastmile_qr_scan", "android": "https://dc.lft.to/lastmile_qr_scan"}, "lon": -77.029555, "type": "electric_scooter", "fusion_lat": 0.0, "lat": 38.8972945, "name": "63df86d0258a12401296e99b4d995350", "fusion_lon": 0.0, "bike_id": "63df86d0258a12401296e99b4d995350", "is_disabled": 0, "is_reserved": 0}, {"rental_uris": {"ios": "https://dc.lft.to/lastmile_qr_scan", "android": "https://dc.lft.to/lastmile_qr_scan"}, "lon": -77.04101716666666, "type": "electric_scooter", "fusion_lat": 0.0, "lat": 38.9212115, "name": "8ccd22c890d4a87d21be399599330db0", "fusion_lon": 0.0, "bike_id": "8ccd22c890d4a87d21be399599330db0", "is_disabled": 0, "is_reserved": 0}, {"rental_uris": {"ios": "https://dc.lft.to/lastmile_qr_scan", "android": "https://dc.lft.to/lastmile_qr_scan"}, "lon": -77.02402016666667, "type": "electric_scooter", "fusion_lat": 0.0, "lat": 38.93085966666666, "name": "36ee6a2ac3e36e140cf7a685c80c8156", "fusion_lon": 0.0, "bike_id": "36ee6a2ac3e36e140cf7a685c80c8156", "is_disabled": 0, "is_reserved": 0}, {"rental_uris": {"ios": "https://dc.lft.to/lastmile_qr_scan", "android": "https://dc.lft.to/lastmile_qr_scan"}, "lon": -77.026761, "type": "electric_scooter", "fusion_lat": 0.0, "lat": 38.90358966666667, "name": "9939577486cf5538205f4c99855f1103", "fusion_lon": 0.0, "bike_id": "9939577486cf5538205f4c99855f1103", "is_disabled": 0, "is_reserved": 0}, {"rental_uris": {"ios": "https://dc.lft.to/lastmile_qr_scan", "android": "https://dc.lft.to/lastmile_qr_scan"}, "lon": -76.90432816666667, "type": "electric_bike", "fusion_lat": 0.0, "lat": 38.897675166666666, "name": "ba6fd778e838f3a28aeafd7f151bf329", "fusion_lon": 0.0, "bike_id": "ba6fd778e838f3a28aeafd7f151bf329", "is_disabled": 0, "is_reserved": 0}, {"rental_uris": {"ios": "https://dc.lft.to/lastmile_qr_scan", "android": "https://dc.lft.to/lastmile_qr_scan"}, "lon": -77.04069166666666, "type": "electric_scooter", "fusion_lat": 0.0, "lat": 38.926507, "name": "49b59b3a07f123c69870912a57d689c8", "fusion_lon": 0.0, "bike_id": "49b59b3a07f123c69870912a57d689c8", "is_disabled": 0, "is_reserved": 0}, {"rental_uris": {"ios": "https://dc.lft.to/lastmile_qr_scan", "android": "https://dc.lft.to/lastmile_qr_scan"}, "lon": -77.04687233333334, "type": "electric_scooter", "fusion_lat": 0.0, "lat": 38.89222433333333, "name": "9d6ca28b0c8d86f5af5da8d2cc118a52", "fusion_lon": 0.0, "bike_id": "9d6ca28b0c8d86f5af5da8d2cc118a52", "is_disabled": 0, "is_reserved": 0}, {"rental_uris": {"ios": "https://dc.lft.to/lastmile_qr_scan", "android": "https://dc.lft.to/lastmile_qr_scan"}, "lon": -77.0482795, "type": "electric_scooter", "fusion_lat": 0.0, "lat": 38.920355, "name": "75e4edbe37ced363001687eea25bc8c0", "fusion_lon": 0.0, "bike_id": "75e4edbe37ced363001687eea25bc8c0", "is_disabled": 0, "is_reserved": 0}, {"rental_uris": {"ios": "https://dc.lft.to/lastmile_qr_scan", "android": "https://dc.lft.to/lastmile_qr_scan"}, "lon": -77.03625983333333, "type": "electric_bike", "fusion_lat": 0.0, "lat": 38.956085333333334, "name": "7fb88b30df6a530144b2f20c844521b6", "fusion_lon": 0.0, "bike_id": "7fb88b30df6a530144b2f20c844521b6", "is_disabled": 0, "is_reserved": 0}, {"rental_uris": {"ios": "https://dc.lft.to/lastmile_qr_scan", "android": "https://dc.lft.to/lastmile_qr_scan"}, "lon": -76.98976183333333, "type": "electric_scooter", "fusion_lat": 0.0, "lat": 38.85920866666667, "name": "82144245b1c07ec06acb7571de6a7520", "fusion_lon": 0.0, "bike_id": "82144245b1c07ec06acb7571de6a7520", "is_disabled": 0, "is_reserved": 0}, {"rental_uris": {"ios": "https://dc.lft.to/lastmile_qr_scan", "android": "https://dc.lft.to/lastmile_qr_scan"}, "lon": -77.03327866666666, "type": "electric_scooter", "fusion_lat": 0.0, "lat": 38.8991155, "name": "05beb302ea633905e9a6f9cd5eb1dc90", "fusion_lon": 0.0, "bike_id": "05beb302ea633905e9a6f9cd5eb1dc90", "is_disabled": 0, "is_reserved": 0}, {"rental_uris": {"ios": "https://dc.lft.to/lastmile_qr_scan", "android": "https://dc.lft.to/lastmile_qr_scan"}, "lon": -77.02531183333333, "type": "electric_scooter", "fusion_lat": 0.0, "lat": 38.94303383333333, "name": "c660eb547c99818f494ac8ae02f1a12d", "fusion_lon": 0.0, "bike_id": "c660eb547c99818f494ac8ae02f1a12d", "is_disabled": 0, "is_reserved": 0}, {"rental_uris": {"ios": "https://dc.lft.to/lastmile_qr_scan", "android": "https://dc.lft.to/lastmile_qr_scan"}, "lon": -76.94994316666667, "type": "electric_scooter", "fusion_lat": 0.0, "lat": 38.893712, "name": "fcfec2f0b04cf1b4a0a468db99afea5e", "fusion_lon": 0.0, "bike_id": "fcfec2f0b04cf1b4a0a468db99afea5e", "is_disabled": 0, "is_reserved": 0}, {"rental_uris": {"ios": "https://dc.lft.to/lastmile_qr_scan", "android": "https://dc.lft.to/lastmile_qr_scan"}, "lon": -77.00701133333334, "type": "electric_scooter", "fusion_lat": 0.0, "lat": 38.90024483333333, "name": "69eb657d78dbdec2bc57915386e80ca8", "fusion_lon": 0.0, "bike_id": "69eb657d78dbdec2bc57915386e80ca8", "is_disabled": 0, "is_reserved": 0}, {"rental_uris": {"ios": "https://dc.lft.to/lastmile_qr_scan", "android": "https://dc.lft.to/lastmile_qr_scan"}, "lon": -77.038038, "type": "electric_scooter", "fusion_lat": 0.0, "lat": 38.9339585, "name": "3d5c926e2bc26fa6f0c303b20fd70b6e", "fusion_lon": 0.0, "bike_id": "3d5c926e2bc26fa6f0c303b20fd70b6e", "is_disabled": 0, "is_reserved": 0}, {"rental_uris": {"ios": "https://dc.lft.to/lastmile_qr_scan", "android": "https://dc.lft.to/lastmile_qr_scan"}, "lon": -77.04168966666667, "type": "electric_scooter", "fusion_lat": 0.0, "lat": 38.911515333333334, "name": "967bd96847498f5999c86ceba85ccca8", "fusion_lon": 0.0, "bike_id": "967bd96847498f5999c86ceba85ccca8", "is_disabled": 0, "is_reserved": 0}, {"rental_uris": {"ios": "https://dc.lft.to/lastmile_qr_scan", "android": "https://dc.lft.to/lastmile_qr_scan"}, "lon": -77.02554983333333, "type": "electric_scooter", "fusion_lat": 0.0, "lat": 38.886548, "name": "3bbf89dede379a15fc34f3090ced8c02", "fusion_lon": 0.0, "bike_id": "3bbf89dede379a15fc34f3090ced8c02", "is_disabled": 0, "is_reserved": 0}, {"rental_uris": {"ios": "https://dc.lft.to/lastmile_qr_scan", "android": "https://dc.lft.to/lastmile_qr_scan"}, "lon": -76.9974035, "type": "electric_scooter", "fusion_lat": 0.0, "lat": 38.900332666666664, "name": "654fcc620ad3c4e872ebb0e53daa2750", "fusion_lon": 0.0, "bike_id": "654fcc620ad3c4e872ebb0e53daa2750", "is_disabled": 0, "is_reserved": 0}, {"rental_uris": {"ios": "https://dc.lft.to/lastmile_qr_scan", "android": "https://dc.lft.to/lastmile_qr_scan"}, "lon": -76.960883, "type": "electric_scooter", "fusion_lat": 0.0, "lat": 38.874185833333335, "name": "89908ff2f12cce96b88b3410492dc485", "fusion_lon": 0.0, "bike_id": "89908ff2f12cce96b88b3410492dc485", "is_disabled": 0, "is_reserved": 0}, {"rental_uris": {"ios": "https://dc.lft.to/lastmile_qr_scan", "android": "https://dc.lft.to/lastmile_qr_scan"}, "lon": -77.02169316666667, "type": "electric_scooter", "fusion_lat": 0.0, "lat": 38.942933833333335, "name": "ac05448797dff10038bc139315172c5a", "fusion_lon": 0.0, "bike_id": "ac05448797dff10038bc139315172c5a", "is_disabled": 0, "is_reserved": 0}, {"rental_uris": {"ios": "https://dc.lft.to/lastmile_qr_scan", "android": "https://dc.lft.to/lastmile_qr_scan"}, "lon": -77.032452, "type": "electric_scooter", "fusion_lat": 0.0, "lat": 38.92451633333334, "name": "e8f0887841c36a5856255f52ae2243b9", "fusion_lon": 0.0, "bike_id": "e8f0887841c36a5856255f52ae2243b9", "is_disabled": 0, "is_reserved": 0}, {"rental_uris": {"ios": "https://dc.lft.to/lastmile_qr_scan", "android": "https://dc.lft.to/lastmile_qr_scan"}, "lon": -76.986539, "type": "electric_scooter", "fusion_lat": 0.0, "lat": 38.85808866666667, "name": "461b8d2b5cb12e458dfd28a84861e0e1", "fusion_lon": 0.0, "bike_id": "461b8d2b5cb12e458dfd28a84861e0e1", "is_disabled": 0, "is_reserved": 0}, {"rental_uris": {"ios": "https://dc.lft.to/lastmile_qr_scan", "android": "https://dc.lft.to/lastmile_qr_scan"}, "lon": -77.027238, "type": "electric_scooter", "fusion_lat": 0.0, "lat": 38.93433383333333, "name": "276624c7184ebffb2e07ffe075316f24", "fusion_lon": 0.0, "bike_id": "276624c7184ebffb2e07ffe075316f24", "is_disabled": 0, "is_reserved": 0}, {"rental_uris": {"ios": "https://dc.lft.to/lastmile_qr_scan", "android": "https://dc.lft.to/lastmile_qr_scan"}, "lon": -77.04487783333333, "type": "electric_scooter", "fusion_lat": 0.0, "lat": 38.900174166666666, "name": "9858a3ad71558ef045ebfb15bd88aa36", "fusion_lon": 0.0, "bike_id": "9858a3ad71558ef045ebfb15bd88aa36", "is_disabled": 0, "is_reserved": 0}, {"rental_uris": {"ios": "https://dc.lft.to/lastmile_qr_scan", "android": "https://dc.lft.to/lastmile_qr_scan"}, "lon": -76.9471885, "type": "electric_scooter", "fusion_lat": 0.0, "lat": 38.897382666666665, "name": "b89abd16ff7df8dc4b9a52ad816b409e", "fusion_lon": 0.0, "bike_id": "b89abd16ff7df8dc4b9a52ad816b409e", "is_disabled": 0, "is_reserved": 0}, {"rental_uris": {"ios": "https://dc.lft.to/lastmile_qr_scan", "android": "https://dc.lft.to/lastmile_qr_scan"}, "lon": -76.99674033333334, "type": "electric_scooter", "fusion_lat": 0.0, "lat": 38.910213166666665, "name": "65ef69be09a881a032501f40c389d070", "fusion_lon": 0.0, "bike_id": "65ef69be09a881a032501f40c389d070", "is_disabled": 0, "is_reserved": 0}, {"rental_uris": {"ios": "https://dc.lft.to/lastmile_qr_scan", "android": "https://dc.lft.to/lastmile_qr_scan"}, "lon": -77.00806016666667, "type": "electric_bike", "fusion_lat": 0.0, "lat": 38.9267125, "name": "fcbd5e707ed76ee56933381cc4f27789", "fusion_lon": 0.0, "bike_id": "fcbd5e707ed76ee56933381cc4f27789", "is_disabled": 0, "is_reserved": 0}, {"rental_uris": {"ios": "https://dc.lft.to/lastmile_qr_scan", "android": "https://dc.lft.to/lastmile_qr_scan"}, "lon": -77.06102133333333, "type": "electric_scooter", "fusion_lat": 0.0, "lat": 38.937086, "name": "7ae259b990065d65d9f611492c387032", "fusion_lon": 0.0, "bike_id": "7ae259b990065d65d9f611492c387032", "is_disabled": 0, "is_reserved": 0}, {"rental_uris": {"ios": "https://dc.lft.to/lastmile_qr_scan", "android": "https://dc.lft.to/lastmile_qr_scan"}, "lon": -77.03243716666667, "type": "electric_scooter", "fusion_lat": 0.0, "lat": 38.92768783333333, "name": "71467570c0fe77df41489ca6cbecd10b", "fusion_lon": 0.0, "bike_id": "71467570c0fe77df41489ca6cbecd10b", "is_disabled": 0, "is_reserved": 0}, {"rental_uris": {"ios": "https://dc.lft.to/lastmile_qr_scan", "android": "https://dc.lft.to/lastmile_qr_scan"}, "lon": -77.01192883333333, "type": "electric_scooter", "fusion_lat": 0.0, "lat": 38.90017683333333, "name": "7ec6df7a47e5d5a42da2187b602b7e25", "fusion_lon": 0.0, "bike_id": "7ec6df7a47e5d5a42da2187b602b7e25", "is_disabled": 0, "is_reserved": 0}, {"rental_uris": {"ios": "https://dc.lft.to/lastmile_qr_scan", "android": "https://dc.lft.to/lastmile_qr_scan"}, "lon": -77.00788983333334, "type": "electric_scooter", "fusion_lat": 0.0, "lat": 38.90652633333333, "name": "2efab45851b665694b76d949714c3f29", "fusion_lon": 0.0, "bike_id": "2efab45851b665694b76d949714c3f29", "is_disabled": 0, "is_reserved": 0}, {"rental_uris": {"ios": "https://dc.lft.to/lastmile_qr_scan", "android": "https://dc.lft.to/lastmile_qr_scan"}, "lon": -77.01434166666667, "type": "electric_scooter", "fusion_lat": 0.0, "lat": 38.906451833333335, "name": "7fe25cbb302d09133b428b4b38f11d5d", "fusion_lon": 0.0, "bike_id": "7fe25cbb302d09133b428b4b38f11d5d", "is_disabled": 0, "is_reserved": 0}, {"rental_uris": {"ios": "https://dc.lft.to/lastmile_qr_scan", "android": "https://dc.lft.to/lastmile_qr_scan"}, "lon": -77.04169616666667, "type": "electric_scooter", "fusion_lat": 0.0, "lat": 38.9179305, "name": "c08ede17d8c4d6667ffd9cb14be06523", "fusion_lon": 0.0, "bike_id": "c08ede17d8c4d6667ffd9cb14be06523", "is_disabled": 0, "is_reserved": 0}, {"rental_uris": {"ios": "https://dc.lft.to/lastmile_qr_scan", "android": "https://dc.lft.to/lastmile_qr_scan"}, "lon": -77.0136635, "type": "electric_scooter", "fusion_lat": 0.0, "lat": 38.86375233333333, "name": "bd44c6f6cc194bc90352227960b28982", "fusion_lon": 0.0, "bike_id": "bd44c6f6cc194bc90352227960b28982", "is_disabled": 0, "is_reserved": 0}, {"rental_uris": {"ios": "https://dc.lft.to/lastmile_qr_scan", "android": "https://dc.lft.to/lastmile_qr_scan"}, "lon": -77.0356405, "type": "electric_scooter", "fusion_lat": 0.0, "lat": 38.918103333333335, "name": "aaa979615741a102c8d5f79ae3c4ad2e", "fusion_lon": 0.0, "bike_id": "aaa979615741a102c8d5f79ae3c4ad2e", "is_disabled": 0, "is_reserved": 0}, {"rental_uris": {"ios": "https://dc.lft.to/lastmile_qr_scan", "android": "https://dc.lft.to/lastmile_qr_scan"}, "lon": -77.03643883333334, "type": "electric_scooter", "fusion_lat": 0.0, "lat": 38.90365216666667, "name": "2081f96b9c8710af63c010efaa8f573a", "fusion_lon": 0.0, "bike_id": "2081f96b9c8710af63c010efaa8f573a", "is_disabled": 0, "is_reserved": 0}, {"rental_uris": {"ios": "https://dc.lft.to/lastmile_qr_scan", "android": "https://dc.lft.to/lastmile_qr_scan"}, "lon": -77.02412316666667, "type": "electric_scooter", "fusion_lat": 0.0, "lat": 38.892214, "name": "b188218807f167c4d002d6b5ca743006", "fusion_lon": 0.0, "bike_id": "b188218807f167c4d002d6b5ca743006", "is_disabled": 0, "is_reserved": 0}, {"rental_uris": {"ios": "https://dc.lft.to/lastmile_qr_scan", "android": "https://dc.lft.to/lastmile_qr_scan"}, "lon": -77.04268766666667, "type": "electric_scooter", "fusion_lat": 0.0, "lat": 38.92237466666667, "name": "1e46562a1931387e0444cbb5540cca0a", "fusion_lon": 0.0, "bike_id": "1e46562a1931387e0444cbb5540cca0a", "is_disabled": 0, "is_reserved": 0}, {"rental_uris": {"ios": "https://dc.lft.to/lastmile_qr_scan", "android": "https://dc.lft.to/lastmile_qr_scan"}, "lon": -77.0694115, "type": "electric_scooter", "fusion_lat": 0.0, "lat": 38.90520466666667, "name": "b6a0e252c3a9961fdbc0cdda14600207", "fusion_lon": 0.0, "bike_id": "b6a0e252c3a9961fdbc0cdda14600207", "is_disabled": 0, "is_reserved": 0}, {"rental_uris": {"ios": "https://dc.lft.to/lastmile_qr_scan", "android": "https://dc.lft.to/lastmile_qr_scan"}, "lon": -77.02478, "type": "electric_scooter", "fusion_lat": 0.0, "lat": 38.93816366666667, "name": "65bafd6dccf1f78d5ec138eca9af8435", "fusion_lon": 0.0, "bike_id": "65bafd6dccf1f78d5ec138eca9af8435", "is_disabled": 0, "is_reserved": 0}, {"rental_uris": {"ios": "https://dc.lft.to/lastmile_qr_scan", "android": "https://dc.lft.to/lastmile_qr_scan"}, "lon": -77.032155, "type": "electric_scooter", "fusion_lat": 0.0, "lat": 38.91193583333333, "name": "391fb9bf39e2e532e1ac9c3cda848554", "fusion_lon": 0.0, "bike_id": "391fb9bf39e2e532e1ac9c3cda848554", "is_disabled": 0, "is_reserved": 0}, {"rental_uris": {"ios": "https://dc.lft.to/lastmile_qr_scan", "android": "https://dc.lft.to/lastmile_qr_scan"}, "lon": -77.00296666666667, "type": "electric_scooter", "fusion_lat": 0.0, "lat": 38.90909416666667, "name": "e60bdc576f724ae0af310a8f04cee908", "fusion_lon": 0.0, "bike_id": "e60bdc576f724ae0af310a8f04cee908", "is_disabled": 0, "is_reserved": 0}, {"rental_uris": {"ios": "https://dc.lft.to/lastmile_qr_scan", "android": "https://dc.lft.to/lastmile_qr_scan"}, "lon": -77.00222216666667, "type": "electric_scooter", "fusion_lat": 0.0, "lat": 38.90569383333333, "name": "3540ec91e243a9f678524c17f981c32b", "fusion_lon": 0.0, "bike_id": "3540ec91e243a9f678524c17f981c32b", "is_disabled": 0, "is_reserved": 0}, {"rental_uris": {"ios": "https://dc.lft.to/lastmile_qr_scan", "android": "https://dc.lft.to/lastmile_qr_scan"}, "lon": -77.10517466666667, "type": "electric_bike", "fusion_lat": 0.0, "lat": 38.85170016666667, "name": "579c711c08c43b3dbe5af6131780d523", "fusion_lon": 0.0, "bike_id": "579c711c08c43b3dbe5af6131780d523", "is_disabled": 0, "is_reserved": 0}, {"rental_uris": {"ios": "https://dc.lft.to/lastmile_qr_scan", "android": "https://dc.lft.to/lastmile_qr_scan"}, "lon": -77.02834983333334, "type": "electric_scooter", "fusion_lat": 0.0, "lat": 38.9319065, "name": "0f56103441c78d60f49428b7bd397f60", "fusion_lon": 0.0, "bike_id": "0f56103441c78d60f49428b7bd397f60", "is_disabled": 0, "is_reserved": 0}, {"rental_uris": {"ios": "https://dc.lft.to/lastmile_qr_scan", "android": "https://dc.lft.to/lastmile_qr_scan"}, "lon": -77.022498, "type": "electric_scooter", "fusion_lat": 0.0, "lat": 38.923087333333335, "name": "c9489fb5192a7cc0a676f2e2ed12ce57", "fusion_lon": 0.0, "bike_id": "c9489fb5192a7cc0a676f2e2ed12ce57", "is_disabled": 0, "is_reserved": 0}, {"rental_uris": {"ios": "https://dc.lft.to/lastmile_qr_scan", "android": "https://dc.lft.to/lastmile_qr_scan"}, "lon": -77.074891, "type": "electric_scooter", "fusion_lat": 0.0, "lat": 38.91488566666666, "name": "28788ea9f765284ac42fc7c2ff05101a", "fusion_lon": 0.0, "bike_id": "28788ea9f765284ac42fc7c2ff05101a", "is_disabled": 0, "is_reserved": 0}, {"rental_uris": {"ios": "https://dc.lft.to/lastmile_qr_scan", "android": "https://dc.lft.to/lastmile_qr_scan"}, "lon": -77.04435266666667, "type": "electric_scooter", "fusion_lat": 0.0, "lat": 38.918007833333334, "name": "6bec6f3ed852ad69173bee1739fb3c70", "fusion_lon": 0.0, "bike_id": "6bec6f3ed852ad69173bee1739fb3c70", "is_disabled": 0, "is_reserved": 0}, {"rental_uris": {"ios": "https://dc.lft.to/lastmile_qr_scan", "android": "https://dc.lft.to/lastmile_qr_scan"}, "lon": -76.96778333333333, "type": "electric_scooter", "fusion_lat": 0.0, "lat": 38.861435666666665, "name": "d11e93ae34c3aaee7c8a98c19806572c", "fusion_lon": 0.0, "bike_id": "d11e93ae34c3aaee7c8a98c19806572c", "is_disabled": 0, "is_reserved": 0}, {"rental_uris": {"ios": "https://dc.lft.to/lastmile_qr_scan", "android": "https://dc.lft.to/lastmile_qr_scan"}, "lon": -77.00294966666667, "type": "electric_scooter", "fusion_lat": 0.0, "lat": 38.90587133333333, "name": "ffc2f0ae4b2e48c443e5b535ecd5b0e3", "fusion_lon": 0.0, "bike_id": "ffc2f0ae4b2e48c443e5b535ecd5b0e3", "is_disabled": 0, "is_reserved": 0}, {"rental_uris": {"ios": "https://dc.lft.to/lastmile_qr_scan", "android": "https://dc.lft.to/lastmile_qr_scan"}, "lon": -76.984099, "type": "electric_scooter", "fusion_lat": 0.0, "lat": 38.91391133333333, "name": "bd1b2f5076024609afaf7fee39e58022", "fusion_lon": 0.0, "bike_id": "bd1b2f5076024609afaf7fee39e58022", "is_disabled": 0, "is_reserved": 0}, {"rental_uris": {"ios": "https://dc.lft.to/lastmile_qr_scan", "android": "https://dc.lft.to/lastmile_qr_scan"}, "lon": -77.00615383333333, "type": "electric_scooter", "fusion_lat": 0.0, "lat": 38.87467916666667, "name": "1cb303adf99416444e9b4110b6b478c6", "fusion_lon": 0.0, "bike_id": "1cb303adf99416444e9b4110b6b478c6", "is_disabled": 0, "is_reserved": 0}, {"rental_uris": {"ios": "https://dc.lft.to/lastmile_qr_scan", "android": "https://dc.lft.to/lastmile_qr_scan"}, "lon": -77.01820966666666, "type": "electric_scooter", "fusion_lat": 0.0, "lat": 38.90081983333334, "name": "c920fff861620d532d7d98c6ddb5b0a3", "fusion_lon": 0.0, "bike_id": "c920fff861620d532d7d98c6ddb5b0a3", "is_disabled": 0, "is_reserved": 0}, {"rental_uris": {"ios": "https://dc.lft.to/lastmile_qr_scan", "android": "https://dc.lft.to/lastmile_qr_scan"}, "lon": -77.00721933333334, "type": "electric_scooter", "fusion_lat": 0.0, "lat": 38.91340183333333, "name": "642e4091845a45cfc47ac38f2d98f453", "fusion_lon": 0.0, "bike_id": "642e4091845a45cfc47ac38f2d98f453", "is_disabled": 0, "is_reserved": 0}, {"rental_uris": {"ios": "https://dc.lft.to/lastmile_qr_scan", "android": "https://dc.lft.to/lastmile_qr_scan"}, "lon": -76.9395675, "type": "electric_scooter", "fusion_lat": 0.0, "lat": 38.894155, "name": "08b9ccd769867e2d9c7e0d004e87f995", "fusion_lon": 0.0, "bike_id": "08b9ccd769867e2d9c7e0d004e87f995", "is_disabled": 0, "is_reserved": 0}, {"rental_uris": {"ios": "https://dc.lft.to/lastmile_qr_scan", "android": "https://dc.lft.to/lastmile_qr_scan"}, "lon": -77.02882, "type": "electric_scooter", "fusion_lat": 0.0, "lat": 38.90328566666667, "name": "c795290da3b525e11daeda05b04c9433", "fusion_lon": 0.0, "bike_id": "c795290da3b525e11daeda05b04c9433", "is_disabled": 0, "is_reserved": 0}, {"rental_uris": {"ios": "https://dc.lft.to/lastmile_qr_scan", "android": "https://dc.lft.to/lastmile_qr_scan"}, "lon": -77.0720395, "type": "electric_scooter", "fusion_lat": 0.0, "lat": 38.92109933333333, "name": "fc2eaaab3d7fe70ca3b9ac3b3804c6e0", "fusion_lon": 0.0, "bike_id": "fc2eaaab3d7fe70ca3b9ac3b3804c6e0", "is_disabled": 0, "is_reserved": 0}, {"rental_uris": {"ios": "https://dc.lft.to/lastmile_qr_scan", "android": "https://dc.lft.to/lastmile_qr_scan"}, "lon": -77.04622016666667, "type": "electric_bike", "fusion_lat": 0.0, "lat": 38.9991655, "name": "ac941fe4e7944ff7bd078c3ec50eb373", "fusion_lon": 0.0, "bike_id": "ac941fe4e7944ff7bd078c3ec50eb373", "is_disabled": 0, "is_reserved": 0}, {"rental_uris": {"ios": "https://dc.lft.to/lastmile_qr_scan", "android": "https://dc.lft.to/lastmile_qr_scan"}, "lon": -77.03579066666667, "type": "electric_scooter", "fusion_lat": 0.0, "lat": 38.933932166666665, "name": "0e6239cf84153990c692f8dd68a75622", "fusion_lon": 0.0, "bike_id": "0e6239cf84153990c692f8dd68a75622", "is_disabled": 0, "is_reserved": 0}, {"rental_uris": {"ios": "https://dc.lft.to/lastmile_qr_scan", "android": "https://dc.lft.to/lastmile_qr_scan"}, "lon": -77.06469033333333, "type": "electric_bike", "fusion_lat": 0.0, "lat": 38.973825, "name": "2c67321da29b90c4e2e0e08b8181e1f9", "fusion_lon": 0.0, "bike_id": "2c67321da29b90c4e2e0e08b8181e1f9", "is_disabled": 0, "is_reserved": 0}, {"rental_uris": {"ios": "https://dc.lft.to/lastmile_qr_scan", "android": "https://dc.lft.to/lastmile_qr_scan"}, "lon": -77.0007035, "type": "electric_scooter", "fusion_lat": 0.0, "lat": 38.920584166666664, "name": "72201a8735846bd714774aca23e531f9", "fusion_lon": 0.0, "bike_id": "72201a8735846bd714774aca23e531f9", "is_disabled": 0, "is_reserved": 0}, {"rental_uris": {"ios": "https://dc.lft.to/lastmile_qr_scan", "android": "https://dc.lft.to/lastmile_qr_scan"}, "lon": -77.04171333333333, "type": "electric_scooter", "fusion_lat": 0.0, "lat": 38.919569, "name": "9db4f94ed2d27aa221fe802eefc19cc5", "fusion_lon": 0.0, "bike_id": "9db4f94ed2d27aa221fe802eefc19cc5", "is_disabled": 0, "is_reserved": 0}, {"rental_uris": {"ios": "https://dc.lft.to/lastmile_qr_scan", "android": "https://dc.lft.to/lastmile_qr_scan"}, "lon": -77.0383065, "type": "electric_scooter", "fusion_lat": 0.0, "lat": 38.93108633333333, "name": "341f77756fc3628af9c84a5c57e18665", "fusion_lon": 0.0, "bike_id": "341f77756fc3628af9c84a5c57e18665", "is_disabled": 0, "is_reserved": 0}, {"rental_uris": {"ios": "https://dc.lft.to/lastmile_qr_scan", "android": "https://dc.lft.to/lastmile_qr_scan"}, "lon": -77.0436935, "type": "electric_scooter", "fusion_lat": 0.0, "lat": 38.901110333333335, "name": "4ef72c216a85cfe9ae368cd763754775", "fusion_lon": 0.0, "bike_id": "4ef72c216a85cfe9ae368cd763754775", "is_disabled": 0, "is_reserved": 0}, {"rental_uris": {"ios": "https://dc.lft.to/lastmile_qr_scan", "android": "https://dc.lft.to/lastmile_qr_scan"}, "lon": -77.09620333333334, "type": "electric_bike", "fusion_lat": 0.0, "lat": 38.845736, "name": "83b6b5bb1dd2e70dcc2cfc00e4d67f5e", "fusion_lon": 0.0, "bike_id": "83b6b5bb1dd2e70dcc2cfc00e4d67f5e", "is_disabled": 0, "is_reserved": 0}, {"rental_uris": {"ios": "https://dc.lft.to/lastmile_qr_scan", "android": "https://dc.lft.to/lastmile_qr_scan"}, "lon": -77.0271165, "type": "electric_scooter", "fusion_lat": 0.0, "lat": 38.89622083333333, "name": "2c2c760fd8d4ec9e01e0575e59e77eca", "fusion_lon": 0.0, "bike_id": "2c2c760fd8d4ec9e01e0575e59e77eca", "is_disabled": 0, "is_reserved": 0}, {"rental_uris": {"ios": "https://dc.lft.to/lastmile_qr_scan", "android": "https://dc.lft.to/lastmile_qr_scan"}, "lon": -77.05278016666666, "type": "electric_scooter", "fusion_lat": 0.0, "lat": 38.925455, "name": "4746387930531d960b508a4baee3ce64", "fusion_lon": 0.0, "bike_id": "4746387930531d960b508a4baee3ce64", "is_disabled": 0, "is_reserved": 0}, {"rental_uris": {"ios": "https://dc.lft.to/lastmile_qr_scan", "android": "https://dc.lft.to/lastmile_qr_scan"}, "lon": -77.02815166666667, "type": "electric_scooter", "fusion_lat": 0.0, "lat": 38.910443, "name": "bf427c39d151d98898e1f2368a0d13c9", "fusion_lon": 0.0, "bike_id": "bf427c39d151d98898e1f2368a0d13c9", "is_disabled": 0, "is_reserved": 0}, {"rental_uris": {"ios": "https://dc.lft.to/lastmile_qr_scan", "android": "https://dc.lft.to/lastmile_qr_scan"}, "lon": -77.00204966666666, "type": "electric_bike", "fusion_lat": 0.0, "lat": 38.819410500000004, "name": "d31426abb7f352bc79db2cba752e0b4e", "fusion_lon": 0.0, "bike_id": "d31426abb7f352bc79db2cba752e0b4e", "is_disabled": 0, "is_reserved": 0}, {"rental_uris": {"ios": "https://dc.lft.to/lastmile_qr_scan", "android": "https://dc.lft.to/lastmile_qr_scan"}, "lon": -77.02830566666667, "type": "electric_scooter", "fusion_lat": 0.0, "lat": 38.93193266666667, "name": "d3a0f0f7c6493ea46ce891332006808e", "fusion_lon": 0.0, "bike_id": "d3a0f0f7c6493ea46ce891332006808e", "is_disabled": 0, "is_reserved": 0}, {"rental_uris": {"ios": "https://dc.lft.to/lastmile_qr_scan", "android": "https://dc.lft.to/lastmile_qr_scan"}, "lon": -77.047432, "type": "electric_scooter", "fusion_lat": 0.0, "lat": 38.9017525, "name": "c835e952c05dc9c3692cd41ff3e36e69", "fusion_lon": 0.0, "bike_id": "c835e952c05dc9c3692cd41ff3e36e69", "is_disabled": 0, "is_reserved": 0}, {"rental_uris": {"ios": "https://dc.lft.to/lastmile_qr_scan", "android": "https://dc.lft.to/lastmile_qr_scan"}, "lon": -77.01011183333334, "type": "electric_scooter", "fusion_lat": 0.0, "lat": 38.894858666666664, "name": "417fed8ea4c6adb293c0efce136406dd", "fusion_lon": 0.0, "bike_id": "417fed8ea4c6adb293c0efce136406dd", "is_disabled": 0, "is_reserved": 0}, {"rental_uris": {"ios": "https://dc.lft.to/lastmile_qr_scan", "android": "https://dc.lft.to/lastmile_qr_scan"}, "lon": -77.0405465, "type": "electric_scooter", "fusion_lat": 0.0, "lat": 38.90274016666667, "name": "c25936f247e135da2d131c0d616f8099", "fusion_lon": 0.0, "bike_id": "c25936f247e135da2d131c0d616f8099", "is_disabled": 0, "is_reserved": 0}, {"rental_uris": {"ios": "https://dc.lft.to/lastmile_qr_scan", "android": "https://dc.lft.to/lastmile_qr_scan"}, "lon": -77.03518016666666, "type": "electric_bike", "fusion_lat": 0.0, "lat": 38.96537383333333, "name": "8597feffbcbb271a3a1b8535a955cf68", "fusion_lon": 0.0, "bike_id": "8597feffbcbb271a3a1b8535a955cf68", "is_disabled": 0, "is_reserved": 0}, {"rental_uris": {"ios": "https://dc.lft.to/lastmile_qr_scan", "android": "https://dc.lft.to/lastmile_qr_scan"}, "lon": -77.06515, "type": "electric_bike", "fusion_lat": 0.0, "lat": 38.904520833333336, "name": "b59823eabcea852c01207fa4faa13f3b", "fusion_lon": 0.0, "bike_id": "b59823eabcea852c01207fa4faa13f3b", "is_disabled": 0, "is_reserved": 0}, {"rental_uris": {"ios": "https://dc.lft.to/lastmile_qr_scan", "android": "https://dc.lft.to/lastmile_qr_scan"}, "lon": -77.032631, "type": "electric_scooter", "fusion_lat": 0.0, "lat": 38.93904233333333, "name": "d81c15a67a4260880210b5f59d9b182c", "fusion_lon": 0.0, "bike_id": "d81c15a67a4260880210b5f59d9b182c", "is_disabled": 0, "is_reserved": 0}, {"rental_uris": {"ios": "https://dc.lft.to/lastmile_qr_scan", "android": "https://dc.lft.to/lastmile_qr_scan"}, "lon": -76.97879283333333, "type": "electric_scooter", "fusion_lat": 0.0, "lat": 38.885074, "name": "322806a40b80c941e77b98efc5404a93", "fusion_lon": 0.0, "bike_id": "322806a40b80c941e77b98efc5404a93", "is_disabled": 0, "is_reserved": 0}, {"rental_uris": {"ios": "https://dc.lft.to/lastmile_qr_scan", "android": "https://dc.lft.to/lastmile_qr_scan"}, "lon": -77.0109615, "type": "electric_scooter", "fusion_lat": 0.0, "lat": 38.8944725, "name": "0bd9df3bbe4f2c870baba0aba6c0e379", "fusion_lon": 0.0, "bike_id": "0bd9df3bbe4f2c870baba0aba6c0e379", "is_disabled": 0, "is_reserved": 0}, {"rental_uris": {"ios": "https://dc.lft.to/lastmile_qr_scan", "android": "https://dc.lft.to/lastmile_qr_scan"}, "lon": -76.986972, "type": "electric_scooter", "fusion_lat": 0.0, "lat": 38.90706433333333, "name": "7d60b0221a79a780aa438aae3ec1a587", "fusion_lon": 0.0, "bike_id": "7d60b0221a79a780aa438aae3ec1a587", "is_disabled": 0, "is_reserved": 0}, {"rental_uris": {"ios": "https://dc.lft.to/lastmile_qr_scan", "android": "https://dc.lft.to/lastmile_qr_scan"}, "lon": -77.03223366666667, "type": "electric_scooter", "fusion_lat": 0.0, "lat": 38.926720833333334, "name": "858ff5f6c4ca61375f1fd7e0a88e0fa6", "fusion_lon": 0.0, "bike_id": "858ff5f6c4ca61375f1fd7e0a88e0fa6", "is_disabled": 0, "is_reserved": 0}, {"rental_uris": {"ios": "https://dc.lft.to/lastmile_qr_scan", "android": "https://dc.lft.to/lastmile_qr_scan"}, "lon": -76.98955283333333, "type": "electric_scooter", "fusion_lat": 0.0, "lat": 38.900282, "name": "95d2a380c9cb12e6af9d2e14b4a3ced3", "fusion_lon": 0.0, "bike_id": "95d2a380c9cb12e6af9d2e14b4a3ced3", "is_disabled": 0, "is_reserved": 0}, {"rental_uris": {"ios": "https://dc.lft.to/lastmile_qr_scan", "android": "https://dc.lft.to/lastmile_qr_scan"}, "lon": -77.12896, "type": "electric_bike", "fusion_lat": 0.0, "lat": 38.86378466666667, "name": "860079be406b2ded33849af573f96c09", "fusion_lon": 0.0, "bike_id": "860079be406b2ded33849af573f96c09", "is_disabled": 0, "is_reserved": 0}, {"rental_uris": {"ios": "https://dc.lft.to/lastmile_qr_scan", "android": "https://dc.lft.to/lastmile_qr_scan"}, "lon": -77.03170683333333, "type": "electric_scooter", "fusion_lat": 0.0, "lat": 38.88736016666667, "name": "5961bb05eeb42eb2afc4cb01caaf5ab2", "fusion_lon": 0.0, "bike_id": "5961bb05eeb42eb2afc4cb01caaf5ab2", "is_disabled": 0, "is_reserved": 0}, {"rental_uris": {"ios": "https://dc.lft.to/lastmile_qr_scan", "android": "https://dc.lft.to/lastmile_qr_scan"}, "lon": -77.0675955, "type": "electric_bike", "fusion_lat": 0.0, "lat": 38.915464, "name": "6af1a0b4b405421ff351e127d8fe1e1a", "fusion_lon": 0.0, "bike_id": "6af1a0b4b405421ff351e127d8fe1e1a", "is_disabled": 0, "is_reserved": 0}, {"rental_uris": {"ios": "https://dc.lft.to/lastmile_qr_scan", "android": "https://dc.lft.to/lastmile_qr_scan"}, "lon": -77.04386116666667, "type": "electric_scooter", "fusion_lat": 0.0, "lat": 38.91024616666667, "name": "d18587703727525ea05ef3e55c999fab", "fusion_lon": 0.0, "bike_id": "d18587703727525ea05ef3e55c999fab", "is_disabled": 0, "is_reserved": 0}, {"rental_uris": {"ios": "https://dc.lft.to/lastmile_qr_scan", "android": "https://dc.lft.to/lastmile_qr_scan"}, "lon": -77.025909, "type": "electric_scooter", "fusion_lat": 0.0, "lat": 38.915560666666664, "name": "a3d7b3818b5e39f5d591eb050d30c80c", "fusion_lon": 0.0, "bike_id": "a3d7b3818b5e39f5d591eb050d30c80c", "is_disabled": 0, "is_reserved": 0}, {"rental_uris": {"ios": "https://dc.lft.to/lastmile_qr_scan", "android": "https://dc.lft.to/lastmile_qr_scan"}, "lon": -77.02111216666667, "type": "electric_scooter", "fusion_lat": 0.0, "lat": 38.941001666666665, "name": "3db3c3eecce8f7a9031540713e18228e", "fusion_lon": 0.0, "bike_id": "3db3c3eecce8f7a9031540713e18228e", "is_disabled": 0, "is_reserved": 0}, {"rental_uris": {"ios": "https://dc.lft.to/lastmile_qr_scan", "android": "https://dc.lft.to/lastmile_qr_scan"}, "lon": -76.95463, "type": "electric_bike", "fusion_lat": 0.0, "lat": 38.886436833333335, "name": "a847de58b178081e8a9cfc47033d5502", "fusion_lon": 0.0, "bike_id": "a847de58b178081e8a9cfc47033d5502", "is_disabled": 0, "is_reserved": 0}, {"rental_uris": {"ios": "https://dc.lft.to/lastmile_qr_scan", "android": "https://dc.lft.to/lastmile_qr_scan"}, "lon": -77.03227083333333, "type": "electric_scooter", "fusion_lat": 0.0, "lat": 38.91998366666667, "name": "3360f1e22e5c7fc04cbf82a3492bcb02", "fusion_lon": 0.0, "bike_id": "3360f1e22e5c7fc04cbf82a3492bcb02", "is_disabled": 0, "is_reserved": 0}, {"rental_uris": {"ios": "https://dc.lft.to/lastmile_qr_scan", "android": "https://dc.lft.to/lastmile_qr_scan"}, "lon": -77.04159216666666, "type": "electric_scooter", "fusion_lat": 0.0, "lat": 38.91615083333333, "name": "9261833671b2b0b86aef52ec5272f798", "fusion_lon": 0.0, "bike_id": "9261833671b2b0b86aef52ec5272f798", "is_disabled": 0, "is_reserved": 0}, {"rental_uris": {"ios": "https://dc.lft.to/lastmile_qr_scan", "android": "https://dc.lft.to/lastmile_qr_scan"}, "lon": -77.02960066666667, "type": "electric_scooter", "fusion_lat": 0.0, "lat": 38.92568166666667, "name": "c5ea11f613a3a2cc50a8e681fe9c366f", "fusion_lon": 0.0, "bike_id": "c5ea11f613a3a2cc50a8e681fe9c366f", "is_disabled": 0, "is_reserved": 0}, {"rental_uris": {"ios": "https://dc.lft.to/lastmile_qr_scan", "android": "https://dc.lft.to/lastmile_qr_scan"}, "lon": -77.03700016666667, "type": "electric_scooter", "fusion_lat": 0.0, "lat": 38.92646466666667, "name": "032948338c546ec4c710f9b0fc6acc05", "fusion_lon": 0.0, "bike_id": "032948338c546ec4c710f9b0fc6acc05", "is_disabled": 0, "is_reserved": 0}, {"rental_uris": {"ios": "https://dc.lft.to/lastmile_qr_scan", "android": "https://dc.lft.to/lastmile_qr_scan"}, "lon": -77.01242816666667, "type": "electric_scooter", "fusion_lat": 0.0, "lat": 38.917094166666665, "name": "77f6d12eabc2b4d01ad0cad24721eb0a", "fusion_lon": 0.0, "bike_id": "77f6d12eabc2b4d01ad0cad24721eb0a", "is_disabled": 0, "is_reserved": 0}, {"rental_uris": {"ios": "https://dc.lft.to/lastmile_qr_scan", "android": "https://dc.lft.to/lastmile_qr_scan"}, "lon": -77.00940183333333, "type": "electric_scooter", "fusion_lat": 0.0, "lat": 38.8719715, "name": "08a414aeaa5070c7af65619cdd194dcc", "fusion_lon": 0.0, "bike_id": "08a414aeaa5070c7af65619cdd194dcc", "is_disabled": 0, "is_reserved": 0}, {"rental_uris": {"ios": "https://dc.lft.to/lastmile_qr_scan", "android": "https://dc.lft.to/lastmile_qr_scan"}, "lon": -77.041218, "type": "electric_scooter", "fusion_lat": 0.0, "lat": 38.9333255, "name": "8084e471c522887e3a6609946b0b1b75", "fusion_lon": 0.0, "bike_id": "8084e471c522887e3a6609946b0b1b75", "is_disabled": 0, "is_reserved": 0}, {"rental_uris": {"ios": "https://dc.lft.to/lastmile_qr_scan", "android": "https://dc.lft.to/lastmile_qr_scan"}, "lon": -77.05227866666667, "type": "electric_scooter", "fusion_lat": 0.0, "lat": 38.898095833333336, "name": "7fa74d6c7642b136904fcc030de0715c", "fusion_lon": 0.0, "bike_id": "7fa74d6c7642b136904fcc030de0715c", "is_disabled": 0, "is_reserved": 0}, {"rental_uris": {"ios": "https://dc.lft.to/lastmile_qr_scan", "android": "https://dc.lft.to/lastmile_qr_scan"}, "lon": -77.05979266666667, "type": "electric_scooter", "fusion_lat": 0.0, "lat": 38.935552, "name": "d42b8cf86b036bd6ba4654736fa14ffb", "fusion_lon": 0.0, "bike_id": "d42b8cf86b036bd6ba4654736fa14ffb", "is_disabled": 0, "is_reserved": 0}, {"rental_uris": {"ios": "https://dc.lft.to/lastmile_qr_scan", "android": "https://dc.lft.to/lastmile_qr_scan"}, "lon": -77.01530316666667, "type": "electric_scooter", "fusion_lat": 0.0, "lat": 38.88741866666667, "name": "eefb82e6db74d2270cd35984a690f22c", "fusion_lon": 0.0, "bike_id": "eefb82e6db74d2270cd35984a690f22c", "is_disabled": 0, "is_reserved": 0}, {"rental_uris": {"ios": "https://dc.lft.to/lastmile_qr_scan", "android": "https://dc.lft.to/lastmile_qr_scan"}, "lon": -77.02695183333333, "type": "electric_scooter", "fusion_lat": 0.0, "lat": 38.9163235, "name": "686d9e27631d8581f5dd31b8d8de15b2", "fusion_lon": 0.0, "bike_id": "686d9e27631d8581f5dd31b8d8de15b2", "is_disabled": 0, "is_reserved": 0}, {"rental_uris": {"ios": "https://dc.lft.to/lastmile_qr_scan", "android": "https://dc.lft.to/lastmile_qr_scan"}, "lon": -77.03197183333333, "type": "electric_scooter", "fusion_lat": 0.0, "lat": 38.90034516666667, "name": "58d6ec1c2a4436e68980965ea4313a15", "fusion_lon": 0.0, "bike_id": "58d6ec1c2a4436e68980965ea4313a15", "is_disabled": 0, "is_reserved": 0}, {"rental_uris": {"ios": "https://dc.lft.to/lastmile_qr_scan", "android": "https://dc.lft.to/lastmile_qr_scan"}, "lon": -76.97454, "type": "electric_scooter", "fusion_lat": 0.0, "lat": 38.865421833333336, "name": "57e05a2e2d4b1f83664590736130e469", "fusion_lon": 0.0, "bike_id": "57e05a2e2d4b1f83664590736130e469", "is_disabled": 0, "is_reserved": 0}, {"rental_uris": {"ios": "https://dc.lft.to/lastmile_qr_scan", "android": "https://dc.lft.to/lastmile_qr_scan"}, "lon": -77.03208, "type": "electric_scooter", "fusion_lat": 0.0, "lat": 38.912504, "name": "cf9bdae60bcc887eed631c5548910de9", "fusion_lon": 0.0, "bike_id": "cf9bdae60bcc887eed631c5548910de9", "is_disabled": 0, "is_reserved": 0}, {"rental_uris": {"ios": "https://dc.lft.to/lastmile_qr_scan", "android": "https://dc.lft.to/lastmile_qr_scan"}, "lon": -76.99066583333334, "type": "electric_scooter", "fusion_lat": 0.0, "lat": 38.863581333333336, "name": "bba7aeb44dc53bf88eb5625d0c1de199", "fusion_lon": 0.0, "bike_id": "bba7aeb44dc53bf88eb5625d0c1de199", "is_disabled": 0, "is_reserved": 0}, {"rental_uris": {"ios": "https://dc.lft.to/lastmile_qr_scan", "android": "https://dc.lft.to/lastmile_qr_scan"}, "lon": -77.1179825, "type": "electric_bike", "fusion_lat": 0.0, "lat": 38.89835266666667, "name": "da0b9db14d3b718addf64e28bc37394d", "fusion_lon": 0.0, "bike_id": "da0b9db14d3b718addf64e28bc37394d", "is_disabled": 0, "is_reserved": 0}, {"rental_uris": {"ios": "https://dc.lft.to/lastmile_qr_scan", "android": "https://dc.lft.to/lastmile_qr_scan"}, "lon": -76.9879625, "type": "electric_bike", "fusion_lat": 0.0, "lat": 38.904154166666665, "name": "33ca9cc0aecc445cf11d797e98a98d83", "fusion_lon": 0.0, "bike_id": "33ca9cc0aecc445cf11d797e98a98d83", "is_disabled": 0, "is_reserved": 0}, {"rental_uris": {"ios": "https://dc.lft.to/lastmile_qr_scan", "android": "https://dc.lft.to/lastmile_qr_scan"}, "lon": -77.06293816666667, "type": "electric_scooter", "fusion_lat": 0.0, "lat": 38.9070135, "name": "60b2d883e69f87f79a7af1f6e9a9d8b2", "fusion_lon": 0.0, "bike_id": "60b2d883e69f87f79a7af1f6e9a9d8b2", "is_disabled": 0, "is_reserved": 0}, {"rental_uris": {"ios": "https://dc.lft.to/lastmile_qr_scan", "android": "https://dc.lft.to/lastmile_qr_scan"}, "lon": -77.04998983333333, "type": "electric_scooter", "fusion_lat": 0.0, "lat": 38.892304333333335, "name": "f998f2f40c93f4a34a1b0dc00bcb7fbd", "fusion_lon": 0.0, "bike_id": "f998f2f40c93f4a34a1b0dc00bcb7fbd", "is_disabled": 0, "is_reserved": 0}, {"rental_uris": {"ios": "https://dc.lft.to/lastmile_qr_scan", "android": "https://dc.lft.to/lastmile_qr_scan"}, "lon": -77.02604283333334, "type": "electric_scooter", "fusion_lat": 0.0, "lat": 38.905081, "name": "9c61db0bf6ef8490a678ab7376609161", "fusion_lon": 0.0, "bike_id": "9c61db0bf6ef8490a678ab7376609161", "is_disabled": 0, "is_reserved": 0}, {"rental_uris": {"ios": "https://dc.lft.to/lastmile_qr_scan", "android": "https://dc.lft.to/lastmile_qr_scan"}, "lon": -77.03979266666667, "type": "electric_scooter", "fusion_lat": 0.0, "lat": 38.9002395, "name": "508712ed868ca3408f0f94a9eee28862", "fusion_lon": 0.0, "bike_id": "508712ed868ca3408f0f94a9eee28862", "is_disabled": 0, "is_reserved": 0}, {"rental_uris": {"ios": "https://dc.lft.to/lastmile_qr_scan", "android": "https://dc.lft.to/lastmile_qr_scan"}, "lon": -76.97210466666667, "type": "electric_scooter", "fusion_lat": 0.0, "lat": 38.854957166666665, "name": "104d4e2aa1a1b1bc65d5fe0696386658", "fusion_lon": 0.0, "bike_id": "104d4e2aa1a1b1bc65d5fe0696386658", "is_disabled": 0, "is_reserved": 0}, {"rental_uris": {"ios": "https://dc.lft.to/lastmile_qr_scan", "android": "https://dc.lft.to/lastmile_qr_scan"}, "lon": -77.02210583333333, "type": "electric_scooter", "fusion_lat": 0.0, "lat": 38.8961075, "name": "0611f4355d18cd7c241ca24dadfe4830", "fusion_lon": 0.0, "bike_id": "0611f4355d18cd7c241ca24dadfe4830", "is_disabled": 0, "is_reserved": 0}, {"rental_uris": {"ios": "https://dc.lft.to/lastmile_qr_scan", "android": "https://dc.lft.to/lastmile_qr_scan"}, "lon": -77.02960816666666, "type": "electric_scooter", "fusion_lat": 0.0, "lat": 38.895354833333336, "name": "0cec0e798e5d3e06205d17fadca44cda", "fusion_lon": 0.0, "bike_id": "0cec0e798e5d3e06205d17fadca44cda", "is_disabled": 0, "is_reserved": 0}, {"rental_uris": {"ios": "https://dc.lft.to/lastmile_qr_scan", "android": "https://dc.lft.to/lastmile_qr_scan"}, "lon": -77.04505966666666, "type": "electric_scooter", "fusion_lat": 0.0, "lat": 38.91189966666666, "name": "d1b56b014997031bdaabac03d3cddadb", "fusion_lon": 0.0, "bike_id": "d1b56b014997031bdaabac03d3cddadb", "is_disabled": 0, "is_reserved": 0}, {"rental_uris": {"ios": "https://dc.lft.to/lastmile_qr_scan", "android": "https://dc.lft.to/lastmile_qr_scan"}, "lon": -76.99869783333334, "type": "electric_scooter", "fusion_lat": 0.0, "lat": 38.907554, "name": "2da992b6dfa2fdfccffb1bffc9d6f4a2", "fusion_lon": 0.0, "bike_id": "2da992b6dfa2fdfccffb1bffc9d6f4a2", "is_disabled": 0, "is_reserved": 0}, {"rental_uris": {"ios": "https://dc.lft.to/lastmile_qr_scan", "android": "https://dc.lft.to/lastmile_qr_scan"}, "lon": -77.043293, "type": "electric_scooter", "fusion_lat": 0.0, "lat": 38.908082, "name": "d25a93bdad9d5797429aa9a6bae4e35b", "fusion_lon": 0.0, "bike_id": "d25a93bdad9d5797429aa9a6bae4e35b", "is_disabled": 0, "is_reserved": 0}, {"rental_uris": {"ios": "https://dc.lft.to/lastmile_qr_scan", "android": "https://dc.lft.to/lastmile_qr_scan"}, "lon": -76.94624316666666, "type": "electric_bike", "fusion_lat": 0.0, "lat": 38.946266333333334, "name": "b5750029e54c4019cf3371c42cc0d04d", "fusion_lon": 0.0, "bike_id": "b5750029e54c4019cf3371c42cc0d04d", "is_disabled": 0, "is_reserved": 0}, {"rental_uris": {"ios": "https://dc.lft.to/lastmile_qr_scan", "android": "https://dc.lft.to/lastmile_qr_scan"}, "lon": -77.02649566666666, "type": "electric_scooter", "fusion_lat": 0.0, "lat": 38.89606066666666, "name": "bdf193e55180391318a6fdea5195d5f4", "fusion_lon": 0.0, "bike_id": "bdf193e55180391318a6fdea5195d5f4", "is_disabled": 0, "is_reserved": 0}, {"rental_uris": {"ios": "https://dc.lft.to/lastmile_qr_scan", "android": "https://dc.lft.to/lastmile_qr_scan"}, "lon": -77.04494166666667, "type": "electric_scooter", "fusion_lat": 0.0, "lat": 38.91289066666667, "name": "d121933ba108e89051162dc9f78be48f", "fusion_lon": 0.0, "bike_id": "d121933ba108e89051162dc9f78be48f", "is_disabled": 0, "is_reserved": 0}, {"rental_uris": {"ios": "https://dc.lft.to/lastmile_qr_scan", "android": "https://dc.lft.to/lastmile_qr_scan"}, "lon": -77.04122316666667, "type": "electric_scooter", "fusion_lat": 0.0, "lat": 38.921538166666664, "name": "2915df3bf37f5afefccc878bcc892d36", "fusion_lon": 0.0, "bike_id": "2915df3bf37f5afefccc878bcc892d36", "is_disabled": 0, "is_reserved": 0}, {"rental_uris": {"ios": "https://dc.lft.to/lastmile_qr_scan", "android": "https://dc.lft.to/lastmile_qr_scan"}, "lon": -76.98616933333334, "type": "electric_scooter", "fusion_lat": 0.0, "lat": 38.86818616666667, "name": "761252ecc6797d75cecf0412a87cd0b8", "fusion_lon": 0.0, "bike_id": "761252ecc6797d75cecf0412a87cd0b8", "is_disabled": 0, "is_reserved": 0}, {"rental_uris": {"ios": "https://dc.lft.to/lastmile_qr_scan", "android": "https://dc.lft.to/lastmile_qr_scan"}, "lon": -77.03698516666667, "type": "electric_scooter", "fusion_lat": 0.0, "lat": 38.92646883333333, "name": "dee4738e6384da14ec14cfa852c70c74", "fusion_lon": 0.0, "bike_id": "dee4738e6384da14ec14cfa852c70c74", "is_disabled": 0, "is_reserved": 0}, {"rental_uris": {"ios": "https://dc.lft.to/lastmile_qr_scan", "android": "https://dc.lft.to/lastmile_qr_scan"}, "lon": -77.055797, "type": "electric_scooter", "fusion_lat": 0.0, "lat": 38.927822166666665, "name": "adfda448e781fba908cd395d5b89c269", "fusion_lon": 0.0, "bike_id": "adfda448e781fba908cd395d5b89c269", "is_disabled": 0, "is_reserved": 0}, {"rental_uris": {"ios": "https://dc.lft.to/lastmile_qr_scan", "android": "https://dc.lft.to/lastmile_qr_scan"}, "lon": -76.95736833333333, "type": "electric_scooter", "fusion_lat": 0.0, "lat": 38.8918125, "name": "584dcc66c87f9903fbf352a333bab35b", "fusion_lon": 0.0, "bike_id": "584dcc66c87f9903fbf352a333bab35b", "is_disabled": 0, "is_reserved": 0}, {"rental_uris": {"ios": "https://dc.lft.to/lastmile_qr_scan", "android": "https://dc.lft.to/lastmile_qr_scan"}, "lon": -77.02997933333333, "type": "electric_scooter", "fusion_lat": 0.0, "lat": 38.897108333333335, "name": "3da5de3530e4c2f54f11622f447d366f", "fusion_lon": 0.0, "bike_id": "3da5de3530e4c2f54f11622f447d366f", "is_disabled": 0, "is_reserved": 0}, {"rental_uris": {"ios": "https://dc.lft.to/lastmile_qr_scan", "android": "https://dc.lft.to/lastmile_qr_scan"}, "lon": -77.0294625, "type": "electric_scooter", "fusion_lat": 0.0, "lat": 38.905089333333336, "name": "0b82aec8b8716bdc56c62fd33b0050de", "fusion_lon": 0.0, "bike_id": "0b82aec8b8716bdc56c62fd33b0050de", "is_disabled": 0, "is_reserved": 0}, {"rental_uris": {"ios": "https://dc.lft.to/lastmile_qr_scan", "android": "https://dc.lft.to/lastmile_qr_scan"}, "lon": -77.0371945, "type": "electric_scooter", "fusion_lat": 0.0, "lat": 38.95181616666667, "name": "0e54c81243582a0ce2eeef29dc6bdbd3", "fusion_lon": 0.0, "bike_id": "0e54c81243582a0ce2eeef29dc6bdbd3", "is_disabled": 0, "is_reserved": 0}, {"rental_uris": {"ios": "https://dc.lft.to/lastmile_qr_scan", "android": "https://dc.lft.to/lastmile_qr_scan"}, "lon": -77.02546716666667, "type": "electric_scooter", "fusion_lat": 0.0, "lat": 38.91818416666667, "name": "eb1781a30780c9ff152aa240b1a28c23", "fusion_lon": 0.0, "bike_id": "eb1781a30780c9ff152aa240b1a28c23", "is_disabled": 0, "is_reserved": 0}, {"rental_uris": {"ios": "https://dc.lft.to/lastmile_qr_scan", "android": "https://dc.lft.to/lastmile_qr_scan"}, "lon": -77.03349566666667, "type": "electric_scooter", "fusion_lat": 0.0, "lat": 38.8854535, "name": "9531f6672f8592671119d7258082f333", "fusion_lon": 0.0, "bike_id": "9531f6672f8592671119d7258082f333", "is_disabled": 0, "is_reserved": 0}, {"rental_uris": {"ios": "https://dc.lft.to/lastmile_qr_scan", "android": "https://dc.lft.to/lastmile_qr_scan"}, "lon": -77.0071425, "type": "electric_scooter", "fusion_lat": 0.0, "lat": 38.87947833333333, "name": "b5536d5db841773d8ed2b616195ab6a8", "fusion_lon": 0.0, "bike_id": "b5536d5db841773d8ed2b616195ab6a8", "is_disabled": 0, "is_reserved": 0}, {"rental_uris": {"ios": "https://dc.lft.to/lastmile_qr_scan", "android": "https://dc.lft.to/lastmile_qr_scan"}, "lon": -76.96627716666667, "type": "electric_bike", "fusion_lat": 0.0, "lat": 38.94200033333333, "name": "c0dfbe362b68529bd7fd5a29945a7fb8", "fusion_lon": 0.0, "bike_id": "c0dfbe362b68529bd7fd5a29945a7fb8", "is_disabled": 0, "is_reserved": 0}, {"rental_uris": {"ios": "https://dc.lft.to/lastmile_qr_scan", "android": "https://dc.lft.to/lastmile_qr_scan"}, "lon": -76.92891516666667, "type": "electric_scooter", "fusion_lat": 0.0, "lat": 38.893325, "name": "ea97b94299a6a0b8c6606e564e553252", "fusion_lon": 0.0, "bike_id": "ea97b94299a6a0b8c6606e564e553252", "is_disabled": 0, "is_reserved": 0}, {"rental_uris": {"ios": "https://dc.lft.to/lastmile_qr_scan", "android": "https://dc.lft.to/lastmile_qr_scan"}, "lon": -77.00121466666667, "type": "electric_scooter", "fusion_lat": 0.0, "lat": 38.903815333333334, "name": "75d0fc2329e3a94938bdc4ef1ca7fd2d", "fusion_lon": 0.0, "bike_id": "75d0fc2329e3a94938bdc4ef1ca7fd2d", "is_disabled": 0, "is_reserved": 0}, {"rental_uris": {"ios": "https://dc.lft.to/lastmile_qr_scan", "android": "https://dc.lft.to/lastmile_qr_scan"}, "lon": -77.04614166666667, "type": "electric_scooter", "fusion_lat": 0.0, "lat": 38.903866, "name": "9573e25fd1a9b40e4d423f1976fea8c4", "fusion_lon": 0.0, "bike_id": "9573e25fd1a9b40e4d423f1976fea8c4", "is_disabled": 0, "is_reserved": 0}, {"rental_uris": {"ios": "https://dc.lft.to/lastmile_qr_scan", "android": "https://dc.lft.to/lastmile_qr_scan"}, "lon": -77.01111133333333, "type": "electric_scooter", "fusion_lat": 0.0, "lat": 38.91567166666667, "name": "cf93540c10f4784fc34d73420a8e4d7a", "fusion_lon": 0.0, "bike_id": "cf93540c10f4784fc34d73420a8e4d7a", "is_disabled": 0, "is_reserved": 0}, {"rental_uris": {"ios": "https://dc.lft.to/lastmile_qr_scan", "android": "https://dc.lft.to/lastmile_qr_scan"}, "lon": -77.02697766666667, "type": "electric_scooter", "fusion_lat": 0.0, "lat": 38.949839833333336, "name": "0f4c2badda884c535be807ee12504fb3", "fusion_lon": 0.0, "bike_id": "0f4c2badda884c535be807ee12504fb3", "is_disabled": 0, "is_reserved": 0}, {"rental_uris": {"ios": "https://dc.lft.to/lastmile_qr_scan", "android": "https://dc.lft.to/lastmile_qr_scan"}, "lon": -77.0222635, "type": "electric_scooter", "fusion_lat": 0.0, "lat": 38.892234, "name": "0abada81dd3efcf367e004a612dad6b3", "fusion_lon": 0.0, "bike_id": "0abada81dd3efcf367e004a612dad6b3", "is_disabled": 0, "is_reserved": 0}, {"rental_uris": {"ios": "https://dc.lft.to/lastmile_qr_scan", "android": "https://dc.lft.to/lastmile_qr_scan"}, "lon": -77.03176233333333, "type": "electric_scooter", "fusion_lat": 0.0, "lat": 38.912752166666664, "name": "5ea81558d8c4197fa637275d5af0f642", "fusion_lon": 0.0, "bike_id": "5ea81558d8c4197fa637275d5af0f642", "is_disabled": 0, "is_reserved": 0}, {"rental_uris": {"ios": "https://dc.lft.to/lastmile_qr_scan", "android": "https://dc.lft.to/lastmile_qr_scan"}, "lon": -77.031625, "type": "electric_scooter", "fusion_lat": 0.0, "lat": 38.8995245, "name": "b87356544f394441e8a6d71cff52df09", "fusion_lon": 0.0, "bike_id": "b87356544f394441e8a6d71cff52df09", "is_disabled": 0, "is_reserved": 0}, {"rental_uris": {"ios": "https://dc.lft.to/lastmile_qr_scan", "android": "https://dc.lft.to/lastmile_qr_scan"}, "lon": -77.04999466666666, "type": "electric_scooter", "fusion_lat": 0.0, "lat": 38.892321, "name": "4ea4e083df57890e510ae15b79c5494c", "fusion_lon": 0.0, "bike_id": "4ea4e083df57890e510ae15b79c5494c", "is_disabled": 0, "is_reserved": 0}, {"rental_uris": {"ios": "https://dc.lft.to/lastmile_qr_scan", "android": "https://dc.lft.to/lastmile_qr_scan"}, "lon": -76.99517733333333, "type": "electric_scooter", "fusion_lat": 0.0, "lat": 38.862616833333334, "name": "a8c6c6d53fc4db6397edd9bc236f1156", "fusion_lon": 0.0, "bike_id": "a8c6c6d53fc4db6397edd9bc236f1156", "is_disabled": 0, "is_reserved": 0}, {"rental_uris": {"ios": "https://dc.lft.to/lastmile_qr_scan", "android": "https://dc.lft.to/lastmile_qr_scan"}, "lon": -77.02349783333334, "type": "electric_scooter", "fusion_lat": 0.0, "lat": 38.945223, "name": "3e16e42d3fa48ad8de0455563d5b2b2a", "fusion_lon": 0.0, "bike_id": "3e16e42d3fa48ad8de0455563d5b2b2a", "is_disabled": 0, "is_reserved": 0}, {"rental_uris": {"ios": "https://dc.lft.to/lastmile_qr_scan", "android": "https://dc.lft.to/lastmile_qr_scan"}, "lon": -77.01608966666667, "type": "electric_scooter", "fusion_lat": 0.0, "lat": 38.89966733333333, "name": "ef68f4adab9e6cd116b617508d18374b", "fusion_lon": 0.0, "bike_id": "ef68f4adab9e6cd116b617508d18374b", "is_disabled": 0, "is_reserved": 0}, {"rental_uris": {"ios": "https://dc.lft.to/lastmile_qr_scan", "android": "https://dc.lft.to/lastmile_qr_scan"}, "lon": -76.94889133333334, "type": "electric_scooter", "fusion_lat": 0.0, "lat": 38.895361, "name": "87c7f526faf309553fb04f9eda681752", "fusion_lon": 0.0, "bike_id": "87c7f526faf309553fb04f9eda681752", "is_disabled": 0, "is_reserved": 0}, {"rental_uris": {"ios": "https://dc.lft.to/lastmile_qr_scan", "android": "https://dc.lft.to/lastmile_qr_scan"}, "lon": -77.03169183333333, "type": "electric_scooter", "fusion_lat": 0.0, "lat": 38.92116866666667, "name": "fe159e58eb9842d039e03f68e3edaeba", "fusion_lon": 0.0, "bike_id": "fe159e58eb9842d039e03f68e3edaeba", "is_disabled": 0, "is_reserved": 0}, {"rental_uris": {"ios": "https://dc.lft.to/lastmile_qr_scan", "android": "https://dc.lft.to/lastmile_qr_scan"}, "lon": -77.0587905, "type": "electric_scooter", "fusion_lat": 0.0, "lat": 38.9363715, "name": "5567f64ab1efa5c057f1367270f2a465", "fusion_lon": 0.0, "bike_id": "5567f64ab1efa5c057f1367270f2a465", "is_disabled": 0, "is_reserved": 0}, {"rental_uris": {"ios": "https://dc.lft.to/lastmile_qr_scan", "android": "https://dc.lft.to/lastmile_qr_scan"}, "lon": -77.02964516666667, "type": "electric_scooter", "fusion_lat": 0.0, "lat": 38.93614733333333, "name": "537c6c0850e939fff69b347aa59837e3", "fusion_lon": 0.0, "bike_id": "537c6c0850e939fff69b347aa59837e3", "is_disabled": 0, "is_reserved": 0}, {"rental_uris": {"ios": "https://dc.lft.to/lastmile_qr_scan", "android": "https://dc.lft.to/lastmile_qr_scan"}, "lon": -77.0321315, "type": "electric_scooter", "fusion_lat": 0.0, "lat": 38.9181725, "name": "a4bf19455324e31a8fe383ed0801d006", "fusion_lon": 0.0, "bike_id": "a4bf19455324e31a8fe383ed0801d006", "is_disabled": 0, "is_reserved": 0}, {"rental_uris": {"ios": "https://dc.lft.to/lastmile_qr_scan", "android": "https://dc.lft.to/lastmile_qr_scan"}, "lon": -77.043422, "type": "electric_scooter", "fusion_lat": 0.0, "lat": 38.922299, "name": "0119f81cf74aa6046b8e35da9328620d", "fusion_lon": 0.0, "bike_id": "0119f81cf74aa6046b8e35da9328620d", "is_disabled": 0, "is_reserved": 0}, {"rental_uris": {"ios": "https://dc.lft.to/lastmile_qr_scan", "android": "https://dc.lft.to/lastmile_qr_scan"}, "lon": -77.002949, "type": "electric_scooter", "fusion_lat": 0.0, "lat": 38.90890533333334, "name": "d8c3d422aac2d338de30fbec7e7058f3", "fusion_lon": 0.0, "bike_id": "d8c3d422aac2d338de30fbec7e7058f3", "is_disabled": 0, "is_reserved": 0}, {"rental_uris": {"ios": "https://dc.lft.to/lastmile_qr_scan", "android": "https://dc.lft.to/lastmile_qr_scan"}, "lon": -77.04693733333333, "type": "electric_scooter", "fusion_lat": 0.0, "lat": 38.89741733333334, "name": "1bba92a67c78b960bd5e4995b67c16ff", "fusion_lon": 0.0, "bike_id": "1bba92a67c78b960bd5e4995b67c16ff", "is_disabled": 0, "is_reserved": 0}, {"rental_uris": {"ios": "https://dc.lft.to/lastmile_qr_scan", "android": "https://dc.lft.to/lastmile_qr_scan"}, "lon": -77.0199945, "type": "electric_scooter", "fusion_lat": 0.0, "lat": 38.899230333333335, "name": "c31ea0bc18fabba05ad15f19d6f07a83", "fusion_lon": 0.0, "bike_id": "c31ea0bc18fabba05ad15f19d6f07a83", "is_disabled": 0, "is_reserved": 0}, {"rental_uris": {"ios": "https://dc.lft.to/lastmile_qr_scan", "android": "https://dc.lft.to/lastmile_qr_scan"}, "lon": -77.00371583333333, "type": "electric_bike", "fusion_lat": 0.0, "lat": 38.83609466666667, "name": "816c26377b151a92a21392103d8dfe19", "fusion_lon": 0.0, "bike_id": "816c26377b151a92a21392103d8dfe19", "is_disabled": 0, "is_reserved": 0}, {"rental_uris": {"ios": "https://dc.lft.to/lastmile_qr_scan", "android": "https://dc.lft.to/lastmile_qr_scan"}, "lon": -77.02257383333334, "type": "electric_scooter", "fusion_lat": 0.0, "lat": 38.92448433333333, "name": "94919082ee0c24f0f363f50ebae3c5d1", "fusion_lon": 0.0, "bike_id": "94919082ee0c24f0f363f50ebae3c5d1", "is_disabled": 0, "is_reserved": 0}, {"rental_uris": {"ios": "https://dc.lft.to/lastmile_qr_scan", "android": "https://dc.lft.to/lastmile_qr_scan"}, "lon": -77.04010916666667, "type": "electric_scooter", "fusion_lat": 0.0, "lat": 38.92182066666667, "name": "2fc35e18cdff777eaecb8eeb9683cccd", "fusion_lon": 0.0, "bike_id": "2fc35e18cdff777eaecb8eeb9683cccd", "is_disabled": 0, "is_reserved": 0}, {"rental_uris": {"ios": "https://dc.lft.to/lastmile_qr_scan", "android": "https://dc.lft.to/lastmile_qr_scan"}, "lon": -77.02798883333334, "type": "electric_scooter", "fusion_lat": 0.0, "lat": 38.96143333333333, "name": "5871ad1e856c7e52b566e46b5dac3146", "fusion_lon": 0.0, "bike_id": "5871ad1e856c7e52b566e46b5dac3146", "is_disabled": 0, "is_reserved": 0}, {"rental_uris": {"ios": "https://dc.lft.to/lastmile_qr_scan", "android": "https://dc.lft.to/lastmile_qr_scan"}, "lon": -77.04411866666666, "type": "electric_scooter", "fusion_lat": 0.0, "lat": 38.91133083333333, "name": "f25fa3bc9270d23090e0b80884ea10bd", "fusion_lon": 0.0, "bike_id": "f25fa3bc9270d23090e0b80884ea10bd", "is_disabled": 0, "is_reserved": 0}, {"rental_uris": {"ios": "https://dc.lft.to/lastmile_qr_scan", "android": "https://dc.lft.to/lastmile_qr_scan"}, "lon": -76.93160783333333, "type": "electric_bike", "fusion_lat": 0.0, "lat": 38.90863383333333, "name": "3719242b77465027269d5953385f0763", "fusion_lon": 0.0, "bike_id": "3719242b77465027269d5953385f0763", "is_disabled": 0, "is_reserved": 0}, {"rental_uris": {"ios": "https://dc.lft.to/lastmile_qr_scan", "android": "https://dc.lft.to/lastmile_qr_scan"}, "lon": -76.99060533333333, "type": "electric_scooter", "fusion_lat": 0.0, "lat": 38.863603166666664, "name": "9791aff3521660f74579a00fbab08a1d", "fusion_lon": 0.0, "bike_id": "9791aff3521660f74579a00fbab08a1d", "is_disabled": 0, "is_reserved": 0}, {"rental_uris": {"ios": "https://dc.lft.to/lastmile_qr_scan", "android": "https://dc.lft.to/lastmile_qr_scan"}, "lon": -76.9700365, "type": "electric_bike", "fusion_lat": 0.0, "lat": 38.8637095, "name": "aae72f20311eb64eb9a276ec71f2fad8", "fusion_lon": 0.0, "bike_id": "aae72f20311eb64eb9a276ec71f2fad8", "is_disabled": 0, "is_reserved": 0}, {"rental_uris": {"ios": "https://dc.lft.to/lastmile_qr_scan", "android": "https://dc.lft.to/lastmile_qr_scan"}, "lon": -77.027053, "type": "electric_scooter", "fusion_lat": 0.0, "lat": 38.918168, "name": "ea9ca5ad6d29965cddd39de685fcaec5", "fusion_lon": 0.0, "bike_id": "ea9ca5ad6d29965cddd39de685fcaec5", "is_disabled": 0, "is_reserved": 0}, {"rental_uris": {"ios": "https://dc.lft.to/lastmile_qr_scan", "android": "https://dc.lft.to/lastmile_qr_scan"}, "lon": -77.01586066666667, "type": "electric_scooter", "fusion_lat": 0.0, "lat": 38.916476833333334, "name": "b0acc7614924ebc22e2f184f49532254", "fusion_lon": 0.0, "bike_id": "b0acc7614924ebc22e2f184f49532254", "is_disabled": 0, "is_reserved": 0}, {"rental_uris": {"ios": "https://dc.lft.to/lastmile_qr_scan", "android": "https://dc.lft.to/lastmile_qr_scan"}, "lon": -77.01415116666666, "type": "electric_scooter", "fusion_lat": 0.0, "lat": 38.915622666666664, "name": "f6764391543deb224046b63f438fd9ff", "fusion_lon": 0.0, "bike_id": "f6764391543deb224046b63f438fd9ff", "is_disabled": 0, "is_reserved": 0}, {"rental_uris": {"ios": "https://dc.lft.to/lastmile_qr_scan", "android": "https://dc.lft.to/lastmile_qr_scan"}, "lon": -77.00918033333333, "type": "electric_scooter", "fusion_lat": 0.0, "lat": 38.910969333333334, "name": "0bfcd03d3ec1989ca2a9f8d0bc71a3f6", "fusion_lon": 0.0, "bike_id": "0bfcd03d3ec1989ca2a9f8d0bc71a3f6", "is_disabled": 0, "is_reserved": 0}, {"rental_uris": {"ios": "https://dc.lft.to/lastmile_qr_scan", "android": "https://dc.lft.to/lastmile_qr_scan"}, "lon": -76.98002083333333, "type": "electric_bike", "fusion_lat": 0.0, "lat": 38.862845166666666, "name": "34ffc9eec2ac13d2cefc5dd9663442f2", "fusion_lon": 0.0, "bike_id": "34ffc9eec2ac13d2cefc5dd9663442f2", "is_disabled": 0, "is_reserved": 0}, {"rental_uris": {"ios": "https://dc.lft.to/lastmile_qr_scan", "android": "https://dc.lft.to/lastmile_qr_scan"}, "lon": -77.02385316666667, "type": "electric_scooter", "fusion_lat": 0.0, "lat": 38.89524566666667, "name": "e546c1f14dd3eda5b906cf663df82e85", "fusion_lon": 0.0, "bike_id": "e546c1f14dd3eda5b906cf663df82e85", "is_disabled": 0, "is_reserved": 0}, {"rental_uris": {"ios": "https://dc.lft.to/lastmile_qr_scan", "android": "https://dc.lft.to/lastmile_qr_scan"}, "lon": -76.930978, "type": "electric_scooter", "fusion_lat": 0.0, "lat": 38.90141083333334, "name": "c326d828a69e2ae0f4acde5af0c49a6e", "fusion_lon": 0.0, "bike_id": "c326d828a69e2ae0f4acde5af0c49a6e", "is_disabled": 0, "is_reserved": 0}, {"rental_uris": {"ios": "https://dc.lft.to/lastmile_qr_scan", "android": "https://dc.lft.to/lastmile_qr_scan"}, "lon": -77.0534745, "type": "electric_scooter", "fusion_lat": 0.0, "lat": 38.9025755, "name": "1b9f80258dd23a515df1d7067832d4a3", "fusion_lon": 0.0, "bike_id": "1b9f80258dd23a515df1d7067832d4a3", "is_disabled": 0, "is_reserved": 0}, {"rental_uris": {"ios": "https://dc.lft.to/lastmile_qr_scan", "android": "https://dc.lft.to/lastmile_qr_scan"}, "lon": -77.0500855, "type": "electric_scooter", "fusion_lat": 0.0, "lat": 38.901848333333334, "name": "425075ed0bf4cbe3dc543dd8768e1623", "fusion_lon": 0.0, "bike_id": "425075ed0bf4cbe3dc543dd8768e1623", "is_disabled": 0, "is_reserved": 0}, {"rental_uris": {"ios": "https://dc.lft.to/lastmile_qr_scan", "android": "https://dc.lft.to/lastmile_qr_scan"}, "lon": -77.015835, "type": "electric_scooter", "fusion_lat": 0.0, "lat": 38.9017845, "name": "914f87232e90aeeb17408c1265cdab42", "fusion_lon": 0.0, "bike_id": "914f87232e90aeeb17408c1265cdab42", "is_disabled": 0, "is_reserved": 0}, {"rental_uris": {"ios": "https://dc.lft.to/lastmile_qr_scan", "android": "https://dc.lft.to/lastmile_qr_scan"}, "lon": -77.0275745, "type": "electric_scooter", "fusion_lat": 0.0, "lat": 38.88166733333333, "name": "08e9bcf8aa48a2fe18fe9a27fd683b72", "fusion_lon": 0.0, "bike_id": "08e9bcf8aa48a2fe18fe9a27fd683b72", "is_disabled": 0, "is_reserved": 0}, {"rental_uris": {"ios": "https://dc.lft.to/lastmile_qr_scan", "android": "https://dc.lft.to/lastmile_qr_scan"}, "lon": -77.0317725, "type": "electric_scooter", "fusion_lat": 0.0, "lat": 38.88740333333333, "name": "3db8484102e9f970177921fc710bcf46", "fusion_lon": 0.0, "bike_id": "3db8484102e9f970177921fc710bcf46", "is_disabled": 0, "is_reserved": 0}, {"rental_uris": {"ios": "https://dc.lft.to/lastmile_qr_scan", "android": "https://dc.lft.to/lastmile_qr_scan"}, "lon": -77.05042366666666, "type": "electric_scooter", "fusion_lat": 0.0, "lat": 38.9236295, "name": "f20a16e4f10e499aa1684cf90ccc9624", "fusion_lon": 0.0, "bike_id": "f20a16e4f10e499aa1684cf90ccc9624", "is_disabled": 0, "is_reserved": 0}, {"rental_uris": {"ios": "https://dc.lft.to/lastmile_qr_scan", "android": "https://dc.lft.to/lastmile_qr_scan"}, "lon": -77.02948133333334, "type": "electric_scooter", "fusion_lat": 0.0, "lat": 38.90842883333333, "name": "65ab1c5ded59e622afb999ea006d27f1", "fusion_lon": 0.0, "bike_id": "65ab1c5ded59e622afb999ea006d27f1", "is_disabled": 0, "is_reserved": 0}, {"rental_uris": {"ios": "https://dc.lft.to/lastmile_qr_scan", "android": "https://dc.lft.to/lastmile_qr_scan"}, "lon": -77.05043883333333, "type": "electric_scooter", "fusion_lat": 0.0, "lat": 38.923643, "name": "c5cc5b7faf7add841090e9ec55d06bd7", "fusion_lon": 0.0, "bike_id": "c5cc5b7faf7add841090e9ec55d06bd7", "is_disabled": 0, "is_reserved": 0}, {"rental_uris": {"ios": "https://dc.lft.to/lastmile_qr_scan", "android": "https://dc.lft.to/lastmile_qr_scan"}, "lon": -76.99035266666667, "type": "electric_scooter", "fusion_lat": 0.0, "lat": 38.856607833333335, "name": "562fdd5ea98879a48a0092a5b1f89549", "fusion_lon": 0.0, "bike_id": "562fdd5ea98879a48a0092a5b1f89549", "is_disabled": 0, "is_reserved": 0}, {"rental_uris": {"ios": "https://dc.lft.to/lastmile_qr_scan", "android": "https://dc.lft.to/lastmile_qr_scan"}, "lon": -76.93241983333333, "type": "electric_scooter", "fusion_lat": 0.0, "lat": 38.89409066666666, "name": "4c3383f6e9ea202c181f1069182804a7", "fusion_lon": 0.0, "bike_id": "4c3383f6e9ea202c181f1069182804a7", "is_disabled": 0, "is_reserved": 0}, {"rental_uris": {"ios": "https://dc.lft.to/lastmile_qr_scan", "android": "https://dc.lft.to/lastmile_qr_scan"}, "lon": -77.04644583333334, "type": "electric_bike", "fusion_lat": 0.0, "lat": 38.85210583333333, "name": "95d37753b5faa6b5a5abc6836a792fd9", "fusion_lon": 0.0, "bike_id": "95d37753b5faa6b5a5abc6836a792fd9", "is_disabled": 0, "is_reserved": 0}, {"rental_uris": {"ios": "https://dc.lft.to/lastmile_qr_scan", "android": "https://dc.lft.to/lastmile_qr_scan"}, "lon": -77.0738915, "type": "electric_scooter", "fusion_lat": 0.0, "lat": 38.961753333333334, "name": "b02fc50804b41a5990cc4f245ecd1d56", "fusion_lon": 0.0, "bike_id": "b02fc50804b41a5990cc4f245ecd1d56", "is_disabled": 0, "is_reserved": 0}, {"rental_uris": {"ios": "https://dc.lft.to/lastmile_qr_scan", "android": "https://dc.lft.to/lastmile_qr_scan"}, "lon": -77.046634, "type": "electric_scooter", "fusion_lat": 0.0, "lat": 38.9330105, "name": "f0d6a7b55bccd700679587cdfcc56b74", "fusion_lon": 0.0, "bike_id": "f0d6a7b55bccd700679587cdfcc56b74", "is_disabled": 0, "is_reserved": 0}, {"rental_uris": {"ios": "https://dc.lft.to/lastmile_qr_scan", "android": "https://dc.lft.to/lastmile_qr_scan"}, "lon": -77.05523983333333, "type": "electric_scooter", "fusion_lat": 0.0, "lat": 38.92798233333333, "name": "de88574348149e054bf573d8d85dd1ca", "fusion_lon": 0.0, "bike_id": "de88574348149e054bf573d8d85dd1ca", "is_disabled": 0, "is_reserved": 0}, {"rental_uris": {"ios": "https://dc.lft.to/lastmile_qr_scan", "android": "https://dc.lft.to/lastmile_qr_scan"}, "lon": -77.03387766666667, "type": "electric_scooter", "fusion_lat": 0.0, "lat": 38.886598, "name": "2a6b6a8f6da6d1ea03d5d5a5fae7d87e", "fusion_lon": 0.0, "bike_id": "2a6b6a8f6da6d1ea03d5d5a5fae7d87e", "is_disabled": 0, "is_reserved": 0}, {"rental_uris": {"ios": "https://dc.lft.to/lastmile_qr_scan", "android": "https://dc.lft.to/lastmile_qr_scan"}, "lon": -77.024533, "type": "electric_scooter", "fusion_lat": 0.0, "lat": 38.93861283333333, "name": "0ef3fdaaec6591dab1586699e7f79fd6", "fusion_lon": 0.0, "bike_id": "0ef3fdaaec6591dab1586699e7f79fd6", "is_disabled": 0, "is_reserved": 0}, {"rental_uris": {"ios": "https://dc.lft.to/lastmile_qr_scan", "android": "https://dc.lft.to/lastmile_qr_scan"}, "lon": -77.1295985, "type": "electric_bike", "fusion_lat": 0.0, "lat": 38.807907166666666, "name": "5c499078524317aa4c94bd0fabc05807", "fusion_lon": 0.0, "bike_id": "5c499078524317aa4c94bd0fabc05807", "is_disabled": 0, "is_reserved": 0}, {"rental_uris": {"ios": "https://dc.lft.to/lastmile_qr_scan", "android": "https://dc.lft.to/lastmile_qr_scan"}, "lon": -77.0128655, "type": "electric_bike", "fusion_lat": 0.0, "lat": 39.00384783333333, "name": "fd0fe65a29980885648c1342fbc044b8", "fusion_lon": 0.0, "bike_id": "fd0fe65a29980885648c1342fbc044b8", "is_disabled": 0, "is_reserved": 0}, {"rental_uris": {"ios": "https://dc.lft.to/lastmile_qr_scan", "android": "https://dc.lft.to/lastmile_qr_scan"}, "lon": -77.07837483333333, "type": "electric_scooter", "fusion_lat": 0.0, "lat": 38.931496833333334, "name": "85fe8f52a04190ecdae806ebc138860c", "fusion_lon": 0.0, "bike_id": "85fe8f52a04190ecdae806ebc138860c", "is_disabled": 0, "is_reserved": 0}, {"rental_uris": {"ios": "https://dc.lft.to/lastmile_qr_scan", "android": "https://dc.lft.to/lastmile_qr_scan"}, "lon": -77.0417125, "type": "electric_scooter", "fusion_lat": 0.0, "lat": 38.9005625, "name": "b90bbc3cb880289c8bcf2efe3b791378", "fusion_lon": 0.0, "bike_id": "b90bbc3cb880289c8bcf2efe3b791378", "is_disabled": 0, "is_reserved": 0}, {"rental_uris": {"ios": "https://dc.lft.to/lastmile_qr_scan", "android": "https://dc.lft.to/lastmile_qr_scan"}, "lon": -77.01253783333334, "type": "electric_scooter", "fusion_lat": 0.0, "lat": 38.899641, "name": "fae00fa350a9030c900acc6cb9ac0f9e", "fusion_lon": 0.0, "bike_id": "fae00fa350a9030c900acc6cb9ac0f9e", "is_disabled": 0, "is_reserved": 0}, {"rental_uris": {"ios": "https://dc.lft.to/lastmile_qr_scan", "android": "https://dc.lft.to/lastmile_qr_scan"}, "lon": -77.01013383333333, "type": "electric_scooter", "fusion_lat": 0.0, "lat": 38.894909, "name": "9e111cdca4b06f7d6ee8e153ded9b7b3", "fusion_lon": 0.0, "bike_id": "9e111cdca4b06f7d6ee8e153ded9b7b3", "is_disabled": 0, "is_reserved": 0}, {"rental_uris": {"ios": "https://dc.lft.to/lastmile_qr_scan", "android": "https://dc.lft.to/lastmile_qr_scan"}, "lon": -77.13594783333333, "type": "electric_bike", "fusion_lat": 0.0, "lat": 39.053477666666666, "name": "5146d9f803c5915f1685f5d753ed4f76", "fusion_lon": 0.0, "bike_id": "5146d9f803c5915f1685f5d753ed4f76", "is_disabled": 0, "is_reserved": 0}, {"rental_uris": {"ios": "https://dc.lft.to/lastmile_qr_scan", "android": "https://dc.lft.to/lastmile_qr_scan"}, "lon": -76.99148016666666, "type": "electric_scooter", "fusion_lat": 0.0, "lat": 38.900408166666665, "name": "ce73e996dbebd9b43b0e3d108586c735", "fusion_lon": 0.0, "bike_id": "ce73e996dbebd9b43b0e3d108586c735", "is_disabled": 0, "is_reserved": 0}, {"rental_uris": {"ios": "https://dc.lft.to/lastmile_qr_scan", "android": "https://dc.lft.to/lastmile_qr_scan"}, "lon": -76.98717416666666, "type": "electric_scooter", "fusion_lat": 0.0, "lat": 38.86269383333333, "name": "411c672f8f0f326949f1d597bf28c6bc", "fusion_lon": 0.0, "bike_id": "411c672f8f0f326949f1d597bf28c6bc", "is_disabled": 0, "is_reserved": 0}, {"rental_uris": {"ios": "https://dc.lft.to/lastmile_qr_scan", "android": "https://dc.lft.to/lastmile_qr_scan"}, "lon": -77.02207733333333, "type": "electric_scooter", "fusion_lat": 0.0, "lat": 38.887367, "name": "9b9a7106ea21cf2f9a295e1b226d3a5b", "fusion_lon": 0.0, "bike_id": "9b9a7106ea21cf2f9a295e1b226d3a5b", "is_disabled": 0, "is_reserved": 0}, {"rental_uris": {"ios": "https://dc.lft.to/lastmile_qr_scan", "android": "https://dc.lft.to/lastmile_qr_scan"}, "lon": -77.00289283333333, "type": "electric_bike", "fusion_lat": 0.0, "lat": 38.91617883333333, "name": "f3778dfbcc148a699e86f58caac450bf", "fusion_lon": 0.0, "bike_id": "f3778dfbcc148a699e86f58caac450bf", "is_disabled": 0, "is_reserved": 0}, {"rental_uris": {"ios": "https://dc.lft.to/lastmile_qr_scan", "android": "https://dc.lft.to/lastmile_qr_scan"}, "lon": -77.050416, "type": "electric_scooter", "fusion_lat": 0.0, "lat": 38.923627, "name": "a2732f3cddac52ac2e1999e8089fa015", "fusion_lon": 0.0, "bike_id": "a2732f3cddac52ac2e1999e8089fa015", "is_disabled": 0, "is_reserved": 0}, {"rental_uris": {"ios": "https://dc.lft.to/lastmile_qr_scan", "android": "https://dc.lft.to/lastmile_qr_scan"}, "lon": -76.94667783333334, "type": "electric_scooter", "fusion_lat": 0.0, "lat": 38.903386833333336, "name": "4320eb3c6ac99cbbc0932b13a0e98fc3", "fusion_lon": 0.0, "bike_id": "4320eb3c6ac99cbbc0932b13a0e98fc3", "is_disabled": 0, "is_reserved": 0}, {"rental_uris": {"ios": "https://dc.lft.to/lastmile_qr_scan", "android": "https://dc.lft.to/lastmile_qr_scan"}, "lon": -76.99515033333333, "type": "electric_scooter", "fusion_lat": 0.0, "lat": 38.894847666666664, "name": "c8f822d1ee87fd8e70bfc099c7f52660", "fusion_lon": 0.0, "bike_id": "c8f822d1ee87fd8e70bfc099c7f52660", "is_disabled": 0, "is_reserved": 0}, {"rental_uris": {"ios": "https://dc.lft.to/lastmile_qr_scan", "android": "https://dc.lft.to/lastmile_qr_scan"}, "lon": -76.95761066666667, "type": "electric_bike", "fusion_lat": 0.0, "lat": 38.884282666666664, "name": "ccebc2d9ded109ffafdb00b26e318130", "fusion_lon": 0.0, "bike_id": "ccebc2d9ded109ffafdb00b26e318130", "is_disabled": 0, "is_reserved": 0}, {"rental_uris": {"ios": "https://dc.lft.to/lastmile_qr_scan", "android": "https://dc.lft.to/lastmile_qr_scan"}, "lon": -77.0787905, "type": "electric_bike", "fusion_lat": 0.0, "lat": 38.91275266666667, "name": "ea2074aa85d9384d416bf3d26cf7c22f", "fusion_lon": 0.0, "bike_id": "ea2074aa85d9384d416bf3d26cf7c22f", "is_disabled": 0, "is_reserved": 0}, {"rental_uris": {"ios": "https://dc.lft.to/lastmile_qr_scan", "android": "https://dc.lft.to/lastmile_qr_scan"}, "lon": -77.02624216666666, "type": "electric_scooter", "fusion_lat": 0.0, "lat": 38.8922175, "name": "db40ac99f21adae932d1f405bac08a84", "fusion_lon": 0.0, "bike_id": "db40ac99f21adae932d1f405bac08a84", "is_disabled": 0, "is_reserved": 0}, {"rental_uris": {"ios": "https://dc.lft.to/lastmile_qr_scan", "android": "https://dc.lft.to/lastmile_qr_scan"}, "lon": -76.9935545, "type": "electric_scooter", "fusion_lat": 0.0, "lat": 38.900400833333336, "name": "55cfc9ca4be2da9b27cabc1898003b33", "fusion_lon": 0.0, "bike_id": "55cfc9ca4be2da9b27cabc1898003b33", "is_disabled": 0, "is_reserved": 0}, {"rental_uris": {"ios": "https://dc.lft.to/lastmile_qr_scan", "android": "https://dc.lft.to/lastmile_qr_scan"}, "lon": -76.87817066666666, "type": "electric_bike", "fusion_lat": 0.0, "lat": 38.992312, "name": "21a1e630f783686f4cd99ae7fcc84009", "fusion_lon": 0.0, "bike_id": "21a1e630f783686f4cd99ae7fcc84009", "is_disabled": 0, "is_reserved": 0}, {"rental_uris": {"ios": "https://dc.lft.to/lastmile_qr_scan", "android": "https://dc.lft.to/lastmile_qr_scan"}, "lon": -77.01642283333334, "type": "electric_scooter", "fusion_lat": 0.0, "lat": 38.9294045, "name": "8bec65187632e1ae26200d44eb7d69ef", "fusion_lon": 0.0, "bike_id": "8bec65187632e1ae26200d44eb7d69ef", "is_disabled": 0, "is_reserved": 0}, {"rental_uris": {"ios": "https://dc.lft.to/lastmile_qr_scan", "android": "https://dc.lft.to/lastmile_qr_scan"}, "lon": -77.03771683333333, "type": "electric_scooter", "fusion_lat": 0.0, "lat": 38.93609033333333, "name": "4ae7ffbb23f6f1e0bcdecf38f75420de", "fusion_lon": 0.0, "bike_id": "4ae7ffbb23f6f1e0bcdecf38f75420de", "is_disabled": 0, "is_reserved": 0}, {"rental_uris": {"ios": "https://dc.lft.to/lastmile_qr_scan", "android": "https://dc.lft.to/lastmile_qr_scan"}, "lon": -77.05746333333333, "type": "electric_scooter", "fusion_lat": 0.0, "lat": 38.9049655, "name": "780e81acf1ffe883158ff4608d97f9a0", "fusion_lon": 0.0, "bike_id": "780e81acf1ffe883158ff4608d97f9a0", "is_disabled": 0, "is_reserved": 0}, {"rental_uris": {"ios": "https://dc.lft.to/lastmile_qr_scan", "android": "https://dc.lft.to/lastmile_qr_scan"}, "lon": -77.038397, "type": "electric_scooter", "fusion_lat": 0.0, "lat": 38.931116833333334, "name": "285000dd0a3f5544bf656fce39fb2146", "fusion_lon": 0.0, "bike_id": "285000dd0a3f5544bf656fce39fb2146", "is_disabled": 0, "is_reserved": 0}, {"rental_uris": {"ios": "https://dc.lft.to/lastmile_qr_scan", "android": "https://dc.lft.to/lastmile_qr_scan"}, "lon": -77.08255466666667, "type": "electric_bike", "fusion_lat": 0.0, "lat": 38.935643166666665, "name": "19a1d82f302a18a960a1e33865ec3cc3", "fusion_lon": 0.0, "bike_id": "19a1d82f302a18a960a1e33865ec3cc3", "is_disabled": 0, "is_reserved": 0}, {"rental_uris": {"ios": "https://dc.lft.to/lastmile_qr_scan", "android": "https://dc.lft.to/lastmile_qr_scan"}, "lon": -77.041547, "type": "electric_scooter", "fusion_lat": 0.0, "lat": 38.910290833333335, "name": "a3c3f80e0e3839631947ed752b4d464a", "fusion_lon": 0.0, "bike_id": "a3c3f80e0e3839631947ed752b4d464a", "is_disabled": 0, "is_reserved": 0}, {"rental_uris": {"ios": "https://dc.lft.to/lastmile_qr_scan", "android": "https://dc.lft.to/lastmile_qr_scan"}, "lon": -77.04635933333333, "type": "electric_scooter", "fusion_lat": 0.0, "lat": 38.915256, "name": "fa73368cdd388ae08ba196b968840c79", "fusion_lon": 0.0, "bike_id": "fa73368cdd388ae08ba196b968840c79", "is_disabled": 0, "is_reserved": 0}, {"rental_uris": {"ios": "https://dc.lft.to/lastmile_qr_scan", "android": "https://dc.lft.to/lastmile_qr_scan"}, "lon": -77.069319, "type": "electric_scooter", "fusion_lat": 0.0, "lat": 38.9051275, "name": "4617054f61d4fb8294a1e501c58dabf1", "fusion_lon": 0.0, "bike_id": "4617054f61d4fb8294a1e501c58dabf1", "is_disabled": 0, "is_reserved": 0}, {"rental_uris": {"ios": "https://dc.lft.to/lastmile_qr_scan", "android": "https://dc.lft.to/lastmile_qr_scan"}, "lon": -77.0252465, "type": "electric_scooter", "fusion_lat": 0.0, "lat": 38.94149783333334, "name": "6187d522608534a124c2ae2aca3a303a", "fusion_lon": 0.0, "bike_id": "6187d522608534a124c2ae2aca3a303a", "is_disabled": 0, "is_reserved": 0}, {"rental_uris": {"ios": "https://dc.lft.to/lastmile_qr_scan", "android": "https://dc.lft.to/lastmile_qr_scan"}, "lon": -77.02955, "type": "electric_scooter", "fusion_lat": 0.0, "lat": 38.90054333333333, "name": "cfd72aa2bc38c624e27b8f42e57b6a49", "fusion_lon": 0.0, "bike_id": "cfd72aa2bc38c624e27b8f42e57b6a49", "is_disabled": 0, "is_reserved": 0}, {"rental_uris": {"ios": "https://dc.lft.to/lastmile_qr_scan", "android": "https://dc.lft.to/lastmile_qr_scan"}, "lon": -77.04018833333333, "type": "electric_bike", "fusion_lat": 0.0, "lat": 38.900996166666665, "name": "7cef509e0d59021c3966dd8c7d34ac1c", "fusion_lon": 0.0, "bike_id": "7cef509e0d59021c3966dd8c7d34ac1c", "is_disabled": 0, "is_reserved": 0}, {"rental_uris": {"ios": "https://dc.lft.to/lastmile_qr_scan", "android": "https://dc.lft.to/lastmile_qr_scan"}, "lon": -77.0508555, "type": "electric_scooter", "fusion_lat": 0.0, "lat": 38.900501, "name": "280051a487c1043479ebf9d146b0bd0f", "fusion_lon": 0.0, "bike_id": "280051a487c1043479ebf9d146b0bd0f", "is_disabled": 0, "is_reserved": 0}, {"rental_uris": {"ios": "https://dc.lft.to/lastmile_qr_scan", "android": "https://dc.lft.to/lastmile_qr_scan"}, "lon": -77.06281216666666, "type": "electric_scooter", "fusion_lat": 0.0, "lat": 38.912454, "name": "2b9f334a918a24d9f906907a76e75c20", "fusion_lon": 0.0, "bike_id": "2b9f334a918a24d9f906907a76e75c20", "is_disabled": 0, "is_reserved": 0}, {"rental_uris": {"ios": "https://dc.lft.to/lastmile_qr_scan", "android": "https://dc.lft.to/lastmile_qr_scan"}, "lon": -76.99775033333333, "type": "electric_scooter", "fusion_lat": 0.0, "lat": 38.844292333333335, "name": "d919d030a19bcb6cc1d15a55dd08cb47", "fusion_lon": 0.0, "bike_id": "d919d030a19bcb6cc1d15a55dd08cb47", "is_disabled": 0, "is_reserved": 0}, {"rental_uris": {"ios": "https://dc.lft.to/lastmile_qr_scan", "android": "https://dc.lft.to/lastmile_qr_scan"}, "lon": -77.01793016666667, "type": "electric_scooter", "fusion_lat": 0.0, "lat": 38.94118866666667, "name": "925ff3220e09d73146630244871d42f6", "fusion_lon": 0.0, "bike_id": "925ff3220e09d73146630244871d42f6", "is_disabled": 0, "is_reserved": 0}, {"rental_uris": {"ios": "https://dc.lft.to/lastmile_qr_scan", "android": "https://dc.lft.to/lastmile_qr_scan"}, "lon": -77.0431305, "type": "electric_scooter", "fusion_lat": 0.0, "lat": 38.909533, "name": "f047696c7df5dd14fa7041ba6e14f9b6", "fusion_lon": 0.0, "bike_id": "f047696c7df5dd14fa7041ba6e14f9b6", "is_disabled": 0, "is_reserved": 0}, {"rental_uris": {"ios": "https://dc.lft.to/lastmile_qr_scan", "android": "https://dc.lft.to/lastmile_qr_scan"}, "lon": -77.02183333333333, "type": "electric_scooter", "fusion_lat": 0.0, "lat": 38.910038166666666, "name": "d073851b5246b6b69f854bfc67d1e25f", "fusion_lon": 0.0, "bike_id": "d073851b5246b6b69f854bfc67d1e25f", "is_disabled": 0, "is_reserved": 0}, {"rental_uris": {"ios": "https://dc.lft.to/lastmile_qr_scan", "android": "https://dc.lft.to/lastmile_qr_scan"}, "lon": -77.01775733333334, "type": "electric_scooter", "fusion_lat": 0.0, "lat": 38.90105616666666, "name": "5268d26f62fd2c11db27889e18f76cf5", "fusion_lon": 0.0, "bike_id": "5268d26f62fd2c11db27889e18f76cf5", "is_disabled": 0, "is_reserved": 0}, {"rental_uris": {"ios": "https://dc.lft.to/lastmile_qr_scan", "android": "https://dc.lft.to/lastmile_qr_scan"}, "lon": -77.03585833333334, "type": "electric_scooter", "fusion_lat": 0.0, "lat": 38.9324535, "name": "cba2b3d44490c883bdac1ff626f055db", "fusion_lon": 0.0, "bike_id": "cba2b3d44490c883bdac1ff626f055db", "is_disabled": 0, "is_reserved": 0}, {"rental_uris": {"ios": "https://dc.lft.to/lastmile_qr_scan", "android": "https://dc.lft.to/lastmile_qr_scan"}, "lon": -76.9498525, "type": "electric_scooter", "fusion_lat": 0.0, "lat": 38.8936505, "name": "0b2a5eddb8d91b4475b46a1e031a1885", "fusion_lon": 0.0, "bike_id": "0b2a5eddb8d91b4475b46a1e031a1885", "is_disabled": 0, "is_reserved": 0}, {"rental_uris": {"ios": "https://dc.lft.to/lastmile_qr_scan", "android": "https://dc.lft.to/lastmile_qr_scan"}, "lon": -76.98883416666666, "type": "electric_scooter", "fusion_lat": 0.0, "lat": 38.86661516666667, "name": "95ed875bfebab92db29bb4ca9a042832", "fusion_lon": 0.0, "bike_id": "95ed875bfebab92db29bb4ca9a042832", "is_disabled": 0, "is_reserved": 0}, {"rental_uris": {"ios": "https://dc.lft.to/lastmile_qr_scan", "android": "https://dc.lft.to/lastmile_qr_scan"}, "lon": -77.0469305, "type": "electric_scooter", "fusion_lat": 0.0, "lat": 38.89743333333333, "name": "c8b58a22a75506066dc72f4037885b73", "fusion_lon": 0.0, "bike_id": "c8b58a22a75506066dc72f4037885b73", "is_disabled": 0, "is_reserved": 0}, {"rental_uris": {"ios": "https://dc.lft.to/lastmile_qr_scan", "android": "https://dc.lft.to/lastmile_qr_scan"}, "lon": -77.01139533333334, "type": "electric_scooter", "fusion_lat": 0.0, "lat": 38.9003165, "name": "cb2153156547a0836706dd80974708c8", "fusion_lon": 0.0, "bike_id": "cb2153156547a0836706dd80974708c8", "is_disabled": 0, "is_reserved": 0}, {"rental_uris": {"ios": "https://dc.lft.to/lastmile_qr_scan", "android": "https://dc.lft.to/lastmile_qr_scan"}, "lon": -77.08535633333334, "type": "electric_bike", "fusion_lat": 0.0, "lat": 38.85621533333333, "name": "3ec69a75ebfbf2b0c51b56addcd4f9f0", "fusion_lon": 0.0, "bike_id": "3ec69a75ebfbf2b0c51b56addcd4f9f0", "is_disabled": 0, "is_reserved": 0}, {"rental_uris": {"ios": "https://dc.lft.to/lastmile_qr_scan", "android": "https://dc.lft.to/lastmile_qr_scan"}, "lon": -77.02652533333334, "type": "electric_scooter", "fusion_lat": 0.0, "lat": 38.91695516666667, "name": "7515c99cd28d9c576a49e44f03dcd347", "fusion_lon": 0.0, "bike_id": "7515c99cd28d9c576a49e44f03dcd347", "is_disabled": 0, "is_reserved": 0}, {"rental_uris": {"ios": "https://dc.lft.to/lastmile_qr_scan", "android": "https://dc.lft.to/lastmile_qr_scan"}, "lon": -77.020814, "type": "electric_scooter", "fusion_lat": 0.0, "lat": 38.89983016666667, "name": "f5b0447a157a53dfdbbee5729c11525a", "fusion_lon": 0.0, "bike_id": "f5b0447a157a53dfdbbee5729c11525a", "is_disabled": 0, "is_reserved": 0}, {"rental_uris": {"ios": "https://dc.lft.to/lastmile_qr_scan", "android": "https://dc.lft.to/lastmile_qr_scan"}, "lon": -77.07559566666667, "type": "electric_scooter", "fusion_lat": 0.0, "lat": 38.914366666666666, "name": "f61eb00749a03f49e15d6b961d3d72e9", "fusion_lon": 0.0, "bike_id": "f61eb00749a03f49e15d6b961d3d72e9", "is_disabled": 0, "is_reserved": 0}, {"rental_uris": {"ios": "https://dc.lft.to/lastmile_qr_scan", "android": "https://dc.lft.to/lastmile_qr_scan"}, "lon": -77.03208233333334, "type": "electric_scooter", "fusion_lat": 0.0, "lat": 38.911082666666665, "name": "a28ee38d3dfd16c87f1c5fdcad665e69", "fusion_lon": 0.0, "bike_id": "a28ee38d3dfd16c87f1c5fdcad665e69", "is_disabled": 0, "is_reserved": 0}, {"rental_uris": {"ios": "https://dc.lft.to/lastmile_qr_scan", "android": "https://dc.lft.to/lastmile_qr_scan"},