{"data": {"bikes": [{"type": "electric_scooter", "fusion_lon": 0.0, "bike_id": "c1a5ba0d285c4a71fca8fe03039e7048", "is_disabled": 0, "lat": 38.92071633333333, "rental_uris": {"ios": "https://dc.lft.to/lastmile_qr_scan", "android": "https://dc.lft.to/lastmile_qr_scan"}, "is_reserved": 0, "lon": -77.02504583333334, "fusion_lat": 0.0, "name": "c1a5ba0d285c4a71fca8fe03039e7048"}, {"type": "electric_scooter", "fusion_lon": 0.0, "bike_id": "4ca4f450a5d1097c841cc7817e6366f6", "is_disabled": 0, "lat": 38.9385485, "rental_uris": {"ios": "https://dc.lft.to/lastmile_qr_scan", "android": "https://dc.lft.to/lastmile_qr_scan"}, "is_reserved": 0, "lon": -77.03393166666666, "fusion_lat": 0.0, "name": "4ca4f450a5d1097c841cc7817e6366f6"}, {"type": "electric_scooter", "fusion_lon": 0.0, "bike_id": "b2302e4c0351ea152c545667662baaf6", "is_disabled": 0, "lat": 38.915654833333335, "rental_uris": {"ios": "https://dc.lft.to/lastmile_qr_scan", "android": "https://dc.lft.to/lastmile_qr_scan"}, "is_reserved": 0, "lon": -77.04179983333333, "fusion_lat": 0.0, "name": "b2302e4c0351ea152c545667662baaf6"}, {"type": "electric_scooter", "fusion_lon": 0.0, "bike_id": "b47bd69bfe218d081fba2b6a61d3ee29", "is_disabled": 0, "lat": 38.88514583333333, "rental_uris": {"ios": "https://dc.lft.to/lastmile_qr_scan", "android": "https://dc.lft.to/lastmile_qr_scan"}, "is_reserved": 0, "lon": -77.028278, "fusion_lat": 0.0, "name": "b47bd69bfe218d081fba2b6a61d3ee29"}, {"type": "electric_bike", "fusion_lon": 0.0, "bike_id": "53c2cf4dedcfc366ba14998a09df1b55", "is_disabled": 0, "lat": 38.8633165, "rental_uris": {"ios": "https://dc.lft.to/lastmile_qr_scan", "android": "https://dc.lft.to/lastmile_qr_scan"}, "is_reserved": 0, "lon": -76.987243, "fusion_lat": 0.0, "name": "53c2cf4dedcfc366ba14998a09df1b55"}, {"type": "electric_scooter", "fusion_lon": 0.0, "bike_id": "022be9282612647f862d92b328e7874c", "is_disabled": 0, "lat": 38.907639, "rental_uris": {"ios": "https://dc.lft.to/lastmile_qr_scan", "android": "https://dc.lft.to/lastmile_qr_scan"}, "is_reserved": 0, "lon": -77.00924383333333, "fusion_lat": 0.0, "name": "022be9282612647f862d92b328e7874c"}, {"type": "electric_scooter", "fusion_lon": 0.0, "bike_id": "76b4a65da4786b8ad088c81d39f373eb", "is_disabled": 0, "lat": 38.923776833333335, "rental_uris": {"ios": "https://dc.lft.to/lastmile_qr_scan", "android": "https://dc.lft.to/lastmile_qr_scan"}, "is_reserved": 0, "lon": -77.03051616666667, "fusion_lat": 0.0, "name": "76b4a65da4786b8ad088c81d39f373eb"}, {"type": "electric_scooter", "fusion_lon": 0.0, "bike_id": "fb24caa5ed6993f2aa830854dae75e96", "is_disabled": 0, "lat": 38.92071516666667, "rental_uris": {"ios": "https://dc.lft.to/lastmile_qr_scan", "android": "https://dc.lft.to/lastmile_qr_scan"}, "is_reserved": 0, "lon": -76.99743383333333, "fusion_lat": 0.0, "name": "fb24caa5ed6993f2aa830854dae75e96"}, {"type": "electric_scooter", "fusion_lon": 0.0, "bike_id": "ce06ce9f5d265f62e380a37f85b61d6a", "is_disabled": 0, "lat": 38.90423716666667, "rental_uris": {"ios": "https://dc.lft.to/lastmile_qr_scan", "android": "https://dc.lft.to/lastmile_qr_scan"}, "is_reserved": 0, "lon": -77.02588266666666, "fusion_lat": 0.0, "name": "ce06ce9f5d265f62e380a37f85b61d6a"}, {"type": "electric_scooter", "fusion_lon": 0.0, "bike_id": "53e4fc1d3dc0f820f7a5e9e612f22fa0", "is_disabled": 0, "lat": 38.927981333333335, "rental_uris": {"ios": "https://dc.lft.to/lastmile_qr_scan", "android": "https://dc.lft.to/lastmile_qr_scan"}, "is_reserved": 0, "lon": -77.02390883333334, "fusion_lat": 0.0, "name": "53e4fc1d3dc0f820f7a5e9e612f22fa0"}, {"type": "electric_scooter", "fusion_lon": 0.0, "bike_id": "ed804f67da3b1672b36dfc4f86e3376d", "is_disabled": 0, "lat": 38.9191505, "rental_uris": {"ios": "https://dc.lft.to/lastmile_qr_scan", "android": "https://dc.lft.to/lastmile_qr_scan"}, "is_reserved": 0, "lon": -77.03375083333333, "fusion_lat": 0.0, "name": "ed804f67da3b1672b36dfc4f86e3376d"}, {"type": "electric_scooter", "fusion_lon": 0.0, "bike_id": "fbc621c43e5a76dee88dca3ba47f0ad6", "is_disabled": 0, "lat": 38.91702516666667, "rental_uris": {"ios": "https://dc.lft.to/lastmile_qr_scan", "android": "https://dc.lft.to/lastmile_qr_scan"}, "is_reserved": 0, "lon": -77.03005216666666, "fusion_lat": 0.0, "name": "fbc621c43e5a76dee88dca3ba47f0ad6"}, {"type": "electric_scooter", "fusion_lon": 0.0, "bike_id": "b485cfa644741ab1401dbdf4d94a2a7e", "is_disabled": 0, "lat": 38.8922005, "rental_uris": {"ios": "https://dc.lft.to/lastmile_qr_scan", "android": "https://dc.lft.to/lastmile_qr_scan"}, "is_reserved": 0, "lon": -77.02013616666666, "fusion_lat": 0.0, "name": "b485cfa644741ab1401dbdf4d94a2a7e"}, {"type": "electric_scooter", "fusion_lon": 0.0, "bike_id": "0f0f62af02ffdcbcd9dc00b20aaf7bfc", "is_disabled": 0, "lat": 38.92417966666667, "rental_uris": {"ios": "https://dc.lft.to/lastmile_qr_scan", "android": "https://dc.lft.to/lastmile_qr_scan"}, "is_reserved": 0, "lon": -77.01980816666666, "fusion_lat": 0.0, "name": "0f0f62af02ffdcbcd9dc00b20aaf7bfc"}, {"type": "electric_scooter", "fusion_lon": 0.0, "bike_id": "161ff4c03404762eb814b49235910a89", "is_disabled": 0, "lat": 38.91943933333334, "rental_uris": {"ios": "https://dc.lft.to/lastmile_qr_scan", "android": "https://dc.lft.to/lastmile_qr_scan"}, "is_reserved": 0, "lon": -77.01780333333333, "fusion_lat": 0.0, "name": "161ff4c03404762eb814b49235910a89"}, {"type": "electric_scooter", "fusion_lon": 0.0, "bike_id": "b1f97139c68faa3eb63754f254d69a9f", "is_disabled": 0, "lat": 38.898861333333336, "rental_uris": {"ios": "https://dc.lft.to/lastmile_qr_scan", "android": "https://dc.lft.to/lastmile_qr_scan"}, "is_reserved": 0, "lon": -76.93175983333333, "fusion_lat": 0.0, "name": "b1f97139c68faa3eb63754f254d69a9f"}, {"type": "electric_scooter", "fusion_lon": 0.0, "bike_id": "db8de921b978800580aed4dd0f14b604", "is_disabled": 0, "lat": 38.91990066666666, "rental_uris": {"ios": "https://dc.lft.to/lastmile_qr_scan", "android": "https://dc.lft.to/lastmile_qr_scan"}, "is_reserved": 0, "lon": -77.039674, "fusion_lat": 0.0, "name": "db8de921b978800580aed4dd0f14b604"}, {"type": "electric_scooter", "fusion_lon": 0.0, "bike_id": "1b2c578713ab9b21fff621235a05af26", "is_disabled": 0, "lat": 38.86361866666667, "rental_uris": {"ios": "https://dc.lft.to/lastmile_qr_scan", "android": "https://dc.lft.to/lastmile_qr_scan"}, "is_reserved": 0, "lon": -76.99043333333333, "fusion_lat": 0.0, "name": "1b2c578713ab9b21fff621235a05af26"}, {"type": "electric_scooter", "fusion_lon": 0.0, "bike_id": "ce551729eb00fbdf70701a3addf2020f", "is_disabled": 0, "lat": 38.90817033333333, "rental_uris": {"ios": "https://dc.lft.to/lastmile_qr_scan", "android": "https://dc.lft.to/lastmile_qr_scan"}, "is_reserved": 0, "lon": -77.03455133333334, "fusion_lat": 0.0, "name": "ce551729eb00fbdf70701a3addf2020f"}, {"type": "electric_scooter", "fusion_lon": 0.0, "bike_id": "155ad6b1295c96109b016f4f03288768", "is_disabled": 0, "lat": 38.90483166666667, "rental_uris": {"ios": "https://dc.lft.to/lastmile_qr_scan", "android": "https://dc.lft.to/lastmile_qr_scan"}, "is_reserved": 0, "lon": -77.0355395, "fusion_lat": 0.0, "name": "155ad6b1295c96109b016f4f03288768"}, {"type": "electric_scooter", "fusion_lon": 0.0, "bike_id": "a4ad29f59f7fbcdc76a5abfcaa3dd831", "is_disabled": 0, "lat": 38.915986333333336, "rental_uris": {"ios": "https://dc.lft.to/lastmile_qr_scan", "android": "https://dc.lft.to/lastmile_qr_scan"}, "is_reserved": 0, "lon": -77.01222683333333, "fusion_lat": 0.0, "name": "a4ad29f59f7fbcdc76a5abfcaa3dd831"}, {"type": "electric_scooter", "fusion_lon": 0.0, "bike_id": "c485f3c8af27990c51905f3d8af6d0dc", "is_disabled": 0, "lat": 38.9339245, "rental_uris": {"ios": "https://dc.lft.to/lastmile_qr_scan", "android": "https://dc.lft.to/lastmile_qr_scan"}, "is_reserved": 0, "lon": -77.04552983333333, "fusion_lat": 0.0, "name": "c485f3c8af27990c51905f3d8af6d0dc"}, {"type": "electric_scooter", "fusion_lon": 0.0, "bike_id": "ca13c60377e907381a78ecb3fd52e2e8", "is_disabled": 0, "lat": 38.927639166666665, "rental_uris": {"ios": "https://dc.lft.to/lastmile_qr_scan", "android": "https://dc.lft.to/lastmile_qr_scan"}, "is_reserved": 0, "lon": -77.03240733333334, "fusion_lat": 0.0, "name": "ca13c60377e907381a78ecb3fd52e2e8"}, {"type": "electric_scooter", "fusion_lon": 0.0, "bike_id": "36f3a39255a7de812cb7b19ea702605d", "is_disabled": 0, "lat": 38.944526, "rental_uris": {"ios": "https://dc.lft.to/lastmile_qr_scan", "android": "https://dc.lft.to/lastmile_qr_scan"}, "is_reserved": 0, "lon": -77.0280645, "fusion_lat": 0.0, "name": "36f3a39255a7de812cb7b19ea702605d"}, {"type": "electric_scooter", "fusion_lon": 0.0, "bike_id": "aa8a1e6f4be425287bab350b8e95186b", "is_disabled": 0, "lat": 38.9110805, "rental_uris": {"ios": "https://dc.lft.to/lastmile_qr_scan", "android": "https://dc.lft.to/lastmile_qr_scan"}, "is_reserved": 0, "lon": -77.03827116666666, "fusion_lat": 0.0, "name": "aa8a1e6f4be425287bab350b8e95186b"}, {"type": "electric_scooter", "fusion_lon": 0.0, "bike_id": "29b690a85edbdc88725323da3b6c547f", "is_disabled": 0, "lat": 38.891974833333336, "rental_uris": {"ios": "https://dc.lft.to/lastmile_qr_scan", "android": "https://dc.lft.to/lastmile_qr_scan"}, "is_reserved": 0, "lon": -77.023785, "fusion_lat": 0.0, "name": "29b690a85edbdc88725323da3b6c547f"}, {"type": "electric_scooter", "fusion_lon": 0.0, "bike_id": "12e14316cab7e10ba5893785fb68a9e7", "is_disabled": 0, "lat": 38.923057666666665, "rental_uris": {"ios": "https://dc.lft.to/lastmile_qr_scan", "android": "https://dc.lft.to/lastmile_qr_scan"}, "is_reserved": 0, "lon": -77.02327616666666, "fusion_lat": 0.0, "name": "12e14316cab7e10ba5893785fb68a9e7"}, {"type": "electric_scooter", "fusion_lon": 0.0, "bike_id": "caa4347f162070ab21fe043ff1f84402", "is_disabled": 0, "lat": 38.933148833333334, "rental_uris": {"ios": "https://dc.lft.to/lastmile_qr_scan", "android": "https://dc.lft.to/lastmile_qr_scan"}, "is_reserved": 0, "lon": -77.02935033333333, "fusion_lat": 0.0, "name": "caa4347f162070ab21fe043ff1f84402"}, {"type": "electric_scooter", "fusion_lon": 0.0, "bike_id": "ddca2e32f00a3c9953711109dbd44dca", "is_disabled": 0, "lat": 38.87654283333333, "rental_uris": {"ios": "https://dc.lft.to/lastmile_qr_scan", "android": "https://dc.lft.to/lastmile_qr_scan"}, "is_reserved": 0, "lon": -77.00309266666666, "fusion_lat": 0.0, "name": "ddca2e32f00a3c9953711109dbd44dca"}, {"type": "electric_scooter", "fusion_lon": 0.0, "bike_id": "f1c8054a6d00b8d35310897f09eae3e6", "is_disabled": 0, "lat": 38.914265, "rental_uris": {"ios": "https://dc.lft.to/lastmile_qr_scan", "android": "https://dc.lft.to/lastmile_qr_scan"}, "is_reserved": 0, "lon": -77.045831, "fusion_lat": 0.0, "name": "f1c8054a6d00b8d35310897f09eae3e6"}, {"type": "electric_scooter", "fusion_lon": 0.0, "bike_id": "e14753a373b79b52ee08ba4440410ed3", "is_disabled": 0, "lat": 38.902383, "rental_uris": {"ios": "https://dc.lft.to/lastmile_qr_scan", "android": "https://dc.lft.to/lastmile_qr_scan"}, "is_reserved": 0, "lon": -77.00211683333333, "fusion_lat": 0.0, "name": "e14753a373b79b52ee08ba4440410ed3"}, {"type": "electric_scooter", "fusion_lon": 0.0, "bike_id": "df714d4a476f1aba25a0dcb8b5eac10f", "is_disabled": 0, "lat": 38.91319466666667, "rental_uris": {"ios": "https://dc.lft.to/lastmile_qr_scan", "android": "https://dc.lft.to/lastmile_qr_scan"}, "is_reserved": 0, "lon": -77.04702833333333, "fusion_lat": 0.0, "name": "df714d4a476f1aba25a0dcb8b5eac10f"}, {"type": "electric_scooter", "fusion_lon": 0.0, "bike_id": "64f7480c09aedd60752303d7aedb6f74", "is_disabled": 0, "lat": 38.91813533333333, "rental_uris": {"ios": "https://dc.lft.to/lastmile_qr_scan", "android": "https://dc.lft.to/lastmile_qr_scan"}, "is_reserved": 0, "lon": -77.03183233333333, "fusion_lat": 0.0, "name": "64f7480c09aedd60752303d7aedb6f74"}, {"type": "electric_scooter", "fusion_lon": 0.0, "bike_id": "fe3d62b3e1e663ee3afbc14769638c1e", "is_disabled": 0, "lat": 38.90466716666667, "rental_uris": {"ios": "https://dc.lft.to/lastmile_qr_scan", "android": "https://dc.lft.to/lastmile_qr_scan"}, "is_reserved": 0, "lon": -76.99504583333334, "fusion_lat": 0.0, "name": "fe3d62b3e1e663ee3afbc14769638c1e"}, {"type": "electric_scooter", "fusion_lon": 0.0, "bike_id": "70f86abdb2d1848d8e95e0865b92cb3d", "is_disabled": 0, "lat": 38.90037233333334, "rental_uris": {"ios": "https://dc.lft.to/lastmile_qr_scan", "android": "https://dc.lft.to/lastmile_qr_scan"}, "is_reserved": 0, "lon": -76.991448, "fusion_lat": 0.0, "name": "70f86abdb2d1848d8e95e0865b92cb3d"}, {"type": "electric_scooter", "fusion_lon": 0.0, "bike_id": "cbca79261e21a5789632e0f9fdb76795", "is_disabled": 0, "lat": 38.91921266666667, "rental_uris": {"ios": "https://dc.lft.to/lastmile_qr_scan", "android": "https://dc.lft.to/lastmile_qr_scan"}, "is_reserved": 0, "lon": -77.0793795, "fusion_lat": 0.0, "name": "cbca79261e21a5789632e0f9fdb76795"}, {"type": "electric_scooter", "fusion_lon": 0.0, "bike_id": "7d55ec468d9009f07b61eb1ab35f6c36", "is_disabled": 0, "lat": 38.8848595, "rental_uris": {"ios": "https://dc.lft.to/lastmile_qr_scan", "android": "https://dc.lft.to/lastmile_qr_scan"}, "is_reserved": 0, "lon": -77.03475366666666, "fusion_lat": 0.0, "name": "7d55ec468d9009f07b61eb1ab35f6c36"}, {"type": "electric_scooter", "fusion_lon": 0.0, "bike_id": "9c17e8d480f102452f8416ab382aef5b", "is_disabled": 0, "lat": 38.922346166666664, "rental_uris": {"ios": "https://dc.lft.to/lastmile_qr_scan", "android": "https://dc.lft.to/lastmile_qr_scan"}, "is_reserved": 0, "lon": -77.01829783333334, "fusion_lat": 0.0, "name": "9c17e8d480f102452f8416ab382aef5b"}, {"type": "electric_scooter", "fusion_lon": 0.0, "bike_id": "a2356795ca85b405412189279f5474bf", "is_disabled": 0, "lat": 38.91892466666667, "rental_uris": {"ios": "https://dc.lft.to/lastmile_qr_scan", "android": "https://dc.lft.to/lastmile_qr_scan"}, "is_reserved": 0, "lon": -77.0383455, "fusion_lat": 0.0, "name": "a2356795ca85b405412189279f5474bf"}, {"type": "electric_scooter", "fusion_lon": 0.0, "bike_id": "183a727be64941214976775c2bf55981", "is_disabled": 0, "lat": 38.917158, "rental_uris": {"ios": "https://dc.lft.to/lastmile_qr_scan", "android": "https://dc.lft.to/lastmile_qr_scan"}, "is_reserved": 0, "lon": -77.0240395, "fusion_lat": 0.0, "name": "183a727be64941214976775c2bf55981"}, {"type": "electric_bike", "fusion_lon": 0.0, "bike_id": "45dd94952088f882bae8357dcdc334ad", "is_disabled": 0, "lat": 38.853157333333336, "rental_uris": {"ios": "https://dc.lft.to/lastmile_qr_scan", "android": "https://dc.lft.to/lastmile_qr_scan"}, "is_reserved": 0, "lon": -76.9801575, "fusion_lat": 0.0, "name": "45dd94952088f882bae8357dcdc334ad"}, {"type": "electric_scooter", "fusion_lon": 0.0, "bike_id": "54b78aea450600422bfe4c8903bd2fab", "is_disabled": 0, "lat": 38.892283, "rental_uris": {"ios": "https://dc.lft.to/lastmile_qr_scan", "android": "https://dc.lft.to/lastmile_qr_scan"}, "is_reserved": 0, "lon": -77.02418066666667, "fusion_lat": 0.0, "name": "54b78aea450600422bfe4c8903bd2fab"}, {"type": "electric_scooter", "fusion_lon": 0.0, "bike_id": "975860f63c5dff9017920666a684952d", "is_disabled": 0, "lat": 38.92794983333334, "rental_uris": {"ios": "https://dc.lft.to/lastmile_qr_scan", "android": "https://dc.lft.to/lastmile_qr_scan"}, "is_reserved": 0, "lon": -77.02736666666667, "fusion_lat": 0.0, "name": "975860f63c5dff9017920666a684952d"}, {"type": "electric_scooter", "fusion_lon": 0.0, "bike_id": "d75f91c663abf824a14e8165bb695f39", "is_disabled": 0, "lat": 38.91796033333333, "rental_uris": {"ios": "https://dc.lft.to/lastmile_qr_scan", "android": "https://dc.lft.to/lastmile_qr_scan"}, "is_reserved": 0, "lon": -77.041632, "fusion_lat": 0.0, "name": "d75f91c663abf824a14e8165bb695f39"}, {"type": "electric_scooter", "fusion_lon": 0.0, "bike_id": "9e7923b273af32ef11017301a87e6d41", "is_disabled": 0, "lat": 38.94079833333333, "rental_uris": {"ios": "https://dc.lft.to/lastmile_qr_scan", "android": "https://dc.lft.to/lastmile_qr_scan"}, "is_reserved": 0, "lon": -77.02541583333333, "fusion_lat": 0.0, "name": "9e7923b273af32ef11017301a87e6d41"}, {"type": "electric_scooter", "fusion_lon": 0.0, "bike_id": "d62d7c629038cc6cca05fc00c7a5a3c4", "is_disabled": 0, "lat": 38.9247875, "rental_uris": {"ios": "https://dc.lft.to/lastmile_qr_scan", "android": "https://dc.lft.to/lastmile_qr_scan"}, "is_reserved": 0, "lon": -77.02244083333333, "fusion_lat": 0.0, "name": "d62d7c629038cc6cca05fc00c7a5a3c4"}, {"type": "electric_scooter", "fusion_lon": 0.0, "bike_id": "de9980063c4d9f58985db5448e4f3453", "is_disabled": 0, "lat": 38.9277685, "rental_uris": {"ios": "https://dc.lft.to/lastmile_qr_scan", "android": "https://dc.lft.to/lastmile_qr_scan"}, "is_reserved": 0, "lon": -77.0284675, "fusion_lat": 0.0, "name": "de9980063c4d9f58985db5448e4f3453"}, {"type": "electric_scooter", "fusion_lon": 0.0, "bike_id": "f586d10604166ccf26e4fbc22ce360db", "is_disabled": 0, "lat": 38.930726666666665, "rental_uris": {"ios": "https://dc.lft.to/lastmile_qr_scan", "android": "https://dc.lft.to/lastmile_qr_scan"}, "is_reserved": 0, "lon": -77.0291585, "fusion_lat": 0.0, "name": "f586d10604166ccf26e4fbc22ce360db"}, {"type": "electric_bike", "fusion_lon": 0.0, "bike_id": "d09b076070a539a649dc4fcfe75aa9d4", "is_disabled": 0, "lat": 38.95759016666667, "rental_uris": {"ios": "https://dc.lft.to/lastmile_qr_scan", "android": "https://dc.lft.to/lastmile_qr_scan"}, "is_reserved": 0, "lon": -76.99926883333333, "fusion_lat": 0.0, "name": "d09b076070a539a649dc4fcfe75aa9d4"}, {"type": "electric_scooter", "fusion_lon": 0.0, "bike_id": "8f8d26cc8411e9e50005bd0c27c1d27e", "is_disabled": 0, "lat": 38.8843465, "rental_uris": {"ios": "https://dc.lft.to/lastmile_qr_scan", "android": "https://dc.lft.to/lastmile_qr_scan"}, "is_reserved": 0, "lon": -77.0257715, "fusion_lat": 0.0, "name": "8f8d26cc8411e9e50005bd0c27c1d27e"}, {"type": "electric_scooter", "fusion_lon": 0.0, "bike_id": "fc321c1d61297587af32c7ce96d2d09e", "is_disabled": 0, "lat": 38.9351175, "rental_uris": {"ios": "https://dc.lft.to/lastmile_qr_scan", "android": "https://dc.lft.to/lastmile_qr_scan"}, "is_reserved": 0, "lon": -77.0328865, "fusion_lat": 0.0, "name": "fc321c1d61297587af32c7ce96d2d09e"}, {"type": "electric_scooter", "fusion_lon": 0.0, "bike_id": "64b2ec23b6bec5c09b296f5e073ca88b", "is_disabled": 0, "lat": 38.92359, "rental_uris": {"ios": "https://dc.lft.to/lastmile_qr_scan", "android": "https://dc.lft.to/lastmile_qr_scan"}, "is_reserved": 0, "lon": -77.019178, "fusion_lat": 0.0, "name": "64b2ec23b6bec5c09b296f5e073ca88b"}, {"type": "electric_scooter", "fusion_lon": 0.0, "bike_id": "5acdf33c3ba21a1b2c2a1405c998526e", "is_disabled": 0, "lat": 38.9267825, "rental_uris": {"ios": "https://dc.lft.to/lastmile_qr_scan", "android": "https://dc.lft.to/lastmile_qr_scan"}, "is_reserved": 0, "lon": -77.02783816666667, "fusion_lat": 0.0, "name": "5acdf33c3ba21a1b2c2a1405c998526e"}, {"type": "electric_scooter", "fusion_lon": 0.0, "bike_id": "de47ddf3756340a8661af6164ca1e33d", "is_disabled": 0, "lat": 38.894001, "rental_uris": {"ios": "https://dc.lft.to/lastmile_qr_scan", "android": "https://dc.lft.to/lastmile_qr_scan"}, "is_reserved": 0, "lon": -77.01085016666667, "fusion_lat": 0.0, "name": "de47ddf3756340a8661af6164ca1e33d"}, {"type": "electric_scooter", "fusion_lon": 0.0, "bike_id": "4ab15054c11f853411d41d082a46bdab", "is_disabled": 0, "lat": 38.87720216666666, "rental_uris": {"ios": "https://dc.lft.to/lastmile_qr_scan", "android": "https://dc.lft.to/lastmile_qr_scan"}, "is_reserved": 0, "lon": -77.00934383333333, "fusion_lat": 0.0, "name": "4ab15054c11f853411d41d082a46bdab"}, {"type": "electric_scooter", "fusion_lon": 0.0, "bike_id": "eb16b5bab60849dc48ad6aa7f51c6164", "is_disabled": 0, "lat": 38.947885666666664, "rental_uris": {"ios": "https://dc.lft.to/lastmile_qr_scan", "android": "https://dc.lft.to/lastmile_qr_scan"}, "is_reserved": 0, "lon": -77.04084533333334, "fusion_lat": 0.0, "name": "eb16b5bab60849dc48ad6aa7f51c6164"}, {"type": "electric_scooter", "fusion_lon": 0.0, "bike_id": "75e19a520fc1a40fa3334ab1a11aeb81", "is_disabled": 0, "lat": 38.89911216666667, "rental_uris": {"ios": "https://dc.lft.to/lastmile_qr_scan", "android": "https://dc.lft.to/lastmile_qr_scan"}, "is_reserved": 0, "lon": -77.028017, "fusion_lat": 0.0, "name": "75e19a520fc1a40fa3334ab1a11aeb81"}, {"type": "electric_scooter", "fusion_lon": 0.0, "bike_id": "a3eded6d16d8855dcc2abec3597180e8", "is_disabled": 0, "lat": 38.899477, "rental_uris": {"ios": "https://dc.lft.to/lastmile_qr_scan", "android": "https://dc.lft.to/lastmile_qr_scan"}, "is_reserved": 0, "lon": -77.04493233333334, "fusion_lat": 0.0, "name": "a3eded6d16d8855dcc2abec3597180e8"}, {"type": "electric_scooter", "fusion_lon": 0.0, "bike_id": "ac14a642d08d66738a8398359e960e6d", "is_disabled": 0, "lat": 38.92054, "rental_uris": {"ios": "https://dc.lft.to/lastmile_qr_scan", "android": "https://dc.lft.to/lastmile_qr_scan"}, "is_reserved": 0, "lon": -77.0418115, "fusion_lat": 0.0, "name": "ac14a642d08d66738a8398359e960e6d"}, {"type": "electric_scooter", "fusion_lon": 0.0, "bike_id": "d6da7933e84a66dc351b59ed5a3fb6ce", "is_disabled": 0, "lat": 38.94315366666667, "rental_uris": {"ios": "https://dc.lft.to/lastmile_qr_scan", "android": "https://dc.lft.to/lastmile_qr_scan"}, "is_reserved": 0, "lon": -77.06171783333333, "fusion_lat": 0.0, "name": "d6da7933e84a66dc351b59ed5a3fb6ce"}, {"type": "electric_scooter", "fusion_lon": 0.0, "bike_id": "15238cf676031ccbcb3abd2e3c3f8f95", "is_disabled": 0, "lat": 38.90359383333333, "rental_uris": {"ios": "https://dc.lft.to/lastmile_qr_scan", "android": "https://dc.lft.to/lastmile_qr_scan"}, "is_reserved": 0, "lon": -77.04336383333333, "fusion_lat": 0.0, "name": "15238cf676031ccbcb3abd2e3c3f8f95"}, {"type": "electric_scooter", "fusion_lon": 0.0, "bike_id": "472ff538a965df1328551b05832daa4c", "is_disabled": 0, "lat": 38.92392916666667, "rental_uris": {"ios": "https://dc.lft.to/lastmile_qr_scan", "android": "https://dc.lft.to/lastmile_qr_scan"}, "is_reserved": 0, "lon": -77.02977083333333, "fusion_lat": 0.0, "name": "472ff538a965df1328551b05832daa4c"}, {"type": "electric_scooter", "fusion_lon": 0.0, "bike_id": "fc949887a1e80f2b5b39d529f0affa3e", "is_disabled": 0, "lat": 38.863682833333336, "rental_uris": {"ios": "https://dc.lft.to/lastmile_qr_scan", "android": "https://dc.lft.to/lastmile_qr_scan"}, "is_reserved": 0, "lon": -76.990437, "fusion_lat": 0.0, "name": "fc949887a1e80f2b5b39d529f0affa3e"}, {"type": "electric_scooter", "fusion_lon": 0.0, "bike_id": "948f8738e72472e40705ad8388836816", "is_disabled": 0, "lat": 38.87864416666667, "rental_uris": {"ios": "https://dc.lft.to/lastmile_qr_scan", "android": "https://dc.lft.to/lastmile_qr_scan"}, "is_reserved": 0, "lon": -76.98931133333333, "fusion_lat": 0.0, "name": "948f8738e72472e40705ad8388836816"}, {"type": "electric_scooter", "fusion_lon": 0.0, "bike_id": "7c7adf896d60f60a7b953c1391f9afbe", "is_disabled": 0, "lat": 38.926524, "rental_uris": {"ios": "https://dc.lft.to/lastmile_qr_scan", "android": "https://dc.lft.to/lastmile_qr_scan"}, "is_reserved": 0, "lon": -77.037252, "fusion_lat": 0.0, "name": "7c7adf896d60f60a7b953c1391f9afbe"}, {"type": "electric_scooter", "fusion_lon": 0.0, "bike_id": "3089e8ab4dd1e34685c0eb5eb937ed9b", "is_disabled": 0, "lat": 38.90676, "rental_uris": {"ios": "https://dc.lft.to/lastmile_qr_scan", "android": "https://dc.lft.to/lastmile_qr_scan"}, "is_reserved": 0, "lon": -77.022011, "fusion_lat": 0.0, "name": "3089e8ab4dd1e34685c0eb5eb937ed9b"}, {"type": "electric_scooter", "fusion_lon": 0.0, "bike_id": "3c56e68081d930e7f7a19aafc98c8a8e", "is_disabled": 0, "lat": 38.90797116666667, "rental_uris": {"ios": "https://dc.lft.to/lastmile_qr_scan", "android": "https://dc.lft.to/lastmile_qr_scan"}, "is_reserved": 0, "lon": -77.00044183333333, "fusion_lat": 0.0, "name": "3c56e68081d930e7f7a19aafc98c8a8e"}, {"type": "electric_scooter", "fusion_lon": 0.0, "bike_id": "867db9be3aac0472f62229fbd82293ab", "is_disabled": 0, "lat": 38.89224083333333, "rental_uris": {"ios": "https://dc.lft.to/lastmile_qr_scan", "android": "https://dc.lft.to/lastmile_qr_scan"}, "is_reserved": 0, "lon": -77.04504466666667, "fusion_lat": 0.0, "name": "867db9be3aac0472f62229fbd82293ab"}, {"type": "electric_scooter", "fusion_lon": 0.0, "bike_id": "93f6416e78ccea1e0872e2e5b09553fc", "is_disabled": 0, "lat": 38.9342425, "rental_uris": {"ios": "https://dc.lft.to/lastmile_qr_scan", "android": "https://dc.lft.to/lastmile_qr_scan"}, "is_reserved": 0, "lon": -77.039988, "fusion_lat": 0.0, "name": "93f6416e78ccea1e0872e2e5b09553fc"}, {"type": "electric_scooter", "fusion_lon": 0.0, "bike_id": "7e495185bcaca6feee1ef284a83b4c84", "is_disabled": 0, "lat": 38.92948583333333, "rental_uris": {"ios": "https://dc.lft.to/lastmile_qr_scan", "android": "https://dc.lft.to/lastmile_qr_scan"}, "is_reserved": 0, "lon": -77.02764116666667, "fusion_lat": 0.0, "name": "7e495185bcaca6feee1ef284a83b4c84"}, {"type": "electric_scooter", "fusion_lon": 0.0, "bike_id": "42794dbd3cfa8d96c2d27e6edcc8bb4c", "is_disabled": 0, "lat": 38.899057166666665, "rental_uris": {"ios": "https://dc.lft.to/lastmile_qr_scan", "android": "https://dc.lft.to/lastmile_qr_scan"}, "is_reserved": 0, "lon": -76.93383233333333, "fusion_lat": 0.0, "name": "42794dbd3cfa8d96c2d27e6edcc8bb4c"}, {"type": "electric_scooter", "fusion_lon": 0.0, "bike_id": "63e9c5b72638c819ed587d6f3d31e5ab", "is_disabled": 0, "lat": 38.93821533333333, "rental_uris": {"ios": "https://dc.lft.to/lastmile_qr_scan", "android": "https://dc.lft.to/lastmile_qr_scan"}, "is_reserved": 0, "lon": -77.06177083333333, "fusion_lat": 0.0, "name": "63e9c5b72638c819ed587d6f3d31e5ab"}, {"type": "electric_scooter", "fusion_lon": 0.0, "bike_id": "8a0c12aacc8d0bfd34617f5202ced7d2", "is_disabled": 0, "lat": 38.89419266666667, "rental_uris": {"ios": "https://dc.lft.to/lastmile_qr_scan", "android": "https://dc.lft.to/lastmile_qr_scan"}, "is_reserved": 0, "lon": -76.99951633333333, "fusion_lat": 0.0, "name": "8a0c12aacc8d0bfd34617f5202ced7d2"}, {"type": "electric_scooter", "fusion_lon": 0.0, "bike_id": "76a052473ae3b8397912f22143d0a304", "is_disabled": 0, "lat": 38.885940166666664, "rental_uris": {"ios": "https://dc.lft.to/lastmile_qr_scan", "android": "https://dc.lft.to/lastmile_qr_scan"}, "is_reserved": 0, "lon": -77.01796516666667, "fusion_lat": 0.0, "name": "76a052473ae3b8397912f22143d0a304"}, {"type": "electric_bike", "fusion_lon": 0.0, "bike_id": "f0e28505232d22bd29b540f2dd750284", "is_disabled": 0, "lat": 39.00293416666667, "rental_uris": {"ios": "https://dc.lft.to/lastmile_qr_scan", "android": "https://dc.lft.to/lastmile_qr_scan"}, "is_reserved": 0, "lon": -76.90296616666667, "fusion_lat": 0.0, "name": "f0e28505232d22bd29b540f2dd750284"}, {"type": "electric_scooter", "fusion_lon": 0.0, "bike_id": "51a642ff9267116263e1be90717565ff", "is_disabled": 0, "lat": 38.9451045, "rental_uris": {"ios": "https://dc.lft.to/lastmile_qr_scan", "android": "https://dc.lft.to/lastmile_qr_scan"}, "is_reserved": 0, "lon": -77.03362983333334, "fusion_lat": 0.0, "name": "51a642ff9267116263e1be90717565ff"}, {"type": "electric_bike", "fusion_lon": 0.0, "bike_id": "0645762602028072a579f0b7ddad04f6", "is_disabled": 0, "lat": 38.81331733333333, "rental_uris": {"ios": "https://dc.lft.to/lastmile_qr_scan", "android": "https://dc.lft.to/lastmile_qr_scan"}, "is_reserved": 0, "lon": -77.05089, "fusion_lat": 0.0, "name": "0645762602028072a579f0b7ddad04f6"}, {"type": "electric_scooter", "fusion_lon": 0.0, "bike_id": "c1fe5dd5f5c5ebc5b7078ff0c91b923d", "is_disabled": 0, "lat": 38.90012866666667, "rental_uris": {"ios": "https://dc.lft.to/lastmile_qr_scan", "android": "https://dc.lft.to/lastmile_qr_scan"}, "is_reserved": 0, "lon": -76.98895983333334, "fusion_lat": 0.0, "name": "c1fe5dd5f5c5ebc5b7078ff0c91b923d"}, {"type": "electric_scooter", "fusion_lon": 0.0, "bike_id": "2e8e581554809bb0ba6922bbae881e82", "is_disabled": 0, "lat": 38.92740166666667, "rental_uris": {"ios": "https://dc.lft.to/lastmile_qr_scan", "android": "https://dc.lft.to/lastmile_qr_scan"}, "is_reserved": 0, "lon": -77.03422033333334, "fusion_lat": 0.0, "name": "2e8e581554809bb0ba6922bbae881e82"}, {"type": "electric_scooter", "fusion_lon": 0.0, "bike_id": "c5c83603592171c5206a39a280bfe10b", "is_disabled": 0, "lat": 38.897205166666666, "rental_uris": {"ios": "https://dc.lft.to/lastmile_qr_scan", "android": "https://dc.lft.to/lastmile_qr_scan"}, "is_reserved": 0, "lon": -77.0303875, "fusion_lat": 0.0, "name": "c5c83603592171c5206a39a280bfe10b"}, {"type": "electric_scooter", "fusion_lon": 0.0, "bike_id": "a687e34f97247f9e801238a0baea54ad", "is_disabled": 0, "lat": 38.9056495, "rental_uris": {"ios": "https://dc.lft.to/lastmile_qr_scan", "android": "https://dc.lft.to/lastmile_qr_scan"}, "is_reserved": 0, "lon": -77.0078295, "fusion_lat": 0.0, "name": "a687e34f97247f9e801238a0baea54ad"}, {"type": "electric_bike", "fusion_lon": 0.0, "bike_id": "f6f9600345d8b063ce6cc5f3ac310436", "is_disabled": 0, "lat": 38.927306, "rental_uris": {"ios": "https://dc.lft.to/lastmile_qr_scan", "android": "https://dc.lft.to/lastmile_qr_scan"}, "is_reserved": 0, "lon": -76.99365766666666, "fusion_lat": 0.0, "name": "f6f9600345d8b063ce6cc5f3ac310436"}, {"type": "electric_scooter", "fusion_lon": 0.0, "bike_id": "a5e93f4706ab74218e23928a4e4a978d", "is_disabled": 0, "lat": 38.918292, "rental_uris": {"ios": "https://dc.lft.to/lastmile_qr_scan", "android": "https://dc.lft.to/lastmile_qr_scan"}, "is_reserved": 0, "lon": -77.02285866666666, "fusion_lat": 0.0, "name": "a5e93f4706ab74218e23928a4e4a978d"}, {"type": "electric_scooter", "fusion_lon": 0.0, "bike_id": "262d100a06e0fe14fa9d94ee190e092a", "is_disabled": 0, "lat": 38.9315915, "rental_uris": {"ios": "https://dc.lft.to/lastmile_qr_scan", "android": "https://dc.lft.to/lastmile_qr_scan"}, "is_reserved": 0, "lon": -77.02884683333333, "fusion_lat": 0.0, "name": "262d100a06e0fe14fa9d94ee190e092a"}, {"type": "electric_scooter", "fusion_lon": 0.0, "bike_id": "11b25350bef78fa5b6f9794d7a9712df", "is_disabled": 0, "lat": 38.895025833333335, "rental_uris": {"ios": "https://dc.lft.to/lastmile_qr_scan", "android": "https://dc.lft.to/lastmile_qr_scan"}, "is_reserved": 0, "lon": -76.93476933333334, "fusion_lat": 0.0, "name": "11b25350bef78fa5b6f9794d7a9712df"}, {"type": "electric_scooter", "fusion_lon": 0.0, "bike_id": "f29da8988e993e94dd451e9e2138f490", "is_disabled": 0, "lat": 38.903591, "rental_uris": {"ios": "https://dc.lft.to/lastmile_qr_scan", "android": "https://dc.lft.to/lastmile_qr_scan"}, "is_reserved": 0, "lon": -77.03449233333333, "fusion_lat": 0.0, "name": "f29da8988e993e94dd451e9e2138f490"}, {"type": "electric_scooter", "fusion_lon": 0.0, "bike_id": "e2319a891da767a2f3430d79b22bbdcf", "is_disabled": 0, "lat": 38.902453, "rental_uris": {"ios": "https://dc.lft.to/lastmile_qr_scan", "android": "https://dc.lft.to/lastmile_qr_scan"}, "is_reserved": 0, "lon": -77.04604083333334, "fusion_lat": 0.0, "name": "e2319a891da767a2f3430d79b22bbdcf"}, {"type": "electric_scooter", "fusion_lon": 0.0, "bike_id": "3f5dc34e9ab9072bcdddeba611f0b5e4", "is_disabled": 0, "lat": 38.90552383333333, "rental_uris": {"ios": "https://dc.lft.to/lastmile_qr_scan", "android": "https://dc.lft.to/lastmile_qr_scan"}, "is_reserved": 0, "lon": -77.00597683333334, "fusion_lat": 0.0, "name": "3f5dc34e9ab9072bcdddeba611f0b5e4"}, {"type": "electric_bike", "fusion_lon": 0.0, "bike_id": "f84c18e25afa426dee6d724532a13a92", "is_disabled": 0, "lat": 38.862304, "rental_uris": {"ios": "https://dc.lft.to/lastmile_qr_scan", "android": "https://dc.lft.to/lastmile_qr_scan"}, "is_reserved": 0, "lon": -76.99585416666666, "fusion_lat": 0.0, "name": "f84c18e25afa426dee6d724532a13a92"}, {"type": "electric_scooter", "fusion_lon": 0.0, "bike_id": "4678161c337b6c57b87635f42348aeb3", "is_disabled": 0, "lat": 38.91107683333333, "rental_uris": {"ios": "https://dc.lft.to/lastmile_qr_scan", "android": "https://dc.lft.to/lastmile_qr_scan"}, "is_reserved": 0, "lon": -77.04473633333333, "fusion_lat": 0.0, "name": "4678161c337b6c57b87635f42348aeb3"}, {"type": "electric_bike", "fusion_lon": 0.0, "bike_id": "b9317b290c97d331b8d7c852d1c21f3e", "is_disabled": 0, "lat": 38.92215433333333, "rental_uris": {"ios": "https://dc.lft.to/lastmile_qr_scan", "android": "https://dc.lft.to/lastmile_qr_scan"}, "is_reserved": 0, "lon": -77.08202733333333, "fusion_lat": 0.0, "name": "b9317b290c97d331b8d7c852d1c21f3e"}, {"type": "electric_scooter", "fusion_lon": 0.0, "bike_id": "aaf0cd2aef25473fc0b2b28780c5daf2", "is_disabled": 0, "lat": 38.877820166666666, "rental_uris": {"ios": "https://dc.lft.to/lastmile_qr_scan", "android": "https://dc.lft.to/lastmile_qr_scan"}, "is_reserved": 0, "lon": -76.99411183333333, "fusion_lat": 0.0, "name": "aaf0cd2aef25473fc0b2b28780c5daf2"}, {"type": "electric_scooter", "fusion_lon": 0.0, "bike_id": "32304fe7da587d506c0c84239ee824f3", "is_disabled": 0, "lat": 38.90848716666667, "rental_uris": {"ios": "https://dc.lft.to/lastmile_qr_scan", "android": "https://dc.lft.to/lastmile_qr_scan"}, "is_reserved": 0, "lon": -76.9968595, "fusion_lat": 0.0, "name": "32304fe7da587d506c0c84239ee824f3"}, {"type": "electric_scooter", "fusion_lon": 0.0, "bike_id": "4e6058f08f18684408b7fe537fe74a7d", "is_disabled": 0, "lat": 38.9005395, "rental_uris": {"ios": "https://dc.lft.to/lastmile_qr_scan", "android": "https://dc.lft.to/lastmile_qr_scan"}, "is_reserved": 0, "lon": -77.02405916666666, "fusion_lat": 0.0, "name": "4e6058f08f18684408b7fe537fe74a7d"}, {"type": "electric_scooter", "fusion_lon": 0.0, "bike_id": "54a7a797d804f05859c594729fdb9409", "is_disabled": 0, "lat": 38.922495166666664, "rental_uris": {"ios": "https://dc.lft.to/lastmile_qr_scan", "android": "https://dc.lft.to/lastmile_qr_scan"}, "is_reserved": 0, "lon": -77.073469, "fusion_lat": 0.0, "name": "54a7a797d804f05859c594729fdb9409"}, {"type": "electric_scooter", "fusion_lon": 0.0, "bike_id": "67972aafc8154a5fb3ad4d925bc67f66", "is_disabled": 0, "lat": 38.9052585, "rental_uris": {"ios": "https://dc.lft.to/lastmile_qr_scan", "android": "https://dc.lft.to/lastmile_qr_scan"}, "is_reserved": 0, "lon": -77.029366, "fusion_lat": 0.0, "name": "67972aafc8154a5fb3ad4d925bc67f66"}, {"type": "electric_bike", "fusion_lon": 0.0, "bike_id": "c8c0476110690362552036e5e6e44321", "is_disabled": 0, "lat": 38.85614966666667, "rental_uris": {"ios": "https://dc.lft.to/lastmile_qr_scan", "android": "https://dc.lft.to/lastmile_qr_scan"}, "is_reserved": 0, "lon": -77.111798, "fusion_lat": 0.0, "name": "c8c0476110690362552036e5e6e44321"}, {"type": "electric_scooter", "fusion_lon": 0.0, "bike_id": "593ac246196250f03c0c8bd569fecb6c", "is_disabled": 0, "lat": 38.91766666666667, "rental_uris": {"ios": "https://dc.lft.to/lastmile_qr_scan", "android": "https://dc.lft.to/lastmile_qr_scan"}, "is_reserved": 0, "lon": -77.02345483333333, "fusion_lat": 0.0, "name": "593ac246196250f03c0c8bd569fecb6c"}, {"type": "electric_scooter", "fusion_lon": 0.0, "bike_id": "88ecd11d37be7e91f8ab11119df49b15", "is_disabled": 0, "lat": 38.876721833333335, "rental_uris": {"ios": "https://dc.lft.to/lastmile_qr_scan", "android": "https://dc.lft.to/lastmile_qr_scan"}, "is_reserved": 0, "lon": -77.00937783333333, "fusion_lat": 0.0, "name": "88ecd11d37be7e91f8ab11119df49b15"}, {"type": "electric_scooter", "fusion_lon": 0.0, "bike_id": "9f155dd13007fabf8ebf733fa3c79046", "is_disabled": 0, "lat": 38.91711933333333, "rental_uris": {"ios": "https://dc.lft.to/lastmile_qr_scan", "android": "https://dc.lft.to/lastmile_qr_scan"}, "is_reserved": 0, "lon": -77.02396016666667, "fusion_lat": 0.0, "name": "9f155dd13007fabf8ebf733fa3c79046"}, {"type": "electric_scooter", "fusion_lon": 0.0, "bike_id": "bb35d6421c5bfaa5d573e6420ec0d62b", "is_disabled": 0, "lat": 38.90241866666667, "rental_uris": {"ios": "https://dc.lft.to/lastmile_qr_scan", "android": "https://dc.lft.to/lastmile_qr_scan"}, "is_reserved": 0, "lon": -77.04595516666667, "fusion_lat": 0.0, "name": "bb35d6421c5bfaa5d573e6420ec0d62b"}, {"type": "electric_scooter", "fusion_lon": 0.0, "bike_id": "b0307d28a76c9356717a06eda13a13f2", "is_disabled": 0, "lat": 38.87581183333333, "rental_uris": {"ios": "https://dc.lft.to/lastmile_qr_scan", "android": "https://dc.lft.to/lastmile_qr_scan"}, "is_reserved": 0, "lon": -77.00629783333333, "fusion_lat": 0.0, "name": "b0307d28a76c9356717a06eda13a13f2"}, {"type": "electric_scooter", "fusion_lon": 0.0, "bike_id": "393afc35c77c588bc1119a0d42c1882b", "is_disabled": 0, "lat": 38.905541166666666, "rental_uris": {"ios": "https://dc.lft.to/lastmile_qr_scan", "android": "https://dc.lft.to/lastmile_qr_scan"}, "is_reserved": 0, "lon": -77.034753, "fusion_lat": 0.0, "name": "393afc35c77c588bc1119a0d42c1882b"}, {"type": "electric_scooter", "fusion_lon": 0.0, "bike_id": "540e15ee467ebc5a44a5772ec278f189", "is_disabled": 0, "lat": 38.93328, "rental_uris": {"ios": "https://dc.lft.to/lastmile_qr_scan", "android": "https://dc.lft.to/lastmile_qr_scan"}, "is_reserved": 0, "lon": -77.038082, "fusion_lat": 0.0, "name": "540e15ee467ebc5a44a5772ec278f189"}, {"type": "electric_scooter", "fusion_lon": 0.0, "bike_id": "88c545f905ee218892da3099776723df", "is_disabled": 0, "lat": 38.86364833333333, "rental_uris": {"ios": "https://dc.lft.to/lastmile_qr_scan", "android": "https://dc.lft.to/lastmile_qr_scan"}, "is_reserved": 0, "lon": -76.99041383333333, "fusion_lat": 0.0, "name": "88c545f905ee218892da3099776723df"}, {"type": "electric_bike", "fusion_lon": 0.0, "bike_id": "53088d62d8503cc312bfa51134d13310", "is_disabled": 0, "lat": 38.891937666666664, "rental_uris": {"ios": "https://dc.lft.to/lastmile_qr_scan", "android": "https://dc.lft.to/lastmile_qr_scan"}, "is_reserved": 0, "lon": -76.9939425, "fusion_lat": 0.0, "name": "53088d62d8503cc312bfa51134d13310"}, {"type": "electric_scooter", "fusion_lon": 0.0, "bike_id": "2cfe64d31eecf70682964d91e27087a9", "is_disabled": 0, "lat": 38.8923135, "rental_uris": {"ios": "https://dc.lft.to/lastmile_qr_scan", "android": "https://dc.lft.to/lastmile_qr_scan"}, "is_reserved": 0, "lon": -77.0320995, "fusion_lat": 0.0, "name": "2cfe64d31eecf70682964d91e27087a9"}, {"type": "electric_scooter", "fusion_lon": 0.0, "bike_id": "44071d5d65fd62478b9325aed7d70dda", "is_disabled": 0, "lat": 38.920482666666665, "rental_uris": {"ios": "https://dc.lft.to/lastmile_qr_scan", "android": "https://dc.lft.to/lastmile_qr_scan"}, "is_reserved": 0, "lon": -77.03432266666667, "fusion_lat": 0.0, "name": "44071d5d65fd62478b9325aed7d70dda"}, {"type": "electric_scooter", "fusion_lon": 0.0, "bike_id": "511f12c7c4c1eb1f697b8160d461fb9f", "is_disabled": 0, "lat": 38.90373066666667, "rental_uris": {"ios": "https://dc.lft.to/lastmile_qr_scan", "android": "https://dc.lft.to/lastmile_qr_scan"}, "is_reserved": 0, "lon": -77.01981466666666, "fusion_lat": 0.0, "name": "511f12c7c4c1eb1f697b8160d461fb9f"}, {"type": "electric_scooter", "fusion_lon": 0.0, "bike_id": "ff171c2541f1af3953852284e460c9f8", "is_disabled": 0, "lat": 38.89229133333333, "rental_uris": {"ios": "https://dc.lft.to/lastmile_qr_scan", "android": "https://dc.lft.to/lastmile_qr_scan"}, "is_reserved": 0, "lon": -77.046591, "fusion_lat": 0.0, "name": "ff171c2541f1af3953852284e460c9f8"}, {"type": "electric_bike", "fusion_lon": 0.0, "bike_id": "a47e0dd691bfff1a8be5e1fc5aa5d4ff", "is_disabled": 0, "lat": 38.96470816666667, "rental_uris": {"ios": "https://dc.lft.to/lastmile_qr_scan", "android": "https://dc.lft.to/lastmile_qr_scan"}, "is_reserved": 0, "lon": -77.03565483333334, "fusion_lat": 0.0, "name": "a47e0dd691bfff1a8be5e1fc5aa5d4ff"}, {"type": "electric_scooter", "fusion_lon": 0.0, "bike_id": "8bda62802a65040efd6bfd765224a4b8", "is_disabled": 0, "lat": 38.94902533333333, "rental_uris": {"ios": "https://dc.lft.to/lastmile_qr_scan", "android": "https://dc.lft.to/lastmile_qr_scan"}, "is_reserved": 0, "lon": -77.023892, "fusion_lat": 0.0, "name": "8bda62802a65040efd6bfd765224a4b8"}, {"type": "electric_scooter", "fusion_lon": 0.0, "bike_id": "859a2b2c21eaa20ce0e094d75ad67f53", "is_disabled": 0, "lat": 38.90497533333333, "rental_uris": {"ios": "https://dc.lft.to/lastmile_qr_scan", "android": "https://dc.lft.to/lastmile_qr_scan"}, "is_reserved": 0, "lon": -77.0258925, "fusion_lat": 0.0, "name": "859a2b2c21eaa20ce0e094d75ad67f53"}, {"type": "electric_scooter", "fusion_lon": 0.0, "bike_id": "0a106df3dae838677dfca95d22d56504", "is_disabled": 0, "lat": 38.92344583333333, "rental_uris": {"ios": "https://dc.lft.to/lastmile_qr_scan", "android": "https://dc.lft.to/lastmile_qr_scan"}, "is_reserved": 0, "lon": -77.036493, "fusion_lat": 0.0, "name": "0a106df3dae838677dfca95d22d56504"}, {"type": "electric_scooter", "fusion_lon": 0.0, "bike_id": "6f571c9f4e8d0bf20a686d4a768801a4", "is_disabled": 0, "lat": 38.92790733333333, "rental_uris": {"ios": "https://dc.lft.to/lastmile_qr_scan", "android": "https://dc.lft.to/lastmile_qr_scan"}, "is_reserved": 0, "lon": -77.05419116666667, "fusion_lat": 0.0, "name": "6f571c9f4e8d0bf20a686d4a768801a4"}, {"type": "electric_scooter", "fusion_lon": 0.0, "bike_id": "634e558f1851c694f42ba8ea73dcc997", "is_disabled": 0, "lat": 38.92335383333333, "rental_uris": {"ios": "https://dc.lft.to/lastmile_qr_scan", "android": "https://dc.lft.to/lastmile_qr_scan"}, "is_reserved": 0, "lon": -77.03619833333333, "fusion_lat": 0.0, "name": "634e558f1851c694f42ba8ea73dcc997"}, {"type": "electric_scooter", "fusion_lon": 0.0, "bike_id": "20db60d4d4e7712a098bef8529648311", "is_disabled": 0, "lat": 38.921124666666664, "rental_uris": {"ios": "https://dc.lft.to/lastmile_qr_scan", "android": "https://dc.lft.to/lastmile_qr_scan"}, "is_reserved": 0, "lon": -77.04391366666667, "fusion_lat": 0.0, "name": "20db60d4d4e7712a098bef8529648311"}, {"type": "electric_scooter", "fusion_lon": 0.0, "bike_id": "cc5eab8e81727364215e0da0197bb582", "is_disabled": 0, "lat": 38.89251516666667, "rental_uris": {"ios": "https://dc.lft.to/lastmile_qr_scan", "android": "https://dc.lft.to/lastmile_qr_scan"}, "is_reserved": 0, "lon": -77.04502233333334, "fusion_lat": 0.0, "name": "cc5eab8e81727364215e0da0197bb582"}, {"type": "electric_scooter", "fusion_lon": 0.0, "bike_id": "15257cc741dcef5fab5d305aa7cffdec", "is_disabled": 0, "lat": 38.9164295, "rental_uris": {"ios": "https://dc.lft.to/lastmile_qr_scan", "android": "https://dc.lft.to/lastmile_qr_scan"}, "is_reserved": 0, "lon": -77.02269716666666, "fusion_lat": 0.0, "name": "15257cc741dcef5fab5d305aa7cffdec"}, {"type": "electric_scooter", "fusion_lon": 0.0, "bike_id": "dec0521fc0a8e282aeac9d4d5d7476fc", "is_disabled": 0, "lat": 38.936941166666664, "rental_uris": {"ios": "https://dc.lft.to/lastmile_qr_scan", "android": "https://dc.lft.to/lastmile_qr_scan"}, "is_reserved": 0, "lon": -77.0560255, "fusion_lat": 0.0, "name": "dec0521fc0a8e282aeac9d4d5d7476fc"}, {"type": "electric_scooter", "fusion_lon": 0.0, "bike_id": "24f7ffce4bf79884f73cd2fd0b6c0c7c", "is_disabled": 0, "lat": 38.908470333333334, "rental_uris": {"ios": "https://dc.lft.to/lastmile_qr_scan", "android": "https://dc.lft.to/lastmile_qr_scan"}, "is_reserved": 0, "lon": -77.012551, "fusion_lat": 0.0, "name": "24f7ffce4bf79884f73cd2fd0b6c0c7c"}, {"type": "electric_scooter", "fusion_lon": 0.0, "bike_id": "03a6970e10fddffcced71b8eab470c90", "is_disabled": 0, "lat": 38.88776333333333, "rental_uris": {"ios": "https://dc.lft.to/lastmile_qr_scan", "android": "https://dc.lft.to/lastmile_qr_scan"}, "is_reserved": 0, "lon": -77.03322833333333, "fusion_lat": 0.0, "name": "03a6970e10fddffcced71b8eab470c90"}, {"type": "electric_scooter", "fusion_lon": 0.0, "bike_id": "606153812cbc1aceb30eb58d56b9bddc", "is_disabled": 0, "lat": 38.9002725, "rental_uris": {"ios": "https://dc.lft.to/lastmile_qr_scan", "android": "https://dc.lft.to/lastmile_qr_scan"}, "is_reserved": 0, "lon": -76.9985825, "fusion_lat": 0.0, "name": "606153812cbc1aceb30eb58d56b9bddc"}, {"type": "electric_bike", "fusion_lon": 0.0, "bike_id": "334b9f0a24e52159edf553c3dbf20be4", "is_disabled": 0, "lat": 38.956419, "rental_uris": {"ios": "https://dc.lft.to/lastmile_qr_scan", "android": "https://dc.lft.to/lastmile_qr_scan"}, "is_reserved": 0, "lon": -76.99749616666666, "fusion_lat": 0.0, "name": "334b9f0a24e52159edf553c3dbf20be4"}, {"type": "electric_scooter", "fusion_lon": 0.0, "bike_id": "401c1be824df3d7320ac49f356350fb0", "is_disabled": 0, "lat": 38.910017833333335, "rental_uris": {"ios": "https://dc.lft.to/lastmile_qr_scan", "android": "https://dc.lft.to/lastmile_qr_scan"}, "is_reserved": 0, "lon": -77.04011216666666, "fusion_lat": 0.0, "name": "401c1be824df3d7320ac49f356350fb0"}, {"type": "electric_scooter", "fusion_lon": 0.0, "bike_id": "2f5435d9ff307d418792a8345c0b0d54", "is_disabled": 0, "lat": 38.93151483333333, "rental_uris": {"ios": "https://dc.lft.to/lastmile_qr_scan", "android": "https://dc.lft.to/lastmile_qr_scan"}, "is_reserved": 0, "lon": -77.05604116666666, "fusion_lat": 0.0, "name": "2f5435d9ff307d418792a8345c0b0d54"}, {"type": "electric_scooter", "fusion_lon": 0.0, "bike_id": "13f4bebaa42b831436e5215b7062aab3", "is_disabled": 0, "lat": 38.925762666666664, "rental_uris": {"ios": "https://dc.lft.to/lastmile_qr_scan", "android": "https://dc.lft.to/lastmile_qr_scan"}, "is_reserved": 0, "lon": -76.99493283333334, "fusion_lat": 0.0, "name": "13f4bebaa42b831436e5215b7062aab3"}, {"type": "electric_scooter", "fusion_lon": 0.0, "bike_id": "5be7830e7669ff64bc3d16375647bd5f", "is_disabled": 0, "lat": 38.95760583333333, "rental_uris": {"ios": "https://dc.lft.to/lastmile_qr_scan", "android": "https://dc.lft.to/lastmile_qr_scan"}, "is_reserved": 0, "lon": -77.014893, "fusion_lat": 0.0, "name": "5be7830e7669ff64bc3d16375647bd5f"}, {"type": "electric_scooter", "fusion_lon": 0.0, "bike_id": "d60969b99eb606cb29af70ab1d60b531", "is_disabled": 0, "lat": 38.93785166666667, "rental_uris": {"ios": "https://dc.lft.to/lastmile_qr_scan", "android": "https://dc.lft.to/lastmile_qr_scan"}, "is_reserved": 0, "lon": -77.032871, "fusion_lat": 0.0, "name": "d60969b99eb606cb29af70ab1d60b531"}, {"type": "electric_scooter", "fusion_lon": 0.0, "bike_id": "8be7be04a563ea06df877a67947170f0", "is_disabled": 0, "lat": 38.89216916666667, "rental_uris": {"ios": "https://dc.lft.to/lastmile_qr_scan", "android": "https://dc.lft.to/lastmile_qr_scan"}, "is_reserved": 0, "lon": -77.0222145, "fusion_lat": 0.0, "name": "8be7be04a563ea06df877a67947170f0"}, {"type": "electric_scooter", "fusion_lon": 0.0, "bike_id": "6b5fd5e959ef53fc9dfecb39668a4e88", "is_disabled": 0, "lat": 38.927502, "rental_uris": {"ios": "https://dc.lft.to/lastmile_qr_scan", "android": "https://dc.lft.to/lastmile_qr_scan"}, "is_reserved": 0, "lon": -77.02714966666667, "fusion_lat": 0.0, "name": "6b5fd5e959ef53fc9dfecb39668a4e88"}, {"type": "electric_scooter", "fusion_lon": 0.0, "bike_id": "bc4ac5f664729d0eac38e0959fc32a04", "is_disabled": 0, "lat": 38.8963405, "rental_uris": {"ios": "https://dc.lft.to/lastmile_qr_scan", "android": "https://dc.lft.to/lastmile_qr_scan"}, "is_reserved": 0, "lon": -77.0034655, "fusion_lat": 0.0, "name": "bc4ac5f664729d0eac38e0959fc32a04"}, {"type": "electric_scooter", "fusion_lon": 0.0, "bike_id": "c95cab3a3da50a723ba52abebd456597", "is_disabled": 0, "lat": 38.901535, "rental_uris": {"ios": "https://dc.lft.to/lastmile_qr_scan", "android": "https://dc.lft.to/lastmile_qr_scan"}, "is_reserved": 0, "lon": -77.03933733333334, "fusion_lat": 0.0, "name": "c95cab3a3da50a723ba52abebd456597"}, {"type": "electric_scooter", "fusion_lon": 0.0, "bike_id": "144bb42405a55314b92583f6e0a34c8e", "is_disabled": 0, "lat": 38.91820283333333, "rental_uris": {"ios": "https://dc.lft.to/lastmile_qr_scan", "android": "https://dc.lft.to/lastmile_qr_scan"}, "is_reserved": 0, "lon": -77.031786, "fusion_lat": 0.0, "name": "144bb42405a55314b92583f6e0a34c8e"}, {"type": "electric_scooter", "fusion_lon": 0.0, "bike_id": "3e3020728895da2b625cdc2c9ce42ceb", "is_disabled": 0, "lat": 38.917153, "rental_uris": {"ios": "https://dc.lft.to/lastmile_qr_scan", "android": "https://dc.lft.to/lastmile_qr_scan"}, "is_reserved": 0, "lon": -77.0240465, "fusion_lat": 0.0, "name": "3e3020728895da2b625cdc2c9ce42ceb"}, {"type": "electric_scooter", "fusion_lon": 0.0, "bike_id": "d7ed4bd32800e8b25cfdb9b6635d917d", "is_disabled": 0, "lat": 38.915648833333336, "rental_uris": {"ios": "https://dc.lft.to/lastmile_qr_scan", "android": "https://dc.lft.to/lastmile_qr_scan"}, "is_reserved": 0, "lon": -77.041793, "fusion_lat": 0.0, "name": "d7ed4bd32800e8b25cfdb9b6635d917d"}, {"type": "electric_scooter", "fusion_lon": 0.0, "bike_id": "98951c3f2d1e99f39a783f988cd2a2bf", "is_disabled": 0, "lat": 38.905050333333335, "rental_uris": {"ios": "https://dc.lft.to/lastmile_qr_scan", "android": "https://dc.lft.to/lastmile_qr_scan"}, "is_reserved": 0, "lon": -77.034821, "fusion_lat": 0.0, "name": "98951c3f2d1e99f39a783f988cd2a2bf"}, {"type": "electric_scooter", "fusion_lon": 0.0, "bike_id": "b334be52810ccccc34e9a8173879d710", "is_disabled": 0, "lat": 38.9135115, "rental_uris": {"ios": "https://dc.lft.to/lastmile_qr_scan", "android": "https://dc.lft.to/lastmile_qr_scan"}, "is_reserved": 0, "lon": -77.0320515, "fusion_lat": 0.0, "name": "b334be52810ccccc34e9a8173879d710"}, {"type": "electric_bike", "fusion_lon": 0.0, "bike_id": "7221d3bcc8632a31e220d076bcf4a196", "is_disabled": 0, "lat": 38.862035166666665, "rental_uris": {"ios": "https://dc.lft.to/lastmile_qr_scan", "android": "https://dc.lft.to/lastmile_qr_scan"}, "is_reserved": 0, "lon": -76.99550366666666, "fusion_lat": 0.0, "name": "7221d3bcc8632a31e220d076bcf4a196"}, {"type": "electric_scooter", "fusion_lon": 0.0, "bike_id": "2b58147d78a87f4023b1b49ee71c6885", "is_disabled": 0, "lat": 38.87657566666667, "rental_uris": {"ios": "https://dc.lft.to/lastmile_qr_scan", "android": "https://dc.lft.to/lastmile_qr_scan"}, "is_reserved": 0, "lon": -77.00062016666666, "fusion_lat": 0.0, "name": "2b58147d78a87f4023b1b49ee71c6885"}, {"type": "electric_scooter", "fusion_lon": 0.0, "bike_id": "bec9b80c4e6348ae40c5a5764cb9331c", "is_disabled": 0, "lat": 38.90645583333333, "rental_uris": {"ios": "https://dc.lft.to/lastmile_qr_scan", "android": "https://dc.lft.to/lastmile_qr_scan"}, "is_reserved": 0, "lon": -77.017722, "fusion_lat": 0.0, "name": "bec9b80c4e6348ae40c5a5764cb9331c"}, {"type": "electric_scooter", "fusion_lon": 0.0, "bike_id": "72e8893dd8a6240808571f6d960956ab", "is_disabled": 0, "lat": 38.91402633333333, "rental_uris": {"ios": "https://dc.lft.to/lastmile_qr_scan", "android": "https://dc.lft.to/lastmile_qr_scan"}, "is_reserved": 0, "lon": -77.03224183333333, "fusion_lat": 0.0, "name": "72e8893dd8a6240808571f6d960956ab"}, {"type": "electric_scooter", "fusion_lon": 0.0, "bike_id": "aeb39b0e445bebedb7abf4d02f5283dc", "is_disabled": 0, "lat": 38.9238815, "rental_uris": {"ios": "https://dc.lft.to/lastmile_qr_scan", "android": "https://dc.lft.to/lastmile_qr_scan"}, "is_reserved": 0, "lon": -77.0269455, "fusion_lat": 0.0, "name": "aeb39b0e445bebedb7abf4d02f5283dc"}, {"type": "electric_scooter", "fusion_lon": 0.0, "bike_id": "2a3926af8462afdea88ec01ab108635a", "is_disabled": 0, "lat": 38.9356145, "rental_uris": {"ios": "https://dc.lft.to/lastmile_qr_scan", "android": "https://dc.lft.to/lastmile_qr_scan"}, "is_reserved": 0, "lon": -77.0746555, "fusion_lat": 0.0, "name": "2a3926af8462afdea88ec01ab108635a"}, {"type": "electric_scooter", "fusion_lon": 0.0, "bike_id": "bd65968a31069f99723d10c1eaa196f3", "is_disabled": 0, "lat": 38.88345366666667, "rental_uris": {"ios": "https://dc.lft.to/lastmile_qr_scan", "android": "https://dc.lft.to/lastmile_qr_scan"}, "is_reserved": 0, "lon": -77.024471, "fusion_lat": 0.0, "name": "bd65968a31069f99723d10c1eaa196f3"}, {"type": "electric_scooter", "fusion_lon": 0.0, "bike_id": "13a43a32be78992d4d32ef7d2263d7e6", "is_disabled": 0, "lat": 38.91564016666667, "rental_uris": {"ios": "https://dc.lft.to/lastmile_qr_scan", "android": "https://dc.lft.to/lastmile_qr_scan"}, "is_reserved": 0, "lon": -77.02006583333333, "fusion_lat": 0.0, "name": "13a43a32be78992d4d32ef7d2263d7e6"}, {"type": "electric_scooter", "fusion_lon": 0.0, "bike_id": "a7caaff9e701ed18d80095d02fed871e", "is_disabled": 0, "lat": 38.89268833333333, "rental_uris": {"ios": "https://dc.lft.to/lastmile_qr_scan", "android": "https://dc.lft.to/lastmile_qr_scan"}, "is_reserved": 0, "lon": -77.04206216666667, "fusion_lat": 0.0, "name": "a7caaff9e701ed18d80095d02fed871e"}, {"type": "electric_scooter", "fusion_lon": 0.0, "bike_id": "eba98f1bbffcd4f68d860d18e8ce59b5", "is_disabled": 0, "lat": 38.88335133333333, "rental_uris": {"ios": "https://dc.lft.to/lastmile_qr_scan", "android": "https://dc.lft.to/lastmile_qr_scan"}, "is_reserved": 0, "lon": -77.011403, "fusion_lat": 0.0, "name": "eba98f1bbffcd4f68d860d18e8ce59b5"}, {"type": "electric_scooter", "fusion_lon": 0.0, "bike_id": "9fc592d4b7bee97d83b1f2b83094d69e", "is_disabled": 0, "lat": 38.9134885, "rental_uris": {"ios": "https://dc.lft.to/lastmile_qr_scan", "android": "https://dc.lft.to/lastmile_qr_scan"}, "is_reserved": 0, "lon": -77.03189583333334, "fusion_lat": 0.0, "name": "9fc592d4b7bee97d83b1f2b83094d69e"}, {"type": "electric_bike", "fusion_lon": 0.0, "bike_id": "3690c3cc58c977095465476fd44cf214", "is_disabled": 0, "lat": 39.01564366666667, "rental_uris": {"ios": "https://dc.lft.to/lastmile_qr_scan", "android": "https://dc.lft.to/lastmile_qr_scan"}, "is_reserved": 0, "lon": -77.04424566666667, "fusion_lat": 0.0, "name": "3690c3cc58c977095465476fd44cf214"}, {"type": "electric_scooter", "fusion_lon": 0.0, "bike_id": "a4783186ba8413d26c5f41e402baa739", "is_disabled": 0, "lat": 38.917633, "rental_uris": {"ios": "https://dc.lft.to/lastmile_qr_scan", "android": "https://dc.lft.to/lastmile_qr_scan"}, "is_reserved": 0, "lon": -77.04763966666667, "fusion_lat": 0.0, "name": "a4783186ba8413d26c5f41e402baa739"}, {"type": "electric_scooter", "fusion_lon": 0.0, "bike_id": "f17bf954a227d5ca747197d53dd5ec8e", "is_disabled": 0, "lat": 38.93468216666667, "rental_uris": {"ios": "https://dc.lft.to/lastmile_qr_scan", "android": "https://dc.lft.to/lastmile_qr_scan"}, "is_reserved": 0, "lon": -77.04111066666667, "fusion_lat": 0.0, "name": "f17bf954a227d5ca747197d53dd5ec8e"}, {"type": "electric_scooter", "fusion_lon": 0.0, "bike_id": "cbdd17102932159d62e350dbc0d33bcd", "is_disabled": 0, "lat": 38.90556633333333, "rental_uris": {"ios": "https://dc.lft.to/lastmile_qr_scan", "android": "https://dc.lft.to/lastmile_qr_scan"}, "is_reserved": 0, "lon": -77.0059535, "fusion_lat": 0.0, "name": "cbdd17102932159d62e350dbc0d33bcd"}, {"type": "electric_scooter", "fusion_lon": 0.0, "bike_id": "4d8bdc7aa4c5158ddae1fa4c7374b75d", "is_disabled": 0, "lat": 38.924197666666664, "rental_uris": {"ios": "https://dc.lft.to/lastmile_qr_scan", "android": "https://dc.lft.to/lastmile_qr_scan"}, "is_reserved": 0, "lon": -77.057552, "fusion_lat": 0.0, "name": "4d8bdc7aa4c5158ddae1fa4c7374b75d"}, {"type": "electric_scooter", "fusion_lon": 0.0, "bike_id": "6342782254ba616be7c67b463fef6cc3", "is_disabled": 0, "lat": 38.91705433333333, "rental_uris": {"ios": "https://dc.lft.to/lastmile_qr_scan", "android": "https://dc.lft.to/lastmile_qr_scan"}, "is_reserved": 0, "lon": -77.01142766666666, "fusion_lat": 0.0, "name": "6342782254ba616be7c67b463fef6cc3"}, {"type": "electric_scooter", "fusion_lon": 0.0, "bike_id": "a62b2bc2aa1aacd8472835f39f66e5fd", "is_disabled": 0, "lat": 38.90255466666667, "rental_uris": {"ios": "https://dc.lft.to/lastmile_qr_scan", "android": "https://dc.lft.to/lastmile_qr_scan"}, "is_reserved": 0, "lon": -77.05410383333333, "fusion_lat": 0.0, "name": "a62b2bc2aa1aacd8472835f39f66e5fd"}, {"type": "electric_scooter", "fusion_lon": 0.0, "bike_id": "c72a56e9eb8e1bb8989014c690b787ee", "is_disabled": 0, "lat": 38.916785833333336, "rental_uris": {"ios": "https://dc.lft.to/lastmile_qr_scan", "android": "https://dc.lft.to/lastmile_qr_scan"}, "is_reserved": 0, "lon": -76.98038016666666, "fusion_lat": 0.0, "name": "c72a56e9eb8e1bb8989014c690b787ee"}, {"type": "electric_scooter", "fusion_lon": 0.0, "bike_id": "1a48371f4d8bb5ee13aa8f29f218e682", "is_disabled": 0, "lat": 38.922542166666666, "rental_uris": {"ios": "https://dc.lft.to/lastmile_qr_scan", "android": "https://dc.lft.to/lastmile_qr_scan"}, "is_reserved": 0, "lon": -77.0340805, "fusion_lat": 0.0, "name": "1a48371f4d8bb5ee13aa8f29f218e682"}, {"type": "electric_scooter", "fusion_lon": 0.0, "bike_id": "7e6bd6c10efc2c2957af5dbd9da5ee4c", "is_disabled": 0, "lat": 38.894706166666666, "rental_uris": {"ios": "https://dc.lft.to/lastmile_qr_scan", "android": "https://dc.lft.to/lastmile_qr_scan"}, "is_reserved": 0, "lon": -77.01101133333333, "fusion_lat": 0.0, "name": "7e6bd6c10efc2c2957af5dbd9da5ee4c"}, {"type": "electric_bike", "fusion_lon": 0.0, "bike_id": "cd99e03bff3099241aa1fe17035f7065", "is_disabled": 0, "lat": 38.84101866666666, "rental_uris": {"ios": "https://dc.lft.to/lastmile_qr_scan", "android": "https://dc.lft.to/lastmile_qr_scan"}, "is_reserved": 0, "lon": -77.08929183333333, "fusion_lat": 0.0, "name": "cd99e03bff3099241aa1fe17035f7065"}, {"type": "electric_scooter", "fusion_lon": 0.0, "bike_id": "ef5133ac2054f860c1f4e667489d779c", "is_disabled": 0, "lat": 38.92106233333333, "rental_uris": {"ios": "https://dc.lft.to/lastmile_qr_scan", "android": "https://dc.lft.to/lastmile_qr_scan"}, "is_reserved": 0, "lon": -77.017769, "fusion_lat": 0.0, "name": "ef5133ac2054f860c1f4e667489d779c"}, {"type": "electric_scooter", "fusion_lon": 0.0, "bike_id": "89904630588d07a02984ff35c51d3e76", "is_disabled": 0, "lat": 38.941934833333335, "rental_uris": {"ios": "https://dc.lft.to/lastmile_qr_scan", "android": "https://dc.lft.to/lastmile_qr_scan"}, "is_reserved": 0, "lon": -77.033256, "fusion_lat": 0.0, "name": "89904630588d07a02984ff35c51d3e76"}, {"type": "electric_scooter", "fusion_lon": 0.0, "bike_id": "76b7968179e2517d05207de556376ef3", "is_disabled": 0, "lat": 38.895211333333336, "rental_uris": {"ios": "https://dc.lft.to/lastmile_qr_scan", "android": "https://dc.lft.to/lastmile_qr_scan"}, "is_reserved": 0, "lon": -77.03938766666667, "fusion_lat": 0.0, "name": "76b7968179e2517d05207de556376ef3"}, {"type": "electric_scooter", "fusion_lon": 0.0, "bike_id": "fc6fd8310c49d220f5cc939b77eaabf0", "is_disabled": 0, "lat": 38.900299833333335, "rental_uris": {"ios": "https://dc.lft.to/lastmile_qr_scan", "android": "https://dc.lft.to/lastmile_qr_scan"}, "is_reserved": 0, "lon": -77.037148, "fusion_lat": 0.0, "name": "fc6fd8310c49d220f5cc939b77eaabf0"}, {"type": "electric_scooter", "fusion_lon": 0.0, "bike_id": "0c95141d32e2dbd9acaba1ea66a60711", "is_disabled": 0, "lat": 38.984344666666665, "rental_uris": {"ios": "https://dc.lft.to/lastmile_qr_scan", "android": "https://dc.lft.to/lastmile_qr_scan"}, "is_reserved": 0, "lon": -77.02669333333333, "fusion_lat": 0.0, "name": "0c95141d32e2dbd9acaba1ea66a60711"}, {"type": "electric_scooter", "fusion_lon": 0.0, "bike_id": "560277c4b39c91f90e40b296d0048fcf", "is_disabled": 0, "lat": 38.89341483333333, "rental_uris": {"ios": "https://dc.lft.to/lastmile_qr_scan", "android": "https://dc.lft.to/lastmile_qr_scan"}, "is_reserved": 0, "lon": -76.99162483333333, "fusion_lat": 0.0, "name": "560277c4b39c91f90e40b296d0048fcf"}, {"type": "electric_scooter", "fusion_lon": 0.0, "bike_id": "026cc44d8239eae57d277bb30add9fc3", "is_disabled": 0, "lat": 38.90272616666667, "rental_uris": {"ios": "https://dc.lft.to/lastmile_qr_scan", "android": "https://dc.lft.to/lastmile_qr_scan"}, "is_reserved": 0, "lon": -77.03470833333333, "fusion_lat": 0.0, "name": "026cc44d8239eae57d277bb30add9fc3"}, {"type": "electric_scooter", "fusion_lon": 0.0, "bike_id": "113490b8532eb47aa9c3a928cd9e5406", "is_disabled": 0, "lat": 38.9374155, "rental_uris": {"ios": "https://dc.lft.to/lastmile_qr_scan", "android": "https://dc.lft.to/lastmile_qr_scan"}, "is_reserved": 0, "lon": -77.06873833333333, "fusion_lat": 0.0, "name": "113490b8532eb47aa9c3a928cd9e5406"}, {"type": "electric_scooter", "fusion_lon": 0.0, "bike_id": "0ed11a96eb96bfb87e8127ea0c287819", "is_disabled": 0, "lat": 38.9275025, "rental_uris": {"ios": "https://dc.lft.to/lastmile_qr_scan", "android": "https://dc.lft.to/lastmile_qr_scan"}, "is_reserved": 0, "lon": -77.0326665, "fusion_lat": 0.0, "name": "0ed11a96eb96bfb87e8127ea0c287819"}, {"type": "electric_scooter", "fusion_lon": 0.0, "bike_id": "0deff3f858ddfe4cf1cb3c54da99792e", "is_disabled": 0, "lat": 38.911171333333336, "rental_uris": {"ios": "https://dc.lft.to/lastmile_qr_scan", "android": "https://dc.lft.to/lastmile_qr_scan"}, "is_reserved": 0, "lon": -77.04365866666667, "fusion_lat": 0.0, "name": "0deff3f858ddfe4cf1cb3c54da99792e"}, {"type": "electric_scooter", "fusion_lon": 0.0, "bike_id": "5e6564add50bea9f675a862b154f883e", "is_disabled": 0, "lat": 38.916094666666666, "rental_uris": {"ios": "https://dc.lft.to/lastmile_qr_scan", "android": "https://dc.lft.to/lastmile_qr_scan"}, "is_reserved": 0, "lon": -77.04344566666667, "fusion_lat": 0.0, "name": "5e6564add50bea9f675a862b154f883e"}, {"type": "electric_scooter", "fusion_lon": 0.0, "bike_id": "31289b061f0b6872318fe35c69e7cff6", "is_disabled": 0, "lat": 38.909713333333336, "rental_uris": {"ios": "https://dc.lft.to/lastmile_qr_scan", "android": "https://dc.lft.to/lastmile_qr_scan"}, "is_reserved": 0, "lon": -77.01715333333334, "fusion_lat": 0.0, "name": "31289b061f0b6872318fe35c69e7cff6"}, {"type": "electric_scooter", "fusion_lon": 0.0, "bike_id": "4727d8b51707050ee9a69fff46ada07f", "is_disabled": 0, "lat": 38.8601395, "rental_uris": {"ios": "https://dc.lft.to/lastmile_qr_scan", "android": "https://dc.lft.to/lastmile_qr_scan"}, "is_reserved": 0, "lon": -76.96706183333333, "fusion_lat": 0.0, "name": "4727d8b51707050ee9a69fff46ada07f"}, {"type": "electric_scooter", "fusion_lon": 0.0, "bike_id": "9d702946342d3f6f5b48b0be488cc278", "is_disabled": 0, "lat": 38.89220183333333, "rental_uris": {"ios": "https://dc.lft.to/lastmile_qr_scan", "android": "https://dc.lft.to/lastmile_qr_scan"}, "is_reserved": 0, "lon": -77.048694, "fusion_lat": 0.0, "name": "9d702946342d3f6f5b48b0be488cc278"}, {"type": "electric_scooter", "fusion_lon": 0.0, "bike_id": "e361f4d121fb29b33ecd08497a743ea6", "is_disabled": 0, "lat": 38.899679666666664, "rental_uris": {"ios": "https://dc.lft.to/lastmile_qr_scan", "android": "https://dc.lft.to/lastmile_qr_scan"}, "is_reserved": 0, "lon": -77.020069, "fusion_lat": 0.0, "name": "e361f4d121fb29b33ecd08497a743ea6"}, {"type": "electric_scooter", "fusion_lon": 0.0, "bike_id": "0b096d7b63c778d4a152ba4e009ae959", "is_disabled": 0, "lat": 38.9141465, "rental_uris": {"ios": "https://dc.lft.to/lastmile_qr_scan", "android": "https://dc.lft.to/lastmile_qr_scan"}, "is_reserved": 0, "lon": -77.0414925, "fusion_lat": 0.0, "name": "0b096d7b63c778d4a152ba4e009ae959"}, {"type": "electric_scooter", "fusion_lon": 0.0, "bike_id": "3e349905befe859597d5b31dff053113", "is_disabled": 0, "lat": 38.8923435, "rental_uris": {"ios": "https://dc.lft.to/lastmile_qr_scan", "android": "https://dc.lft.to/lastmile_qr_scan"}, "is_reserved": 0, "lon": -77.04162516666666, "fusion_lat": 0.0, "name": "3e349905befe859597d5b31dff053113"}, {"type": "electric_scooter", "fusion_lon": 0.0, "bike_id": "310bc99717ae499292d95926dc38fd64", "is_disabled": 0, "lat": 38.907222166666664, "rental_uris": {"ios": "https://dc.lft.to/lastmile_qr_scan", "android": "https://dc.lft.to/lastmile_qr_scan"}, "is_reserved": 0, "lon": -77.04679716666666, "fusion_lat": 0.0, "name": "310bc99717ae499292d95926dc38fd64"}, {"type": "electric_bike", "fusion_lon": 0.0, "bike_id": "02f3fb116d6b0976347bf71d7087f985", "is_disabled": 0, "lat": 38.921687166666665, "rental_uris": {"ios": "https://dc.lft.to/lastmile_qr_scan", "android": "https://dc.lft.to/lastmile_qr_scan"}, "is_reserved": 0, "lon": -77.072546, "fusion_lat": 0.0, "name": "02f3fb116d6b0976347bf71d7087f985"}, {"type": "electric_bike", "fusion_lon": 0.0, "bike_id": "af15c169c013a9017b41b3e53845cb99", "is_disabled": 0, "lat": 38.8190955, "rental_uris": {"ios": "https://dc.lft.to/lastmile_qr_scan", "android": "https://dc.lft.to/lastmile_qr_scan"}, "is_reserved": 0, "lon": -77.12649333333333, "fusion_lat": 0.0, "name": "af15c169c013a9017b41b3e53845cb99"}, {"type": "electric_bike", "fusion_lon": 0.0, "bike_id": "550ef25417cf377da149159f43781d97", "is_disabled": 0, "lat": 38.89252883333333, "rental_uris": {"ios": "https://dc.lft.to/lastmile_qr_scan", "android": "https://dc.lft.to/lastmile_qr_scan"}, "is_reserved": 0, "lon": -76.98543666666667, "fusion_lat": 0.0, "name": "550ef25417cf377da149159f43781d97"}, {"type": "electric_scooter", "fusion_lon": 0.0, "bike_id": "0ea28b17b0ba693c52d5aa035e43d2fc", "is_disabled": 0, "lat": 38.89553733333333, "rental_uris": {"ios": "https://dc.lft.to/lastmile_qr_scan", "android": "https://dc.lft.to/lastmile_qr_scan"}, "is_reserved": 0, "lon": -76.94873216666667, "fusion_lat": 0.0, "name": "0ea28b17b0ba693c52d5aa035e43d2fc"}, {"type": "electric_scooter", "fusion_lon": 0.0, "bike_id": "3837688098d808b87b11416eb48bb789", "is_disabled": 0, "lat": 38.93558766666666, "rental_uris": {"ios": "https://dc.lft.to/lastmile_qr_scan", "android": "https://dc.lft.to/lastmile_qr_scan"}, "is_reserved": 0, "lon": -77.063748, "fusion_lat": 0.0, "name": "3837688098d808b87b11416eb48bb789"}, {"type": "electric_scooter", "fusion_lon": 0.0, "bike_id": "e8c9374dc8512a8c76b4339cb5f53616", "is_disabled": 0, "lat": 38.90180266666667, "rental_uris": {"ios": "https://dc.lft.to/lastmile_qr_scan", "android": "https://dc.lft.to/lastmile_qr_scan"}, "is_reserved": 0, "lon": -76.92826016666666, "fusion_lat": 0.0, "name": "e8c9374dc8512a8c76b4339cb5f53616"}, {"type": "electric_scooter", "fusion_lon": 0.0, "bike_id": "37b0f2ee42ead43c5aaaa7a7da123b1b", "is_disabled": 0, "lat": 38.904061, "rental_uris": {"ios": "https://dc.lft.to/lastmile_qr_scan", "android": "https://dc.lft.to/lastmile_qr_scan"}, "is_reserved": 0, "lon": -77.04014633333334, "fusion_lat": 0.0, "name": "37b0f2ee42ead43c5aaaa7a7da123b1b"}, {"type": "electric_scooter", "fusion_lon": 0.0, "bike_id": "8e2d05e9b97df34038df41973c147184", "is_disabled": 0, "lat": 38.9419965, "rental_uris": {"ios": "https://dc.lft.to/lastmile_qr_scan", "android": "https://dc.lft.to/lastmile_qr_scan"}, "is_reserved": 0, "lon": -77.02434916666667, "fusion_lat": 0.0, "name": "8e2d05e9b97df34038df41973c147184"}, {"type": "electric_scooter", "fusion_lon": 0.0, "bike_id": "6fe56a560632b0ac1d2cd46579b1df55", "is_disabled": 0, "lat": 38.91898583333333, "rental_uris": {"ios": "https://dc.lft.to/lastmile_qr_scan", "android": "https://dc.lft.to/lastmile_qr_scan"}, "is_reserved": 0, "lon": -77.02477133333333, "fusion_lat": 0.0, "name": "6fe56a560632b0ac1d2cd46579b1df55"}, {"type": "electric_scooter", "fusion_lon": 0.0, "bike_id": "ba7e4db02083abce450fc857982f23a0", "is_disabled": 0, "lat": 38.901430833333336, "rental_uris": {"ios": "https://dc.lft.to/lastmile_qr_scan", "android": "https://dc.lft.to/lastmile_qr_scan"}, "is_reserved": 0, "lon": -77.04034166666666, "fusion_lat": 0.0, "name": "ba7e4db02083abce450fc857982f23a0"}, {"type": "electric_scooter", "fusion_lon": 0.0, "bike_id": "c9312ee9c218f621b521c6ee404b2ffe", "is_disabled": 0, "lat": 38.910438666666664, "rental_uris": {"ios": "https://dc.lft.to/lastmile_qr_scan", "android": "https://dc.lft.to/lastmile_qr_scan"}, "is_reserved": 0, "lon": -77.01987016666666, "fusion_lat": 0.0, "name": "c9312ee9c218f621b521c6ee404b2ffe"}, {"type": "electric_bike", "fusion_lon": 0.0, "bike_id": "6b5d4873ffa4ef3d2bf4a3af91b4cb09", "is_disabled": 0, "lat": 38.81333516666667, "rental_uris": {"ios": "https://dc.lft.to/lastmile_qr_scan", "android": "https://dc.lft.to/lastmile_qr_scan"}, "is_reserved": 0, "lon": -77.05114283333333, "fusion_lat": 0.0, "name": "6b5d4873ffa4ef3d2bf4a3af91b4cb09"}, {"type": "electric_scooter", "fusion_lon": 0.0, "bike_id": "27055be82c42d8616ce30d809f9c7175", "is_disabled": 0, "lat": 38.9146765, "rental_uris": {"ios": "https://dc.lft.to/lastmile_qr_scan", "android": "https://dc.lft.to/lastmile_qr_scan"}, "is_reserved": 0, "lon": -77.03833466666667, "fusion_lat": 0.0, "name": "27055be82c42d8616ce30d809f9c7175"}, {"type": "electric_scooter", "fusion_lon": 0.0, "bike_id": "f361397dbbf0d041b742269b7841dde9", "is_disabled": 0, "lat": 38.907574333333336, "rental_uris": {"ios": "https://dc.lft.to/lastmile_qr_scan", "android": "https://dc.lft.to/lastmile_qr_scan"}, "is_reserved": 0, "lon": -77.02298983333333, "fusion_lat": 0.0, "name": "f361397dbbf0d041b742269b7841dde9"}, {"type": "electric_scooter", "fusion_lon": 0.0, "bike_id": "7f49c1059d806944da6961a77f7b1232", "is_disabled": 0, "lat": 38.909939333333334, "rental_uris": {"ios": "https://dc.lft.to/lastmile_qr_scan", "android": "https://dc.lft.to/lastmile_qr_scan"}, "is_reserved": 0, "lon": -76.994536, "fusion_lat": 0.0, "name": "7f49c1059d806944da6961a77f7b1232"}, {"type": "electric_scooter", "fusion_lon": 0.0, "bike_id": "2f05b06247c4b68858b66c2fb76969b7", "is_disabled": 0, "lat": 38.902377333333334, "rental_uris": {"ios": "https://dc.lft.to/lastmile_qr_scan", "android": "https://dc.lft.to/lastmile_qr_scan"}, "is_reserved": 0, "lon": -77.00213916666667, "fusion_lat": 0.0, "name": "2f05b06247c4b68858b66c2fb76969b7"}, {"type": "electric_scooter", "fusion_lon": 0.0, "bike_id": "45e2e194300ab1858c80888d55f840b5", "is_disabled": 0, "lat": 38.911847333333334, "rental_uris": {"ios": "https://dc.lft.to/lastmile_qr_scan", "android": "https://dc.lft.to/lastmile_qr_scan"}, "is_reserved": 0, "lon": -77.0108305, "fusion_lat": 0.0, "name": "45e2e194300ab1858c80888d55f840b5"}, {"type": "electric_scooter", "fusion_lon": 0.0, "bike_id": "5bb1dc7f0e8f9b1a8b0f433fb62dcfcd", "is_disabled": 0, "lat": 38.918134333333334, "rental_uris": {"ios": "https://dc.lft.to/lastmile_qr_scan", "android": "https://dc.lft.to/lastmile_qr_scan"}, "is_reserved": 0, "lon": -77.02532133333334, "fusion_lat": 0.0, "name": "5bb1dc7f0e8f9b1a8b0f433fb62dcfcd"}, {"type": "electric_scooter", "fusion_lon": 0.0, "bike_id": "3eeb864a22955bf5652630c8b9b1bdc4", "is_disabled": 0, "lat": 38.88638, "rental_uris": {"ios": "https://dc.lft.to/lastmile_qr_scan", "android": "https://dc.lft.to/lastmile_qr_scan"}, "is_reserved": 0, "lon": -77.02136766666666, "fusion_lat": 0.0, "name": "3eeb864a22955bf5652630c8b9b1bdc4"}, {"type": "electric_scooter", "fusion_lon": 0.0, "bike_id": "cc4d7988604124949ce873e5a027d3cf", "is_disabled": 0, "lat": 38.911206166666666, "rental_uris": {"ios": "https://dc.lft.to/lastmile_qr_scan", "android": "https://dc.lft.to/lastmile_qr_scan"}, "is_reserved": 0, "lon": -77.02086133333333, "fusion_lat": 0.0, "name": "cc4d7988604124949ce873e5a027d3cf"}, {"type": "electric_scooter", "fusion_lon": 0.0, "bike_id": "ceef99388d586672c37c20d73b46104e", "is_disabled": 0, "lat": 38.92319833333333, "rental_uris": {"ios": "https://dc.lft.to/lastmile_qr_scan", "android": "https://dc.lft.to/lastmile_qr_scan"}, "is_reserved": 0, "lon": -77.01952616666667, "fusion_lat": 0.0, "name": "ceef99388d586672c37c20d73b46104e"}, {"type": "electric_scooter", "fusion_lon": 0.0, "bike_id": "fe77cbf3f048135f26da26fe79bdd862", "is_disabled": 0, "lat": 38.8793425, "rental_uris": {"ios": "https://dc.lft.to/lastmile_qr_scan", "android": "https://dc.lft.to/lastmile_qr_scan"}, "is_reserved": 0, "lon": -77.01468316666667, "fusion_lat": 0.0, "name": "fe77cbf3f048135f26da26fe79bdd862"}, {"type": "electric_scooter", "fusion_lon": 0.0, "bike_id": "5749dc65f2a308732432a6a2c730953a", "is_disabled": 0, "lat": 38.932159, "rental_uris": {"ios": "https://dc.lft.to/lastmile_qr_scan", "android": "https://dc.lft.to/lastmile_qr_scan"}, "is_reserved": 0, "lon": -77.03516583333334, "fusion_lat": 0.0, "name": "5749dc65f2a308732432a6a2c730953a"}, {"type": "electric_scooter", "fusion_lon": 0.0, "bike_id": "49f463d53ba236ac8f91df60288b2e85", "is_disabled": 0, "lat": 38.86212316666666, "rental_uris": {"ios": "https://dc.lft.to/lastmile_qr_scan", "android": "https://dc.lft.to/lastmile_qr_scan"}, "is_reserved": 0, "lon": -76.99484733333334, "fusion_lat": 0.0, "name": "49f463d53ba236ac8f91df60288b2e85"}, {"type": "electric_scooter", "fusion_lon": 0.0, "bike_id": "5ba3f8b771aca62663bac92c57957f41", "is_disabled": 0, "lat": 38.9254655, "rental_uris": {"ios": "https://dc.lft.to/lastmile_qr_scan", "android": "https://dc.lft.to/lastmile_qr_scan"}, "is_reserved": 0, "lon": -77.000688, "fusion_lat": 0.0, "name": "5ba3f8b771aca62663bac92c57957f41"}, {"type": "electric_scooter", "fusion_lon": 0.0, "bike_id": "9fa30456100d7b63964901ddc1a99427", "is_disabled": 0, "lat": 38.91981083333334, "rental_uris": {"ios": "https://dc.lft.to/lastmile_qr_scan", "android": "https://dc.lft.to/lastmile_qr_scan"}, "is_reserved": 0, "lon": -77.02506583333333, "fusion_lat": 0.0, "name": "9fa30456100d7b63964901ddc1a99427"}, {"type": "electric_bike", "fusion_lon": 0.0, "bike_id": "928dc5dd66e0362fbe699905eca66459", "is_disabled": 0, "lat": 38.8508845, "rental_uris": {"ios": "https://dc.lft.to/lastmile_qr_scan", "android": "https://dc.lft.to/lastmile_qr_scan"}, "is_reserved": 0, "lon": -76.95706166666666, "fusion_lat": 0.0, "name": "928dc5dd66e0362fbe699905eca66459"}, {"type": "electric_scooter", "fusion_lon": 0.0, "bike_id": "fd42964443a26d32ba23f4fd0a68e4c6", "is_disabled": 0, "lat": 38.89951633333333, "rental_uris": {"ios": "https://dc.lft.to/lastmile_qr_scan", "android": "https://dc.lft.to/lastmile_qr_scan"}, "is_reserved": 0, "lon": -77.020324, "fusion_lat": 0.0, "name": "fd42964443a26d32ba23f4fd0a68e4c6"}, {"type": "electric_bike", "fusion_lon": 0.0, "bike_id": "a84d2c29a0736b75d750ccd7ff72b3b3", "is_disabled": 0, "lat": 38.926596333333336, "rental_uris": {"ios": "https://dc.lft.to/lastmile_qr_scan", "android": "https://dc.lft.to/lastmile_qr_scan"}, "is_reserved": 0, "lon": -77.090201, "fusion_lat": 0.0, "name": "a84d2c29a0736b75d750ccd7ff72b3b3"}, {"type": "electric_bike", "fusion_lon": 0.0, "bike_id": "194c95bffa1b5957807b684fdcbd9959", "is_disabled": 0, "lat": 38.98099233333333, "rental_uris": {"ios": "https://dc.lft.to/lastmile_qr_scan", "android": "https://dc.lft.to/lastmile_qr_scan"}, "is_reserved": 0, "lon": -77.00755933333333, "fusion_lat": 0.0, "name": "194c95bffa1b5957807b684fdcbd9959"}, {"type": "electric_scooter", "fusion_lon": 0.0, "bike_id": "bc64e953fa61fa934ecf7c872f091aad", "is_disabled": 0, "lat": 38.964414833333336, "rental_uris": {"ios": "https://dc.lft.to/lastmile_qr_scan", "android": "https://dc.lft.to/lastmile_qr_scan"}, "is_reserved": 0, "lon": -77.0200395, "fusion_lat": 0.0, "name": "bc64e953fa61fa934ecf7c872f091aad"}, {"type": "electric_bike", "fusion_lon": 0.0, "bike_id": "597f3552fef7030be2a13a32e4844a02", "is_disabled": 0, "lat": 38.862623166666665, "rental_uris": {"ios": "https://dc.lft.to/lastmile_qr_scan", "android": "https://dc.lft.to/lastmile_qr_scan"}, "is_reserved": 0, "lon": -76.98349033333334, "fusion_lat": 0.0, "name": "597f3552fef7030be2a13a32e4844a02"}, {"type": "electric_scooter", "fusion_lon": 0.0, "bike_id": "9ee16259c8fd9def4d96b82242a2cdb5", "is_disabled": 0, "lat": 38.9330185, "rental_uris": {"ios": "https://dc.lft.to/lastmile_qr_scan", "android": "https://dc.lft.to/lastmile_qr_scan"}, "is_reserved": 0, "lon": -77.03272633333333, "fusion_lat": 0.0, "name": "9ee16259c8fd9def4d96b82242a2cdb5"}, {"type": "electric_bike", "fusion_lon": 0.0, "bike_id": "b92c225de6bacff481052250da36111a", "is_disabled": 0, "lat": 38.8073735, "rental_uris": {"ios": "https://dc.lft.to/lastmile_qr_scan", "android": "https://dc.lft.to/lastmile_qr_scan"}, "is_reserved": 0, "lon": -77.0972495, "fusion_lat": 0.0, "name": "b92c225de6bacff481052250da36111a"}, {"type": "electric_scooter", "fusion_lon": 0.0, "bike_id": "179dde94426aef7084af683ae28ae55c", "is_disabled": 0, "lat": 38.91708083333333, "rental_uris": {"ios": "https://dc.lft.to/lastmile_qr_scan", "android": "https://dc.lft.to/lastmile_qr_scan"}, "is_reserved": 0, "lon": -77.03472766666667, "fusion_lat": 0.0, "name": "179dde94426aef7084af683ae28ae55c"}, {"type": "electric_scooter", "fusion_lon": 0.0, "bike_id": "0fc88bacee7df69e7f83687f3dddb167", "is_disabled": 0, "lat": 38.915959, "rental_uris": {"ios": "https://dc.lft.to/lastmile_qr_scan", "android": "https://dc.lft.to/lastmile_qr_scan"}, "is_reserved": 0, "lon": -77.048688, "fusion_lat": 0.0, "name": "0fc88bacee7df69e7f83687f3dddb167"}, {"type": "electric_scooter", "fusion_lon": 0.0, "bike_id": "0ab2b4e02d8e2ff4bf1e9df6b376003b", "is_disabled": 0, "lat": 38.88186, "rental_uris": {"ios": "https://dc.lft.to/lastmile_qr_scan", "android": "https://dc.lft.to/lastmile_qr_scan"}, "is_reserved": 0, "lon": -77.02203666666666, "fusion_lat": 0.0, "name": "0ab2b4e02d8e2ff4bf1e9df6b376003b"}, {"type": "electric_scooter", "fusion_lon": 0.0, "bike_id": "2021aad930657428db0e7e657ac21097", "is_disabled": 0, "lat": 38.90977, "rental_uris": {"ios": "https://dc.lft.to/lastmile_qr_scan", "android": "https://dc.lft.to/lastmile_qr_scan"}, "is_reserved": 0, "lon": -77.03442216666667, "fusion_lat": 0.0, "name": "2021aad930657428db0e7e657ac21097"}, {"type": "electric_scooter", "fusion_lon": 0.0, "bike_id": "5cef618454db859fedd6d2337dd18d98", "is_disabled": 0, "lat": 38.92067983333333, "rental_uris": {"ios": "https://dc.lft.to/lastmile_qr_scan", "android": "https://dc.lft.to/lastmile_qr_scan"}, "is_reserved": 0, "lon": -77.02301166666666, "fusion_lat": 0.0, "name": "5cef618454db859fedd6d2337dd18d98"}, {"type": "electric_scooter", "fusion_lon": 0.0, "bike_id": "7a24fdda954543df3f9f5051c88f9522", "is_disabled": 0, "lat": 38.92503883333333, "rental_uris": {"ios": "https://dc.lft.to/lastmile_qr_scan", "android": "https://dc.lft.to/lastmile_qr_scan"}, "is_reserved": 0, "lon": -77.02403783333334, "fusion_lat": 0.0, "name": "7a24fdda954543df3f9f5051c88f9522"}, {"type": "electric_bike", "fusion_lon": 0.0, "bike_id": "877b2f00538d3e149ed7e9e1cf8255a1", "is_disabled": 0, "lat": 38.94630733333334, "rental_uris": {"ios": "https://dc.lft.to/lastmile_qr_scan", "android": "https://dc.lft.to/lastmile_qr_scan"}, "is_reserved": 0, "lon": -76.99314233333334, "fusion_lat": 0.0, "name": "877b2f00538d3e149ed7e9e1cf8255a1"}, {"type": "electric_scooter", "fusion_lon": 0.0, "bike_id": "c6978d115d903a469074d8155f8fcd3c", "is_disabled": 0, "lat": 38.9213295, "rental_uris": {"ios": "https://dc.lft.to/lastmile_qr_scan", "android": "https://dc.lft.to/lastmile_qr_scan"}, "is_reserved": 0, "lon": -77.01858916666667, "fusion_lat": 0.0, "name": "c6978d115d903a469074d8155f8fcd3c"}, {"type": "electric_scooter", "fusion_lon": 0.0, "bike_id": "ec525a6a2eddc0dde7daa6251c860dd2", "is_disabled": 0, "lat": 38.89862933333333, "rental_uris": {"ios": "https://dc.lft.to/lastmile_qr_scan", "android": "https://dc.lft.to/lastmile_qr_scan"}, "is_reserved": 0, "lon": -77.025986, "fusion_lat": 0.0, "name": "ec525a6a2eddc0dde7daa6251c860dd2"}, {"type": "electric_scooter", "fusion_lon": 0.0, "bike_id": "7ef4f528668761f3d52e3ccc02e3eea9", "is_disabled": 0, "lat": 38.87472283333334, "rental_uris": {"ios": "https://dc.lft.to/lastmile_qr_scan", "android": "https://dc.lft.to/lastmile_qr_scan"}, "is_reserved": 0, "lon": -77.00556766666666, "fusion_lat": 0.0, "name": "7ef4f528668761f3d52e3ccc02e3eea9"}, {"type": "electric_scooter", "fusion_lon": 0.0, "bike_id": "a424957ee5b170ee55253d27376f8b3c", "is_disabled": 0, "lat": 38.9270515, "rental_uris": {"ios": "https://dc.lft.to/lastmile_qr_scan", "android": "https://dc.lft.to/lastmile_qr_scan"}, "is_reserved": 0, "lon": -77.021013, "fusion_lat": 0.0, "name": "a424957ee5b170ee55253d27376f8b3c"}, {"type": "electric_bike", "fusion_lon": 0.0, "bike_id": "25f68e0b5943c72ec85aa2fea40fff36", "is_disabled": 0, "lat": 38.9200435, "rental_uris": {"ios": "https://dc.lft.to/lastmile_qr_scan", "android": "https://dc.lft.to/lastmile_qr_scan"}, "is_reserved": 0, "lon": -76.95823333333334, "fusion_lat": 0.0, "name": "25f68e0b5943c72ec85aa2fea40fff36"}, {"type": "electric_scooter", "fusion_lon": 0.0, "bike_id": "8c085be871cdfcfd066ce924b4134abb", "is_disabled": 0, "lat": 38.9072975, "rental_uris": {"ios": "https://dc.lft.to/lastmile_qr_scan", "android": "https://dc.lft.to/lastmile_qr_scan"}, "is_reserved": 0, "lon": -76.97982866666666, "fusion_lat": 0.0, "name": "8c085be871cdfcfd066ce924b4134abb"}, {"type": "electric_scooter", "fusion_lon": 0.0, "bike_id": "60e48aee473aec6565e73630c74867fc", "is_disabled": 0, "lat": 38.904071333333334, "rental_uris": {"ios": "https://dc.lft.to/lastmile_qr_scan", "android": "https://dc.lft.to/lastmile_qr_scan"}, "is_reserved": 0, "lon": -76.973322, "fusion_lat": 0.0, "name": "60e48aee473aec6565e73630c74867fc"}, {"type": "electric_scooter", "fusion_lon": 0.0, "bike_id": "6ff66dc9a2fb4a2950d2e8cb868ffe87", "is_disabled": 0, "lat": 38.93507, "rental_uris": {"ios": "https://dc.lft.to/lastmile_qr_scan", "android": "https://dc.lft.to/lastmile_qr_scan"}, "is_reserved": 0, "lon": -77.02411033333334, "fusion_lat": 0.0, "name": "6ff66dc9a2fb4a2950d2e8cb868ffe87"}, {"type": "electric_scooter", "fusion_lon": 0.0, "bike_id": "20d69757e3d1917b99f309d057e9feb4", "is_disabled": 0, "lat": 38.900332666666664, "rental_uris": {"ios": "https://dc.lft.to/lastmile_qr_scan", "android": "https://dc.lft.to/lastmile_qr_scan"}, "is_reserved": 0, "lon": -77.00191266666667, "fusion_lat": 0.0, "name": "20d69757e3d1917b99f309d057e9feb4"}, {"type": "electric_scooter", "fusion_lon": 0.0, "bike_id": "634ae7747b1c8ce044144cbc71e5deb0", "is_disabled": 0, "lat": 38.911204833333336, "rental_uris": {"ios": "https://dc.lft.to/lastmile_qr_scan", "android": "https://dc.lft.to/lastmile_qr_scan"}, "is_reserved": 0, "lon": -77.02206833333334, "fusion_lat": 0.0, "name": "634ae7747b1c8ce044144cbc71e5deb0"}, {"type": "electric_scooter", "fusion_lon": 0.0, "bike_id": "c7e25231b2c97ce5af75657b3a4cee08", "is_disabled": 0, "lat": 38.920771, "rental_uris": {"ios": "https://dc.lft.to/lastmile_qr_scan", "android": "https://dc.lft.to/lastmile_qr_scan"}, "is_reserved": 0, "lon": -77.0250095, "fusion_lat": 0.0, "name": "c7e25231b2c97ce5af75657b3a4cee08"}, {"type": "electric_bike", "fusion_lon": 0.0, "bike_id": "2b8ddd6817ee30740247a6050992c81f", "is_disabled": 0, "lat": 39.08434783333333, "rental_uris": {"ios": "https://dc.lft.to/lastmile_qr_scan", "android": "https://dc.lft.to/lastmile_qr_scan"}, "is_reserved": 0, "lon": -76.95165366666667, "fusion_lat": 0.0, "name": "2b8ddd6817ee30740247a6050992c81f"}, {"type": "electric_scooter", "fusion_lon": 0.0, "bike_id": "619de60aca6724d401301d78b0b02e96", "is_disabled": 0, "lat": 38.89472266666667, "rental_uris": {"ios": "https://dc.lft.to/lastmile_qr_scan", "android": "https://dc.lft.to/lastmile_qr_scan"}, "is_reserved": 0, "lon": -76.949595, "fusion_lat": 0.0, "name": "619de60aca6724d401301d78b0b02e96"}, {"type": "electric_scooter", "fusion_lon": 0.0, "bike_id": "bf84fc780a504a710040d9f0d39974bd", "is_disabled": 0, "lat": 38.904678833333335, "rental_uris": {"ios": "https://dc.lft.to/lastmile_qr_scan", "android": "https://dc.lft.to/lastmile_qr_scan"}, "is_reserved": 0, "lon": -77.03554283333334, "fusion_lat": 0.0, "name": "bf84fc780a504a710040d9f0d39974bd"}, {"type": "electric_scooter", "fusion_lon": 0.0, "bike_id": "114c8cde5736a71736fb3eb87d73b289", "is_disabled": 0, "lat": 38.892957833333334, "rental_uris": {"ios": "https://dc.lft.to/lastmile_qr_scan", "android": "https://dc.lft.to/lastmile_qr_scan"}, "is_reserved": 0, "lon": -77.021173, "fusion_lat": 0.0, "name": "114c8cde5736a71736fb3eb87d73b289"}, {"type": "electric_scooter", "fusion_lon": 0.0, "bike_id": "79b6ab67c0f918eb75d834b56a4f93c7", "is_disabled": 0, "lat": 38.892267333333336, "rental_uris": {"ios": "https://dc.lft.to/lastmile_qr_scan", "android": "https://dc.lft.to/lastmile_qr_scan"}, "is_reserved": 0, "lon": -77.04363633333334, "fusion_lat": 0.0, "name": "79b6ab67c0f918eb75d834b56a4f93c7"}, {"type": "electric_scooter", "fusion_lon": 0.0, "bike_id": "4ff2e62c88641a0f5921d2a69742e2de", "is_disabled": 0, "lat": 38.923575166666666, "rental_uris": {"ios": "https://dc.lft.to/lastmile_qr_scan", "android": "https://dc.lft.to/lastmile_qr_scan"}, "is_reserved": 0, "lon": -77.0323015, "fusion_lat": 0.0, "name": "4ff2e62c88641a0f5921d2a69742e2de"}, {"type": "electric_scooter", "fusion_lon": 0.0, "bike_id": "275c89550c025c12b92e735124a41aa0", "is_disabled": 0, "lat": 38.92442416666667, "rental_uris": {"ios": "https://dc.lft.to/lastmile_qr_scan", "android": "https://dc.lft.to/lastmile_qr_scan"}, "is_reserved": 0, "lon": -77.033316, "fusion_lat": 0.0, "name": "275c89550c025c12b92e735124a41aa0"}, {"type": "electric_scooter", "fusion_lon": 0.0, "bike_id": "2808f78e7ee14998f63dd54d09a84939", "is_disabled": 0, "lat": 38.8665575, "rental_uris": {"ios": "https://dc.lft.to/lastmile_qr_scan", "android": "https://dc.lft.to/lastmile_qr_scan"}, "is_reserved": 0, "lon": -76.98890166666666, "fusion_lat": 0.0, "name": "2808f78e7ee14998f63dd54d09a84939"}, {"type": "electric_scooter", "fusion_lon": 0.0, "bike_id": "94b09421fe591a01b9b9f5e6a9499204", "is_disabled": 0, "lat": 38.925005666666664, "rental_uris": {"ios": "https://dc.lft.to/lastmile_qr_scan", "android": "https://dc.lft.to/lastmile_qr_scan"}, "is_reserved": 0, "lon": -77.02143666666667, "fusion_lat": 0.0, "name": "94b09421fe591a01b9b9f5e6a9499204"}, {"type": "electric_scooter", "fusion_lon": 0.0, "bike_id": "fef0b29cbd9f6a3eb68306b15f9ab220", "is_disabled": 0, "lat": 38.88397466666667, "rental_uris": {"ios": "https://dc.lft.to/lastmile_qr_scan", "android": "https://dc.lft.to/lastmile_qr_scan"}, "is_reserved": 0, "lon": -76.93042066666666, "fusion_lat": 0.0, "name": "fef0b29cbd9f6a3eb68306b15f9ab220"}, {"type": "electric_scooter", "fusion_lon": 0.0, "bike_id": "93fa95665eeaefca357b58c8fcae2253", "is_disabled": 0, "lat": 38.926794666666666, "rental_uris": {"ios": "https://dc.lft.to/lastmile_qr_scan", "android": "https://dc.lft.to/lastmile_qr_scan"}, "is_reserved": 0, "lon": -77.01523183333333, "fusion_lat": 0.0, "name": "93fa95665eeaefca357b58c8fcae2253"}, {"type": "electric_scooter", "fusion_lon": 0.0, "bike_id": "4ad3383c29ea571dc8e63963be2c3deb", "is_disabled": 0, "lat": 38.956253333333336, "rental_uris": {"ios": "https://dc.lft.to/lastmile_qr_scan", "android": "https://dc.lft.to/lastmile_qr_scan"}, "is_reserved": 0, "lon": -77.02222633333334, "fusion_lat": 0.0, "name": "4ad3383c29ea571dc8e63963be2c3deb"}, {"type": "electric_bike", "fusion_lon": 0.0, "bike_id": "8de04e153cc4b35edfe6c3fe73c8c4f8", "is_disabled": 0, "lat": 38.882661, "rental_uris": {"ios": "https://dc.lft.to/lastmile_qr_scan", "android": "https://dc.lft.to/lastmile_qr_scan"}, "is_reserved": 0, "lon": -77.22826516666667, "fusion_lat": 0.0, "name": "8de04e153cc4b35edfe6c3fe73c8c4f8"}, {"type": "electric_scooter", "fusion_lon": 0.0, "bike_id": "4c9ffb58720099b598c4dcabf0287b57", "is_disabled": 0, "lat": 38.90561833333334, "rental_uris": {"ios": "https://dc.lft.to/lastmile_qr_scan", "android": "https://dc.lft.to/lastmile_qr_scan"}, "is_reserved": 0, "lon": -77.03252633333334, "fusion_lat": 0.0, "name": "4c9ffb58720099b598c4dcabf0287b57"}, {"type": "electric_scooter", "fusion_lon": 0.0, "bike_id": "52a9399bcd95e3d4173150b5ab61875b", "is_disabled": 0, "lat": 38.892226666666666, "rental_uris": {"ios": "https://dc.lft.to/lastmile_qr_scan", "android": "https://dc.lft.to/lastmile_qr_scan"}, "is_reserved": 0, "lon": -77.04335316666666, "fusion_lat": 0.0, "name": "52a9399bcd95e3d4173150b5ab61875b"}, {"type": "electric_scooter", "fusion_lon": 0.0, "bike_id": "41518a3a02502d727427792e21227c24", "is_disabled": 0, "lat": 38.884379, "rental_uris": {"ios": "https://dc.lft.to/lastmile_qr_scan", "android": "https://dc.lft.to/lastmile_qr_scan"}, "is_reserved": 0, "lon": -77.01526783333334, "fusion_lat": 0.0, "name": "41518a3a02502d727427792e21227c24"}, {"type": "electric_scooter", "fusion_lon": 0.0, "bike_id": "18d5b2df21eeeab82018df42833372c8", "is_disabled": 0, "lat": 38.907126166666664, "rental_uris": {"ios": "https://dc.lft.to/lastmile_qr_scan", "android": "https://dc.lft.to/lastmile_qr_scan"}, "is_reserved": 0, "lon": -77.0010245, "fusion_lat": 0.0, "name": "18d5b2df21eeeab82018df42833372c8"}, {"type": "electric_scooter", "fusion_lon": 0.0, "bike_id": "a3a91837615c895b0b48763aa2c16418", "is_disabled": 0, "lat": 38.924437833333336, "rental_uris": {"ios": "https://dc.lft.to/lastmile_qr_scan", "android": "https://dc.lft.to/lastmile_qr_scan"}, "is_reserved": 0, "lon": -77.02028733333333, "fusion_lat": 0.0, "name": "a3a91837615c895b0b48763aa2c16418"}, {"type": "electric_scooter", "fusion_lon": 0.0, "bike_id": "2c901b51d5a3a60e6c02c9a99cae5420", "is_disabled": 0, "lat": 38.931461666666664, "rental_uris": {"ios": "https://dc.lft.to/lastmile_qr_scan", "android": "https://dc.lft.to/lastmile_qr_scan"}, "is_reserved": 0, "lon": -77.03270633333334, "fusion_lat": 0.0, "name": "2c901b51d5a3a60e6c02c9a99cae5420"}, {"type": "electric_scooter", "fusion_lon": 0.0, "bike_id": "f28ee90e586028c56c587086cae93272", "is_disabled": 0, "lat": 38.900514, "rental_uris": {"ios": "https://dc.lft.to/lastmile_qr_scan", "android": "https://dc.lft.to/lastmile_qr_scan"}, "is_reserved": 0, "lon": -76.998314, "fusion_lat": 0.0, "name": "f28ee90e586028c56c587086cae93272"}, {"type": "electric_scooter", "fusion_lon": 0.0, "bike_id": "5df7e379511fb4802cb4309b39eaf253", "is_disabled": 0, "lat": 38.89221716666667, "rental_uris": {"ios": "https://dc.lft.to/lastmile_qr_scan", "android": "https://dc.lft.to/lastmile_qr_scan"}, "is_reserved": 0, "lon": -77.04689316666666, "fusion_lat": 0.0, "name": "5df7e379511fb4802cb4309b39eaf253"}, {"type": "electric_scooter", "fusion_lon": 0.0, "bike_id": "24572140e9d39fb02b4356c170d0440a", "is_disabled": 0, "lat": 38.922832, "rental_uris": {"ios": "https://dc.lft.to/lastmile_qr_scan", "android": "https://dc.lft.to/lastmile_qr_scan"}, "is_reserved": 0, "lon": -77.02717116666666, "fusion_lat": 0.0, "name": "24572140e9d39fb02b4356c170d0440a"}, {"type": "electric_scooter", "fusion_lon": 0.0, "bike_id": "699a5a9c1055b1a5aed696eac1688f54", "is_disabled": 0, "lat": 38.91959383333333, "rental_uris": {"ios": "https://dc.lft.to/lastmile_qr_scan", "android": "https://dc.lft.to/lastmile_qr_scan"}, "is_reserved": 0, "lon": -77.02704433333334, "fusion_lat": 0.0, "name": "699a5a9c1055b1a5aed696eac1688f54"}, {"type": "electric_scooter", "fusion_lon": 0.0, "bike_id": "457205648e310094e61350e869a33742", "is_disabled": 0, "lat": 38.91770666666667, "rental_uris": {"ios": "https://dc.lft.to/lastmile_qr_scan", "android": "https://dc.lft.to/lastmile_qr_scan"}, "is_reserved": 0, "lon": -77.02347366666666, "fusion_lat": 0.0, "name": "457205648e310094e61350e869a33742"}, {"type": "electric_scooter", "fusion_lon": 0.0, "bike_id": "72275cb3e521fdeebe42c26eddad2017", "is_disabled": 0, "lat": 38.92701566666667, "rental_uris": {"ios": "https://dc.lft.to/lastmile_qr_scan", "android": "https://dc.lft.to/lastmile_qr_scan"}, "is_reserved": 0, "lon": -77.02340583333333, "fusion_lat": 0.0, "name": "72275cb3e521fdeebe42c26eddad2017"}, {"type": "electric_scooter", "fusion_lon": 0.0, "bike_id": "47a8c70eae0dff08fd622dfa5b26b051", "is_disabled": 0, "lat": 38.9110585, "rental_uris": {"ios": "https://dc.lft.to/lastmile_qr_scan", "android": "https://dc.lft.to/lastmile_qr_scan"}, "is_reserved": 0, "lon": -77.03827433333333, "fusion_lat": 0.0, "name": "47a8c70eae0dff08fd622dfa5b26b051"}, {"type": "electric_scooter", "fusion_lon": 0.0, "bike_id": "f64102e1ac0bc214bf45a2656c7b9981", "is_disabled": 0, "lat": 38.907762166666664, "rental_uris": {"ios": "https://dc.lft.to/lastmile_qr_scan", "android": "https://dc.lft.to/lastmile_qr_scan"}, "is_reserved": 0, "lon": -77.07256633333333, "fusion_lat": 0.0, "name": "f64102e1ac0bc214bf45a2656c7b9981"}, {"type": "electric_scooter", "fusion_lon": 0.0, "bike_id": "5b8786f9a4e0c62301c43b6fbf990f34", "is_disabled": 0, "lat": 38.89505416666667, "rental_uris": {"ios": "https://dc.lft.to/lastmile_qr_scan", "android": "https://dc.lft.to/lastmile_qr_scan"}, "is_reserved": 0, "lon": -77.00333916666666, "fusion_lat": 0.0, "name": "5b8786f9a4e0c62301c43b6fbf990f34"}, {"type": "electric_scooter", "fusion_lon": 0.0, "bike_id": "5b62f502339bde53d4c98811d988c6b0", "is_disabled": 0, "lat": 38.957845666666664, "rental_uris": {"ios": "https://dc.lft.to/lastmile_qr_scan", "android": "https://dc.lft.to/lastmile_qr_scan"}, "is_reserved": 0, "lon": -77.02469516666666, "fusion_lat": 0.0, "name": "5b62f502339bde53d4c98811d988c6b0"}, {"type": "electric_scooter", "fusion_lon": 0.0, "bike_id": "e06fdb657fc2c90cce818ee905e6f1be", "is_disabled": 0, "lat": 38.910335833333335, "rental_uris": {"ios": "https://dc.lft.to/lastmile_qr_scan", "android": "https://dc.lft.to/lastmile_qr_scan"}, "is_reserved": 0, "lon": -77.04841166666667, "fusion_lat": 0.0, "name": "e06fdb657fc2c90cce818ee905e6f1be"}, {"type": "electric_scooter", "fusion_lon": 0.0, "bike_id": "c5beec7b750d4308c69cc6be26038477", "is_disabled": 0, "lat": 38.938455, "rental_uris": {"ios": "https://dc.lft.to/lastmile_qr_scan", "android": "https://dc.lft.to/lastmile_qr_scan"}, "is_reserved": 0, "lon": -77.0338525, "fusion_lat": 0.0, "name": "c5beec7b750d4308c69cc6be26038477"}, {"type": "electric_scooter", "fusion_lon": 0.0, "bike_id": "7375fda651b6a4475b60311ff0c3f6d3", "is_disabled": 0, "lat": 38.9052415, "rental_uris": {"ios": "https://dc.lft.to/lastmile_qr_scan", "android": "https://dc.lft.to/lastmile_qr_scan"}, "is_reserved": 0, "lon": -77.02946916666667, "fusion_lat": 0.0, "name": "7375fda651b6a4475b60311ff0c3f6d3"}, {"type": "electric_scooter", "fusion_lon": 0.0, "bike_id": "9cbdff8a7ba927e8afd40c22749ac2b0", "is_disabled": 0, "lat": 38.896883, "rental_uris": {"ios": "https://dc.lft.to/lastmile_qr_scan", "android": "https://dc.lft.to/lastmile_qr_scan"}, "is_reserved": 0, "lon": -77.01954033333334, "fusion_lat": 0.0, "name": "9cbdff8a7ba927e8afd40c22749ac2b0"}, {"type": "electric_scooter", "fusion_lon": 0.0, "bike_id": "cbf3ffbc7204ce053320b4f742932992", "is_disabled": 0, "lat": 38.942132, "rental_uris": {"ios": "https://dc.lft.to/lastmile_qr_scan", "android": "https://dc.lft.to/lastmile_qr_scan"}, "is_reserved": 0, "lon": -77.01357816666666, "fusion_lat": 0.0, "name": "cbf3ffbc7204ce053320b4f742932992"}, {"type": "electric_scooter", "fusion_lon": 0.0, "bike_id": "3c5b54bf8183b29f884c9e1cfb550d00", "is_disabled": 0, "lat": 38.89442566666666, "rental_uris": {"ios": "https://dc.lft.to/lastmile_qr_scan", "android": "https://dc.lft.to/lastmile_qr_scan"}, "is_reserved": 0, "lon": -77.010724, "fusion_lat": 0.0, "name": "3c5b54bf8183b29f884c9e1cfb550d00"}, {"type": "electric_scooter", "fusion_lon": 0.0, "bike_id": "55a18c787d72a78fa19305d36f8c707e", "is_disabled": 0, "lat": 38.92249116666667, "rental_uris": {"ios": "https://dc.lft.to/lastmile_qr_scan", "android": "https://dc.lft.to/lastmile_qr_scan"}, "is_reserved": 0, "lon": -77.019467, "fusion_lat": 0.0, "name": "55a18c787d72a78fa19305d36f8c707e"}, {"type": "electric_scooter", "fusion_lon": 0.0, "bike_id": "d86da44c06e45d1b4590e2726c13ba2f", "is_disabled": 0, "lat": 38.90027533333333, "rental_uris": {"ios": "https://dc.lft.to/lastmile_qr_scan", "android": "https://dc.lft.to/lastmile_qr_scan"}, "is_reserved": 0, "lon": -77.02695666666666, "fusion_lat": 0.0, "name": "d86da44c06e45d1b4590e2726c13ba2f"}, {"type": "electric_scooter", "fusion_lon": 0.0, "bike_id": "beaed840f882dd83035e59ee791d2f68", "is_disabled": 0, "lat": 38.923405, "rental_uris": {"ios": "https://dc.lft.to/lastmile_qr_scan", "android": "https://dc.lft.to/lastmile_qr_scan"}, "is_reserved": 0, "lon": -77.05175816666667, "fusion_lat": 0.0, "name": "beaed840f882dd83035e59ee791d2f68"}, {"type": "electric_scooter", "fusion_lon": 0.0, "bike_id": "e45bc458de47fb17a3a5ea220dc8fe9e", "is_disabled": 0, "lat": 38.88500333333333, "rental_uris": {"ios": "https://dc.lft.to/lastmile_qr_scan", "android": "https://dc.lft.to/lastmile_qr_scan"}, "is_reserved": 0, "lon": -77.00893533333333, "fusion_lat": 0.0, "name": "e45bc458de47fb17a3a5ea220dc8fe9e"}, {"type": "electric_scooter", "fusion_lon": 0.0, "bike_id": "312736a8eda53c3cd96e0e6bdf613331", "is_disabled": 0, "lat": 38.922805333333336, "rental_uris": {"ios": "https://dc.lft.to/lastmile_qr_scan", "android": "https://dc.lft.to/lastmile_qr_scan"}, "is_reserved": 0, "lon": -77.03661866666667, "fusion_lat": 0.0, "name": "312736a8eda53c3cd96e0e6bdf613331"}, {"type": "electric_scooter", "fusion_lon": 0.0, "bike_id": "2103f7da5b97f7c6ef39c0c3b619e6d9", "is_disabled": 0, "lat": 38.8748785, "rental_uris": {"ios": "https://dc.lft.to/lastmile_qr_scan", "android": "https://dc.lft.to/lastmile_qr_scan"}, "is_reserved": 0, "lon": -76.999772, "fusion_lat": 0.0, "name": "2103f7da5b97f7c6ef39c0c3b619e6d9"}, {"type": "electric_bike", "fusion_lon": 0.0, "bike_id": "50a2d5aaa00b31f4c362ff7f9cf9000d", "is_disabled": 0, "lat": 38.9724905, "rental_uris": {"ios": "https://dc.lft.to/lastmile_qr_scan", "android": "https://dc.lft.to/lastmile_qr_scan"}, "is_reserved": 0, "lon": -76.98063683333334, "fusion_lat": 0.0, "name": "50a2d5aaa00b31f4c362ff7f9cf9000d"}, {"type": "electric_scooter", "fusion_lon": 0.0, "bike_id": "bebaefbace0384fe0d90deef0665dc08", "is_disabled": 0, "lat": 38.89960933333333, "rental_uris": {"ios": "https://dc.lft.to/lastmile_qr_scan", "android": "https://dc.lft.to/lastmile_qr_scan"}, "is_reserved": 0, "lon": -77.047876, "fusion_lat": 0.0, "name": "bebaefbace0384fe0d90deef0665dc08"}, {"type": "electric_scooter", "fusion_lon": 0.0, "bike_id": "538a64e72eb549de70d7b1d4002f1f2f", "is_disabled": 0, "lat": 38.929388333333335, "rental_uris": {"ios": "https://dc.lft.to/lastmile_qr_scan", "android": "https://dc.lft.to/lastmile_qr_scan"}, "is_reserved": 0, "lon": -77.01636966666666, "fusion_lat": 0.0, "name": "538a64e72eb549de70d7b1d4002f1f2f"}, {"type": "electric_scooter", "fusion_lon": 0.0, "bike_id": "6aa972a7d663b85ef09908d7f7e5bb61", "is_disabled": 0, "lat": 38.9149625, "rental_uris": {"ios": "https://dc.lft.to/lastmile_qr_scan", "android": "https://dc.lft.to/lastmile_qr_scan"}, "is_reserved": 0, "lon": -77.01217466666667, "fusion_lat": 0.0, "name": "6aa972a7d663b85ef09908d7f7e5bb61"}, {"type": "electric_scooter", "fusion_lon": 0.0, "bike_id": "4a68c59722f80fb9da3a46aee2b8882d", "is_disabled": 0, "lat": 38.906014166666665, "rental_uris": {"ios": "https://dc.lft.to/lastmile_qr_scan", "android": "https://dc.lft.to/lastmile_qr_scan"}, "is_reserved": 0, "lon": -77.04325183333333, "fusion_lat": 0.0, "name": "4a68c59722f80fb9da3a46aee2b8882d"}, {"type": "electric_bike", "fusion_lon": 0.0, "bike_id": "30b1006506987fc1ca4bd3bc8e32e106", "is_disabled": 0, "lat": 38.9570945, "rental_uris": {"ios": "https://dc.lft.to/lastmile_qr_scan", "android": "https://dc.lft.to/lastmile_qr_scan"}, "is_reserved": 0, "lon": -77.00283216666666, "fusion_lat": 0.0, "name": "30b1006506987fc1ca4bd3bc8e32e106"}, {"type": "electric_scooter", "fusion_lon": 0.0, "bike_id": "7e30e630aed672d37d6685735cfea514", "is_disabled": 0, "lat": 38.906961833333334, "rental_uris": {"ios": "https://dc.lft.to/lastmile_qr_scan", "android": "https://dc.lft.to/lastmile_qr_scan"}, "is_reserved": 0, "lon": -77.04978116666666, "fusion_lat": 0.0, "name": "7e30e630aed672d37d6685735cfea514"}, {"type": "electric_scooter", "fusion_lon": 0.0, "bike_id": "70ac100fe4a9149dd69b03e64d468114", "is_disabled": 0, "lat": 38.9050405, "rental_uris": {"ios": "https://dc.lft.to/lastmile_qr_scan", "android": "https://dc.lft.to/lastmile_qr_scan"}, "is_reserved": 0, "lon": -76.99187283333333, "fusion_lat": 0.0, "name": "70ac100fe4a9149dd69b03e64d468114"}, {"type": "electric_bike", "fusion_lon": 0.0, "bike_id": "9cdf317917141cf4f8482c243496c396", "is_disabled": 0, "lat": 38.94471166666666, "rental_uris": {"ios": "https://dc.lft.to/lastmile_qr_scan", "android": "https://dc.lft.to/lastmile_qr_scan"}, "is_reserved": 0, "lon": -76.986906, "fusion_lat": 0.0, "name": "9cdf317917141cf4f8482c243496c396"}, {"type": "electric_scooter", "fusion_lon": 0.0, "bike_id": "0372fcd003e0af57315f1ece3557d40e", "is_disabled": 0, "lat": 38.9055295, "rental_uris": {"ios": "https://dc.lft.to/lastmile_qr_scan", "android": "https://dc.lft.to/lastmile_qr_scan"}, "is_reserved": 0, "lon": -77.04740633333333, "fusion_lat": 0.0, "name": "0372fcd003e0af57315f1ece3557d40e"}, {"type": "electric_scooter", "fusion_lon": 0.0, "bike_id": "01787028b6db42d9104c3fde337235fc", "is_disabled": 0, "lat": 38.924571666666665, "rental_uris": {"ios": "https://dc.lft.to/lastmile_qr_scan", "android": "https://dc.lft.to/lastmile_qr_scan"}, "is_reserved": 0, "lon": -77.04031516666667, "fusion_lat": 0.0, "name": "01787028b6db42d9104c3fde337235fc"},