{"data": {"bikes": [{"rental_uris": {"android": "https://dc.lft.to/lastmile_qr_scan", "ios": "https://dc.lft.to/lastmile_qr_scan"}, "name": "4a2714e304d72bba84510859813b9290", "fusion_lat": 0.0, "lon": -77.03333166666667, "is_disabled": 0, "is_reserved": 0, "fusion_lon": 0.0, "lat": 38.898231, "type": "electric_scooter", "bike_id": "4a2714e304d72bba84510859813b9290"}, {"rental_uris": {"android": "https://dc.lft.to/lastmile_qr_scan", "ios": "https://dc.lft.to/lastmile_qr_scan"}, "name": "1a3bab57aaaa5fab26e79830f8cb853f", "fusion_lat": 0.0, "lon": -77.02935033333333, "is_disabled": 0, "is_reserved": 0, "fusion_lon": 0.0, "lat": 38.89988916666667, "type": "electric_scooter", "bike_id": "1a3bab57aaaa5fab26e79830f8cb853f"}, {"rental_uris": {"android": "https://dc.lft.to/lastmile_qr_scan", "ios": "https://dc.lft.to/lastmile_qr_scan"}, "name": "3b90604fd5233ea1dd06dae935aa2dc5", "fusion_lat": 0.0, "lon": -77.03701316666667, "is_disabled": 0, "is_reserved": 0, "fusion_lon": 0.0, "lat": 38.92030783333333, "type": "electric_scooter", "bike_id": "3b90604fd5233ea1dd06dae935aa2dc5"}, {"rental_uris": {"android": "https://dc.lft.to/lastmile_qr_scan", "ios": "https://dc.lft.to/lastmile_qr_scan"}, "name": "fefc744558e6c3668e814132c16ffdb6", "fusion_lat": 0.0, "lon": -77.045948, "is_disabled": 0, "is_reserved": 0, "fusion_lon": 0.0, "lat": 38.896062, "type": "electric_scooter", "bike_id": "fefc744558e6c3668e814132c16ffdb6"}, {"rental_uris": {"android": "https://dc.lft.to/lastmile_qr_scan", "ios": "https://dc.lft.to/lastmile_qr_scan"}, "name": "98c5d2f8cc0bf028fe3af5bb24b04728", "fusion_lat": 0.0, "lon": -77.10127516666667, "is_disabled": 0, "is_reserved": 0, "fusion_lon": 0.0, "lat": 38.852101833333336, "type": "electric_bike", "bike_id": "98c5d2f8cc0bf028fe3af5bb24b04728"}, {"rental_uris": {"android": "https://dc.lft.to/lastmile_qr_scan", "ios": "https://dc.lft.to/lastmile_qr_scan"}, "name": "8a64ce38d1c1002a1565e4554d99443c", "fusion_lat": 0.0, "lon": -77.0451335, "is_disabled": 0, "is_reserved": 0, "fusion_lon": 0.0, "lat": 38.886025, "type": "electric_scooter", "bike_id": "8a64ce38d1c1002a1565e4554d99443c"}, {"rental_uris": {"android": "https://dc.lft.to/lastmile_qr_scan", "ios": "https://dc.lft.to/lastmile_qr_scan"}, "name": "d5627da37c44d24ddb6fdc30110d9fab", "fusion_lat": 0.0, "lon": -76.9949605, "is_disabled": 0, "is_reserved": 0, "fusion_lon": 0.0, "lat": 38.862208833333334, "type": "electric_scooter", "bike_id": "d5627da37c44d24ddb6fdc30110d9fab"}, {"rental_uris": {"android": "https://dc.lft.to/lastmile_qr_scan", "ios": "https://dc.lft.to/lastmile_qr_scan"}, "name": "5f41847d27cf0d9e601f795f0b8dc186", "fusion_lat": 0.0, "lon": -77.035222, "is_disabled": 0, "is_reserved": 0, "fusion_lon": 0.0, "lat": 38.932764, "type": "electric_scooter", "bike_id": "5f41847d27cf0d9e601f795f0b8dc186"}, {"rental_uris": {"android": "https://dc.lft.to/lastmile_qr_scan", "ios": "https://dc.lft.to/lastmile_qr_scan"}, "name": "30242ce058662bda078001f73f3d3e70", "fusion_lat": 0.0, "lon": -77.00820116666667, "is_disabled": 0, "is_reserved": 0, "fusion_lon": 0.0, "lat": 38.887283833333335, "type": "electric_bike", "bike_id": "30242ce058662bda078001f73f3d3e70"}, {"rental_uris": {"android": "https://dc.lft.to/lastmile_qr_scan", "ios": "https://dc.lft.to/lastmile_qr_scan"}, "name": "1c9de450df57ac712e80cc2691bfc64d", "fusion_lat": 0.0, "lon": -77.0317945, "is_disabled": 0, "is_reserved": 0, "fusion_lon": 0.0, "lat": 38.9201795, "type": "electric_scooter", "bike_id": "1c9de450df57ac712e80cc2691bfc64d"}, {"rental_uris": {"android": "https://dc.lft.to/lastmile_qr_scan", "ios": "https://dc.lft.to/lastmile_qr_scan"}, "name": "47700afb2fadd95b9eb0ef56799b29dd", "fusion_lat": 0.0, "lon": -77.03800033333333, "is_disabled": 0, "is_reserved": 0, "fusion_lon": 0.0, "lat": 38.91039, "type": "electric_scooter", "bike_id": "47700afb2fadd95b9eb0ef56799b29dd"}, {"rental_uris": {"android": "https://dc.lft.to/lastmile_qr_scan", "ios": "https://dc.lft.to/lastmile_qr_scan"}, "name": "098e4bd91e3b16036c938aa668278a09", "fusion_lat": 0.0, "lon": -77.06474583333333, "is_disabled": 0, "is_reserved": 0, "fusion_lon": 0.0, "lat": 38.97386816666667, "type": "electric_bike", "bike_id": "098e4bd91e3b16036c938aa668278a09"}, {"rental_uris": {"android": "https://dc.lft.to/lastmile_qr_scan", "ios": "https://dc.lft.to/lastmile_qr_scan"}, "name": "0edd78c606e99144d64381d13d5244ab", "fusion_lat": 0.0, "lon": -77.04120116666667, "is_disabled": 0, "is_reserved": 0, "fusion_lon": 0.0, "lat": 38.91551583333333, "type": "electric_scooter", "bike_id": "0edd78c606e99144d64381d13d5244ab"}, {"rental_uris": {"android": "https://dc.lft.to/lastmile_qr_scan", "ios": "https://dc.lft.to/lastmile_qr_scan"}, "name": "ace29bf4860198f21510129798cae435", "fusion_lat": 0.0, "lon": -77.020592, "is_disabled": 0, "is_reserved": 0, "fusion_lon": 0.0, "lat": 38.89475866666667, "type": "electric_scooter", "bike_id": "ace29bf4860198f21510129798cae435"}, {"rental_uris": {"android": "https://dc.lft.to/lastmile_qr_scan", "ios": "https://dc.lft.to/lastmile_qr_scan"}, "name": "64d22957224575080ac0f321681288c3", "fusion_lat": 0.0, "lon": -76.98932933333333, "is_disabled": 0, "is_reserved": 0, "fusion_lon": 0.0, "lat": 38.92863466666667, "type": "electric_bike", "bike_id": "64d22957224575080ac0f321681288c3"}, {"rental_uris": {"android": "https://dc.lft.to/lastmile_qr_scan", "ios": "https://dc.lft.to/lastmile_qr_scan"}, "name": "5a031466922a038eb24c87d67843b1e2", "fusion_lat": 0.0, "lon": -77.00371766666666, "is_disabled": 0, "is_reserved": 0, "fusion_lon": 0.0, "lat": 38.897279833333336, "type": "electric_scooter", "bike_id": "5a031466922a038eb24c87d67843b1e2"}, {"rental_uris": {"android": "https://dc.lft.to/lastmile_qr_scan", "ios": "https://dc.lft.to/lastmile_qr_scan"}, "name": "432b267db1c6b59e6d973ff46093254e", "fusion_lat": 0.0, "lon": -76.99057083333334, "is_disabled": 0, "is_reserved": 0, "fusion_lon": 0.0, "lat": 38.863634166666664, "type": "electric_scooter", "bike_id": "432b267db1c6b59e6d973ff46093254e"}, {"rental_uris": {"android": "https://dc.lft.to/lastmile_qr_scan", "ios": "https://dc.lft.to/lastmile_qr_scan"}, "name": "0a3c823de479687c8007c441970c892c", "fusion_lat": 0.0, "lon": -77.01057416666667, "is_disabled": 0, "is_reserved": 0, "fusion_lon": 0.0, "lat": 38.87144216666667, "type": "electric_scooter", "bike_id": "0a3c823de479687c8007c441970c892c"}, {"rental_uris": {"android": "https://dc.lft.to/lastmile_qr_scan", "ios": "https://dc.lft.to/lastmile_qr_scan"}, "name": "d874b34539b1a2f63c4800d52266bbac", "fusion_lat": 0.0, "lon": -77.029491, "is_disabled": 0, "is_reserved": 0, "fusion_lon": 0.0, "lat": 38.90501033333334, "type": "electric_scooter", "bike_id": "d874b34539b1a2f63c4800d52266bbac"}, {"rental_uris": {"android": "https://dc.lft.to/lastmile_qr_scan", "ios": "https://dc.lft.to/lastmile_qr_scan"}, "name": "2d9b509d384fd3107e69101071eb8bf2", "fusion_lat": 0.0, "lon": -77.024601, "is_disabled": 0, "is_reserved": 0, "fusion_lon": 0.0, "lat": 38.908517, "type": "electric_scooter", "bike_id": "2d9b509d384fd3107e69101071eb8bf2"}, {"rental_uris": {"android": "https://dc.lft.to/lastmile_qr_scan", "ios": "https://dc.lft.to/lastmile_qr_scan"}, "name": "00bb4cbf96fd760150df4536359c4223", "fusion_lat": 0.0, "lon": -76.99608933333333, "is_disabled": 0, "is_reserved": 0, "fusion_lon": 0.0, "lat": 38.926155, "type": "electric_scooter", "bike_id": "00bb4cbf96fd760150df4536359c4223"}, {"rental_uris": {"android": "https://dc.lft.to/lastmile_qr_scan", "ios": "https://dc.lft.to/lastmile_qr_scan"}, "name": "dd10a977ae82ddbcaabeccb837c65df1", "fusion_lat": 0.0, "lon": -77.0437265, "is_disabled": 0, "is_reserved": 0, "fusion_lon": 0.0, "lat": 38.91121783333333, "type": "electric_scooter", "bike_id": "dd10a977ae82ddbcaabeccb837c65df1"}, {"rental_uris": {"android": "https://dc.lft.to/lastmile_qr_scan", "ios": "https://dc.lft.to/lastmile_qr_scan"}, "name": "5b96789da1a0acce939a2a6c9ea45fb7", "fusion_lat": 0.0, "lon": -77.02596066666666, "is_disabled": 0, "is_reserved": 0, "fusion_lon": 0.0, "lat": 38.982344166666664, "type": "electric_bike", "bike_id": "5b96789da1a0acce939a2a6c9ea45fb7"}, {"rental_uris": {"android": "https://dc.lft.to/lastmile_qr_scan", "ios": "https://dc.lft.to/lastmile_qr_scan"}, "name": "9fe380473484daf8f859093f69071331", "fusion_lat": 0.0, "lon": -77.01049383333333, "is_disabled": 0, "is_reserved": 0, "fusion_lon": 0.0, "lat": 38.92985766666666, "type": "electric_scooter", "bike_id": "9fe380473484daf8f859093f69071331"}, {"rental_uris": {"android": "https://dc.lft.to/lastmile_qr_scan", "ios": "https://dc.lft.to/lastmile_qr_scan"}, "name": "8aabd1d4b29be929ae681589614d24a3", "fusion_lat": 0.0, "lon": -77.08571116666667, "is_disabled": 0, "is_reserved": 0, "fusion_lon": 0.0, "lat": 38.874122166666666, "type": "electric_bike", "bike_id": "8aabd1d4b29be929ae681589614d24a3"}, {"rental_uris": {"android": "https://dc.lft.to/lastmile_qr_scan", "ios": "https://dc.lft.to/lastmile_qr_scan"}, "name": "cd42b5388938dbc9c2fc8a0955867430", "fusion_lat": 0.0, "lon": -77.02378566666667, "is_disabled": 0, "is_reserved": 0, "fusion_lon": 0.0, "lat": 38.90726, "type": "electric_scooter", "bike_id": "cd42b5388938dbc9c2fc8a0955867430"}, {"rental_uris": {"android": "https://dc.lft.to/lastmile_qr_scan", "ios": "https://dc.lft.to/lastmile_qr_scan"}, "name": "91abbba3c920ceba435b475bb2a3bd96", "fusion_lat": 0.0, "lon": -77.04167266666667, "is_disabled": 0, "is_reserved": 0, "fusion_lon": 0.0, "lat": 38.909260333333336, "type": "electric_scooter", "bike_id": "91abbba3c920ceba435b475bb2a3bd96"}, {"rental_uris": {"android": "https://dc.lft.to/lastmile_qr_scan", "ios": "https://dc.lft.to/lastmile_qr_scan"}, "name": "811591192a48088ed5a29bde9d5e6264", "fusion_lat": 0.0, "lon": -77.029619, "is_disabled": 0, "is_reserved": 0, "fusion_lon": 0.0, "lat": 38.89222133333333, "type": "electric_scooter", "bike_id": "811591192a48088ed5a29bde9d5e6264"}, {"rental_uris": {"android": "https://dc.lft.to/lastmile_qr_scan", "ios": "https://dc.lft.to/lastmile_qr_scan"}, "name": "45d46410fece16f6f1e887a69b3e740f", "fusion_lat": 0.0, "lon": -77.03351333333333, "is_disabled": 0, "is_reserved": 0, "fusion_lon": 0.0, "lat": 38.9223655, "type": "electric_scooter", "bike_id": "45d46410fece16f6f1e887a69b3e740f"}, {"rental_uris": {"android": "https://dc.lft.to/lastmile_qr_scan", "ios": "https://dc.lft.to/lastmile_qr_scan"}, "name": "4dcd17335ec53f6db1a28a16519b2dbd", "fusion_lat": 0.0, "lon": -77.0005015, "is_disabled": 0, "is_reserved": 0, "fusion_lon": 0.0, "lat": 38.8899895, "type": "electric_scooter", "bike_id": "4dcd17335ec53f6db1a28a16519b2dbd"}, {"rental_uris": {"android": "https://dc.lft.to/lastmile_qr_scan", "ios": "https://dc.lft.to/lastmile_qr_scan"}, "name": "3e15cc5c0700986d63f7888f2f564c3e", "fusion_lat": 0.0, "lon": -77.04732616666666, "is_disabled": 0, "is_reserved": 0, "fusion_lon": 0.0, "lat": 38.91280583333333, "type": "electric_scooter", "bike_id": "3e15cc5c0700986d63f7888f2f564c3e"}, {"rental_uris": {"android": "https://dc.lft.to/lastmile_qr_scan", "ios": "https://dc.lft.to/lastmile_qr_scan"}, "name": "3636d4227761c380182dc7bcc7b250b5", "fusion_lat": 0.0, "lon": -77.04049033333334, "is_disabled": 0, "is_reserved": 0, "fusion_lon": 0.0, "lat": 38.904681833333335, "type": "electric_scooter", "bike_id": "3636d4227761c380182dc7bcc7b250b5"}, {"rental_uris": {"android": "https://dc.lft.to/lastmile_qr_scan", "ios": "https://dc.lft.to/lastmile_qr_scan"}, "name": "8741c5de6ed9fcef86532aa374ad11a2", "fusion_lat": 0.0, "lon": -77.02692066666667, "is_disabled": 0, "is_reserved": 0, "fusion_lon": 0.0, "lat": 38.90254183333333, "type": "electric_scooter", "bike_id": "8741c5de6ed9fcef86532aa374ad11a2"}, {"rental_uris": {"android": "https://dc.lft.to/lastmile_qr_scan", "ios": "https://dc.lft.to/lastmile_qr_scan"}, "name": "ccb6e1c6d6539301d22088f935076879", "fusion_lat": 0.0, "lon": -77.12627283333333, "is_disabled": 0, "is_reserved": 0, "fusion_lon": 0.0, "lat": 39.058120333333335, "type": "electric_bike", "bike_id": "ccb6e1c6d6539301d22088f935076879"}, {"rental_uris": {"android": "https://dc.lft.to/lastmile_qr_scan", "ios": "https://dc.lft.to/lastmile_qr_scan"}, "name": "7c350489a3364e20d16b795fc15f4431", "fusion_lat": 0.0, "lon": -76.97953233333334, "is_disabled": 0, "is_reserved": 0, "fusion_lon": 0.0, "lat": 38.952404666666666, "type": "electric_bike", "bike_id": "7c350489a3364e20d16b795fc15f4431"}, {"rental_uris": {"android": "https://dc.lft.to/lastmile_qr_scan", "ios": "https://dc.lft.to/lastmile_qr_scan"}, "name": "a407cd9171f369d25c551c29ccc9abda", "fusion_lat": 0.0, "lon": -76.99818883333333, "is_disabled": 0, "is_reserved": 0, "fusion_lon": 0.0, "lat": 38.844338666666665, "type": "electric_scooter", "bike_id": "a407cd9171f369d25c551c29ccc9abda"}, {"rental_uris": {"android": "https://dc.lft.to/lastmile_qr_scan", "ios": "https://dc.lft.to/lastmile_qr_scan"}, "name": "4c66a6707b0501c04cb882cba16ce73f", "fusion_lat": 0.0, "lon": -77.00929533333333, "is_disabled": 0, "is_reserved": 0, "fusion_lon": 0.0, "lat": 38.89640133333333, "type": "electric_scooter", "bike_id": "4c66a6707b0501c04cb882cba16ce73f"}, {"rental_uris": {"android": "https://dc.lft.to/lastmile_qr_scan", "ios": "https://dc.lft.to/lastmile_qr_scan"}, "name": "106a40c91f33c08e0df2eb03537302e0", "fusion_lat": 0.0, "lon": -76.98741066666666, "is_disabled": 0, "is_reserved": 0, "fusion_lon": 0.0, "lat": 38.8578915, "type": "electric_bike", "bike_id": "106a40c91f33c08e0df2eb03537302e0"}, {"rental_uris": {"android": "https://dc.lft.to/lastmile_qr_scan", "ios": "https://dc.lft.to/lastmile_qr_scan"}, "name": "a7cfc0f473a3ab0826f4ce10a6d174f1", "fusion_lat": 0.0, "lon": -77.050482, "is_disabled": 0, "is_reserved": 0, "fusion_lon": 0.0, "lat": 38.92363266666667, "type": "electric_scooter", "bike_id": "a7cfc0f473a3ab0826f4ce10a6d174f1"}, {"rental_uris": {"android": "https://dc.lft.to/lastmile_qr_scan", "ios": "https://dc.lft.to/lastmile_qr_scan"}, "name": "3113c9e51722a0d0aa77bf171e1a2326", "fusion_lat": 0.0, "lon": -77.00758216666667, "is_disabled": 0, "is_reserved": 0, "fusion_lon": 0.0, "lat": 38.91555316666667, "type": "electric_scooter", "bike_id": "3113c9e51722a0d0aa77bf171e1a2326"}, {"rental_uris": {"android": "https://dc.lft.to/lastmile_qr_scan", "ios": "https://dc.lft.to/lastmile_qr_scan"}, "name": "214dd78ec40638951310281a79c153cf", "fusion_lat": 0.0, "lon": -77.0321345, "is_disabled": 0, "is_reserved": 0, "fusion_lon": 0.0, "lat": 38.91642866666667, "type": "electric_scooter", "bike_id": "214dd78ec40638951310281a79c153cf"}, {"rental_uris": {"android": "https://dc.lft.to/lastmile_qr_scan", "ios": "https://dc.lft.to/lastmile_qr_scan"}, "name": "68f7d90d850652cee8fa0f0442809ec6", "fusion_lat": 0.0, "lon": -77.04325783333333, "is_disabled": 0, "is_reserved": 0, "fusion_lon": 0.0, "lat": 38.911143333333335, "type": "electric_scooter", "bike_id": "68f7d90d850652cee8fa0f0442809ec6"}, {"rental_uris": {"android": "https://dc.lft.to/lastmile_qr_scan", "ios": "https://dc.lft.to/lastmile_qr_scan"}, "name": "5e922fab458333bd93df9283fbfc3e45", "fusion_lat": 0.0, "lon": -77.04527516666667, "is_disabled": 0, "is_reserved": 0, "fusion_lon": 0.0, "lat": 38.903593, "type": "electric_scooter", "bike_id": "5e922fab458333bd93df9283fbfc3e45"}, {"rental_uris": {"android": "https://dc.lft.to/lastmile_qr_scan", "ios": "https://dc.lft.to/lastmile_qr_scan"}, "name": "97c378987131105e5915d6688ba013a4", "fusion_lat": 0.0, "lon": -77.038428, "is_disabled": 0, "is_reserved": 0, "fusion_lon": 0.0, "lat": 38.904265333333335, "type": "electric_scooter", "bike_id": "97c378987131105e5915d6688ba013a4"}, {"rental_uris": {"android": "https://dc.lft.to/lastmile_qr_scan", "ios": "https://dc.lft.to/lastmile_qr_scan"}, "name": "4b0504b1cbc705833dce5540ff3e7280", "fusion_lat": 0.0, "lon": -77.03832933333334, "is_disabled": 0, "is_reserved": 0, "fusion_lon": 0.0, "lat": 38.911204, "type": "electric_scooter", "bike_id": "4b0504b1cbc705833dce5540ff3e7280"}, {"rental_uris": {"android": "https://dc.lft.to/lastmile_qr_scan", "ios": "https://dc.lft.to/lastmile_qr_scan"}, "name": "f32d2734bcd21bda6eefd879a40b4056", "fusion_lat": 0.0, "lon": -76.98834333333333, "is_disabled": 0, "is_reserved": 0, "fusion_lon": 0.0, "lat": 38.900499333333336, "type": "electric_scooter", "bike_id": "f32d2734bcd21bda6eefd879a40b4056"}, {"rental_uris": {"android": "https://dc.lft.to/lastmile_qr_scan", "ios": "https://dc.lft.to/lastmile_qr_scan"}, "name": "d6b51d9a67c3c5662a41fa815d867c49", "fusion_lat": 0.0, "lon": -77.022255, "is_disabled": 0, "is_reserved": 0, "fusion_lon": 0.0, "lat": 38.91268766666666, "type": "electric_scooter", "bike_id": "d6b51d9a67c3c5662a41fa815d867c49"}, {"rental_uris": {"android": "https://dc.lft.to/lastmile_qr_scan", "ios": "https://dc.lft.to/lastmile_qr_scan"}, "name": "36d63dc2f3c42a25596544ac081801d1", "fusion_lat": 0.0, "lon": -77.05788266666667, "is_disabled": 0, "is_reserved": 0, "fusion_lon": 0.0, "lat": 38.93479816666667, "type": "electric_scooter", "bike_id": "36d63dc2f3c42a25596544ac081801d1"}, {"rental_uris": {"android": "https://dc.lft.to/lastmile_qr_scan", "ios": "https://dc.lft.to/lastmile_qr_scan"}, "name": "9a1d4736a19806271bffcc0510c7aaa4", "fusion_lat": 0.0, "lon": -76.96533283333333, "is_disabled": 0, "is_reserved": 0, "fusion_lon": 0.0, "lat": 38.87483233333333, "type": "electric_scooter", "bike_id": "9a1d4736a19806271bffcc0510c7aaa4"}, {"rental_uris": {"android": "https://dc.lft.to/lastmile_qr_scan", "ios": "https://dc.lft.to/lastmile_qr_scan"}, "name": "e9c2c2fcfd60319db09e2b5ae3b3bf69", "fusion_lat": 0.0, "lon": -77.03111416666667, "is_disabled": 0, "is_reserved": 0, "fusion_lon": 0.0, "lat": 38.91923233333333, "type": "electric_scooter", "bike_id": "e9c2c2fcfd60319db09e2b5ae3b3bf69"}, {"rental_uris": {"android": "https://dc.lft.to/lastmile_qr_scan", "ios": "https://dc.lft.to/lastmile_qr_scan"}, "name": "6d3b59b9e806f1be96dc5e60435f4997", "fusion_lat": 0.0, "lon": -77.023227, "is_disabled": 0, "is_reserved": 0, "fusion_lon": 0.0, "lat": 38.916799, "type": "electric_scooter", "bike_id": "6d3b59b9e806f1be96dc5e60435f4997"}, {"rental_uris": {"android": "https://dc.lft.to/lastmile_qr_scan", "ios": "https://dc.lft.to/lastmile_qr_scan"}, "name": "579ca692c6391b86255498a2c71efa70", "fusion_lat": 0.0, "lon": -77.03214583333333, "is_disabled": 0, "is_reserved": 0, "fusion_lon": 0.0, "lat": 38.903800833333335, "type": "electric_scooter", "bike_id": "579ca692c6391b86255498a2c71efa70"}, {"rental_uris": {"android": "https://dc.lft.to/lastmile_qr_scan", "ios": "https://dc.lft.to/lastmile_qr_scan"}, "name": "35181715873e493bc42b662905eb45ef", "fusion_lat": 0.0, "lon": -77.034013, "is_disabled": 0, "is_reserved": 0, "fusion_lon": 0.0, "lat": 38.91913133333333, "type": "electric_scooter", "bike_id": "35181715873e493bc42b662905eb45ef"}, {"rental_uris": {"android": "https://dc.lft.to/lastmile_qr_scan", "ios": "https://dc.lft.to/lastmile_qr_scan"}, "name": "ed807b2533303aa23fce302cabf2c9a4", "fusion_lat": 0.0, "lon": -77.0070955, "is_disabled": 0, "is_reserved": 0, "fusion_lon": 0.0, "lat": 38.88489583333333, "type": "electric_scooter", "bike_id": "ed807b2533303aa23fce302cabf2c9a4"}, {"rental_uris": {"android": "https://dc.lft.to/lastmile_qr_scan", "ios": "https://dc.lft.to/lastmile_qr_scan"}, "name": "c66e96eda1931eea29af4e59f0e9ba45", "fusion_lat": 0.0, "lon": -77.048296, "is_disabled": 0, "is_reserved": 0, "fusion_lon": 0.0, "lat": 38.91843166666666, "type": "electric_scooter", "bike_id": "c66e96eda1931eea29af4e59f0e9ba45"}, {"rental_uris": {"android": "https://dc.lft.to/lastmile_qr_scan", "ios": "https://dc.lft.to/lastmile_qr_scan"}, "name": "1558e98ae1a7e160ec48c33a0d58d19d", "fusion_lat": 0.0, "lon": -77.02690466666667, "is_disabled": 0, "is_reserved": 0, "fusion_lon": 0.0, "lat": 38.90132833333333, "type": "electric_scooter", "bike_id": "1558e98ae1a7e160ec48c33a0d58d19d"}, {"rental_uris": {"android": "https://dc.lft.to/lastmile_qr_scan", "ios": "https://dc.lft.to/lastmile_qr_scan"}, "name": "9376f79c0ad26f96c5b13cb126f97c32", "fusion_lat": 0.0, "lon": -77.033731, "is_disabled": 0, "is_reserved": 0, "fusion_lon": 0.0, "lat": 38.9012075, "type": "electric_scooter", "bike_id": "9376f79c0ad26f96c5b13cb126f97c32"}, {"rental_uris": {"android": "https://dc.lft.to/lastmile_qr_scan", "ios": "https://dc.lft.to/lastmile_qr_scan"}, "name": "ca2afa52df23322c419de5e08a8a2c65", "fusion_lat": 0.0, "lon": -76.97180166666666, "is_disabled": 0, "is_reserved": 0, "fusion_lon": 0.0, "lat": 38.912648, "type": "electric_scooter", "bike_id": "ca2afa52df23322c419de5e08a8a2c65"}, {"rental_uris": {"android": "https://dc.lft.to/lastmile_qr_scan", "ios": "https://dc.lft.to/lastmile_qr_scan"}, "name": "7ecbc9da3bdf22c48524b11a927eb0f6", "fusion_lat": 0.0, "lon": -77.0408515, "is_disabled": 0, "is_reserved": 0, "fusion_lon": 0.0, "lat": 38.916958, "type": "electric_scooter", "bike_id": "7ecbc9da3bdf22c48524b11a927eb0f6"}, {"rental_uris": {"android": "https://dc.lft.to/lastmile_qr_scan", "ios": "https://dc.lft.to/lastmile_qr_scan"}, "name": "b6b3f970c540b77c299932110521a737", "fusion_lat": 0.0, "lon": -76.94858316666667, "is_disabled": 0, "is_reserved": 0, "fusion_lon": 0.0, "lat": 38.89579666666667, "type": "electric_scooter", "bike_id": "b6b3f970c540b77c299932110521a737"}, {"rental_uris": {"android": "https://dc.lft.to/lastmile_qr_scan", "ios": "https://dc.lft.to/lastmile_qr_scan"}, "name": "c0f5372b4818b58fef2ece13e90f4e82", "fusion_lat": 0.0, "lon": -76.99001616666666, "is_disabled": 0, "is_reserved": 0, "fusion_lon": 0.0, "lat": 38.86506583333333, "type": "electric_scooter", "bike_id": "c0f5372b4818b58fef2ece13e90f4e82"}, {"rental_uris": {"android": "https://dc.lft.to/lastmile_qr_scan", "ios": "https://dc.lft.to/lastmile_qr_scan"}, "name": "78702013cb71ffea9da93b174de4658f", "fusion_lat": 0.0, "lon": -76.934326, "is_disabled": 0, "is_reserved": 0, "fusion_lon": 0.0, "lat": 38.8996365, "type": "electric_scooter", "bike_id": "78702013cb71ffea9da93b174de4658f"}, {"rental_uris": {"android": "https://dc.lft.to/lastmile_qr_scan", "ios": "https://dc.lft.to/lastmile_qr_scan"}, "name": "2eec6fdd42060252f05aacb5a401fe83", "fusion_lat": 0.0, "lon": -77.03704233333333, "is_disabled": 0, "is_reserved": 0, "fusion_lon": 0.0, "lat": 38.92645983333333, "type": "electric_scooter", "bike_id": "2eec6fdd42060252f05aacb5a401fe83"}, {"rental_uris": {"android": "https://dc.lft.to/lastmile_qr_scan", "ios": "https://dc.lft.to/lastmile_qr_scan"}, "name": "e93f32e0d69fa12188d02b75725562e8", "fusion_lat": 0.0, "lon": -77.02289266666666, "is_disabled": 0, "is_reserved": 0, "fusion_lon": 0.0, "lat": 38.916928166666665, "type": "electric_scooter", "bike_id": "e93f32e0d69fa12188d02b75725562e8"}, {"rental_uris": {"android": "https://dc.lft.to/lastmile_qr_scan", "ios": "https://dc.lft.to/lastmile_qr_scan"}, "name": "2b8dad4ea7e1b288fbc26b16e6e1e8b2", "fusion_lat": 0.0, "lon": -77.05304466666666, "is_disabled": 0, "is_reserved": 0, "fusion_lon": 0.0, "lat": 38.92785666666666, "type": "electric_scooter", "bike_id": "2b8dad4ea7e1b288fbc26b16e6e1e8b2"}, {"rental_uris": {"android": "https://dc.lft.to/lastmile_qr_scan", "ios": "https://dc.lft.to/lastmile_qr_scan"}, "name": "3de85039970a299a39e75d03f191c4b5", "fusion_lat": 0.0, "lon": -77.00603833333334, "is_disabled": 0, "is_reserved": 0, "fusion_lon": 0.0, "lat": 38.87729516666667, "type": "electric_scooter", "bike_id": "3de85039970a299a39e75d03f191c4b5"}, {"rental_uris": {"android": "https://dc.lft.to/lastmile_qr_scan", "ios": "https://dc.lft.to/lastmile_qr_scan"}, "name": "beb8879398a784f8782a5f1f8f71383b", "fusion_lat": 0.0, "lon": -77.02863266666667, "is_disabled": 0, "is_reserved": 0, "fusion_lon": 0.0, "lat": 38.922315833333336, "type": "electric_scooter", "bike_id": "beb8879398a784f8782a5f1f8f71383b"}, {"rental_uris": {"android": "https://dc.lft.to/lastmile_qr_scan", "ios": "https://dc.lft.to/lastmile_qr_scan"}, "name": "be01cb1a58aead0499070e6ea90a24f2", "fusion_lat": 0.0, "lon": -77.03207366666666, "is_disabled": 0, "is_reserved": 0, "fusion_lon": 0.0, "lat": 38.9077995, "type": "electric_scooter", "bike_id": "be01cb1a58aead0499070e6ea90a24f2"}, {"rental_uris": {"android": "https://dc.lft.to/lastmile_qr_scan", "ios": "https://dc.lft.to/lastmile_qr_scan"}, "name": "4b98f6d0af53e78cc312cf7975082f8f", "fusion_lat": 0.0, "lon": -77.00198883333333, "is_disabled": 0, "is_reserved": 0, "fusion_lon": 0.0, "lat": 38.902435, "type": "electric_scooter", "bike_id": "4b98f6d0af53e78cc312cf7975082f8f"}, {"rental_uris": {"android": "https://dc.lft.to/lastmile_qr_scan", "ios": "https://dc.lft.to/lastmile_qr_scan"}, "name": "83d6b3f2e8c281e0d5582e602b90fcc3", "fusion_lat": 0.0, "lon": -77.07007983333334, "is_disabled": 0, "is_reserved": 0, "fusion_lon": 0.0, "lat": 38.905963666666665, "type": "electric_scooter", "bike_id": "83d6b3f2e8c281e0d5582e602b90fcc3"}, {"rental_uris": {"android": "https://dc.lft.to/lastmile_qr_scan", "ios": "https://dc.lft.to/lastmile_qr_scan"}, "name": "dc41e0eb09dba239bc02831dd5d372e7", "fusion_lat": 0.0, "lon": -76.98129866666666, "is_disabled": 0, "is_reserved": 0, "fusion_lon": 0.0, "lat": 38.88419583333334, "type": "electric_scooter", "bike_id": "dc41e0eb09dba239bc02831dd5d372e7"}, {"rental_uris": {"android": "https://dc.lft.to/lastmile_qr_scan", "ios": "https://dc.lft.to/lastmile_qr_scan"}, "name": "e01df961cc29725e324a43f95d08e5cb", "fusion_lat": 0.0, "lon": -77.04046883333334, "is_disabled": 0, "is_reserved": 0, "fusion_lon": 0.0, "lat": 38.924033666666666, "type": "electric_scooter", "bike_id": "e01df961cc29725e324a43f95d08e5cb"}, {"rental_uris": {"android": "https://dc.lft.to/lastmile_qr_scan", "ios": "https://dc.lft.to/lastmile_qr_scan"}, "name": "7b48d59bc248a0648ba340007e87ff33", "fusion_lat": 0.0, "lon": -76.99728233333333, "is_disabled": 0, "is_reserved": 0, "fusion_lon": 0.0, "lat": 38.9079245, "type": "electric_scooter", "bike_id": "7b48d59bc248a0648ba340007e87ff33"}, {"rental_uris": {"android": "https://dc.lft.to/lastmile_qr_scan", "ios": "https://dc.lft.to/lastmile_qr_scan"}, "name": "a5f4d28ea465d1e63d85b29111376230", "fusion_lat": 0.0, "lon": -77.02181916666666, "is_disabled": 0, "is_reserved": 0, "fusion_lon": 0.0, "lat": 38.91977716666667, "type": "electric_scooter", "bike_id": "a5f4d28ea465d1e63d85b29111376230"}, {"rental_uris": {"android": "https://dc.lft.to/lastmile_qr_scan", "ios": "https://dc.lft.to/lastmile_qr_scan"}, "name": "c7a1b4e0905e3c5820b74c55f300c6db", "fusion_lat": 0.0, "lon": -76.997645, "is_disabled": 0, "is_reserved": 0, "fusion_lon": 0.0, "lat": 39.005975666666664, "type": "electric_bike", "bike_id": "c7a1b4e0905e3c5820b74c55f300c6db"}, {"rental_uris": {"android": "https://dc.lft.to/lastmile_qr_scan", "ios": "https://dc.lft.to/lastmile_qr_scan"}, "name": "e894f9128501cf5328585867577bb21f", "fusion_lat": 0.0, "lon": -76.995038, "is_disabled": 0, "is_reserved": 0, "fusion_lon": 0.0, "lat": 38.894906166666665, "type": "electric_scooter", "bike_id": "e894f9128501cf5328585867577bb21f"}, {"rental_uris": {"android": "https://dc.lft.to/lastmile_qr_scan", "ios": "https://dc.lft.to/lastmile_qr_scan"}, "name": "e63ffa4d1c87e0ee820772b719a34fbb", "fusion_lat": 0.0, "lon": -77.02995133333333, "is_disabled": 0, "is_reserved": 0, "fusion_lon": 0.0, "lat": 38.90267383333333, "type": "electric_scooter", "bike_id": "e63ffa4d1c87e0ee820772b719a34fbb"}, {"rental_uris": {"android": "https://dc.lft.to/lastmile_qr_scan", "ios": "https://dc.lft.to/lastmile_qr_scan"}, "name": "1e3b798a28367c21af15f76e8498bffe", "fusion_lat": 0.0, "lon": -77.0634695, "is_disabled": 0, "is_reserved": 0, "fusion_lon": 0.0, "lat": 38.90848066666667, "type": "electric_scooter", "bike_id": "1e3b798a28367c21af15f76e8498bffe"}, {"rental_uris": {"android": "https://dc.lft.to/lastmile_qr_scan", "ios": "https://dc.lft.to/lastmile_qr_scan"}, "name": "aef1b5b78bf9a0d41a34d4a6af3197ac", "fusion_lat": 0.0, "lon": -77.04263483333334, "is_disabled": 0, "is_reserved": 0, "fusion_lon": 0.0, "lat": 38.92215083333333, "type": "electric_scooter", "bike_id": "aef1b5b78bf9a0d41a34d4a6af3197ac"}, {"rental_uris": {"android": "https://dc.lft.to/lastmile_qr_scan", "ios": "https://dc.lft.to/lastmile_qr_scan"}, "name": "bd5c2c7a7e73778f66d9f4c58584d438", "fusion_lat": 0.0, "lon": -76.99753883333334, "is_disabled": 0, "is_reserved": 0, "fusion_lon": 0.0, "lat": 38.9228315, "type": "electric_scooter", "bike_id": "bd5c2c7a7e73778f66d9f4c58584d438"}, {"rental_uris": {"android": "https://dc.lft.to/lastmile_qr_scan", "ios": "https://dc.lft.to/lastmile_qr_scan"}, "name": "4d77786ce4e6002d9e24165d19df5e0c", "fusion_lat": 0.0, "lon": -77.01889516666667, "is_disabled": 0, "is_reserved": 0, "fusion_lon": 0.0, "lat": 38.946403833333335, "type": "electric_scooter", "bike_id": "4d77786ce4e6002d9e24165d19df5e0c"}, {"rental_uris": {"android": "https://dc.lft.to/lastmile_qr_scan", "ios": "https://dc.lft.to/lastmile_qr_scan"}, "name": "29b898e635dcddcf97708c02483c051b", "fusion_lat": 0.0, "lon": -77.11428783333334, "is_disabled": 0, "is_reserved": 0, "fusion_lon": 0.0, "lat": 38.8524615, "type": "electric_bike", "bike_id": "29b898e635dcddcf97708c02483c051b"}, {"rental_uris": {"android": "https://dc.lft.to/lastmile_qr_scan", "ios": "https://dc.lft.to/lastmile_qr_scan"}, "name": "5e8c8e74e80efab57416080da3bded2c", "fusion_lat": 0.0, "lon": -77.0044435, "is_disabled": 0, "is_reserved": 0, "fusion_lon": 0.0, "lat": 38.9289575, "type": "electric_scooter", "bike_id": "5e8c8e74e80efab57416080da3bded2c"}, {"rental_uris": {"android": "https://dc.lft.to/lastmile_qr_scan", "ios": "https://dc.lft.to/lastmile_qr_scan"}, "name": "c9f9eb532d1dbfe7197513d96136fd56", "fusion_lat": 0.0, "lon": -77.09199833333334, "is_disabled": 0, "is_reserved": 0, "fusion_lon": 0.0, "lat": 38.917193833333336, "type": "electric_scooter", "bike_id": "c9f9eb532d1dbfe7197513d96136fd56"}, {"rental_uris": {"android": "https://dc.lft.to/lastmile_qr_scan", "ios": "https://dc.lft.to/lastmile_qr_scan"}, "name": "b8e382d2f978db2da9c652a6d52a6806", "fusion_lat": 0.0, "lon": -77.03828533333333, "is_disabled": 0, "is_reserved": 0, "fusion_lon": 0.0, "lat": 38.903992333333335, "type": "electric_scooter", "bike_id": "b8e382d2f978db2da9c652a6d52a6806"}, {"rental_uris": {"android": "https://dc.lft.to/lastmile_qr_scan", "ios": "https://dc.lft.to/lastmile_qr_scan"}, "name": "3078f470afe44fbf977fea975904d7c5", "fusion_lat": 0.0, "lon": -77.04690166666667, "is_disabled": 0, "is_reserved": 0, "fusion_lon": 0.0, "lat": 38.915861166666666, "type": "electric_scooter", "bike_id": "3078f470afe44fbf977fea975904d7c5"}, {"rental_uris": {"android": "https://dc.lft.to/lastmile_qr_scan", "ios": "https://dc.lft.to/lastmile_qr_scan"}, "name": "46e9d06de240c4aa6317442c0b34301a", "fusion_lat": 0.0, "lon": -77.01307933333334, "is_disabled": 0, "is_reserved": 0, "fusion_lon": 0.0, "lat": 38.901408, "type": "electric_scooter", "bike_id": "46e9d06de240c4aa6317442c0b34301a"}, {"rental_uris": {"android": "https://dc.lft.to/lastmile_qr_scan", "ios": "https://dc.lft.to/lastmile_qr_scan"}, "name": "411e9052dcd4bd97393124c6708fa596", "fusion_lat": 0.0, "lon": -77.0213715, "is_disabled": 0, "is_reserved": 0, "fusion_lon": 0.0, "lat": 38.89966366666667, "type": "electric_scooter", "bike_id": "411e9052dcd4bd97393124c6708fa596"}, {"rental_uris": {"android": "https://dc.lft.to/lastmile_qr_scan", "ios": "https://dc.lft.to/lastmile_qr_scan"}, "name": "ef20b1fc45763e02ddd78d9a96cf379a", "fusion_lat": 0.0, "lon": -77.03173283333334, "is_disabled": 0, "is_reserved": 0, "fusion_lon": 0.0, "lat": 38.89345, "type": "electric_scooter", "bike_id": "ef20b1fc45763e02ddd78d9a96cf379a"}, {"rental_uris": {"android": "https://dc.lft.to/lastmile_qr_scan", "ios": "https://dc.lft.to/lastmile_qr_scan"}, "name": "dad8dd853b6a60a23277e11949199828", "fusion_lat": 0.0, "lon": -77.03954733333333, "is_disabled": 0, "is_reserved": 0, "fusion_lon": 0.0, "lat": 38.90428033333333, "type": "electric_scooter", "bike_id": "dad8dd853b6a60a23277e11949199828"}, {"rental_uris": {"android": "https://dc.lft.to/lastmile_qr_scan", "ios": "https://dc.lft.to/lastmile_qr_scan"}, "name": "26ce76739fb4b6ea1d383d11a56a1d1d", "fusion_lat": 0.0, "lon": -77.03019966666666, "is_disabled": 0, "is_reserved": 0, "fusion_lon": 0.0, "lat": 38.89615833333333, "type": "electric_scooter", "bike_id": "26ce76739fb4b6ea1d383d11a56a1d1d"}, {"rental_uris": {"android": "https://dc.lft.to/lastmile_qr_scan", "ios": "https://dc.lft.to/lastmile_qr_scan"}, "name": "9b803bf21de8cf4810f5fc2b593600af", "fusion_lat": 0.0, "lon": -77.02429116666667, "is_disabled": 0, "is_reserved": 0, "fusion_lon": 0.0, "lat": 38.927499833333336, "type": "electric_scooter", "bike_id": "9b803bf21de8cf4810f5fc2b593600af"}, {"rental_uris": {"android": "https://dc.lft.to/lastmile_qr_scan", "ios": "https://dc.lft.to/lastmile_qr_scan"}, "name": "fd8dd26291cd00101e1b4d9f796c3762", "fusion_lat": 0.0, "lon": -77.02847333333334, "is_disabled": 0, "is_reserved": 0, "fusion_lon": 0.0, "lat": 38.92239033333333, "type": "electric_scooter", "bike_id": "fd8dd26291cd00101e1b4d9f796c3762"}, {"rental_uris": {"android": "https://dc.lft.to/lastmile_qr_scan", "ios": "https://dc.lft.to/lastmile_qr_scan"}, "name": "fc28e70fb1042ed425326f8717545e25", "fusion_lat": 0.0, "lon": -77.024344, "is_disabled": 0, "is_reserved": 0, "fusion_lon": 0.0, "lat": 38.89460166666667, "type": "electric_scooter", "bike_id": "fc28e70fb1042ed425326f8717545e25"}, {"rental_uris": {"android": "https://dc.lft.to/lastmile_qr_scan", "ios": "https://dc.lft.to/lastmile_qr_scan"}, "name": "60cacca678156e0ff941f6797d76bf48", "fusion_lat": 0.0, "lon": -77.0022785, "is_disabled": 0, "is_reserved": 0, "fusion_lon": 0.0, "lat": 38.873059833333336, "type": "electric_scooter", "bike_id": "60cacca678156e0ff941f6797d76bf48"}, {"rental_uris": {"android": "https://dc.lft.to/lastmile_qr_scan", "ios": "https://dc.lft.to/lastmile_qr_scan"}, "name": "1d0ed3451011ee050864353a3eb45558", "fusion_lat": 0.0, "lon": -77.07990233333334, "is_disabled": 0, "is_reserved": 0, "fusion_lon": 0.0, "lat": 38.94806883333333, "type": "electric_scooter", "bike_id": "1d0ed3451011ee050864353a3eb45558"}, {"rental_uris": {"android": "https://dc.lft.to/lastmile_qr_scan", "ios": "https://dc.lft.to/lastmile_qr_scan"}, "name": "e626f39707acedb68e3e511ec27afd44", "fusion_lat": 0.0, "lon": -77.04981583333333, "is_disabled": 0, "is_reserved": 0, "fusion_lon": 0.0, "lat": 38.9924335, "type": "electric_bike", "bike_id": "e626f39707acedb68e3e511ec27afd44"}, {"rental_uris": {"android": "https://dc.lft.to/lastmile_qr_scan", "ios": "https://dc.lft.to/lastmile_qr_scan"}, "name": "2f6f73061068a52d833c58bd41528b26", "fusion_lat": 0.0, "lon": -77.19537933333334, "is_disabled": 0, "is_reserved": 0, "fusion_lon": 0.0, "lat": 39.11511133333333, "type": "electric_bike", "bike_id": "2f6f73061068a52d833c58bd41528b26"}, {"rental_uris": {"android": "https://dc.lft.to/lastmile_qr_scan", "ios": "https://dc.lft.to/lastmile_qr_scan"}, "name": "fd47d57c3426c90ed9e42a9c9947a428", "fusion_lat": 0.0, "lon": -77.031556, "is_disabled": 0, "is_reserved": 0, "fusion_lon": 0.0, "lat": 38.894527333333336, "type": "electric_bike", "bike_id": "fd47d57c3426c90ed9e42a9c9947a428"}, {"rental_uris": {"android": "https://dc.lft.to/lastmile_qr_scan", "ios": "https://dc.lft.to/lastmile_qr_scan"}, "name": "00fa50370bd6ccca01dd84e37c979678", "fusion_lat": 0.0, "lon": -76.9833605, "is_disabled": 0, "is_reserved": 0, "fusion_lon": 0.0, "lat": 38.89544883333333, "type": "electric_scooter", "bike_id": "00fa50370bd6ccca01dd84e37c979678"}, {"rental_uris": {"android": "https://dc.lft.to/lastmile_qr_scan", "ios": "https://dc.lft.to/lastmile_qr_scan"}, "name": "1c99123f6b4ca8a175e3deaa126e4a5c", "fusion_lat": 0.0, "lon": -77.04678133333333, "is_disabled": 0, "is_reserved": 0, "fusion_lon": 0.0, "lat": 38.9156925, "type": "electric_scooter", "bike_id": "1c99123f6b4ca8a175e3deaa126e4a5c"}, {"rental_uris": {"android": "https://dc.lft.to/lastmile_qr_scan", "ios": "https://dc.lft.to/lastmile_qr_scan"}, "name": "561461dfb288e6e159dc3e4d374d39c2", "fusion_lat": 0.0, "lon": -77.0091935, "is_disabled": 0, "is_reserved": 0, "fusion_lon": 0.0, "lat": 38.876355333333336, "type": "electric_scooter", "bike_id": "561461dfb288e6e159dc3e4d374d39c2"}, {"rental_uris": {"android": "https://dc.lft.to/lastmile_qr_scan", "ios": "https://dc.lft.to/lastmile_qr_scan"}, "name": "3e5afd8aef7bc305a839d44e6ce739f4", "fusion_lat": 0.0, "lon": -76.96700633333333, "is_disabled": 0, "is_reserved": 0, "fusion_lon": 0.0, "lat": 38.868476, "type": "electric_bike", "bike_id": "3e5afd8aef7bc305a839d44e6ce739f4"}, {"rental_uris": {"android": "https://dc.lft.to/lastmile_qr_scan", "ios": "https://dc.lft.to/lastmile_qr_scan"}, "name": "eaa11e01dbfc5f7cf4a98977b25fcc24", "fusion_lat": 0.0, "lon": -77.01227666666666, "is_disabled": 0, "is_reserved": 0, "fusion_lon": 0.0, "lat": 38.893442, "type": "electric_scooter", "bike_id": "eaa11e01dbfc5f7cf4a98977b25fcc24"}, {"rental_uris": {"android": "https://dc.lft.to/lastmile_qr_scan", "ios": "https://dc.lft.to/lastmile_qr_scan"}, "name": "6675775213c61a63b39d5c7c74858869", "fusion_lat": 0.0, "lon": -77.017049, "is_disabled": 0, "is_reserved": 0, "fusion_lon": 0.0, "lat": 38.907269666666664, "type": "electric_scooter", "bike_id": "6675775213c61a63b39d5c7c74858869"}, {"rental_uris": {"android": "https://dc.lft.to/lastmile_qr_scan", "ios": "https://dc.lft.to/lastmile_qr_scan"}, "name": "88da9354cfd163e854be0c6e7307099c", "fusion_lat": 0.0, "lon": -76.96558283333333, "is_disabled": 0, "is_reserved": 0, "fusion_lon": 0.0, "lat": 38.91847933333333, "type": "electric_scooter", "bike_id": "88da9354cfd163e854be0c6e7307099c"}, {"rental_uris": {"android": "https://dc.lft.to/lastmile_qr_scan", "ios": "https://dc.lft.to/lastmile_qr_scan"}, "name": "6dc2953512a91f3cd009c4ece747d05c", "fusion_lat": 0.0, "lon": -76.93745233333334, "is_disabled": 0, "is_reserved": 0, "fusion_lon": 0.0, "lat": 38.890147, "type": "electric_scooter", "bike_id": "6dc2953512a91f3cd009c4ece747d05c"}, {"rental_uris": {"android": "https://dc.lft.to/lastmile_qr_scan", "ios": "https://dc.lft.to/lastmile_qr_scan"}, "name": "0af1d94959c96a69a28f6a037e25271e", "fusion_lat": 0.0, "lon": -77.034733, "is_disabled": 0, "is_reserved": 0, "fusion_lon": 0.0, "lat": 38.935385833333335, "type": "electric_scooter", "bike_id": "0af1d94959c96a69a28f6a037e25271e"}, {"rental_uris": {"android": "https://dc.lft.to/lastmile_qr_scan", "ios": "https://dc.lft.to/lastmile_qr_scan"}, "name": "e0af2ea8e265ae580846a572c2611d79", "fusion_lat": 0.0, "lon": -77.06107, "is_disabled": 0, "is_reserved": 0, "fusion_lon": 0.0, "lat": 38.9432205, "type": "electric_scooter", "bike_id": "e0af2ea8e265ae580846a572c2611d79"}, {"rental_uris": {"android": "https://dc.lft.to/lastmile_qr_scan", "ios": "https://dc.lft.to/lastmile_qr_scan"}, "name": "bb0ee69cb1b6527c705e0cfe31c6e201", "fusion_lat": 0.0, "lon": -77.048701, "is_disabled": 0, "is_reserved": 0, "fusion_lon": 0.0, "lat": 38.892264833333336, "type": "electric_scooter", "bike_id": "bb0ee69cb1b6527c705e0cfe31c6e201"}, {"rental_uris": {"android": "https://dc.lft.to/lastmile_qr_scan", "ios": "https://dc.lft.to/lastmile_qr_scan"}, "name": "61579428e5ad612b57e1490ecfcc7a55", "fusion_lat": 0.0, "lon": -77.182934, "is_disabled": 0, "is_reserved": 0, "fusion_lon": 0.0, "lat": 38.88344983333333, "type": "electric_bike", "bike_id": "61579428e5ad612b57e1490ecfcc7a55"}, {"rental_uris": {"android": "https://dc.lft.to/lastmile_qr_scan", "ios": "https://dc.lft.to/lastmile_qr_scan"}, "name": "ee2cafc9bbe45eb1572e633594000474", "fusion_lat": 0.0, "lon": -76.99480683333333, "is_disabled": 0, "is_reserved": 0, "fusion_lon": 0.0, "lat": 38.862329, "type": "electric_scooter", "bike_id": "ee2cafc9bbe45eb1572e633594000474"}, {"rental_uris": {"android": "https://dc.lft.to/lastmile_qr_scan", "ios": "https://dc.lft.to/lastmile_qr_scan"}, "name": "2a8c54129f3fbbe83d503ba6314a8456", "fusion_lat": 0.0, "lon": -77.024789, "is_disabled": 0, "is_reserved": 0, "fusion_lon": 0.0, "lat": 38.9390615, "type": "electric_scooter", "bike_id": "2a8c54129f3fbbe83d503ba6314a8456"}, {"rental_uris": {"android": "https://dc.lft.to/lastmile_qr_scan", "ios": "https://dc.lft.to/lastmile_qr_scan"}, "name": "3eabcb442c930e7c3e2a1347c01de3d9", "fusion_lat": 0.0, "lon": -76.99021933333333, "is_disabled": 0, "is_reserved": 0, "fusion_lon": 0.0, "lat": 38.85867783333333, "type": "electric_scooter", "bike_id": "3eabcb442c930e7c3e2a1347c01de3d9"}, {"rental_uris": {"android": "https://dc.lft.to/lastmile_qr_scan", "ios": "https://dc.lft.to/lastmile_qr_scan"}, "name": "17079f873cd907b0d37dd0f477b680f6", "fusion_lat": 0.0, "lon": -77.027776, "is_disabled": 0, "is_reserved": 0, "fusion_lon": 0.0, "lat": 38.892202833333336, "type": "electric_scooter", "bike_id": "17079f873cd907b0d37dd0f477b680f6"}, {"rental_uris": {"android": "https://dc.lft.to/lastmile_qr_scan", "ios": "https://dc.lft.to/lastmile_qr_scan"}, "name": "144ea16765d461c97c3542c1c102b4f6", "fusion_lat": 0.0, "lon": -77.06159266666667, "is_disabled": 0, "is_reserved": 0, "fusion_lon": 0.0, "lat": 38.905289833333335, "type": "electric_scooter", "bike_id": "144ea16765d461c97c3542c1c102b4f6"}, {"rental_uris": {"android": "https://dc.lft.to/lastmile_qr_scan", "ios": "https://dc.lft.to/lastmile_qr_scan"}, "name": "a293365db2bbc04ec28fbc1d42c537c1", "fusion_lat": 0.0, "lon": -77.0327365, "is_disabled": 0, "is_reserved": 0, "fusion_lon": 0.0, "lat": 38.93255516666667, "type": "electric_scooter", "bike_id": "a293365db2bbc04ec28fbc1d42c537c1"}, {"rental_uris": {"android": "https://dc.lft.to/lastmile_qr_scan", "ios": "https://dc.lft.to/lastmile_qr_scan"}, "name": "2d2c62b09c8fa17a5e150015fa98c19a", "fusion_lat": 0.0, "lon": -77.031443, "is_disabled": 0, "is_reserved": 0, "fusion_lon": 0.0, "lat": 38.897543666666664, "type": "electric_scooter", "bike_id": "2d2c62b09c8fa17a5e150015fa98c19a"}, {"rental_uris": {"android": "https://dc.lft.to/lastmile_qr_scan", "ios": "https://dc.lft.to/lastmile_qr_scan"}, "name": "2eb4a63b79a17dd8166a66bcff565e4d", "fusion_lat": 0.0, "lon": -76.9854405, "is_disabled": 0, "is_reserved": 0, "fusion_lon": 0.0, "lat": 38.885973666666665, "type": "electric_scooter", "bike_id": "2eb4a63b79a17dd8166a66bcff565e4d"}, {"rental_uris": {"android": "https://dc.lft.to/lastmile_qr_scan", "ios": "https://dc.lft.to/lastmile_qr_scan"}, "name": "bed8a7ab601de9be267c07dacd92cfc1", "fusion_lat": 0.0, "lon": -77.02712816666667, "is_disabled": 0, "is_reserved": 0, "fusion_lon": 0.0, "lat": 38.92488766666666, "type": "electric_scooter", "bike_id": "bed8a7ab601de9be267c07dacd92cfc1"}, {"rental_uris": {"android": "https://dc.lft.to/lastmile_qr_scan", "ios": "https://dc.lft.to/lastmile_qr_scan"}, "name": "01c67dd700cfee97c7dc527fe189b96e", "fusion_lat": 0.0, "lon": -76.965543, "is_disabled": 0, "is_reserved": 0, "fusion_lon": 0.0, "lat": 38.918495666666665, "type": "electric_scooter", "bike_id": "01c67dd700cfee97c7dc527fe189b96e"}, {"rental_uris": {"android": "https://dc.lft.to/lastmile_qr_scan", "ios": "https://dc.lft.to/lastmile_qr_scan"}, "name": "b9de55b8dc68dff95841e286b04efef1", "fusion_lat": 0.0, "lon": -77.00818566666666, "is_disabled": 0, "is_reserved": 0, "fusion_lon": 0.0, "lat": 38.8764595, "type": "electric_scooter", "bike_id": "b9de55b8dc68dff95841e286b04efef1"}, {"rental_uris": {"android": "https://dc.lft.to/lastmile_qr_scan", "ios": "https://dc.lft.to/lastmile_qr_scan"}, "name": "c1b5fdcd479ff8eba9c77ded112b3677", "fusion_lat": 0.0, "lon": -77.07705083333333, "is_disabled": 0, "is_reserved": 0, "fusion_lon": 0.0, "lat": 38.94294083333333, "type": "electric_scooter", "bike_id": "c1b5fdcd479ff8eba9c77ded112b3677"}, {"rental_uris": {"android": "https://dc.lft.to/lastmile_qr_scan", "ios": "https://dc.lft.to/lastmile_qr_scan"}, "name": "dda6d7a242888bf8d93a32d7e6041d72", "fusion_lat": 0.0, "lon": -77.03671216666666, "is_disabled": 0, "is_reserved": 0, "fusion_lon": 0.0, "lat": 38.93173383333333, "type": "electric_scooter", "bike_id": "dda6d7a242888bf8d93a32d7e6041d72"}, {"rental_uris": {"android": "https://dc.lft.to/lastmile_qr_scan", "ios": "https://dc.lft.to/lastmile_qr_scan"}, "name": "d3abdc40c7bc63836f7c88797236c286", "fusion_lat": 0.0, "lon": -77.014538, "is_disabled": 0, "is_reserved": 0, "fusion_lon": 0.0, "lat": 38.86795333333333, "type": "electric_bike", "bike_id": "d3abdc40c7bc63836f7c88797236c286"}, {"rental_uris": {"android": "https://dc.lft.to/lastmile_qr_scan", "ios": "https://dc.lft.to/lastmile_qr_scan"}, "name": "d9f2177cd338d323545923239af54986", "fusion_lat": 0.0, "lon": -77.02201833333334, "is_disabled": 0, "is_reserved": 0, "fusion_lon": 0.0, "lat": 38.916675, "type": "electric_scooter", "bike_id": "d9f2177cd338d323545923239af54986"}, {"rental_uris": {"android": "https://dc.lft.to/lastmile_qr_scan", "ios": "https://dc.lft.to/lastmile_qr_scan"}, "name": "8e017dc240943ee6a0c5d0a0719d3805", "fusion_lat": 0.0, "lon": -77.00768716666667, "is_disabled": 0, "is_reserved": 0, "fusion_lon": 0.0, "lat": 38.90719966666666, "type": "electric_scooter", "bike_id": "8e017dc240943ee6a0c5d0a0719d3805"}, {"rental_uris": {"android": "https://dc.lft.to/lastmile_qr_scan", "ios": "https://dc.lft.to/lastmile_qr_scan"}, "name": "f384ebbea5e0e88239f93a9267016f47", "fusion_lat": 0.0, "lon": -77.01765766666666, "is_disabled": 0, "is_reserved": 0, "fusion_lon": 0.0, "lat": 38.8779875, "type": "electric_scooter", "bike_id": "f384ebbea5e0e88239f93a9267016f47"}, {"rental_uris": {"android": "https://dc.lft.to/lastmile_qr_scan", "ios": "https://dc.lft.to/lastmile_qr_scan"}, "name": "09ae0494351209f37e91111fbc4df6ad", "fusion_lat": 0.0, "lon": -77.00335166666666, "is_disabled": 0, "is_reserved": 0, "fusion_lon": 0.0, "lat": 38.895067833333336, "type": "electric_scooter", "bike_id": "09ae0494351209f37e91111fbc4df6ad"}, {"rental_uris": {"android": "https://dc.lft.to/lastmile_qr_scan", "ios": "https://dc.lft.to/lastmile_qr_scan"}, "name": "f77a19ba7fe3869d2baa8b51be0a65c8", "fusion_lat": 0.0, "lon": -77.00405216666667, "is_disabled": 0, "is_reserved": 0, "fusion_lon": 0.0, "lat": 38.87672116666667, "type": "electric_scooter", "bike_id": "f77a19ba7fe3869d2baa8b51be0a65c8"}, {"rental_uris": {"android": "https://dc.lft.to/lastmile_qr_scan", "ios": "https://dc.lft.to/lastmile_qr_scan"}, "name": "661066c17c2fdda7036ddc3132293f1c", "fusion_lat": 0.0, "lon": -77.02392333333333, "is_disabled": 0, "is_reserved": 0, "fusion_lon": 0.0, "lat": 38.91681916666667, "type": "electric_scooter", "bike_id": "661066c17c2fdda7036ddc3132293f1c"}, {"rental_uris": {"android": "https://dc.lft.to/lastmile_qr_scan", "ios": "https://dc.lft.to/lastmile_qr_scan"}, "name": "39d83ca4594cf18d4c3919a35eb576ee", "fusion_lat": 0.0, "lon": -77.04039133333333, "is_disabled": 0, "is_reserved": 0, "fusion_lon": 0.0, "lat": 38.905742333333336, "type": "electric_scooter", "bike_id": "39d83ca4594cf18d4c3919a35eb576ee"}, {"rental_uris": {"android": "https://dc.lft.to/lastmile_qr_scan", "ios": "https://dc.lft.to/lastmile_qr_scan"}, "name": "7f247af0076b3b9dacc0a732c90f7e9c", "fusion_lat": 0.0, "lon": -77.01082033333333, "is_disabled": 0, "is_reserved": 0, "fusion_lon": 0.0, "lat": 38.896172166666666, "type": "electric_scooter", "bike_id": "7f247af0076b3b9dacc0a732c90f7e9c"}, {"rental_uris": {"android": "https://dc.lft.to/lastmile_qr_scan", "ios": "https://dc.lft.to/lastmile_qr_scan"}, "name": "c3d52f37bf6b5a378124b47f740c24ba", "fusion_lat": 0.0, "lon": -77.0322005, "is_disabled": 0, "is_reserved": 0, "fusion_lon": 0.0, "lat": 38.89221283333333, "type": "electric_scooter", "bike_id": "c3d52f37bf6b5a378124b47f740c24ba"}, {"rental_uris": {"android": "https://dc.lft.to/lastmile_qr_scan", "ios": "https://dc.lft.to/lastmile_qr_scan"}, "name": "f05bc28c26947a13a1602b17cc45e3e0", "fusion_lat": 0.0, "lon": -77.04211316666667, "is_disabled": 0, "is_reserved": 0, "fusion_lon": 0.0, "lat": 38.920902166666664, "type": "electric_scooter", "bike_id": "f05bc28c26947a13a1602b17cc45e3e0"}, {"rental_uris": {"android": "https://dc.lft.to/lastmile_qr_scan", "ios": "https://dc.lft.to/lastmile_qr_scan"}, "name": "0f91261f60114b14b13f2e9f83d69717", "fusion_lat": 0.0, "lon": -77.0314315, "is_disabled": 0, "is_reserved": 0, "fusion_lon": 0.0, "lat": 38.887552166666666, "type": "electric_scooter", "bike_id": "0f91261f60114b14b13f2e9f83d69717"}, {"rental_uris": {"android": "https://dc.lft.to/lastmile_qr_scan", "ios": "https://dc.lft.to/lastmile_qr_scan"}, "name": "374868e0412b99fc659cacf3ee929cfc", "fusion_lat": 0.0, "lon": -77.04176533333333, "is_disabled": 0, "is_reserved": 0, "fusion_lon": 0.0, "lat": 38.905395666666664, "type": "electric_scooter", "bike_id": "374868e0412b99fc659cacf3ee929cfc"}, {"rental_uris": {"android": "https://dc.lft.to/lastmile_qr_scan", "ios": "https://dc.lft.to/lastmile_qr_scan"}, "name": "20273dc5d105b5153a338d67459636b1", "fusion_lat": 0.0, "lon": -77.05512366666666, "is_disabled": 0, "is_reserved": 0, "fusion_lon": 0.0, "lat": 38.94415683333333, "type": "electric_scooter", "bike_id": "20273dc5d105b5153a338d67459636b1"}, {"rental_uris": {"android": "https://dc.lft.to/lastmile_qr_scan", "ios": "https://dc.lft.to/lastmile_qr_scan"}, "name": "2465757f76b02678356f938b6a4eadb3", "fusion_lat": 0.0, "lon": -77.02224183333334, "is_disabled": 0, "is_reserved": 0, "fusion_lon": 0.0, "lat": 38.90077483333334, "type": "electric_scooter", "bike_id": "2465757f76b02678356f938b6a4eadb3"}, {"rental_uris": {"android": "https://dc.lft.to/lastmile_qr_scan", "ios": "https://dc.lft.to/lastmile_qr_scan"}, "name": "c0f66f5d23af14d2544d181d2e694f38", "fusion_lat": 0.0, "lon": -76.94999016666667, "is_disabled": 0, "is_reserved": 0, "fusion_lon": 0.0, "lat": 38.8939285, "type": "electric_scooter", "bike_id": "c0f66f5d23af14d2544d181d2e694f38"}, {"rental_uris": {"android": "https://dc.lft.to/lastmile_qr_scan", "ios": "https://dc.lft.to/lastmile_qr_scan"}, "name": "1b096e4dc92d4e361854205b86f2cebd", "fusion_lat": 0.0, "lon": -76.98912716666666, "is_disabled": 0, "is_reserved": 0, "fusion_lon": 0.0, "lat": 38.90243683333333, "type": "electric_scooter", "bike_id": "1b096e4dc92d4e361854205b86f2cebd"}, {"rental_uris": {"android": "https://dc.lft.to/lastmile_qr_scan", "ios": "https://dc.lft.to/lastmile_qr_scan"}, "name": "9452d78b064b2bc60fd35fd563f5e56a", "fusion_lat": 0.0, "lon": -77.024485, "is_disabled": 0, "is_reserved": 0, "fusion_lon": 0.0, "lat": 38.92895516666667, "type": "electric_scooter", "bike_id": "9452d78b064b2bc60fd35fd563f5e56a"}, {"rental_uris": {"android": "https://dc.lft.to/lastmile_qr_scan", "ios": "https://dc.lft.to/lastmile_qr_scan"}, "name": "45f68fe866dd34790094fdc68d8be9b0", "fusion_lat": 0.0, "lon": -77.04631316666666, "is_disabled": 0, "is_reserved": 0, "fusion_lon": 0.0, "lat": 38.905597666666665, "type": "electric_scooter", "bike_id": "45f68fe866dd34790094fdc68d8be9b0"}, {"rental_uris": {"android": "https://dc.lft.to/lastmile_qr_scan", "ios": "https://dc.lft.to/lastmile_qr_scan"}, "name": "4e486c7f896f8218fea34736dbd8895e", "fusion_lat": 0.0, "lon": -77.00345416666667, "is_disabled": 0, "is_reserved": 0, "fusion_lon": 0.0, "lat": 38.889232, "type": "electric_scooter", "bike_id": "4e486c7f896f8218fea34736dbd8895e"}, {"rental_uris": {"android": "https://dc.lft.to/lastmile_qr_scan", "ios": "https://dc.lft.to/lastmile_qr_scan"}, "name": "75c212a43e235e55a042caae3548029a", "fusion_lat": 0.0, "lon": -77.04478066666667, "is_disabled": 0, "is_reserved": 0, "fusion_lon": 0.0, "lat": 38.91081333333333, "type": "electric_scooter", "bike_id": "75c212a43e235e55a042caae3548029a"}, {"rental_uris": {"android": "https://dc.lft.to/lastmile_qr_scan", "ios": "https://dc.lft.to/lastmile_qr_scan"}, "name": "cd7d1250d2c47493483ca66b0865078f", "fusion_lat": 0.0, "lon": -77.0466335, "is_disabled": 0, "is_reserved": 0, "fusion_lon": 0.0, "lat": 38.90436716666667, "type": "electric_scooter", "bike_id": "cd7d1250d2c47493483ca66b0865078f"}, {"rental_uris": {"android": "https://dc.lft.to/lastmile_qr_scan", "ios": "https://dc.lft.to/lastmile_qr_scan"}, "name": "d602cfadbd08ad3e1f7f19137365290b", "fusion_lat": 0.0, "lon": -77.023502, "is_disabled": 0, "is_reserved": 0, "fusion_lon": 0.0, "lat": 38.93099516666667, "type": "electric_scooter", "bike_id": "d602cfadbd08ad3e1f7f19137365290b"}, {"rental_uris": {"android": "https://dc.lft.to/lastmile_qr_scan", "ios": "https://dc.lft.to/lastmile_qr_scan"}, "name": "fb297fb40cd87ed3ca121d294b926f0e", "fusion_lat": 0.0, "lon": -76.94840116666667, "is_disabled": 0, "is_reserved": 0, "fusion_lon": 0.0, "lat": 38.894849, "type": "electric_scooter", "bike_id": "fb297fb40cd87ed3ca121d294b926f0e"}, {"rental_uris": {"android": "https://dc.lft.to/lastmile_qr_scan", "ios": "https://dc.lft.to/lastmile_qr_scan"}, "name": "62a76f8e871ccf8456be46689e70d8f4", "fusion_lat": 0.0, "lon": -77.041936, "is_disabled": 0, "is_reserved": 0, "fusion_lon": 0.0, "lat": 38.923392, "type": "electric_scooter", "bike_id": "62a76f8e871ccf8456be46689e70d8f4"}, {"rental_uris": {"android": "https://dc.lft.to/lastmile_qr_scan", "ios": "https://dc.lft.to/lastmile_qr_scan"}, "name": "3d5915744592ff036994a8eaca74e42b", "fusion_lat": 0.0, "lon": -77.022216, "is_disabled": 0, "is_reserved": 0, "fusion_lon": 0.0, "lat": 38.898577, "type": "electric_scooter", "bike_id": "3d5915744592ff036994a8eaca74e42b"}, {"rental_uris": {"android": "https://dc.lft.to/lastmile_qr_scan", "ios": "https://dc.lft.to/lastmile_qr_scan"}, "name": "67bf9e719bad03c33e4bf67cd8ef1d9b", "fusion_lat": 0.0, "lon": -76.9838195, "is_disabled": 0, "is_reserved": 0, "fusion_lon": 0.0, "lat": 38.91471833333333, "type": "electric_bike", "bike_id": "67bf9e719bad03c33e4bf67cd8ef1d9b"}, {"rental_uris": {"android": "https://dc.lft.to/lastmile_qr_scan", "ios": "https://dc.lft.to/lastmile_qr_scan"}, "name": "9b4789a22890b94ab08d4d53e84c7c8c", "fusion_lat": 0.0, "lon": -77.0120125, "is_disabled": 0, "is_reserved": 0, "fusion_lon": 0.0, "lat": 38.887724, "type": "electric_scooter", "bike_id": "9b4789a22890b94ab08d4d53e84c7c8c"}, {"rental_uris": {"android": "https://dc.lft.to/lastmile_qr_scan", "ios": "https://dc.lft.to/lastmile_qr_scan"}, "name": "dfe3ed79345ca7cfa4369a2cce9783a6", "fusion_lat": 0.0, "lon": -77.02944416666666, "is_disabled": 0, "is_reserved": 0, "fusion_lon": 0.0, "lat": 38.89831733333333, "type": "electric_scooter", "bike_id": "dfe3ed79345ca7cfa4369a2cce9783a6"}, {"rental_uris": {"android": "https://dc.lft.to/lastmile_qr_scan", "ios": "https://dc.lft.to/lastmile_qr_scan"}, "name": "32b6376b2862e985f909cded3dd3acae", "fusion_lat": 0.0, "lon": -77.022467, "is_disabled": 0, "is_reserved": 0, "fusion_lon": 0.0, "lat": 38.922916, "type": "electric_bike", "bike_id": "32b6376b2862e985f909cded3dd3acae"}, {"rental_uris": {"android": "https://dc.lft.to/lastmile_qr_scan", "ios": "https://dc.lft.to/lastmile_qr_scan"}, "name": "d825db9c7c24a108b93195223bcb48c7", "fusion_lat": 0.0, "lon": -77.03337166666667, "is_disabled": 0, "is_reserved": 0, "fusion_lon": 0.0, "lat": 38.8982395, "type": "electric_scooter", "bike_id": "d825db9c7c24a108b93195223bcb48c7"}, {"rental_uris": {"android": "https://dc.lft.to/lastmile_qr_scan", "ios": "https://dc.lft.to/lastmile_qr_scan"}, "name": "83ab149e95ba882d52561a922484ebbb", "fusion_lat": 0.0, "lon": -77.04497116666667, "is_disabled": 0, "is_reserved": 0, "fusion_lon": 0.0, "lat": 38.9141595, "type": "electric_scooter", "bike_id": "83ab149e95ba882d52561a922484ebbb"}, {"rental_uris": {"android": "https://dc.lft.to/lastmile_qr_scan", "ios": "https://dc.lft.to/lastmile_qr_scan"}, "name": "a7f3c77f974a8d7743126b0b62c77135", "fusion_lat": 0.0, "lon": -77.01022116666667, "is_disabled": 0, "is_reserved": 0, "fusion_lon": 0.0, "lat": 38.900055, "type": "electric_scooter", "bike_id": "a7f3c77f974a8d7743126b0b62c77135"}, {"rental_uris": {"android": "https://dc.lft.to/lastmile_qr_scan", "ios": "https://dc.lft.to/lastmile_qr_scan"}, "name": "d5baba6328fa474225aa63edac612fa9", "fusion_lat": 0.0, "lon": -77.003613, "is_disabled": 0, "is_reserved": 0, "fusion_lon": 0.0, "lat": 38.87748833333333, "type": "electric_scooter", "bike_id": "d5baba6328fa474225aa63edac612fa9"}, {"rental_uris": {"android": "https://dc.lft.to/lastmile_qr_scan", "ios": "https://dc.lft.to/lastmile_qr_scan"}, "name": "83f1f009a2736665d4036f4d5a7ca2c0", "fusion_lat": 0.0, "lon": -77.13231683333333, "is_disabled": 0, "is_reserved": 0, "fusion_lon": 0.0, "lat": 38.869726166666666, "type": "electric_bike", "bike_id": "83f1f009a2736665d4036f4d5a7ca2c0"}, {"rental_uris": {"android": "https://dc.lft.to/lastmile_qr_scan", "ios": "https://dc.lft.to/lastmile_qr_scan"}, "name": "f7d98b3723019b0559ca1a868ef1dba4", "fusion_lat": 0.0, "lon": -77.01568283333333, "is_disabled": 0, "is_reserved": 0, "fusion_lon": 0.0, "lat": 38.8914425, "type": "electric_scooter", "bike_id": "f7d98b3723019b0559ca1a868ef1dba4"}, {"rental_uris": {"android": "https://dc.lft.to/lastmile_qr_scan", "ios": "https://dc.lft.to/lastmile_qr_scan"}, "name": "ffa3b45d641959bf9835d96c3e785b3d", "fusion_lat": 0.0, "lon": -77.005682, "is_disabled": 0, "is_reserved": 0, "fusion_lon": 0.0, "lat": 38.885051833333335, "type": "electric_scooter", "bike_id": "ffa3b45d641959bf9835d96c3e785b3d"}, {"rental_uris": {"android": "https://dc.lft.to/lastmile_qr_scan", "ios": "https://dc.lft.to/lastmile_qr_scan"}, "name": "bc431601b385f7a93fe11727f243a46c", "fusion_lat": 0.0, "lon": -77.02542483333333, "is_disabled": 0, "is_reserved": 0, "fusion_lon": 0.0, "lat": 38.900721, "type": "electric_scooter", "bike_id": "bc431601b385f7a93fe11727f243a46c"}, {"rental_uris": {"android": "https://dc.lft.to/lastmile_qr_scan", "ios": "https://dc.lft.to/lastmile_qr_scan"}, "name": "9759a779447b6d5609a9e0422c6064cf", "fusion_lat": 0.0, "lon": -77.00751416666667, "is_disabled": 0, "is_reserved": 0, "fusion_lon": 0.0, "lat": 38.876598, "type": "electric_scooter", "bike_id": "9759a779447b6d5609a9e0422c6064cf"}, {"rental_uris": {"android": "https://dc.lft.to/lastmile_qr_scan", "ios": "https://dc.lft.to/lastmile_qr_scan"}, "name": "8c8a0cc8862b0e33b4075aac71565c19", "fusion_lat": 0.0, "lon": -77.07170483333333, "is_disabled": 0, "is_reserved": 0, "fusion_lon": 0.0, "lat": 38.907810833333336, "type": "electric_scooter", "bike_id": "8c8a0cc8862b0e33b4075aac71565c19"}, {"rental_uris": {"android": "https://dc.lft.to/lastmile_qr_scan", "ios": "https://dc.lft.to/lastmile_qr_scan"}, "name": "5b51135ea463e4300bc0598eb2a0be55", "fusion_lat": 0.0, "lon": -76.99171833333334, "is_disabled": 0, "is_reserved": 0, "fusion_lon": 0.0, "lat": 38.88974916666667, "type": "electric_bike", "bike_id": "5b51135ea463e4300bc0598eb2a0be55"}, {"rental_uris": {"android": "https://dc.lft.to/lastmile_qr_scan", "ios": "https://dc.lft.to/lastmile_qr_scan"}, "name": "9e80c29cd4d0bbd54ddeb003723945df", "fusion_lat": 0.0, "lon": -77.02172333333333, "is_disabled": 0, "is_reserved": 0, "fusion_lon": 0.0, "lat": 38.942940666666665, "type": "electric_scooter", "bike_id": "9e80c29cd4d0bbd54ddeb003723945df"}, {"rental_uris": {"android": "https://dc.lft.to/lastmile_qr_scan", "ios": "https://dc.lft.to/lastmile_qr_scan"}, "name": "225d88fcb8e80d1c29aac258f27f6810", "fusion_lat": 0.0, "lon": -77.0628565, "is_disabled": 0, "is_reserved": 0, "fusion_lon": 0.0, "lat": 38.90493933333333, "type": "electric_scooter", "bike_id": "225d88fcb8e80d1c29aac258f27f6810"}, {"rental_uris": {"android": "https://dc.lft.to/lastmile_qr_scan", "ios": "https://dc.lft.to/lastmile_qr_scan"}, "name": "ab2ee51aec2c7f78a1d80802d655abf8", "fusion_lat": 0.0, "lon": -77.02421333333334, "is_disabled": 0, "is_reserved": 0, "fusion_lon": 0.0, "lat": 38.9182445, "type": "electric_scooter", "bike_id": "ab2ee51aec2c7f78a1d80802d655abf8"}, {"rental_uris": {"android": "https://dc.lft.to/lastmile_qr_scan", "ios": "https://dc.lft.to/lastmile_qr_scan"}, "name": "f24c016b90bac23e266f78b5109fe5ff", "fusion_lat": 0.0, "lon": -77.02928483333334, "is_disabled": 0, "is_reserved": 0, "fusion_lon": 0.0, "lat": 38.882189333333336, "type": "electric_scooter", "bike_id": "f24c016b90bac23e266f78b5109fe5ff"}, {"rental_uris": {"android": "https://dc.lft.to/lastmile_qr_scan", "ios": "https://dc.lft.to/lastmile_qr_scan"}, "name": "9f8e1ae915663fca07d5b0c0b148f511", "fusion_lat": 0.0, "lon": -77.0151205, "is_disabled": 0, "is_reserved": 0, "fusion_lon": 0.0, "lat": 38.89467966666667, "type": "electric_scooter", "bike_id": "9f8e1ae915663fca07d5b0c0b148f511"}, {"rental_uris": {"android": "https://dc.lft.to/lastmile_qr_scan", "ios": "https://dc.lft.to/lastmile_qr_scan"}, "name": "2b7c1628a0a5238890ebfcbb0b562fd1", "fusion_lat": 0.0, "lon": -77.02828466666666, "is_disabled": 0, "is_reserved": 0, "fusion_lon": 0.0, "lat": 38.89799583333333, "type": "electric_scooter", "bike_id": "2b7c1628a0a5238890ebfcbb0b562fd1"}, {"rental_uris": {"android": "https://dc.lft.to/lastmile_qr_scan", "ios": "https://dc.lft.to/lastmile_qr_scan"}, "name": "9289f3d3412c609bce3032f0c5797af0", "fusion_lat": 0.0, "lon": -76.98164016666666, "is_disabled": 0, "is_reserved": 0, "fusion_lon": 0.0, "lat": 38.95959366666666, "type": "electric_bike", "bike_id": "9289f3d3412c609bce3032f0c5797af0"}, {"rental_uris": {"android": "https://dc.lft.to/lastmile_qr_scan", "ios": "https://dc.lft.to/lastmile_qr_scan"}, "name": "de75bc93673c64d6180a97b77000fc6a", "fusion_lat": 0.0, "lon": -77.04156133333333, "is_disabled": 0, "is_reserved": 0, "fusion_lon": 0.0, "lat": 38.9160865, "type": "electric_scooter", "bike_id": "de75bc93673c64d6180a97b77000fc6a"}, {"rental_uris": {"android": "https://dc.lft.to/lastmile_qr_scan", "ios": "https://dc.lft.to/lastmile_qr_scan"}, "name": "edd6588e55a4c8aaadeb501de782d0ee", "fusion_lat": 0.0, "lon": -76.984521, "is_disabled": 0, "is_reserved": 0, "fusion_lon": 0.0, "lat": 38.88009266666667, "type": "electric_scooter", "bike_id": "edd6588e55a4c8aaadeb501de782d0ee"}, {"rental_uris": {"android": "https://dc.lft.to/lastmile_qr_scan", "ios": "https://dc.lft.to/lastmile_qr_scan"}, "name": "7d3cccf0ab3fa728cce6c87834de5f87", "fusion_lat": 0.0, "lon": -77.02776883333334, "is_disabled": 0, "is_reserved": 0, "fusion_lon": 0.0, "lat": 38.898899666666665, "type": "electric_scooter", "bike_id": "7d3cccf0ab3fa728cce6c87834de5f87"}, {"rental_uris": {"android": "https://dc.lft.to/lastmile_qr_scan", "ios": "https://dc.lft.to/lastmile_qr_scan"}, "name": "a6b58a47f952ac692a5a370d0c57f335", "fusion_lat": 0.0, "lon": -77.03854983333333, "is_disabled": 0, "is_reserved": 0, "fusion_lon": 0.0, "lat": 38.90949333333333, "type": "electric_scooter", "bike_id": "a6b58a47f952ac692a5a370d0c57f335"}, {"rental_uris": {"android": "https://dc.lft.to/lastmile_qr_scan", "ios": "https://dc.lft.to/lastmile_qr_scan"}, "name": "0b8e382c459927696c2df25ac810a3c8", "fusion_lat": 0.0, "lon": -77.01213216666666, "is_disabled": 0, "is_reserved": 0, "fusion_lon": 0.0, "lat": 38.8933435, "type": "electric_scooter", "bike_id": "0b8e382c459927696c2df25ac810a3c8"}, {"rental_uris": {"android": "https://dc.lft.to/lastmile_qr_scan", "ios": "https://dc.lft.to/lastmile_qr_scan"}, "name": "f6ad5d51f47cd59e55d8fe65b18d49ab", "fusion_lat": 0.0, "lon": -77.00192166666666, "is_disabled": 0, "is_reserved": 0, "fusion_lon": 0.0, "lat": 38.9037605, "type": "electric_scooter", "bike_id": "f6ad5d51f47cd59e55d8fe65b18d49ab"}, {"rental_uris": {"android": "https://dc.lft.to/lastmile_qr_scan", "ios": "https://dc.lft.to/lastmile_qr_scan"}, "name": "b089721f70b1825b94aad35d412765cd", "fusion_lat": 0.0, "lon": -77.0354505, "is_disabled": 0, "is_reserved": 0, "fusion_lon": 0.0, "lat": 38.93601366666667, "type": "electric_scooter", "bike_id": "b089721f70b1825b94aad35d412765cd"}, {"rental_uris": {"android": "https://dc.lft.to/lastmile_qr_scan", "ios": "https://dc.lft.to/lastmile_qr_scan"}, "name": "14f928edf00283d82594dfe0ae515a99", "fusion_lat": 0.0, "lon": -77.02460783333333, "is_disabled": 0, "is_reserved": 0, "fusion_lon": 0.0, "lat": 38.93850583333333, "type": "electric_scooter", "bike_id": "14f928edf00283d82594dfe0ae515a99"}, {"rental_uris": {"android": "https://dc.lft.to/lastmile_qr_scan", "ios": "https://dc.lft.to/lastmile_qr_scan"}, "name": "46cf192e64b314b490f11fa911b23db4", "fusion_lat": 0.0, "lon": -77.02684366666666, "is_disabled": 0, "is_reserved": 0, "fusion_lon": 0.0, "lat": 38.898281833333336, "type": "electric_scooter", "bike_id": "46cf192e64b314b490f11fa911b23db4"}, {"rental_uris": {"android": "https://dc.lft.to/lastmile_qr_scan", "ios": "https://dc.lft.to/lastmile_qr_scan"}, "name": "ee24df5397760ca8226a94f15c4acd93", "fusion_lat": 0.0, "lon": -77.037943, "is_disabled": 0, "is_reserved": 0, "fusion_lon": 0.0, "lat": 38.919826, "type": "electric_scooter", "bike_id": "ee24df5397760ca8226a94f15c4acd93"}, {"rental_uris": {"android": "https://dc.lft.to/lastmile_qr_scan", "ios": "https://dc.lft.to/lastmile_qr_scan"}, "name": "662d80b68d4fab2ae92b3f5b652221b6", "fusion_lat": 0.0, "lon": -77.01369533333333, "is_disabled": 0, "is_reserved": 0, "fusion_lon": 0.0, "lat": 38.89223583333333, "type": "electric_scooter", "bike_id": "662d80b68d4fab2ae92b3f5b652221b6"}, {"rental_uris": {"android": "https://dc.lft.to/lastmile_qr_scan", "ios": "https://dc.lft.to/lastmile_qr_scan"}, "name": "ea639423d28f347769b3ba2f95ba2f4d", "fusion_lat": 0.0, "lon": -77.02157116666666, "is_disabled": 0, "is_reserved": 0, "fusion_lon": 0.0, "lat": 38.9258385, "type": "electric_scooter", "bike_id": "ea639423d28f347769b3ba2f95ba2f4d"}, {"rental_uris": {"android": "https://dc.lft.to/lastmile_qr_scan", "ios": "https://dc.lft.to/lastmile_qr_scan"}, "name": "c0f5af9a56f26a85e755bd9f636ba47f", "fusion_lat": 0.0, "lon": -77.04345233333333, "is_disabled": 0, "is_reserved": 0, "fusion_lon": 0.0, "lat": 38.910592, "type": "electric_scooter", "bike_id": "c0f5af9a56f26a85e755bd9f636ba47f"}, {"rental_uris": {"android": "https://dc.lft.to/lastmile_qr_scan", "ios": "https://dc.lft.to/lastmile_qr_scan"}, "name": "a88d50d29082ebbec732ef6a1669bf19", "fusion_lat": 0.0, "lon": -76.98903283333334, "is_disabled": 0, "is_reserved": 0, "fusion_lon": 0.0, "lat": 38.90027833333333, "type": "electric_bike", "bike_id": "a88d50d29082ebbec732ef6a1669bf19"}, {"rental_uris": {"android": "https://dc.lft.to/lastmile_qr_scan", "ios": "https://dc.lft.to/lastmile_qr_scan"}, "name": "df1423d6fd2ee825d1f46102fc5ac7aa", "fusion_lat": 0.0, "lon": -77.00564733333333, "is_disabled": 0, "is_reserved": 0, "fusion_lon": 0.0, "lat": 38.885048833333336, "type": "electric_scooter", "bike_id": "df1423d6fd2ee825d1f46102fc5ac7aa"}, {"rental_uris": {"android": "https://dc.lft.to/lastmile_qr_scan", "ios": "https://dc.lft.to/lastmile_qr_scan"}, "name": "bdb3efee0fa24c11d23236e13f221965", "fusion_lat": 0.0, "lon": -76.98682366666667, "is_disabled": 0, "is_reserved": 0, "fusion_lon": 0.0, "lat": 38.88533566666667, "type": "electric_scooter", "bike_id": "bdb3efee0fa24c11d23236e13f221965"}, {"rental_uris": {"android": "https://dc.lft.to/lastmile_qr_scan", "ios": "https://dc.lft.to/lastmile_qr_scan"}, "name": "e5dc306196366f626bfc0183ea464759", "fusion_lat": 0.0, "lon": -77.03506033333333, "is_disabled": 0, "is_reserved": 0, "fusion_lon": 0.0, "lat": 38.93571683333333, "type": "electric_scooter", "bike_id": "e5dc306196366f626bfc0183ea464759"}, {"rental_uris": {"android": "https://dc.lft.to/lastmile_qr_scan", "ios": "https://dc.lft.to/lastmile_qr_scan"}, "name": "76c357fe5cb1318244ac9dfb267d0cb4", "fusion_lat": 0.0, "lon": -77.04405766666666, "is_disabled": 0, "is_reserved": 0, "fusion_lon": 0.0, "lat": 38.893980166666665, "type": "electric_scooter", "bike_id": "76c357fe5cb1318244ac9dfb267d0cb4"}, {"rental_uris": {"android": "https://dc.lft.to/lastmile_qr_scan", "ios": "https://dc.lft.to/lastmile_qr_scan"}, "name": "7fe89bbfd3d163d53ea686f8c1d3e669", "fusion_lat": 0.0, "lon": -77.0391195, "is_disabled": 0, "is_reserved": 0, "fusion_lon": 0.0, "lat": 38.90467783333333, "type": "electric_scooter", "bike_id": "7fe89bbfd3d163d53ea686f8c1d3e669"}, {"rental_uris": {"android": "https://dc.lft.to/lastmile_qr_scan", "ios": "https://dc.lft.to/lastmile_qr_scan"}, "name": "dfc51c2f2b2766550c92a6e65255c07e", "fusion_lat": 0.0, "lon": -76.971955, "is_disabled": 0, "is_reserved": 0, "fusion_lon": 0.0, "lat": 38.89250933333334, "type": "electric_bike", "bike_id": "dfc51c2f2b2766550c92a6e65255c07e"}, {"rental_uris": {"android": "https://dc.lft.to/lastmile_qr_scan", "ios": "https://dc.lft.to/lastmile_qr_scan"}, "name": "9a098c1fd1812eb0bbea9bdc24f52ead", "fusion_lat": 0.0, "lon": -77.03183316666667, "is_disabled": 0, "is_reserved": 0, "fusion_lon": 0.0, "lat": 38.909508333333335, "type": "electric_scooter", "bike_id": "9a098c1fd1812eb0bbea9bdc24f52ead"}, {"rental_uris": {"android": "https://dc.lft.to/lastmile_qr_scan", "ios": "https://dc.lft.to/lastmile_qr_scan"}, "name": "4ff8b9c94820cf00d7c5556d0e86f4a9", "fusion_lat": 0.0, "lon": -77.02711366666666, "is_disabled": 0, "is_reserved": 0, "fusion_lon": 0.0, "lat": 38.90348433333333, "type": "electric_scooter", "bike_id": "4ff8b9c94820cf00d7c5556d0e86f4a9"}, {"rental_uris": {"android": "https://dc.lft.to/lastmile_qr_scan", "ios": "https://dc.lft.to/lastmile_qr_scan"}, "name": "00d916ba372857d4e875eb39c4944182", "fusion_lat": 0.0, "lon": -76.9902765, "is_disabled": 0, "is_reserved": 0, "fusion_lon": 0.0, "lat": 38.864050166666665, "type": "electric_scooter", "bike_id": "00d916ba372857d4e875eb39c4944182"}, {"rental_uris": {"android": "https://dc.lft.to/lastmile_qr_scan", "ios": "https://dc.lft.to/lastmile_qr_scan"}, "name": "f31d628aabb5a4d850fa48e95eba9d74", "fusion_lat": 0.0, "lon": -77.00333266666667, "is_disabled": 0, "is_reserved": 0, "fusion_lon": 0.0, "lat": 38.892168833333336, "type": "electric_scooter", "bike_id": "f31d628aabb5a4d850fa48e95eba9d74"}, {"rental_uris": {"android": "https://dc.lft.to/lastmile_qr_scan", "ios": "https://dc.lft.to/lastmile_qr_scan"}, "name": "f82db139fd585d91cba2be34e2079b92", "fusion_lat": 0.0, "lon": -77.04191333333333, "is_disabled": 0, "is_reserved": 0, "fusion_lon": 0.0, "lat": 38.898988333333335, "type": "electric_scooter", "bike_id": "f82db139fd585d91cba2be34e2079b92"}, {"rental_uris": {"android": "https://dc.lft.to/lastmile_qr_scan", "ios": "https://dc.lft.to/lastmile_qr_scan"}, "name": "2b8a388d0e9e832d7d019cafcce04a31", "fusion_lat": 0.0, "lon": -77.0168015, "is_disabled": 0, "is_reserved": 0, "fusion_lon": 0.0, "lat": 38.88322433333333, "type": "electric_scooter", "bike_id": "2b8a388d0e9e832d7d019cafcce04a31"}, {"rental_uris": {"android": "https://dc.lft.to/lastmile_qr_scan", "ios": "https://dc.lft.to/lastmile_qr_scan"}, "name": "606796e356513f111c3210f066a88720", "fusion_lat": 0.0, "lon": -76.99503116666666, "is_disabled": 0, "is_reserved": 0, "fusion_lon": 0.0, "lat": 38.8858385, "type": "electric_scooter", "bike_id": "606796e356513f111c3210f066a88720"}, {"rental_uris": {"android": "https://dc.lft.to/lastmile_qr_scan", "ios": "https://dc.lft.to/lastmile_qr_scan"}, "name": "d198af641dfd519ff51cdc941911843c", "fusion_lat": 0.0, "lon": -77.07083666666666, "is_disabled": 0, "is_reserved": 0, "fusion_lon": 0.0, "lat": 38.93905266666667, "type": "electric_scooter", "bike_id": "d198af641dfd519ff51cdc941911843c"}, {"rental_uris": {"android": "https://dc.lft.to/lastmile_qr_scan", "ios": "https://dc.lft.to/lastmile_qr_scan"}, "name": "7810c36d3a39166a014f36009b045305", "fusion_lat": 0.0, "lon": -77.0071245, "is_disabled": 0, "is_reserved": 0, "fusion_lon": 0.0, "lat": 38.88493033333334, "type": "electric_scooter", "bike_id": "7810c36d3a39166a014f36009b045305"}, {"rental_uris": {"android": "https://dc.lft.to/lastmile_qr_scan", "ios": "https://dc.lft.to/lastmile_qr_scan"}, "name": "8137bc338476d9d2c57a891cba69f4f0", "fusion_lat": 0.0, "lon": -77.04508683333333, "is_disabled": 0, "is_reserved": 0, "fusion_lon": 0.0, "lat": 38.90381516666667, "type": "electric_scooter", "bike_id": "8137bc338476d9d2c57a891cba69f4f0"}, {"rental_uris": {"android": "https://dc.lft.to/lastmile_qr_scan", "ios": "https://dc.lft.to/lastmile_qr_scan"}, "name": "875e93739fe24ef8366af453c6310c1b", "fusion_lat": 0.0, "lon": -77.03891316666666, "is_disabled": 0, "is_reserved": 0, "fusion_lon": 0.0, "lat": 38.903527833333335, "type": "electric_scooter", "bike_id": "875e93739fe24ef8366af453c6310c1b"}, {"rental_uris": {"android": "https://dc.lft.to/lastmile_qr_scan", "ios": "https://dc.lft.to/lastmile_qr_scan"}, "name": "a89f20fcf8879538d2c9ec16a6defa57", "fusion_lat": 0.0, "lon": -77.00813966666666, "is_disabled": 0, "is_reserved": 0, "fusion_lon": 0.0, "lat": 38.87631233333333, "type": "electric_scooter", "bike_id": "a89f20fcf8879538d2c9ec16a6defa57"}, {"rental_uris": {"android": "https://dc.lft.to/lastmile_qr_scan", "ios": "https://dc.lft.to/lastmile_qr_scan"}, "name": "2270205cd1390beb25ba0bd8204a304a", "fusion_lat": 0.0, "lon": -77.02707216666667, "is_disabled": 0, "is_reserved": 0, "fusion_lon": 0.0, "lat": 38.91761616666667, "type": "electric_scooter", "bike_id": "2270205cd1390beb25ba0bd8204a304a"}, {"rental_uris": {"android": "https://dc.lft.to/lastmile_qr_scan", "ios": "https://dc.lft.to/lastmile_qr_scan"}, "name": "2af67a7c9067cb736a48586c6402295f", "fusion_lat": 0.0, "lon": -76.99613233333334, "is_disabled": 0, "is_reserved": 0, "fusion_lon": 0.0, "lat": 38.8646665, "type": "electric_scooter", "bike_id": "2af67a7c9067cb736a48586c6402295f"}, {"rental_uris": {"android": "https://dc.lft.to/lastmile_qr_scan", "ios": "https://dc.lft.to/lastmile_qr_scan"}, "name": "535cbd985ea48c666b01478fbb002c15", "fusion_lat": 0.0, "lon": -77.017832, "is_disabled": 0, "is_reserved": 0, "fusion_lon": 0.0, "lat": 38.8839775, "type": "electric_scooter", "bike_id": "535cbd985ea48c666b01478fbb002c15"}, {"rental_uris": {"android": "https://dc.lft.to/lastmile_qr_scan", "ios": "https://dc.lft.to/lastmile_qr_scan"}, "name": "0619157f82d8a6e541953b27f0fd662f", "fusion_lat": 0.0, "lon": -77.01393033333333, "is_disabled": 0, "is_reserved": 0, "fusion_lon": 0.0, "lat": 38.88031983333333, "type": "electric_scooter", "bike_id": "0619157f82d8a6e541953b27f0fd662f"}, {"rental_uris": {"android": "https://dc.lft.to/lastmile_qr_scan", "ios": "https://dc.lft.to/lastmile_qr_scan"}, "name": "23cd1fbc599925415ee9828d437fa7fc", "fusion_lat": 0.0, "lon": -77.0694975, "is_disabled": 0, "is_reserved": 0, "fusion_lon": 0.0, "lat": 38.9904225, "type": "electric_bike", "bike_id": "23cd1fbc599925415ee9828d437fa7fc"}, {"rental_uris": {"android": "https://dc.lft.to/lastmile_qr_scan", "ios": "https://dc.lft.to/lastmile_qr_scan"}, "name": "c957df918fb46b5992875ed382d8ff2c", "fusion_lat": 0.0, "lon": -77.01908583333334, "is_disabled": 0, "is_reserved": 0, "fusion_lon": 0.0, "lat": 38.923460666666664, "type": "electric_scooter", "bike_id": "c957df918fb46b5992875ed382d8ff2c"}, {"rental_uris": {"android": "https://dc.lft.to/lastmile_qr_scan", "ios": "https://dc.lft.to/lastmile_qr_scan"}, "name": "834a4d5a7980aecd198475001f97109f", "fusion_lat": 0.0, "lon": -77.00305983333334, "is_disabled": 0, "is_reserved": 0, "fusion_lon": 0.0, "lat": 38.90723, "type": "electric_scooter", "bike_id": "834a4d5a7980aecd198475001f97109f"}, {"rental_uris": {"android": "https://dc.lft.to/lastmile_qr_scan", "ios": "https://dc.lft.to/lastmile_qr_scan"}, "name": "19aa2e705880b3a00fed46f85df25507", "fusion_lat": 0.0, "lon": -77.03558016666666, "is_disabled": 0, "is_reserved": 0, "fusion_lon": 0.0, "lat": 38.9250545, "type": "electric_scooter", "bike_id": "19aa2e705880b3a00fed46f85df25507"}, {"rental_uris": {"android": "https://dc.lft.to/lastmile_qr_scan", "ios": "https://dc.lft.to/lastmile_qr_scan"}, "name": "f599c94e8c35a6352551e5fb93ed9817", "fusion_lat": 0.0, "lon": -77.03976416666667, "is_disabled": 0, "is_reserved": 0, "fusion_lon": 0.0, "lat": 38.913343833333336, "type": "electric_scooter", "bike_id": "f599c94e8c35a6352551e5fb93ed9817"}, {"rental_uris": {"android": "https://dc.lft.to/lastmile_qr_scan", "ios": "https://dc.lft.to/lastmile_qr_scan"}, "name": "a1548cf4d063cab552a1f85c0b082e00", "fusion_lat": 0.0, "lon": -77.021869, "is_disabled": 0, "is_reserved": 0, "fusion_lon": 0.0, "lat": 38.91442516666667, "type": "electric_scooter", "bike_id": "a1548cf4d063cab552a1f85c0b082e00"}, {"rental_uris": {"android": "https://dc.lft.to/lastmile_qr_scan", "ios": "https://dc.lft.to/lastmile_qr_scan"}, "name": "6a001341cfe30a71133a0e749799a522", "fusion_lat": 0.0, "lon": -77.02802266666667, "is_disabled": 0, "is_reserved": 0, "fusion_lon": 0.0, "lat": 38.95099533333333, "type": "electric_scooter", "bike_id": "6a001341cfe30a71133a0e749799a522"}, {"rental_uris": {"android": "https://dc.lft.to/lastmile_qr_scan", "ios": "https://dc.lft.to/lastmile_qr_scan"}, "name": "941f08cf33e3bab0a2852587720c0453", "fusion_lat": 0.0, "lon": -77.022777, "is_disabled": 0, "is_reserved": 0, "fusion_lon": 0.0, "lat": 38.8783565, "type": "electric_scooter", "bike_id": "941f08cf33e3bab0a2852587720c0453"}, {"rental_uris": {"android": "https://dc.lft.to/lastmile_qr_scan", "ios": "https://dc.lft.to/lastmile_qr_scan"}, "name": "5243ba15cb7d0ba5ff2fc5b06885674a", "fusion_lat": 0.0, "lon": -77.01175833333333, "is_disabled": 0, "is_reserved": 0, "fusion_lon": 0.0, "lat": 38.897392833333335, "type": "electric_scooter", "bike_id": "5243ba15cb7d0ba5ff2fc5b06885674a"}, {"rental_uris": {"android": "https://dc.lft.to/lastmile_qr_scan", "ios": "https://dc.lft.to/lastmile_qr_scan"}, "name": "6787f9bdb266a76b5017b094c1a0a9cf", "fusion_lat": 0.0, "lon": -77.01791333333334, "is_disabled": 0, "is_reserved": 0, "fusion_lon": 0.0, "lat": 38.941189, "type": "electric_scooter", "bike_id": "6787f9bdb266a76b5017b094c1a0a9cf"}, {"rental_uris": {"android": "https://dc.lft.to/lastmile_qr_scan", "ios": "https://dc.lft.to/lastmile_qr_scan"}, "name": "fbdcedcf83ddfd561613515d14e28379", "fusion_lat": 0.0, "lon": -77.00917616666666, "is_disabled": 0, "is_reserved": 0, "fusion_lon": 0.0, "lat": 38.898919166666666, "type": "electric_scooter", "bike_id": "fbdcedcf83ddfd561613515d14e28379"}, {"rental_uris": {"android": "https://dc.lft.to/lastmile_qr_scan", "ios": "https://dc.lft.to/lastmile_qr_scan"}, "name": "9fa58e9522bdcec42ab0faecd5ee6d24", "fusion_lat": 0.0, "lon": -77.03841333333334, "is_disabled": 0, "is_reserved": 0, "fusion_lon": 0.0, "lat": 38.903574666666664, "type": "electric_scooter", "bike_id": "9fa58e9522bdcec42ab0faecd5ee6d24"}, {"rental_uris": {"android": "https://dc.lft.to/lastmile_qr_scan", "ios": "https://dc.lft.to/lastmile_qr_scan"}, "name": "61f99123ff1db2a63019c9e21100f7b5", "fusion_lat": 0.0, "lon": -77.0305185, "is_disabled": 0, "is_reserved": 0, "fusion_lon": 0.0, "lat": 38.8841175, "type": "electric_scooter", "bike_id": "61f99123ff1db2a63019c9e21100f7b5"}, {"rental_uris": {"android": "https://dc.lft.to/lastmile_qr_scan", "ios": "https://dc.lft.to/lastmile_qr_scan"}, "name": "25c02e6990cc730c6ac6e4683ecacb48", "fusion_lat": 0.0, "lon": -77.04903066666667, "is_disabled": 0, "is_reserved": 0, "fusion_lon": 0.0, "lat": 38.8750035, "type": "electric_bike", "bike_id": "25c02e6990cc730c6ac6e4683ecacb48"}, {"rental_uris": {"android": "https://dc.lft.to/lastmile_qr_scan", "ios": "https://dc.lft.to/lastmile_qr_scan"}, "name": "9431426d82c38037b45d22de2ced28f3", "fusion_lat": 0.0, "lon": -77.10028866666667, "is_disabled": 0, "is_reserved": 0, "fusion_lon": 0.0, "lat": 38.990618833333336, "type": "electric_bike", "bike_id": "9431426d82c38037b45d22de2ced28f3"}, {"rental_uris": {"android": "https://dc.lft.to/lastmile_qr_scan", "ios": "https://dc.lft.to/lastmile_qr_scan"}, "name": "a6d062bd2247a320e206c51d71e5109f", "fusion_lat": 0.0, "lon": -77.05917116666667, "is_disabled": 0, "is_reserved": 0, "fusion_lon": 0.0, "lat": 38.91000916666667, "type": "electric_scooter", "bike_id": "a6d062bd2247a320e206c51d71e5109f"}, {"rental_uris": {"android": "https://dc.lft.to/lastmile_qr_scan", "ios": "https://dc.lft.to/lastmile_qr_scan"}, "name": "a75f8b0f4c7f193332a2de20074f8127", "fusion_lat": 0.0, "lon": -77.03145583333334, "is_disabled": 0, "is_reserved": 0, "fusion_lon": 0.0, "lat": 38.93186266666667, "type": "electric_scooter", "bike_id": "a75f8b0f4c7f193332a2de20074f8127"}, {"rental_uris": {"android": "https://dc.lft.to/lastmile_qr_scan", "ios": "https://dc.lft.to/lastmile_qr_scan"}, "name": "51286a3bc1dc5633c337e9156f116ff2", "fusion_lat": 0.0, "lon": -76.9375415, "is_disabled": 0, "is_reserved": 0, "fusion_lon": 0.0, "lat": 38.89029566666667, "type": "electric_scooter", "bike_id": "51286a3bc1dc5633c337e9156f116ff2"}, {"rental_uris": {"android": "https://dc.lft.to/lastmile_qr_scan", "ios": "https://dc.lft.to/lastmile_qr_scan"}, "name": "b2caf47fbe79a5be5a0f0509424cc49d", "fusion_lat": 0.0, "lon": -76.9963195, "is_disabled": 0, "is_reserved": 0, "fusion_lon": 0.0, "lat": 38.84622433333333, "type": "electric_scooter", "bike_id": "b2caf47fbe79a5be5a0f0509424cc49d"}, {"rental_uris": {"android": "https://dc.lft.to/lastmile_qr_scan", "ios": "https://dc.lft.to/lastmile_qr_scan"}, "name": "709b329d565ca776fb4c0994f5a3f7b0", "fusion_lat": 0.0, "lon": -77.005142, "is_disabled": 0, "is_reserved": 0, "fusion_lon": 0.0, "lat": 38.874723333333336, "type": "electric_scooter", "bike_id": "709b329d565ca776fb4c0994f5a3f7b0"}, {"rental_uris": {"android": "https://dc.lft.to/lastmile_qr_scan", "ios": "https://dc.lft.to/lastmile_qr_scan"}, "name": "061859fc92859ca16c71d550b166fa9c", "fusion_lat": 0.0, "lon": -77.017555, "is_disabled": 0, "is_reserved": 0, "fusion_lon": 0.0, "lat": 38.91353733333333, "type": "electric_scooter", "bike_id": "061859fc92859ca16c71d550b166fa9c"}, {"rental_uris": {"android": "https://dc.lft.to/lastmile_qr_scan", "ios": "https://dc.lft.to/lastmile_qr_scan"}, "name": "e02e60165436a4b0867a2fdb99c7c8a1", "fusion_lat": 0.0, "lon": -77.04656666666666, "is_disabled": 0, "is_reserved": 0, "fusion_lon": 0.0, "lat": 38.892398166666666, "type": "electric_scooter", "bike_id": "e02e60165436a4b0867a2fdb99c7c8a1"}, {"rental_uris": {"android": "https://dc.lft.to/lastmile_qr_scan", "ios": "https://dc.lft.to/lastmile_qr_scan"}, "name": "fb57dd40bd0a4962cf5d8ddb08f6dc35", "fusion_lat": 0.0, "lon": -77.01207833333333, "is_disabled": 0, "is_reserved": 0, "fusion_lon": 0.0, "lat": 38.8954165, "type": "electric_scooter", "bike_id": "fb57dd40bd0a4962cf5d8ddb08f6dc35"}, {"rental_uris": {"android": "https://dc.lft.to/lastmile_qr_scan", "ios": "https://dc.lft.to/lastmile_qr_scan"}, "name": "750393089c8e1fd88da290aaa554f2e3", "fusion_lat": 0.0, "lon": -77.04618533333333, "is_disabled": 0, "is_reserved": 0, "fusion_lon": 0.0, "lat": 38.909949833333336, "type": "electric_bike", "bike_id": "750393089c8e1fd88da290aaa554f2e3"}, {"rental_uris": {"android": "https://dc.lft.to/lastmile_qr_scan", "ios": "https://dc.lft.to/lastmile_qr_scan"}, "name": "5e2bf694b5cc6721ca2ad16fd308a5b3", "fusion_lat": 0.0, "lon": -77.0231785, "is_disabled": 0, "is_reserved": 0, "fusion_lon": 0.0, "lat": 38.87884866666667, "type": "electric_scooter", "bike_id": "5e2bf694b5cc6721ca2ad16fd308a5b3"}, {"rental_uris": {"android": "https://dc.lft.to/lastmile_qr_scan", "ios": "https://dc.lft.to/lastmile_qr_scan"}, "name": "ef12abf3b59d626f8fbd571043c78da5", "fusion_lat": 0.0, "lon": -76.93883133333334, "is_disabled": 0, "is_reserved": 0, "fusion_lon": 0.0, "lat": 38.95636066666667, "type": "electric_bike", "bike_id": "ef12abf3b59d626f8fbd571043c78da5"}, {"rental_uris": {"android": "https://dc.lft.to/lastmile_qr_scan", "ios": "https://dc.lft.to/lastmile_qr_scan"}, "name": "d0bd60e4beb0531963273516a79e8e12", "fusion_lat": 0.0, "lon": -77.03154016666667, "is_disabled": 0, "is_reserved": 0, "fusion_lon": 0.0, "lat": 38.928084166666665, "type": "electric_scooter", "bike_id": "d0bd60e4beb0531963273516a79e8e12"}, {"rental_uris": {"android": "https://dc.lft.to/lastmile_qr_scan", "ios": "https://dc.lft.to/lastmile_qr_scan"}, "name": "23d6ed087aa7daa32094dffb28fb0445", "fusion_lat": 0.0, "lon": -77.02157033333333, "is_disabled": 0, "is_reserved": 0, "fusion_lon": 0.0, "lat": 38.926022833333334, "type": "electric_scooter", "bike_id": "23d6ed087aa7daa32094dffb28fb0445"}, {"rental_uris": {"android": "https://dc.lft.to/lastmile_qr_scan", "ios": "https://dc.lft.to/lastmile_qr_scan"}, "name": "e9dd7cfa1d6c07a8d6720859fcd7e0bb", "fusion_lat": 0.0, "lon": -77.03855533333333, "is_disabled": 0, "is_reserved": 0, "fusion_lon": 0.0, "lat": 38.90947233333333, "type": "electric_scooter", "bike_id": "e9dd7cfa1d6c07a8d6720859fcd7e0bb"}, {"rental_uris": {"android": "https://dc.lft.to/lastmile_qr_scan", "ios": "https://dc.lft.to/lastmile_qr_scan"}, "name": "504128b44b8fdee6705d9d0e35616fef", "fusion_lat": 0.0, "lon": -76.98240983333334, "is_disabled": 0, "is_reserved": 0, "fusion_lon": 0.0, "lat": 38.90457, "type": "electric_scooter", "bike_id": "504128b44b8fdee6705d9d0e35616fef"}, {"rental_uris": {"android": "https://dc.lft.to/lastmile_qr_scan", "ios": "https://dc.lft.to/lastmile_qr_scan"}, "name": "ab2648874107c2ed7e3cfbd008ad4f5e", "fusion_lat": 0.0, "lon": -76.9875405, "is_disabled": 0, "is_reserved": 0, "fusion_lon": 0.0, "lat": 38.98823683333333, "type": "electric_bike", "bike_id": "ab2648874107c2ed7e3cfbd008ad4f5e"}, {"rental_uris": {"android": "https://dc.lft.to/lastmile_qr_scan", "ios": "https://dc.lft.to/lastmile_qr_scan"}, "name": "7e67b2347d5b3191b108d4ed9932e2a3", "fusion_lat": 0.0, "lon": -77.03056966666666, "is_disabled": 0, "is_reserved": 0, "fusion_lon": 0.0, "lat": 38.88412616666667, "type": "electric_scooter", "bike_id": "7e67b2347d5b3191b108d4ed9932e2a3"}, {"rental_uris": {"android": "https://dc.lft.to/lastmile_qr_scan", "ios": "https://dc.lft.to/lastmile_qr_scan"}, "name": "2d513a9497f7df3697da927aaf879d41", "fusion_lat": 0.0, "lon": -77.02683833333333, "is_disabled": 0, "is_reserved": 0, "fusion_lon": 0.0, "lat": 38.909729166666665, "type": "electric_scooter", "bike_id": "2d513a9497f7df3697da927aaf879d41"}, {"rental_uris": {"android": "https://dc.lft.to/lastmile_qr_scan", "ios": "https://dc.lft.to/lastmile_qr_scan"}, "name": "b2ac8d940cf0a9e4dc54d392b097ad1f", "fusion_lat": 0.0, "lon": -77.0082115, "is_disabled": 0, "is_reserved": 0, "fusion_lon": 0.0, "lat": 38.91564533333333, "type": "electric_scooter", "bike_id": "b2ac8d940cf0a9e4dc54d392b097ad1f"}, {"rental_uris": {"android": "https://dc.lft.to/lastmile_qr_scan", "ios": "https://dc.lft.to/lastmile_qr_scan"}, "name": "fdcbe04f4d250562a62d7f44bf99194e", "fusion_lat": 0.0, "lon": -76.99024333333334, "is_disabled": 0, "is_reserved": 0, "fusion_lon": 0.0, "lat": 38.8640845, "type": "electric_scooter", "bike_id": "fdcbe04f4d250562a62d7f44bf99194e"}, {"rental_uris": {"android": "https://dc.lft.to/lastmile_qr_scan", "ios": "https://dc.lft.to/lastmile_qr_scan"}, "name": "65f582d902657c68199bd13e19ebd13d", "fusion_lat": 0.0, "lon": -77.0416565, "is_disabled": 0, "is_reserved": 0, "fusion_lon": 0.0, "lat": 38.913597, "type": "electric_scooter", "bike_id": "65f582d902657c68199bd13e19ebd13d"}, {"rental_uris": {"android": "https://dc.lft.to/lastmile_qr_scan", "ios": "https://dc.lft.to/lastmile_qr_scan"}, "name": "834db6c4761b78e10ed6d34e96067d55", "fusion_lat": 0.0, "lon": -77.04535433333334, "is_disabled": 0, "is_reserved": 0, "fusion_lon": 0.0, "lat": 38.900648333333336, "type": "electric_scooter", "bike_id": "834db6c4761b78e10ed6d34e96067d55"}, {"rental_uris": {"android": "https://dc.lft.to/lastmile_qr_scan", "ios": "https://dc.lft.to/lastmile_qr_scan"}, "name": "4de406adde30cdd72f410b410a06787f", "fusion_lat": 0.0, "lon": -77.0110455, "is_disabled": 0, "is_reserved": 0, "fusion_lon": 0.0, "lat": 38.8950035, "type": "electric_scooter", "bike_id": "4de406adde30cdd72f410b410a06787f"}, {"rental_uris": {"android": "https://dc.lft.to/lastmile_qr_scan", "ios": "https://dc.lft.to/lastmile_qr_scan"}, "name": "880f0a429d387f427df31af2f6c019b4", "fusion_lat": 0.0, "lon": -77.044882, "is_disabled": 0, "is_reserved": 0, "fusion_lon": 0.0, "lat": 38.909269333333334, "type": "electric_scooter", "bike_id": "880f0a429d387f427df31af2f6c019b4"}, {"rental_uris": {"android": "https://dc.lft.to/lastmile_qr_scan", "ios": "https://dc.lft.to/lastmile_qr_scan"}, "name": "30850d836453f876e2dd313721d00309", "fusion_lat": 0.0, "lon": -77.03183966666667, "is_disabled": 0, "is_reserved": 0, "fusion_lon": 0.0, "lat": 38.911724666666665, "type": "electric_scooter", "bike_id": "30850d836453f876e2dd313721d00309"}, {"rental_uris": {"android": "https://dc.lft.to/lastmile_qr_scan", "ios": "https://dc.lft.to/lastmile_qr_scan"}, "name": "2894916c6eb3daff78aa651619be77e3", "fusion_lat": 0.0, "lon": -77.04677083333333, "is_disabled": 0, "is_reserved": 0, "fusion_lon": 0.0, "lat": 38.89503716666667, "type": "electric_scooter", "bike_id": "2894916c6eb3daff78aa651619be77e3"}, {"rental_uris": {"android": "https://dc.lft.to/lastmile_qr_scan", "ios": "https://dc.lft.to/lastmile_qr_scan"}, "name": "40f0bddb39e8536f155780730bed09ae", "fusion_lat": 0.0, "lon": -77.0033805, "is_disabled": 0, "is_reserved": 0, "fusion_lon": 0.0, "lat": 38.895077666666666, "type": "electric_scooter", "bike_id": "40f0bddb39e8536f155780730bed09ae"}, {"rental_uris": {"android": "https://dc.lft.to/lastmile_qr_scan", "ios": "https://dc.lft.to/lastmile_qr_scan"}, "name": "a44770b2a73ba7b9cb6a46c10e3dad36", "fusion_lat": 0.0, "lon": -77.0339035, "is_disabled": 0, "is_reserved": 0, "fusion_lon": 0.0, "lat": 38.924386, "type": "electric_scooter", "bike_id": "a44770b2a73ba7b9cb6a46c10e3dad36"}, {"rental_uris": {"android": "https://dc.lft.to/lastmile_qr_scan", "ios": "https://dc.lft.to/lastmile_qr_scan"}, "name": "8d9158c23a91649c47cfa4f2abc3c3d8", "fusion_lat": 0.0, "lon": -77.0202345, "is_disabled": 0, "is_reserved": 0, "fusion_lon": 0.0, "lat": 38.92456766666667, "type": "electric_scooter", "bike_id": "8d9158c23a91649c47cfa4f2abc3c3d8"}, {"rental_uris": {"android": "https://dc.lft.to/lastmile_qr_scan", "ios": "https://dc.lft.to/lastmile_qr_scan"}, "name": "9f2a77fb8a3ea5f8382dceef9eae903b", "fusion_lat": 0.0, "lon": -77.0610305, "is_disabled": 0, "is_reserved": 0, "fusion_lon": 0.0, "lat": 38.943707, "type": "electric_scooter", "bike_id": "9f2a77fb8a3ea5f8382dceef9eae903b"}, {"rental_uris": {"android": "https://dc.lft.to/lastmile_qr_scan", "ios": "https://dc.lft.to/lastmile_qr_scan"}, "name": "8c534a4a2dd9ab748b61219a9a5bbf12", "fusion_lat": 0.0, "lon": -77.02668616666666, "is_disabled": 0, "is_reserved": 0, "fusion_lon": 0.0, "lat": 38.9548765, "type": "electric_bike", "bike_id": "8c534a4a2dd9ab748b61219a9a5bbf12"}, {"rental_uris": {"android": "https://dc.lft.to/lastmile_qr_scan", "ios": "https://dc.lft.to/lastmile_qr_scan"}, "name": "42402a897d6f5860dd64297775def0e4", "fusion_lat": 0.0, "lon": -76.99221833333333, "is_disabled": 0, "is_reserved": 0, "fusion_lon": 0.0, "lat": 38.895179666666664, "type": "electric_scooter", "bike_id": "42402a897d6f5860dd64297775def0e4"}, {"rental_uris": {"android": "https://dc.lft.to/lastmile_qr_scan", "ios": "https://dc.lft.to/lastmile_qr_scan"}, "name": "c66df1f66101b2a906cf35135013ab1e", "fusion_lat": 0.0, "lon": -77.03170166666666, "is_disabled": 0, "is_reserved": 0, "fusion_lon": 0.0, "lat": 38.88664333333333, "type": "electric_scooter", "bike_id": "c66df1f66101b2a906cf35135013ab1e"}, {"rental_uris": {"android": "https://dc.lft.to/lastmile_qr_scan", "ios": "https://dc.lft.to/lastmile_qr_scan"}, "name": "bf43759b33cf210e3b7553460a1cce07", "fusion_lat": 0.0, "lon": -77.01556966666666, "is_disabled": 0, "is_reserved": 0, "fusion_lon": 0.0, "lat": 38.913695, "type": "electric_scooter", "bike_id": "bf43759b33cf210e3b7553460a1cce07"}, {"rental_uris": {"android": "https://dc.lft.to/lastmile_qr_scan", "ios": "https://dc.lft.to/lastmile_qr_scan"}, "name": "0b99c889811691a3f323ff0d8f004674", "fusion_lat": 0.0, "lon": -77.02221883333333, "is_disabled": 0, "is_reserved": 0, "fusion_lon": 0.0, "lat": 38.89221583333333, "type": "electric_scooter", "bike_id": "0b99c889811691a3f323ff0d8f004674"}, {"rental_uris": {"android": "https://dc.lft.to/lastmile_qr_scan", "ios": "https://dc.lft.to/lastmile_qr_scan"}, "name": "562105cb3dd2228f8841fdb4214c90c8", "fusion_lat": 0.0, "lon": -77.03660183333334, "is_disabled": 0, "is_reserved": 0, "fusion_lon": 0.0, "lat": 38.917311, "type": "electric_scooter", "bike_id": "562105cb3dd2228f8841fdb4214c90c8"}, {"rental_uris": {"android": "https://dc.lft.to/lastmile_qr_scan", "ios": "https://dc.lft.to/lastmile_qr_scan"}, "name": "6294bbe06d85710da2fe3a2c83c56708", "fusion_lat": 0.0, "lon": -77.04171133333334, "is_disabled": 0, "is_reserved": 0, "fusion_lon": 0.0, "lat": 38.90743483333333, "type": "electric_scooter", "bike_id": "6294bbe06d85710da2fe3a2c83c56708"}, {"rental_uris": {"android": "https://dc.lft.to/lastmile_qr_scan", "ios": "https://dc.lft.to/lastmile_qr_scan"}, "name": "9d21071b04c5b87f8cdfbd37c82d6834", "fusion_lat": 0.0, "lon": -77.02156666666667, "is_disabled": 0, "is_reserved": 0, "fusion_lon": 0.0, "lat": 38.926049166666665, "type": "electric_scooter", "bike_id": "9d21071b04c5b87f8cdfbd37c82d6834"}, {"rental_uris": {"android": "https://dc.lft.to/lastmile_qr_scan", "ios": "https://dc.lft.to/lastmile_qr_scan"}, "name": "f5644e15788f129a62205644307ebe4f", "fusion_lat": 0.0, "lon": -77.007634, "is_disabled": 0, "is_reserved": 0, "fusion_lon": 0.0, "lat": 38.900571, "type": "electric_scooter", "bike_id": "f5644e15788f129a62205644307ebe4f"}, {"rental_uris": {"android": "https://dc.lft.to/lastmile_qr_scan", "ios": "https://dc.lft.to/lastmile_qr_scan"}, "name": "bcc8b67cc44355146e96051758eec368", "fusion_lat": 0.0, "lon": -77.0294225, "is_disabled": 0, "is_reserved": 0, "fusion_lon": 0.0, "lat": 38.89829783333333, "type": "electric_scooter", "bike_id": "bcc8b67cc44355146e96051758eec368"}, {"rental_uris": {"android": "https://dc.lft.to/lastmile_qr_scan", "ios": "https://dc.lft.to/lastmile_qr_scan"}, "name": "d8ea206c03b0da1f923e351198fa409e", "fusion_lat": 0.0, "lon": -77.02976883333334, "is_disabled": 0, "is_reserved": 0, "fusion_lon": 0.0, "lat": 38.924577166666666, "type": "electric_scooter", "bike_id": "d8ea206c03b0da1f923e351198fa409e"}, {"rental_uris": {"android": "https://dc.lft.to/lastmile_qr_scan", "ios": "https://dc.lft.to/lastmile_qr_scan"}, "name": "562ef24e7fe63baa4becc1eed55b18fb", "fusion_lat": 0.0, "lon": -77.03747933333334, "is_disabled": 0, "is_reserved": 0, "fusion_lon": 0.0, "lat": 38.90224283333333, "type": "electric_scooter", "bike_id": "562ef24e7fe63baa4becc1eed55b18fb"}, {"rental_uris": {"android": "https://dc.lft.to/lastmile_qr_scan", "ios": "https://dc.lft.to/lastmile_qr_scan"}, "name": "4cade84ad6f05b0db6e4baca1ce8f382", "fusion_lat": 0.0, "lon": -77.036305, "is_disabled": 0, "is_reserved": 0, "fusion_lon": 0.0, "lat": 38.90268916666667, "type": "electric_scooter", "bike_id": "4cade84ad6f05b0db6e4baca1ce8f382"}, {"rental_uris": {"android": "https://dc.lft.to/lastmile_qr_scan", "ios": "https://dc.lft.to/lastmile_qr_scan"}, "name": "87b2484a6a21001bfe1c8bec8a5fc6eb", "fusion_lat": 0.0, "lon": -76.94762333333334, "is_disabled": 0, "is_reserved": 0, "fusion_lon": 0.0, "lat": 38.896282666666664, "type": "electric_bike", "bike_id": "87b2484a6a21001bfe1c8bec8a5fc6eb"}, {"rental_uris": {"android": "https://dc.lft.to/lastmile_qr_scan", "ios": "https://dc.lft.to/lastmile_qr_scan"}, "name": "ea09e6990ba6525a77befbba843876bd", "fusion_lat": 0.0, "lon": -77.04530616666666, "is_disabled": 0, "is_reserved": 0, "fusion_lon": 0.0, "lat": 38.9035805, "type": "electric_scooter", "bike_id": "ea09e6990ba6525a77befbba843876bd"}, {"rental_uris": {"android": "https://dc.lft.to/lastmile_qr_scan", "ios": "https://dc.lft.to/lastmile_qr_scan"}, "name": "1b596fd57904e60e657165707680f526", "fusion_lat": 0.0, "lon": -76.99081816666667, "is_disabled": 0, "is_reserved": 0, "fusion_lon": 0.0, "lat": 38.84290383333333, "type": "electric_scooter", "bike_id": "1b596fd57904e60e657165707680f526"}, {"rental_uris": {"android": "https://dc.lft.to/lastmile_qr_scan", "ios": "https://dc.lft.to/lastmile_qr_scan"}, "name": "2d1a8df79113971b933eeb131311b25c", "fusion_lat": 0.0, "lon": -77.02743683333334, "is_disabled": 0, "is_reserved": 0, "fusion_lon": 0.0, "lat": 38.924104166666666, "type": "electric_scooter", "bike_id": "2d1a8df79113971b933eeb131311b25c"}, {"rental_uris": {"android": "https://dc.lft.to/lastmile_qr_scan", "ios": "https://dc.lft.to/lastmile_qr_scan"}, "name": "73972332c4884a7e1e91ffd32716dadc", "fusion_lat": 0.0, "lon": -76.98460016666667, "is_disabled": 0, "is_reserved": 0, "fusion_lon": 0.0, "lat": 38.893625, "type": "electric_scooter", "bike_id": "73972332c4884a7e1e91ffd32716dadc"}, {"rental_uris": {"android": "https://dc.lft.to/lastmile_qr_scan", "ios": "https://dc.lft.to/lastmile_qr_scan"}, "name": "9912b56deb792e1392405a5c8f603b6c", "fusion_lat": 0.0, "lon": -77.03335883333334, "is_disabled": 0, "is_reserved": 0, "fusion_lon": 0.0, "lat": 38.919227166666666, "type": "electric_scooter", "bike_id": "9912b56deb792e1392405a5c8f603b6c"}, {"rental_uris": {"android": "https://dc.lft.to/lastmile_qr_scan", "ios": "https://dc.lft.to/lastmile_qr_scan"}, "name": "6eae603e435ca550a0cc4ff1283d2eeb", "fusion_lat": 0.0, "lon": -77.00472616666667, "is_disabled": 0, "is_reserved": 0, "fusion_lon": 0.0, "lat": 38.91183983333333, "type": "electric_scooter", "bike_id": "6eae603e435ca550a0cc4ff1283d2eeb"}, {"rental_uris": {"android": "https://dc.lft.to/lastmile_qr_scan", "ios": "https://dc.lft.to/lastmile_qr_scan"}, "name": "ac9d1b5d4aa20d4f0335eaaea983fc27", "fusion_lat": 0.0, "lon": -77.01129783333333, "is_disabled": 0, "is_reserved": 0, "fusion_lon": 0.0, "lat": 38.8708125, "type": "electric_scooter", "bike_id": "ac9d1b5d4aa20d4f0335eaaea983fc27"}, {"rental_uris": {"android": "https://dc.lft.to/lastmile_qr_scan", "ios": "https://dc.lft.to/lastmile_qr_scan"}, "name": "14489572e34378a5c47ae0ede23d4a7a", "fusion_lat": 0.0, "lon": -77.01900566666667, "is_disabled": 0, "is_reserved": 0, "fusion_lon": 0.0, "lat": 38.939204833333335, "type": "electric_scooter", "bike_id": "14489572e34378a5c47ae0ede23d4a7a"}, {"rental_uris": {"android": "https://dc.lft.to/lastmile_qr_scan", "ios": "https://dc.lft.to/lastmile_qr_scan"}, "name": "dceb203a9164e8d572dd96adc949695b", "fusion_lat": 0.0, "lon": -77.02036683333333, "is_disabled": 0, "is_reserved": 0, "fusion_lon": 0.0, "lat": 38.89274266666666, "type": "electric_scooter", "bike_id": "dceb203a9164e8d572dd96adc949695b"}, {"rental_uris": {"android": "https://dc.lft.to/lastmile_qr_scan", "ios": "https://dc.lft.to/lastmile_qr_scan"}, "name": "00cbbfd29fd60e9c5d7e7c2a259c9aef", "fusion_lat": 0.0, "lon": -77.023992, "is_disabled": 0, "is_reserved": 0, "fusion_lon": 0.0, "lat": 38.90747666666667, "type": "electric_scooter", "bike_id": "00cbbfd29fd60e9c5d7e7c2a259c9aef"}, {"rental_uris": {"android": "https://dc.lft.to/lastmile_qr_scan", "ios": "https://dc.lft.to/lastmile_qr_scan"}, "name": "648aa4fad6390bc11eb1d4a48101ee54", "fusion_lat": 0.0, "lon": -77.072442, "is_disabled": 0, "is_reserved": 0, "fusion_lon": 0.0, "lat": 38.9395285, "type": "electric_scooter", "bike_id": "648aa4fad6390bc11eb1d4a48101ee54"}, {"rental_uris": {"android": "https://dc.lft.to/lastmile_qr_scan", "ios": "https://dc.lft.to/lastmile_qr_scan"}, "name": "2f163b777c0341fdb94ee3bd1fd0cdc4", "fusion_lat": 0.0, "lon": -76.93748233333334, "is_disabled": 0, "is_reserved": 0, "fusion_lon": 0.0, "lat": 38.890367499999996, "type": "electric_scooter", "bike_id": "2f163b777c0341fdb94ee3bd1fd0cdc4"}, {"rental_uris": {"android": "https://dc.lft.to/lastmile_qr_scan", "ios": "https://dc.lft.to/lastmile_qr_scan"}, "name": "191e7964da8b6d95693065e32173b425", "fusion_lat": 0.0, "lon": -77.00343833333334, "is_disabled": 0, "is_reserved": 0, "fusion_lon": 0.0, "lat": 38.922708666666665, "type": "electric_scooter", "bike_id": "191e7964da8b6d95693065e32173b425"}, {"rental_uris": {"android": "https://dc.lft.to/lastmile_qr_scan", "ios": "https://dc.lft.to/lastmile_qr_scan"}, "name": "cdc1b59a742d28ec445c3918d316415a", "fusion_lat": 0.0, "lon": -77.00928083333334, "is_disabled": 0, "is_reserved": 0, "fusion_lon": 0.0, "lat": 38.896485166666665, "type": "electric_scooter", "bike_id": "cdc1b59a742d28ec445c3918d316415a"}, {"rental_uris": {"android": "https://dc.lft.to/lastmile_qr_scan", "ios": "https://dc.lft.to/lastmile_qr_scan"}, "name": "54bb0930af22490f3920781d7f0f7354", "fusion_lat": 0.0, "lon": -77.04390583333333, "is_disabled": 0, "is_reserved": 0, "fusion_lon": 0.0, "lat": 38.9236205, "type": "electric_scooter", "bike_id": "54bb0930af22490f3920781d7f0f7354"},