{"data": {"bikes": [{"fusion_lat": 0.0, "name": "73b23ae1749561e7e20dedc5796e2ceb", "is_disabled": 0, "rental_uris": {"android": "https://dc.lft.to/lastmile_qr_scan", "ios": "https://dc.lft.to/lastmile_qr_scan"}, "fusion_lon": 0.0, "lat": 38.908046, "bike_id": "73b23ae1749561e7e20dedc5796e2ceb", "type": "electric_scooter", "is_reserved": 0, "lon": -77.03446633333333}, {"fusion_lat": 0.0, "name": "f3369b1853645ed7a63c15af226f2889", "is_disabled": 0, "rental_uris": {"android": "https://dc.lft.to/lastmile_qr_scan", "ios": "https://dc.lft.to/lastmile_qr_scan"}, "fusion_lon": 0.0, "lat": 38.933508833333335, "bike_id": "f3369b1853645ed7a63c15af226f2889", "type": "electric_scooter", "is_reserved": 0, "lon": -77.0731485}, {"fusion_lat": 0.0, "name": "c57adb4a9fd629f03e0875c37136319d", "is_disabled": 0, "rental_uris": {"android": "https://dc.lft.to/lastmile_qr_scan", "ios": "https://dc.lft.to/lastmile_qr_scan"}, "fusion_lon": 0.0, "lat": 38.92537, "bike_id": "c57adb4a9fd629f03e0875c37136319d", "type": "electric_scooter", "is_reserved": 0, "lon": -77.05242133333333}, {"fusion_lat": 0.0, "name": "2bebe646853edb390bded1f436e7a639", "is_disabled": 0, "rental_uris": {"android": "https://dc.lft.to/lastmile_qr_scan", "ios": "https://dc.lft.to/lastmile_qr_scan"}, "fusion_lon": 0.0, "lat": 38.91240283333333, "bike_id": "2bebe646853edb390bded1f436e7a639", "type": "electric_scooter", "is_reserved": 0, "lon": -77.04479116666667}, {"fusion_lat": 0.0, "name": "2bab8b45a4da226764c179df3be15761", "is_disabled": 0, "rental_uris": {"android": "https://dc.lft.to/lastmile_qr_scan", "ios": "https://dc.lft.to/lastmile_qr_scan"}, "fusion_lon": 0.0, "lat": 38.963856666666665, "bike_id": "2bab8b45a4da226764c179df3be15761", "type": "electric_bike", "is_reserved": 0, "lon": -76.95041483333333}, {"fusion_lat": 0.0, "name": "e5016ce63ecaf14ada76fe074ee665a6", "is_disabled": 0, "rental_uris": {"android": "https://dc.lft.to/lastmile_qr_scan", "ios": "https://dc.lft.to/lastmile_qr_scan"}, "fusion_lon": 0.0, "lat": 38.918466333333335, "bike_id": "e5016ce63ecaf14ada76fe074ee665a6", "type": "electric_scooter", "is_reserved": 0, "lon": -77.03539816666667}, {"fusion_lat": 0.0, "name": "194df8cb731edf362715e1a78dd27022", "is_disabled": 0, "rental_uris": {"android": "https://dc.lft.to/lastmile_qr_scan", "ios": "https://dc.lft.to/lastmile_qr_scan"}, "fusion_lon": 0.0, "lat": 38.8921965, "bike_id": "194df8cb731edf362715e1a78dd27022", "type": "electric_scooter", "is_reserved": 0, "lon": -76.95745916666667}, {"fusion_lat": 0.0, "name": "efbf37423ae1071870c52c79e14ed361", "is_disabled": 0, "rental_uris": {"android": "https://dc.lft.to/lastmile_qr_scan", "ios": "https://dc.lft.to/lastmile_qr_scan"}, "fusion_lon": 0.0, "lat": 38.89572583333333, "bike_id": "efbf37423ae1071870c52c79e14ed361", "type": "electric_scooter", "is_reserved": 0, "lon": -76.98323066666667}, {"fusion_lat": 0.0, "name": "ce37b83efc0368336b7ba017d13730da", "is_disabled": 0, "rental_uris": {"android": "https://dc.lft.to/lastmile_qr_scan", "ios": "https://dc.lft.to/lastmile_qr_scan"}, "fusion_lon": 0.0, "lat": 38.91706633333333, "bike_id": "ce37b83efc0368336b7ba017d13730da", "type": "electric_scooter", "is_reserved": 0, "lon": -77.02419883333333}, {"fusion_lat": 0.0, "name": "8363d29d852290660825db1d84c660e0", "is_disabled": 0, "rental_uris": {"android": "https://dc.lft.to/lastmile_qr_scan", "ios": "https://dc.lft.to/lastmile_qr_scan"}, "fusion_lon": 0.0, "lat": 38.911173, "bike_id": "8363d29d852290660825db1d84c660e0", "type": "electric_scooter", "is_reserved": 0, "lon": -77.01879666666666}, {"fusion_lat": 0.0, "name": "3d57d9569d37ee3dc6ad3e85edc75f51", "is_disabled": 0, "rental_uris": {"android": "https://dc.lft.to/lastmile_qr_scan", "ios": "https://dc.lft.to/lastmile_qr_scan"}, "fusion_lon": 0.0, "lat": 38.91121166666667, "bike_id": "3d57d9569d37ee3dc6ad3e85edc75f51", "type": "electric_scooter", "is_reserved": 0, "lon": -77.043777}, {"fusion_lat": 0.0, "name": "4653dce325479a2b28315cdb97ceacbf", "is_disabled": 0, "rental_uris": {"android": "https://dc.lft.to/lastmile_qr_scan", "ios": "https://dc.lft.to/lastmile_qr_scan"}, "fusion_lon": 0.0, "lat": 38.9062225, "bike_id": "4653dce325479a2b28315cdb97ceacbf", "type": "electric_scooter", "is_reserved": 0, "lon": -77.0260785}, {"fusion_lat": 0.0, "name": "e2cbef9b74b93ab76ad198f08cfc52ed", "is_disabled": 0, "rental_uris": {"android": "https://dc.lft.to/lastmile_qr_scan", "ios": "https://dc.lft.to/lastmile_qr_scan"}, "fusion_lon": 0.0, "lat": 38.9523785, "bike_id": "e2cbef9b74b93ab76ad198f08cfc52ed", "type": "electric_bike", "is_reserved": 0, "lon": -76.97959433333334}, {"fusion_lat": 0.0, "name": "f349945bfe3394fd69bec62f13fc176a", "is_disabled": 0, "rental_uris": {"android": "https://dc.lft.to/lastmile_qr_scan", "ios": "https://dc.lft.to/lastmile_qr_scan"}, "fusion_lon": 0.0, "lat": 38.91633216666666, "bike_id": "f349945bfe3394fd69bec62f13fc176a", "type": "electric_scooter", "is_reserved": 0, "lon": -77.029717}, {"fusion_lat": 0.0, "name": "dbf7e79f31b5ea16a6fc0494b5a90249", "is_disabled": 0, "rental_uris": {"android": "https://dc.lft.to/lastmile_qr_scan", "ios": "https://dc.lft.to/lastmile_qr_scan"}, "fusion_lon": 0.0, "lat": 38.880151833333336, "bike_id": "dbf7e79f31b5ea16a6fc0494b5a90249", "type": "electric_scooter", "is_reserved": 0, "lon": -76.980734}, {"fusion_lat": 0.0, "name": "19080dc45e70d39db14665eed44c89b1", "is_disabled": 0, "rental_uris": {"android": "https://dc.lft.to/lastmile_qr_scan", "ios": "https://dc.lft.to/lastmile_qr_scan"}, "fusion_lon": 0.0, "lat": 38.9024415, "bike_id": "19080dc45e70d39db14665eed44c89b1", "type": "electric_scooter", "is_reserved": 0, "lon": -77.00203166666667}, {"fusion_lat": 0.0, "name": "b16ba67ecb8a7f47b440d57a36ac0689", "is_disabled": 0, "rental_uris": {"android": "https://dc.lft.to/lastmile_qr_scan", "ios": "https://dc.lft.to/lastmile_qr_scan"}, "fusion_lon": 0.0, "lat": 38.916949, "bike_id": "b16ba67ecb8a7f47b440d57a36ac0689", "type": "electric_scooter", "is_reserved": 0, "lon": -77.03748633333333}, {"fusion_lat": 0.0, "name": "2e5d5561e0b019bc635b269d843db0a6", "is_disabled": 0, "rental_uris": {"android": "https://dc.lft.to/lastmile_qr_scan", "ios": "https://dc.lft.to/lastmile_qr_scan"}, "fusion_lon": 0.0, "lat": 38.90666233333334, "bike_id": "2e5d5561e0b019bc635b269d843db0a6", "type": "electric_scooter", "is_reserved": 0, "lon": -77.022303}, {"fusion_lat": 0.0, "name": "164064973c98451d70ea903e25fb3a0f", "is_disabled": 0, "rental_uris": {"android": "https://dc.lft.to/lastmile_qr_scan", "ios": "https://dc.lft.to/lastmile_qr_scan"}, "fusion_lon": 0.0, "lat": 38.91749, "bike_id": "164064973c98451d70ea903e25fb3a0f", "type": "electric_scooter", "is_reserved": 0, "lon": -77.06941183333333}, {"fusion_lat": 0.0, "name": "443facc3069c2a9e7722bcc0d0b1c912", "is_disabled": 0, "rental_uris": {"android": "https://dc.lft.to/lastmile_qr_scan", "ios": "https://dc.lft.to/lastmile_qr_scan"}, "fusion_lon": 0.0, "lat": 38.922976166666665, "bike_id": "443facc3069c2a9e7722bcc0d0b1c912", "type": "electric_scooter", "is_reserved": 0, "lon": -76.95595333333333}, {"fusion_lat": 0.0, "name": "cb48d717cad6bc0170eb941fc1cba5a1", "is_disabled": 0, "rental_uris": {"android": "https://dc.lft.to/lastmile_qr_scan", "ios": "https://dc.lft.to/lastmile_qr_scan"}, "fusion_lon": 0.0, "lat": 38.897654333333335, "bike_id": "cb48d717cad6bc0170eb941fc1cba5a1", "type": "electric_scooter", "is_reserved": 0, "lon": -76.984696}, {"fusion_lat": 0.0, "name": "50260de79e5c047fef6f7c92cfe05308", "is_disabled": 0, "rental_uris": {"android": "https://dc.lft.to/lastmile_qr_scan", "ios": "https://dc.lft.to/lastmile_qr_scan"}, "fusion_lon": 0.0, "lat": 38.8873235, "bike_id": "50260de79e5c047fef6f7c92cfe05308", "type": "electric_scooter", "is_reserved": 0, "lon": -77.02585416666666}, {"fusion_lat": 0.0, "name": "8927cbb5d600fcb596603931deaab337", "is_disabled": 0, "rental_uris": {"android": "https://dc.lft.to/lastmile_qr_scan", "ios": "https://dc.lft.to/lastmile_qr_scan"}, "fusion_lon": 0.0, "lat": 38.943262833333335, "bike_id": "8927cbb5d600fcb596603931deaab337", "type": "electric_scooter", "is_reserved": 0, "lon": -77.06133983333334}, {"fusion_lat": 0.0, "name": "080c96b120bcf9e61c86d2e7ed613ebc", "is_disabled": 0, "rental_uris": {"android": "https://dc.lft.to/lastmile_qr_scan", "ios": "https://dc.lft.to/lastmile_qr_scan"}, "fusion_lon": 0.0, "lat": 38.87368283333333, "bike_id": "080c96b120bcf9e61c86d2e7ed613ebc", "type": "electric_scooter", "is_reserved": 0, "lon": -77.00055266666666}, {"fusion_lat": 0.0, "name": "49235ae7e4f0605aa5421b1f6e60e702", "is_disabled": 0, "rental_uris": {"android": "https://dc.lft.to/lastmile_qr_scan", "ios": "https://dc.lft.to/lastmile_qr_scan"}, "fusion_lon": 0.0, "lat": 38.919128666666666, "bike_id": "49235ae7e4f0605aa5421b1f6e60e702", "type": "electric_scooter", "is_reserved": 0, "lon": -77.02734566666666}, {"fusion_lat": 0.0, "name": "5b1defd69ef46aa317dc25f92ff28e64", "is_disabled": 0, "rental_uris": {"android": "https://dc.lft.to/lastmile_qr_scan", "ios": "https://dc.lft.to/lastmile_qr_scan"}, "fusion_lon": 0.0, "lat": 38.8774685, "bike_id": "5b1defd69ef46aa317dc25f92ff28e64", "type": "electric_scooter", "is_reserved": 0, "lon": -76.99668}, {"fusion_lat": 0.0, "name": "1ded217194def8baa744ff16f1917729", "is_disabled": 0, "rental_uris": {"android": "https://dc.lft.to/lastmile_qr_scan", "ios": "https://dc.lft.to/lastmile_qr_scan"}, "fusion_lon": 0.0, "lat": 38.917102, "bike_id": "1ded217194def8baa744ff16f1917729", "type": "electric_scooter", "is_reserved": 0, "lon": -77.0387055}, {"fusion_lat": 0.0, "name": "154c0e7fa27fa5d2e7fad6d1249a0721", "is_disabled": 0, "rental_uris": {"android": "https://dc.lft.to/lastmile_qr_scan", "ios": "https://dc.lft.to/lastmile_qr_scan"}, "fusion_lon": 0.0, "lat": 38.919205833333336, "bike_id": "154c0e7fa27fa5d2e7fad6d1249a0721", "type": "electric_scooter", "is_reserved": 0, "lon": -77.0240385}, {"fusion_lat": 0.0, "name": "09a4ae5068f2e39d85c6fcb6b5fdce5f", "is_disabled": 0, "rental_uris": {"android": "https://dc.lft.to/lastmile_qr_scan", "ios": "https://dc.lft.to/lastmile_qr_scan"}, "fusion_lon": 0.0, "lat": 38.900169166666664, "bike_id": "09a4ae5068f2e39d85c6fcb6b5fdce5f", "type": "electric_scooter", "is_reserved": 0, "lon": -77.0118165}, {"fusion_lat": 0.0, "name": "18eb52105b63f9ece65055fc33ad8f77", "is_disabled": 0, "rental_uris": {"android": "https://dc.lft.to/lastmile_qr_scan", "ios": "https://dc.lft.to/lastmile_qr_scan"}, "fusion_lon": 0.0, "lat": 39.0342245, "bike_id": "18eb52105b63f9ece65055fc33ad8f77", "type": "electric_bike", "is_reserved": 0, "lon": -77.04294883333333}, {"fusion_lat": 0.0, "name": "6acba9c11ef98231db73f12eb88d9092", "is_disabled": 0, "rental_uris": {"android": "https://dc.lft.to/lastmile_qr_scan", "ios": "https://dc.lft.to/lastmile_qr_scan"}, "fusion_lon": 0.0, "lat": 38.882993, "bike_id": "6acba9c11ef98231db73f12eb88d9092", "type": "electric_scooter", "is_reserved": 0, "lon": -77.0174455}, {"fusion_lat": 0.0, "name": "ffbc8ebca5d2c3c6ec6e34a3370ac1f9", "is_disabled": 0, "rental_uris": {"android": "https://dc.lft.to/lastmile_qr_scan", "ios": "https://dc.lft.to/lastmile_qr_scan"}, "fusion_lon": 0.0, "lat": 38.874859666666666, "bike_id": "ffbc8ebca5d2c3c6ec6e34a3370ac1f9", "type": "electric_scooter", "is_reserved": 0, "lon": -77.00601833333333}, {"fusion_lat": 0.0, "name": "2a9459d9eea9cf93ce4c4f697d065cef", "is_disabled": 0, "rental_uris": {"android": "https://dc.lft.to/lastmile_qr_scan", "ios": "https://dc.lft.to/lastmile_qr_scan"}, "fusion_lon": 0.0, "lat": 38.85367933333333, "bike_id": "2a9459d9eea9cf93ce4c4f697d065cef", "type": "electric_bike", "is_reserved": 0, "lon": -77.11504433333333}, {"fusion_lat": 0.0, "name": "c680b41d318b0fd523c14959da941f30", "is_disabled": 0, "rental_uris": {"android": "https://dc.lft.to/lastmile_qr_scan", "ios": "https://dc.lft.to/lastmile_qr_scan"}, "fusion_lon": 0.0, "lat": 38.91682933333333, "bike_id": "c680b41d318b0fd523c14959da941f30", "type": "electric_scooter", "is_reserved": 0, "lon": -77.030357}, {"fusion_lat": 0.0, "name": "f355c943a40f28399cd4fc9eb1f28323", "is_disabled": 0, "rental_uris": {"android": "https://dc.lft.to/lastmile_qr_scan", "ios": "https://dc.lft.to/lastmile_qr_scan"}, "fusion_lon": 0.0, "lat": 38.833125833333334, "bike_id": "f355c943a40f28399cd4fc9eb1f28323", "type": "electric_bike", "is_reserved": 0, "lon": -77.04178683333333}, {"fusion_lat": 0.0, "name": "e7459e9918713a06b64d8f81cd62e3b3", "is_disabled": 0, "rental_uris": {"android": "https://dc.lft.to/lastmile_qr_scan", "ios": "https://dc.lft.to/lastmile_qr_scan"}, "fusion_lon": 0.0, "lat": 38.8656395, "bike_id": "e7459e9918713a06b64d8f81cd62e3b3", "type": "electric_bike", "is_reserved": 0, "lon": -76.97335616666666}, {"fusion_lat": 0.0, "name": "fd967816ba719e4ba35712c25a54ed75", "is_disabled": 0, "rental_uris": {"android": "https://dc.lft.to/lastmile_qr_scan", "ios": "https://dc.lft.to/lastmile_qr_scan"}, "fusion_lon": 0.0, "lat": 38.94535916666667, "bike_id": "fd967816ba719e4ba35712c25a54ed75", "type": "electric_scooter", "is_reserved": 0, "lon": -77.01692983333334}, {"fusion_lat": 0.0, "name": "8d34eebc3e2791bd5d2b38f0556aca85", "is_disabled": 0, "rental_uris": {"android": "https://dc.lft.to/lastmile_qr_scan", "ios": "https://dc.lft.to/lastmile_qr_scan"}, "fusion_lon": 0.0, "lat": 38.90074216666667, "bike_id": "8d34eebc3e2791bd5d2b38f0556aca85", "type": "electric_scooter", "is_reserved": 0, "lon": -77.0161145}, {"fusion_lat": 0.0, "name": "6811f2fc36a224c4cdc1e3a54b9aef4d", "is_disabled": 0, "rental_uris": {"android": "https://dc.lft.to/lastmile_qr_scan", "ios": "https://dc.lft.to/lastmile_qr_scan"}, "fusion_lon": 0.0, "lat": 38.8994115, "bike_id": "6811f2fc36a224c4cdc1e3a54b9aef4d", "type": "electric_scooter", "is_reserved": 0, "lon": -77.029514}, {"fusion_lat": 0.0, "name": "464cd1bfa172154c543380666b4068d4", "is_disabled": 0, "rental_uris": {"android": "https://dc.lft.to/lastmile_qr_scan", "ios": "https://dc.lft.to/lastmile_qr_scan"}, "fusion_lon": 0.0, "lat": 38.8788845, "bike_id": "464cd1bfa172154c543380666b4068d4", "type": "electric_scooter", "is_reserved": 0, "lon": -77.00574333333333}, {"fusion_lat": 0.0, "name": "c46cecf015bdbef0970d41c5367e4bc7", "is_disabled": 0, "rental_uris": {"android": "https://dc.lft.to/lastmile_qr_scan", "ios": "https://dc.lft.to/lastmile_qr_scan"}, "fusion_lon": 0.0, "lat": 38.90035016666667, "bike_id": "c46cecf015bdbef0970d41c5367e4bc7", "type": "electric_scooter", "is_reserved": 0, "lon": -77.026128}, {"fusion_lat": 0.0, "name": "84bdca0fbbf56285d4574c18ee3675be", "is_disabled": 0, "rental_uris": {"android": "https://dc.lft.to/lastmile_qr_scan", "ios": "https://dc.lft.to/lastmile_qr_scan"}, "fusion_lon": 0.0, "lat": 38.91360183333333, "bike_id": "84bdca0fbbf56285d4574c18ee3675be", "type": "electric_scooter", "is_reserved": 0, "lon": -77.020558}, {"fusion_lat": 0.0, "name": "33d29427304ee445604596ebbc68418e", "is_disabled": 0, "rental_uris": {"android": "https://dc.lft.to/lastmile_qr_scan", "ios": "https://dc.lft.to/lastmile_qr_scan"}, "fusion_lon": 0.0, "lat": 38.92505883333333, "bike_id": "33d29427304ee445604596ebbc68418e", "type": "electric_scooter", "is_reserved": 0, "lon": -77.03795783333334}, {"fusion_lat": 0.0, "name": "e06745386c1e5698f865e751db8000d1", "is_disabled": 0, "rental_uris": {"android": "https://dc.lft.to/lastmile_qr_scan", "ios": "https://dc.lft.to/lastmile_qr_scan"}, "fusion_lon": 0.0, "lat": 39.09037216666667, "bike_id": "e06745386c1e5698f865e751db8000d1", "type": "electric_bike", "is_reserved": 0, "lon": -77.15879216666667}, {"fusion_lat": 0.0, "name": "9dce57082d345d7fde3e5502924c0e4f", "is_disabled": 0, "rental_uris": {"android": "https://dc.lft.to/lastmile_qr_scan", "ios": "https://dc.lft.to/lastmile_qr_scan"}, "fusion_lon": 0.0, "lat": 38.92652983333333, "bike_id": "9dce57082d345d7fde3e5502924c0e4f", "type": "electric_scooter", "is_reserved": 0, "lon": -77.03843316666666}, {"fusion_lat": 0.0, "name": "b4f9abcb4c11c1601d9d7af60f9bb323", "is_disabled": 0, "rental_uris": {"android": "https://dc.lft.to/lastmile_qr_scan", "ios": "https://dc.lft.to/lastmile_qr_scan"}, "fusion_lon": 0.0, "lat": 38.89324466666667, "bike_id": "b4f9abcb4c11c1601d9d7af60f9bb323", "type": "electric_bike", "is_reserved": 0, "lon": -76.951231}, {"fusion_lat": 0.0, "name": "cf3c147d6f9cadd4d03eb086dd647df8", "is_disabled": 0, "rental_uris": {"android": "https://dc.lft.to/lastmile_qr_scan", "ios": "https://dc.lft.to/lastmile_qr_scan"}, "fusion_lon": 0.0, "lat": 38.9096545, "bike_id": "cf3c147d6f9cadd4d03eb086dd647df8", "type": "electric_scooter", "is_reserved": 0, "lon": -77.04841}, {"fusion_lat": 0.0, "name": "be15a41407e1b785305f58b803653006", "is_disabled": 0, "rental_uris": {"android": "https://dc.lft.to/lastmile_qr_scan", "ios": "https://dc.lft.to/lastmile_qr_scan"}, "fusion_lon": 0.0, "lat": 38.93957966666667, "bike_id": "be15a41407e1b785305f58b803653006", "type": "electric_scooter", "is_reserved": 0, "lon": -77.0328495}, {"fusion_lat": 0.0, "name": "ba9d900f181add59a5a558166f220f71", "is_disabled": 0, "rental_uris": {"android": "https://dc.lft.to/lastmile_qr_scan", "ios": "https://dc.lft.to/lastmile_qr_scan"}, "fusion_lon": 0.0, "lat": 38.93111016666667, "bike_id": "ba9d900f181add59a5a558166f220f71", "type": "electric_scooter", "is_reserved": 0, "lon": -77.02091166666666}, {"fusion_lat": 0.0, "name": "983f6c52af4abb3a61d7d721c678aa3f", "is_disabled": 0, "rental_uris": {"android": "https://dc.lft.to/lastmile_qr_scan", "ios": "https://dc.lft.to/lastmile_qr_scan"}, "fusion_lon": 0.0, "lat": 38.828001, "bike_id": "983f6c52af4abb3a61d7d721c678aa3f", "type": "electric_bike", "is_reserved": 0, "lon": -77.1248895}, {"fusion_lat": 0.0, "name": "e1e516e7ac3d7d5793efb06337eb4e4a", "is_disabled": 0, "rental_uris": {"android": "https://dc.lft.to/lastmile_qr_scan", "ios": "https://dc.lft.to/lastmile_qr_scan"}, "fusion_lon": 0.0, "lat": 38.88522416666667, "bike_id": "e1e516e7ac3d7d5793efb06337eb4e4a", "type": "electric_scooter", "is_reserved": 0, "lon": -76.97715033333333}, {"fusion_lat": 0.0, "name": "fd7bb41e1568b68b23689bc7213a285e", "is_disabled": 0, "rental_uris": {"android": "https://dc.lft.to/lastmile_qr_scan", "ios": "https://dc.lft.to/lastmile_qr_scan"}, "fusion_lon": 0.0, "lat": 38.9062535, "bike_id": "fd7bb41e1568b68b23689bc7213a285e", "type": "electric_scooter", "is_reserved": 0, "lon": -77.02607133333333}, {"fusion_lat": 0.0, "name": "41cf69eda136e4b84d2612d6a49c5a88", "is_disabled": 0, "rental_uris": {"android": "https://dc.lft.to/lastmile_qr_scan", "ios": "https://dc.lft.to/lastmile_qr_scan"}, "fusion_lon": 0.0, "lat": 38.89226383333333, "bike_id": "41cf69eda136e4b84d2612d6a49c5a88", "type": "electric_scooter", "is_reserved": 0, "lon": -77.02660016666667}, {"fusion_lat": 0.0, "name": "534caa8e57989e04e681584daca29340", "is_disabled": 0, "rental_uris": {"android": "https://dc.lft.to/lastmile_qr_scan", "ios": "https://dc.lft.to/lastmile_qr_scan"}, "fusion_lon": 0.0, "lat": 38.897428833333336, "bike_id": "534caa8e57989e04e681584daca29340", "type": "electric_scooter", "is_reserved": 0, "lon": -77.00371616666666}, {"fusion_lat": 0.0, "name": "f5ca678fb3de03e50a7ef260da462304", "is_disabled": 0, "rental_uris": {"android": "https://dc.lft.to/lastmile_qr_scan", "ios": "https://dc.lft.to/lastmile_qr_scan"}, "fusion_lon": 0.0, "lat": 38.9112235, "bike_id": "f5ca678fb3de03e50a7ef260da462304", "type": "electric_scooter", "is_reserved": 0, "lon": -77.08135133333333}, {"fusion_lat": 0.0, "name": "3d60d11017073dd74e4789a69c5b70ad", "is_disabled": 0, "rental_uris": {"android": "https://dc.lft.to/lastmile_qr_scan", "ios": "https://dc.lft.to/lastmile_qr_scan"}, "fusion_lon": 0.0, "lat": 38.9077645, "bike_id": "3d60d11017073dd74e4789a69c5b70ad", "type": "electric_scooter", "is_reserved": 0, "lon": -77.03830366666666}, {"fusion_lat": 0.0, "name": "4f5b3252658adb3d468620d945f82c18", "is_disabled": 0, "rental_uris": {"android": "https://dc.lft.to/lastmile_qr_scan", "ios": "https://dc.lft.to/lastmile_qr_scan"}, "fusion_lon": 0.0, "lat": 38.913248333333335, "bike_id": "4f5b3252658adb3d468620d945f82c18", "type": "electric_scooter", "is_reserved": 0, "lon": -77.019673}, {"fusion_lat": 0.0, "name": "6fc0c31fb56a0b29ef7ed46e9ccca3ae", "is_disabled": 0, "rental_uris": {"android": "https://dc.lft.to/lastmile_qr_scan", "ios": "https://dc.lft.to/lastmile_qr_scan"}, "fusion_lon": 0.0, "lat": 38.84422033333333, "bike_id": "6fc0c31fb56a0b29ef7ed46e9ccca3ae", "type": "electric_scooter", "is_reserved": 0, "lon": -76.99783266666667}, {"fusion_lat": 0.0, "name": "12acd672e6de2f58d54866e943c960b3", "is_disabled": 0, "rental_uris": {"android": "https://dc.lft.to/lastmile_qr_scan", "ios": "https://dc.lft.to/lastmile_qr_scan"}, "fusion_lon": 0.0, "lat": 38.92247183333333, "bike_id": "12acd672e6de2f58d54866e943c960b3", "type": "electric_scooter", "is_reserved": 0, "lon": -77.042537}, {"fusion_lat": 0.0, "name": "1cd756a7ba9a1bd49ade658381be8acc", "is_disabled": 0, "rental_uris": {"android": "https://dc.lft.to/lastmile_qr_scan", "ios": "https://dc.lft.to/lastmile_qr_scan"}, "fusion_lon": 0.0, "lat": 38.8739725, "bike_id": "1cd756a7ba9a1bd49ade658381be8acc", "type": "electric_scooter", "is_reserved": 0, "lon": -77.01455533333333}, {"fusion_lat": 0.0, "name": "3bcb95efdf109aeba0d81fe92b4cabb0", "is_disabled": 0, "rental_uris": {"android": "https://dc.lft.to/lastmile_qr_scan", "ios": "https://dc.lft.to/lastmile_qr_scan"}, "fusion_lon": 0.0, "lat": 38.8876525, "bike_id": "3bcb95efdf109aeba0d81fe92b4cabb0", "type": "electric_scooter", "is_reserved": 0, "lon": -77.01305016666667}, {"fusion_lat": 0.0, "name": "23cd1879742387f2271cdbe6d047f12f", "is_disabled": 0, "rental_uris": {"android": "https://dc.lft.to/lastmile_qr_scan", "ios": "https://dc.lft.to/lastmile_qr_scan"}, "fusion_lon": 0.0, "lat": 38.917539166666664, "bike_id": "23cd1879742387f2271cdbe6d047f12f", "type": "electric_scooter", "is_reserved": 0, "lon": -77.0121955}, {"fusion_lat": 0.0, "name": "601f5a3d6b0e3e5ca3dbb0deb43e1dad", "is_disabled": 0, "rental_uris": {"android": "https://dc.lft.to/lastmile_qr_scan", "ios": "https://dc.lft.to/lastmile_qr_scan"}, "fusion_lon": 0.0, "lat": 38.9014885, "bike_id": "601f5a3d6b0e3e5ca3dbb0deb43e1dad", "type": "electric_scooter", "is_reserved": 0, "lon": -77.04179233333333}, {"fusion_lat": 0.0, "name": "2fbec2b125a4b9c58a51ae683f9cca1b", "is_disabled": 0, "rental_uris": {"android": "https://dc.lft.to/lastmile_qr_scan", "ios": "https://dc.lft.to/lastmile_qr_scan"}, "fusion_lon": 0.0, "lat": 38.894810666666665, "bike_id": "2fbec2b125a4b9c58a51ae683f9cca1b", "type": "electric_scooter", "is_reserved": 0, "lon": -77.02140866666667}, {"fusion_lat": 0.0, "name": "d129134e526950de761f9ecd8f6fa635", "is_disabled": 0, "rental_uris": {"android": "https://dc.lft.to/lastmile_qr_scan", "ios": "https://dc.lft.to/lastmile_qr_scan"}, "fusion_lon": 0.0, "lat": 38.88160366666666, "bike_id": "d129134e526950de761f9ecd8f6fa635", "type": "electric_scooter", "is_reserved": 0, "lon": -77.02773266666667}, {"fusion_lat": 0.0, "name": "0c5951ae6101006e61e0bdfdafcb8e1d", "is_disabled": 0, "rental_uris": {"android": "https://dc.lft.to/lastmile_qr_scan", "ios": "https://dc.lft.to/lastmile_qr_scan"}, "fusion_lon": 0.0, "lat": 38.920986666666664, "bike_id": "0c5951ae6101006e61e0bdfdafcb8e1d", "type": "electric_scooter", "is_reserved": 0, "lon": -77.02513533333334}, {"fusion_lat": 0.0, "name": "5191ee9482693acdd72565926cf06545", "is_disabled": 0, "rental_uris": {"android": "https://dc.lft.to/lastmile_qr_scan", "ios": "https://dc.lft.to/lastmile_qr_scan"}, "fusion_lon": 0.0, "lat": 38.887273, "bike_id": "5191ee9482693acdd72565926cf06545", "type": "electric_scooter", "is_reserved": 0, "lon": -76.98359133333334}, {"fusion_lat": 0.0, "name": "d620631a8644f56427fdc6aa1bfd9fcf", "is_disabled": 0, "rental_uris": {"android": "https://dc.lft.to/lastmile_qr_scan", "ios": "https://dc.lft.to/lastmile_qr_scan"}, "fusion_lon": 0.0, "lat": 38.91999466666667, "bike_id": "d620631a8644f56427fdc6aa1bfd9fcf", "type": "electric_scooter", "is_reserved": 0, "lon": -77.032842}, {"fusion_lat": 0.0, "name": "4eb7182254c1084cfc89143bca1a94cf", "is_disabled": 0, "rental_uris": {"android": "https://dc.lft.to/lastmile_qr_scan", "ios": "https://dc.lft.to/lastmile_qr_scan"}, "fusion_lon": 0.0, "lat": 38.915615, "bike_id": "4eb7182254c1084cfc89143bca1a94cf", "type": "electric_scooter", "is_reserved": 0, "lon": -77.0105055}, {"fusion_lat": 0.0, "name": "43cf4b59c5c32170dbdfcbf91ecf7058", "is_disabled": 0, "rental_uris": {"android": "https://dc.lft.to/lastmile_qr_scan", "ios": "https://dc.lft.to/lastmile_qr_scan"}, "fusion_lon": 0.0, "lat": 38.90036333333333, "bike_id": "43cf4b59c5c32170dbdfcbf91ecf7058", "type": "electric_scooter", "is_reserved": 0, "lon": -77.011922}, {"fusion_lat": 0.0, "name": "b91a065bdc52ab3beb43dc14103fa54b", "is_disabled": 0, "rental_uris": {"android": "https://dc.lft.to/lastmile_qr_scan", "ios": "https://dc.lft.to/lastmile_qr_scan"}, "fusion_lon": 0.0, "lat": 38.92075966666667, "bike_id": "b91a065bdc52ab3beb43dc14103fa54b", "type": "electric_bike", "is_reserved": 0, "lon": -76.98948966666667}, {"fusion_lat": 0.0, "name": "5f48e8c046512fb486be86835323701d", "is_disabled": 0, "rental_uris": {"android": "https://dc.lft.to/lastmile_qr_scan", "ios": "https://dc.lft.to/lastmile_qr_scan"}, "fusion_lon": 0.0, "lat": 38.905745333333336, "bike_id": "5f48e8c046512fb486be86835323701d", "type": "electric_scooter", "is_reserved": 0, "lon": -77.00553583333334}, {"fusion_lat": 0.0, "name": "b420dc85e6d40f7fc9667f2984bcabf8", "is_disabled": 0, "rental_uris": {"android": "https://dc.lft.to/lastmile_qr_scan", "ios": "https://dc.lft.to/lastmile_qr_scan"}, "fusion_lon": 0.0, "lat": 38.88740116666666, "bike_id": "b420dc85e6d40f7fc9667f2984bcabf8", "type": "electric_scooter", "is_reserved": 0, "lon": -77.00325066666667}, {"fusion_lat": 0.0, "name": "c6d02c708100e1ea48d609ccf5a3f248", "is_disabled": 0, "rental_uris": {"android": "https://dc.lft.to/lastmile_qr_scan", "ios": "https://dc.lft.to/lastmile_qr_scan"}, "fusion_lon": 0.0, "lat": 38.90372216666667, "bike_id": "c6d02c708100e1ea48d609ccf5a3f248", "type": "electric_scooter", "is_reserved": 0, "lon": -77.01628183333334}, {"fusion_lat": 0.0, "name": "bf987b7afc20d03571791da1b8b90985", "is_disabled": 0, "rental_uris": {"android": "https://dc.lft.to/lastmile_qr_scan", "ios": "https://dc.lft.to/lastmile_qr_scan"}, "fusion_lon": 0.0, "lat": 38.90291583333333, "bike_id": "bf987b7afc20d03571791da1b8b90985", "type": "electric_scooter", "is_reserved": 0, "lon": -77.039503}, {"fusion_lat": 0.0, "name": "52d8458f7ed45e97013c1d63cbb3b6a7", "is_disabled": 0, "rental_uris": {"android": "https://dc.lft.to/lastmile_qr_scan", "ios": "https://dc.lft.to/lastmile_qr_scan"}, "fusion_lon": 0.0, "lat": 38.897205666666665, "bike_id": "52d8458f7ed45e97013c1d63cbb3b6a7", "type": "electric_scooter", "is_reserved": 0, "lon": -77.02755883333333}, {"fusion_lat": 0.0, "name": "6e8e8b460b86f475f60206ecc1da6ab0", "is_disabled": 0, "rental_uris": {"android": "https://dc.lft.to/lastmile_qr_scan", "ios": "https://dc.lft.to/lastmile_qr_scan"}, "fusion_lon": 0.0, "lat": 38.88743766666666, "bike_id": "6e8e8b460b86f475f60206ecc1da6ab0", "type": "electric_scooter", "is_reserved": 0, "lon": -77.01789816666667}, {"fusion_lat": 0.0, "name": "1b0a9023e07383e3c9f6fa375111dadf", "is_disabled": 0, "rental_uris": {"android": "https://dc.lft.to/lastmile_qr_scan", "ios": "https://dc.lft.to/lastmile_qr_scan"}, "fusion_lon": 0.0, "lat": 38.9157785, "bike_id": "1b0a9023e07383e3c9f6fa375111dadf", "type": "electric_scooter", "is_reserved": 0, "lon": -76.98390316666666}, {"fusion_lat": 0.0, "name": "3933af7a02f391939921bf0ddb8fe4cf", "is_disabled": 0, "rental_uris": {"android": "https://dc.lft.to/lastmile_qr_scan", "ios": "https://dc.lft.to/lastmile_qr_scan"}, "fusion_lon": 0.0, "lat": 38.903163166666666, "bike_id": "3933af7a02f391939921bf0ddb8fe4cf", "type": "electric_scooter", "is_reserved": 0, "lon": -77.00582233333333}, {"fusion_lat": 0.0, "name": "611347b109244f924a43c64035b1ceed", "is_disabled": 0, "rental_uris": {"android": "https://dc.lft.to/lastmile_qr_scan", "ios": "https://dc.lft.to/lastmile_qr_scan"}, "fusion_lon": 0.0, "lat": 38.899702, "bike_id": "611347b109244f924a43c64035b1ceed", "type": "electric_scooter", "is_reserved": 0, "lon": -76.98708983333333}, {"fusion_lat": 0.0, "name": "ad8607c07ea3659c38f108782da015db", "is_disabled": 0, "rental_uris": {"android": "https://dc.lft.to/lastmile_qr_scan", "ios": "https://dc.lft.to/lastmile_qr_scan"}, "fusion_lon": 0.0, "lat": 38.94224116666667, "bike_id": "ad8607c07ea3659c38f108782da015db", "type": "electric_scooter", "is_reserved": 0, "lon": -77.0138575}, {"fusion_lat": 0.0, "name": "61e0e2b17b28763621ec9af13750aa31", "is_disabled": 0, "rental_uris": {"android": "https://dc.lft.to/lastmile_qr_scan", "ios": "https://dc.lft.to/lastmile_qr_scan"}, "fusion_lon": 0.0, "lat": 38.90091916666667, "bike_id": "61e0e2b17b28763621ec9af13750aa31", "type": "electric_scooter", "is_reserved": 0, "lon": -77.04765416666666}, {"fusion_lat": 0.0, "name": "00b586d53cd6cfbe5a421501da10bcf3", "is_disabled": 0, "rental_uris": {"android": "https://dc.lft.to/lastmile_qr_scan", "ios": "https://dc.lft.to/lastmile_qr_scan"}, "fusion_lon": 0.0, "lat": 38.8898595, "bike_id": "00b586d53cd6cfbe5a421501da10bcf3", "type": "electric_bike", "is_reserved": 0, "lon": -77.07138333333333}, {"fusion_lat": 0.0, "name": "c014c51ecabffdafd02d56bdc8874722", "is_disabled": 0, "rental_uris": {"android": "https://dc.lft.to/lastmile_qr_scan", "ios": "https://dc.lft.to/lastmile_qr_scan"}, "fusion_lon": 0.0, "lat": 38.93827066666667, "bike_id": "c014c51ecabffdafd02d56bdc8874722", "type": "electric_scooter", "is_reserved": 0, "lon": -76.99189716666666}, {"fusion_lat": 0.0, "name": "014d8fc57084b753a5a1c1bc1f96630f", "is_disabled": 0, "rental_uris": {"android": "https://dc.lft.to/lastmile_qr_scan", "ios": "https://dc.lft.to/lastmile_qr_scan"}, "fusion_lon": 0.0, "lat": 38.903701833333336, "bike_id": "014d8fc57084b753a5a1c1bc1f96630f", "type": "electric_scooter", "is_reserved": 0, "lon": -77.0384365}, {"fusion_lat": 0.0, "name": "c991c4f03ef86fe0497f2a610cd2e75c", "is_disabled": 0, "rental_uris": {"android": "https://dc.lft.to/lastmile_qr_scan", "ios": "https://dc.lft.to/lastmile_qr_scan"}, "fusion_lon": 0.0, "lat": 38.91728783333333, "bike_id": "c991c4f03ef86fe0497f2a610cd2e75c", "type": "electric_scooter", "is_reserved": 0, "lon": -77.02702216666667}, {"fusion_lat": 0.0, "name": "6c02f9e6bebc72c85d68c13927fd0887", "is_disabled": 0, "rental_uris": {"android": "https://dc.lft.to/lastmile_qr_scan", "ios": "https://dc.lft.to/lastmile_qr_scan"}, "fusion_lon": 0.0, "lat": 38.907842, "bike_id": "6c02f9e6bebc72c85d68c13927fd0887", "type": "electric_scooter", "is_reserved": 0, "lon": -77.03525133333333}, {"fusion_lat": 0.0, "name": "b7cb293e74e67d407568250d0e586a85", "is_disabled": 0, "rental_uris": {"android": "https://dc.lft.to/lastmile_qr_scan", "ios": "https://dc.lft.to/lastmile_qr_scan"}, "fusion_lon": 0.0, "lat": 38.919373, "bike_id": "b7cb293e74e67d407568250d0e586a85", "type": "electric_bike", "is_reserved": 0, "lon": -77.22149266666666}, {"fusion_lat": 0.0, "name": "dd836e75da38c242510fb6f43f05d8ff", "is_disabled": 0, "rental_uris": {"android": "https://dc.lft.to/lastmile_qr_scan", "ios": "https://dc.lft.to/lastmile_qr_scan"}, "fusion_lon": 0.0, "lat": 38.9355605, "bike_id": "dd836e75da38c242510fb6f43f05d8ff", "type": "electric_bike", "is_reserved": 0, "lon": -77.03701133333334}, {"fusion_lat": 0.0, "name": "a2a05289881b4a73cb12659ad838fc07", "is_disabled": 0, "rental_uris": {"android": "https://dc.lft.to/lastmile_qr_scan", "ios": "https://dc.lft.to/lastmile_qr_scan"}, "fusion_lon": 0.0, "lat": 38.90477416666667, "bike_id": "a2a05289881b4a73cb12659ad838fc07", "type": "electric_scooter", "is_reserved": 0, "lon": -77.0260395}, {"fusion_lat": 0.0, "name": "f4ccf8a85dff475f4afaf369c6dd4c94", "is_disabled": 0, "rental_uris": {"android": "https://dc.lft.to/lastmile_qr_scan", "ios": "https://dc.lft.to/lastmile_qr_scan"}, "fusion_lon": 0.0, "lat": 38.91749933333333, "bike_id": "f4ccf8a85dff475f4afaf369c6dd4c94", "type": "electric_scooter", "is_reserved": 0, "lon": -77.069348}, {"fusion_lat": 0.0, "name": "1cffab38cd8d1fd69d507e59335221df", "is_disabled": 0, "rental_uris": {"android": "https://dc.lft.to/lastmile_qr_scan", "ios": "https://dc.lft.to/lastmile_qr_scan"}, "fusion_lon": 0.0, "lat": 38.922109166666665, "bike_id": "1cffab38cd8d1fd69d507e59335221df", "type": "electric_scooter", "is_reserved": 0, "lon": -77.04239366666667}, {"fusion_lat": 0.0, "name": "0217995e6841413a91a4dd5e52ddbe25", "is_disabled": 0, "rental_uris": {"android": "https://dc.lft.to/lastmile_qr_scan", "ios": "https://dc.lft.to/lastmile_qr_scan"}, "fusion_lon": 0.0, "lat": 38.909105333333336, "bike_id": "0217995e6841413a91a4dd5e52ddbe25", "type": "electric_scooter", "is_reserved": 0, "lon": -77.04211583333333}, {"fusion_lat": 0.0, "name": "ef853daaa6ff8061fb8c2730a9983d37", "is_disabled": 0, "rental_uris": {"android": "https://dc.lft.to/lastmile_qr_scan", "ios": "https://dc.lft.to/lastmile_qr_scan"}, "fusion_lon": 0.0, "lat": 38.877232166666666, "bike_id": "ef853daaa6ff8061fb8c2730a9983d37", "type": "electric_scooter", "is_reserved": 0, "lon": -77.006053}, {"fusion_lat": 0.0, "name": "5efb76bb7491c1cda3f14395f9a168cf", "is_disabled": 0, "rental_uris": {"android": "https://dc.lft.to/lastmile_qr_scan", "ios": "https://dc.lft.to/lastmile_qr_scan"}, "fusion_lon": 0.0, "lat": 38.916131, "bike_id": "5efb76bb7491c1cda3f14395f9a168cf", "type": "electric_scooter", "is_reserved": 0, "lon": -77.023955}, {"fusion_lat": 0.0, "name": "d5b9ad5efdb3c7b3d8110eaeb831d709", "is_disabled": 0, "rental_uris": {"android": "https://dc.lft.to/lastmile_qr_scan", "ios": "https://dc.lft.to/lastmile_qr_scan"}, "fusion_lon": 0.0, "lat": 38.930591, "bike_id": "d5b9ad5efdb3c7b3d8110eaeb831d709", "type": "electric_scooter", "is_reserved": 0, "lon": -77.03801433333334}, {"fusion_lat": 0.0, "name": "883843245212fa63663cbc74b10e9317", "is_disabled": 0, "rental_uris": {"android": "https://dc.lft.to/lastmile_qr_scan", "ios": "https://dc.lft.to/lastmile_qr_scan"}, "fusion_lon": 0.0, "lat": 38.897293833333336, "bike_id": "883843245212fa63663cbc74b10e9317", "type": "electric_scooter", "is_reserved": 0, "lon": -77.0191475}, {"fusion_lat": 0.0, "name": "5b094f77dc32a7210cfd15b5d7ae0246", "is_disabled": 0, "rental_uris": {"android": "https://dc.lft.to/lastmile_qr_scan", "ios": "https://dc.lft.to/lastmile_qr_scan"}, "fusion_lon": 0.0, "lat": 38.90330433333333, "bike_id": "5b094f77dc32a7210cfd15b5d7ae0246", "type": "electric_scooter", "is_reserved": 0, "lon": -77.04507816666667}, {"fusion_lat": 0.0, "name": "a1fba0b0daa926c9df6468e68167c2bd", "is_disabled": 0, "rental_uris": {"android": "https://dc.lft.to/lastmile_qr_scan", "ios": "https://dc.lft.to/lastmile_qr_scan"}, "fusion_lon": 0.0, "lat": 38.92246633333333, "bike_id": "a1fba0b0daa926c9df6468e68167c2bd", "type": "electric_scooter", "is_reserved": 0, "lon": -77.03088466666667}, {"fusion_lat": 0.0, "name": "e753d83808a8e90bc309d616b2ea5d98", "is_disabled": 0, "rental_uris": {"android": "https://dc.lft.to/lastmile_qr_scan", "ios": "https://dc.lft.to/lastmile_qr_scan"}, "fusion_lon": 0.0, "lat": 38.87769683333333, "bike_id": "e753d83808a8e90bc309d616b2ea5d98", "type": "electric_scooter", "is_reserved": 0, "lon": -77.0034495}, {"fusion_lat": 0.0, "name": "a9c65de924b63933333c982be8531cd9", "is_disabled": 0, "rental_uris": {"android": "https://dc.lft.to/lastmile_qr_scan", "ios": "https://dc.lft.to/lastmile_qr_scan"}, "fusion_lon": 0.0, "lat": 38.908973333333336, "bike_id": "a9c65de924b63933333c982be8531cd9", "type": "electric_scooter", "is_reserved": 0, "lon": -77.04310666666667}, {"fusion_lat": 0.0, "name": "b6b63ee4e8724d930b81e3f233f64c49", "is_disabled": 0, "rental_uris": {"android": "https://dc.lft.to/lastmile_qr_scan", "ios": "https://dc.lft.to/lastmile_qr_scan"}, "fusion_lon": 0.0, "lat": 38.90536216666667, "bike_id": "b6b63ee4e8724d930b81e3f233f64c49", "type": "electric_bike", "is_reserved": 0, "lon": -76.99807583333333}, {"fusion_lat": 0.0, "name": "a7218a74ab5e97906bc56727a854868b", "is_disabled": 0, "rental_uris": {"android": "https://dc.lft.to/lastmile_qr_scan", "ios": "https://dc.lft.to/lastmile_qr_scan"}, "fusion_lon": 0.0, "lat": 38.92321116666667, "bike_id": "a7218a74ab5e97906bc56727a854868b", "type": "electric_scooter", "is_reserved": 0, "lon": -77.04031266666667}, {"fusion_lat": 0.0, "name": "4c0adf02732498ff2b71e86574bfcf7f", "is_disabled": 0, "rental_uris": {"android": "https://dc.lft.to/lastmile_qr_scan", "ios": "https://dc.lft.to/lastmile_qr_scan"}, "fusion_lon": 0.0, "lat": 38.91224066666667, "bike_id": "4c0adf02732498ff2b71e86574bfcf7f", "type": "electric_scooter", "is_reserved": 0, "lon": -77.01896616666667}, {"fusion_lat": 0.0, "name": "fbdc29821e42a3933e15793ef0131926", "is_disabled": 0, "rental_uris": {"android": "https://dc.lft.to/lastmile_qr_scan", "ios": "https://dc.lft.to/lastmile_qr_scan"}, "fusion_lon": 0.0, "lat": 38.89569933333333, "bike_id": "fbdc29821e42a3933e15793ef0131926", "type": "electric_scooter", "is_reserved": 0, "lon": -76.94899266666667}, {"fusion_lat": 0.0, "name": "892d40453e5bada839dba2addea20ccb", "is_disabled": 0, "rental_uris": {"android": "https://dc.lft.to/lastmile_qr_scan", "ios": "https://dc.lft.to/lastmile_qr_scan"}, "fusion_lon": 0.0, "lat": 38.90526066666666, "bike_id": "892d40453e5bada839dba2addea20ccb", "type": "electric_scooter", "is_reserved": 0, "lon": -77.06007183333334}, {"fusion_lat": 0.0, "name": "64ae6e22a0027d86bea87dc3f08cfea5", "is_disabled": 0, "rental_uris": {"android": "https://dc.lft.to/lastmile_qr_scan", "ios": "https://dc.lft.to/lastmile_qr_scan"}, "fusion_lon": 0.0, "lat": 38.87844366666667, "bike_id": "64ae6e22a0027d86bea87dc3f08cfea5", "type": "electric_scooter", "is_reserved": 0, "lon": -77.001125}, {"fusion_lat": 0.0, "name": "0bfd181730daa1ce683a109c2b4f94cb", "is_disabled": 0, "rental_uris": {"android": "https://dc.lft.to/lastmile_qr_scan", "ios": "https://dc.lft.to/lastmile_qr_scan"}, "fusion_lon": 0.0, "lat": 38.927194166666666, "bike_id": "0bfd181730daa1ce683a109c2b4f94cb", "type": "electric_scooter", "is_reserved": 0, "lon": -77.02310683333333}, {"fusion_lat": 0.0, "name": "3dd8587f434cdc65d873e2bd78d45ba8", "is_disabled": 0, "rental_uris": {"android": "https://dc.lft.to/lastmile_qr_scan", "ios": "https://dc.lft.to/lastmile_qr_scan"}, "fusion_lon": 0.0, "lat": 38.8746845, "bike_id": "3dd8587f434cdc65d873e2bd78d45ba8", "type": "electric_scooter", "is_reserved": 0, "lon": -77.004724}, {"fusion_lat": 0.0, "name": "716fab1a7dbe439e121e8f6c8af01513", "is_disabled": 0, "rental_uris": {"android": "https://dc.lft.to/lastmile_qr_scan", "ios": "https://dc.lft.to/lastmile_qr_scan"}, "fusion_lon": 0.0, "lat": 38.87107233333333, "bike_id": "716fab1a7dbe439e121e8f6c8af01513", "type": "electric_scooter", "is_reserved": 0, "lon": -76.96578783333334}, {"fusion_lat": 0.0, "name": "86d377c513739efe120a010d0d209f27", "is_disabled": 0, "rental_uris": {"android": "https://dc.lft.to/lastmile_qr_scan", "ios": "https://dc.lft.to/lastmile_qr_scan"}, "fusion_lon": 0.0, "lat": 38.91258933333334, "bike_id": "86d377c513739efe120a010d0d209f27", "type": "electric_scooter", "is_reserved": 0, "lon": -77.03499883333333}, {"fusion_lat": 0.0, "name": "7cb1fe264e64056bae192acea5d54a42", "is_disabled": 0, "rental_uris": {"android": "https://dc.lft.to/lastmile_qr_scan", "ios": "https://dc.lft.to/lastmile_qr_scan"}, "fusion_lon": 0.0, "lat": 38.921203166666665, "bike_id": "7cb1fe264e64056bae192acea5d54a42", "type": "electric_scooter", "is_reserved": 0, "lon": -77.02549933333333}, {"fusion_lat": 0.0, "name": "f9b8167c84999807cfa2f7705e104c4d", "is_disabled": 0, "rental_uris": {"android": "https://dc.lft.to/lastmile_qr_scan", "ios": "https://dc.lft.to/lastmile_qr_scan"}, "fusion_lon": 0.0, "lat": 38.90217583333333, "bike_id": "f9b8167c84999807cfa2f7705e104c4d", "type": "electric_scooter", "is_reserved": 0, "lon": -77.02148316666667}, {"fusion_lat": 0.0, "name": "27a702bf40ab1eaf04db1f600af045a9", "is_disabled": 0, "rental_uris": {"android": "https://dc.lft.to/lastmile_qr_scan", "ios": "https://dc.lft.to/lastmile_qr_scan"}, "fusion_lon": 0.0, "lat": 38.907404666666665, "bike_id": "27a702bf40ab1eaf04db1f600af045a9", "type": "electric_scooter", "is_reserved": 0, "lon": -77.00507866666666}, {"fusion_lat": 0.0, "name": "d6f33a4bc4799bd27754f1aea5c48603", "is_disabled": 0, "rental_uris": {"android": "https://dc.lft.to/lastmile_qr_scan", "ios": "https://dc.lft.to/lastmile_qr_scan"}, "fusion_lon": 0.0, "lat": 38.906827666666665, "bike_id": "d6f33a4bc4799bd27754f1aea5c48603", "type": "electric_scooter", "is_reserved": 0, "lon": -77.02698866666667}, {"fusion_lat": 0.0, "name": "e3fd11e5aac6c50ed58529ecbbc3184a", "is_disabled": 0, "rental_uris": {"android": "https://dc.lft.to/lastmile_qr_scan", "ios": "https://dc.lft.to/lastmile_qr_scan"}, "fusion_lon": 0.0, "lat": 38.903701, "bike_id": "e3fd11e5aac6c50ed58529ecbbc3184a", "type": "electric_scooter", "is_reserved": 0, "lon": -77.00737333333333}, {"fusion_lat": 0.0, "name": "224086cccbcdc0a0f47842d389f27c4e", "is_disabled": 0, "rental_uris": {"android": "https://dc.lft.to/lastmile_qr_scan", "ios": "https://dc.lft.to/lastmile_qr_scan"}, "fusion_lon": 0.0, "lat": 38.911667, "bike_id": "224086cccbcdc0a0f47842d389f27c4e", "type": "electric_scooter", "is_reserved": 0, "lon": -77.0111575}, {"fusion_lat": 0.0, "name": "7b46ea78e7695f48cf4bc4e33cea119e", "is_disabled": 0, "rental_uris": {"android": "https://dc.lft.to/lastmile_qr_scan", "ios": "https://dc.lft.to/lastmile_qr_scan"}, "fusion_lon": 0.0, "lat": 38.92871366666667, "bike_id": "7b46ea78e7695f48cf4bc4e33cea119e", "type": "electric_scooter", "is_reserved": 0, "lon": -77.0136085}, {"fusion_lat": 0.0, "name": "80b30f9460e5d9ec9da9cb0bb1885ea3", "is_disabled": 0, "rental_uris": {"android": "https://dc.lft.to/lastmile_qr_scan", "ios": "https://dc.lft.to/lastmile_qr_scan"}, "fusion_lon": 0.0, "lat": 38.910024166666666, "bike_id": "80b30f9460e5d9ec9da9cb0bb1885ea3", "type": "electric_scooter", "is_reserved": 0, "lon": -77.038482}, {"fusion_lat": 0.0, "name": "e40dddd9918e17490c88f859fa4235d2", "is_disabled": 0, "rental_uris": {"android": "https://dc.lft.to/lastmile_qr_scan", "ios": "https://dc.lft.to/lastmile_qr_scan"}, "fusion_lon": 0.0, "lat": 38.90374033333333, "bike_id": "e40dddd9918e17490c88f859fa4235d2", "type": "electric_scooter", "is_reserved": 0, "lon": -77.03443033333333}, {"fusion_lat": 0.0, "name": "dcea0d8aa8848ff147c360c52f4fe2b5", "is_disabled": 0, "rental_uris": {"android": "https://dc.lft.to/lastmile_qr_scan", "ios": "https://dc.lft.to/lastmile_qr_scan"}, "fusion_lon": 0.0, "lat": 38.90905166666667, "bike_id": "dcea0d8aa8848ff147c360c52f4fe2b5", "type": "electric_scooter", "is_reserved": 0, "lon": -77.04405683333333}, {"fusion_lat": 0.0, "name": "7c7249f8a1c48aaf10526d852a374b17", "is_disabled": 0, "rental_uris": {"android": "https://dc.lft.to/lastmile_qr_scan", "ios": "https://dc.lft.to/lastmile_qr_scan"}, "fusion_lon": 0.0, "lat": 38.893562333333335, "bike_id": "7c7249f8a1c48aaf10526d852a374b17", "type": "electric_scooter", "is_reserved": 0, "lon": -76.9865905}, {"fusion_lat": 0.0, "name": "1a90b816d97eee81af04acd374624a36", "is_disabled": 0, "rental_uris": {"android": "https://dc.lft.to/lastmile_qr_scan", "ios": "https://dc.lft.to/lastmile_qr_scan"}, "fusion_lon": 0.0, "lat": 38.91631833333334, "bike_id": "1a90b816d97eee81af04acd374624a36", "type": "electric_scooter", "is_reserved": 0, "lon": -77.050765}, {"fusion_lat": 0.0, "name": "a02be7e83d7349cb91f16204bb3191e5", "is_disabled": 0, "rental_uris": {"android": "https://dc.lft.to/lastmile_qr_scan", "ios": "https://dc.lft.to/lastmile_qr_scan"}, "fusion_lon": 0.0, "lat": 38.904861833333335, "bike_id": "a02be7e83d7349cb91f16204bb3191e5", "type": "electric_scooter", "is_reserved": 0, "lon": -76.94963216666666}, {"fusion_lat": 0.0, "name": "5ff4455cb0d3033a0266a5430b287bfc", "is_disabled": 0, "rental_uris": {"android": "https://dc.lft.to/lastmile_qr_scan", "ios": "https://dc.lft.to/lastmile_qr_scan"}, "fusion_lon": 0.0, "lat": 38.90004, "bike_id": "5ff4455cb0d3033a0266a5430b287bfc", "type": "electric_scooter", "is_reserved": 0, "lon": -76.99839083333333}, {"fusion_lat": 0.0, "name": "46d2fbb052ef0873a6f2792b27a4210c", "is_disabled": 0, "rental_uris": {"android": "https://dc.lft.to/lastmile_qr_scan", "ios": "https://dc.lft.to/lastmile_qr_scan"}, "fusion_lon": 0.0, "lat": 38.930164833333336, "bike_id": "46d2fbb052ef0873a6f2792b27a4210c", "type": "electric_scooter", "is_reserved": 0, "lon": -77.03251083333333}, {"fusion_lat": 0.0, "name": "079c8583485419adc781c617d16feaf0", "is_disabled": 0, "rental_uris": {"android": "https://dc.lft.to/lastmile_qr_scan", "ios": "https://dc.lft.to/lastmile_qr_scan"}, "fusion_lon": 0.0, "lat": 38.89219516666667, "bike_id": "079c8583485419adc781c617d16feaf0", "type": "electric_scooter", "is_reserved": 0, "lon": -77.02311916666666}, {"fusion_lat": 0.0, "name": "d999226e9f17f1f65c25fb843a674218", "is_disabled": 0, "rental_uris": {"android": "https://dc.lft.to/lastmile_qr_scan", "ios": "https://dc.lft.to/lastmile_qr_scan"}, "fusion_lon": 0.0, "lat": 38.900257833333335, "bike_id": "d999226e9f17f1f65c25fb843a674218", "type": "electric_scooter", "is_reserved": 0, "lon": -76.99620716666666}, {"fusion_lat": 0.0, "name": "f2454f95f2665d73b0fad5186580d6d5", "is_disabled": 0, "rental_uris": {"android": "https://dc.lft.to/lastmile_qr_scan", "ios": "https://dc.lft.to/lastmile_qr_scan"}, "fusion_lon": 0.0, "lat": 38.93412933333333, "bike_id": "f2454f95f2665d73b0fad5186580d6d5", "type": "electric_scooter", "is_reserved": 0, "lon": -77.022058}, {"fusion_lat": 0.0, "name": "e3d2f8fd4651222d0848a619ab705764", "is_disabled": 0, "rental_uris": {"android": "https://dc.lft.to/lastmile_qr_scan", "ios": "https://dc.lft.to/lastmile_qr_scan"}, "fusion_lon": 0.0, "lat": 38.90545816666667, "bike_id": "e3d2f8fd4651222d0848a619ab705764", "type": "electric_scooter", "is_reserved": 0, "lon": -77.04668416666667}, {"fusion_lat": 0.0, "name": "e4714adda75c240b3a0880bb024a74f8", "is_disabled": 0, "rental_uris": {"android": "https://dc.lft.to/lastmile_qr_scan", "ios": "https://dc.lft.to/lastmile_qr_scan"}, "fusion_lon": 0.0, "lat": 38.9318535, "bike_id": "e4714adda75c240b3a0880bb024a74f8", "type": "electric_scooter", "is_reserved": 0, "lon": -77.03305083333333}, {"fusion_lat": 0.0, "name": "780e5bc04a86c3fb404def224d931e67", "is_disabled": 0, "rental_uris": {"android": "https://dc.lft.to/lastmile_qr_scan", "ios": "https://dc.lft.to/lastmile_qr_scan"}, "fusion_lon": 0.0, "lat": 38.9016485, "bike_id": "780e5bc04a86c3fb404def224d931e67", "type": "electric_scooter", "is_reserved": 0, "lon": -77.02613116666667}, {"fusion_lat": 0.0, "name": "1711854bb4ee6acd3239fb70bd41ad6d", "is_disabled": 0, "rental_uris": {"android": "https://dc.lft.to/lastmile_qr_scan", "ios": "https://dc.lft.to/lastmile_qr_scan"}, "fusion_lon": 0.0, "lat": 38.90962533333333, "bike_id": "1711854bb4ee6acd3239fb70bd41ad6d", "type": "electric_scooter", "is_reserved": 0, "lon": -77.0276305}, {"fusion_lat": 0.0, "name": "ea1d152419c006b7b593489df0b1fbfa", "is_disabled": 0, "rental_uris": {"android": "https://dc.lft.to/lastmile_qr_scan", "ios": "https://dc.lft.to/lastmile_qr_scan"}, "fusion_lon": 0.0, "lat": 38.954215, "bike_id": "ea1d152419c006b7b593489df0b1fbfa", "type": "electric_scooter", "is_reserved": 0, "lon": -77.0276465}, {"fusion_lat": 0.0, "name": "b63d15d61af10103dc0ba61a3d6655e8", "is_disabled": 0, "rental_uris": {"android": "https://dc.lft.to/lastmile_qr_scan", "ios": "https://dc.lft.to/lastmile_qr_scan"}, "fusion_lon": 0.0, "lat": 38.93241616666667, "bike_id": "b63d15d61af10103dc0ba61a3d6655e8", "type": "electric_scooter", "is_reserved": 0, "lon": -77.02976633333333}, {"fusion_lat": 0.0, "name": "921da6548eaef09cbde7b8db43f5bf77", "is_disabled": 0, "rental_uris": {"android": "https://dc.lft.to/lastmile_qr_scan", "ios": "https://dc.lft.to/lastmile_qr_scan"}, "fusion_lon": 0.0, "lat": 38.909749833333336, "bike_id": "921da6548eaef09cbde7b8db43f5bf77", "type": "electric_scooter", "is_reserved": 0, "lon": -77.034218}, {"fusion_lat": 0.0, "name": "df3231b3545c8098d70033a0dab6abdb", "is_disabled": 0, "rental_uris": {"android": "https://dc.lft.to/lastmile_qr_scan", "ios": "https://dc.lft.to/lastmile_qr_scan"}, "fusion_lon": 0.0, "lat": 38.919183333333336, "bike_id": "df3231b3545c8098d70033a0dab6abdb", "type": "electric_scooter", "is_reserved": 0, "lon": -77.03450333333333}, {"fusion_lat": 0.0, "name": "319e7fe9f7013dda3caa42e07027d451", "is_disabled": 0, "rental_uris": {"android": "https://dc.lft.to/lastmile_qr_scan", "ios": "https://dc.lft.to/lastmile_qr_scan"}, "fusion_lon": 0.0, "lat": 38.927881666666664, "bike_id": "319e7fe9f7013dda3caa42e07027d451", "type": "electric_scooter", "is_reserved": 0, "lon": -77.05319033333333}, {"fusion_lat": 0.0, "name": "019097115dbf87452b6fbbdb66630835", "is_disabled": 0, "rental_uris": {"android": "https://dc.lft.to/lastmile_qr_scan", "ios": "https://dc.lft.to/lastmile_qr_scan"}, "fusion_lon": 0.0, "lat": 38.962327333333334, "bike_id": "019097115dbf87452b6fbbdb66630835", "type": "electric_bike", "is_reserved": 0, "lon": -76.92809283333334}, {"fusion_lat": 0.0, "name": "9a28671b8c453174cb53bc78142ce0fe", "is_disabled": 0, "rental_uris": {"android": "https://dc.lft.to/lastmile_qr_scan", "ios": "https://dc.lft.to/lastmile_qr_scan"}, "fusion_lon": 0.0, "lat": 38.90901566666667, "bike_id": "9a28671b8c453174cb53bc78142ce0fe", "type": "electric_scooter", "is_reserved": 0, "lon": -77.04409316666667}, {"fusion_lat": 0.0, "name": "de8e0909a67c176c17f3f08987875a46", "is_disabled": 0, "rental_uris": {"android": "https://dc.lft.to/lastmile_qr_scan", "ios": "https://dc.lft.to/lastmile_qr_scan"}, "fusion_lon": 0.0, "lat": 38.9472155, "bike_id": "de8e0909a67c176c17f3f08987875a46", "type": "electric_scooter", "is_reserved": 0, "lon": -77.027707}, {"fusion_lat": 0.0, "name": "3949506672a83d844112c5593e9ae04d", "is_disabled": 0, "rental_uris": {"android": "https://dc.lft.to/lastmile_qr_scan", "ios": "https://dc.lft.to/lastmile_qr_scan"}, "fusion_lon": 0.0, "lat": 38.86262083333333, "bike_id": "3949506672a83d844112c5593e9ae04d", "type": "electric_bike", "is_reserved": 0, "lon": -76.98352}, {"fusion_lat": 0.0, "name": "f0589c8418dbd40970b067be68a503e9", "is_disabled": 0, "rental_uris": {"android": "https://dc.lft.to/lastmile_qr_scan", "ios": "https://dc.lft.to/lastmile_qr_scan"}, "fusion_lon": 0.0, "lat": 38.92824516666667, "bike_id": "f0589c8418dbd40970b067be68a503e9", "type": "electric_scooter", "is_reserved": 0, "lon": -77.05443266666667}, {"fusion_lat": 0.0, "name": "29d7a3abcdb6bdb946f44badc78ce861", "is_disabled": 0, "rental_uris": {"android": "https://dc.lft.to/lastmile_qr_scan", "ios": "https://dc.lft.to/lastmile_qr_scan"}, "fusion_lon": 0.0, "lat": 38.924613, "bike_id": "29d7a3abcdb6bdb946f44badc78ce861", "type": "electric_scooter", "is_reserved": 0, "lon": -77.03967966666667}, {"fusion_lat": 0.0, "name": "b10625c1de1620c75c0fccf3027e531f", "is_disabled": 0, "rental_uris": {"android": "https://dc.lft.to/lastmile_qr_scan", "ios": "https://dc.lft.to/lastmile_qr_scan"}, "fusion_lon": 0.0, "lat": 38.946781666666666, "bike_id": "b10625c1de1620c75c0fccf3027e531f", "type": "electric_bike", "is_reserved": 0, "lon": -76.95677633333334}, {"fusion_lat": 0.0, "name": "a46277ecc17972bb1eff087d22eed28f", "is_disabled": 0, "rental_uris": {"android": "https://dc.lft.to/lastmile_qr_scan", "ios": "https://dc.lft.to/lastmile_qr_scan"}, "fusion_lon": 0.0, "lat": 38.91414, "bike_id": "a46277ecc17972bb1eff087d22eed28f", "type": "electric_scooter", "is_reserved": 0, "lon": -77.024855}, {"fusion_lat": 0.0, "name": "af8ee03cc72d2f96c18877491b7a2387", "is_disabled": 0, "rental_uris": {"android": "https://dc.lft.to/lastmile_qr_scan", "ios": "https://dc.lft.to/lastmile_qr_scan"}, "fusion_lon": 0.0, "lat": 38.93875333333333, "bike_id": "af8ee03cc72d2f96c18877491b7a2387", "type": "electric_scooter", "is_reserved": 0, "lon": -77.029195}, {"fusion_lat": 0.0, "name": "f64044c76acd6372a454764039b31389", "is_disabled": 0, "rental_uris": {"android": "https://dc.lft.to/lastmile_qr_scan", "ios": "https://dc.lft.to/lastmile_qr_scan"}, "fusion_lon": 0.0, "lat": 38.920314, "bike_id": "f64044c76acd6372a454764039b31389", "type": "electric_scooter", "is_reserved": 0, "lon": -76.98996266666667}, {"fusion_lat": 0.0, "name": "cdce553bc7f60896940accf20c03ee1c", "is_disabled": 0, "rental_uris": {"android": "https://dc.lft.to/lastmile_qr_scan", "ios": "https://dc.lft.to/lastmile_qr_scan"}, "fusion_lon": 0.0, "lat": 38.9205025, "bike_id": "cdce553bc7f60896940accf20c03ee1c", "type": "electric_scooter", "is_reserved": 0, "lon": -77.03412466666667}, {"fusion_lat": 0.0, "name": "108c4f036609f93a544c7da98b59e396", "is_disabled": 0, "rental_uris": {"android": "https://dc.lft.to/lastmile_qr_scan", "ios": "https://dc.lft.to/lastmile_qr_scan"}, "fusion_lon": 0.0, "lat": 38.934499, "bike_id": "108c4f036609f93a544c7da98b59e396", "type": "electric_scooter", "is_reserved": 0, "lon": -77.038688}, {"fusion_lat": 0.0, "name": "f5f6531076426ae42a7961f5a0792905", "is_disabled": 0, "rental_uris": {"android": "https://dc.lft.to/lastmile_qr_scan", "ios": "https://dc.lft.to/lastmile_qr_scan"}, "fusion_lon": 0.0, "lat": 38.89988866666667, "bike_id": "f5f6531076426ae42a7961f5a0792905", "type": "electric_scooter", "is_reserved": 0, "lon": -77.02303833333333}, {"fusion_lat": 0.0, "name": "44ba52484f4e15f71fb7ae2fa042ee8b", "is_disabled": 0, "rental_uris": {"android": "https://dc.lft.to/lastmile_qr_scan", "ios": "https://dc.lft.to/lastmile_qr_scan"}, "fusion_lon": 0.0, "lat": 38.912712, "bike_id": "44ba52484f4e15f71fb7ae2fa042ee8b", "type": "electric_scooter", "is_reserved": 0, "lon": -77.0318975}, {"fusion_lat": 0.0, "name": "799596a47562f734304af53adaba5f4e", "is_disabled": 0, "rental_uris": {"android": "https://dc.lft.to/lastmile_qr_scan", "ios": "https://dc.lft.to/lastmile_qr_scan"}, "fusion_lon": 0.0, "lat": 38.931747333333334, "bike_id": "799596a47562f734304af53adaba5f4e", "type": "electric_scooter", "is_reserved": 0, "lon": -77.05649983333333}, {"fusion_lat": 0.0, "name": "3ce3ba0b8c3b5d1bb13c5c3a3e5da1ce", "is_disabled": 0, "rental_uris": {"android": "https://dc.lft.to/lastmile_qr_scan", "ios": "https://dc.lft.to/lastmile_qr_scan"}, "fusion_lon": 0.0, "lat": 38.90694883333333, "bike_id": "3ce3ba0b8c3b5d1bb13c5c3a3e5da1ce", "type": "electric_scooter", "is_reserved": 0, "lon": -77.07180366666667}, {"fusion_lat": 0.0, "name": "b11ccf75ebb5ae93b073c933b1b037d0", "is_disabled": 0, "rental_uris": {"android": "https://dc.lft.to/lastmile_qr_scan", "ios": "https://dc.lft.to/lastmile_qr_scan"}, "fusion_lon": 0.0, "lat": 38.928519666666666, "bike_id": "b11ccf75ebb5ae93b073c933b1b037d0", "type": "electric_scooter", "is_reserved": 0, "lon": -77.0328955}, {"fusion_lat": 0.0, "name": "a765bd0715045400c83b049d3e899aaa", "is_disabled": 0, "rental_uris": {"android": "https://dc.lft.to/lastmile_qr_scan", "ios": "https://dc.lft.to/lastmile_qr_scan"}, "fusion_lon": 0.0, "lat": 38.902641, "bike_id": "a765bd0715045400c83b049d3e899aaa", "type": "electric_scooter", "is_reserved": 0, "lon": -77.03354466666667}, {"fusion_lat": 0.0, "name": "784726dc2f6d01ca272125764740a539", "is_disabled": 0, "rental_uris": {"android": "https://dc.lft.to/lastmile_qr_scan", "ios": "https://dc.lft.to/lastmile_qr_scan"}, "fusion_lon": 0.0, "lat": 38.9009545, "bike_id": "784726dc2f6d01ca272125764740a539", "type": "electric_scooter", "is_reserved": 0, "lon": -77.05692033333334}, {"fusion_lat": 0.0, "name": "8da88182469782f0669fd754bc6012fb", "is_disabled": 0, "rental_uris": {"android": "https://dc.lft.to/lastmile_qr_scan", "ios": "https://dc.lft.to/lastmile_qr_scan"}, "fusion_lon": 0.0, "lat": 38.9010435, "bike_id": "8da88182469782f0669fd754bc6012fb", "type": "electric_scooter", "is_reserved": 0, "lon": -77.027762}, {"fusion_lat": 0.0, "name": "47403f3cfc7895d27d0c60fb35fe363a", "is_disabled": 0, "rental_uris": {"android": "https://dc.lft.to/lastmile_qr_scan", "ios": "https://dc.lft.to/lastmile_qr_scan"}, "fusion_lon": 0.0, "lat": 38.88496166666667, "bike_id": "47403f3cfc7895d27d0c60fb35fe363a", "type": "electric_scooter", "is_reserved": 0, "lon": -77.00896483333334}, {"fusion_lat": 0.0, "name": "7e25ff627b75192a3abc63cbaf190c8a", "is_disabled": 0, "rental_uris": {"android": "https://dc.lft.to/lastmile_qr_scan", "ios": "https://dc.lft.to/lastmile_qr_scan"}, "fusion_lon": 0.0, "lat": 38.898386, "bike_id": "7e25ff627b75192a3abc63cbaf190c8a", "type": "electric_scooter", "is_reserved": 0, "lon": -77.02814666666667}, {"fusion_lat": 0.0, "name": "f98e5ee5e591951f081a29576d00e076", "is_disabled": 0, "rental_uris": {"android": "https://dc.lft.to/lastmile_qr_scan", "ios": "https://dc.lft.to/lastmile_qr_scan"}, "fusion_lon": 0.0, "lat": 38.896688, "bike_id": "f98e5ee5e591951f081a29576d00e076", "type": "electric_scooter", "is_reserved": 0, "lon": -76.9320865}, {"fusion_lat": 0.0, "name": "105aa347320237fdd47654367c8fdbba", "is_disabled": 0, "rental_uris": {"android": "https://dc.lft.to/lastmile_qr_scan", "ios": "https://dc.lft.to/lastmile_qr_scan"}, "fusion_lon": 0.0, "lat": 38.91104583333333, "bike_id": "105aa347320237fdd47654367c8fdbba", "type": "electric_scooter", "is_reserved": 0, "lon": -77.042007}, {"fusion_lat": 0.0, "name": "8e054af6dedff19bf1337f0bb39153fe", "is_disabled": 0, "rental_uris": {"android": "https://dc.lft.to/lastmile_qr_scan", "ios": "https://dc.lft.to/lastmile_qr_scan"}, "fusion_lon": 0.0, "lat": 38.93256183333333, "bike_id": "8e054af6dedff19bf1337f0bb39153fe", "type": "electric_scooter", "is_reserved": 0, "lon": -77.01915733333334}, {"fusion_lat": 0.0, "name": "bd298d13b8edb6c2da010f4c2e654f7d", "is_disabled": 0, "rental_uris": {"android": "https://dc.lft.to/lastmile_qr_scan", "ios": "https://dc.lft.to/lastmile_qr_scan"}, "fusion_lon": 0.0, "lat": 38.9323855, "bike_id": "bd298d13b8edb6c2da010f4c2e654f7d", "type": "electric_bike", "is_reserved": 0, "lon": -76.97427566666667}, {"fusion_lat": 0.0, "name": "184ebbc2094936ec1043f8ae0a056cc6", "is_disabled": 0, "rental_uris": {"android": "https://dc.lft.to/lastmile_qr_scan", "ios": "https://dc.lft.to/lastmile_qr_scan"}, "fusion_lon": 0.0, "lat": 38.92522733333333, "bike_id": "184ebbc2094936ec1043f8ae0a056cc6", "type": "electric_bike", "is_reserved": 0, "lon": -77.055539}, {"fusion_lat": 0.0, "name": "e645f6b8b9da9cc6c57274576e14aca4", "is_disabled": 0, "rental_uris": {"android": "https://dc.lft.to/lastmile_qr_scan", "ios": "https://dc.lft.to/lastmile_qr_scan"}, "fusion_lon": 0.0, "lat": 38.904302, "bike_id": "e645f6b8b9da9cc6c57274576e14aca4", "type": "electric_scooter", "is_reserved": 0, "lon": -76.982207}, {"fusion_lat": 0.0, "name": "8e4c59b72ce21f3d9994f05def6633f2", "is_disabled": 0, "rental_uris": {"android": "https://dc.lft.to/lastmile_qr_scan", "ios": "https://dc.lft.to/lastmile_qr_scan"}, "fusion_lon": 0.0, "lat": 38.92482316666667, "bike_id": "8e4c59b72ce21f3d9994f05def6633f2", "type": "electric_bike", "is_reserved": 0, "lon": -77.23336616666667}, {"fusion_lat": 0.0, "name": "91deeed30f20d9788c631ff3ca0c116d", "is_disabled": 0, "rental_uris": {"android": "https://dc.lft.to/lastmile_qr_scan", "ios": "https://dc.lft.to/lastmile_qr_scan"}, "fusion_lon": 0.0, "lat": 38.9217705, "bike_id": "91deeed30f20d9788c631ff3ca0c116d", "type": "electric_scooter", "is_reserved": 0, "lon": -77.04239416666667}, {"fusion_lat": 0.0, "name": "784c479be4f68abc1b889027e0233b49", "is_disabled": 0, "rental_uris": {"android": "https://dc.lft.to/lastmile_qr_scan", "ios": "https://dc.lft.to/lastmile_qr_scan"}, "fusion_lon": 0.0, "lat": 38.920489, "bike_id": "784c479be4f68abc1b889027e0233b49", "type": "electric_scooter", "is_reserved": 0, "lon": -77.02394866666667}, {"fusion_lat": 0.0, "name": "88ad77932979470b4ab7fcda7d15ef69", "is_disabled": 0, "rental_uris": {"android": "https://dc.lft.to/lastmile_qr_scan", "ios": "https://dc.lft.to/lastmile_qr_scan"}, "fusion_lon": 0.0, "lat": 38.8971535, "bike_id": "88ad77932979470b4ab7fcda7d15ef69", "type": "electric_scooter", "is_reserved": 0, "lon": -77.00798516666667}, {"fusion_lat": 0.0, "name": "61334b89bd2bf14837a0e2d5a49f25ed", "is_disabled": 0, "rental_uris": {"android": "https://dc.lft.to/lastmile_qr_scan", "ios": "https://dc.lft.to/lastmile_qr_scan"}, "fusion_lon": 0.0, "lat": 38.921171333333334, "bike_id": "61334b89bd2bf14837a0e2d5a49f25ed", "type": "electric_scooter", "is_reserved": 0, "lon": -77.04387533333333}, {"fusion_lat": 0.0, "name": "c3da06fd9f10292b41698f18142955eb", "is_disabled": 0, "rental_uris": {"android": "https://dc.lft.to/lastmile_qr_scan", "ios": "https://dc.lft.to/lastmile_qr_scan"}, "fusion_lon": 0.0, "lat": 38.93265783333333, "bike_id": "c3da06fd9f10292b41698f18142955eb", "type": "electric_scooter", "is_reserved": 0, "lon": -77.0209245}, {"fusion_lat": 0.0, "name": "a8b143434627e8884417b08797909d4d", "is_disabled": 0, "rental_uris": {"android": "https://dc.lft.to/lastmile_qr_scan", "ios": "https://dc.lft.to/lastmile_qr_scan"}, "fusion_lon": 0.0, "lat": 38.93188266666667, "bike_id": "a8b143434627e8884417b08797909d4d", "type": "electric_scooter", "is_reserved": 0, "lon": -77.01968366666667}, {"fusion_lat": 0.0, "name": "7d894d614e8051e92e71b76ebd1a2122", "is_disabled": 0, "rental_uris": {"android": "https://dc.lft.to/lastmile_qr_scan", "ios": "https://dc.lft.to/lastmile_qr_scan"}, "fusion_lon": 0.0, "lat": 38.8975305, "bike_id": "7d894d614e8051e92e71b76ebd1a2122", "type": "electric_scooter", "is_reserved": 0, "lon": -77.0036835}, {"fusion_lat": 0.0, "name": "60fcf5f23b4f99b52b814082d43dfa41", "is_disabled": 0, "rental_uris": {"android": "https://dc.lft.to/lastmile_qr_scan", "ios": "https://dc.lft.to/lastmile_qr_scan"}, "fusion_lon": 0.0, "lat": 38.924490666666664, "bike_id": "60fcf5f23b4f99b52b814082d43dfa41", "type": "electric_scooter", "is_reserved": 0, "lon": -77.04023983333333}, {"fusion_lat": 0.0, "name": "7857980edbf2f51a165ec04334e8ea2e", "is_disabled": 0, "rental_uris": {"android": "https://dc.lft.to/lastmile_qr_scan", "ios": "https://dc.lft.to/lastmile_qr_scan"}, "fusion_lon": 0.0, "lat": 38.92120366666666, "bike_id": "7857980edbf2f51a165ec04334e8ea2e", "type": "electric_scooter", "is_reserved": 0, "lon": -77.04394383333333}, {"fusion_lat": 0.0, "name": "69eff8c5655ce140ff9430fdfebc91b5", "is_disabled": 0, "rental_uris": {"android": "https://dc.lft.to/lastmile_qr_scan", "ios": "https://dc.lft.to/lastmile_qr_scan"}, "fusion_lon": 0.0, "lat": 38.92678, "bike_id": "69eff8c5655ce140ff9430fdfebc91b5", "type": "electric_scooter", "is_reserved": 0, "lon": -77.031}, {"fusion_lat": 0.0, "name": "1a7d8f1ba72e8219301812a05b89d2ee", "is_disabled": 0, "rental_uris": {"android": "https://dc.lft.to/lastmile_qr_scan", "ios": "https://dc.lft.to/lastmile_qr_scan"}, "fusion_lon": 0.0, "lat": 38.8974745, "bike_id": "1a7d8f1ba72e8219301812a05b89d2ee", "type": "electric_scooter", "is_reserved": 0, "lon": -76.94190933333333}, {"fusion_lat": 0.0, "name": "ea09ce093baeb4e2d5f9019a60ecc1ea", "is_disabled": 0, "rental_uris": {"android": "https://dc.lft.to/lastmile_qr_scan", "ios": "https://dc.lft.to/lastmile_qr_scan"}, "fusion_lon": 0.0, "lat": 38.8875735, "bike_id": "ea09ce093baeb4e2d5f9019a60ecc1ea", "type": "electric_scooter", "is_reserved": 0, "lon": -76.99365433333334}, {"fusion_lat": 0.0, "name": "09be43ec966178a142e38e9f07fff322", "is_disabled": 0, "rental_uris": {"android": "https://dc.lft.to/lastmile_qr_scan", "ios": "https://dc.lft.to/lastmile_qr_scan"}, "fusion_lon": 0.0, "lat": 38.883622833333334, "bike_id": "09be43ec966178a142e38e9f07fff322", "type": "electric_scooter", "is_reserved": 0, "lon": -77.01359816666667}, {"fusion_lat": 0.0, "name": "31efb388716f2fe8709f1c644183c1b1", "is_disabled": 0, "rental_uris": {"android": "https://dc.lft.to/lastmile_qr_scan", "ios": "https://dc.lft.to/lastmile_qr_scan"}, "fusion_lon": 0.0, "lat": 38.9068115, "bike_id": "31efb388716f2fe8709f1c644183c1b1", "type": "electric_scooter", "is_reserved": 0, "lon": -77.07169283333333}, {"fusion_lat": 0.0, "name": "6fd85bbbc3d536394ca8d4b0658b60fd", "is_disabled": 0, "rental_uris": {"android": "https://dc.lft.to/lastmile_qr_scan", "ios": "https://dc.lft.to/lastmile_qr_scan"}, "fusion_lon": 0.0, "lat": 38.92297533333333, "bike_id": "6fd85bbbc3d536394ca8d4b0658b60fd", "type": "electric_scooter", "is_reserved": 0, "lon": -77.042135}, {"fusion_lat": 0.0, "name": "da3a85dc9133f0bc985a77774a25b711", "is_disabled": 0, "rental_uris": {"android": "https://dc.lft.to/lastmile_qr_scan", "ios": "https://dc.lft.to/lastmile_qr_scan"}, "fusion_lon": 0.0, "lat": 38.907256, "bike_id": "da3a85dc9133f0bc985a77774a25b711", "type": "electric_scooter", "is_reserved": 0, "lon": -77.04329233333333}, {"fusion_lat": 0.0, "name": "f3ae358c0deb204c94c48e7083aa9c7d", "is_disabled": 0, "rental_uris": {"android": "https://dc.lft.to/lastmile_qr_scan", "ios": "https://dc.lft.to/lastmile_qr_scan"}, "fusion_lon": 0.0, "lat": 38.9192665, "bike_id": "f3ae358c0deb204c94c48e7083aa9c7d", "type": "electric_scooter", "is_reserved": 0, "lon": -77.02661566666667}, {"fusion_lat": 0.0, "name": "34fc3d21108d36788365d8d12ccbec0a", "is_disabled": 0, "rental_uris": {"android": "https://dc.lft.to/lastmile_qr_scan", "ios": "https://dc.lft.to/lastmile_qr_scan"}, "fusion_lon": 0.0, "lat": 38.900614, "bike_id": "34fc3d21108d36788365d8d12ccbec0a", "type": "electric_scooter", "is_reserved": 0, "lon": -77.0160945}, {"fusion_lat": 0.0, "name": "8feb312a4c0300270f9d1169516328ab", "is_disabled": 0, "rental_uris": {"android": "https://dc.lft.to/lastmile_qr_scan", "ios": "https://dc.lft.to/lastmile_qr_scan"}, "fusion_lon": 0.0, "lat": 38.91020833333333, "bike_id": "8feb312a4c0300270f9d1169516328ab", "type": "electric_scooter", "is_reserved": 0, "lon": -77.05294366666666}, {"fusion_lat": 0.0, "name": "d25e466f9b37615a48476737051a9a65", "is_disabled": 0, "rental_uris": {"android": "https://dc.lft.to/lastmile_qr_scan", "ios": "https://dc.lft.to/lastmile_qr_scan"}, "fusion_lon": 0.0, "lat": 38.8838855, "bike_id": "d25e466f9b37615a48476737051a9a65", "type": "electric_scooter", "is_reserved": 0, "lon": -76.93050833333334}, {"fusion_lat": 0.0, "name": "61ba7632732753150450e9e1dd02cee1", "is_disabled": 0, "rental_uris": {"android": "https://dc.lft.to/lastmile_qr_scan", "ios": "https://dc.lft.to/lastmile_qr_scan"}, "fusion_lon": 0.0, "lat": 38.930353333333336, "bike_id": "61ba7632732753150450e9e1dd02cee1", "type": "electric_scooter", "is_reserved": 0, "lon": -77.03785983333333}, {"fusion_lat": 0.0, "name": "b6ae9c8fb4f1c7402124bb8d62596d10", "is_disabled": 0, "rental_uris": {"android": "https://dc.lft.to/lastmile_qr_scan", "ios": "https://dc.lft.to/lastmile_qr_scan"}, "fusion_lon": 0.0, "lat": 38.897513333333336, "bike_id": "b6ae9c8fb4f1c7402124bb8d62596d10", "type": "electric_scooter", "is_reserved": 0, "lon": -77.00211516666667}, {"fusion_lat": 0.0, "name": "6b8df4ca9eb95e01a04128b1fae2196c", "is_disabled": 0, "rental_uris": {"android": "https://dc.lft.to/lastmile_qr_scan", "ios": "https://dc.lft.to/lastmile_qr_scan"}, "fusion_lon": 0.0, "lat": 38.92171783333333, "bike_id": "6b8df4ca9eb95e01a04128b1fae2196c", "type": "electric_scooter", "is_reserved": 0, "lon": -77.03843766666667}, {"fusion_lat": 0.0, "name": "ac8b826982a420b4dd619add4245b273", "is_disabled": 0, "rental_uris": {"android": "https://dc.lft.to/lastmile_qr_scan", "ios": "https://dc.lft.to/lastmile_qr_scan"}, "fusion_lon": 0.0, "lat": 38.86390183333334, "bike_id": "ac8b826982a420b4dd619add4245b273", "type": "electric_bike", "is_reserved": 0, "lon": -76.990024}, {"fusion_lat": 0.0, "name": "857e104f7f16647845a08ad2b90f8cc1", "is_disabled": 0, "rental_uris": {"android": "https://dc.lft.to/lastmile_qr_scan", "ios": "https://dc.lft.to/lastmile_qr_scan"}, "fusion_lon": 0.0, "lat": 38.92228016666667, "bike_id": "857e104f7f16647845a08ad2b90f8cc1", "type": "electric_scooter", "is_reserved": 0, "lon": -77.02980483333333}, {"fusion_lat": 0.0, "name": "0540de3b04662dc20e36638616fbca47", "is_disabled": 0, "rental_uris": {"android": "https://dc.lft.to/lastmile_qr_scan", "ios": "https://dc.lft.to/lastmile_qr_scan"}, "fusion_lon": 0.0, "lat": 38.90971, "bike_id": "0540de3b04662dc20e36638616fbca47", "type": "electric_scooter", "is_reserved": 0, "lon": -77.03944783333333}, {"fusion_lat": 0.0, "name": "09071f28740b2e3d4f3b9bf742652dde", "is_disabled": 0, "rental_uris": {"android": "https://dc.lft.to/lastmile_qr_scan", "ios": "https://dc.lft.to/lastmile_qr_scan"}, "fusion_lon": 0.0, "lat": 38.916836333333336, "bike_id": "09071f28740b2e3d4f3b9bf742652dde", "type": "electric_scooter", "is_reserved": 0, "lon": -77.02291766666667}, {"fusion_lat": 0.0, "name": "d4464d0d2e761087956b961c7cdd1933", "is_disabled": 0, "rental_uris": {"android": "https://dc.lft.to/lastmile_qr_scan", "ios": "https://dc.lft.to/lastmile_qr_scan"}, "fusion_lon": 0.0, "lat": 38.919922166666666, "bike_id": "d4464d0d2e761087956b961c7cdd1933", "type": "electric_scooter", "is_reserved": 0, "lon": -77.0328505}, {"fusion_lat": 0.0, "name": "40e509fbea9dc119e989024cbeafbb12", "is_disabled": 0, "rental_uris": {"android": "https://dc.lft.to/lastmile_qr_scan", "ios": "https://dc.lft.to/lastmile_qr_scan"}, "fusion_lon": 0.0, "lat": 38.84276, "bike_id": "40e509fbea9dc119e989024cbeafbb12", "type": "electric_bike", "is_reserved": 0, "lon": -76.9885075}, {"fusion_lat": 0.0, "name": "9c801865ef0a7f3b00c9b02a36d80b3e", "is_disabled": 0, "rental_uris": {"android": "https://dc.lft.to/lastmile_qr_scan", "ios": "https://dc.lft.to/lastmile_qr_scan"}, "fusion_lon": 0.0, "lat": 38.9141235, "bike_id": "9c801865ef0a7f3b00c9b02a36d80b3e", "type": "electric_scooter", "is_reserved": 0, "lon": -77.01076933333333}, {"fusion_lat": 0.0, "name": "08c5b15032add679ee870659f371bebc", "is_disabled": 0, "rental_uris": {"android": "https://dc.lft.to/lastmile_qr_scan", "ios": "https://dc.lft.to/lastmile_qr_scan"}, "fusion_lon": 0.0, "lat": 38.90769933333333, "bike_id": "08c5b15032add679ee870659f371bebc", "type": "electric_scooter", "is_reserved": 0, "lon": -77.00351166666667}, {"fusion_lat": 0.0, "name": "355e214187c87624a97eab46482da6aa", "is_disabled": 0, "rental_uris": {"android": "https://dc.lft.to/lastmile_qr_scan", "ios": "https://dc.lft.to/lastmile_qr_scan"}, "fusion_lon": 0.0, "lat": 38.887331333333336, "bike_id": "355e214187c87624a97eab46482da6aa", "type": "electric_scooter", "is_reserved": 0, "lon": -77.032299}, {"fusion_lat": 0.0, "name": "92f97e6b25060c5c0b6e8878c5100cc5", "is_disabled": 0, "rental_uris": {"android": "https://dc.lft.to/lastmile_qr_scan", "ios": "https://dc.lft.to/lastmile_qr_scan"}, "fusion_lon": 0.0, "lat": 38.90624966666667, "bike_id": "92f97e6b25060c5c0b6e8878c5100cc5", "type": "electric_scooter", "is_reserved": 0, "lon": -77.02606083333333}, {"fusion_lat": 0.0, "name": "0f320abe5dd93b1c497720040946f94b", "is_disabled": 0, "rental_uris": {"android": "https://dc.lft.to/lastmile_qr_scan", "ios": "https://dc.lft.to/lastmile_qr_scan"}, "fusion_lon": 0.0, "lat": 38.90510866666666, "bike_id": "0f320abe5dd93b1c497720040946f94b", "type": "electric_scooter", "is_reserved": 0, "lon": -77.04824333333333}, {"fusion_lat": 0.0, "name": "d2e2cd49b18984f7d8d4589fb9f0244e", "is_disabled": 0, "rental_uris": {"android": "https://dc.lft.to/lastmile_qr_scan", "ios": "https://dc.lft.to/lastmile_qr_scan"}, "fusion_lon": 0.0, "lat": 38.923791, "bike_id": "d2e2cd49b18984f7d8d4589fb9f0244e", "type": "electric_scooter", "is_reserved": 0, "lon": -77.05259533333333}, {"fusion_lat": 0.0, "name": "8ae781c6ef2f7cc95e2a46df727187e4", "is_disabled": 0, "rental_uris": {"android": "https://dc.lft.to/lastmile_qr_scan", "ios": "https://dc.lft.to/lastmile_qr_scan"}, "fusion_lon": 0.0, "lat": 38.90076166666667, "bike_id": "8ae781c6ef2f7cc95e2a46df727187e4", "type": "electric_scooter", "is_reserved": 0, "lon": -77.04660916666667}, {"fusion_lat": 0.0, "name": "537a765bc6520efcf89aa81f1a1b232a", "is_disabled": 0, "rental_uris": {"android": "https://dc.lft.to/lastmile_qr_scan", "ios": "https://dc.lft.to/lastmile_qr_scan"}, "fusion_lon": 0.0, "lat": 38.907324, "bike_id": "537a765bc6520efcf89aa81f1a1b232a", "type": "electric_scooter", "is_reserved": 0, "lon": -77.04334516666667}, {"fusion_lat": 0.0, "name": "fddcffcda16da7b698cf24521bc2ee04", "is_disabled": 0, "rental_uris": {"android": "https://dc.lft.to/lastmile_qr_scan", "ios": "https://dc.lft.to/lastmile_qr_scan"}, "fusion_lon": 0.0, "lat": 38.92429583333333, "bike_id": "fddcffcda16da7b698cf24521bc2ee04", "type": "electric_scooter", "is_reserved": 0, "lon": -77.03570433333333}, {"fusion_lat": 0.0, "name": "2ab4257acb5023aaeca6cf2ee7d895c0", "is_disabled": 0, "rental_uris": {"android": "https://dc.lft.to/lastmile_qr_scan", "ios": "https://dc.lft.to/lastmile_qr_scan"}, "fusion_lon": 0.0, "lat": 38.9006305, "bike_id": "2ab4257acb5023aaeca6cf2ee7d895c0", "type": "electric_scooter", "is_reserved": 0, "lon": -76.93388366666667}, {"fusion_lat": 0.0, "name": "163f7cb8e7a13a0d4c67f5cd56ac924a", "is_disabled": 0, "rental_uris": {"android": "https://dc.lft.to/lastmile_qr_scan", "ios": "https://dc.lft.to/lastmile_qr_scan"}, "fusion_lon": 0.0, "lat": 38.9052075, "bike_id": "163f7cb8e7a13a0d4c67f5cd56ac924a", "type": "electric_scooter", "is_reserved": 0, "lon": -77.0479875}, {"fusion_lat": 0.0, "name": "8b3057331b798e7245d66d4b211dacf5", "is_disabled": 0, "rental_uris": {"android": "https://dc.lft.to/lastmile_qr_scan", "ios": "https://dc.lft.to/lastmile_qr_scan"}, "fusion_lon": 0.0, "lat": 38.912105833333335, "bike_id": "8b3057331b798e7245d66d4b211dacf5", "type": "electric_scooter", "is_reserved": 0, "lon": -77.03209366666667}, {"fusion_lat": 0.0, "name": "b8f9ebe83a8b0407d3eb6cd586d87f83", "is_disabled": 0, "rental_uris": {"android": "https://dc.lft.to/lastmile_qr_scan", "ios": "https://dc.lft.to/lastmile_qr_scan"}, "fusion_lon": 0.0, "lat": 38.95369016666667, "bike_id": "b8f9ebe83a8b0407d3eb6cd586d87f83", "type": "electric_scooter", "is_reserved": 0, "lon": -76.99840933333333}, {"fusion_lat": 0.0, "name": "054d60df5a1d6957ccb3623c16892cd4", "is_disabled": 0, "rental_uris": {"android": "https://dc.lft.to/lastmile_qr_scan", "ios": "https://dc.lft.to/lastmile_qr_scan"}, "fusion_lon": 0.0, "lat": 38.923283, "bike_id": "054d60df5a1d6957ccb3623c16892cd4", "type": "electric_scooter", "is_reserved": 0, "lon": -77.03571316666667}, {"fusion_lat": 0.0, "name": "d51c7b75e212e4965ef90b230954dd74", "is_disabled": 0, "rental_uris": {"android": "https://dc.lft.to/lastmile_qr_scan", "ios": "https://dc.lft.to/lastmile_qr_scan"}, "fusion_lon": 0.0, "lat": 38.876358, "bike_id": "d51c7b75e212e4965ef90b230954dd74", "type": "electric_scooter", "is_reserved": 0, "lon": -77.00119433333333}, {"fusion_lat": 0.0, "name": "f4ff5b6c16c6f458cf24056104dde9e4", "is_disabled": 0, "rental_uris": {"android": "https://dc.lft.to/lastmile_qr_scan", "ios": "https://dc.lft.to/lastmile_qr_scan"}, "fusion_lon": 0.0, "lat": 38.898323500000004, "bike_id": "f4ff5b6c16c6f458cf24056104dde9e4", "type": "electric_scooter", "is_reserved": 0, "lon": -76.94641516666667}, {"fusion_lat": 0.0, "name": "7494a0842108be20755b6197354bff91", "is_disabled": 0, "rental_uris": {"android": "https://dc.lft.to/lastmile_qr_scan", "ios": "https://dc.lft.to/lastmile_qr_scan"}, "fusion_lon": 0.0, "lat": 38.90544583333333, "bike_id": "7494a0842108be20755b6197354bff91", "type": "electric_scooter", "is_reserved": 0, "lon": -77.0070655}, {"fusion_lat": 0.0, "name": "d1e439c072f0a07e0791285976b0dc55", "is_disabled": 0, "rental_uris": {"android": "https://dc.lft.to/lastmile_qr_scan", "ios": "https://dc.lft.to/lastmile_qr_scan"}, "fusion_lon": 0.0, "lat": 38.91048883333333, "bike_id": "d1e439c072f0a07e0791285976b0dc55", "type": "electric_scooter", "is_reserved": 0, "lon": -77.03842316666666}, {"fusion_lat": 0.0, "name": "2d3f74d2b794c68f58dcb2f463eeb55a", "is_disabled": 0, "rental_uris": {"android": "https://dc.lft.to/lastmile_qr_scan", "ios": "https://dc.lft.to/lastmile_qr_scan"}, "fusion_lon": 0.0, "lat": 38.926167166666666, "bike_id": "2d3f74d2b794c68f58dcb2f463eeb55a", "type": "electric_scooter", "is_reserved": 0, "lon": -77.021655}, {"fusion_lat": 0.0, "name": "6d98f2d93a7019fbdb2c4a1a2c25d344", "is_disabled": 0, "rental_uris": {"android": "https://dc.lft.to/lastmile_qr_scan", "ios": "https://dc.lft.to/lastmile_qr_scan"}, "fusion_lon": 0.0, "lat": 38.936036333333334, "bike_id": "6d98f2d93a7019fbdb2c4a1a2c25d344", "type": "electric_scooter", "is_reserved": 0, "lon": -77.03642533333333}, {"fusion_lat": 0.0, "name": "00eebd8312835634c90976df290cbcd8", "is_disabled": 0, "rental_uris": {"android": "https://dc.lft.to/lastmile_qr_scan", "ios": "https://dc.lft.to/lastmile_qr_scan"}, "fusion_lon": 0.0, "lat": 38.923148, "bike_id": "00eebd8312835634c90976df290cbcd8", "type": "electric_scooter", "is_reserved": 0, "lon": -77.03980433333334}, {"fusion_lat": 0.0, "name": "a2f4d254a55b1eef0d805371e7c4e707", "is_disabled": 0, "rental_uris": {"android": "https://dc.lft.to/lastmile_qr_scan", "ios": "https://dc.lft.to/lastmile_qr_scan"}, "fusion_lon": 0.0, "lat": 38.905427833333334, "bike_id": "a2f4d254a55b1eef0d805371e7c4e707", "type": "electric_scooter", "is_reserved": 0, "lon": -77.04660883333334}, {"fusion_lat": 0.0, "name": "3b59cdc6b51e66ee935f4c1ec373a5f3", "is_disabled": 0, "rental_uris": {"android": "https://dc.lft.to/lastmile_qr_scan", "ios": "https://dc.lft.to/lastmile_qr_scan"}, "fusion_lon": 0.0, "lat": 38.9054545, "bike_id": "3b59cdc6b51e66ee935f4c1ec373a5f3", "type": "electric_scooter", "is_reserved": 0, "lon": -77.04075383333333}, {"fusion_lat": 0.0, "name": "d2b6bd54e9a94ab4ddf855d7666c08d5", "is_disabled": 0, "rental_uris": {"android": "https://dc.lft.to/lastmile_qr_scan", "ios": "https://dc.lft.to/lastmile_qr_scan"}, "fusion_lon": 0.0, "lat": 38.90057633333333, "bike_id": "d2b6bd54e9a94ab4ddf855d7666c08d5", "type": "electric_scooter", "is_reserved": 0, "lon": -77.05670566666667}, {"fusion_lat": 0.0, "name": "02337883c766d4b6e7f0755b223d3d06", "is_disabled": 0, "rental_uris": {"android": "https://dc.lft.to/lastmile_qr_scan", "ios": "https://dc.lft.to/lastmile_qr_scan"}, "fusion_lon": 0.0, "lat": 38.88343666666667, "bike_id": "02337883c766d4b6e7f0755b223d3d06", "type": "electric_scooter", "is_reserved": 0, "lon": -77.03163683333334}, {"fusion_lat": 0.0, "name": "5bb27c8403b7b68135489b8a382edea3", "is_disabled": 0, "rental_uris": {"android": "https://dc.lft.to/lastmile_qr_scan", "ios": "https://dc.lft.to/lastmile_qr_scan"}, "fusion_lon": 0.0, "lat": 38.90432883333333, "bike_id": "5bb27c8403b7b68135489b8a382edea3", "type": "electric_scooter", "is_reserved": 0, "lon": -77.058099}, {"fusion_lat": 0.0, "name": "08d0cc9430ca426a0c2aa835a9887a77", "is_disabled": 0, "rental_uris": {"android": "https://dc.lft.to/lastmile_qr_scan", "ios": "https://dc.lft.to/lastmile_qr_scan"}, "fusion_lon": 0.0, "lat": 38.8475605, "bike_id": "08d0cc9430ca426a0c2aa835a9887a77", "type": "electric_scooter", "is_reserved": 0, "lon": -76.9950145}, {"fusion_lat": 0.0, "name": "fbc57eb95581df5b2d9f53d2684ad051", "is_disabled": 0, "rental_uris": {"android": "https://dc.lft.to/lastmile_qr_scan", "ios": "https://dc.lft.to/lastmile_qr_scan"}, "fusion_lon": 0.0, "lat": 38.906775333333336, "bike_id": "fbc57eb95581df5b2d9f53d2684ad051", "type": "electric_scooter", "is_reserved": 0, "lon": -77.02707083333334}, {"fusion_lat": 0.0, "name": "6478469d405cb3c1182472ed0fe5f224", "is_disabled": 0, "rental_uris": {"android": "https://dc.lft.to/lastmile_qr_scan", "ios": "https://dc.lft.to/lastmile_qr_scan"}, "fusion_lon": 0.0, "lat": 38.9234395, "bike_id": "6478469d405cb3c1182472ed0fe5f224", "type": "electric_scooter", "is_reserved": 0, "lon": -77.03544416666666}, {"fusion_lat": 0.0, "name": "8e502759db599181e48ae149d788e0bc", "is_disabled": 0, "rental_uris": {"android": "https://dc.lft.to/lastmile_qr_scan", "ios": "https://dc.lft.to/lastmile_qr_scan"}, "fusion_lon": 0.0, "lat": 38.90161666666667, "bike_id": "8e502759db599181e48ae149d788e0bc", "type": "electric_scooter", "is_reserved": 0, "lon": -76.992662}, {"fusion_lat": 0.0, "name": "2213fd8512adb1a2e9320dec685cc437", "is_disabled": 0, "rental_uris": {"android": "https://dc.lft.to/lastmile_qr_scan", "ios": "https://dc.lft.to/lastmile_qr_scan"}, "fusion_lon": 0.0, "lat": 38.89764066666667, "bike_id": "2213fd8512adb1a2e9320dec685cc437", "type": "electric_scooter", "is_reserved": 0, "lon": -77.03286833333334}, {"fusion_lat": 0.0, "name": "312a9af38b0a38ebfa54a3ca888c2649", "is_disabled": 0, "rental_uris": {"android": "https://dc.lft.to/lastmile_qr_scan", "ios": "https://dc.lft.to/lastmile_qr_scan"}, "fusion_lon": 0.0, "lat": 38.9274275, "bike_id": "312a9af38b0a38ebfa54a3ca888c2649", "type": "electric_scooter", "is_reserved": 0, "lon": -77.03245}, {"fusion_lat": 0.0, "name": "2850a19b9847d2c791ac62bd8a599872", "is_disabled": 0, "rental_uris": {"android": "https://dc.lft.to/lastmile_qr_scan", "ios": "https://dc.lft.to/lastmile_qr_scan"}, "fusion_lon": 0.0, "lat": 38.90641466666667, "bike_id": "2850a19b9847d2c791ac62bd8a599872", "type": "electric_scooter", "is_reserved": 0, "lon": -77.04325216666666}, {"fusion_lat": 0.0, "name": "8be986a371943dc7f14571a58efa35c9", "is_disabled": 0, "rental_uris": {"android": "https://dc.lft.to/lastmile_qr_scan", "ios": "https://dc.lft.to/lastmile_qr_scan"}, "fusion_lon": 0.0, "lat": 38.892223333333334, "bike_id": "8be986a371943dc7f14571a58efa35c9", "type": "electric_scooter", "is_reserved": 0, "lon": -77.04862633333333}, {"fusion_lat": 0.0, "name": "1c7d946088426acb917b6bc2b5f339fc", "is_disabled": 0, "rental_uris": {"android": "https://dc.lft.to/lastmile_qr_scan", "ios": "https://dc.lft.to/lastmile_qr_scan"}, "fusion_lon": 0.0, "lat": 38.90244366666667, "bike_id": "1c7d946088426acb917b6bc2b5f339fc", "type": "electric_scooter", "is_reserved": 0, "lon": -77.03432133333334}, {"fusion_lat": 0.0, "name": "bb1651e30268ce291eaa5f7d30306e06", "is_disabled": 0, "rental_uris": {"android": "https://dc.lft.to/lastmile_qr_scan", "ios": "https://dc.lft.to/lastmile_qr_scan"}, "fusion_lon": 0.0, "lat": 38.90565016666667, "bike_id": "bb1651e30268ce291eaa5f7d30306e06", "type": "electric_scooter", "is_reserved": 0, "lon": -77.00803383333333}, {"fusion_lat": 0.0, "name": "5bcf04548312f657d3832f22a85ab59e", "is_disabled": 0, "rental_uris": {"android": "https://dc.lft.to/lastmile_qr_scan", "ios": "https://dc.lft.to/lastmile_qr_scan"}, "fusion_lon": 0.0, "lat": 38.9075985, "bike_id": "5bcf04548312f657d3832f22a85ab59e", "type": "electric_scooter", "is_reserved": 0, "lon": -77.03589133333334}, {"fusion_lat": 0.0, "name": "cecdf604c084338fd030a3501050c28d", "is_disabled": 0, "rental_uris": {"android": "https://dc.lft.to/lastmile_qr_scan", "ios": "https://dc.lft.to/lastmile_qr_scan"}, "fusion_lon": 0.0, "lat": 38.914895666666666, "bike_id": "cecdf604c084338fd030a3501050c28d", "type": "electric_scooter", "is_reserved": 0, "lon": -77.04256866666667}, {"fusion_lat": 0.0, "name": "a58c59dc09087646cc3d792a011823f0", "is_disabled": 0, "rental_uris": {"android": "https://dc.lft.to/lastmile_qr_scan", "ios": "https://dc.lft.to/lastmile_qr_scan"}, "fusion_lon": 0.0, "lat": 38.897419, "bike_id": "a58c59dc09087646cc3d792a011823f0", "type": "electric_scooter", "is_reserved": 0, "lon": -77.00367616666666}, {"fusion_lat": 0.0, "name": "51faaebf261346c97c3d00ed5ff6a5d9", "is_disabled": 0, "rental_uris": {"android": "https://dc.lft.to/lastmile_qr_scan", "ios": "https://dc.lft.to/lastmile_qr_scan"}, "fusion_lon": 0.0, "lat": 38.91271716666667, "bike_id": "51faaebf261346c97c3d00ed5ff6a5d9", "type": "electric_scooter", "is_reserved": 0, "lon": -77.04075116666667}, {"fusion_lat": 0.0, "name": "ba76ff72f47087dd0ab065130f12b5c2", "is_disabled": 0, "rental_uris": {"android": "https://dc.lft.to/lastmile_qr_scan", "ios": "https://dc.lft.to/lastmile_qr_scan"}, "fusion_lon": 0.0, "lat": 38.90376833333333, "bike_id": "ba76ff72f47087dd0ab065130f12b5c2", "type": "electric_scooter", "is_reserved": 0, "lon": -77.0175695}, {"fusion_lat": 0.0, "name": "e03b22e29cc6c671a1daeee6abfb70f4", "is_disabled": 0, "rental_uris": {"android": "https://dc.lft.to/lastmile_qr_scan", "ios": "https://dc.lft.to/lastmile_qr_scan"}, "fusion_lon": 0.0, "lat": 38.921495666666665, "bike_id": "e03b22e29cc6c671a1daeee6abfb70f4", "type": "electric_scooter", "is_reserved": 0, "lon": -77.04352}, {"fusion_lat": 0.0, "name": "e293a791842975f84a3a4e6020b46442", "is_disabled": 0, "rental_uris": {"android": "https://dc.lft.to/lastmile_qr_scan", "ios": "https://dc.lft.to/lastmile_qr_scan"}, "fusion_lon": 0.0, "lat": 38.90654466666667, "bike_id": "e293a791842975f84a3a4e6020b46442", "type": "electric_scooter", "is_reserved": 0, "lon": -77.03863133333333}, {"fusion_lat": 0.0, "name": "1245fc0f50330f482e80a45326347721", "is_disabled": 0, "rental_uris": {"android": "https://dc.lft.to/lastmile_qr_scan", "ios": "https://dc.lft.to/lastmile_qr_scan"}, "fusion_lon": 0.0, "lat": 38.9953095, "bike_id": "1245fc0f50330f482e80a45326347721", "type": "electric_bike", "is_reserved": 0, "lon": -77.02882816666667}, {"fusion_lat": 0.0, "name": "f7178bd6167a7c63e752bbba28aeaab5", "is_disabled": 0, "rental_uris": {"android": "https://dc.lft.to/lastmile_qr_scan", "ios": "https://dc.lft.to/lastmile_qr_scan"}, "fusion_lon": 0.0, "lat": 38.8976465, "bike_id": "f7178bd6167a7c63e752bbba28aeaab5", "type": "electric_scooter", "is_reserved": 0, "lon": -77.04480916666667}, {"fusion_lat": 0.0, "name": "711ab196f3197e595d4d7f07d4a875b7", "is_disabled": 0, "rental_uris": {"android": "https://dc.lft.to/lastmile_qr_scan", "ios": "https://dc.lft.to/lastmile_qr_scan"}, "fusion_lon": 0.0, "lat": 38.900758333333336, "bike_id": "711ab196f3197e595d4d7f07d4a875b7", "type": "electric_scooter", "is_reserved": 0, "lon": -77.0491915}, {"fusion_lat": 0.0, "name": "79c57362e421a7357a92d1ca14130b2e", "is_disabled": 0, "rental_uris": {"android": "https://dc.lft.to/lastmile_qr_scan", "ios": "https://dc.lft.to/lastmile_qr_scan"}, "fusion_lon": 0.0, "lat": 38.92238616666667, "bike_id": "79c57362e421a7357a92d1ca14130b2e", "type": "electric_scooter", "is_reserved": 0, "lon": -77.0424865}, {"fusion_lat": 0.0, "name": "fb84e9fe0ea85b83ef760dbdc9b90e40", "is_disabled": 0, "rental_uris": {"android": "https://dc.lft.to/lastmile_qr_scan", "ios": "https://dc.lft.to/lastmile_qr_scan"}, "fusion_lon": 0.0, "lat": 38.9061485, "bike_id": "fb84e9fe0ea85b83ef760dbdc9b90e40", "type": "electric_scooter", "is_reserved": 0, "lon": -77.00577316666667}, {"fusion_lat": 0.0, "name": "d02c0333dd324281e74b8c5e40ec0537", "is_disabled": 0, "rental_uris": {"android": "https://dc.lft.to/lastmile_qr_scan", "ios": "https://dc.lft.to/lastmile_qr_scan"}, "fusion_lon": 0.0, "lat": 38.921522333333336, "bike_id": "d02c0333dd324281e74b8c5e40ec0537", "type": "electric_scooter", "is_reserved": 0, "lon": -77.01933}, {"fusion_lat": 0.0, "name": "0d557ef601f91b3432b805dd4e784262", "is_disabled": 0, "rental_uris": {"android": "https://dc.lft.to/lastmile_qr_scan", "ios": "https://dc.lft.to/lastmile_qr_scan"}, "fusion_lon": 0.0, "lat": 38.906589333333336, "bike_id": "0d557ef601f91b3432b805dd4e784262", "type": "electric_scooter", "is_reserved": 0, "lon": -77.03862016666666}, {"fusion_lat": 0.0, "name": "09b2c8618bfc19fa4b63006d6048cf60", "is_disabled": 0, "rental_uris": {"android": "https://dc.lft.to/lastmile_qr_scan", "ios": "https://dc.lft.to/lastmile_qr_scan"}, "fusion_lon": 0.0, "lat": 38.9052115, "bike_id": "09b2c8618bfc19fa4b63006d6048cf60", "type": "electric_scooter", "is_reserved": 0, "lon": -77.02970633333334}, {"fusion_lat": 0.0, "name": "60a1e1d69e8688a7897a28a49c7ce039", "is_disabled": 0, "rental_uris": {"android": "https://dc.lft.to/lastmile_qr_scan", "ios": "https://dc.lft.to/lastmile_qr_scan"}, "fusion_lon": 0.0, "lat": 38.9023925, "bike_id": "60a1e1d69e8688a7897a28a49c7ce039", "type": "electric_scooter", "is_reserved": 0, "lon": -77.01890983333334}, {"fusion_lat": 0.0, "name": "dccbf63d27f5ec208c2e19f7ef574db1", "is_disabled": 0, "rental_uris": {"android": "https://dc.lft.to/lastmile_qr_scan", "ios": "https://dc.lft.to/lastmile_qr_scan"}, "fusion_lon": 0.0, "lat": 38.9011355, "bike_id": "dccbf63d27f5ec208c2e19f7ef574db1", "type": "electric_scooter", "is_reserved": 0, "lon": -77.02602533333334}, {"fusion_lat": 0.0, "name": "cb31ecca31056aec9915fb2f6a21b4db", "is_disabled": 0, "rental_uris": {"android": "https://dc.lft.to/lastmile_qr_scan", "ios": "https://dc.lft.to/lastmile_qr_scan"}, "fusion_lon": 0.0, "lat": 38.904723833333335, "bike_id": "cb31ecca31056aec9915fb2f6a21b4db", "type": "electric_scooter", "is_reserved": 0, "lon": -77.03563033333333}, {"fusion_lat": 0.0, "name": "4a93613dfba120e6feff2a6c245b37e2", "is_disabled": 0, "rental_uris": {"android": "https://dc.lft.to/lastmile_qr_scan", "ios": "https://dc.lft.to/lastmile_qr_scan"}, "fusion_lon": 0.0, "lat": 38.90973416666667, "bike_id": "4a93613dfba120e6feff2a6c245b37e2", "type": "electric_scooter", "is_reserved": 0, "lon": -77.034217}, {"fusion_lat": 0.0, "name": "90e749b832b0d4fac379165aa43725c0", "is_disabled": 0, "rental_uris": {"android": "https://dc.lft.to/lastmile_qr_scan", "ios": "https://dc.lft.to/lastmile_qr_scan"}, "fusion_lon": 0.0, "lat": 38.919783, "bike_id": "90e749b832b0d4fac379165aa43725c0", "type": "electric_scooter", "is_reserved": 0, "lon": -77.02388666666667}, {"fusion_lat": 0.0, "name": "45401e6396d71dc9610458e2f5f210b4", "is_disabled": 0, "rental_uris": {"android": "https://dc.lft.to/lastmile_qr_scan", "ios": "https://dc.lft.to/lastmile_qr_scan"}, "fusion_lon": 0.0, "lat": 38.93202683333333, "bike_id": "45401e6396d71dc9610458e2f5f210b4", "type": "electric_scooter", "is_reserved": 0, "lon": -77.03499233333334}, {"fusion_lat": 0.0, "name": "31d8db49587a03c2911bbe3e53a3ab0e", "is_disabled": 0, "rental_uris": {"android": "https://dc.lft.to/lastmile_qr_scan", "ios": "https://dc.lft.to/lastmile_qr_scan"}, "fusion_lon": 0.0, "lat": 38.897314, "bike_id": "31d8db49587a03c2911bbe3e53a3ab0e", "type": "electric_scooter", "is_reserved": 0, "lon": -77.04424916666666}, {"fusion_lat": 0.0, "name": "80f63f208a3fe4011f8d5d5160ac3a64", "is_disabled": 0, "rental_uris": {"android": "https://dc.lft.to/lastmile_qr_scan", "ios": "https://dc.lft.to/lastmile_qr_scan"}, "fusion_lon": 0.0, "lat": 38.927625166666665, "bike_id": "80f63f208a3fe4011f8d5d5160ac3a64", "type": "electric_scooter", "is_reserved": 0, "lon": -77.05264216666667}, {"fusion_lat": 0.0, "name": "348875637a4adb99de6a1f630c215337", "is_disabled": 0, "rental_uris": {"android": "https://dc.lft.to/lastmile_qr_scan", "ios": "https://dc.lft.to/lastmile_qr_scan"}, "fusion_lon": 0.0, "lat": 38.937535, "bike_id": "348875637a4adb99de6a1f630c215337", "type": "electric_scooter", "is_reserved": 0, "lon": -77.03254966666667}, {"fusion_lat": 0.0, "name": "9c7c3410c24fd8fde0a995ad24386a36", "is_disabled": 0, "rental_uris": {"android": "https://dc.lft.to/lastmile_qr_scan", "ios": "https://dc.lft.to/lastmile_qr_scan"}, "fusion_lon": 0.0, "lat": 38.9001235, "bike_id": "9c7c3410c24fd8fde0a995ad24386a36", "type": "electric_scooter", "is_reserved": 0, "lon": -76.9881685}, {"fusion_lat": 0.0, "name": "967c5f88272c315ea241ebeb91e2943c", "is_disabled": 0, "rental_uris": {"android": "https://dc.lft.to/lastmile_qr_scan", "ios": "https://dc.lft.to/lastmile_qr_scan"}, "fusion_lon": 0.0, "lat": 38.92785133333334, "bike_id": "967c5f88272c315ea241ebeb91e2943c", "type": "electric_scooter", "is_reserved": 0, "lon": -77.0531795}, {"fusion_lat": 0.0, "name": "f658901760fddf26bead53c6f4c71eea", "is_disabled": 0, "rental_uris": {"android": "https://dc.lft.to/lastmile_qr_scan", "ios": "https://dc.lft.to/lastmile_qr_scan"}, "fusion_lon": 0.0, "lat": 38.92518416666667, "bike_id": "f658901760fddf26bead53c6f4c71eea", "type": "electric_scooter", "is_reserved": 0, "lon": -77.05035766666667}, {"fusion_lat": 0.0, "name": "fd8659486e0f5afcfcb1fb28255ef3db", "is_disabled": 0, "rental_uris": {"android": "https://dc.lft.to/lastmile_qr_scan", "ios": "https://dc.lft.to/lastmile_qr_scan"}, "fusion_lon": 0.0, "lat": 38.907252166666666, "bike_id": "fd8659486e0f5afcfcb1fb28255ef3db", "type": "electric_scooter", "is_reserved": 0, "lon": -77.02408}, {"fusion_lat": 0.0, "name": "65613b15d34cd4a231bb0ace8f446f01", "is_disabled": 0, "rental_uris": {"android": "https://dc.lft.to/lastmile_qr_scan", "ios": "https://dc.lft.to/lastmile_qr_scan"}, "fusion_lon": 0.0, "lat": 38.909549, "bike_id": "65613b15d34cd4a231bb0ace8f446f01", "type": "electric_scooter", "is_reserved": 0, "lon": -76.985427}, {"fusion_lat": 0.0, "name": "b43ddadc95b0fed63c9b24c9bbf245d9", "is_disabled": 0, "rental_uris": {"android": "https://dc.lft.to/lastmile_qr_scan", "ios": "https://dc.lft.to/lastmile_qr_scan"}, "fusion_lon": 0.0, "lat": 38.9253485, "bike_id": "b43ddadc95b0fed63c9b24c9bbf245d9", "type": "electric_scooter", "is_reserved": 0, "lon": -77.052372}, {"fusion_lat": 0.0, "name": "d010d721387e0b539eb562a227250b4c", "is_disabled": 0, "rental_uris": {"android": "https://dc.lft.to/lastmile_qr_scan", "ios": "https://dc.lft.to/lastmile_qr_scan"}, "fusion_lon": 0.0, "lat": 38.917071166666666, "bike_id": "d010d721387e0b539eb562a227250b4c", "type": "electric_scooter", "is_reserved": 0, "lon": -77.041243}, {"fusion_lat": 0.0, "name": "28d6e1468673cd9a20534dbbac3832a9", "is_disabled": 0, "rental_uris": {"android": "https://dc.lft.to/lastmile_qr_scan", "ios": "https://dc.lft.to/lastmile_qr_scan"}, "fusion_lon": 0.0, "lat": 38.902191, "bike_id": "28d6e1468673cd9a20534dbbac3832a9", "type": "electric_scooter", "is_reserved": 0, "lon": -77.01776766666667}, {"fusion_lat": 0.0, "name": "a70648187b72c9726f177495426efcb6", "is_disabled": 0, "rental_uris": {"android": "https://dc.lft.to/lastmile_qr_scan", "ios": "https://dc.lft.to/lastmile_qr_scan"}, "fusion_lon": 0.0, "lat": 38.92357116666667, "bike_id": "a70648187b72c9726f177495426efcb6", "type": "electric_scooter", "is_reserved": 0, "lon": -77.0337555}, {"fusion_lat": 0.0, "name": "34c244f391ed10550e5c382a3ceecc97", "is_disabled": 0, "rental_uris": {"android": "https://dc.lft.to/lastmile_qr_scan", "ios": "https://dc.lft.to/lastmile_qr_scan"}, "fusion_lon": 0.0, "lat": 38.997756333333335, "bike_id": "34c244f391ed10550e5c382a3ceecc97", "type": "electric_bike", "is_reserved": 0, "lon": -77.04719366666667}, {"fusion_lat": 0.0, "name": "36bfbdbbe2470db0ae4d21c14beae547", "is_disabled": 0, "rental_uris": {"android": "https://dc.lft.to/lastmile_qr_scan", "ios": "https://dc.lft.to/lastmile_qr_scan"}, "fusion_lon": 0.0, "lat": 38.900743, "bike_id": "36bfbdbbe2470db0ae4d21c14beae547", "type": "electric_scooter", "is_reserved": 0, "lon": -77.04781433333333}, {"fusion_lat": 0.0, "name": "f5e15e6f809fa350f1bd0bd6e0d2b362", "is_disabled": 0, "rental_uris": {"android": "https://dc.lft.to/lastmile_qr_scan", "ios": "https://dc.lft.to/lastmile_qr_scan"}, "fusion_lon": 0.0, "lat": 38.9038805, "bike_id": "f5e15e6f809fa350f1bd0bd6e0d2b362", "type": "electric_scooter", "is_reserved": 0, "lon": -77.0482345}, {"fusion_lat": 0.0, "name": "f88dc4ab4003a70c2b1a26d4277602e7", "is_disabled": 0, "rental_uris": {"android": "https://dc.lft.to/lastmile_qr_scan", "ios": "https://dc.lft.to/lastmile_qr_scan"}, "fusion_lon": 0.0, "lat": 38.90566, "bike_id": "f88dc4ab4003a70c2b1a26d4277602e7", "type": "electric_scooter", "is_reserved": 0, "lon": -77.006447}, {"fusion_lat": 0.0, "name": "87dfa4258c35f6bcc3ec3d9e8469592b", "is_disabled": 0, "rental_uris": {"android": "https://dc.lft.to/lastmile_qr_scan", "ios": "https://dc.lft.to/lastmile_qr_scan"}, "fusion_lon": 0.0, "lat": 38.90571933333333, "bike_id": "87dfa4258c35f6bcc3ec3d9e8469592b", "type": "electric_scooter", "is_reserved": 0, "lon": -77.045502}, {"fusion_lat": 0.0, "name": "fbad8a3b22bfc8a612bab658d7850ef4", "is_disabled": 0, "rental_uris": {"android": "https://dc.lft.to/lastmile_qr_scan", "ios": "https://dc.lft.to/lastmile_qr_scan"}, "fusion_lon": 0.0, "lat": 38.937021333333334, "bike_id": "fbad8a3b22bfc8a612bab658d7850ef4", "type": "electric_scooter", "is_reserved": 0, "lon": -77.03281916666667}, {"fusion_lat": 0.0, "name": "c28dddb7bc9854d2c40de0a3fbacc209", "is_disabled": 0, "rental_uris": {"android": "https://dc.lft.to/lastmile_qr_scan", "ios": "https://dc.lft.to/lastmile_qr_scan"}, "fusion_lon": 0.0, "lat": 38.9110765, "bike_id": "c28dddb7bc9854d2c40de0a3fbacc209", "type": "electric_scooter", "is_reserved": 0, "lon": -77.01004416666666}, {"fusion_lat": 0.0, "name": "3ee8cf5b043af27334d4168fc9e93add", "is_disabled": 0, "rental_uris": {"android": "https://dc.lft.to/lastmile_qr_scan", "ios": "https://dc.lft.to/lastmile_qr_scan"}, "fusion_lon": 0.0, "lat": 38.88461083333333, "bike_id": "3ee8cf5b043af27334d4168fc9e93add", "type": "electric_scooter", "is_reserved": 0, "lon": -76.92640583333333}, {"fusion_lat": 0.0, "name": "2db6a397d59d5d903fd1d2f405938cff", "is_disabled": 0, "rental_uris": {"android": "https://dc.lft.to/lastmile_qr_scan", "ios": "https://dc.lft.to/lastmile_qr_scan"}, "fusion_lon": 0.0, "lat": 38.9432025, "bike_id": "2db6a397d59d5d903fd1d2f405938cff", "type": "electric_scooter", "is_reserved": 0, "lon": -77.01555433333333}, {"fusion_lat": 0.0, "name": "c7ccc03407ffe602080c172c0540404d", "is_disabled": 0, "rental_uris": {"android": "https://dc.lft.to/lastmile_qr_scan", "ios": "https://dc.lft.to/lastmile_qr_scan"}, "fusion_lon": 0.0, "lat": 38.91705866666667, "bike_id": "c7ccc03407ffe602080c172c0540404d", "type": "electric_scooter", "is_reserved": 0, "lon": -77.03474116666666}, {"fusion_lat": 0.0, "name": "c8875ce6b4adca5363454b126e301a6f", "is_disabled": 0, "rental_uris": {"android": "https://dc.lft.to/lastmile_qr_scan", "ios": "https://dc.lft.to/lastmile_qr_scan"}, "fusion_lon": 0.0, "lat": 38.92342516666667, "bike_id": "c8875ce6b4adca5363454b126e301a6f", "type": "electric_scooter", "is_reserved": 0, "lon": -77.05181333333333}, {"fusion_lat": 0.0, "name": "b95e92da3b7e027074bb1e15a11d1ac5", "is_disabled": 0, "rental_uris": {"android": "https://dc.lft.to/lastmile_qr_scan", "ios": "https://dc.lft.to/lastmile_qr_scan"}, "fusion_lon": 0.0, "lat": 38.90543016666667, "bike_id": "b95e92da3b7e027074bb1e15a11d1ac5", "type": "electric_scooter", "is_reserved": 0, "lon": -77.05916833333333}, {"fusion_lat": 0.0, "name": "26aa8b8732d6d81b3b005c885e0f794a", "is_disabled": 0, "rental_uris": {"android": "https://dc.lft.to/lastmile_qr_scan", "ios": "https://dc.lft.to/lastmile_qr_scan"}, "fusion_lon": 0.0, "lat": 38.896381833333336, "bike_id": "26aa8b8732d6d81b3b005c885e0f794a", "type": "electric_scooter", "is_reserved": 0, "lon": -77.009283}, {"fusion_lat": 0.0, "name": "50b8b0e48f9ca2a92deaf1fc75fb66ed", "is_disabled": 0, "rental_uris": {"android": "https://dc.lft.to/lastmile_qr_scan", "ios": "https://dc.lft.to/lastmile_qr_scan"}, "fusion_lon": 0.0, "lat": 38.93225133333333, "bike_id": "50b8b0e48f9ca2a92deaf1fc75fb66ed", "type": "electric_scooter", "is_reserved": 0, "lon": -76.994966}, {"fusion_lat": 0.0, "name": "4bd2c8b9968854932222a1142f09df30", "is_disabled": 0, "rental_uris": {"android": "https://dc.lft.to/lastmile_qr_scan", "ios": "https://dc.lft.to/lastmile_qr_scan"}, "fusion_lon": 0.0, "lat": 38.90521716666667, "bike_id": "4bd2c8b9968854932222a1142f09df30", "type": "electric_scooter", "is_reserved": 0, "lon": -77.02986383333334}, {"fusion_lat": 0.0, "name": "84d5b27444e5e9951529511e6e7bad29", "is_disabled": 0, "rental_uris": {"android": "https://dc.lft.to/lastmile_qr_scan", "ios": "https://dc.lft.to/lastmile_qr_scan"}, "fusion_lon": 0.0, "lat": 38.908795, "bike_id": "84d5b27444e5e9951529511e6e7bad29", "type": "electric_scooter", "is_reserved": 0, "lon": -77.04349883333333}, {"fusion_lat": 0.0, "name": "576808c91f7a5bbc1679a796f6156ae4", "is_disabled": 0, "rental_uris": {"android": "https://dc.lft.to/lastmile_qr_scan", "ios": "https://dc.lft.to/lastmile_qr_scan"}, "fusion_lon": 0.0, "lat": 38.896099166666666, "bike_id": "576808c91f7a5bbc1679a796f6156ae4", "type": "electric_scooter", "is_reserved": 0, "lon": -76.98109283333334}, {"fusion_lat": 0.0, "name": "6913c691a21f0691b9084ec22f3a0e16", "is_disabled": 0, "rental_uris": {"android": "https://dc.lft.to/lastmile_qr_scan", "ios": "https://dc.lft.to/lastmile_qr_scan"},