{"data": {"bikes": [{"rental_uris": {"ios": "https://dc.lft.to/lastmile_qr_scan", "android": "https://dc.lft.to/lastmile_qr_scan"}, "lat": 38.9286545, "is_disabled": 0, "bike_id": "3ad2088f4ed0869596585142b3902084", "name": "3ad2088f4ed0869596585142b3902084", "type": "electric_scooter", "fusion_lon": 0.0, "is_reserved": 0, "fusion_lat": 0.0, "lon": -77.03588683333334}, {"rental_uris": {"ios": "https://dc.lft.to/lastmile_qr_scan", "android": "https://dc.lft.to/lastmile_qr_scan"}, "lat": 38.917874833333336, "is_disabled": 0, "bike_id": "2555e2dddaedc48cb05cbbbb92e86c2f", "name": "2555e2dddaedc48cb05cbbbb92e86c2f", "type": "electric_scooter", "fusion_lon": 0.0, "is_reserved": 0, "fusion_lat": 0.0, "lon": -76.9733725}, {"rental_uris": {"ios": "https://dc.lft.to/lastmile_qr_scan", "android": "https://dc.lft.to/lastmile_qr_scan"}, "lat": 38.89991633333333, "is_disabled": 0, "bike_id": "4b3b9dd740aa71f7c41e447e5e21e69e", "name": "4b3b9dd740aa71f7c41e447e5e21e69e", "type": "electric_scooter", "fusion_lon": 0.0, "is_reserved": 0, "fusion_lat": 0.0, "lon": -77.00144566666667}, {"rental_uris": {"ios": "https://dc.lft.to/lastmile_qr_scan", "android": "https://dc.lft.to/lastmile_qr_scan"}, "lat": 38.9996575, "is_disabled": 0, "bike_id": "3e39b423dda1efb70cb2d834658baf79", "name": "3e39b423dda1efb70cb2d834658baf79", "type": "electric_bike", "fusion_lon": 0.0, "is_reserved": 0, "fusion_lat": 0.0, "lon": -77.0511875}, {"rental_uris": {"ios": "https://dc.lft.to/lastmile_qr_scan", "android": "https://dc.lft.to/lastmile_qr_scan"}, "lat": 38.921092, "is_disabled": 0, "bike_id": "20f47cab381be9cf9ec1f8ef722b6c3c", "name": "20f47cab381be9cf9ec1f8ef722b6c3c", "type": "electric_scooter", "fusion_lon": 0.0, "is_reserved": 0, "fusion_lat": 0.0, "lon": -77.03910483333334}, {"rental_uris": {"ios": "https://dc.lft.to/lastmile_qr_scan", "android": "https://dc.lft.to/lastmile_qr_scan"}, "lat": 38.876399666666664, "is_disabled": 0, "bike_id": "70afaf31efb8add5ea751f566c233585", "name": "70afaf31efb8add5ea751f566c233585", "type": "electric_scooter", "fusion_lon": 0.0, "is_reserved": 0, "fusion_lat": 0.0, "lon": -77.003352}, {"rental_uris": {"ios": "https://dc.lft.to/lastmile_qr_scan", "android": "https://dc.lft.to/lastmile_qr_scan"}, "lat": 39.11505616666667, "is_disabled": 0, "bike_id": "c298e74d7097399f06793f91c43e7c15", "name": "c298e74d7097399f06793f91c43e7c15", "type": "electric_bike", "fusion_lon": 0.0, "is_reserved": 0, "fusion_lat": 0.0, "lon": -77.19547133333333}, {"rental_uris": {"ios": "https://dc.lft.to/lastmile_qr_scan", "android": "https://dc.lft.to/lastmile_qr_scan"}, "lat": 38.928406333333335, "is_disabled": 0, "bike_id": "3972fa44fdce96ef84567d8146a3e3b6", "name": "3972fa44fdce96ef84567d8146a3e3b6", "type": "electric_scooter", "fusion_lon": 0.0, "is_reserved": 0, "fusion_lat": 0.0, "lon": -76.993678}, {"rental_uris": {"ios": "https://dc.lft.to/lastmile_qr_scan", "android": "https://dc.lft.to/lastmile_qr_scan"}, "lat": 38.970665333333336, "is_disabled": 0, "bike_id": "0192d416238443d0d4a22355431eeb87", "name": "0192d416238443d0d4a22355431eeb87", "type": "electric_bike", "fusion_lon": 0.0, "is_reserved": 0, "fusion_lat": 0.0, "lon": -76.96018766666667}, {"rental_uris": {"ios": "https://dc.lft.to/lastmile_qr_scan", "android": "https://dc.lft.to/lastmile_qr_scan"}, "lat": 38.92264266666667, "is_disabled": 0, "bike_id": "70829fdf6d89efaafe23e0b257b1d23a", "name": "70829fdf6d89efaafe23e0b257b1d23a", "type": "electric_scooter", "fusion_lon": 0.0, "is_reserved": 0, "fusion_lat": 0.0, "lon": -76.9940195}, {"rental_uris": {"ios": "https://dc.lft.to/lastmile_qr_scan", "android": "https://dc.lft.to/lastmile_qr_scan"}, "lat": 38.91690883333333, "is_disabled": 0, "bike_id": "9df07b9a90345296efd42ee4efd01afc", "name": "9df07b9a90345296efd42ee4efd01afc", "type": "electric_scooter", "fusion_lon": 0.0, "is_reserved": 0, "fusion_lat": 0.0, "lon": -77.02952283333333}, {"rental_uris": {"ios": "https://dc.lft.to/lastmile_qr_scan", "android": "https://dc.lft.to/lastmile_qr_scan"}, "lat": 38.90787666666667, "is_disabled": 0, "bike_id": "73b173f6765d67d07e8e8c60a855f2d4", "name": "73b173f6765d67d07e8e8c60a855f2d4", "type": "electric_scooter", "fusion_lon": 0.0, "is_reserved": 0, "fusion_lat": 0.0, "lon": -77.0430265}, {"rental_uris": {"ios": "https://dc.lft.to/lastmile_qr_scan", "android": "https://dc.lft.to/lastmile_qr_scan"}, "lat": 38.90012816666667, "is_disabled": 0, "bike_id": "e944e27ea0325f7632e5d29ef930b401", "name": "e944e27ea0325f7632e5d29ef930b401", "type": "electric_scooter", "fusion_lon": 0.0, "is_reserved": 0, "fusion_lat": 0.0, "lon": -77.0465605}, {"rental_uris": {"ios": "https://dc.lft.to/lastmile_qr_scan", "android": "https://dc.lft.to/lastmile_qr_scan"}, "lat": 38.90107533333333, "is_disabled": 0, "bike_id": "51d43f954ca1c3c428518135565e69fc", "name": "51d43f954ca1c3c428518135565e69fc", "type": "electric_scooter", "fusion_lon": 0.0, "is_reserved": 0, "fusion_lat": 0.0, "lon": -77.04054916666666}, {"rental_uris": {"ios": "https://dc.lft.to/lastmile_qr_scan", "android": "https://dc.lft.to/lastmile_qr_scan"}, "lat": 38.838436, "is_disabled": 0, "bike_id": "9cec910ca982f49f51f42c006e62bcc9", "name": "9cec910ca982f49f51f42c006e62bcc9", "type": "electric_scooter", "fusion_lon": 0.0, "is_reserved": 0, "fusion_lat": 0.0, "lon": -76.9998825}, {"rental_uris": {"ios": "https://dc.lft.to/lastmile_qr_scan", "android": "https://dc.lft.to/lastmile_qr_scan"}, "lat": 38.86507133333333, "is_disabled": 0, "bike_id": "0b69a9727eaa82dab3a4e756471ba659", "name": "0b69a9727eaa82dab3a4e756471ba659", "type": "electric_scooter", "fusion_lon": 0.0, "is_reserved": 0, "fusion_lat": 0.0, "lon": -76.99006083333333}, {"rental_uris": {"ios": "https://dc.lft.to/lastmile_qr_scan", "android": "https://dc.lft.to/lastmile_qr_scan"}, "lat": 38.905074, "is_disabled": 0, "bike_id": "49d4c4744885e70d0ce69138704eec65", "name": "49d4c4744885e70d0ce69138704eec65", "type": "electric_scooter", "fusion_lon": 0.0, "is_reserved": 0, "fusion_lat": 0.0, "lon": -77.04486316666667}, {"rental_uris": {"ios": "https://dc.lft.to/lastmile_qr_scan", "android": "https://dc.lft.to/lastmile_qr_scan"}, "lat": 38.92335666666666, "is_disabled": 0, "bike_id": "2a40ba26215817c539c6eaa58c0bc757", "name": "2a40ba26215817c539c6eaa58c0bc757", "type": "electric_scooter", "fusion_lon": 0.0, "is_reserved": 0, "fusion_lat": 0.0, "lon": -77.03891483333334}, {"rental_uris": {"ios": "https://dc.lft.to/lastmile_qr_scan", "android": "https://dc.lft.to/lastmile_qr_scan"}, "lat": 38.89554316666667, "is_disabled": 0, "bike_id": "3fd1d4aed3f69b3b3cc0763c3b4768f7", "name": "3fd1d4aed3f69b3b3cc0763c3b4768f7", "type": "electric_scooter", "fusion_lon": 0.0, "is_reserved": 0, "fusion_lat": 0.0, "lon": -77.01113966666666}, {"rental_uris": {"ios": "https://dc.lft.to/lastmile_qr_scan", "android": "https://dc.lft.to/lastmile_qr_scan"}, "lat": 38.860453666666665, "is_disabled": 0, "bike_id": "eca14466c671b5cf9f420b63a625bcb1", "name": "eca14466c671b5cf9f420b63a625bcb1", "type": "electric_scooter", "fusion_lon": 0.0, "is_reserved": 0, "fusion_lat": 0.0, "lon": -76.99084333333333}, {"rental_uris": {"ios": "https://dc.lft.to/lastmile_qr_scan", "android": "https://dc.lft.to/lastmile_qr_scan"}, "lat": 38.93556916666667, "is_disabled": 0, "bike_id": "89395b41941d9d0754d854e59fb63c07", "name": "89395b41941d9d0754d854e59fb63c07", "type": "electric_scooter", "fusion_lon": 0.0, "is_reserved": 0, "fusion_lat": 0.0, "lon": -77.0822475}, {"rental_uris": {"ios": "https://dc.lft.to/lastmile_qr_scan", "android": "https://dc.lft.to/lastmile_qr_scan"}, "lat": 38.949982, "is_disabled": 0, "bike_id": "a01af3e4a85dc4cf5ef074ba9e8a6d08", "name": "a01af3e4a85dc4cf5ef074ba9e8a6d08", "type": "electric_scooter", "fusion_lon": 0.0, "is_reserved": 0, "fusion_lat": 0.0, "lon": -77.02705816666666}, {"rental_uris": {"ios": "https://dc.lft.to/lastmile_qr_scan", "android": "https://dc.lft.to/lastmile_qr_scan"}, "lat": 38.90963566666667, "is_disabled": 0, "bike_id": "8ed023319c68d5c82864df4f41c6234a", "name": "8ed023319c68d5c82864df4f41c6234a", "type": "electric_scooter", "fusion_lon": 0.0, "is_reserved": 0, "fusion_lat": 0.0, "lon": -77.0461075}, {"rental_uris": {"ios": "https://dc.lft.to/lastmile_qr_scan", "android": "https://dc.lft.to/lastmile_qr_scan"}, "lat": 38.92239933333333, "is_disabled": 0, "bike_id": "6819de618f93db1c2e84094e5bbb36fd", "name": "6819de618f93db1c2e84094e5bbb36fd", "type": "electric_scooter", "fusion_lon": 0.0, "is_reserved": 0, "fusion_lat": 0.0, "lon": -77.04404966666667}, {"rental_uris": {"ios": "https://dc.lft.to/lastmile_qr_scan", "android": "https://dc.lft.to/lastmile_qr_scan"}, "lat": 38.89921316666667, "is_disabled": 0, "bike_id": "746ccb3500ef13f23fe254f95deefcb1", "name": "746ccb3500ef13f23fe254f95deefcb1", "type": "electric_scooter", "fusion_lon": 0.0, "is_reserved": 0, "fusion_lat": 0.0, "lon": -77.01913266666666}, {"rental_uris": {"ios": "https://dc.lft.to/lastmile_qr_scan", "android": "https://dc.lft.to/lastmile_qr_scan"}, "lat": 39.0890055, "is_disabled": 0, "bike_id": "596a34b1c2e9758109835c0ad2bb2f12", "name": "596a34b1c2e9758109835c0ad2bb2f12", "type": "electric_bike", "fusion_lon": 0.0, "is_reserved": 0, "fusion_lat": 0.0, "lon": -77.17848633333334}, {"rental_uris": {"ios": "https://dc.lft.to/lastmile_qr_scan", "android": "https://dc.lft.to/lastmile_qr_scan"}, "lat": 39.05446033333333, "is_disabled": 0, "bike_id": "2e0aba30b3fc7eb61e07750f77c82501", "name": "2e0aba30b3fc7eb61e07750f77c82501", "type": "electric_bike", "fusion_lon": 0.0, "is_reserved": 0, "fusion_lat": 0.0, "lon": -77.04306666666666}, {"rental_uris": {"ios": "https://dc.lft.to/lastmile_qr_scan", "android": "https://dc.lft.to/lastmile_qr_scan"}, "lat": 38.929968, "is_disabled": 0, "bike_id": "f65956b3d90779e087fdc10cde427e4f", "name": "f65956b3d90779e087fdc10cde427e4f", "type": "electric_scooter", "fusion_lon": 0.0, "is_reserved": 0, "fusion_lat": 0.0, "lon": -77.02351833333333}, {"rental_uris": {"ios": "https://dc.lft.to/lastmile_qr_scan", "android": "https://dc.lft.to/lastmile_qr_scan"}, "lat": 38.93909333333333, "is_disabled": 0, "bike_id": "c25ebf1c46d30d7c3295c326fac71ca8", "name": "c25ebf1c46d30d7c3295c326fac71ca8", "type": "electric_scooter", "fusion_lon": 0.0, "is_reserved": 0, "fusion_lat": 0.0, "lon": -77.06044016666667}, {"rental_uris": {"ios": "https://dc.lft.to/lastmile_qr_scan", "android": "https://dc.lft.to/lastmile_qr_scan"}, "lat": 38.907848, "is_disabled": 0, "bike_id": "45d9accdf6457cdd257915287ad1c5d0", "name": "45d9accdf6457cdd257915287ad1c5d0", "type": "electric_scooter", "fusion_lon": 0.0, "is_reserved": 0, "fusion_lat": 0.0, "lon": -77.0640035}, {"rental_uris": {"ios": "https://dc.lft.to/lastmile_qr_scan", "android": "https://dc.lft.to/lastmile_qr_scan"}, "lat": 38.909757166666665, "is_disabled": 0, "bike_id": "6734a7aed41b595c44f5e4b6bdffdf76", "name": "6734a7aed41b595c44f5e4b6bdffdf76", "type": "electric_scooter", "fusion_lon": 0.0, "is_reserved": 0, "fusion_lat": 0.0, "lon": -77.04270883333334}, {"rental_uris": {"ios": "https://dc.lft.to/lastmile_qr_scan", "android": "https://dc.lft.to/lastmile_qr_scan"}, "lat": 38.87532366666667, "is_disabled": 0, "bike_id": "683da800f1285181ecef32a3f2fe54c7", "name": "683da800f1285181ecef32a3f2fe54c7", "type": "electric_scooter", "fusion_lon": 0.0, "is_reserved": 0, "fusion_lat": 0.0, "lon": -77.00554}, {"rental_uris": {"ios": "https://dc.lft.to/lastmile_qr_scan", "android": "https://dc.lft.to/lastmile_qr_scan"}, "lat": 38.942772833333336, "is_disabled": 0, "bike_id": "db0dab8410177a7066c9b5b3dba73f4b", "name": "db0dab8410177a7066c9b5b3dba73f4b", "type": "electric_scooter", "fusion_lon": 0.0, "is_reserved": 0, "fusion_lat": 0.0, "lon": -77.02943716666667}, {"rental_uris": {"ios": "https://dc.lft.to/lastmile_qr_scan", "android": "https://dc.lft.to/lastmile_qr_scan"}, "lat": 38.905221, "is_disabled": 0, "bike_id": "b548039cbe1ce19f9650e20eb90c8199", "name": "b548039cbe1ce19f9650e20eb90c8199", "type": "electric_scooter", "fusion_lon": 0.0, "is_reserved": 0, "fusion_lat": 0.0, "lon": -77.05109283333333}, {"rental_uris": {"ios": "https://dc.lft.to/lastmile_qr_scan", "android": "https://dc.lft.to/lastmile_qr_scan"}, "lat": 38.863764, "is_disabled": 0, "bike_id": "8e00b1ebca5b488a59a8d0c25ac3c809", "name": "8e00b1ebca5b488a59a8d0c25ac3c809", "type": "electric_bike", "fusion_lon": 0.0, "is_reserved": 0, "fusion_lat": 0.0, "lon": -77.1290365}, {"rental_uris": {"ios": "https://dc.lft.to/lastmile_qr_scan", "android": "https://dc.lft.to/lastmile_qr_scan"}, "lat": 38.9092865, "is_disabled": 0, "bike_id": "b884ec9bb673fb895d22b51c450b4849", "name": "b884ec9bb673fb895d22b51c450b4849", "type": "electric_scooter", "fusion_lon": 0.0, "is_reserved": 0, "fusion_lat": 0.0, "lon": -77.03989283333334}, {"rental_uris": {"ios": "https://dc.lft.to/lastmile_qr_scan", "android": "https://dc.lft.to/lastmile_qr_scan"}, "lat": 38.92434133333333, "is_disabled": 0, "bike_id": "0f797366c7f2d38024c22be3b19e693a", "name": "0f797366c7f2d38024c22be3b19e693a", "type": "electric_scooter", "fusion_lon": 0.0, "is_reserved": 0, "fusion_lat": 0.0, "lon": -77.0404635}, {"rental_uris": {"ios": "https://dc.lft.to/lastmile_qr_scan", "android": "https://dc.lft.to/lastmile_qr_scan"}, "lat": 39.022962666666665, "is_disabled": 0, "bike_id": "4262157c6e89e849f89246cb95a20b70", "name": "4262157c6e89e849f89246cb95a20b70", "type": "electric_bike", "fusion_lon": 0.0, "is_reserved": 0, "fusion_lat": 0.0, "lon": -77.02107533333333}, {"rental_uris": {"ios": "https://dc.lft.to/lastmile_qr_scan", "android": "https://dc.lft.to/lastmile_qr_scan"}, "lat": 38.9366535, "is_disabled": 0, "bike_id": "bec3320f475cad54de6337a23d4e528e", "name": "bec3320f475cad54de6337a23d4e528e", "type": "electric_scooter", "fusion_lon": 0.0, "is_reserved": 0, "fusion_lat": 0.0, "lon": -77.03262083333334}, {"rental_uris": {"ios": "https://dc.lft.to/lastmile_qr_scan", "android": "https://dc.lft.to/lastmile_qr_scan"}, "lat": 38.90596383333333, "is_disabled": 0, "bike_id": "5b7a629c255b7516f3fbfb7caf73cdfb", "name": "5b7a629c255b7516f3fbfb7caf73cdfb", "type": "electric_scooter", "fusion_lon": 0.0, "is_reserved": 0, "fusion_lat": 0.0, "lon": -77.046723}, {"rental_uris": {"ios": "https://dc.lft.to/lastmile_qr_scan", "android": "https://dc.lft.to/lastmile_qr_scan"}, "lat": 38.892335333333335, "is_disabled": 0, "bike_id": "1e01a97d2cfc2d932cd919dd5a7036dc", "name": "1e01a97d2cfc2d932cd919dd5a7036dc", "type": "electric_scooter", "fusion_lon": 0.0, "is_reserved": 0, "fusion_lat": 0.0, "lon": -77.02828516666666}, {"rental_uris": {"ios": "https://dc.lft.to/lastmile_qr_scan", "android": "https://dc.lft.to/lastmile_qr_scan"}, "lat": 38.89554533333333, "is_disabled": 0, "bike_id": "56a8063e53a017e50851eb78083bebf0", "name": "56a8063e53a017e50851eb78083bebf0", "type": "electric_scooter", "fusion_lon": 0.0, "is_reserved": 0, "fusion_lat": 0.0, "lon": -77.046735}, {"rental_uris": {"ios": "https://dc.lft.to/lastmile_qr_scan", "android": "https://dc.lft.to/lastmile_qr_scan"}, "lat": 38.90899783333333, "is_disabled": 0, "bike_id": "466e01108da1a6b0afe867327b496e6e", "name": "466e01108da1a6b0afe867327b496e6e", "type": "electric_scooter", "fusion_lon": 0.0, "is_reserved": 0, "fusion_lat": 0.0, "lon": -77.00316783333334}, {"rental_uris": {"ios": "https://dc.lft.to/lastmile_qr_scan", "android": "https://dc.lft.to/lastmile_qr_scan"}, "lat": 38.91496583333333, "is_disabled": 0, "bike_id": "9c55069f1fbbdd9954dd90acb51dc604", "name": "9c55069f1fbbdd9954dd90acb51dc604", "type": "electric_scooter", "fusion_lon": 0.0, "is_reserved": 0, "fusion_lat": 0.0, "lon": -76.983492}, {"rental_uris": {"ios": "https://dc.lft.to/lastmile_qr_scan", "android": "https://dc.lft.to/lastmile_qr_scan"}, "lat": 38.923178666666665, "is_disabled": 0, "bike_id": "6fc2272c091ba96f6be722c8b3fe004c", "name": "6fc2272c091ba96f6be722c8b3fe004c", "type": "electric_scooter", "fusion_lon": 0.0, "is_reserved": 0, "fusion_lat": 0.0, "lon": -77.05433383333333}, {"rental_uris": {"ios": "https://dc.lft.to/lastmile_qr_scan", "android": "https://dc.lft.to/lastmile_qr_scan"}, "lat": 38.91710633333334, "is_disabled": 0, "bike_id": "47abea9e05151c75ce2fbc61e6c299ee", "name": "47abea9e05151c75ce2fbc61e6c299ee", "type": "electric_scooter", "fusion_lon": 0.0, "is_reserved": 0, "fusion_lat": 0.0, "lon": -77.0373535}, {"rental_uris": {"ios": "https://dc.lft.to/lastmile_qr_scan", "android": "https://dc.lft.to/lastmile_qr_scan"}, "lat": 38.90051233333333, "is_disabled": 0, "bike_id": "c8f658b32998932923540e89fa5909e7", "name": "c8f658b32998932923540e89fa5909e7", "type": "electric_scooter", "fusion_lon": 0.0, "is_reserved": 0, "fusion_lat": 0.0, "lon": -77.000716}, {"rental_uris": {"ios": "https://dc.lft.to/lastmile_qr_scan", "android": "https://dc.lft.to/lastmile_qr_scan"}, "lat": 38.896082166666666, "is_disabled": 0, "bike_id": "3b0ae4b541f0e37a89634095ff1b079d", "name": "3b0ae4b541f0e37a89634095ff1b079d", "type": "electric_scooter", "fusion_lon": 0.0, "is_reserved": 0, "fusion_lat": 0.0, "lon": -77.00926833333334}, {"rental_uris": {"ios": "https://dc.lft.to/lastmile_qr_scan", "android": "https://dc.lft.to/lastmile_qr_scan"}, "lat": 38.95133516666667, "is_disabled": 0, "bike_id": "451c2f4ca91479e46402633b4fcb315d", "name": "451c2f4ca91479e46402633b4fcb315d", "type": "electric_scooter", "fusion_lon": 0.0, "is_reserved": 0, "fusion_lat": 0.0, "lon": -77.02725466666666}, {"rental_uris": {"ios": "https://dc.lft.to/lastmile_qr_scan", "android": "https://dc.lft.to/lastmile_qr_scan"}, "lat": 38.9028115, "is_disabled": 0, "bike_id": "7642d5ac1bfdc660da9862002cad0320", "name": "7642d5ac1bfdc660da9862002cad0320", "type": "electric_scooter", "fusion_lon": 0.0, "is_reserved": 0, "fusion_lat": 0.0, "lon": -77.0343945}, {"rental_uris": {"ios": "https://dc.lft.to/lastmile_qr_scan", "android": "https://dc.lft.to/lastmile_qr_scan"}, "lat": 38.950001, "is_disabled": 0, "bike_id": "0facd1fe5a71f629a611bb4d37c724a6", "name": "0facd1fe5a71f629a611bb4d37c724a6", "type": "electric_bike", "fusion_lon": 0.0, "is_reserved": 0, "fusion_lat": 0.0, "lon": -77.3530885}, {"rental_uris": {"ios": "https://dc.lft.to/lastmile_qr_scan", "android": "https://dc.lft.to/lastmile_qr_scan"}, "lat": 38.90578566666667, "is_disabled": 0, "bike_id": "a91b288651112465ca942899fb75b354", "name": "a91b288651112465ca942899fb75b354", "type": "electric_scooter", "fusion_lon": 0.0, "is_reserved": 0, "fusion_lat": 0.0, "lon": -77.02691083333333}, {"rental_uris": {"ios": "https://dc.lft.to/lastmile_qr_scan", "android": "https://dc.lft.to/lastmile_qr_scan"}, "lat": 38.93878333333333, "is_disabled": 0, "bike_id": "f10d35599ec7a3d2f9eb822931bd914d", "name": "f10d35599ec7a3d2f9eb822931bd914d", "type": "electric_scooter", "fusion_lon": 0.0, "is_reserved": 0, "fusion_lat": 0.0, "lon": -77.02480133333333}, {"rental_uris": {"ios": "https://dc.lft.to/lastmile_qr_scan", "android": "https://dc.lft.to/lastmile_qr_scan"}, "lat": 38.942421, "is_disabled": 0, "bike_id": "99f2e728b94d338ba51be65082710043", "name": "99f2e728b94d338ba51be65082710043", "type": "electric_scooter", "fusion_lon": 0.0, "is_reserved": 0, "fusion_lat": 0.0, "lon": -77.02515683333333}, {"rental_uris": {"ios": "https://dc.lft.to/lastmile_qr_scan", "android": "https://dc.lft.to/lastmile_qr_scan"}, "lat": 38.93406483333333, "is_disabled": 0, "bike_id": "a78d3c900c140be0cada7e3057902b3b", "name": "a78d3c900c140be0cada7e3057902b3b", "type": "electric_scooter", "fusion_lon": 0.0, "is_reserved": 0, "fusion_lat": 0.0, "lon": -77.0326865}, {"rental_uris": {"ios": "https://dc.lft.to/lastmile_qr_scan", "android": "https://dc.lft.to/lastmile_qr_scan"}, "lat": 38.90559833333333, "is_disabled": 0, "bike_id": "4bff63e6899715af6101cd9e447b4296", "name": "4bff63e6899715af6101cd9e447b4296", "type": "electric_scooter", "fusion_lon": 0.0, "is_reserved": 0, "fusion_lat": 0.0, "lon": -77.04510766666667}, {"rental_uris": {"ios": "https://dc.lft.to/lastmile_qr_scan", "android": "https://dc.lft.to/lastmile_qr_scan"}, "lat": 38.884075, "is_disabled": 0, "bike_id": "c5c9d06a0fcc51e1950b3a54af916d0c", "name": "c5c9d06a0fcc51e1950b3a54af916d0c", "type": "electric_scooter", "fusion_lon": 0.0, "is_reserved": 0, "fusion_lat": 0.0, "lon": -77.03052166666667}, {"rental_uris": {"ios": "https://dc.lft.to/lastmile_qr_scan", "android": "https://dc.lft.to/lastmile_qr_scan"}, "lat": 38.90707, "is_disabled": 0, "bike_id": "c18a0f393976dc5c191d1daaae27e9b4", "name": "c18a0f393976dc5c191d1daaae27e9b4", "type": "electric_scooter", "fusion_lon": 0.0, "is_reserved": 0, "fusion_lat": 0.0, "lon": -77.00587333333333}, {"rental_uris": {"ios": "https://dc.lft.to/lastmile_qr_scan", "android": "https://dc.lft.to/lastmile_qr_scan"}, "lat": 38.91181483333333, "is_disabled": 0, "bike_id": "32437a6a63e56d7a1339a462b0b4dc8d", "name": "32437a6a63e56d7a1339a462b0b4dc8d", "type": "electric_scooter", "fusion_lon": 0.0, "is_reserved": 0, "fusion_lat": 0.0, "lon": -77.0318665}, {"rental_uris": {"ios": "https://dc.lft.to/lastmile_qr_scan", "android": "https://dc.lft.to/lastmile_qr_scan"}, "lat": 38.89886933333333, "is_disabled": 0, "bike_id": "6c3693318fd352377841400e413ca4a4", "name": "6c3693318fd352377841400e413ca4a4", "type": "electric_scooter", "fusion_lon": 0.0, "is_reserved": 0, "fusion_lat": 0.0, "lon": -76.98571516666667}, {"rental_uris": {"ios": "https://dc.lft.to/lastmile_qr_scan", "android": "https://dc.lft.to/lastmile_qr_scan"}, "lat": 38.93584966666667, "is_disabled": 0, "bike_id": "aa38fa122a4c3686b099788da8975c7c", "name": "aa38fa122a4c3686b099788da8975c7c", "type": "electric_scooter", "fusion_lon": 0.0, "is_reserved": 0, "fusion_lat": 0.0, "lon": -77.02434616666666}, {"rental_uris": {"ios": "https://dc.lft.to/lastmile_qr_scan", "android": "https://dc.lft.to/lastmile_qr_scan"}, "lat": 38.923440666666664, "is_disabled": 0, "bike_id": "29b85084bba80414411163247e8d561b", "name": "29b85084bba80414411163247e8d561b", "type": "electric_scooter", "fusion_lon": 0.0, "is_reserved": 0, "fusion_lat": 0.0, "lon": -77.01901533333333}, {"rental_uris": {"ios": "https://dc.lft.to/lastmile_qr_scan", "android": "https://dc.lft.to/lastmile_qr_scan"}, "lat": 38.89827716666667, "is_disabled": 0, "bike_id": "435f841fcb8904c295b772585da1653f", "name": "435f841fcb8904c295b772585da1653f", "type": "electric_scooter", "fusion_lon": 0.0, "is_reserved": 0, "fusion_lat": 0.0, "lon": -76.94650716666666}, {"rental_uris": {"ios": "https://dc.lft.to/lastmile_qr_scan", "android": "https://dc.lft.to/lastmile_qr_scan"}, "lat": 38.99062583333333, "is_disabled": 0, "bike_id": "0599dea34b5c4bd588a74e3c2b7d4ce6", "name": "0599dea34b5c4bd588a74e3c2b7d4ce6", "type": "electric_bike", "fusion_lon": 0.0, "is_reserved": 0, "fusion_lat": 0.0, "lon": -77.10025133333333}, {"rental_uris": {"ios": "https://dc.lft.to/lastmile_qr_scan", "android": "https://dc.lft.to/lastmile_qr_scan"}, "lat": 38.893576, "is_disabled": 0, "bike_id": "bd33921a5349ccedf72851205bec138d", "name": "bd33921a5349ccedf72851205bec138d", "type": "electric_scooter", "fusion_lon": 0.0, "is_reserved": 0, "fusion_lat": 0.0, "lon": -77.00338616666667}, {"rental_uris": {"ios": "https://dc.lft.to/lastmile_qr_scan", "android": "https://dc.lft.to/lastmile_qr_scan"}, "lat": 38.8955465, "is_disabled": 0, "bike_id": "38b4f083aaccd657ce73b72115053636", "name": "38b4f083aaccd657ce73b72115053636", "type": "electric_scooter", "fusion_lon": 0.0, "is_reserved": 0, "fusion_lat": 0.0, "lon": -77.00918366666667}, {"rental_uris": {"ios": "https://dc.lft.to/lastmile_qr_scan", "android": "https://dc.lft.to/lastmile_qr_scan"}, "lat": 38.909558833333335, "is_disabled": 0, "bike_id": "f1bf6797fd3250c5564b8ccd5989b031", "name": "f1bf6797fd3250c5564b8ccd5989b031", "type": "electric_scooter", "fusion_lon": 0.0, "is_reserved": 0, "fusion_lat": 0.0, "lon": -77.03267566666666}, {"rental_uris": {"ios": "https://dc.lft.to/lastmile_qr_scan", "android": "https://dc.lft.to/lastmile_qr_scan"}, "lat": 38.9125785, "is_disabled": 0, "bike_id": "7d0e38d42abcd2c9edf419a60a833ca7", "name": "7d0e38d42abcd2c9edf419a60a833ca7", "type": "electric_scooter", "fusion_lon": 0.0, "is_reserved": 0, "fusion_lat": 0.0, "lon": -77.04094116666667}, {"rental_uris": {"ios": "https://dc.lft.to/lastmile_qr_scan", "android": "https://dc.lft.to/lastmile_qr_scan"}, "lat": 38.9248725, "is_disabled": 0, "bike_id": "213bd7f3ad74d023869a348fc1ee2ed9", "name": "213bd7f3ad74d023869a348fc1ee2ed9", "type": "electric_scooter", "fusion_lon": 0.0, "is_reserved": 0, "fusion_lat": 0.0, "lon": -77.02141983333334}, {"rental_uris": {"ios": "https://dc.lft.to/lastmile_qr_scan", "android": "https://dc.lft.to/lastmile_qr_scan"}, "lat": 38.874945, "is_disabled": 0, "bike_id": "a47985da5ae74c156abfe9f37449e017", "name": "a47985da5ae74c156abfe9f37449e017", "type": "electric_bike", "fusion_lon": 0.0, "is_reserved": 0, "fusion_lat": 0.0, "lon": -77.04899816666666}, {"rental_uris": {"ios": "https://dc.lft.to/lastmile_qr_scan", "android": "https://dc.lft.to/lastmile_qr_scan"}, "lat": 38.9163155, "is_disabled": 0, "bike_id": "fd0b8a4d7fb0cfb7e4ecca5dbb690539", "name": "fd0b8a4d7fb0cfb7e4ecca5dbb690539", "type": "electric_scooter", "fusion_lon": 0.0, "is_reserved": 0, "fusion_lat": 0.0, "lon": -77.02553683333333}, {"rental_uris": {"ios": "https://dc.lft.to/lastmile_qr_scan", "android": "https://dc.lft.to/lastmile_qr_scan"}, "lat": 38.90885333333333, "is_disabled": 0, "bike_id": "af3e8048525d480fbe1e8d21362c667f", "name": "af3e8048525d480fbe1e8d21362c667f", "type": "electric_scooter", "fusion_lon": 0.0, "is_reserved": 0, "fusion_lat": 0.0, "lon": -77.06468066666666}, {"rental_uris": {"ios": "https://dc.lft.to/lastmile_qr_scan", "android": "https://dc.lft.to/lastmile_qr_scan"}, "lat": 38.919826666666665, "is_disabled": 0, "bike_id": "a7822aa0ffe5c4d836b61961b6db273c", "name": "a7822aa0ffe5c4d836b61961b6db273c", "type": "electric_scooter", "fusion_lon": 0.0, "is_reserved": 0, "fusion_lat": 0.0, "lon": -77.03962733333333}, {"rental_uris": {"ios": "https://dc.lft.to/lastmile_qr_scan", "android": "https://dc.lft.to/lastmile_qr_scan"}, "lat": 38.8841945, "is_disabled": 0, "bike_id": "01206e9d858044d07d5c5e376cd756cb", "name": "01206e9d858044d07d5c5e376cd756cb", "type": "electric_scooter", "fusion_lon": 0.0, "is_reserved": 0, "fusion_lat": 0.0, "lon": -76.99543733333333}, {"rental_uris": {"ios": "https://dc.lft.to/lastmile_qr_scan", "android": "https://dc.lft.to/lastmile_qr_scan"}, "lat": 38.881481666666666, "is_disabled": 0, "bike_id": "db2d70f85701007d456a17538c5c58fa", "name": "db2d70f85701007d456a17538c5c58fa", "type": "electric_bike", "fusion_lon": 0.0, "is_reserved": 0, "fusion_lat": 0.0, "lon": -77.111861}, {"rental_uris": {"ios": "https://dc.lft.to/lastmile_qr_scan", "android": "https://dc.lft.to/lastmile_qr_scan"}, "lat": 38.9344885, "is_disabled": 0, "bike_id": "b95c75ceb222cc2a5c397bd533211e30", "name": "b95c75ceb222cc2a5c397bd533211e30", "type": "electric_scooter", "fusion_lon": 0.0, "is_reserved": 0, "fusion_lat": 0.0, "lon": -76.96415516666667}, {"rental_uris": {"ios": "https://dc.lft.to/lastmile_qr_scan", "android": "https://dc.lft.to/lastmile_qr_scan"}, "lat": 38.9620715, "is_disabled": 0, "bike_id": "e464bf65776c82382a2a8ab36cddf28e", "name": "e464bf65776c82382a2a8ab36cddf28e", "type": "electric_scooter", "fusion_lon": 0.0, "is_reserved": 0, "fusion_lat": 0.0, "lon": -77.02346933333334}, {"rental_uris": {"ios": "https://dc.lft.to/lastmile_qr_scan", "android": "https://dc.lft.to/lastmile_qr_scan"}, "lat": 38.926755166666666, "is_disabled": 0, "bike_id": "9f1643924357a8abb7e173762f81c36e", "name": "9f1643924357a8abb7e173762f81c36e", "type": "electric_scooter", "fusion_lon": 0.0, "is_reserved": 0, "fusion_lat": 0.0, "lon": -77.007546}, {"rental_uris": {"ios": "https://dc.lft.to/lastmile_qr_scan", "android": "https://dc.lft.to/lastmile_qr_scan"}, "lat": 38.933693, "is_disabled": 0, "bike_id": "dafda073793ad4fb17cefafd5f633fdb", "name": "dafda073793ad4fb17cefafd5f633fdb", "type": "electric_scooter", "fusion_lon": 0.0, "is_reserved": 0, "fusion_lat": 0.0, "lon": -77.05727133333333}, {"rental_uris": {"ios": "https://dc.lft.to/lastmile_qr_scan", "android": "https://dc.lft.to/lastmile_qr_scan"}, "lat": 38.903324833333336, "is_disabled": 0, "bike_id": "687a82cb56244d8241255e9caeafcb00", "name": "687a82cb56244d8241255e9caeafcb00", "type": "electric_scooter", "fusion_lon": 0.0, "is_reserved": 0, "fusion_lat": 0.0, "lon": -77.03470533333333}, {"rental_uris": {"ios": "https://dc.lft.to/lastmile_qr_scan", "android": "https://dc.lft.to/lastmile_qr_scan"}, "lat": 38.905294833333336, "is_disabled": 0, "bike_id": "55967539aac71bdaec7e1a5cb4d270ee", "name": "55967539aac71bdaec7e1a5cb4d270ee", "type": "electric_scooter", "fusion_lon": 0.0, "is_reserved": 0, "fusion_lat": 0.0, "lon": -77.00556283333333}, {"rental_uris": {"ios": "https://dc.lft.to/lastmile_qr_scan", "android": "https://dc.lft.to/lastmile_qr_scan"}, "lat": 38.91190366666667, "is_disabled": 0, "bike_id": "506276f65ec6d2528a91d0b9d9d1c3f9", "name": "506276f65ec6d2528a91d0b9d9d1c3f9", "type": "electric_scooter", "fusion_lon": 0.0, "is_reserved": 0, "fusion_lat": 0.0, "lon": -77.045002}, {"rental_uris": {"ios": "https://dc.lft.to/lastmile_qr_scan", "android": "https://dc.lft.to/lastmile_qr_scan"}, "lat": 38.922555, "is_disabled": 0, "bike_id": "ae069c1cefad46773c0a523a3455bb92", "name": "ae069c1cefad46773c0a523a3455bb92", "type": "electric_scooter", "fusion_lon": 0.0, "is_reserved": 0, "fusion_lat": 0.0, "lon": -77.04296733333334}, {"rental_uris": {"ios": "https://dc.lft.to/lastmile_qr_scan", "android": "https://dc.lft.to/lastmile_qr_scan"}, "lat": 38.8849235, "is_disabled": 0, "bike_id": "e6912aff885779376ae7150228f23847", "name": "e6912aff885779376ae7150228f23847", "type": "electric_scooter", "fusion_lon": 0.0, "is_reserved": 0, "fusion_lat": 0.0, "lon": -77.02155933333333}, {"rental_uris": {"ios": "https://dc.lft.to/lastmile_qr_scan", "android": "https://dc.lft.to/lastmile_qr_scan"}, "lat": 38.90655316666667, "is_disabled": 0, "bike_id": "14b4d6f6c2efb508ae0c8883cb716585", "name": "14b4d6f6c2efb508ae0c8883cb716585", "type": "electric_scooter", "fusion_lon": 0.0, "is_reserved": 0, "fusion_lat": 0.0, "lon": -77.051351}, {"rental_uris": {"ios": "https://dc.lft.to/lastmile_qr_scan", "android": "https://dc.lft.to/lastmile_qr_scan"}, "lat": 38.91347916666667, "is_disabled": 0, "bike_id": "301fc67f17c46d19f19493a0c4c7d8f6", "name": "301fc67f17c46d19f19493a0c4c7d8f6", "type": "electric_scooter", "fusion_lon": 0.0, "is_reserved": 0, "fusion_lat": 0.0, "lon": -77.04170266666667}, {"rental_uris": {"ios": "https://dc.lft.to/lastmile_qr_scan", "android": "https://dc.lft.to/lastmile_qr_scan"}, "lat": 38.935814666666666, "is_disabled": 0, "bike_id": "8c8ec22d64723928acee3114e3fedbfb", "name": "8c8ec22d64723928acee3114e3fedbfb", "type": "electric_scooter", "fusion_lon": 0.0, "is_reserved": 0, "fusion_lat": 0.0, "lon": -77.01935483333334}, {"rental_uris": {"ios": "https://dc.lft.to/lastmile_qr_scan", "android": "https://dc.lft.to/lastmile_qr_scan"}, "lat": 38.931053166666665, "is_disabled": 0, "bike_id": "91d585a107d8b8e058f8617f7f56bb4c", "name": "91d585a107d8b8e058f8617f7f56bb4c", "type": "electric_scooter", "fusion_lon": 0.0, "is_reserved": 0, "fusion_lat": 0.0, "lon": -77.037868}, {"rental_uris": {"ios": "https://dc.lft.to/lastmile_qr_scan", "android": "https://dc.lft.to/lastmile_qr_scan"}, "lat": 38.900341833333336, "is_disabled": 0, "bike_id": "3d801eecfaf286eb9bc211a073c8183d", "name": "3d801eecfaf286eb9bc211a073c8183d", "type": "electric_scooter", "fusion_lon": 0.0, "is_reserved": 0, "fusion_lat": 0.0, "lon": -76.99608466666666}, {"rental_uris": {"ios": "https://dc.lft.to/lastmile_qr_scan", "android": "https://dc.lft.to/lastmile_qr_scan"}, "lat": 38.864397833333335, "is_disabled": 0, "bike_id": "366f718387af7bff67d267ea387ca6a5", "name": "366f718387af7bff67d267ea387ca6a5", "type": "electric_scooter", "fusion_lon": 0.0, "is_reserved": 0, "fusion_lat": 0.0, "lon": -76.98994816666666}, {"rental_uris": {"ios": "https://dc.lft.to/lastmile_qr_scan", "android": "https://dc.lft.to/lastmile_qr_scan"}, "lat": 38.90157383333333, "is_disabled": 0, "bike_id": "73983ffc08bd241d456f64c4db571357", "name": "73983ffc08bd241d456f64c4db571357", "type": "electric_scooter", "fusion_lon": 0.0, "is_reserved": 0, "fusion_lat": 0.0, "lon": -77.02520416666667}, {"rental_uris": {"ios": "https://dc.lft.to/lastmile_qr_scan", "android": "https://dc.lft.to/lastmile_qr_scan"}, "lat": 38.90049, "is_disabled": 0, "bike_id": "0800c85544c08962f199d2ef8845edb0", "name": "0800c85544c08962f199d2ef8845edb0", "type": "electric_scooter", "fusion_lon": 0.0, "is_reserved": 0, "fusion_lat": 0.0, "lon": -77.043429}, {"rental_uris": {"ios": "https://dc.lft.to/lastmile_qr_scan", "android": "https://dc.lft.to/lastmile_qr_scan"}, "lat": 38.91795366666667, "is_disabled": 0, "bike_id": "a868c6fb161be13731750ec2b148e8ae", "name": "a868c6fb161be13731750ec2b148e8ae", "type": "electric_scooter", "fusion_lon": 0.0, "is_reserved": 0, "fusion_lat": 0.0, "lon": -77.02292183333333}, {"rental_uris": {"ios": "https://dc.lft.to/lastmile_qr_scan", "android": "https://dc.lft.to/lastmile_qr_scan"}, "lat": 38.897601333333334, "is_disabled": 0, "bike_id": "0493b1148e26a092a351ff5200bdb9e0", "name": "0493b1148e26a092a351ff5200bdb9e0", "type": "electric_scooter", "fusion_lon": 0.0, "is_reserved": 0, "fusion_lat": 0.0, "lon": -76.938312}, {"rental_uris": {"ios": "https://dc.lft.to/lastmile_qr_scan", "android": "https://dc.lft.to/lastmile_qr_scan"}, "lat": 38.892225, "is_disabled": 0, "bike_id": "a0854d047a0002842a381a6b64586fc1", "name": "a0854d047a0002842a381a6b64586fc1", "type": "electric_scooter", "fusion_lon": 0.0, "is_reserved": 0, "fusion_lat": 0.0, "lon": -77.027213}, {"rental_uris": {"ios": "https://dc.lft.to/lastmile_qr_scan", "android": "https://dc.lft.to/lastmile_qr_scan"}, "lat": 38.935563333333334, "is_disabled": 0, "bike_id": "6b73067d301284e0b1e76c7ecfaf910b", "name": "6b73067d301284e0b1e76c7ecfaf910b", "type": "electric_scooter", "fusion_lon": 0.0, "is_reserved": 0, "fusion_lat": 0.0, "lon": -77.0820465}, {"rental_uris": {"ios": "https://dc.lft.to/lastmile_qr_scan", "android": "https://dc.lft.to/lastmile_qr_scan"}, "lat": 38.894337, "is_disabled": 0, "bike_id": "4be92d76039fc965e89f9fea883bdb18", "name": "4be92d76039fc965e89f9fea883bdb18", "type": "electric_scooter", "fusion_lon": 0.0, "is_reserved": 0, "fusion_lat": 0.0, "lon": -77.00116033333333}, {"rental_uris": {"ios": "https://dc.lft.to/lastmile_qr_scan", "android": "https://dc.lft.to/lastmile_qr_scan"}, "lat": 38.91346166666666, "is_disabled": 0, "bike_id": "a0d4efa28a3db89f73cc9704b9d8d05f", "name": "a0d4efa28a3db89f73cc9704b9d8d05f", "type": "electric_scooter", "fusion_lon": 0.0, "is_reserved": 0, "fusion_lat": 0.0, "lon": -77.00343083333334}, {"rental_uris": {"ios": "https://dc.lft.to/lastmile_qr_scan", "android": "https://dc.lft.to/lastmile_qr_scan"}, "lat": 38.92092566666667, "is_disabled": 0, "bike_id": "9efa041e30269c2dc03bc7f34399d0d2", "name": "9efa041e30269c2dc03bc7f34399d0d2", "type": "electric_scooter", "fusion_lon": 0.0, "is_reserved": 0, "fusion_lat": 0.0, "lon": -76.9759775}, {"rental_uris": {"ios": "https://dc.lft.to/lastmile_qr_scan", "android": "https://dc.lft.to/lastmile_qr_scan"}, "lat": 38.902624333333335, "is_disabled": 0, "bike_id": "33040f98408e7aa3e2dde626e41d97a2", "name": "33040f98408e7aa3e2dde626e41d97a2", "type": "electric_scooter", "fusion_lon": 0.0, "is_reserved": 0, "fusion_lat": 0.0, "lon": -77.02596816666667}, {"rental_uris": {"ios": "https://dc.lft.to/lastmile_qr_scan", "android": "https://dc.lft.to/lastmile_qr_scan"}, "lat": 38.944546, "is_disabled": 0, "bike_id": "c80299f67f982f52eff94c3ca5dcd2c0", "name": "c80299f67f982f52eff94c3ca5dcd2c0", "type": "electric_scooter", "fusion_lon": 0.0, "is_reserved": 0, "fusion_lat": 0.0, "lon": -77.028111}, {"rental_uris": {"ios": "https://dc.lft.to/lastmile_qr_scan", "android": "https://dc.lft.to/lastmile_qr_scan"}, "lat": 38.900302333333336, "is_disabled": 0, "bike_id": "a1791f887e4a723b44c206e010302b82", "name": "a1791f887e4a723b44c206e010302b82", "type": "electric_scooter", "fusion_lon": 0.0, "is_reserved": 0, "fusion_lat": 0.0, "lon": -76.97714466666666}, {"rental_uris": {"ios": "https://dc.lft.to/lastmile_qr_scan", "android": "https://dc.lft.to/lastmile_qr_scan"}, "lat": 38.93583866666667, "is_disabled": 0, "bike_id": "c207cc17009abf2c97ce67ab48b73318", "name": "c207cc17009abf2c97ce67ab48b73318", "type": "electric_bike", "fusion_lon": 0.0, "is_reserved": 0, "fusion_lat": 0.0, "lon": -77.10685083333334}, {"rental_uris": {"ios": "https://dc.lft.to/lastmile_qr_scan", "android": "https://dc.lft.to/lastmile_qr_scan"}, "lat": 38.902629166666664, "is_disabled": 0, "bike_id": "0657ca80d54b12c7f4d7a19aece26056", "name": "0657ca80d54b12c7f4d7a19aece26056", "type": "electric_scooter", "fusion_lon": 0.0, "is_reserved": 0, "fusion_lat": 0.0, "lon": -77.02654533333333}, {"rental_uris": {"ios": "https://dc.lft.to/lastmile_qr_scan", "android": "https://dc.lft.to/lastmile_qr_scan"}, "lat": 38.89338033333333, "is_disabled": 0, "bike_id": "5bf84ab32a234eafca472876556177ba", "name": "5bf84ab32a234eafca472876556177ba", "type": "electric_scooter", "fusion_lon": 0.0, "is_reserved": 0, "fusion_lat": 0.0, "lon": -77.04662683333333}, {"rental_uris": {"ios": "https://dc.lft.to/lastmile_qr_scan", "android": "https://dc.lft.to/lastmile_qr_scan"}, "lat": 38.905216, "is_disabled": 0, "bike_id": "5b87bd197c43187e02c8a4afcdbdd80c", "name": "5b87bd197c43187e02c8a4afcdbdd80c", "type": "electric_scooter", "fusion_lon": 0.0, "is_reserved": 0, "fusion_lat": 0.0, "lon": -77.048993}, {"rental_uris": {"ios": "https://dc.lft.to/lastmile_qr_scan", "android": "https://dc.lft.to/lastmile_qr_scan"}, "lat": 38.894313833333335, "is_disabled": 0, "bike_id": "54de82c58403f5060ceb992d09f006c0", "name": "54de82c58403f5060ceb992d09f006c0", "type": "electric_scooter", "fusion_lon": 0.0, "is_reserved": 0, "fusion_lat": 0.0, "lon": -76.9790815}, {"rental_uris": {"ios": "https://dc.lft.to/lastmile_qr_scan", "android": "https://dc.lft.to/lastmile_qr_scan"}, "lat": 38.90377633333333, "is_disabled": 0, "bike_id": "a23ea15568ea78ec302b1fa29d72a45d", "name": "a23ea15568ea78ec302b1fa29d72a45d", "type": "electric_scooter", "fusion_lon": 0.0, "is_reserved": 0, "fusion_lat": 0.0, "lon": -77.044943}, {"rental_uris": {"ios": "https://dc.lft.to/lastmile_qr_scan", "android": "https://dc.lft.to/lastmile_qr_scan"}, "lat": 38.8929545, "is_disabled": 0, "bike_id": "9e96917a872495d0b6c672d61734ec3d", "name": "9e96917a872495d0b6c672d61734ec3d", "type": "electric_scooter", "fusion_lon": 0.0, "is_reserved": 0, "fusion_lat": 0.0, "lon": -77.04874016666666}, {"rental_uris": {"ios": "https://dc.lft.to/lastmile_qr_scan", "android": "https://dc.lft.to/lastmile_qr_scan"}, "lat": 38.930394166666666, "is_disabled": 0, "bike_id": "ac4a622af17109620898dae25ded7383", "name": "ac4a622af17109620898dae25ded7383", "type": "electric_scooter", "fusion_lon": 0.0, "is_reserved": 0, "fusion_lat": 0.0, "lon": -77.032251}, {"rental_uris": {"ios": "https://dc.lft.to/lastmile_qr_scan", "android": "https://dc.lft.to/lastmile_qr_scan"}, "lat": 38.898095, "is_disabled": 0, "bike_id": "f339162b27dd7a26592c1a80e148f238", "name": "f339162b27dd7a26592c1a80e148f238", "type": "electric_scooter", "fusion_lon": 0.0, "is_reserved": 0, "fusion_lat": 0.0, "lon": -77.02794416666667}, {"rental_uris": {"ios": "https://dc.lft.to/lastmile_qr_scan", "android": "https://dc.lft.to/lastmile_qr_scan"}, "lat": 38.90436716666667, "is_disabled": 0, "bike_id": "f4041075b3b086119123e36ab8b045c6", "name": "f4041075b3b086119123e36ab8b045c6", "type": "electric_scooter", "fusion_lon": 0.0, "is_reserved": 0, "fusion_lat": 0.0, "lon": -77.034526}, {"rental_uris": {"ios": "https://dc.lft.to/lastmile_qr_scan", "android": "https://dc.lft.to/lastmile_qr_scan"}, "lat": 38.938769666666666, "is_disabled": 0, "bike_id": "a5e64b7e89b640058e71ffb3bf59f39d", "name": "a5e64b7e89b640058e71ffb3bf59f39d", "type": "electric_scooter", "fusion_lon": 0.0, "is_reserved": 0, "fusion_lat": 0.0, "lon": -77.02481466666667}, {"rental_uris": {"ios": "https://dc.lft.to/lastmile_qr_scan", "android": "https://dc.lft.to/lastmile_qr_scan"}, "lat": 38.909478166666666, "is_disabled": 0, "bike_id": "87c6e7d7b52b5ca9589d584056dc474e", "name": "87c6e7d7b52b5ca9589d584056dc474e", "type": "electric_scooter", "fusion_lon": 0.0, "is_reserved": 0, "fusion_lat": 0.0, "lon": -77.01892766666667}, {"rental_uris": {"ios": "https://dc.lft.to/lastmile_qr_scan", "android": "https://dc.lft.to/lastmile_qr_scan"}, "lat": 38.943113, "is_disabled": 0, "bike_id": "63cdc4679cb8c2e693fd57ad4b82afd9", "name": "63cdc4679cb8c2e693fd57ad4b82afd9", "type": "electric_scooter", "fusion_lon": 0.0, "is_reserved": 0, "fusion_lat": 0.0, "lon": -77.01543466666666}, {"rental_uris": {"ios": "https://dc.lft.to/lastmile_qr_scan", "android": "https://dc.lft.to/lastmile_qr_scan"}, "lat": 38.90364133333333, "is_disabled": 0, "bike_id": "b98b308a615351829336ac702a77f792", "name": "b98b308a615351829336ac702a77f792", "type": "electric_scooter", "fusion_lon": 0.0, "is_reserved": 0, "fusion_lat": 0.0, "lon": -77.00056116666667}, {"rental_uris": {"ios": "https://dc.lft.to/lastmile_qr_scan", "android": "https://dc.lft.to/lastmile_qr_scan"}, "lat": 38.884793, "is_disabled": 0, "bike_id": "a7e655a68489bc5573ae83c14d43d888", "name": "a7e655a68489bc5573ae83c14d43d888", "type": "electric_scooter", "fusion_lon": 0.0, "is_reserved": 0, "fusion_lat": 0.0, "lon": -76.94923783333333}, {"rental_uris": {"ios": "https://dc.lft.to/lastmile_qr_scan", "android": "https://dc.lft.to/lastmile_qr_scan"}, "lat": 38.84621, "is_disabled": 0, "bike_id": "8450bec2afe3b0706a248f8c1c185021", "name": "8450bec2afe3b0706a248f8c1c185021", "type": "electric_scooter", "fusion_lon": 0.0, "is_reserved": 0, "fusion_lat": 0.0, "lon": -76.99631283333333}, {"rental_uris": {"ios": "https://dc.lft.to/lastmile_qr_scan", "android": "https://dc.lft.to/lastmile_qr_scan"}, "lat": 38.9195295, "is_disabled": 0, "bike_id": "5790743f271c7793363113335f1280a3", "name": "5790743f271c7793363113335f1280a3", "type": "electric_scooter", "fusion_lon": 0.0, "is_reserved": 0, "fusion_lat": 0.0, "lon": -77.01384416666667}, {"rental_uris": {"ios": "https://dc.lft.to/lastmile_qr_scan", "android": "https://dc.lft.to/lastmile_qr_scan"}, "lat": 38.8611495, "is_disabled": 0, "bike_id": "a53675bc7f2129830f87b568fca1db5d", "name": "a53675bc7f2129830f87b568fca1db5d", "type": "electric_scooter", "fusion_lon": 0.0, "is_reserved": 0, "fusion_lat": 0.0, "lon": -76.990183}, {"rental_uris": {"ios": "https://dc.lft.to/lastmile_qr_scan", "android": "https://dc.lft.to/lastmile_qr_scan"}, "lat": 38.895256333333336, "is_disabled": 0, "bike_id": "e9d7719a52fa95980307cb3422a59243", "name": "e9d7719a52fa95980307cb3422a59243", "type": "electric_scooter", "fusion_lon": 0.0, "is_reserved": 0, "fusion_lat": 0.0, "lon": -76.94896433333334}, {"rental_uris": {"ios": "https://dc.lft.to/lastmile_qr_scan", "android": "https://dc.lft.to/lastmile_qr_scan"}, "lat": 38.88518916666666, "is_disabled": 0, "bike_id": "41a5800a31fc522ad5646437c5f9b3bb", "name": "41a5800a31fc522ad5646437c5f9b3bb", "type": "electric_scooter", "fusion_lon": 0.0, "is_reserved": 0, "fusion_lat": 0.0, "lon": -77.00598983333333}, {"rental_uris": {"ios": "https://dc.lft.to/lastmile_qr_scan", "android": "https://dc.lft.to/lastmile_qr_scan"}, "lat": 38.90964533333333, "is_disabled": 0, "bike_id": "b073ba5a88df6531976c16bb379fad22", "name": "b073ba5a88df6531976c16bb379fad22", "type": "electric_scooter", "fusion_lon": 0.0, "is_reserved": 0, "fusion_lat": 0.0, "lon": -77.0388555}, {"rental_uris": {"ios": "https://dc.lft.to/lastmile_qr_scan", "android": "https://dc.lft.to/lastmile_qr_scan"}, "lat": 38.93015333333334, "is_disabled": 0, "bike_id": "5b62b993f59d2d2522179ae53cc24cf9", "name": "5b62b993f59d2d2522179ae53cc24cf9", "type": "electric_scooter", "fusion_lon": 0.0, "is_reserved": 0, "fusion_lat": 0.0, "lon": -77.02114533333334}, {"rental_uris": {"ios": "https://dc.lft.to/lastmile_qr_scan", "android": "https://dc.lft.to/lastmile_qr_scan"}, "lat": 38.91047416666667, "is_disabled": 0, "bike_id": "ceebfac0b18b432f6faa64416ca2342e", "name": "ceebfac0b18b432f6faa64416ca2342e", "type": "electric_scooter", "fusion_lon": 0.0, "is_reserved": 0, "fusion_lat": 0.0, "lon": -77.04339316666666}, {"rental_uris": {"ios": "https://dc.lft.to/lastmile_qr_scan", "android": "https://dc.lft.to/lastmile_qr_scan"}, "lat": 38.9000315, "is_disabled": 0, "bike_id": "38aaee3be53847763b18a4e047631bb5", "name": "38aaee3be53847763b18a4e047631bb5", "type": "electric_scooter", "fusion_lon": 0.0, "is_reserved": 0, "fusion_lat": 0.0, "lon": -77.00150716666667}, {"rental_uris": {"ios": "https://dc.lft.to/lastmile_qr_scan", "android": "https://dc.lft.to/lastmile_qr_scan"}, "lat": 38.90952333333333, "is_disabled": 0, "bike_id": "91daef6c3aad90ca75ebe07cc3af9d6e", "name": "91daef6c3aad90ca75ebe07cc3af9d6e", "type": "electric_scooter", "fusion_lon": 0.0, "is_reserved": 0, "fusion_lat": 0.0, "lon": -77.03204633333333}, {"rental_uris": {"ios": "https://dc.lft.to/lastmile_qr_scan", "android": "https://dc.lft.to/lastmile_qr_scan"}, "lat": 38.892196, "is_disabled": 0, "bike_id": "039a5002057b9dd3e46170970770b228", "name": "039a5002057b9dd3e46170970770b228", "type": "electric_scooter", "fusion_lon": 0.0, "is_reserved": 0, "fusion_lat": 0.0, "lon": -77.02845433333333}, {"rental_uris": {"ios": "https://dc.lft.to/lastmile_qr_scan", "android": "https://dc.lft.to/lastmile_qr_scan"}, "lat": 38.8608195, "is_disabled": 0, "bike_id": "04be63afaccbed869eb9983a5c89507a", "name": "04be63afaccbed869eb9983a5c89507a", "type": "electric_scooter", "fusion_lon": 0.0, "is_reserved": 0, "fusion_lat": 0.0, "lon": -76.986094}, {"rental_uris": {"ios": "https://dc.lft.to/lastmile_qr_scan", "android": "https://dc.lft.to/lastmile_qr_scan"}, "lat": 38.919351666666664, "is_disabled": 0, "bike_id": "ccb677f3e03950ede8a5ae856dbdd59f", "name": "ccb677f3e03950ede8a5ae856dbdd59f", "type": "electric_bike", "fusion_lon": 0.0, "is_reserved": 0, "fusion_lat": 0.0, "lon": -76.97501516666667}, {"rental_uris": {"ios": "https://dc.lft.to/lastmile_qr_scan", "android": "https://dc.lft.to/lastmile_qr_scan"}, "lat": 38.904449166666666, "is_disabled": 0, "bike_id": "890391987ec8c7c247e08ddab43291a8", "name": "890391987ec8c7c247e08ddab43291a8", "type": "electric_scooter", "fusion_lon": 0.0, "is_reserved": 0, "fusion_lat": 0.0, "lon": -76.9755845}, {"rental_uris": {"ios": "https://dc.lft.to/lastmile_qr_scan", "android": "https://dc.lft.to/lastmile_qr_scan"}, "lat": 38.936069, "is_disabled": 0, "bike_id": "13eec412cd486a220c89395871e028ed", "name": "13eec412cd486a220c89395871e028ed", "type": "electric_scooter", "fusion_lon": 0.0, "is_reserved": 0, "fusion_lat": 0.0, "lon": -77.03797766666666}, {"rental_uris": {"ios": "https://dc.lft.to/lastmile_qr_scan", "android": "https://dc.lft.to/lastmile_qr_scan"}, "lat": 38.90030616666667, "is_disabled": 0, "bike_id": "7169c3bc590c715003d546c185828cf4", "name": "7169c3bc590c715003d546c185828cf4", "type": "electric_scooter", "fusion_lon": 0.0, "is_reserved": 0, "fusion_lat": 0.0, "lon": -76.98783166666666}, {"rental_uris": {"ios": "https://dc.lft.to/lastmile_qr_scan", "android": "https://dc.lft.to/lastmile_qr_scan"}, "lat": 38.86244766666667, "is_disabled": 0, "bike_id": "4026fefbec1639f871db3e331c38893f", "name": "4026fefbec1639f871db3e331c38893f", "type": "electric_scooter", "fusion_lon": 0.0, "is_reserved": 0, "fusion_lat": 0.0, "lon": -76.9949275}, {"rental_uris": {"ios": "https://dc.lft.to/lastmile_qr_scan", "android": "https://dc.lft.to/lastmile_qr_scan"}, "lat": 38.88593183333333, "is_disabled": 0, "bike_id": "d3e4765dba15c8c972eaffb189f1ce20", "name": "d3e4765dba15c8c972eaffb189f1ce20", "type": "electric_scooter", "fusion_lon": 0.0, "is_reserved": 0, "fusion_lat": 0.0, "lon": -77.01819}, {"rental_uris": {"ios": "https://dc.lft.to/lastmile_qr_scan", "android": "https://dc.lft.to/lastmile_qr_scan"}, "lat": 38.92359866666666, "is_disabled": 0, "bike_id": "e29195624e6193b70e7620a995d2fabf", "name": "e29195624e6193b70e7620a995d2fabf", "type": "electric_scooter", "fusion_lon": 0.0, "is_reserved": 0, "fusion_lat": 0.0, "lon": -77.00305233333333}, {"rental_uris": {"ios": "https://dc.lft.to/lastmile_qr_scan", "android": "https://dc.lft.to/lastmile_qr_scan"}, "lat": 38.85866766666667, "is_disabled": 0, "bike_id": "d7b7b67aec2a3141e2276c65264f6874", "name": "d7b7b67aec2a3141e2276c65264f6874", "type": "electric_scooter", "fusion_lon": 0.0, "is_reserved": 0, "fusion_lat": 0.0, "lon": -76.990378}, {"rental_uris": {"ios": "https://dc.lft.to/lastmile_qr_scan", "android": "https://dc.lft.to/lastmile_qr_scan"}, "lat": 38.8921945, "is_disabled": 0, "bike_id": "7b68a206a0f4163350b41bdb2ffdaa22", "name": "7b68a206a0f4163350b41bdb2ffdaa22", "type": "electric_scooter", "fusion_lon": 0.0, "is_reserved": 0, "fusion_lat": 0.0, "lon": -77.03218866666667}, {"rental_uris": {"ios": "https://dc.lft.to/lastmile_qr_scan", "android": "https://dc.lft.to/lastmile_qr_scan"}, "lat": 38.887380666666665, "is_disabled": 0, "bike_id": "452c3aa1799e1067a0f98f305ccabc22", "name": "452c3aa1799e1067a0f98f305ccabc22", "type": "electric_scooter", "fusion_lon": 0.0, "is_reserved": 0, "fusion_lat": 0.0, "lon": -77.024025}, {"rental_uris": {"ios": "https://dc.lft.to/lastmile_qr_scan", "android": "https://dc.lft.to/lastmile_qr_scan"}, "lat": 38.903435333333334, "is_disabled": 0, "bike_id": "3505a4f67eca83d88c0b372992f3225b", "name": "3505a4f67eca83d88c0b372992f3225b", "type": "electric_scooter", "fusion_lon": 0.0, "is_reserved": 0, "fusion_lat": 0.0, "lon": -77.043226}, {"rental_uris": {"ios": "https://dc.lft.to/lastmile_qr_scan", "android": "https://dc.lft.to/lastmile_qr_scan"}, "lat": 38.883790833333336, "is_disabled": 0, "bike_id": "46f0566a8eeba3f808ebb372a61ee789", "name": "46f0566a8eeba3f808ebb372a61ee789", "type": "electric_bike", "fusion_lon": 0.0, "is_reserved": 0, "fusion_lat": 0.0, "lon": -77.00053883333334}, {"rental_uris": {"ios": "https://dc.lft.to/lastmile_qr_scan", "android": "https://dc.lft.to/lastmile_qr_scan"}, "lat": 38.87650583333333, "is_disabled": 0, "bike_id": "065022032b9a23338da1f84b255d8f59", "name": "065022032b9a23338da1f84b255d8f59", "type": "electric_scooter", "fusion_lon": 0.0, "is_reserved": 0, "fusion_lat": 0.0, "lon": -76.96511783333334}, {"rental_uris": {"ios": "https://dc.lft.to/lastmile_qr_scan", "android": "https://dc.lft.to/lastmile_qr_scan"}, "lat": 38.908582333333335, "is_disabled": 0, "bike_id": "38d2b47be8b7ea545d061b1c3126ceaa", "name": "38d2b47be8b7ea545d061b1c3126ceaa", "type": "electric_scooter", "fusion_lon": 0.0, "is_reserved": 0, "fusion_lat": 0.0, "lon": -77.0385335}, {"rental_uris": {"ios": "https://dc.lft.to/lastmile_qr_scan", "android": "https://dc.lft.to/lastmile_qr_scan"}, "lat": 38.908096, "is_disabled": 0, "bike_id": "d1b6a1c81a5cb5400d74a756361819d5", "name": "d1b6a1c81a5cb5400d74a756361819d5", "type": "electric_scooter", "fusion_lon": 0.0, "is_reserved": 0, "fusion_lat": 0.0, "lon": -77.0182705}, {"rental_uris": {"ios": "https://dc.lft.to/lastmile_qr_scan", "android": "https://dc.lft.to/lastmile_qr_scan"}, "lat": 38.9227225, "is_disabled": 0, "bike_id": "e1531568be806d35b30b14264eec9cb2", "name": "e1531568be806d35b30b14264eec9cb2", "type": "electric_scooter", "fusion_lon": 0.0, "is_reserved": 0, "fusion_lat": 0.0, "lon": -77.04392266666666}, {"rental_uris": {"ios": "https://dc.lft.to/lastmile_qr_scan", "android": "https://dc.lft.to/lastmile_qr_scan"}, "lat": 38.87109566666667, "is_disabled": 0, "bike_id": "3b4a54f353ab0389e585e29e50d38186", "name": "3b4a54f353ab0389e585e29e50d38186", "type": "electric_scooter", "fusion_lon": 0.0, "is_reserved": 0, "fusion_lat": 0.0, "lon": -77.01073866666667}, {"rental_uris": {"ios": "https://dc.lft.to/lastmile_qr_scan", "android": "https://dc.lft.to/lastmile_qr_scan"}, "lat": 39.05187933333333, "is_disabled": 0, "bike_id": "7c08d759ce2d0ea9254d72b68d16d77f", "name": "7c08d759ce2d0ea9254d72b68d16d77f", "type": "electric_bike", "fusion_lon": 0.0, "is_reserved": 0, "fusion_lat": 0.0, "lon": -77.10932783333334}, {"rental_uris": {"ios": "https://dc.lft.to/lastmile_qr_scan", "android": "https://dc.lft.to/lastmile_qr_scan"}, "lat": 38.938781166666665, "is_disabled": 0, "bike_id": "c76085f0cf5a6ea2717abb3e1cd8694c", "name": "c76085f0cf5a6ea2717abb3e1cd8694c", "type": "electric_scooter", "fusion_lon": 0.0, "is_reserved": 0, "fusion_lat": 0.0, "lon": -77.024798}, {"rental_uris": {"ios": "https://dc.lft.to/lastmile_qr_scan", "android": "https://dc.lft.to/lastmile_qr_scan"}, "lat": 38.827254, "is_disabled": 0, "bike_id": "e1277986f58bc7e108e222291cec1b8e", "name": "e1277986f58bc7e108e222291cec1b8e", "type": "electric_bike", "fusion_lon": 0.0, "is_reserved": 0, "fusion_lat": 0.0, "lon": -77.00868483333333}, {"rental_uris": {"ios": "https://dc.lft.to/lastmile_qr_scan", "android": "https://dc.lft.to/lastmile_qr_scan"}, "lat": 38.9088375, "is_disabled": 0, "bike_id": "eae0708e827e9b24bcc99eac380b37bd", "name": "eae0708e827e9b24bcc99eac380b37bd", "type": "electric_scooter", "fusion_lon": 0.0, "is_reserved": 0, "fusion_lat": 0.0, "lon": -77.03466766666666}, {"rental_uris": {"ios": "https://dc.lft.to/lastmile_qr_scan", "android": "https://dc.lft.to/lastmile_qr_scan"}, "lat": 38.93482733333333, "is_disabled": 0, "bike_id": "74bcdf2bc53ec925cc1548e600c9d4d4", "name": "74bcdf2bc53ec925cc1548e600c9d4d4", "type": "electric_scooter", "fusion_lon": 0.0, "is_reserved": 0, "fusion_lat": 0.0, "lon": -77.07271333333334}, {"rental_uris": {"ios": "https://dc.lft.to/lastmile_qr_scan", "android": "https://dc.lft.to/lastmile_qr_scan"}, "lat": 38.9057985, "is_disabled": 0, "bike_id": "b8c862db23ccb7dd9110063d0ff95e57", "name": "b8c862db23ccb7dd9110063d0ff95e57", "type": "electric_scooter", "fusion_lon": 0.0, "is_reserved": 0, "fusion_lat": 0.0, "lon": -77.00581766666667}, {"rental_uris": {"ios": "https://dc.lft.to/lastmile_qr_scan", "android": "https://dc.lft.to/lastmile_qr_scan"}, "lat": 38.898347333333334, "is_disabled": 0, "bike_id": "cb4561e0e1d13ba8896dc89c1088bd5b", "name": "cb4561e0e1d13ba8896dc89c1088bd5b", "type": "electric_scooter", "fusion_lon": 0.0, "is_reserved": 0, "fusion_lat": 0.0, "lon": -77.03308366666667}, {"rental_uris": {"ios": "https://dc.lft.to/lastmile_qr_scan", "android": "https://dc.lft.to/lastmile_qr_scan"}, "lat": 38.908324666666665, "is_disabled": 0, "bike_id": "c25d2bec4e9e9dfd9084ba779424329b", "name": "c25d2bec4e9e9dfd9084ba779424329b", "type": "electric_scooter", "fusion_lon": 0.0, "is_reserved": 0, "fusion_lat": 0.0, "lon": -77.036806}, {"rental_uris": {"ios": "https://dc.lft.to/lastmile_qr_scan", "android": "https://dc.lft.to/lastmile_qr_scan"}, "lat": 38.88038, "is_disabled": 0, "bike_id": "17825db589f35949762ad6726988322e", "name": "17825db589f35949762ad6726988322e", "type": "electric_bike", "fusion_lon": 0.0, "is_reserved": 0, "fusion_lat": 0.0, "lon": -77.02525583333333}, {"rental_uris": {"ios": "https://dc.lft.to/lastmile_qr_scan", "android": "https://dc.lft.to/lastmile_qr_scan"}, "lat": 38.943233166666666, "is_disabled": 0, "bike_id": "d0b56c35b3fd245b1cb163e0b3e66f36", "name": "d0b56c35b3fd245b1cb163e0b3e66f36", "type": "electric_scooter", "fusion_lon": 0.0, "is_reserved": 0, "fusion_lat": 0.0, "lon": -77.07363266666667}, {"rental_uris": {"ios": "https://dc.lft.to/lastmile_qr_scan", "android": "https://dc.lft.to/lastmile_qr_scan"}, "lat": 38.89984116666667, "is_disabled": 0, "bike_id": "a02853f85d9c9815d72f75eb186e9cfc", "name": "a02853f85d9c9815d72f75eb186e9cfc", "type": "electric_scooter", "fusion_lon": 0.0, "is_reserved": 0, "fusion_lat": 0.0, "lon": -77.0402825}, {"rental_uris": {"ios": "https://dc.lft.to/lastmile_qr_scan", "android": "https://dc.lft.to/lastmile_qr_scan"}, "lat": 38.92870883333333, "is_disabled": 0, "bike_id": "e1ede5718a18cd202ef215038b12b202", "name": "e1ede5718a18cd202ef215038b12b202", "type": "electric_scooter", "fusion_lon": 0.0, "is_reserved": 0, "fusion_lat": 0.0, "lon": -76.990307}, {"rental_uris": {"ios": "https://dc.lft.to/lastmile_qr_scan", "android": "https://dc.lft.to/lastmile_qr_scan"}, "lat": 38.8801805, "is_disabled": 0, "bike_id": "a966b88eda9da6b6a17bfe118a37629b", "name": "a966b88eda9da6b6a17bfe118a37629b", "type": "electric_scooter", "fusion_lon": 0.0, "is_reserved": 0, "fusion_lat": 0.0, "lon": -77.01230733333334}, {"rental_uris": {"ios": "https://dc.lft.to/lastmile_qr_scan", "android": "https://dc.lft.to/lastmile_qr_scan"}, "lat": 38.927455333333334, "is_disabled": 0, "bike_id": "102cccb7e6f7b2d2ca1f91c23aeb304a", "name": "102cccb7e6f7b2d2ca1f91c23aeb304a", "type": "electric_scooter", "fusion_lon": 0.0, "is_reserved": 0, "fusion_lat": 0.0, "lon": -77.03301716666667}, {"rental_uris": {"ios": "https://dc.lft.to/lastmile_qr_scan", "android": "https://dc.lft.to/lastmile_qr_scan"}, "lat": 38.931005666666664, "is_disabled": 0, "bike_id": "9ebd32680be942efd09c8b577efdd9f3", "name": "9ebd32680be942efd09c8b577efdd9f3", "type": "electric_scooter", "fusion_lon": 0.0, "is_reserved": 0, "fusion_lat": 0.0, "lon": -77.03840183333334}, {"rental_uris": {"ios": "https://dc.lft.to/lastmile_qr_scan", "android": "https://dc.lft.to/lastmile_qr_scan"}, "lat": 38.875493666666664, "is_disabled": 0, "bike_id": "8cadbca2f8c507c999bf2a744ec2a6cc", "name": "8cadbca2f8c507c999bf2a744ec2a6cc", "type": "electric_scooter", "fusion_lon": 0.0, "is_reserved": 0, "fusion_lat": 0.0, "lon": -76.96494533333333}, {"rental_uris": {"ios": "https://dc.lft.to/lastmile_qr_scan", "android": "https://dc.lft.to/lastmile_qr_scan"}, "lat": 38.8559375, "is_disabled": 0, "bike_id": "3923459cc4fe19ed3a68868fc576c437", "name": "3923459cc4fe19ed3a68868fc576c437", "type": "electric_scooter", "fusion_lon": 0.0, "is_reserved": 0, "fusion_lat": 0.0, "lon": -76.98559733333333}, {"rental_uris": {"ios": "https://dc.lft.to/lastmile_qr_scan", "android": "https://dc.lft.to/lastmile_qr_scan"}, "lat": 38.97384316666667, "is_disabled": 0, "bike_id": "54356c29530b8b81e45abbe1664bc442", "name": "54356c29530b8b81e45abbe1664bc442", "type": "electric_bike", "fusion_lon": 0.0, "is_reserved": 0, "fusion_lat": 0.0, "lon": -77.0647395}, {"rental_uris": {"ios": "https://dc.lft.to/lastmile_qr_scan", "android": "https://dc.lft.to/lastmile_qr_scan"}, "lat": 38.898830333333336, "is_disabled": 0, "bike_id": "d403eacd267562bf5fc7ea062b639d4b", "name": "d403eacd267562bf5fc7ea062b639d4b", "type": "electric_scooter", "fusion_lon": 0.0, "is_reserved": 0, "fusion_lat": 0.0, "lon": -77.03267016666666}, {"rental_uris": {"ios": "https://dc.lft.to/lastmile_qr_scan", "android": "https://dc.lft.to/lastmile_qr_scan"}, "lat": 38.92990416666667, "is_disabled": 0, "bike_id": "cbac7f78ac2253ddeaf7a900f5f50512", "name": "cbac7f78ac2253ddeaf7a900f5f50512", "type": "electric_scooter", "fusion_lon": 0.0, "is_reserved": 0, "fusion_lat": 0.0, "lon": -77.01058566666667}, {"rental_uris": {"ios": "https://dc.lft.to/lastmile_qr_scan", "android": "https://dc.lft.to/lastmile_qr_scan"}, "lat": 38.90774716666667, "is_disabled": 0, "bike_id": "0c822b1c830c226145f664bb0cd233ee", "name": "0c822b1c830c226145f664bb0cd233ee", "type": "electric_scooter", "fusion_lon": 0.0, "is_reserved": 0, "fusion_lat": 0.0, "lon": -77.032011}, {"rental_uris": {"ios": "https://dc.lft.to/lastmile_qr_scan", "android": "https://dc.lft.to/lastmile_qr_scan"}, "lat": 38.87921216666667, "is_disabled": 0, "bike_id": "6205cbb0f41facb1ae7c908c0e93d086", "name": "6205cbb0f41facb1ae7c908c0e93d086", "type": "electric_scooter", "fusion_lon": 0.0, "is_reserved": 0, "fusion_lat": 0.0, "lon": -76.99172216666666}, {"rental_uris": {"ios": "https://dc.lft.to/lastmile_qr_scan", "android": "https://dc.lft.to/lastmile_qr_scan"}, "lat": 38.89226266666667, "is_disabled": 0, "bike_id": "b033c046233c402edcff926096333c90", "name": "b033c046233c402edcff926096333c90", "type": "electric_scooter", "fusion_lon": 0.0, "is_reserved": 0, "fusion_lat": 0.0, "lon": -77.043266}, {"rental_uris": {"ios": "https://dc.lft.to/lastmile_qr_scan", "android": "https://dc.lft.to/lastmile_qr_scan"}, "lat": 38.903234833333336, "is_disabled": 0, "bike_id": "19344b7bb3bf3f9cca18facaf3b15c03", "name": "19344b7bb3bf3f9cca18facaf3b15c03", "type": "electric_scooter", "fusion_lon": 0.0, "is_reserved": 0, "fusion_lat": 0.0, "lon": -77.03326966666667}, {"rental_uris": {"ios": "https://dc.lft.to/lastmile_qr_scan", "android": "https://dc.lft.to/lastmile_qr_scan"}, "lat": 38.892359166666665, "is_disabled": 0, "bike_id": "0bc26b8657078ff6d708d54125d429aa", "name": "0bc26b8657078ff6d708d54125d429aa", "type": "electric_scooter", "fusion_lon": 0.0, "is_reserved": 0, "fusion_lat": 0.0, "lon": -77.02822216666667}, {"rental_uris": {"ios": "https://dc.lft.to/lastmile_qr_scan", "android": "https://dc.lft.to/lastmile_qr_scan"}, "lat": 38.92147116666666, "is_disabled": 0, "bike_id": "4285a0e83a1a480422b8c632798103f7", "name": "4285a0e83a1a480422b8c632798103f7", "type": "electric_scooter", "fusion_lon": 0.0, "is_reserved": 0, "fusion_lat": 0.0, "lon": -77.03479333333334}, {"rental_uris": {"ios": "https://dc.lft.to/lastmile_qr_scan", "android": "https://dc.lft.to/lastmile_qr_scan"}, "lat": 38.900270666666664, "is_disabled": 0, "bike_id": "c83115446e6250367afd5f24d9c23892", "name": "c83115446e6250367afd5f24d9c23892", "type": "electric_scooter", "fusion_lon": 0.0, "is_reserved": 0, "fusion_lat": 0.0, "lon": -77.01959833333333}, {"rental_uris": {"ios": "https://dc.lft.to/lastmile_qr_scan", "android": "https://dc.lft.to/lastmile_qr_scan"}, "lat": 38.9086415, "is_disabled": 0, "bike_id": "ff36101882bd57ed25266a7c42556b5b", "name": "ff36101882bd57ed25266a7c42556b5b", "type": "electric_scooter", "fusion_lon": 0.0, "is_reserved": 0, "fusion_lat": 0.0, "lon": -77.043542}, {"rental_uris": {"ios": "https://dc.lft.to/lastmile_qr_scan", "android": "https://dc.lft.to/lastmile_qr_scan"}, "lat": 38.89219283333333, "is_disabled": 0, "bike_id": "f3c03b33a571b136834847c2e22611ac", "name": "f3c03b33a571b136834847c2e22611ac", "type": "electric_scooter", "fusion_lon": 0.0, "is_reserved": 0, "fusion_lat": 0.0, "lon": -77.02721383333333}, {"rental_uris": {"ios": "https://dc.lft.to/lastmile_qr_scan", "android": "https://dc.lft.to/lastmile_qr_scan"}, "lat": 38.91881033333333, "is_disabled": 0, "bike_id": "94a5d1d93dd726d81068742ceedf7efa", "name": "94a5d1d93dd726d81068742ceedf7efa", "type": "electric_scooter", "fusion_lon": 0.0, "is_reserved": 0, "fusion_lat": 0.0, "lon": -77.03766166666666}, {"rental_uris": {"ios": "https://dc.lft.to/lastmile_qr_scan", "android": "https://dc.lft.to/lastmile_qr_scan"}, "lat": 38.89607183333333, "is_disabled": 0, "bike_id": "067b73a576c27144b7bb397d15f077e7", "name": "067b73a576c27144b7bb397d15f077e7", "type": "electric_scooter", "fusion_lon": 0.0, "is_reserved": 0, "fusion_lat": 0.0, "lon": -77.04721733333334}, {"rental_uris": {"ios": "https://dc.lft.to/lastmile_qr_scan", "android": "https://dc.lft.to/lastmile_qr_scan"}, "lat": 38.8968885, "is_disabled": 0, "bike_id": "b1da27851ab3fc9f15de1b5fd5af03c8", "name": "b1da27851ab3fc9f15de1b5fd5af03c8", "type": "electric_scooter", "fusion_lon": 0.0, "is_reserved": 0, "fusion_lat": 0.0, "lon": -77.0267}, {"rental_uris": {"ios": "https://dc.lft.to/lastmile_qr_scan", "android": "https://dc.lft.to/lastmile_qr_scan"}, "lat": 38.905923, "is_disabled": 0, "bike_id": "e2a23a4a96087c8567a3c841a3a7d0b9", "name": "e2a23a4a96087c8567a3c841a3a7d0b9", "type": "electric_scooter", "fusion_lon": 0.0, "is_reserved": 0, "fusion_lat": 0.0, "lon": -77.070164}, {"rental_uris": {"ios": "https://dc.lft.to/lastmile_qr_scan", "android": "https://dc.lft.to/lastmile_qr_scan"}, "lat": 38.88748433333333, "is_disabled": 0, "bike_id": "ed06fa548173dbd9b80205a9e19b98c0", "name": "ed06fa548173dbd9b80205a9e19b98c0", "type": "electric_scooter", "fusion_lon": 0.0, "is_reserved": 0, "fusion_lat": 0.0, "lon": -77.0217425}, {"rental_uris": {"ios": "https://dc.lft.to/lastmile_qr_scan", "android": "https://dc.lft.to/lastmile_qr_scan"}, "lat": 38.94202716666667, "is_disabled": 0, "bike_id": "4e9b35f3f6e14d79005ca04ff2d064c9", "name": "4e9b35f3f6e14d79005ca04ff2d064c9", "type": "electric_scooter", "fusion_lon": 0.0, "is_reserved": 0, "fusion_lat": 0.0, "lon": -77.0250235}, {"rental_uris": {"ios": "https://dc.lft.to/lastmile_qr_scan", "android": "https://dc.lft.to/lastmile_qr_scan"}, "lat": 38.90366566666667, "is_disabled": 0, "bike_id": "9e5e7fa94007fbae3bc8fe286f30453d", "name": "9e5e7fa94007fbae3bc8fe286f30453d", "type": "electric_scooter", "fusion_lon": 0.0, "is_reserved": 0, "fusion_lat": 0.0, "lon": -77.033288}, {"rental_uris": {"ios": "https://dc.lft.to/lastmile_qr_scan", "android": "https://dc.lft.to/lastmile_qr_scan"}, "lat": 38.912535166666665, "is_disabled": 0, "bike_id": "b0911187d30615dc45940df44da6cbf9", "name": "b0911187d30615dc45940df44da6cbf9", "type": "electric_scooter", "fusion_lon": 0.0, "is_reserved": 0, "fusion_lat": 0.0, "lon": -77.04439666666667}, {"rental_uris": {"ios": "https://dc.lft.to/lastmile_qr_scan", "android": "https://dc.lft.to/lastmile_qr_scan"}, "lat": 38.91143616666667, "is_disabled": 0, "bike_id": "0f26b73b06a9d952bebd1dd456369570", "name": "0f26b73b06a9d952bebd1dd456369570", "type": "electric_scooter", "fusion_lon": 0.0, "is_reserved": 0, "fusion_lat": 0.0, "lon": -77.0280965}, {"rental_uris": {"ios": "https://dc.lft.to/lastmile_qr_scan", "android": "https://dc.lft.to/lastmile_qr_scan"}, "lat": 38.90302783333333, "is_disabled": 0, "bike_id": "11430ac5694bcf87bf6e670db38d2d6c", "name": "11430ac5694bcf87bf6e670db38d2d6c", "type": "electric_scooter", "fusion_lon": 0.0, "is_reserved": 0, "fusion_lat": 0.0, "lon": -77.0433435}, {"rental_uris": {"ios": "https://dc.lft.to/lastmile_qr_scan", "android": "https://dc.lft.to/lastmile_qr_scan"}, "lat": 38.850614, "is_disabled": 0, "bike_id": "47790a244f7466e0795e9b550645a42b", "name": "47790a244f7466e0795e9b550645a42b", "type": "electric_bike", "fusion_lon": 0.0, "is_reserved": 0, "fusion_lat": 0.0, "lon": -76.9733455}, {"rental_uris": {"ios": "https://dc.lft.to/lastmile_qr_scan", "android": "https://dc.lft.to/lastmile_qr_scan"}, "lat": 38.9062, "is_disabled": 0, "bike_id": "65c594d5905a8a1dd6b457c47a1a498d", "name": "65c594d5905a8a1dd6b457c47a1a498d", "type": "electric_scooter", "fusion_lon": 0.0, "is_reserved": 0, "fusion_lat": 0.0, "lon": -77.03963833333333}, {"rental_uris": {"ios": "https://dc.lft.to/lastmile_qr_scan", "android": "https://dc.lft.to/lastmile_qr_scan"}, "lat": 38.911192166666666, "is_disabled": 0, "bike_id": "d0a0d54978addc0b530152fee0676558", "name": "d0a0d54978addc0b530152fee0676558", "type": "electric_scooter", "fusion_lon": 0.0, "is_reserved": 0, "fusion_lat": 0.0, "lon": -77.04482283333333}, {"rental_uris": {"ios": "https://dc.lft.to/lastmile_qr_scan", "android": "https://dc.lft.to/lastmile_qr_scan"}, "lat": 38.8121945, "is_disabled": 0, "bike_id": "da56517b4827b9dbbe0ffa8249face82", "name": "da56517b4827b9dbbe0ffa8249face82", "type": "electric_bike", "fusion_lon": 0.0, "is_reserved": 0, "fusion_lat": 0.0, "lon": -77.11237533333333}, {"rental_uris": {"ios": "https://dc.lft.to/lastmile_qr_scan", "android": "https://dc.lft.to/lastmile_qr_scan"}, "lat": 38.88502866666666, "is_disabled": 0, "bike_id": "3e6711fc609548b213e1da9b677884b2", "name": "3e6711fc609548b213e1da9b677884b2", "type": "electric_scooter", "fusion_lon": 0.0, "is_reserved": 0, "fusion_lat": 0.0, "lon": -77.0061575}, {"rental_uris": {"ios": "https://dc.lft.to/lastmile_qr_scan", "android": "https://dc.lft.to/lastmile_qr_scan"}, "lat": 38.96603433333333, "is_disabled": 0, "bike_id": "449ba33913f8ea4a3010c7341f20d999", "name": "449ba33913f8ea4a3010c7341f20d999", "type": "electric_bike", "fusion_lon": 0.0, "is_reserved": 0, "fusion_lat": 0.0, "lon": -76.9832905}, {"rental_uris": {"ios": "https://dc.lft.to/lastmile_qr_scan", "android": "https://dc.lft.to/lastmile_qr_scan"}, "lat": 38.918084, "is_disabled": 0, "bike_id": "5e874840a666317793fd31e3ddffdec6", "name": "5e874840a666317793fd31e3ddffdec6", "type": "electric_bike", "fusion_lon": 0.0, "is_reserved": 0, "fusion_lat": 0.0, "lon": -77.10184783333334}, {"rental_uris": {"ios": "https://dc.lft.to/lastmile_qr_scan", "android": "https://dc.lft.to/lastmile_qr_scan"}, "lat": 38.90694833333333, "is_disabled": 0, "bike_id": "e7e306e42ce28b5279be29227cbb7f06", "name": "e7e306e42ce28b5279be29227cbb7f06", "type": "electric_bike", "fusion_lon": 0.0, "is_reserved": 0, "fusion_lat": 0.0, "lon": -76.95254533333333}, {"rental_uris": {"ios": "https://dc.lft.to/lastmile_qr_scan", "android": "https://dc.lft.to/lastmile_qr_scan"}, "lat": 38.89837333333333, "is_disabled": 0, "bike_id": "32b5bfcdceaba44f31a0559730fad413", "name": "32b5bfcdceaba44f31a0559730fad413", "type": "electric_scooter", "fusion_lon": 0.0, "is_reserved": 0, "fusion_lat": 0.0, "lon": -77.033383}, {"rental_uris": {"ios": "https://dc.lft.to/lastmile_qr_scan", "android": "https://dc.lft.to/lastmile_qr_scan"}, "lat": 38.93694133333333, "is_disabled": 0, "bike_id": "b780918d207a1c32600b7f8da279ebf7", "name": "b780918d207a1c32600b7f8da279ebf7", "type": "electric_scooter", "fusion_lon": 0.0, "is_reserved": 0, "fusion_lat": 0.0, "lon": -77.03282233333333}, {"rental_uris": {"ios": "https://dc.lft.to/lastmile_qr_scan", "android": "https://dc.lft.to/lastmile_qr_scan"}, "lat": 38.896665666666664, "is_disabled": 0, "bike_id": "cda8e4d9f1de5b1fa03e8a7c2771faef", "name": "cda8e4d9f1de5b1fa03e8a7c2771faef", "type": "electric_bike", "fusion_lon": 0.0, "is_reserved": 0, "fusion_lat": 0.0, "lon": -76.9811945}, {"rental_uris": {"ios": "https://dc.lft.to/lastmile_qr_scan", "android": "https://dc.lft.to/lastmile_qr_scan"}, "lat": 38.90251816666667, "is_disabled": 0, "bike_id": "8fd28934da9225674e3c50110fcea7d0", "name": "8fd28934da9225674e3c50110fcea7d0", "type": "electric_scooter", "fusion_lon": 0.0, "is_reserved": 0, "fusion_lat": 0.0, "lon": -77.01823}, {"rental_uris": {"ios": "https://dc.lft.to/lastmile_qr_scan", "android": "https://dc.lft.to/lastmile_qr_scan"}, "lat": 38.887157333333334, "is_disabled": 0, "bike_id": "f9ec098d045ac89f61e77530ab2f856d", "name": "f9ec098d045ac89f61e77530ab2f856d", "type": "electric_scooter", "fusion_lon": 0.0, "is_reserved": 0, "fusion_lat": 0.0, "lon": -77.02207516666667}, {"rental_uris": {"ios": "https://dc.lft.to/lastmile_qr_scan", "android": "https://dc.lft.to/lastmile_qr_scan"}, "lat": 38.92599633333333, "is_disabled": 0, "bike_id": "206c4c3c0cdad878a3abf215610ed81a", "name": "206c4c3c0cdad878a3abf215610ed81a", "type": "electric_scooter", "fusion_lon": 0.0, "is_reserved": 0, "fusion_lat": 0.0, "lon": -77.02159133333333}, {"rental_uris": {"ios": "https://dc.lft.to/lastmile_qr_scan", "android": "https://dc.lft.to/lastmile_qr_scan"}, "lat": 38.82871466666667, "is_disabled": 0, "bike_id": "318697ed229922ee9fc567762e4a9b1a", "name": "318697ed229922ee9fc567762e4a9b1a", "type": "electric_bike", "fusion_lon": 0.0, "is_reserved": 0, "fusion_lat": 0.0, "lon": -77.11218616666666}, {"rental_uris": {"ios": "https://dc.lft.to/lastmile_qr_scan", "android": "https://dc.lft.to/lastmile_qr_scan"}, "lat": 38.88030116666667, "is_disabled": 0, "bike_id": "330f0e6463c62d5598e1658a0aee9900", "name": "330f0e6463c62d5598e1658a0aee9900", "type": "electric_scooter", "fusion_lon": 0.0, "is_reserved": 0, "fusion_lat": 0.0, "lon": -76.99630433333333}, {"rental_uris": {"ios": "https://dc.lft.to/lastmile_qr_scan", "android": "https://dc.lft.to/lastmile_qr_scan"}, "lat": 38.89881533333333, "is_disabled": 0, "bike_id": "288ae76cd1e8704ce72f43b411c49ca7", "name": "288ae76cd1e8704ce72f43b411c49ca7", "type": "electric_scooter", "fusion_lon": 0.0, "is_reserved": 0, "fusion_lat": 0.0, "lon": -76.93161616666667}, {"rental_uris": {"ios": "https://dc.lft.to/lastmile_qr_scan", "android": "https://dc.lft.to/lastmile_qr_scan"}, "lat": 38.9908995, "is_disabled": 0, "bike_id": "0ff0c379de01c4ec1c98700acb5727f5", "name": "0ff0c379de01c4ec1c98700acb5727f5", "type": "electric_bike", "fusion_lon": 0.0, "is_reserved": 0, "fusion_lat": 0.0, "lon": -76.87498766666667}, {"rental_uris": {"ios": "https://dc.lft.to/lastmile_qr_scan", "android": "https://dc.lft.to/lastmile_qr_scan"}, "lat": 38.9205265, "is_disabled": 0, "bike_id": "cd34686192068be77fe8e00827563e4e", "name": "cd34686192068be77fe8e00827563e4e", "type": "electric_scooter", "fusion_lon": 0.0, "is_reserved": 0, "fusion_lat": 0.0, "lon": -77.03390283333333}, {"rental_uris": {"ios": "https://dc.lft.to/lastmile_qr_scan", "android": "https://dc.lft.to/lastmile_qr_scan"}, "lat": 38.921366, "is_disabled": 0, "bike_id": "84adcf2dc2aa7d546d8d6f8ba9ea7279", "name": "84adcf2dc2aa7d546d8d6f8ba9ea7279", "type": "electric_scooter", "fusion_lon": 0.0, "is_reserved": 0, "fusion_lat": 0.0, "lon": -77.00957233333334}, {"rental_uris": {"ios": "https://dc.lft.to/lastmile_qr_scan", "android": "https://dc.lft.to/lastmile_qr_scan"}, "lat": 38.89833266666667, "is_disabled": 0, "bike_id": "e551ee8195e0036c418a67e5f67317bc", "name": "e551ee8195e0036c418a67e5f67317bc", "type": "electric_scooter", "fusion_lon": 0.0, "is_reserved": 0, "fusion_lat": 0.0, "lon": -77.03320333333333}, {"rental_uris": {"ios": "https://dc.lft.to/lastmile_qr_scan", "android": "https://dc.lft.to/lastmile_qr_scan"}, "lat": 38.923514, "is_disabled": 0, "bike_id": "488ac389aca4db041d5dc6d216a2f343", "name": "488ac389aca4db041d5dc6d216a2f343", "type": "electric_scooter", "fusion_lon": 0.0, "is_reserved": 0, "fusion_lat": 0.0, "lon": -77.04408816666667}, {"rental_uris": {"ios": "https://dc.lft.to/lastmile_qr_scan", "android": "https://dc.lft.to/lastmile_qr_scan"}, "lat": 38.852125666666666, "is_disabled": 0, "bike_id": "7774a171cb855f46d9b529508e9b1d3c", "name": "7774a171cb855f46d9b529508e9b1d3c", "type": "electric_bike", "fusion_lon": 0.0, "is_reserved": 0, "fusion_lat": 0.0, "lon": -77.10128133333333}, {"rental_uris": {"ios": "https://dc.lft.to/lastmile_qr_scan", "android": "https://dc.lft.to/lastmile_qr_scan"}, "lat": 38.903708333333334, "is_disabled": 0, "bike_id": "ed1f3aa9df21b484dd458f6336383bd0", "name": "ed1f3aa9df21b484dd458f6336383bd0", "type": "electric_scooter", "fusion_lon": 0.0, "is_reserved": 0, "fusion_lat": 0.0, "lon": -77.04465033333334}, {"rental_uris": {"ios": "https://dc.lft.to/lastmile_qr_scan", "android": "https://dc.lft.to/lastmile_qr_scan"}, "lat": 38.96225533333333, "is_disabled": 0, "bike_id": "d6bc35268ac78c654b841cfcb29adf89", "name": "d6bc35268ac78c654b841cfcb29adf89", "type": "electric_scooter", "fusion_lon": 0.0, "is_reserved": 0, "fusion_lat": 0.0, "lon": -77.02974633333334}, {"rental_uris": {"ios": "https://dc.lft.to/lastmile_qr_scan", "android": "https://dc.lft.to/lastmile_qr_scan"}, "lat": 38.903556333333334, "is_disabled": 0, "bike_id": "b8205bc4125e8e65bd31540a0d3800d6", "name": "b8205bc4125e8e65bd31540a0d3800d6", "type": "electric_scooter", "fusion_lon": 0.0, "is_reserved": 0, "fusion_lat": 0.0, "lon": -77.03520666666667}, {"rental_uris": {"ios": "https://dc.lft.to/lastmile_qr_scan", "android": "https://dc.lft.to/lastmile_qr_scan"}, "lat": 38.90411183333333, "is_disabled": 0, "bike_id": "d14c9269e394848edfcb7b619a3591c8", "name": "d14c9269e394848edfcb7b619a3591c8", "type": "electric_scooter", "fusion_lon": 0.0, "is_reserved": 0, "fusion_lat": 0.0, "lon": -77.00136266666667}, {"rental_uris": {"ios": "https://dc.lft.to/lastmile_qr_scan", "android": "https://dc.lft.to/lastmile_qr_scan"}, "lat": 38.862175666666666, "is_disabled": 0, "bike_id": "6629d7de6a6a29634fe1f54ec3d53f44", "name": "6629d7de6a6a29634fe1f54ec3d53f44", "type": "electric_scooter", "fusion_lon": 0.0, "is_reserved": 0, "fusion_lat": 0.0, "lon": -76.99496483333333}, {"rental_uris": {"ios": "https://dc.lft.to/lastmile_qr_scan", "android": "https://dc.lft.to/lastmile_qr_scan"}, "lat": 38.98232333333333, "is_disabled": 0, "bike_id": "73eb230bdc1a09fe78fdf4664bda03c9", "name": "73eb230bdc1a09fe78fdf4664bda03c9", "type": "electric_bike", "fusion_lon": 0.0, "is_reserved": 0, "fusion_lat": 0.0, "lon": -77.02645333333334}, {"rental_uris": {"ios": "https://dc.lft.to/lastmile_qr_scan", "android": "https://dc.lft.to/lastmile_qr_scan"}, "lat": 38.87683783333333, "is_disabled": 0, "bike_id": "5eb2d98952a12f7b05bae30ebaae6c8a", "name": "5eb2d98952a12f7b05bae30ebaae6c8a", "type": "electric_scooter", "fusion_lon": 0.0, "is_reserved": 0, "fusion_lat": 0.0, "lon": -77.00565033333334}, {"rental_uris": {"ios": "https://dc.lft.to/lastmile_qr_scan", "android": "https://dc.lft.to/lastmile_qr_scan"}, "lat": 38.900290166666665, "is_disabled": 0, "bike_id": "b884be6c646919129d40d09f4bea3329", "name": "b884be6c646919129d40d09f4bea3329", "type": "electric_scooter", "fusion_lon": 0.0, "is_reserved": 0, "fusion_lat": 0.0, "lon": -77.0449535}, {"rental_uris": {"ios": "https://dc.lft.to/lastmile_qr_scan", "android": "https://dc.lft.to/lastmile_qr_scan"}, "lat": 38.8647645, "is_disabled": 0, "bike_id": "2ce4d15d047f0d97c262db8c9a65f615", "name": "2ce4d15d047f0d97c262db8c9a65f615", "type": "electric_scooter", "fusion_lon": 0.0, "is_reserved": 0, "fusion_lat": 0.0, "lon": -76.98374716666666}, {"rental_uris": {"ios": "https://dc.lft.to/lastmile_qr_scan", "android": "https://dc.lft.to/lastmile_qr_scan"}, "lat": 38.909798333333335, "is_disabled": 0, "bike_id": "d195d6989dc864991c8e540e794766c6", "name": "d195d6989dc864991c8e540e794766c6", "type": "electric_scooter", "fusion_lon": 0.0, "is_reserved": 0, "fusion_lat": 0.0, "lon": -77.03370833333334}, {"rental_uris": {"ios": "https://dc.lft.to/lastmile_qr_scan", "android": "https://dc.lft.to/lastmile_qr_scan"}, "lat": 38.9237695, "is_disabled": 0, "bike_id": "ae3051be7fcfd5ef9ecbf463f8c8eb6c", "name": "ae3051be7fcfd5ef9ecbf463f8c8eb6c", "type": "electric_scooter", "fusion_lon": 0.0, "is_reserved": 0, "fusion_lat": 0.0, "lon": -77.04023316666667}, {"rental_uris": {"ios": "https://dc.lft.to/lastmile_qr_scan", "android": "https://dc.lft.to/lastmile_qr_scan"}, "lat": 38.892285666666666, "is_disabled": 0, "bike_id": "ca0ea77f1b36caaf2b02be807bf5a761", "name": "ca0ea77f1b36caaf2b02be807bf5a761", "type": "electric_scooter", "fusion_lon": 0.0, "is_reserved": 0, "fusion_lat": 0.0, "lon": -77.028272}, {"rental_uris": {"ios": "https://dc.lft.to/lastmile_qr_scan", "android": "https://dc.lft.to/lastmile_qr_scan"}, "lat": 38.9228245, "is_disabled": 0, "bike_id": "d23b9593fc6d10c09b804aeadd5f1c5e", "name": "d23b9593fc6d10c09b804aeadd5f1c5e", "type": "electric_scooter", "fusion_lon": 0.0, "is_reserved": 0, "fusion_lat": 0.0, "lon": -76.99794216666666}, {"rental_uris": {"ios": "https://dc.lft.to/lastmile_qr_scan", "android": "https://dc.lft.to/lastmile_qr_scan"}, "lat": 38.887699166666664, "is_disabled": 0, "bike_id": "f594587358727105e45e2bcf4d52b754", "name": "f594587358727105e45e2bcf4d52b754", "type": "electric_scooter", "fusion_lon": 0.0, "is_reserved": 0, "fusion_lat": 0.0, "lon": -77.02173433333333}, {"rental_uris": {"ios": "https://dc.lft.to/lastmile_qr_scan", "android": "https://dc.lft.to/lastmile_qr_scan"}, "lat": 38.907921333333334, "is_disabled": 0, "bike_id": "89d5a9f2c8a844cdbc15b5857d92cbe8", "name": "89d5a9f2c8a844cdbc15b5857d92cbe8", "type": "electric_scooter", "fusion_lon": 0.0, "is_reserved": 0, "fusion_lat": 0.0, "lon": -76.997266}, {"rental_uris": {"ios": "https://dc.lft.to/lastmile_qr_scan", "android": "https://dc.lft.to/lastmile_qr_scan"}, "lat": 38.8524565, "is_disabled": 0, "bike_id": "806c27f3071ea6d05519a602e9b74e22", "name": "806c27f3071ea6d05519a602e9b74e22", "type": "electric_bike", "fusion_lon": 0.0, "is_reserved": 0, "fusion_lat": 0.0, "lon": -77.11429016666666}, {"rental_uris": {"ios": "https://dc.lft.to/lastmile_qr_scan", "android": "https://dc.lft.to/lastmile_qr_scan"}, "lat": 38.84423566666667, "is_disabled": 0, "bike_id": "f14bf5fe5c6ea6d4b7844e154649b6b0", "name": "f14bf5fe5c6ea6d4b7844e154649b6b0", "type": "electric_scooter", "fusion_lon": 0.0, "is_reserved": 0, "fusion_lat": 0.0, "lon": -76.998286}, {"rental_uris": {"ios": "https://dc.lft.to/lastmile_qr_scan", "android": "https://dc.lft.to/lastmile_qr_scan"}, "lat": 38.95585283333333, "is_disabled": 0, "bike_id": "8553c97854f6d16754a1e2e7a8008e10", "name": "8553c97854f6d16754a1e2e7a8008e10", "type": "electric_scooter", "fusion_lon": 0.0, "is_reserved": 0, "fusion_lat": 0.0, "lon": -77.0365355}, {"rental_uris": {"ios": "https://dc.lft.to/lastmile_qr_scan", "android": "https://dc.lft.to/lastmile_qr_scan"}, "lat": 38.91648516666667, "is_disabled": 0, "bike_id": "7ffcd1128693523d83e17343683abb6e", "name": "7ffcd1128693523d83e17343683abb6e", "type": "electric_scooter", "fusion_lon": 0.0, "is_reserved": 0, "fusion_lat": 0.0, "lon": -77.02273616666666}, {"rental_uris": {"ios": "https://dc.lft.to/lastmile_qr_scan", "android": "https://dc.lft.to/lastmile_qr_scan"}, "lat": 38.906613666666665, "is_disabled": 0, "bike_id": "248a9c63817bb77e594544cec0870027", "name": "248a9c63817bb77e594544cec0870027", "type": "electric_scooter", "fusion_lon": 0.0, "is_reserved": 0, "fusion_lat": 0.0, "lon": -77.05339816666667}, {"rental_uris": {"ios": "https://dc.lft.to/lastmile_qr_scan", "android": "https://dc.lft.to/lastmile_qr_scan"}, "lat": 38.930424, "is_disabled": 0, "bike_id": "7082b5d332ed01a6e3bcf68f21d365ba", "name": "7082b5d332ed01a6e3bcf68f21d365ba", "type": "electric_scooter", "fusion_lon": 0.0, "is_reserved": 0, "fusion_lat": 0.0, "lon": -77.0414045}, {"rental_uris": {"ios": "https://dc.lft.to/lastmile_qr_scan", "android": "https://dc.lft.to/lastmile_qr_scan"}, "lat": 38.892192666666666, "is_disabled": 0, "bike_id": "d81ba4cd6e36a6d71a065626e88162fc", "name": "d81ba4cd6e36a6d71a065626e88162fc", "type": "electric_scooter", "fusion_lon": 0.0, "is_reserved": 0, "fusion_lat": 0.0, "lon": -77.0295955}, {"rental_uris": {"ios": "https://dc.lft.to/lastmile_qr_scan", "android": "https://dc.lft.to/lastmile_qr_scan"}, "lat": 38.90371566666666, "is_disabled": 0, "bike_id": "c9a5095a6ae79ac7adfb0ffc4903df3f", "name": "c9a5095a6ae79ac7adfb0ffc4903df3f", "type": "electric_scooter", "fusion_lon": 0.0, "is_reserved": 0, "fusion_lat": 0.0, "lon": -77.04462216666667}, {"rental_uris": {"ios": "https://dc.lft.to/lastmile_qr_scan", "android": "https://dc.lft.to/lastmile_qr_scan"}, "lat": 38.9233415, "is_disabled": 0, "bike_id": "f413dce3b5b797d822a1639f7511ed1d", "name": "f413dce3b5b797d822a1639f7511ed1d", "type": "electric_scooter", "fusion_lon": 0.0, "is_reserved": 0, "fusion_lat": 0.0, "lon": -77.03619466666666}, {"rental_uris": {"ios": "https://dc.lft.to/lastmile_qr_scan", "android": "https://dc.lft.to/lastmile_qr_scan"}, "lat": 38.90372683333333, "is_disabled": 0, "bike_id": "0d0d4de139de63396df352f48e8f28d7", "name": "0d0d4de139de63396df352f48e8f28d7", "type": "electric_scooter", "fusion_lon": 0.0, "is_reserved": 0, "fusion_lat": 0.0, "lon": -77.02972733333333}, {"rental_uris": {"ios": "https://dc.lft.to/lastmile_qr_scan", "android": "https://dc.lft.to/lastmile_qr_scan"}, "lat": 39.05812866666667, "is_disabled": 0, "bike_id": "adf93667678cd1f2982e993e41ae5072", "name": "adf93667678cd1f2982e993e41ae5072", "type": "electric_bike", "fusion_lon": 0.0, "is_reserved": 0, "fusion_lat": 0.0, "lon": -77.12630083333333}, {"rental_uris": {"ios": "https://dc.lft.to/lastmile_qr_scan", "android": "https://dc.lft.to/lastmile_qr_scan"}, "lat": 38.85789666666667, "is_disabled": 0, "bike_id": "a0e7e136e4d4114d00e2861a22576bd8", "name": "a0e7e136e4d4114d00e2861a22576bd8", "type": "electric_bike", "fusion_lon": 0.0, "is_reserved": 0, "fusion_lat": 0.0, "lon": -76.98743883333333}, {"rental_uris": {"ios": "https://dc.lft.to/lastmile_qr_scan", "android": "https://dc.lft.to/lastmile_qr_scan"}, "lat": 38.91042316666667, "is_disabled": 0, "bike_id": "91df5d8cd056ab9246a018553692b92e", "name": "91df5d8cd056ab9246a018553692b92e", "type": "electric_scooter", "fusion_lon": 0.0, "is_reserved": 0, "fusion_lat": 0.0, "lon": -77.031335}, {"rental_uris": {"ios": "https://dc.lft.to/lastmile_qr_scan", "android": "https://dc.lft.to/lastmile_qr_scan"}, "lat": 38.90027083333333, "is_disabled": 0, "bike_id": "09c65037d34b3e9ecce87d42d3611cd0", "name": "09c65037d34b3e9ecce87d42d3611cd0", "type": "electric_scooter", "fusion_lon": 0.0, "is_reserved": 0, "fusion_lat": 0.0, "lon": -76.98778183333333}, {"rental_uris": {"ios": "https://dc.lft.to/lastmile_qr_scan", "android": "https://dc.lft.to/lastmile_qr_scan"}, "lat": 38.912557166666666, "is_disabled": 0, "bike_id": "1ab461e3c8bf24b9186b044470e81a44", "name": "1ab461e3c8bf24b9186b044470e81a44", "type": "electric_scooter", "fusion_lon": 0.0, "is_reserved": 0, "fusion_lat": 0.0, "lon": -77.04966316666666}, {"rental_uris": {"ios": "https://dc.lft.to/lastmile_qr_scan", "android": "https://dc.lft.to/lastmile_qr_scan"}, "lat": 38.935156166666665, "is_disabled": 0, "bike_id": "12cac987bad45e2542f921bb018153bc", "name": "12cac987bad45e2542f921bb018153bc", "type": "electric_scooter", "fusion_lon": 0.0, "is_reserved": 0, "fusion_lat": 0.0, "lon": -77.08202916666667}, {"rental_uris": {"ios": "https://dc.lft.to/lastmile_qr_scan", "android": "https://dc.lft.to/lastmile_qr_scan"}, "lat": 38.864059833333336, "is_disabled": 0, "bike_id": "0eec1ed76e1ba2d4bc7639e8b39499d1", "name": "0eec1ed76e1ba2d4bc7639e8b39499d1", "type": "electric_scooter", "fusion_lon": 0.0, "is_reserved": 0, "fusion_lat": 0.0, "lon": -76.99027566666666}, {"rental_uris": {"ios": "https://dc.lft.to/lastmile_qr_scan", "android": "https://dc.lft.to/lastmile_qr_scan"}, "lat": 38.8925585, "is_disabled": 0, "bike_id": "ebb5c4664a7f2a176d119a835de77de3", "name": "ebb5c4664a7f2a176d119a835de77de3", "type": "electric_scooter", "fusion_lon": 0.0, "is_reserved": 0, "fusion_lat": 0.0, "lon": -77.0218085}, {"rental_uris": {"ios": "https://dc.lft.to/lastmile_qr_scan", "android": "https://dc.lft.to/lastmile_qr_scan"}, "lat": 38.93140366666667, "is_disabled": 0, "bike_id": "4d61a58b7eb347964e9ea3e0dcc2cbf1", "name": "4d61a58b7eb347964e9ea3e0dcc2cbf1", "type": "electric_scooter", "fusion_lon": 0.0, "is_reserved": 0, "fusion_lat": 0.0, "lon": -77.02363333333334}, {"rental_uris": {"ios": "https://dc.lft.to/lastmile_qr_scan", "android": "https://dc.lft.to/lastmile_qr_scan"}, "lat": 38.903732166666664, "is_disabled": 0, "bike_id": "ffa7fafdebbe7b90542fa1b8d7a9620f", "name": "ffa7fafdebbe7b90542fa1b8d7a9620f", "type": "electric_scooter", "fusion_lon": 0.0, "is_reserved": 0, "fusion_lat": 0.0, "lon": -77.00269883333333}, {"rental_uris": {"ios": "https://dc.lft.to/lastmile_qr_scan", "android": "https://dc.lft.to/lastmile_qr_scan"}, "lat": 38.87942666666667, "is_disabled": 0, "bike_id": "5dc4accbe5f0e09f3c2c8349aae55f83", "name": "5dc4accbe5f0e09f3c2c8349aae55f83", "type": "electric_scooter", "fusion_lon": 0.0, "is_reserved": 0, "fusion_lat": 0.0, "lon": -77.00403716666666}, {"rental_uris": {"ios": "https://dc.lft.to/lastmile_qr_scan", "android": "https://dc.lft.to/lastmile_qr_scan"}, "lat": 38.90576383333333, "is_disabled": 0, "bike_id": "200aecd645836ec93ef60256bdf8161f", "name": "200aecd645836ec93ef60256bdf8161f", "type": "electric_scooter", "fusion_lon": 0.0, "is_reserved": 0, "fusion_lat": 0.0, "lon": -77.0089475}, {"rental_uris": {"ios": "https://dc.lft.to/lastmile_qr_scan", "android": "https://dc.lft.to/lastmile_qr_scan"}, "lat": 38.9203995, "is_disabled": 0, "bike_id": "63860361432cdf6f126e6aa7553e6b84", "name": "63860361432cdf6f126e6aa7553e6b84", "type": "electric_scooter", "fusion_lon": 0.0, "is_reserved": 0, "fusion_lat": 0.0, "lon": -77.02361616666667}, {"rental_uris": {"ios": "https://dc.lft.to/lastmile_qr_scan", "android": "https://dc.lft.to/lastmile_qr_scan"}, "lat": 38.944205333333336, "is_disabled": 0, "bike_id": "44935bdee1984e3e6b05714060ffc891", "name": "44935bdee1984e3e6b05714060ffc891", "type": "electric_scooter", "fusion_lon": 0.0, "is_reserved": 0, "fusion_lat": 0.0, "lon": -77.03178716666666}, {"rental_uris": {"ios": "https://dc.lft.to/lastmile_qr_scan", "android": "https://dc.lft.to/lastmile_qr_scan"}, "lat": 38.90290433333333, "is_disabled": 0, "bike_id": "f03c0423696f63d8355920c3a827f6bf", "name": "f03c0423696f63d8355920c3a827f6bf", "type": "electric_scooter", "fusion_lon": 0.0, "is_reserved": 0, "fusion_lat": 0.0, "lon": -77.036572}, {"rental_uris": {"ios": "https://dc.lft.to/lastmile_qr_scan", "android": "https://dc.lft.to/lastmile_qr_scan"}, "lat": 38.91621133333334, "is_disabled": 0, "bike_id": "ef4ea929e26884b1a6596eeca62e8be4", "name": "ef4ea929e26884b1a6596eeca62e8be4", "type": "electric_scooter", "fusion_lon": 0.0, "is_reserved": 0, "fusion_lat": 0.0, "lon": -77.02303833333333}, {"rental_uris": {"ios": "https://dc.lft.to/lastmile_qr_scan", "android": "https://dc.lft.to/lastmile_qr_scan"}, "lat": 38.88504483333333, "is_disabled": 0, "bike_id": "6237a0ce5ba008f207ef46f8c33ffbb2", "name": "6237a0ce5ba008f207ef46f8c33ffbb2", "type": "electric_scooter", "fusion_lon": 0.0, "is_reserved": 0, "fusion_lat": 0.0, "lon": -77.0056635}, {"rental_uris": {"ios": "https://dc.lft.to/lastmile_qr_scan", "android": "https://dc.lft.to/lastmile_qr_scan"}, "lat": 38.89794233333333, "is_disabled": 0, "bike_id": "ba14cc8b9601803ed6be50f674bcec90", "name": "ba14cc8b9601803ed6be50f674bcec90", "type": "electric_scooter", "fusion_lon": 0.0, "is_reserved": 0, "fusion_lat": 0.0, "lon": -77.02649883333333}, {"rental_uris": {"ios": "https://dc.lft.to/lastmile_qr_scan", "android": "https://dc.lft.to/lastmile_qr_scan"}, "lat": 38.9286445, "is_disabled": 0, "bike_id": "619889a7d58305de1b9e49a25543b3e1", "name": "619889a7d58305de1b9e49a25543b3e1", "type": "electric_scooter", "fusion_lon": 0.0, "is_reserved": 0, "fusion_lat": 0.0, "lon": -77.03477566666666}, {"rental_uris": {"ios": "https://dc.lft.to/lastmile_qr_scan", "android": "https://dc.lft.to/lastmile_qr_scan"}, "lat": 38.9030505, "is_disabled": 0, "bike_id": "b1d3424d3c1cb43185dfb45bfa2db45b", "name": "b1d3424d3c1cb43185dfb45bfa2db45b", "type": "electric_scooter", "fusion_lon": 0.0, "is_reserved": 0, "fusion_lat": 0.0, "lon": -77.01144983333333}, {"rental_uris": {"ios": "https://dc.lft.to/lastmile_qr_scan", "android": "https://dc.lft.to/lastmile_qr_scan"}, "lat": 38.93016266666667, "is_disabled": 0, "bike_id": "df78f704f4baa57b973d6b6351656bba", "name": "df78f704f4baa57b973d6b6351656bba", "type": "electric_scooter", "fusion_lon": 0.0, "is_reserved": 0, "fusion_lat": 0.0, "lon": -77.061883}, {"rental_uris": {"ios": "https://dc.lft.to/lastmile_qr_scan", "android": "https://dc.lft.to/lastmile_qr_scan"}, "lat": 39.05345033333333, "is_disabled": 0, "bike_id": "fe2d9b4649e977f602608145e403bc4e", "name": "fe2d9b4649e977f602608145e403bc4e", "type": "electric_bike", "fusion_lon": 0.0, "is_reserved": 0, "fusion_lat": 0.0, "lon": -77.13597033333333}, {"rental_uris": {"ios": "https://dc.lft.to/lastmile_qr_scan", "android": "https://dc.lft.to/lastmile_qr_scan"}, "lat": 38.87781533333333, "is_disabled": 0, "bike_id": "1e60f1e438d6093fda56a7f01357fa72", "name": "1e60f1e438d6093fda56a7f01357fa72", "type": "electric_scooter", "fusion_lon": 0.0, "is_reserved": 0, "fusion_lat": 0.0, "lon": -77.01443183333333}, {"rental_uris": {"ios": "https://dc.lft.to/lastmile_qr_scan", "android": "https://dc.lft.to/lastmile_qr_scan"}, "lat": 38.844973833333334, "is_disabled": 0, "bike_id": "b1d46c780451f8ccb0573c9865475fb8", "name": "b1d46c780451f8ccb0573c9865475fb8", "type": "electric_scooter", "fusion_lon": 0.0, "is_reserved": 0, "fusion_lat": 0.0, "lon": -76.987629}, {"rental_uris": {"ios": "https://dc.lft.to/lastmile_qr_scan", "android": "https://dc.lft.to/lastmile_qr_scan"}, "lat": 38.92105016666667, "is_disabled": 0, "bike_id": "46a3a7c2c26c1645c251cd8c56937f98", "name": "46a3a7c2c26c1645c251cd8c56937f98", "type": "electric_scooter", "fusion_lon": 0.0, "is_reserved": 0, "fusion_lat": 0.0, "lon": -77.01768033333333}, {"rental_uris": {"ios": "https://dc.lft.to/lastmile_qr_scan", "android": "https://dc.lft.to/lastmile_qr_scan"}, "lat": 38.860666333333334, "is_disabled": 0, "bike_id": "957bd77b8d0913d372ba1d31cebd5016", "name": "957bd77b8d0913d372ba1d31cebd5016", "type": "electric_scooter", "fusion_lon": 0.0, "is_reserved": 0, "fusion_lat": 0.0, "lon": -76.990336}, {"rental_uris": {"ios": "https://dc.lft.to/lastmile_qr_scan", "android": "https://dc.lft.to/lastmile_qr_scan"}, "lat": 38.883006, "is_disabled": 0, "bike_id": "a1782c09ab5c9e3c7f98a678490f513b", "name": "a1782c09ab5c9e3c7f98a678490f513b", "type": "electric_scooter", "fusion_lon": 0.0, "is_reserved": 0, "fusion_lat": 0.0, "lon": -76.94858883333333}, {"rental_uris": {"ios": "https://dc.lft.to/lastmile_qr_scan", "android": "https://dc.lft.to/lastmile_qr_scan"}, "lat": 38.913129833333336, "is_disabled": 0, "bike_id": "92b090ccc3ac4be7f9d2bdcc3a526429", "name": "92b090ccc3ac4be7f9d2bdcc3a526429", "type": "electric_scooter", "fusion_lon": 0.0, "is_reserved": 0, "fusion_lat": 0.0, "lon": -77.03633616666667}, {"rental_uris": {"ios": "https://dc.lft.to/lastmile_qr_scan", "android": "https://dc.lft.to/lastmile_qr_scan"}, "lat": 38.892155833333334, "is_disabled": 0, "bike_id": "67b54e15c34fbabd3499617fdd0fc33b", "name": "67b54e15c34fbabd3499617fdd0fc33b", "type": "electric_scooter", "fusion_lon": 0.0, "is_reserved": 0, "fusion_lat": 0.0, "lon": -77.02634433333333}, {"rental_uris": {"ios": "https://dc.lft.to/lastmile_qr_scan", "android": "https://dc.lft.to/lastmile_qr_scan"}, "lat": 38.877025333333336, "is_disabled": 0, "bike_id": "a04bc4b66596f8fd54fb3de95beae66e", "name": "a04bc4b66596f8fd54fb3de95beae66e", "type": "electric_scooter", "fusion_lon": 0.0, "is_reserved": 0, "fusion_lat": 0.0, "lon": -77.01744516666666}, {"rental_uris": {"ios": "https://dc.lft.to/lastmile_qr_scan", "android": "https://dc.lft.to/lastmile_qr_scan"}, "lat": 38.904787166666665, "is_disabled": 0, "bike_id": "a95db5a6e2a96b74054bcd0787353520", "name": "a95db5a6e2a96b74054bcd0787353520", "type": "electric_scooter", "fusion_lon": 0.0, "is_reserved": 0, "fusion_lat": 0.0, "lon": -76.973252}, {"rental_uris": {"ios": "https://dc.lft.to/lastmile_qr_scan", "android": "https://dc.lft.to/lastmile_qr_scan"}, "lat": 38.89182566666667, "is_disabled": 0, "bike_id": "9ab0e4b2c5949bc273ae7c20f6c1c741", "name": "9ab0e4b2c5949bc273ae7c20f6c1c741", "type": "electric_bike", "fusion_lon": 0.0, "is_reserved": 0, "fusion_lat": 0.0, "lon": -76.950325}, {"rental_uris": {"ios": "https://dc.lft.to/lastmile_qr_scan", "android": "https://dc.lft.to/lastmile_qr_scan"}, "lat": 38.9048825, "is_disabled": 0, "bike_id": "7624ad19ce8046366a020e120c61ae2d", "name": "7624ad19ce8046366a020e120c61ae2d", "type": "electric_scooter", "fusion_lon": 0.0, "is_reserved": 0, "fusion_lat": 0.0, "lon": -76.9869435}, {"rental_uris": {"ios": "https://dc.lft.to/lastmile_qr_scan", "android": "https://dc.lft.to/lastmile_qr_scan"}, "lat": 38.9040705, "is_disabled": 0, "bike_id": "608760024612b45f52ddae699bb5daaf", "name": "608760024612b45f52ddae699bb5daaf", "type": "electric_scooter", "fusion_lon": 0.0, "is_reserved": 0, "fusion_lat": 0.0, "lon": -77.001347}, {"rental_uris": {"ios": "https://dc.lft.to/lastmile_qr_scan", "android": "https://dc.lft.to/lastmile_qr_scan"}, "lat": 38.963023, "is_disabled": 0, "bike_id": "7fa6f474e01267d3cb6795311e4769ce", "name": "7fa6f474e01267d3cb6795311e4769ce", "type": "electric_bike", "fusion_lon": 0.0, "is_reserved": 0, "fusion_lat": 0.0, "lon": -77.01112233333333}, {"rental_uris": {"ios": "https://dc.lft.to/lastmile_qr_scan", "android": "https://dc.lft.to/lastmile_qr_scan"}, "lat": 38.9126755, "is_disabled": 0, "bike_id": "1a8a4e4722df0c0a49c4287080a7cfa8", "name": "1a8a4e4722df0c0a49c4287080a7cfa8", "type": "electric_scooter", "fusion_lon": 0.0, "is_reserved": 0, "fusion_lat": 0.0, "lon": -77.0725085}, {"rental_uris": {"ios": "https://dc.lft.to/lastmile_qr_scan", "android": "https://dc.lft.to/lastmile_qr_scan"}, "lat": 38.8996795, "is_disabled": 0, "bike_id": "694a166c2c75b0a607463d3f8d22e223", "name": "694a166c2c75b0a607463d3f8d22e223", "type": "electric_scooter", "fusion_lon": 0.0, "is_reserved": 0, "fusion_lat": 0.0, "lon": -77.028969}, {"rental_uris": {"ios": "https://dc.lft.to/lastmile_qr_scan", "android": "https://dc.lft.to/lastmile_qr_scan"}, "lat": 38.90292516666667, "is_disabled": 0, "bike_id": "b428a5f8343433c88ae8936edcf24ebe", "name": "b428a5f8343433c88ae8936edcf24ebe", "type": "electric_scooter", "fusion_lon": 0.0, "is_reserved": 0, "fusion_lat": 0.0, "lon": -77.03473333333334}, {"rental_uris": {"ios": "https://dc.lft.to/lastmile_qr_scan", "android": "https://dc.lft.to/lastmile_qr_scan"}, "lat": 38.910356166666666, "is_disabled": 0, "bike_id": "e93b5acd6a46e554bc2a7e81a3ae0179", "name": "e93b5acd6a46e554bc2a7e81a3ae0179", "type": "electric_scooter", "fusion_lon": 0.0, "is_reserved": 0, "fusion_lat": 0.0, "lon": -77.04165316666666}, {"rental_uris": {"ios": "https://dc.lft.to/lastmile_qr_scan", "android": "https://dc.lft.to/lastmile_qr_scan"}, "lat": 38.93967716666667, "is_disabled": 0, "bike_id": "f1fb7689bffd2448fea4d80ec2aacd62", "name": "f1fb7689bffd2448fea4d80ec2aacd62", "type": "electric_scooter", "fusion_lon": 0.0, "is_reserved": 0, "fusion_lat": 0.0, "lon": -77.02719666666667}, {"rental_uris": {"ios": "https://dc.lft.to/lastmile_qr_scan", "android": "https://dc.lft.to/lastmile_qr_scan"}, "lat": 38.92978816666667, "is_disabled": 0, "bike_id": "b5d4eada9a27f68b7dbb8c293b05e1f6", "name": "b5d4eada9a27f68b7dbb8c293b05e1f6", "type": "electric_scooter", "fusion_lon": 0.0, "is_reserved": 0, "fusion_lat": 0.0, "lon": -77.0323945}, {"rental_uris": {"ios": "https://dc.lft.to/lastmile_qr_scan", "android": "https://dc.lft.to/lastmile_qr_scan"}, "lat": 38.904862333333334, "is_disabled": 0, "bike_id": "5a298185229579b928130347c81c9b62", "name": "5a298185229579b928130347c81c9b62", "type": "electric_scooter", "fusion_lon": 0.0, "is_reserved": 0, "fusion_lat": 0.0, "lon": -77.0356625}, {"rental_uris": {"ios": "https://dc.lft.to/lastmile_qr_scan", "android": "https://dc.lft.to/lastmile_qr_scan"}, "lat": 38.887445166666666, "is_disabled": 0, "bike_id": "05e001f16543a1ce5aee32118734f45c", "name": "05e001f16543a1ce5aee32118734f45c", "type": "electric_scooter", "fusion_lon": 0.0, "is_reserved": 0, "fusion_lat": 0.0, "lon": -77.02834116666666}, {"rental_uris": {"ios": "https://dc.lft.to/lastmile_qr_scan", "android": "https://dc.lft.to/lastmile_qr_scan"}, "lat": 38.86350066666667, "is_disabled": 0, "bike_id": "5d6afed857549e1ee6b2955a1c1b9410", "name": "5d6afed857549e1ee6b2955a1c1b9410", "type": "electric_scooter", "fusion_lon": 0.0, "is_reserved": 0, "fusion_lat": 0.0, "lon": -76.99087033333333}, {"rental_uris": {"ios": "https://dc.lft.to/lastmile_qr_scan", "android": "https://dc.lft.to/lastmile_qr_scan"}, "lat": 38.86709283333333, "is_disabled": 0, "bike_id": "251d33f55d268d36c809cf45d1b28cb9", "name": "251d33f55d268d36c809cf45d1b28cb9", "type": "electric_scooter", "fusion_lon": 0.0, "is_reserved": 0, "fusion_lat": 0.0, "lon": -76.98729933333334}, {"rental_uris": {"ios": "https://dc.lft.to/lastmile_qr_scan", "android": "https://dc.lft.to/lastmile_qr_scan"}, "lat": 38.93666783333333, "is_disabled": 0, "bike_id": "b94055938476a6d842a599a72065ddd9", "name": "b94055938476a6d842a599a72065ddd9", "type": "electric_bike", "fusion_lon": 0.0, "is_reserved": 0, "fusion_lat": 0.0, "lon": -76.95203983333333}, {"rental_uris": {"ios": "https://dc.lft.to/lastmile_qr_scan", "android": "https://dc.lft.to/lastmile_qr_scan"}, "lat": 38.93592983333333, "is_disabled": 0, "bike_id": "f6f5ba254d26a3e4eff6c6f824e6dca7", "name": "f6f5ba254d26a3e4eff6c6f824e6dca7", "type": "electric_scooter", "fusion_lon": 0.0, "is_reserved": 0, "fusion_lat": 0.0, "lon": -77.03553516666666}, {"rental_uris": {"ios": "https://dc.lft.to/lastmile_qr_scan", "android": "https://dc.lft.to/lastmile_qr_scan"}, "lat": 38.885036, "is_disabled": 0, "bike_id": "a352e6fdc01527d0fef7d3bd0766069a", "name": "a352e6fdc01527d0fef7d3bd0766069a", "type": "electric_scooter", "fusion_lon": 0.0, "is_reserved": 0, "fusion_lat": 0.0, "lon": -77.00565116666667}, {"rental_uris": {"ios": "https://dc.lft.to/lastmile_qr_scan", "android": "https://dc.lft.to/lastmile_qr_scan"}, "lat": 38.905672, "is_disabled": 0, "bike_id": "03656ac632c1d5304a9fab4443df044a", "name": "03656ac632c1d5304a9fab4443df044a", "type": "electric_scooter", "fusion_lon": 0.0, "is_reserved": 0, "fusion_lat": 0.0, "lon": -77.0249455}, {"rental_uris": {"ios": "https://dc.lft.to/lastmile_qr_scan", "android": "https://dc.lft.to/lastmile_qr_scan"},