{"data": {"bikes": [{"bike_id": "60f56f276f121d58f7e8a11135e31376", "fusion_lon": 0.0, "lon": -76.97331033333333, "name": "60f56f276f121d58f7e8a11135e31376", "is_disabled": 0, "rental_uris": {"android": "https://dc.lft.to/lastmile_qr_scan", "ios": "https://dc.lft.to/lastmile_qr_scan"}, "type": "electric_scooter", "lat": 38.90414483333333, "is_reserved": 0, "fusion_lat": 0.0}, {"bike_id": "6a13a3661942a91109bc30825bad6185", "fusion_lon": 0.0, "lon": -77.00714416666666, "name": "6a13a3661942a91109bc30825bad6185", "is_disabled": 0, "rental_uris": {"android": "https://dc.lft.to/lastmile_qr_scan", "ios": "https://dc.lft.to/lastmile_qr_scan"}, "type": "electric_scooter", "lat": 38.877062333333335, "is_reserved": 0, "fusion_lat": 0.0}, {"bike_id": "61a97c4e3cdc1e5ca33a4cc761c36ed9", "fusion_lon": 0.0, "lon": -77.03375633333333, "name": "61a97c4e3cdc1e5ca33a4cc761c36ed9", "is_disabled": 0, "rental_uris": {"android": "https://dc.lft.to/lastmile_qr_scan", "ios": "https://dc.lft.to/lastmile_qr_scan"}, "type": "electric_scooter", "lat": 38.91357033333333, "is_reserved": 0, "fusion_lat": 0.0}, {"bike_id": "ea9275b4ca71571546cfb83a49e6b29e", "fusion_lon": 0.0, "lon": -76.989404, "name": "ea9275b4ca71571546cfb83a49e6b29e", "is_disabled": 0, "rental_uris": {"android": "https://dc.lft.to/lastmile_qr_scan", "ios": "https://dc.lft.to/lastmile_qr_scan"}, "type": "electric_scooter", "lat": 38.90398783333333, "is_reserved": 0, "fusion_lat": 0.0}, {"bike_id": "0f14ec98f58ef4ad422b286d66481a3c", "fusion_lon": 0.0, "lon": -77.09482433333334, "name": "0f14ec98f58ef4ad422b286d66481a3c", "is_disabled": 0, "rental_uris": {"android": "https://dc.lft.to/lastmile_qr_scan", "ios": "https://dc.lft.to/lastmile_qr_scan"}, "type": "electric_bike", "lat": 39.03049133333333, "is_reserved": 0, "fusion_lat": 0.0}, {"bike_id": "69b179c28a4ca2cfaaabc3d03288a2f9", "fusion_lon": 0.0, "lon": -76.99255766666667, "name": "69b179c28a4ca2cfaaabc3d03288a2f9", "is_disabled": 0, "rental_uris": {"android": "https://dc.lft.to/lastmile_qr_scan", "ios": "https://dc.lft.to/lastmile_qr_scan"}, "type": "electric_scooter", "lat": 38.9197035, "is_reserved": 0, "fusion_lat": 0.0}, {"bike_id": "467ae35f5a91d517cba8273238330df5", "fusion_lon": 0.0, "lon": -77.06339683333333, "name": "467ae35f5a91d517cba8273238330df5", "is_disabled": 0, "rental_uris": {"android": "https://dc.lft.to/lastmile_qr_scan", "ios": "https://dc.lft.to/lastmile_qr_scan"}, "type": "electric_scooter", "lat": 38.9068425, "is_reserved": 0, "fusion_lat": 0.0}, {"bike_id": "0b117e444aae954b009e84d034477558", "fusion_lon": 0.0, "lon": -77.04885666666667, "name": "0b117e444aae954b009e84d034477558", "is_disabled": 0, "rental_uris": {"android": "https://dc.lft.to/lastmile_qr_scan", "ios": "https://dc.lft.to/lastmile_qr_scan"}, "type": "electric_scooter", "lat": 38.91344516666667, "is_reserved": 0, "fusion_lat": 0.0}, {"bike_id": "52d254d75707876a0da9a8c0fc7a182e", "fusion_lon": 0.0, "lon": -77.03212433333333, "name": "52d254d75707876a0da9a8c0fc7a182e", "is_disabled": 0, "rental_uris": {"android": "https://dc.lft.to/lastmile_qr_scan", "ios": "https://dc.lft.to/lastmile_qr_scan"}, "type": "electric_scooter", "lat": 38.91478883333333, "is_reserved": 0, "fusion_lat": 0.0}, {"bike_id": "3dbb80bb01123702a2ad7331d054d1a8", "fusion_lon": 0.0, "lon": -77.03046716666667, "name": "3dbb80bb01123702a2ad7331d054d1a8", "is_disabled": 0, "rental_uris": {"android": "https://dc.lft.to/lastmile_qr_scan", "ios": "https://dc.lft.to/lastmile_qr_scan"}, "type": "electric_scooter", "lat": 38.884362833333334, "is_reserved": 0, "fusion_lat": 0.0}, {"bike_id": "72d2ee2bd09f833d7a09d5d912ec4d15", "fusion_lon": 0.0, "lon": -77.02334083333334, "name": "72d2ee2bd09f833d7a09d5d912ec4d15", "is_disabled": 0, "rental_uris": {"android": "https://dc.lft.to/lastmile_qr_scan", "ios": "https://dc.lft.to/lastmile_qr_scan"}, "type": "electric_scooter", "lat": 38.9247995, "is_reserved": 0, "fusion_lat": 0.0}, {"bike_id": "74a0754cffacf389bccfaeacb3f65109", "fusion_lon": 0.0, "lon": -77.048807, "name": "74a0754cffacf389bccfaeacb3f65109", "is_disabled": 0, "rental_uris": {"android": "https://dc.lft.to/lastmile_qr_scan", "ios": "https://dc.lft.to/lastmile_qr_scan"}, "type": "electric_scooter", "lat": 38.91563566666667, "is_reserved": 0, "fusion_lat": 0.0}, {"bike_id": "4848e557d1a2439b09db7a4642404171", "fusion_lon": 0.0, "lon": -77.02079866666666, "name": "4848e557d1a2439b09db7a4642404171", "is_disabled": 0, "rental_uris": {"android": "https://dc.lft.to/lastmile_qr_scan", "ios": "https://dc.lft.to/lastmile_qr_scan"}, "type": "electric_scooter", "lat": 38.87574383333333, "is_reserved": 0, "fusion_lat": 0.0}, {"bike_id": "9397becafd1c51b0e3c5511a1fa14fe4", "fusion_lon": 0.0, "lon": -77.029679, "name": "9397becafd1c51b0e3c5511a1fa14fe4", "is_disabled": 0, "rental_uris": {"android": "https://dc.lft.to/lastmile_qr_scan", "ios": "https://dc.lft.to/lastmile_qr_scan"}, "type": "electric_scooter", "lat": 38.90499, "is_reserved": 0, "fusion_lat": 0.0}, {"bike_id": "6ee65e603107d626c33a523e269cc764", "fusion_lon": 0.0, "lon": -77.042065, "name": "6ee65e603107d626c33a523e269cc764", "is_disabled": 0, "rental_uris": {"android": "https://dc.lft.to/lastmile_qr_scan", "ios": "https://dc.lft.to/lastmile_qr_scan"}, "type": "electric_scooter", "lat": 38.9204585, "is_reserved": 0, "fusion_lat": 0.0}, {"bike_id": "f6374bf90791d576d1fbf18d8f0d7bbe", "fusion_lon": 0.0, "lon": -77.027834, "name": "f6374bf90791d576d1fbf18d8f0d7bbe", "is_disabled": 0, "rental_uris": {"android": "https://dc.lft.to/lastmile_qr_scan", "ios": "https://dc.lft.to/lastmile_qr_scan"}, "type": "electric_scooter", "lat": 38.92780183333333, "is_reserved": 0, "fusion_lat": 0.0}, {"bike_id": "980289ec983d91c7390c1b0e00d63f8f", "fusion_lon": 0.0, "lon": -77.03394666666667, "name": "980289ec983d91c7390c1b0e00d63f8f", "is_disabled": 0, "rental_uris": {"android": "https://dc.lft.to/lastmile_qr_scan", "ios": "https://dc.lft.to/lastmile_qr_scan"}, "type": "electric_scooter", "lat": 38.90955816666666, "is_reserved": 0, "fusion_lat": 0.0}, {"bike_id": "7c9660a1b0d92c83a89889a0b6aab297", "fusion_lon": 0.0, "lon": -77.026505, "name": "7c9660a1b0d92c83a89889a0b6aab297", "is_disabled": 0, "rental_uris": {"android": "https://dc.lft.to/lastmile_qr_scan", "ios": "https://dc.lft.to/lastmile_qr_scan"}, "type": "electric_scooter", "lat": 38.945396833333334, "is_reserved": 0, "fusion_lat": 0.0}, {"bike_id": "60346c3821c1640342a67dcfe5867b25", "fusion_lon": 0.0, "lon": -76.9487755, "name": "60346c3821c1640342a67dcfe5867b25", "is_disabled": 0, "rental_uris": {"android": "https://dc.lft.to/lastmile_qr_scan", "ios": "https://dc.lft.to/lastmile_qr_scan"}, "type": "electric_scooter", "lat": 38.895041, "is_reserved": 0, "fusion_lat": 0.0}, {"bike_id": "12de02e6947e4932aff68df916accafd", "fusion_lon": 0.0, "lon": -77.04603466666667, "name": "12de02e6947e4932aff68df916accafd", "is_disabled": 0, "rental_uris": {"android": "https://dc.lft.to/lastmile_qr_scan", "ios": "https://dc.lft.to/lastmile_qr_scan"}, "type": "electric_scooter", "lat": 38.91699233333333, "is_reserved": 0, "fusion_lat": 0.0}, {"bike_id": "dffe68588b78d0a3b3f81a3f5f5d63d2", "fusion_lon": 0.0, "lon": -77.043908, "name": "dffe68588b78d0a3b3f81a3f5f5d63d2", "is_disabled": 0, "rental_uris": {"android": "https://dc.lft.to/lastmile_qr_scan", "ios": "https://dc.lft.to/lastmile_qr_scan"}, "type": "electric_scooter", "lat": 38.9205425, "is_reserved": 0, "fusion_lat": 0.0}, {"bike_id": "7484b5c39d2de136aa053eed458c7443", "fusion_lon": 0.0, "lon": -76.99691083333333, "name": "7484b5c39d2de136aa053eed458c7443", "is_disabled": 0, "rental_uris": {"android": "https://dc.lft.to/lastmile_qr_scan", "ios": "https://dc.lft.to/lastmile_qr_scan"}, "type": "electric_bike", "lat": 38.838671, "is_reserved": 0, "fusion_lat": 0.0}, {"bike_id": "b7b658dd67f4b45097811cb279f351a5", "fusion_lon": 0.0, "lon": -77.01614366666666, "name": "b7b658dd67f4b45097811cb279f351a5", "is_disabled": 0, "rental_uris": {"android": "https://dc.lft.to/lastmile_qr_scan", "ios": "https://dc.lft.to/lastmile_qr_scan"}, "type": "electric_scooter", "lat": 38.91274816666667, "is_reserved": 0, "fusion_lat": 0.0}, {"bike_id": "5a56e997383934826b0e11faf7501617", "fusion_lon": 0.0, "lon": -76.986345, "name": "5a56e997383934826b0e11faf7501617", "is_disabled": 0, "rental_uris": {"android": "https://dc.lft.to/lastmile_qr_scan", "ios": "https://dc.lft.to/lastmile_qr_scan"}, "type": "electric_bike", "lat": 38.88045966666667, "is_reserved": 0, "fusion_lat": 0.0}, {"bike_id": "09be33451be75d0788e4b33f2d61a3f4", "fusion_lon": 0.0, "lon": -77.04891566666667, "name": "09be33451be75d0788e4b33f2d61a3f4", "is_disabled": 0, "rental_uris": {"android": "https://dc.lft.to/lastmile_qr_scan", "ios": "https://dc.lft.to/lastmile_qr_scan"}, "type": "electric_scooter", "lat": 38.9008095, "is_reserved": 0, "fusion_lat": 0.0}, {"bike_id": "bc720e3d758e4df8091d274d6e83d10b", "fusion_lon": 0.0, "lon": -77.076392, "name": "bc720e3d758e4df8091d274d6e83d10b", "is_disabled": 0, "rental_uris": {"android": "https://dc.lft.to/lastmile_qr_scan", "ios": "https://dc.lft.to/lastmile_qr_scan"}, "type": "electric_scooter", "lat": 38.932073333333335, "is_reserved": 0, "fusion_lat": 0.0}, {"bike_id": "1a4ae57183df18e4c82db84cfcd0714b", "fusion_lon": 0.0, "lon": -77.038972, "name": "1a4ae57183df18e4c82db84cfcd0714b", "is_disabled": 0, "rental_uris": {"android": "https://dc.lft.to/lastmile_qr_scan", "ios": "https://dc.lft.to/lastmile_qr_scan"}, "type": "electric_scooter", "lat": 38.9220415, "is_reserved": 0, "fusion_lat": 0.0}, {"bike_id": "99304af43726fb8319f03b3c6493f99b", "fusion_lon": 0.0, "lon": -77.03665266666667, "name": "99304af43726fb8319f03b3c6493f99b", "is_disabled": 0, "rental_uris": {"android": "https://dc.lft.to/lastmile_qr_scan", "ios": "https://dc.lft.to/lastmile_qr_scan"}, "type": "electric_scooter", "lat": 38.92337716666667, "is_reserved": 0, "fusion_lat": 0.0}, {"bike_id": "3e8dddeda48254000f6ebd2aff953698", "fusion_lon": 0.0, "lon": -76.98172383333333, "name": "3e8dddeda48254000f6ebd2aff953698", "is_disabled": 0, "rental_uris": {"android": "https://dc.lft.to/lastmile_qr_scan", "ios": "https://dc.lft.to/lastmile_qr_scan"}, "type": "electric_scooter", "lat": 38.85677116666667, "is_reserved": 0, "fusion_lat": 0.0}, {"bike_id": "2eff516478b08168360ae48e9419ded8", "fusion_lon": 0.0, "lon": -77.0271905, "name": "2eff516478b08168360ae48e9419ded8", "is_disabled": 0, "rental_uris": {"android": "https://dc.lft.to/lastmile_qr_scan", "ios": "https://dc.lft.to/lastmile_qr_scan"}, "type": "electric_scooter", "lat": 38.90687616666666, "is_reserved": 0, "fusion_lat": 0.0}, {"bike_id": "fb2b5848286ece630afa00332b72a59a", "fusion_lon": 0.0, "lon": -77.023915, "name": "fb2b5848286ece630afa00332b72a59a", "is_disabled": 0, "rental_uris": {"android": "https://dc.lft.to/lastmile_qr_scan", "ios": "https://dc.lft.to/lastmile_qr_scan"}, "type": "electric_scooter", "lat": 38.911288166666665, "is_reserved": 0, "fusion_lat": 0.0}, {"bike_id": "1e6c56facb8e4fd04a2ed3f9260c552d", "fusion_lon": 0.0, "lon": -77.04004483333334, "name": "1e6c56facb8e4fd04a2ed3f9260c552d", "is_disabled": 0, "rental_uris": {"android": "https://dc.lft.to/lastmile_qr_scan", "ios": "https://dc.lft.to/lastmile_qr_scan"}, "type": "electric_scooter", "lat": 38.934291, "is_reserved": 0, "fusion_lat": 0.0}, {"bike_id": "a2a059505383f3d2ff1fb25c7c059283", "fusion_lon": 0.0, "lon": -77.021535, "name": "a2a059505383f3d2ff1fb25c7c059283", "is_disabled": 0, "rental_uris": {"android": "https://dc.lft.to/lastmile_qr_scan", "ios": "https://dc.lft.to/lastmile_qr_scan"}, "type": "electric_scooter", "lat": 38.9096345, "is_reserved": 0, "fusion_lat": 0.0}, {"bike_id": "17a52be4e3bac2eb1639b0f1e9044de7", "fusion_lon": 0.0, "lon": -77.03290333333334, "name": "17a52be4e3bac2eb1639b0f1e9044de7", "is_disabled": 0, "rental_uris": {"android": "https://dc.lft.to/lastmile_qr_scan", "ios": "https://dc.lft.to/lastmile_qr_scan"}, "type": "electric_scooter", "lat": 38.91995166666667, "is_reserved": 0, "fusion_lat": 0.0}, {"bike_id": "24103480ace4534da9fd28b2108423d9", "fusion_lon": 0.0, "lon": -77.03466266666666, "name": "24103480ace4534da9fd28b2108423d9", "is_disabled": 0, "rental_uris": {"android": "https://dc.lft.to/lastmile_qr_scan", "ios": "https://dc.lft.to/lastmile_qr_scan"}, "type": "electric_scooter", "lat": 38.908781, "is_reserved": 0, "fusion_lat": 0.0}, {"bike_id": "3219eb54af6e5b6c3fcb54f59f393c3b", "fusion_lon": 0.0, "lon": -76.96539583333333, "name": "3219eb54af6e5b6c3fcb54f59f393c3b", "is_disabled": 0, "rental_uris": {"android": "https://dc.lft.to/lastmile_qr_scan", "ios": "https://dc.lft.to/lastmile_qr_scan"}, "type": "electric_scooter", "lat": 38.91849933333334, "is_reserved": 0, "fusion_lat": 0.0}, {"bike_id": "c6a57b0d5b64afe911fb6257e851bb4f", "fusion_lon": 0.0, "lon": -77.02903866666666, "name": "c6a57b0d5b64afe911fb6257e851bb4f", "is_disabled": 0, "rental_uris": {"android": "https://dc.lft.to/lastmile_qr_scan", "ios": "https://dc.lft.to/lastmile_qr_scan"}, "type": "electric_scooter", "lat": 38.9257135, "is_reserved": 0, "fusion_lat": 0.0}, {"bike_id": "803fa2a7a736868bac054f9e851ef046", "fusion_lon": 0.0, "lon": -77.02378133333333, "name": "803fa2a7a736868bac054f9e851ef046", "is_disabled": 0, "rental_uris": {"android": "https://dc.lft.to/lastmile_qr_scan", "ios": "https://dc.lft.to/lastmile_qr_scan"}, "type": "electric_scooter", "lat": 38.892247, "is_reserved": 0, "fusion_lat": 0.0}, {"bike_id": "b6e5785d4911d08ac9d0e89a9dc19ae0", "fusion_lon": 0.0, "lon": -77.101276, "name": "b6e5785d4911d08ac9d0e89a9dc19ae0", "is_disabled": 0, "rental_uris": {"android": "https://dc.lft.to/lastmile_qr_scan", "ios": "https://dc.lft.to/lastmile_qr_scan"}, "type": "electric_bike", "lat": 38.852111666666666, "is_reserved": 0, "fusion_lat": 0.0}, {"bike_id": "7f018136023217fe5d5c4a8a3c1c8c8d", "fusion_lon": 0.0, "lon": -77.04106583333333, "name": "7f018136023217fe5d5c4a8a3c1c8c8d", "is_disabled": 0, "rental_uris": {"android": "https://dc.lft.to/lastmile_qr_scan", "ios": "https://dc.lft.to/lastmile_qr_scan"}, "type": "electric_scooter", "lat": 38.90486966666667, "is_reserved": 0, "fusion_lat": 0.0}, {"bike_id": "ea2ae2883a61e3557dc5a13bd614283c", "fusion_lon": 0.0, "lon": -77.00752783333333, "name": "ea2ae2883a61e3557dc5a13bd614283c", "is_disabled": 0, "rental_uris": {"android": "https://dc.lft.to/lastmile_qr_scan", "ios": "https://dc.lft.to/lastmile_qr_scan"}, "type": "electric_scooter", "lat": 38.898337, "is_reserved": 0, "fusion_lat": 0.0}, {"bike_id": "ab898691c1f380edb1434c0c7e325479", "fusion_lon": 0.0, "lon": -77.000705, "name": "ab898691c1f380edb1434c0c7e325479", "is_disabled": 0, "rental_uris": {"android": "https://dc.lft.to/lastmile_qr_scan", "ios": "https://dc.lft.to/lastmile_qr_scan"}, "type": "electric_scooter", "lat": 38.92548583333333, "is_reserved": 0, "fusion_lat": 0.0}, {"bike_id": "8f51b6ef56b03666495b10b8cee812db", "fusion_lon": 0.0, "lon": -77.0093575, "name": "8f51b6ef56b03666495b10b8cee812db", "is_disabled": 0, "rental_uris": {"android": "https://dc.lft.to/lastmile_qr_scan", "ios": "https://dc.lft.to/lastmile_qr_scan"}, "type": "electric_scooter", "lat": 38.9181595, "is_reserved": 0, "fusion_lat": 0.0}, {"bike_id": "e1a27daa7896a1cbab545a246f8f85e4", "fusion_lon": 0.0, "lon": -77.03214883333334, "name": "e1a27daa7896a1cbab545a246f8f85e4", "is_disabled": 0, "rental_uris": {"android": "https://dc.lft.to/lastmile_qr_scan", "ios": "https://dc.lft.to/lastmile_qr_scan"}, "type": "electric_scooter", "lat": 38.9155545, "is_reserved": 0, "fusion_lat": 0.0}, {"bike_id": "3ffa483af18672beefb4b8e659b1f6b0", "fusion_lon": 0.0, "lon": -77.02316633333334, "name": "3ffa483af18672beefb4b8e659b1f6b0", "is_disabled": 0, "rental_uris": {"android": "https://dc.lft.to/lastmile_qr_scan", "ios": "https://dc.lft.to/lastmile_qr_scan"}, "type": "electric_scooter", "lat": 38.90963333333333, "is_reserved": 0, "fusion_lat": 0.0}, {"bike_id": "cb84a9b293ce5c356679883a78ead13e", "fusion_lon": 0.0, "lon": -76.9318475, "name": "cb84a9b293ce5c356679883a78ead13e", "is_disabled": 0, "rental_uris": {"android": "https://dc.lft.to/lastmile_qr_scan", "ios": "https://dc.lft.to/lastmile_qr_scan"}, "type": "electric_scooter", "lat": 38.89877716666667, "is_reserved": 0, "fusion_lat": 0.0}, {"bike_id": "c4cda9370c147dd39c681ea36c16d904", "fusion_lon": 0.0, "lon": -77.024141, "name": "c4cda9370c147dd39c681ea36c16d904", "is_disabled": 0, "rental_uris": {"android": "https://dc.lft.to/lastmile_qr_scan", "ios": "https://dc.lft.to/lastmile_qr_scan"}, "type": "electric_scooter", "lat": 38.9219205, "is_reserved": 0, "fusion_lat": 0.0}, {"bike_id": "459749898acd35c29e3b70628d44f1c1", "fusion_lon": 0.0, "lon": -77.05418066666667, "name": "459749898acd35c29e3b70628d44f1c1", "is_disabled": 0, "rental_uris": {"android": "https://dc.lft.to/lastmile_qr_scan", "ios": "https://dc.lft.to/lastmile_qr_scan"}, "type": "electric_scooter", "lat": 38.902432166666664, "is_reserved": 0, "fusion_lat": 0.0}, {"bike_id": "02a5ed4cacf5153f6981931439211cff", "fusion_lon": 0.0, "lon": -77.03525666666667, "name": "02a5ed4cacf5153f6981931439211cff", "is_disabled": 0, "rental_uris": {"android": "https://dc.lft.to/lastmile_qr_scan", "ios": "https://dc.lft.to/lastmile_qr_scan"}, "type": "electric_scooter", "lat": 38.923431, "is_reserved": 0, "fusion_lat": 0.0}, {"bike_id": "04be35795ba5eb7f520fafd165d4e703", "fusion_lon": 0.0, "lon": -77.0240815, "name": "04be35795ba5eb7f520fafd165d4e703", "is_disabled": 0, "rental_uris": {"android": "https://dc.lft.to/lastmile_qr_scan", "ios": "https://dc.lft.to/lastmile_qr_scan"}, "type": "electric_scooter", "lat": 38.897287166666665, "is_reserved": 0, "fusion_lat": 0.0}, {"bike_id": "0efffa38b77fdc86c63f376825fd9a7b", "fusion_lon": 0.0, "lon": -77.05159416666666, "name": "0efffa38b77fdc86c63f376825fd9a7b", "is_disabled": 0, "rental_uris": {"android": "https://dc.lft.to/lastmile_qr_scan", "ios": "https://dc.lft.to/lastmile_qr_scan"}, "type": "electric_scooter", "lat": 38.90564, "is_reserved": 0, "fusion_lat": 0.0}, {"bike_id": "10e7a2b88ccffe4ac2abfb079251c1da", "fusion_lon": 0.0, "lon": -77.0322925, "name": "10e7a2b88ccffe4ac2abfb079251c1da", "is_disabled": 0, "rental_uris": {"android": "https://dc.lft.to/lastmile_qr_scan", "ios": "https://dc.lft.to/lastmile_qr_scan"}, "type": "electric_scooter", "lat": 38.914056333333335, "is_reserved": 0, "fusion_lat": 0.0}, {"bike_id": "44e8977f9af1ec76ca3d65c98803caef", "fusion_lon": 0.0, "lon": -77.03236566666666, "name": "44e8977f9af1ec76ca3d65c98803caef", "is_disabled": 0, "rental_uris": {"android": "https://dc.lft.to/lastmile_qr_scan", "ios": "https://dc.lft.to/lastmile_qr_scan"}, "type": "electric_scooter", "lat": 38.927605166666666, "is_reserved": 0, "fusion_lat": 0.0}, {"bike_id": "db868c49a6672fefe0f90b84a082ef8f", "fusion_lon": 0.0, "lon": -76.98111466666667, "name": "db868c49a6672fefe0f90b84a082ef8f", "is_disabled": 0, "rental_uris": {"android": "https://dc.lft.to/lastmile_qr_scan", "ios": "https://dc.lft.to/lastmile_qr_scan"}, "type": "electric_bike", "lat": 38.914738, "is_reserved": 0, "fusion_lat": 0.0}, {"bike_id": "46a61bae2e824c46e65514a3d0713797", "fusion_lon": 0.0, "lon": -76.91128933333333, "name": "46a61bae2e824c46e65514a3d0713797", "is_disabled": 0, "rental_uris": {"android": "https://dc.lft.to/lastmile_qr_scan", "ios": "https://dc.lft.to/lastmile_qr_scan"}, "type": "electric_scooter", "lat": 38.894254, "is_reserved": 0, "fusion_lat": 0.0}, {"bike_id": "71d11981ed029869bcf5f05c75d54b7e", "fusion_lon": 0.0, "lon": -77.033297, "name": "71d11981ed029869bcf5f05c75d54b7e", "is_disabled": 0, "rental_uris": {"android": "https://dc.lft.to/lastmile_qr_scan", "ios": "https://dc.lft.to/lastmile_qr_scan"}, "type": "electric_scooter", "lat": 38.8985845, "is_reserved": 0, "fusion_lat": 0.0}, {"bike_id": "783202dde7d5db1148292c76f8dd10dc", "fusion_lon": 0.0, "lon": -76.99945983333333, "name": "783202dde7d5db1148292c76f8dd10dc", "is_disabled": 0, "rental_uris": {"android": "https://dc.lft.to/lastmile_qr_scan", "ios": "https://dc.lft.to/lastmile_qr_scan"}, "type": "electric_scooter", "lat": 38.8430055, "is_reserved": 0, "fusion_lat": 0.0}, {"bike_id": "1ce890c9e0bffe41aa94d84c603505ca", "fusion_lon": 0.0, "lon": -77.0366175, "name": "1ce890c9e0bffe41aa94d84c603505ca", "is_disabled": 0, "rental_uris": {"android": "https://dc.lft.to/lastmile_qr_scan", "ios": "https://dc.lft.to/lastmile_qr_scan"}, "type": "electric_scooter", "lat": 38.9140415, "is_reserved": 0, "fusion_lat": 0.0}, {"bike_id": "1b3823629df9d5874e9dd40e55a97c68", "fusion_lon": 0.0, "lon": -77.03259916666667, "name": "1b3823629df9d5874e9dd40e55a97c68", "is_disabled": 0, "rental_uris": {"android": "https://dc.lft.to/lastmile_qr_scan", "ios": "https://dc.lft.to/lastmile_qr_scan"}, "type": "electric_scooter", "lat": 38.914089833333335, "is_reserved": 0, "fusion_lat": 0.0}, {"bike_id": "902c2693912871d971d15ecf2c867573", "fusion_lon": 0.0, "lon": -77.0419815, "name": "902c2693912871d971d15ecf2c867573", "is_disabled": 0, "rental_uris": {"android": "https://dc.lft.to/lastmile_qr_scan", "ios": "https://dc.lft.to/lastmile_qr_scan"}, "type": "electric_scooter", "lat": 38.9262565, "is_reserved": 0, "fusion_lat": 0.0}, {"bike_id": "a3c7fad6e4ceca031d57f9af69611d23", "fusion_lon": 0.0, "lon": -77.00322733333333, "name": "a3c7fad6e4ceca031d57f9af69611d23", "is_disabled": 0, "rental_uris": {"android": "https://dc.lft.to/lastmile_qr_scan", "ios": "https://dc.lft.to/lastmile_qr_scan"}, "type": "electric_scooter", "lat": 38.9026905, "is_reserved": 0, "fusion_lat": 0.0}, {"bike_id": "152cf4bd4c802ec298ef04000a0e5c1a", "fusion_lon": 0.0, "lon": -77.04084566666667, "name": "152cf4bd4c802ec298ef04000a0e5c1a", "is_disabled": 0, "rental_uris": {"android": "https://dc.lft.to/lastmile_qr_scan", "ios": "https://dc.lft.to/lastmile_qr_scan"}, "type": "electric_scooter", "lat": 38.917050833333334, "is_reserved": 0, "fusion_lat": 0.0}, {"bike_id": "e956ab4eab495830e62afb30a1515325", "fusion_lon": 0.0, "lon": -77.02005816666667, "name": "e956ab4eab495830e62afb30a1515325", "is_disabled": 0, "rental_uris": {"android": "https://dc.lft.to/lastmile_qr_scan", "ios": "https://dc.lft.to/lastmile_qr_scan"}, "type": "electric_scooter", "lat": 38.91314883333333, "is_reserved": 0, "fusion_lat": 0.0}, {"bike_id": "2edf14abd5ce625908578d294cf7d45f", "fusion_lon": 0.0, "lon": -77.02189633333333, "name": "2edf14abd5ce625908578d294cf7d45f", "is_disabled": 0, "rental_uris": {"android": "https://dc.lft.to/lastmile_qr_scan", "ios": "https://dc.lft.to/lastmile_qr_scan"}, "type": "electric_scooter", "lat": 38.91148066666667, "is_reserved": 0, "fusion_lat": 0.0}, {"bike_id": "3fd26b372acc8328cb423e49f7856888", "fusion_lon": 0.0, "lon": -77.0119105, "name": "3fd26b372acc8328cb423e49f7856888", "is_disabled": 0, "rental_uris": {"android": "https://dc.lft.to/lastmile_qr_scan", "ios": "https://dc.lft.to/lastmile_qr_scan"}, "type": "electric_scooter", "lat": 38.91551883333333, "is_reserved": 0, "fusion_lat": 0.0}, {"bike_id": "facffc7278bec2243d40ad03746ba1aa", "fusion_lon": 0.0, "lon": -77.019469, "name": "facffc7278bec2243d40ad03746ba1aa", "is_disabled": 0, "rental_uris": {"android": "https://dc.lft.to/lastmile_qr_scan", "ios": "https://dc.lft.to/lastmile_qr_scan"}, "type": "electric_scooter", "lat": 38.92422883333333, "is_reserved": 0, "fusion_lat": 0.0}, {"bike_id": "bfe30bdb396fd1c13bd05503ca480b52", "fusion_lon": 0.0, "lon": -76.9871325, "name": "bfe30bdb396fd1c13bd05503ca480b52", "is_disabled": 0, "rental_uris": {"android": "https://dc.lft.to/lastmile_qr_scan", "ios": "https://dc.lft.to/lastmile_qr_scan"}, "type": "electric_scooter", "lat": 38.867008166666665, "is_reserved": 0, "fusion_lat": 0.0}, {"bike_id": "c98f7294f028f8f802955de600ecc7d5", "fusion_lon": 0.0, "lon": -77.03704333333333, "name": "c98f7294f028f8f802955de600ecc7d5", "is_disabled": 0, "rental_uris": {"android": "https://dc.lft.to/lastmile_qr_scan", "ios": "https://dc.lft.to/lastmile_qr_scan"}, "type": "electric_scooter", "lat": 38.92647383333333, "is_reserved": 0, "fusion_lat": 0.0}, {"bike_id": "52f9a69938c99f8204fe23395ee988e2", "fusion_lon": 0.0, "lon": -76.9494325, "name": "52f9a69938c99f8204fe23395ee988e2", "is_disabled": 0, "rental_uris": {"android": "https://dc.lft.to/lastmile_qr_scan", "ios": "https://dc.lft.to/lastmile_qr_scan"}, "type": "electric_scooter", "lat": 38.89352016666667, "is_reserved": 0, "fusion_lat": 0.0}, {"bike_id": "a47bc0888abd48f3635c09d5c46f6f02", "fusion_lon": 0.0, "lon": -77.025165, "name": "a47bc0888abd48f3635c09d5c46f6f02", "is_disabled": 0, "rental_uris": {"android": "https://dc.lft.to/lastmile_qr_scan", "ios": "https://dc.lft.to/lastmile_qr_scan"}, "type": "electric_scooter", "lat": 38.94625766666667, "is_reserved": 0, "fusion_lat": 0.0}, {"bike_id": "30af1f3e107c6044ff0d4c7310d4d240", "fusion_lon": 0.0, "lon": -77.05400566666667, "name": "30af1f3e107c6044ff0d4c7310d4d240", "is_disabled": 0, "rental_uris": {"android": "https://dc.lft.to/lastmile_qr_scan", "ios": "https://dc.lft.to/lastmile_qr_scan"}, "type": "electric_scooter", "lat": 38.92808633333333, "is_reserved": 0, "fusion_lat": 0.0}, {"bike_id": "09d462d3887e1ebb8ca850f57877fa78", "fusion_lon": 0.0, "lon": -77.03657316666667, "name": "09d462d3887e1ebb8ca850f57877fa78", "is_disabled": 0, "rental_uris": {"android": "https://dc.lft.to/lastmile_qr_scan", "ios": "https://dc.lft.to/lastmile_qr_scan"}, "type": "electric_scooter", "lat": 38.92979966666667, "is_reserved": 0, "fusion_lat": 0.0}, {"bike_id": "4d5e6598dc45cdb11069f2bd2450681b", "fusion_lon": 0.0, "lon": -77.03535366666667, "name": "4d5e6598dc45cdb11069f2bd2450681b", "is_disabled": 0, "rental_uris": {"android": "https://dc.lft.to/lastmile_qr_scan", "ios": "https://dc.lft.to/lastmile_qr_scan"}, "type": "electric_scooter", "lat": 38.92317116666667, "is_reserved": 0, "fusion_lat": 0.0}, {"bike_id": "828ee1fd187bdd6c0e925bce1e872eb1", "fusion_lon": 0.0, "lon": -77.00674283333333, "name": "828ee1fd187bdd6c0e925bce1e872eb1", "is_disabled": 0, "rental_uris": {"android": "https://dc.lft.to/lastmile_qr_scan", "ios": "https://dc.lft.to/lastmile_qr_scan"}, "type": "electric_bike", "lat": 38.94513383333334, "is_reserved": 0, "fusion_lat": 0.0}, {"bike_id": "b51166db35d8ccba3c168ab1bf09dfcb", "fusion_lon": 0.0, "lon": -77.0433425, "name": "b51166db35d8ccba3c168ab1bf09dfcb", "is_disabled": 0, "rental_uris": {"android": "https://dc.lft.to/lastmile_qr_scan", "ios": "https://dc.lft.to/lastmile_qr_scan"}, "type": "electric_scooter", "lat": 38.89224166666666, "is_reserved": 0, "fusion_lat": 0.0}, {"bike_id": "0ad9cc547bdae7496a99881b2f5467a2", "fusion_lon": 0.0, "lon": -77.03273283333333, "name": "0ad9cc547bdae7496a99881b2f5467a2", "is_disabled": 0, "rental_uris": {"android": "https://dc.lft.to/lastmile_qr_scan", "ios": "https://dc.lft.to/lastmile_qr_scan"}, "type": "electric_scooter", "lat": 38.93781216666667, "is_reserved": 0, "fusion_lat": 0.0}, {"bike_id": "db0bdb147f9af9535645fc862c9aa335", "fusion_lon": 0.0, "lon": -77.048405, "name": "db0bdb147f9af9535645fc862c9aa335", "is_disabled": 0, "rental_uris": {"android": "https://dc.lft.to/lastmile_qr_scan", "ios": "https://dc.lft.to/lastmile_qr_scan"}, "type": "electric_scooter", "lat": 38.910429666666666, "is_reserved": 0, "fusion_lat": 0.0}, {"bike_id": "041c71bcf52ad14eb5f9cdbe190d4f77", "fusion_lon": 0.0, "lon": -77.0414075, "name": "041c71bcf52ad14eb5f9cdbe190d4f77", "is_disabled": 0, "rental_uris": {"android": "https://dc.lft.to/lastmile_qr_scan", "ios": "https://dc.lft.to/lastmile_qr_scan"}, "type": "electric_scooter", "lat": 38.893536166666664, "is_reserved": 0, "fusion_lat": 0.0}, {"bike_id": "2aa238cba3c50327970cdbfc07794758", "fusion_lon": 0.0, "lon": -77.029659, "name": "2aa238cba3c50327970cdbfc07794758", "is_disabled": 0, "rental_uris": {"android": "https://dc.lft.to/lastmile_qr_scan", "ios": "https://dc.lft.to/lastmile_qr_scan"}, "type": "electric_scooter", "lat": 38.906277333333335, "is_reserved": 0, "fusion_lat": 0.0}, {"bike_id": "f1368b6e69292b22008188c40a19f5ec", "fusion_lon": 0.0, "lon": -77.047081, "name": "f1368b6e69292b22008188c40a19f5ec", "is_disabled": 0, "rental_uris": {"android": "https://dc.lft.to/lastmile_qr_scan", "ios": "https://dc.lft.to/lastmile_qr_scan"}, "type": "electric_scooter", "lat": 38.92223083333333, "is_reserved": 0, "fusion_lat": 0.0}, {"bike_id": "244da15dec77bf2c2fe7d5e8e058e8f9", "fusion_lon": 0.0, "lon": -76.997082, "name": "244da15dec77bf2c2fe7d5e8e058e8f9", "is_disabled": 0, "rental_uris": {"android": "https://dc.lft.to/lastmile_qr_scan", "ios": "https://dc.lft.to/lastmile_qr_scan"}, "type": "electric_scooter", "lat": 38.8443635, "is_reserved": 0, "fusion_lat": 0.0}, {"bike_id": "bec923a08b243c619fe009ef188d548f", "fusion_lon": 0.0, "lon": -77.02390266666667, "name": "bec923a08b243c619fe009ef188d548f", "is_disabled": 0, "rental_uris": {"android": "https://dc.lft.to/lastmile_qr_scan", "ios": "https://dc.lft.to/lastmile_qr_scan"}, "type": "electric_scooter", "lat": 38.90957516666667, "is_reserved": 0, "fusion_lat": 0.0}, {"bike_id": "ca66d4b4eac25e873b98beb0150951c8", "fusion_lon": 0.0, "lon": -77.041682, "name": "ca66d4b4eac25e873b98beb0150951c8", "is_disabled": 0, "rental_uris": {"android": "https://dc.lft.to/lastmile_qr_scan", "ios": "https://dc.lft.to/lastmile_qr_scan"}, "type": "electric_scooter", "lat": 38.918576, "is_reserved": 0, "fusion_lat": 0.0}, {"bike_id": "e13cdb7d227705b01470ffbaf359f588", "fusion_lon": 0.0, "lon": -76.98072283333333, "name": "e13cdb7d227705b01470ffbaf359f588", "is_disabled": 0, "rental_uris": {"android": "https://dc.lft.to/lastmile_qr_scan", "ios": "https://dc.lft.to/lastmile_qr_scan"}, "type": "electric_bike", "lat": 38.9017635, "is_reserved": 0, "fusion_lat": 0.0}, {"bike_id": "0da2a2d9d34e4c52b1882e65af9f6e56", "fusion_lon": 0.0, "lon": -77.03449183333333, "name": "0da2a2d9d34e4c52b1882e65af9f6e56", "is_disabled": 0, "rental_uris": {"android": "https://dc.lft.to/lastmile_qr_scan", "ios": "https://dc.lft.to/lastmile_qr_scan"}, "type": "electric_scooter", "lat": 38.908084833333334, "is_reserved": 0, "fusion_lat": 0.0}, {"bike_id": "a852751a050560c561cb02bcf177e949", "fusion_lon": 0.0, "lon": -77.02695583333333, "name": "a852751a050560c561cb02bcf177e949", "is_disabled": 0, "rental_uris": {"android": "https://dc.lft.to/lastmile_qr_scan", "ios": "https://dc.lft.to/lastmile_qr_scan"}, "type": "electric_scooter", "lat": 38.91128, "is_reserved": 0, "fusion_lat": 0.0}, {"bike_id": "34e899a00ac88836b45da8d8764e5b04", "fusion_lon": 0.0, "lon": -77.02719083333334, "name": "34e899a00ac88836b45da8d8764e5b04", "is_disabled": 0, "rental_uris": {"android": "https://dc.lft.to/lastmile_qr_scan", "ios": "https://dc.lft.to/lastmile_qr_scan"}, "type": "electric_scooter", "lat": 38.915665, "is_reserved": 0, "fusion_lat": 0.0}, {"bike_id": "3a61a1fe770eb58efe3dafd282a63dd1", "fusion_lon": 0.0, "lon": -77.01794966666667, "name": "3a61a1fe770eb58efe3dafd282a63dd1", "is_disabled": 0, "rental_uris": {"android": "https://dc.lft.to/lastmile_qr_scan", "ios": "https://dc.lft.to/lastmile_qr_scan"}, "type": "electric_scooter", "lat": 38.90094633333333, "is_reserved": 0, "fusion_lat": 0.0}, {"bike_id": "11d2b9be2e4e14dfbe74cb89b22aa55e", "fusion_lon": 0.0, "lon": -77.05529366666667, "name": "11d2b9be2e4e14dfbe74cb89b22aa55e", "is_disabled": 0, "rental_uris": {"android": "https://dc.lft.to/lastmile_qr_scan", "ios": "https://dc.lft.to/lastmile_qr_scan"}, "type": "electric_scooter", "lat": 38.9301765, "is_reserved": 0, "fusion_lat": 0.0}, {"bike_id": "17142de6566a56bb867120bc2f4bd271", "fusion_lon": 0.0, "lon": -77.01597916666667, "name": "17142de6566a56bb867120bc2f4bd271", "is_disabled": 0, "rental_uris": {"android": "https://dc.lft.to/lastmile_qr_scan", "ios": "https://dc.lft.to/lastmile_qr_scan"}, "type": "electric_scooter", "lat": 38.949434833333335, "is_reserved": 0, "fusion_lat": 0.0}, {"bike_id": "f3fdea11ae9bd443156d60751c414a91", "fusion_lon": 0.0, "lon": -77.04147916666666, "name": "f3fdea11ae9bd443156d60751c414a91", "is_disabled": 0, "rental_uris": {"android": "https://dc.lft.to/lastmile_qr_scan", "ios": "https://dc.lft.to/lastmile_qr_scan"}, "type": "electric_scooter", "lat": 38.9230405, "is_reserved": 0, "fusion_lat": 0.0}, {"bike_id": "3ff7a1736d14b1166e60d81489d5cf15", "fusion_lon": 0.0, "lon": -77.0274435, "name": "3ff7a1736d14b1166e60d81489d5cf15", "is_disabled": 0, "rental_uris": {"android": "https://dc.lft.to/lastmile_qr_scan", "ios": "https://dc.lft.to/lastmile_qr_scan"}, "type": "electric_scooter", "lat": 38.9336705, "is_reserved": 0, "fusion_lat": 0.0}, {"bike_id": "f2ad9336d75379fa919749a74a223e00", "fusion_lon": 0.0, "lon": -76.993509, "name": "f2ad9336d75379fa919749a74a223e00", "is_disabled": 0, "rental_uris": {"android": "https://dc.lft.to/lastmile_qr_scan", "ios": "https://dc.lft.to/lastmile_qr_scan"}, "type": "electric_scooter", "lat": 38.91485016666667, "is_reserved": 0, "fusion_lat": 0.0}, {"bike_id": "da2d06baae06e0d0e1d3b6d32bc7584d", "fusion_lon": 0.0, "lon": -77.038901, "name": "da2d06baae06e0d0e1d3b6d32bc7584d", "is_disabled": 0, "rental_uris": {"android": "https://dc.lft.to/lastmile_qr_scan", "ios": "https://dc.lft.to/lastmile_qr_scan"}, "type": "electric_scooter", "lat": 38.922336333333334, "is_reserved": 0, "fusion_lat": 0.0}, {"bike_id": "7dfa7e0b37e2bbd25af922d7c30ed9d1", "fusion_lon": 0.0, "lon": -77.0272485, "name": "7dfa7e0b37e2bbd25af922d7c30ed9d1", "is_disabled": 0, "rental_uris": {"android": "https://dc.lft.to/lastmile_qr_scan", "ios": "https://dc.lft.to/lastmile_qr_scan"}, "type": "electric_scooter", "lat": 38.94959516666667, "is_reserved": 0, "fusion_lat": 0.0}, {"bike_id": "bbb64269884dac3150ec922242df3349", "fusion_lon": 0.0, "lon": -77.01863816666666, "name": "bbb64269884dac3150ec922242df3349", "is_disabled": 0, "rental_uris": {"android": "https://dc.lft.to/lastmile_qr_scan", "ios": "https://dc.lft.to/lastmile_qr_scan"}, "type": "electric_scooter", "lat": 38.97370183333334, "is_reserved": 0, "fusion_lat": 0.0}, {"bike_id": "14f5652483d1cf76329cfe1bc4438ffc", "fusion_lon": 0.0, "lon": -77.02412516666666, "name": "14f5652483d1cf76329cfe1bc4438ffc", "is_disabled": 0, "rental_uris": {"android": "https://dc.lft.to/lastmile_qr_scan", "ios": "https://dc.lft.to/lastmile_qr_scan"}, "type": "electric_scooter", "lat": 38.93714533333333, "is_reserved": 0, "fusion_lat": 0.0}, {"bike_id": "1a492d35d5dcd13dd5138a79bd3994cf", "fusion_lon": 0.0, "lon": -77.02326033333334, "name": "1a492d35d5dcd13dd5138a79bd3994cf", "is_disabled": 0, "rental_uris": {"android": "https://dc.lft.to/lastmile_qr_scan", "ios": "https://dc.lft.to/lastmile_qr_scan"}, "type": "electric_scooter", "lat": 38.91699716666667, "is_reserved": 0, "fusion_lat": 0.0}, {"bike_id": "d45d6cf6a3e81f16df3a0c1986db12b7", "fusion_lon": 0.0, "lon": -77.058619, "name": "d45d6cf6a3e81f16df3a0c1986db12b7", "is_disabled": 0, "rental_uris": {"android": "https://dc.lft.to/lastmile_qr_scan", "ios": "https://dc.lft.to/lastmile_qr_scan"}, "type": "electric_scooter", "lat": 38.936093, "is_reserved": 0, "fusion_lat": 0.0}, {"bike_id": "84cbb83b8017cb522469488362b92b25", "fusion_lon": 0.0, "lon": -77.04597466666667, "name": "84cbb83b8017cb522469488362b92b25", "is_disabled": 0, "rental_uris": {"android": "https://dc.lft.to/lastmile_qr_scan", "ios": "https://dc.lft.to/lastmile_qr_scan"}, "type": "electric_scooter", "lat": 38.919208, "is_reserved": 0, "fusion_lat": 0.0}, {"bike_id": "68e29f9f6fc2e1723359aa090543fea9", "fusion_lon": 0.0, "lon": -77.02937966666667, "name": "68e29f9f6fc2e1723359aa090543fea9", "is_disabled": 0, "rental_uris": {"android": "https://dc.lft.to/lastmile_qr_scan", "ios": "https://dc.lft.to/lastmile_qr_scan"}, "type": "electric_scooter", "lat": 38.90533833333333, "is_reserved": 0, "fusion_lat": 0.0}, {"bike_id": "ec87b8e5ace6eaa148e4aabc442df4de", "fusion_lon": 0.0, "lon": -77.01469716666666, "name": "ec87b8e5ace6eaa148e4aabc442df4de", "is_disabled": 0, "rental_uris": {"android": "https://dc.lft.to/lastmile_qr_scan", "ios": "https://dc.lft.to/lastmile_qr_scan"}, "type": "electric_scooter", "lat": 38.91767983333333, "is_reserved": 0, "fusion_lat": 0.0}, {"bike_id": "5fe513f19048bb80f65bb3d7ceb5c8e7", "fusion_lon": 0.0, "lon": -76.98107883333333, "name": "5fe513f19048bb80f65bb3d7ceb5c8e7", "is_disabled": 0, "rental_uris": {"android": "https://dc.lft.to/lastmile_qr_scan", "ios": "https://dc.lft.to/lastmile_qr_scan"}, "type": "electric_bike", "lat": 38.877329833333334, "is_reserved": 0, "fusion_lat": 0.0}, {"bike_id": "269be0750dc91c499db25c24177a4358", "fusion_lon": 0.0, "lon": -77.02718566666667, "name": "269be0750dc91c499db25c24177a4358", "is_disabled": 0, "rental_uris": {"android": "https://dc.lft.to/lastmile_qr_scan", "ios": "https://dc.lft.to/lastmile_qr_scan"}, "type": "electric_scooter", "lat": 38.909568166666666, "is_reserved": 0, "fusion_lat": 0.0}, {"bike_id": "94bb89031adbcda168b7994127f83cfe", "fusion_lon": 0.0, "lon": -77.03663216666666, "name": "94bb89031adbcda168b7994127f83cfe", "is_disabled": 0, "rental_uris": {"android": "https://dc.lft.to/lastmile_qr_scan", "ios": "https://dc.lft.to/lastmile_qr_scan"}, "type": "electric_scooter", "lat": 38.921016333333334, "is_reserved": 0, "fusion_lat": 0.0}, {"bike_id": "7233babbc547279896c89b059b2acf8d", "fusion_lon": 0.0, "lon": -76.9927335, "name": "7233babbc547279896c89b059b2acf8d", "is_disabled": 0, "rental_uris": {"android": "https://dc.lft.to/lastmile_qr_scan", "ios": "https://dc.lft.to/lastmile_qr_scan"}, "type": "electric_scooter", "lat": 38.886435, "is_reserved": 0, "fusion_lat": 0.0}, {"bike_id": "000610300ca0a3a34699556000957889", "fusion_lon": 0.0, "lon": -76.9487705, "name": "000610300ca0a3a34699556000957889", "is_disabled": 0, "rental_uris": {"android": "https://dc.lft.to/lastmile_qr_scan", "ios": "https://dc.lft.to/lastmile_qr_scan"}, "type": "electric_scooter", "lat": 38.89500433333333, "is_reserved": 0, "fusion_lat": 0.0}, {"bike_id": "abcb2bac06dd8cbf8f78d7eb89750015", "fusion_lon": 0.0, "lon": -76.9888645, "name": "abcb2bac06dd8cbf8f78d7eb89750015", "is_disabled": 0, "rental_uris": {"android": "https://dc.lft.to/lastmile_qr_scan", "ios": "https://dc.lft.to/lastmile_qr_scan"}, "type": "electric_scooter", "lat": 38.86657366666667, "is_reserved": 0, "fusion_lat": 0.0}, {"bike_id": "f5d7aec54a1b22395c712720b0eefd47", "fusion_lon": 0.0, "lon": -77.00567966666667, "name": "f5d7aec54a1b22395c712720b0eefd47", "is_disabled": 0, "rental_uris": {"android": "https://dc.lft.to/lastmile_qr_scan", "ios": "https://dc.lft.to/lastmile_qr_scan"}, "type": "electric_scooter", "lat": 38.88054233333333, "is_reserved": 0, "fusion_lat": 0.0}, {"bike_id": "491dbe4fa1008e1328199ceb0d199422", "fusion_lon": 0.0, "lon": -77.02941666666666, "name": "491dbe4fa1008e1328199ceb0d199422", "is_disabled": 0, "rental_uris": {"android": "https://dc.lft.to/lastmile_qr_scan", "ios": "https://dc.lft.to/lastmile_qr_scan"}, "type": "electric_scooter", "lat": 38.899331833333335, "is_reserved": 0, "fusion_lat": 0.0}, {"bike_id": "fd5967fddefb4b73a07c8fa8d5a3dd52", "fusion_lon": 0.0, "lon": -77.017356, "name": "fd5967fddefb4b73a07c8fa8d5a3dd52", "is_disabled": 0, "rental_uris": {"android": "https://dc.lft.to/lastmile_qr_scan", "ios": "https://dc.lft.to/lastmile_qr_scan"}, "type": "electric_bike", "lat": 38.916075166666666, "is_reserved": 0, "fusion_lat": 0.0}, {"bike_id": "69b438ab2dc879c6091a108e71288aa6", "fusion_lon": 0.0, "lon": -77.02607766666667, "name": "69b438ab2dc879c6091a108e71288aa6", "is_disabled": 0, "rental_uris": {"android": "https://dc.lft.to/lastmile_qr_scan", "ios": "https://dc.lft.to/lastmile_qr_scan"}, "type": "electric_scooter", "lat": 38.902559, "is_reserved": 0, "fusion_lat": 0.0}, {"bike_id": "478e21b02daa85c3de2d786cb7a1c368", "fusion_lon": 0.0, "lon": -77.04319333333333, "name": "478e21b02daa85c3de2d786cb7a1c368", "is_disabled": 0, "rental_uris": {"android": "https://dc.lft.to/lastmile_qr_scan", "ios": "https://dc.lft.to/lastmile_qr_scan"}, "type": "electric_scooter", "lat": 38.92659066666667, "is_reserved": 0, "fusion_lat": 0.0}, {"bike_id": "6fd1c43fcf0149f5bb41d90c53c09448", "fusion_lon": 0.0, "lon": -77.03221316666666, "name": "6fd1c43fcf0149f5bb41d90c53c09448", "is_disabled": 0, "rental_uris": {"android": "https://dc.lft.to/lastmile_qr_scan", "ios": "https://dc.lft.to/lastmile_qr_scan"}, "type": "electric_scooter", "lat": 38.918542, "is_reserved": 0, "fusion_lat": 0.0}, {"bike_id": "5f430dc355372503be0fea205fd33aa5", "fusion_lon": 0.0, "lon": -76.9873075, "name": "5f430dc355372503be0fea205fd33aa5", "is_disabled": 0, "rental_uris": {"android": "https://dc.lft.to/lastmile_qr_scan", "ios": "https://dc.lft.to/lastmile_qr_scan"}, "type": "electric_scooter", "lat": 38.90706133333333, "is_reserved": 0, "fusion_lat": 0.0}, {"bike_id": "99fddd0d5651afaf9c27a57c00b5ed47", "fusion_lon": 0.0, "lon": -77.0065905, "name": "99fddd0d5651afaf9c27a57c00b5ed47", "is_disabled": 0, "rental_uris": {"android": "https://dc.lft.to/lastmile_qr_scan", "ios": "https://dc.lft.to/lastmile_qr_scan"}, "type": "electric_scooter", "lat": 38.944676333333334, "is_reserved": 0, "fusion_lat": 0.0}, {"bike_id": "9ab87d2ab1f4d92c5111003db435ed3a", "fusion_lon": 0.0, "lon": -77.11708983333334, "name": "9ab87d2ab1f4d92c5111003db435ed3a", "is_disabled": 0, "rental_uris": {"android": "https://dc.lft.to/lastmile_qr_scan", "ios": "https://dc.lft.to/lastmile_qr_scan"}, "type": "electric_bike", "lat": 38.867481833333336, "is_reserved": 0, "fusion_lat": 0.0}, {"bike_id": "cd0f3f79d6dc0d04f818a1003b2f4857", "fusion_lon": 0.0, "lon": -77.00366483333333, "name": "cd0f3f79d6dc0d04f818a1003b2f4857", "is_disabled": 0, "rental_uris": {"android": "https://dc.lft.to/lastmile_qr_scan", "ios": "https://dc.lft.to/lastmile_qr_scan"}, "type": "electric_scooter", "lat": 38.88266016666667, "is_reserved": 0, "fusion_lat": 0.0}, {"bike_id": "2e97db46b33e7e92a1ac963960e6d1ed", "fusion_lon": 0.0, "lon": -76.988416, "name": "2e97db46b33e7e92a1ac963960e6d1ed", "is_disabled": 0, "rental_uris": {"android": "https://dc.lft.to/lastmile_qr_scan", "ios": "https://dc.lft.to/lastmile_qr_scan"}, "type": "electric_bike", "lat": 38.842841166666666, "is_reserved": 0, "fusion_lat": 0.0}, {"bike_id": "6bb15fc16cbb702661b20e1adf67f24b", "fusion_lon": 0.0, "lon": -77.02722866666667, "name": "6bb15fc16cbb702661b20e1adf67f24b", "is_disabled": 0, "rental_uris": {"android": "https://dc.lft.to/lastmile_qr_scan", "ios": "https://dc.lft.to/lastmile_qr_scan"}, "type": "electric_scooter", "lat": 38.949605, "is_reserved": 0, "fusion_lat": 0.0}, {"bike_id": "af26792541604847eec1ebfd6bcc2677", "fusion_lon": 0.0, "lon": -77.03675733333333, "name": "af26792541604847eec1ebfd6bcc2677", "is_disabled": 0, "rental_uris": {"android": "https://dc.lft.to/lastmile_qr_scan", "ios": "https://dc.lft.to/lastmile_qr_scan"}, "type": "electric_scooter", "lat": 38.91713, "is_reserved": 0, "fusion_lat": 0.0}, {"bike_id": "6426ceb3fb48b747ee48d114c5f79d54", "fusion_lon": 0.0, "lon": -77.01293766666667, "name": "6426ceb3fb48b747ee48d114c5f79d54", "is_disabled": 0, "rental_uris": {"android": "https://dc.lft.to/lastmile_qr_scan", "ios": "https://dc.lft.to/lastmile_qr_scan"}, "type": "electric_scooter", "lat": 38.900509166666666, "is_reserved": 0, "fusion_lat": 0.0}, {"bike_id": "01f2e508cdaf8fa71dbc30e22e17c364", "fusion_lon": 0.0, "lon": -77.05021283333333, "name": "01f2e508cdaf8fa71dbc30e22e17c364", "is_disabled": 0, "rental_uris": {"android": "https://dc.lft.to/lastmile_qr_scan", "ios": "https://dc.lft.to/lastmile_qr_scan"}, "type": "electric_scooter", "lat": 38.906202666666665, "is_reserved": 0, "fusion_lat": 0.0}, {"bike_id": "73d8c109735bec6d627588b3cbf9695d", "fusion_lon": 0.0, "lon": -77.02288166666666, "name": "73d8c109735bec6d627588b3cbf9695d", "is_disabled": 0, "rental_uris": {"android": "https://dc.lft.to/lastmile_qr_scan", "ios": "https://dc.lft.to/lastmile_qr_scan"}, "type": "electric_scooter", "lat": 38.92765716666667, "is_reserved": 0, "fusion_lat": 0.0}, {"bike_id": "786de29b68de683ef48378a7c1058459", "fusion_lon": 0.0, "lon": -77.02319266666667, "name": "786de29b68de683ef48378a7c1058459", "is_disabled": 0, "rental_uris": {"android": "https://dc.lft.to/lastmile_qr_scan", "ios": "https://dc.lft.to/lastmile_qr_scan"}, "type": "electric_scooter", "lat": 38.92939283333333, "is_reserved": 0, "fusion_lat": 0.0}, {"bike_id": "7111edd7cc598b0a6478f75fc5d95b9a", "fusion_lon": 0.0, "lon": -77.051501, "name": "7111edd7cc598b0a6478f75fc5d95b9a", "is_disabled": 0, "rental_uris": {"android": "https://dc.lft.to/lastmile_qr_scan", "ios": "https://dc.lft.to/lastmile_qr_scan"}, "type": "electric_scooter", "lat": 38.9053805, "is_reserved": 0, "fusion_lat": 0.0}, {"bike_id": "9b4d7ddfedfc34b9ad894a10bbceb6fb", "fusion_lon": 0.0, "lon": -77.03106683333333, "name": "9b4d7ddfedfc34b9ad894a10bbceb6fb", "is_disabled": 0, "rental_uris": {"android": "https://dc.lft.to/lastmile_qr_scan", "ios": "https://dc.lft.to/lastmile_qr_scan"}, "type": "electric_scooter", "lat": 38.9465285, "is_reserved": 0, "fusion_lat": 0.0}, {"bike_id": "f071102a18d0a1c83667988979462380", "fusion_lon": 0.0, "lon": -77.02622416666667, "name": "f071102a18d0a1c83667988979462380", "is_disabled": 0, "rental_uris": {"android": "https://dc.lft.to/lastmile_qr_scan", "ios": "https://dc.lft.to/lastmile_qr_scan"}, "type": "electric_scooter", "lat": 38.928096833333335, "is_reserved": 0, "fusion_lat": 0.0}, {"bike_id": "d8988a4226a4257a681183d3ad8c2345", "fusion_lon": 0.0, "lon": -76.9951965, "name": "d8988a4226a4257a681183d3ad8c2345", "is_disabled": 0, "rental_uris": {"android": "https://dc.lft.to/lastmile_qr_scan", "ios": "https://dc.lft.to/lastmile_qr_scan"}, "type": "electric_scooter", "lat": 38.909821, "is_reserved": 0, "fusion_lat": 0.0}, {"bike_id": "71c865227e0e6bd764f7a88757147080", "fusion_lon": 0.0, "lon": -77.031744, "name": "71c865227e0e6bd764f7a88757147080", "is_disabled": 0, "rental_uris": {"android": "https://dc.lft.to/lastmile_qr_scan", "ios": "https://dc.lft.to/lastmile_qr_scan"}, "type": "electric_scooter", "lat": 38.89228683333333, "is_reserved": 0, "fusion_lat": 0.0}, {"bike_id": "dd4ce115c24a411655e235578724b68e", "fusion_lon": 0.0, "lon": -77.038657, "name": "dd4ce115c24a411655e235578724b68e", "is_disabled": 0, "rental_uris": {"android": "https://dc.lft.to/lastmile_qr_scan", "ios": "https://dc.lft.to/lastmile_qr_scan"}, "type": "electric_scooter", "lat": 38.90786, "is_reserved": 0, "fusion_lat": 0.0}, {"bike_id": "c134d643e74ebb91d5da34f7a14697b6", "fusion_lon": 0.0, "lon": -76.9903185, "name": "c134d643e74ebb91d5da34f7a14697b6", "is_disabled": 0, "rental_uris": {"android": "https://dc.lft.to/lastmile_qr_scan", "ios": "https://dc.lft.to/lastmile_qr_scan"}, "type": "electric_scooter", "lat": 38.86525683333333, "is_reserved": 0, "fusion_lat": 0.0}, {"bike_id": "95c718e547246d0ea369c59df6d913aa", "fusion_lon": 0.0, "lon": -76.9323095, "name": "95c718e547246d0ea369c59df6d913aa", "is_disabled": 0, "rental_uris": {"android": "https://dc.lft.to/lastmile_qr_scan", "ios": "https://dc.lft.to/lastmile_qr_scan"}, "type": "electric_bike", "lat": 38.865958, "is_reserved": 0, "fusion_lat": 0.0}, {"bike_id": "a9dc2011a15483ad7d1468558648264f", "fusion_lon": 0.0, "lon": -77.03492233333333, "name": "a9dc2011a15483ad7d1468558648264f", "is_disabled": 0, "rental_uris": {"android": "https://dc.lft.to/lastmile_qr_scan", "ios": "https://dc.lft.to/lastmile_qr_scan"}, "type": "electric_bike", "lat": 38.93539333333333, "is_reserved": 0, "fusion_lat": 0.0}, {"bike_id": "ce869862c7e4e722b8fb2e993ba1472c", "fusion_lon": 0.0, "lon": -77.055294, "name": "ce869862c7e4e722b8fb2e993ba1472c", "is_disabled": 0, "rental_uris": {"android": "https://dc.lft.to/lastmile_qr_scan", "ios": "https://dc.lft.to/lastmile_qr_scan"}, "type": "electric_scooter", "lat": 38.8973075, "is_reserved": 0, "fusion_lat": 0.0}, {"bike_id": "fed062ec77966df6e6ab42396b847c8f", "fusion_lon": 0.0, "lon": -77.0311555, "name": "fed062ec77966df6e6ab42396b847c8f", "is_disabled": 0, "rental_uris": {"android": "https://dc.lft.to/lastmile_qr_scan", "ios": "https://dc.lft.to/lastmile_qr_scan"}, "type": "electric_scooter", "lat": 38.919170333333334, "is_reserved": 0, "fusion_lat": 0.0}, {"bike_id": "d6aec33774d4e187c613fa7e72d5c201", "fusion_lon": 0.0, "lon": -77.03854116666666, "name": "d6aec33774d4e187c613fa7e72d5c201", "is_disabled": 0, "rental_uris": {"android": "https://dc.lft.to/lastmile_qr_scan", "ios": "https://dc.lft.to/lastmile_qr_scan"}, "type": "electric_scooter", "lat": 38.91683716666667, "is_reserved": 0, "fusion_lat": 0.0}, {"bike_id": "5f33acf7b32c9982010d8eab0a769ef5", "fusion_lon": 0.0, "lon": -77.023545, "name": "5f33acf7b32c9982010d8eab0a769ef5", "is_disabled": 0, "rental_uris": {"android": "https://dc.lft.to/lastmile_qr_scan", "ios": "https://dc.lft.to/lastmile_qr_scan"}, "type": "electric_scooter", "lat": 38.9072895, "is_reserved": 0, "fusion_lat": 0.0}, {"bike_id": "28203d21f168a12a8a90e6e2c8c13675", "fusion_lon": 0.0, "lon": -77.03877683333333, "name": "28203d21f168a12a8a90e6e2c8c13675", "is_disabled": 0, "rental_uris": {"android": "https://dc.lft.to/lastmile_qr_scan", "ios": "https://dc.lft.to/lastmile_qr_scan"}, "type": "electric_scooter", "lat": 38.9171085, "is_reserved": 0, "fusion_lat": 0.0}, {"bike_id": "b54e62c57affff420f4d61811177c7b3", "fusion_lon": 0.0, "lon": -77.014764, "name": "b54e62c57affff420f4d61811177c7b3", "is_disabled": 0, "rental_uris": {"android": "https://dc.lft.to/lastmile_qr_scan", "ios": "https://dc.lft.to/lastmile_qr_scan"}, "type": "electric_scooter", "lat": 38.876336333333334, "is_reserved": 0, "fusion_lat": 0.0}, {"bike_id": "ae802570272f3e24f9b983f2e95f66af", "fusion_lon": 0.0, "lon": -77.03397966666667, "name": "ae802570272f3e24f9b983f2e95f66af", "is_disabled": 0, "rental_uris": {"android": "https://dc.lft.to/lastmile_qr_scan", "ios": "https://dc.lft.to/lastmile_qr_scan"}, "type": "electric_scooter", "lat": 38.919731166666665, "is_reserved": 0, "fusion_lat": 0.0}, {"bike_id": "00be31ea7eabcde10de7b41344db3b7c", "fusion_lon": 0.0, "lon": -77.03277166666666, "name": "00be31ea7eabcde10de7b41344db3b7c", "is_disabled": 0, "rental_uris": {"android": "https://dc.lft.to/lastmile_qr_scan", "ios": "https://dc.lft.to/lastmile_qr_scan"}, "type": "electric_scooter", "lat": 38.9326745, "is_reserved": 0, "fusion_lat": 0.0}, {"bike_id": "9f7585537063dcdd6a2dfffc024e7752", "fusion_lon": 0.0, "lon": -77.03672416666667, "name": "9f7585537063dcdd6a2dfffc024e7752", "is_disabled": 0, "rental_uris": {"android": "https://dc.lft.to/lastmile_qr_scan", "ios": "https://dc.lft.to/lastmile_qr_scan"}, "type": "electric_scooter", "lat": 38.917131833333336, "is_reserved": 0, "fusion_lat": 0.0}, {"bike_id": "e091903835b665a1149218e33931ce4a", "fusion_lon": 0.0, "lon": -77.01754533333333, "name": "e091903835b665a1149218e33931ce4a", "is_disabled": 0, "rental_uris": {"android": "https://dc.lft.to/lastmile_qr_scan", "ios": "https://dc.lft.to/lastmile_qr_scan"}, "type": "electric_scooter", "lat": 38.88331783333334, "is_reserved": 0, "fusion_lat": 0.0}, {"bike_id": "f6c342cfe0e6fb87aa94782ab93db930", "fusion_lon": 0.0, "lon": -77.028914, "name": "f6c342cfe0e6fb87aa94782ab93db930", "is_disabled": 0, "rental_uris": {"android": "https://dc.lft.to/lastmile_qr_scan", "ios": "https://dc.lft.to/lastmile_qr_scan"}, "type": "electric_scooter", "lat": 38.904499666666666, "is_reserved": 0, "fusion_lat": 0.0}, {"bike_id": "d77a6c142017e88bdf84c2edb0894388", "fusion_lon": 0.0, "lon": -77.0342035, "name": "d77a6c142017e88bdf84c2edb0894388", "is_disabled": 0, "rental_uris": {"android": "https://dc.lft.to/lastmile_qr_scan", "ios": "https://dc.lft.to/lastmile_qr_scan"}, "type": "electric_scooter", "lat": 38.919259333333336, "is_reserved": 0, "fusion_lat": 0.0}, {"bike_id": "c9ea91d9ebea5e624ea51694332bc600", "fusion_lon": 0.0, "lon": -77.12963066666667, "name": "c9ea91d9ebea5e624ea51694332bc600", "is_disabled": 0, "rental_uris": {"android": "https://dc.lft.to/lastmile_qr_scan", "ios": "https://dc.lft.to/lastmile_qr_scan"}, "type": "electric_bike", "lat": 38.85220866666667, "is_reserved": 0, "fusion_lat": 0.0}, {"bike_id": "85c0b5fd86a3df00b6b4eae79cfec5a8", "fusion_lon": 0.0, "lon": -77.0400895, "name": "85c0b5fd86a3df00b6b4eae79cfec5a8", "is_disabled": 0, "rental_uris": {"android": "https://dc.lft.to/lastmile_qr_scan", "ios": "https://dc.lft.to/lastmile_qr_scan"}, "type": "electric_scooter", "lat": 38.91004266666667, "is_reserved": 0, "fusion_lat": 0.0}, {"bike_id": "4ef5cd7e84c07da1dec5ad90b54666f5", "fusion_lon": 0.0, "lon": -77.05546566666666, "name": "4ef5cd7e84c07da1dec5ad90b54666f5", "is_disabled": 0, "rental_uris": {"android": "https://dc.lft.to/lastmile_qr_scan", "ios": "https://dc.lft.to/lastmile_qr_scan"}, "type": "electric_scooter", "lat": 38.93013066666666, "is_reserved": 0, "fusion_lat": 0.0}, {"bike_id": "97b6cc96030e9ae98d49990c5371753c", "fusion_lon": 0.0, "lon": -77.02447316666667, "name": "97b6cc96030e9ae98d49990c5371753c", "is_disabled": 0, "rental_uris": {"android": "https://dc.lft.to/lastmile_qr_scan", "ios": "https://dc.lft.to/lastmile_qr_scan"}, "type": "electric_scooter", "lat": 38.91264, "is_reserved": 0, "fusion_lat": 0.0}, {"bike_id": "2bb394e69760fda915bd88a32ba22ffe", "fusion_lon": 0.0, "lon": -77.0141245, "name": "2bb394e69760fda915bd88a32ba22ffe", "is_disabled": 0, "rental_uris": {"android": "https://dc.lft.to/lastmile_qr_scan", "ios": "https://dc.lft.to/lastmile_qr_scan"}, "type": "electric_scooter", "lat": 38.928631833333334, "is_reserved": 0, "fusion_lat": 0.0}, {"bike_id": "20871c298b6930c6f5dc5f97ca1a4176", "fusion_lon": 0.0, "lon": -77.02387333333333, "name": "20871c298b6930c6f5dc5f97ca1a4176", "is_disabled": 0, "rental_uris": {"android": "https://dc.lft.to/lastmile_qr_scan", "ios": "https://dc.lft.to/lastmile_qr_scan"}, "type": "electric_scooter", "lat": 38.91531166666667, "is_reserved": 0, "fusion_lat": 0.0}, {"bike_id": "dacdcb2e6d28ddd869763135ebecf14b", "fusion_lon": 0.0, "lon": -77.05996766666667, "name": "dacdcb2e6d28ddd869763135ebecf14b", "is_disabled": 0, "rental_uris": {"android": "https://dc.lft.to/lastmile_qr_scan", "ios": "https://dc.lft.to/lastmile_qr_scan"}, "type": "electric_scooter", "lat": 38.901769, "is_reserved": 0, "fusion_lat": 0.0}, {"bike_id": "9507fa1c98ad773889f122b91f05263e", "fusion_lon": 0.0, "lon": -76.999074, "name": "9507fa1c98ad773889f122b91f05263e", "is_disabled": 0, "rental_uris": {"android": "https://dc.lft.to/lastmile_qr_scan", "ios": "https://dc.lft.to/lastmile_qr_scan"}, "type": "electric_scooter", "lat": 38.948319, "is_reserved": 0, "fusion_lat": 0.0}, {"bike_id": "dea3f55522eb8b9745b11d4840973425", "fusion_lon": 0.0, "lon": -76.93609983333333, "name": "dea3f55522eb8b9745b11d4840973425", "is_disabled": 0, "rental_uris": {"android": "https://dc.lft.to/lastmile_qr_scan", "ios": "https://dc.lft.to/lastmile_qr_scan"}, "type": "electric_scooter", "lat": 38.896869, "is_reserved": 0, "fusion_lat": 0.0}, {"bike_id": "1ed50078bf9fa351ee7a7be9321353b1", "fusion_lon": 0.0, "lon": -77.05121483333333, "name": "1ed50078bf9fa351ee7a7be9321353b1", "is_disabled": 0, "rental_uris": {"android": "https://dc.lft.to/lastmile_qr_scan", "ios": "https://dc.lft.to/lastmile_qr_scan"}, "type": "electric_scooter", "lat": 38.90533883333333, "is_reserved": 0, "fusion_lat": 0.0}, {"bike_id": "44adec448ab69836a0f8204c0dc2be72", "fusion_lon": 0.0, "lon": -76.987115, "name": "44adec448ab69836a0f8204c0dc2be72", "is_disabled": 0, "rental_uris": {"android": "https://dc.lft.to/lastmile_qr_scan", "ios": "https://dc.lft.to/lastmile_qr_scan"}, "type": "electric_scooter", "lat": 38.90070733333334, "is_reserved": 0, "fusion_lat": 0.0}, {"bike_id": "24957539b232dd09363bd856527afb6a", "fusion_lon": 0.0, "lon": -77.02718933333334, "name": "24957539b232dd09363bd856527afb6a", "is_disabled": 0, "rental_uris": {"android": "https://dc.lft.to/lastmile_qr_scan", "ios": "https://dc.lft.to/lastmile_qr_scan"}, "type": "electric_scooter", "lat": 38.909573333333334, "is_reserved": 0, "fusion_lat": 0.0}, {"bike_id": "ed897456543f24bd2cdcb93528393176", "fusion_lon": 0.0, "lon": -76.98690933333333, "name": "ed897456543f24bd2cdcb93528393176", "is_disabled": 0, "rental_uris": {"android": "https://dc.lft.to/lastmile_qr_scan", "ios": "https://dc.lft.to/lastmile_qr_scan"}, "type": "electric_bike", "lat": 38.94478466666666, "is_reserved": 0, "fusion_lat": 0.0}, {"bike_id": "c5111c006fab70cf5383e7900be6175c", "fusion_lon": 0.0, "lon": -77.024926, "name": "c5111c006fab70cf5383e7900be6175c", "is_disabled": 0, "rental_uris": {"android": "https://dc.lft.to/lastmile_qr_scan", "ios": "https://dc.lft.to/lastmile_qr_scan"}, "type": "electric_scooter", "lat": 38.943170333333335, "is_reserved": 0, "fusion_lat": 0.0}, {"bike_id": "58446658a760a8fe03e34801cfc465c2", "fusion_lon": 0.0, "lon": -77.01201466666667, "name": "58446658a760a8fe03e34801cfc465c2", "is_disabled": 0, "rental_uris": {"android": "https://dc.lft.to/lastmile_qr_scan", "ios": "https://dc.lft.to/lastmile_qr_scan"}, "type": "electric_scooter", "lat": 38.90016266666667, "is_reserved": 0, "fusion_lat": 0.0}, {"bike_id": "e013e5b2e0e046c946da1181a785391c", "fusion_lon": 0.0, "lon": -77.0281395, "name": "e013e5b2e0e046c946da1181a785391c", "is_disabled": 0, "rental_uris": {"android": "https://dc.lft.to/lastmile_qr_scan", "ios": "https://dc.lft.to/lastmile_qr_scan"}, "type": "electric_scooter", "lat": 38.9169255, "is_reserved": 0, "fusion_lat": 0.0}, {"bike_id": "a1699bc954f9f1e392c0628db2bb9fe9", "fusion_lon": 0.0, "lon": -77.03510616666667, "name": "a1699bc954f9f1e392c0628db2bb9fe9", "is_disabled": 0, "rental_uris": {"android": "https://dc.lft.to/lastmile_qr_scan", "ios": "https://dc.lft.to/lastmile_qr_scan"}, "type": "electric_scooter", "lat": 38.900811, "is_reserved": 0, "fusion_lat": 0.0}, {"bike_id": "120caf6bc7b99a4cadc7b0d8bd6df0f4", "fusion_lon": 0.0, "lon": -77.041848, "name": "120caf6bc7b99a4cadc7b0d8bd6df0f4", "is_disabled": 0, "rental_uris": {"android": "https://dc.lft.to/lastmile_qr_scan", "ios": "https://dc.lft.to/lastmile_qr_scan"}, "type": "electric_scooter", "lat": 38.905801833333335, "is_reserved": 0, "fusion_lat": 0.0}, {"bike_id": "fc104bce96f73ae2490c5b2a5c612cc8", "fusion_lon": 0.0, "lon": -77.04549533333333, "name": "fc104bce96f73ae2490c5b2a5c612cc8", "is_disabled": 0, "rental_uris": {"android": "https://dc.lft.to/lastmile_qr_scan", "ios": "https://dc.lft.to/lastmile_qr_scan"}, "type": "electric_scooter", "lat": 38.934117666666666, "is_reserved": 0, "fusion_lat": 0.0}, {"bike_id": "30ce59972ce935ac7c4ee3e494832cb8", "fusion_lon": 0.0, "lon": -77.0068235, "name": "30ce59972ce935ac7c4ee3e494832cb8", "is_disabled": 0, "rental_uris": {"android": "https://dc.lft.to/lastmile_qr_scan", "ios": "https://dc.lft.to/lastmile_qr_scan"}, "type": "electric_scooter", "lat": 38.900118666666664, "is_reserved": 0, "fusion_lat": 0.0}, {"bike_id": "6d5ae634b7ba2222663d1eb8c938e70c", "fusion_lon": 0.0, "lon": -77.02543816666666, "name": "6d5ae634b7ba2222663d1eb8c938e70c", "is_disabled": 0, "rental_uris": {"android": "https://dc.lft.to/lastmile_qr_scan", "ios": "https://dc.lft.to/lastmile_qr_scan"}, "type": "electric_scooter", "lat": 38.941187, "is_reserved": 0, "fusion_lat": 0.0}, {"bike_id": "02533b55103d125b0a1b3339e777411f", "fusion_lon": 0.0, "lon": -77.03868883333334, "name": "02533b55103d125b0a1b3339e777411f", "is_disabled": 0, "rental_uris": {"android": "https://dc.lft.to/lastmile_qr_scan", "ios": "https://dc.lft.to/lastmile_qr_scan"}, "type": "electric_scooter", "lat": 38.91821783333333, "is_reserved": 0, "fusion_lat": 0.0}, {"bike_id": "2a439f81194bef9eb8faba2cf3535704", "fusion_lon": 0.0, "lon": -77.01820783333334, "name": "2a439f81194bef9eb8faba2cf3535704", "is_disabled": 0, "rental_uris": {"android": "https://dc.lft.to/lastmile_qr_scan", "ios": "https://dc.lft.to/lastmile_qr_scan"}, "type": "electric_scooter", "lat": 38.92191533333333, "is_reserved": 0, "fusion_lat": 0.0}, {"bike_id": "9a680885dbc1cc75c5b30d3efd207d42", "fusion_lon": 0.0, "lon": -77.005916, "name": "9a680885dbc1cc75c5b30d3efd207d42", "is_disabled": 0, "rental_uris": {"android": "https://dc.lft.to/lastmile_qr_scan", "ios": "https://dc.lft.to/lastmile_qr_scan"}, "type": "electric_scooter", "lat": 38.9055725, "is_reserved": 0, "fusion_lat": 0.0}, {"bike_id": "e727e27276465840128cce2e21898d66", "fusion_lon": 0.0, "lon": -77.02511233333334, "name": "e727e27276465840128cce2e21898d66", "is_disabled": 0, "rental_uris": {"android": "https://dc.lft.to/lastmile_qr_scan", "ios": "https://dc.lft.to/lastmile_qr_scan"}, "type": "electric_scooter", "lat": 38.92083066666667, "is_reserved": 0, "fusion_lat": 0.0}, {"bike_id": "9c7c4121d4bf4ba4d7265f53a465dccc", "fusion_lon": 0.0, "lon": -77.04236833333333, "name": "9c7c4121d4bf4ba4d7265f53a465dccc", "is_disabled": 0, "rental_uris": {"android": "https://dc.lft.to/lastmile_qr_scan", "ios": "https://dc.lft.to/lastmile_qr_scan"}, "type": "electric_scooter", "lat": 38.92230333333333, "is_reserved": 0, "fusion_lat": 0.0}, {"bike_id": "8af2b3b73f14a317d33e3ce259912073", "fusion_lon": 0.0, "lon": -77.04926516666667, "name": "8af2b3b73f14a317d33e3ce259912073", "is_disabled": 0, "rental_uris": {"android": "https://dc.lft.to/lastmile_qr_scan", "ios": "https://dc.lft.to/lastmile_qr_scan"}, "type": "electric_bike", "lat": 38.813422833333334, "is_reserved": 0, "fusion_lat": 0.0}, {"bike_id": "4c04dc0b587e21e6da148dea2b148a8a", "fusion_lon": 0.0, "lon": -77.03441683333334, "name": "4c04dc0b587e21e6da148dea2b148a8a", "is_disabled": 0, "rental_uris": {"android": "https://dc.lft.to/lastmile_qr_scan", "ios": "https://dc.lft.to/lastmile_qr_scan"}, "type": "electric_scooter", "lat": 38.9073165, "is_reserved": 0, "fusion_lat": 0.0}, {"bike_id": "afa633e82c59a821410decbb0781fc5a", "fusion_lon": 0.0, "lon": -77.03063066666667, "name": "afa633e82c59a821410decbb0781fc5a", "is_disabled": 0, "rental_uris": {"android": "https://dc.lft.to/lastmile_qr_scan", "ios": "https://dc.lft.to/lastmile_qr_scan"}, "type": "electric_scooter", "lat": 38.92253683333333, "is_reserved": 0, "fusion_lat": 0.0}, {"bike_id": "c45bd268f073199862a39d9aed77136d", "fusion_lon": 0.0, "lon": -77.01547633333334, "name": "c45bd268f073199862a39d9aed77136d", "is_disabled": 0, "rental_uris": {"android": "https://dc.lft.to/lastmile_qr_scan", "ios": "https://dc.lft.to/lastmile_qr_scan"}, "type": "electric_scooter", "lat": 38.89137816666667, "is_reserved": 0, "fusion_lat": 0.0}, {"bike_id": "7a8028da44d5a861e348b73fc1a73e2a", "fusion_lon": 0.0, "lon": -77.05862466666666, "name": "7a8028da44d5a861e348b73fc1a73e2a", "is_disabled": 0, "rental_uris": {"android": "https://dc.lft.to/lastmile_qr_scan", "ios": "https://dc.lft.to/lastmile_qr_scan"}, "type": "electric_scooter", "lat": 38.936122833333336, "is_reserved": 0, "fusion_lat": 0.0}, {"bike_id": "bc067f9995e472da4c8fe6a2e42e215b", "fusion_lon": 0.0, "lon": -76.99675716666667, "name": "bc067f9995e472da4c8fe6a2e42e215b", "is_disabled": 0, "rental_uris": {"android": "https://dc.lft.to/lastmile_qr_scan", "ios": "https://dc.lft.to/lastmile_qr_scan"}, "type": "electric_bike", "lat": 38.9249165, "is_reserved": 0, "fusion_lat": 0.0}, {"bike_id": "2e7986703318a8547eca78b1d8165d79", "fusion_lon": 0.0, "lon": -77.05092133333333, "name": "2e7986703318a8547eca78b1d8165d79", "is_disabled": 0, "rental_uris": {"android": "https://dc.lft.to/lastmile_qr_scan", "ios": "https://dc.lft.to/lastmile_qr_scan"}, "type": "electric_scooter", "lat": 38.92345383333333, "is_reserved": 0, "fusion_lat": 0.0}, {"bike_id": "08e692802bb5cf9f944bbd62b9b330ab", "fusion_lon": 0.0, "lon": -77.02397766666667, "name": "08e692802bb5cf9f944bbd62b9b330ab", "is_disabled": 0, "rental_uris": {"android": "https://dc.lft.to/lastmile_qr_scan", "ios": "https://dc.lft.to/lastmile_qr_scan"}, "type": "electric_scooter", "lat": 38.917503833333335, "is_reserved": 0, "fusion_lat": 0.0}, {"bike_id": "b30a56af580ac9b379b66d7f8ebb27df", "fusion_lon": 0.0, "lon": -77.0281185, "name": "b30a56af580ac9b379b66d7f8ebb27df", "is_disabled": 0, "rental_uris": {"android": "https://dc.lft.to/lastmile_qr_scan", "ios": "https://dc.lft.to/lastmile_qr_scan"}, "type": "electric_scooter", "lat": 38.93087716666667, "is_reserved": 0, "fusion_lat": 0.0}, {"bike_id": "e5e636f2db08d57380ab191b0214225a", "fusion_lon": 0.0, "lon": -77.0351575, "name": "e5e636f2db08d57380ab191b0214225a", "is_disabled": 0, "rental_uris": {"android": "https://dc.lft.to/lastmile_qr_scan", "ios": "https://dc.lft.to/lastmile_qr_scan"}, "type": "electric_bike", "lat": 38.96208083333333, "is_reserved": 0, "fusion_lat": 0.0}, {"bike_id": "2b1e89505e5d85529ae832c378a9eb3e", "fusion_lon": 0.0, "lon": -77.0419045, "name": "2b1e89505e5d85529ae832c378a9eb3e", "is_disabled": 0, "rental_uris": {"android": "https://dc.lft.to/lastmile_qr_scan", "ios": "https://dc.lft.to/lastmile_qr_scan"}, "type": "electric_scooter", "lat": 38.920296, "is_reserved": 0, "fusion_lat": 0.0}, {"bike_id": "369bb36d0e98ebc4c074e0be2d17dc28", "fusion_lon": 0.0, "lon": -77.04136133333333, "name": "369bb36d0e98ebc4c074e0be2d17dc28", "is_disabled": 0, "rental_uris": {"android": "https://dc.lft.to/lastmile_qr_scan", "ios": "https://dc.lft.to/lastmile_qr_scan"}, "type": "electric_scooter", "lat": 38.922747, "is_reserved": 0, "fusion_lat": 0.0}, {"bike_id": "49e4092dacdd2b74232c7750e8d001f4", "fusion_lon": 0.0, "lon": -76.9797405, "name": "49e4092dacdd2b74232c7750e8d001f4", "is_disabled": 0, "rental_uris": {"android": "https://dc.lft.to/lastmile_qr_scan", "ios": "https://dc.lft.to/lastmile_qr_scan"}, "type": "electric_bike", "lat": 38.9537385, "is_reserved": 0, "fusion_lat": 0.0}, {"bike_id": "15f5fa95ca8a62653e34c4bd9de3ebae", "fusion_lon": 0.0, "lon": -77.04341166666667, "name": "15f5fa95ca8a62653e34c4bd9de3ebae", "is_disabled": 0, "rental_uris": {"android": "https://dc.lft.to/lastmile_qr_scan", "ios": "https://dc.lft.to/lastmile_qr_scan"}, "type": "electric_scooter", "lat": 38.9026225, "is_reserved": 0, "fusion_lat": 0.0}, {"bike_id": "40bc67004977538201fae57708038e9d", "fusion_lon": 0.0, "lon": -77.0021115, "name": "40bc67004977538201fae57708038e9d", "is_disabled": 0, "rental_uris": {"android": "https://dc.lft.to/lastmile_qr_scan", "ios": "https://dc.lft.to/lastmile_qr_scan"}, "type": "electric_scooter", "lat": 38.9008685, "is_reserved": 0, "fusion_lat": 0.0}, {"bike_id": "0d7de26e4bdfa02ea849eae4db93afe1", "fusion_lon": 0.0, "lon": -77.03905066666667, "name": "0d7de26e4bdfa02ea849eae4db93afe1", "is_disabled": 0, "rental_uris": {"android": "https://dc.lft.to/lastmile_qr_scan", "ios": "https://dc.lft.to/lastmile_qr_scan"}, "type": "electric_scooter", "lat": 38.922050666666664, "is_reserved": 0, "fusion_lat": 0.0}, {"bike_id": "f6027135f72f3b5dcaeba761341b194e", "fusion_lon": 0.0, "lon": -77.03871116666667, "name": "f6027135f72f3b5dcaeba761341b194e", "is_disabled": 0, "rental_uris": {"android": "https://dc.lft.to/lastmile_qr_scan", "ios": "https://dc.lft.to/lastmile_qr_scan"}, "type": "electric_scooter", "lat": 38.9324705, "is_reserved": 0, "fusion_lat": 0.0}, {"bike_id": "135c4c9e842eb7de418cc57556f161c9", "fusion_lon": 0.0, "lon": -77.00838866666666, "name": "135c4c9e842eb7de418cc57556f161c9", "is_disabled": 0, "rental_uris": {"android": "https://dc.lft.to/lastmile_qr_scan", "ios": "https://dc.lft.to/lastmile_qr_scan"}, "type": "electric_bike", "lat": 38.829148833333335, "is_reserved": 0, "fusion_lat": 0.0}, {"bike_id": "02f723bf0b024d9b9a7febdccc44c278", "fusion_lon": 0.0, "lon": -77.04155316666667, "name": "02f723bf0b024d9b9a7febdccc44c278", "is_disabled": 0, "rental_uris": {"android": "https://dc.lft.to/lastmile_qr_scan", "ios": "https://dc.lft.to/lastmile_qr_scan"}, "type": "electric_scooter", "lat": 38.91233483333333, "is_reserved": 0, "fusion_lat": 0.0}, {"bike_id": "e1d73e03042f75ac4db153243cf11ee9", "fusion_lon": 0.0, "lon": -77.01762016666666, "name": "e1d73e03042f75ac4db153243cf11ee9", "is_disabled": 0, "rental_uris": {"android": "https://dc.lft.to/lastmile_qr_scan", "ios": "https://dc.lft.to/lastmile_qr_scan"}, "type": "electric_scooter", "lat": 38.902443, "is_reserved": 0, "fusion_lat": 0.0}, {"bike_id": "ccc6cc6b2a0bb7788e77836f4a1beb38", "fusion_lon": 0.0, "lon": -76.994845, "name": "ccc6cc6b2a0bb7788e77836f4a1beb38", "is_disabled": 0, "rental_uris": {"android": "https://dc.lft.to/lastmile_qr_scan", "ios": "https://dc.lft.to/lastmile_qr_scan"}, "type": "electric_scooter", "lat": 38.909883, "is_reserved": 0, "fusion_lat": 0.0}, {"bike_id": "5d52fc5d3124c3547d4239d89936e4b2", "fusion_lon": 0.0, "lon": -77.04136416666667, "name": "5d52fc5d3124c3547d4239d89936e4b2", "is_disabled": 0, "rental_uris": {"android": "https://dc.lft.to/lastmile_qr_scan", "ios": "https://dc.lft.to/lastmile_qr_scan"}, "type": "electric_scooter", "lat": 38.931347333333335, "is_reserved": 0, "fusion_lat": 0.0}, {"bike_id": "591e363c44ea0d08a5ceefd142f5a556", "fusion_lon": 0.0, "lon": -77.0404445, "name": "591e363c44ea0d08a5ceefd142f5a556", "is_disabled": 0, "rental_uris": {"android": "https://dc.lft.to/lastmile_qr_scan", "ios": "https://dc.lft.to/lastmile_qr_scan"}, "type": "electric_scooter", "lat": 38.8908415, "is_reserved": 0, "fusion_lat": 0.0}, {"bike_id": "832e526a478fc231e9cbb939a76c5c1e", "fusion_lon": 0.0, "lon": -76.97723816666667, "name": "832e526a478fc231e9cbb939a76c5c1e", "is_disabled": 0, "rental_uris": {"android": "https://dc.lft.to/lastmile_qr_scan", "ios": "https://dc.lft.to/lastmile_qr_scan"}, "type": "electric_scooter", "lat": 38.8724635, "is_reserved": 0, "fusion_lat": 0.0}, {"bike_id": "85cb1e080112b353cf49a87b19f680c0", "fusion_lon": 0.0, "lon": -77.026564, "name": "85cb1e080112b353cf49a87b19f680c0", "is_disabled": 0, "rental_uris": {"android": "https://dc.lft.to/lastmile_qr_scan", "ios": "https://dc.lft.to/lastmile_qr_scan"}, "type": "electric_bike", "lat": 38.98822633333333, "is_reserved": 0, "fusion_lat": 0.0}, {"bike_id": "ecb1d7bc71a4006d9631ffc1550279b5", "fusion_lon": 0.0, "lon": -77.00218866666667, "name": "ecb1d7bc71a4006d9631ffc1550279b5", "is_disabled": 0, "rental_uris": {"android": "https://dc.lft.to/lastmile_qr_scan", "ios": "https://dc.lft.to/lastmile_qr_scan"}, "type": "electric_scooter", "lat": 38.900796166666666, "is_reserved": 0, "fusion_lat": 0.0}, {"bike_id": "7d25a9c0e7536659f1077766a7cf17aa", "fusion_lon": 0.0, "lon": -77.03880383333333, "name": "7d25a9c0e7536659f1077766a7cf17aa", "is_disabled": 0, "rental_uris": {"android": "https://dc.lft.to/lastmile_qr_scan", "ios": "https://dc.lft.to/lastmile_qr_scan"}, "type": "electric_scooter", "lat": 38.925069666666666, "is_reserved": 0, "fusion_lat": 0.0}, {"bike_id": "dba51f2c9906523991f39ecbce26adf0", "fusion_lon": 0.0, "lon": -76.99959683333333, "name": "dba51f2c9906523991f39ecbce26adf0", "is_disabled": 0, "rental_uris": {"android": "https://dc.lft.to/lastmile_qr_scan", "ios": "https://dc.lft.to/lastmile_qr_scan"}, "type": "electric_scooter", "lat": 38.91901166666667, "is_reserved": 0, "fusion_lat": 0.0}, {"bike_id": "41cd06abdb3a98d83bb2849a830e32d4", "fusion_lon": 0.0, "lon": -77.05860916666667, "name": "41cd06abdb3a98d83bb2849a830e32d4", "is_disabled": 0, "rental_uris": {"android": "https://dc.lft.to/lastmile_qr_scan", "ios": "https://dc.lft.to/lastmile_qr_scan"}, "type": "electric_scooter", "lat": 38.936125, "is_reserved": 0, "fusion_lat": 0.0}, {"bike_id": "0cafa4c49d1f6a7228f410e3057f790f", "fusion_lon": 0.0, "lon": -76.92486733333334, "name": "0cafa4c49d1f6a7228f410e3057f790f", "is_disabled": 0, "rental_uris": {"android": "https://dc.lft.to/lastmile_qr_scan", "ios": "https://dc.lft.to/lastmile_qr_scan"}, "type": "electric_bike", "lat": 38.95884216666666, "is_reserved": 0, "fusion_lat": 0.0}, {"bike_id": "d5607aa2a59634755a36133bb7d9067e", "fusion_lon": 0.0, "lon": -76.99651983333334, "name": "d5607aa2a59634755a36133bb7d9067e", "is_disabled": 0, "rental_uris": {"android": "https://dc.lft.to/lastmile_qr_scan", "ios": "https://dc.lft.to/lastmile_qr_scan"}, "type": "electric_bike", "lat": 38.988254, "is_reserved": 0, "fusion_lat": 0.0}, {"bike_id": "d5e7575dfe2cdebdd106137e8bd85d9b", "fusion_lon": 0.0, "lon": -77.042056, "name": "d5e7575dfe2cdebdd106137e8bd85d9b", "is_disabled": 0, "rental_uris": {"android": "https://dc.lft.to/lastmile_qr_scan", "ios": "https://dc.lft.to/lastmile_qr_scan"}, "type": "electric_scooter", "lat": 38.911264333333335, "is_reserved": 0, "fusion_lat": 0.0}, {"bike_id": "36ab92a93c4067977893e0395f88cd29", "fusion_lon": 0.0, "lon": -76.96533083333334, "name": "36ab92a93c4067977893e0395f88cd29", "is_disabled": 0, "rental_uris": {"android": "https://dc.lft.to/lastmile_qr_scan", "ios": "https://dc.lft.to/lastmile_qr_scan"}, "type": "electric_scooter", "lat": 38.87633966666667, "is_reserved": 0, "fusion_lat": 0.0}, {"bike_id": "70e75b5ac94332145c63e50829fb46c0", "fusion_lon": 0.0, "lon": -77.0263015, "name": "70e75b5ac94332145c63e50829fb46c0", "is_disabled": 0, "rental_uris": {"android": "https://dc.lft.to/lastmile_qr_scan", "ios": "https://dc.lft.to/lastmile_qr_scan"}, "type": "electric_scooter", "lat": 38.92535683333333, "is_reserved": 0, "fusion_lat": 0.0}, {"bike_id": "f75a27b72247bb156b8f1ea263b703be", "fusion_lon": 0.0, "lon": -77.0218145, "name": "f75a27b72247bb156b8f1ea263b703be", "is_disabled": 0, "rental_uris": {"android": "https://dc.lft.to/lastmile_qr_scan", "ios": "https://dc.lft.to/lastmile_qr_scan"}, "type": "electric_bike", "lat": 38.90703633333333, "is_reserved": 0, "fusion_lat": 0.0}, {"bike_id": "678461d63a89b31c119d6157b26986bd", "fusion_lon": 0.0, "lon": -77.00569983333334, "name": "678461d63a89b31c119d6157b26986bd", "is_disabled": 0, "rental_uris": {"android": "https://dc.lft.to/lastmile_qr_scan", "ios": "https://dc.lft.to/lastmile_qr_scan"}, "type": "electric_scooter", "lat": 38.8850825, "is_reserved": 0, "fusion_lat": 0.0}, {"bike_id": "8830e7e0e90164649542f6466eb8ea95", "fusion_lon": 0.0, "lon": -76.99947233333333, "name": "8830e7e0e90164649542f6466eb8ea95", "is_disabled": 0, "rental_uris": {"android": "https://dc.lft.to/lastmile_qr_scan", "ios": "https://dc.lft.to/lastmile_qr_scan"}, "type": "electric_scooter", "lat": 38.84294416666667, "is_reserved": 0, "fusion_lat": 0.0}, {"bike_id": "7c8bdb7f4c67056b578df075e13edc5f", "fusion_lon": 0.0, "lon": -77.06408433333333, "name": "7c8bdb7f4c67056b578df075e13edc5f", "is_disabled": 0, "rental_uris": {"android": "https://dc.lft.to/lastmile_qr_scan", "ios": "https://dc.lft.to/lastmile_qr_scan"}, "type": "electric_scooter", "lat": 38.91366433333334, "is_reserved": 0, "fusion_lat": 0.0}, {"bike_id": "e8eb35255177c06de844f99542459037", "fusion_lon": 0.0, "lon": -77.0272645, "name": "e8eb35255177c06de844f99542459037", "is_disabled": 0, "rental_uris": {"android": "https://dc.lft.to/lastmile_qr_scan", "ios": "https://dc.lft.to/lastmile_qr_scan"}, "type": "electric_scooter", "lat": 38.9495995, "is_reserved": 0, "fusion_lat": 0.0}, {"bike_id": "7dea1caab21a1b89868a2b4866a43db4", "fusion_lon": 0.0, "lon": -77.02190066666667, "name": "7dea1caab21a1b89868a2b4866a43db4", "is_disabled": 0, "rental_uris": {"android": "https://dc.lft.to/lastmile_qr_scan", "ios": "https://dc.lft.to/lastmile_qr_scan"}, "type": "electric_scooter", "lat": 38.924955, "is_reserved": 0, "fusion_lat": 0.0}, {"bike_id": "b05c64d7af514b1c2c994669ddd1a47a", "fusion_lon": 0.0, "lon": -77.01284566666666, "name": "b05c64d7af514b1c2c994669ddd1a47a", "is_disabled": 0, "rental_uris": {"android": "https://dc.lft.to/lastmile_qr_scan", "ios": "https://dc.lft.to/lastmile_qr_scan"}, "type": "electric_scooter", "lat": 38.90070033333333, "is_reserved": 0, "fusion_lat": 0.0}, {"bike_id": "6d1e2a127dc8a315a1ccc70139404c20", "fusion_lon": 0.0, "lon": -76.993939, "name": "6d1e2a127dc8a315a1ccc70139404c20", "is_disabled": 0, "rental_uris": {"android": "https://dc.lft.to/lastmile_qr_scan", "ios": "https://dc.lft.to/lastmile_qr_scan"}, "type": "electric_scooter", "lat": 38.897302333333336, "is_reserved": 0, "fusion_lat": 0.0}, {"bike_id": "f0f71cdcc33c8fb58923ccdf0f7b884d", "fusion_lon": 0.0, "lon": -77.0265985, "name": "f0f71cdcc33c8fb58923ccdf0f7b884d", "is_disabled": 0, "rental_uris": {"android": "https://dc.lft.to/lastmile_qr_scan", "ios": "https://dc.lft.to/lastmile_qr_scan"}, "type": "electric_scooter", "lat": 38.930983833333336, "is_reserved": 0, "fusion_lat": 0.0}, {"bike_id": "207a72c3b172aed26541fec71274cce9", "fusion_lon": 0.0, "lon": -77.03074483333333, "name": "207a72c3b172aed26541fec71274cce9", "is_disabled": 0, "rental_uris": {"android": "https://dc.lft.to/lastmile_qr_scan", "ios": "https://dc.lft.to/lastmile_qr_scan"}, "type": "electric_scooter", "lat": 38.917532666666666, "is_reserved": 0, "fusion_lat": 0.0}, {"bike_id": "3e2ec08c55a978f606ac067241e1cea7", "fusion_lon": 0.0, "lon": -77.029688, "name": "3e2ec08c55a978f606ac067241e1cea7", "is_disabled": 0, "rental_uris": {"android": "https://dc.lft.to/lastmile_qr_scan", "ios": "https://dc.lft.to/lastmile_qr_scan"}, "type": "electric_scooter", "lat": 38.9233365, "is_reserved": 0, "fusion_lat": 0.0}, {"bike_id": "d09bfd8870df5539a334fbd7ad5b1a6c", "fusion_lon": 0.0, "lon": -76.98613216666666, "name": "d09bfd8870df5539a334fbd7ad5b1a6c", "is_disabled": 0, "rental_uris": {"android": "https://dc.lft.to/lastmile_qr_scan", "ios": "https://dc.lft.to/lastmile_qr_scan"}, "type": "electric_scooter", "lat": 38.93828233333333, "is_reserved": 0, "fusion_lat": 0.0}, {"bike_id": "7e41c9dd83bed682eb0596e375cd0860", "fusion_lon": 0.0, "lon": -77.03219916666667, "name": "7e41c9dd83bed682eb0596e375cd0860", "is_disabled": 0, "rental_uris": {"android": "https://dc.lft.to/lastmile_qr_scan", "ios": "https://dc.lft.to/lastmile_qr_scan"}, "type": "electric_scooter", "lat": 38.907376, "is_reserved": 0, "fusion_lat": 0.0}, {"bike_id": "9c8f5801898303014fe2c2416d03362f", "fusion_lon": 0.0, "lon": -76.99706933333333, "name": "9c8f5801898303014fe2c2416d03362f", "is_disabled": 0, "rental_uris": {"android": "https://dc.lft.to/lastmile_qr_scan", "ios": "https://dc.lft.to/lastmile_qr_scan"}, "type": "electric_bike", "lat": 38.910844, "is_reserved": 0, "fusion_lat": 0.0}, {"bike_id": "10c64f261c05c92a6225b0d541957bf2", "fusion_lon": 0.0, "lon": -77.041717, "name": "10c64f261c05c92a6225b0d541957bf2", "is_disabled": 0, "rental_uris": {"android": "https://dc.lft.to/lastmile_qr_scan", "ios": "https://dc.lft.to/lastmile_qr_scan"}, "type": "electric_scooter", "lat": 38.91654466666667, "is_reserved": 0, "fusion_lat": 0.0}, {"bike_id": "6df0996483088df201ce8a8250d00592", "fusion_lon": 0.0, "lon": -77.02969566666667, "name": "6df0996483088df201ce8a8250d00592", "is_disabled": 0, "rental_uris": {"android": "https://dc.lft.to/lastmile_qr_scan", "ios": "https://dc.lft.to/lastmile_qr_scan"}, "type": "electric_scooter", "lat": 38.924093166666665, "is_reserved": 0, "fusion_lat": 0.0}, {"bike_id": "f4817c7c53a9f75cf0861085b8985f29", "fusion_lon": 0.0, "lon": -77.038559, "name": "f4817c7c53a9f75cf0861085b8985f29", "is_disabled": 0, "rental_uris": {"android": "https://dc.lft.to/lastmile_qr_scan", "ios": "https://dc.lft.to/lastmile_qr_scan"}, "type": "electric_scooter", "lat": 38.9109095, "is_reserved": 0, "fusion_lat": 0.0}, {"bike_id": "a247d8ea17592279fcd104fdb1248f63", "fusion_lon": 0.0, "lon": -77.024655, "name": "a247d8ea17592279fcd104fdb1248f63", "is_disabled": 0, "rental_uris": {"android": "https://dc.lft.to/lastmile_qr_scan", "ios": "https://dc.lft.to/lastmile_qr_scan"}, "type": "electric_scooter", "lat": 38.90339633333333, "is_reserved": 0, "fusion_lat": 0.0}, {"bike_id": "d039bfe945789ea55894054443a2d18f", "fusion_lon": 0.0, "lon": -77.01611166666666, "name": "d039bfe945789ea55894054443a2d18f", "is_disabled": 0, "rental_uris": {"android": "https://dc.lft.to/lastmile_qr_scan", "ios": "https://dc.lft.to/lastmile_qr_scan"}, "type": "electric_scooter", "lat": 38.89506083333333, "is_reserved": 0, "fusion_lat": 0.0}, {"bike_id": "8b7a65531684d41484ec06d59179234e", "fusion_lon": 0.0, "lon": -77.057156, "name": "8b7a65531684d41484ec06d59179234e", "is_disabled": 0, "rental_uris": {"android": "https://dc.lft.to/lastmile_qr_scan", "ios": "https://dc.lft.to/lastmile_qr_scan"}, "type": "electric_scooter", "lat": 38.933647, "is_reserved": 0, "fusion_lat": 0.0}, {"bike_id": "c0f1c7726fc4b664fdee13179f8d6c1a", "fusion_lon": 0.0, "lon": -77.0269365, "name": "c0f1c7726fc4b664fdee13179f8d6c1a", "is_disabled": 0, "rental_uris": {"android": "https://dc.lft.to/lastmile_qr_scan", "ios": "https://dc.lft.to/lastmile_qr_scan"}, "type": "electric_scooter", "lat": 38.911273333333334, "is_reserved": 0, "fusion_lat": 0.0}, {"bike_id": "3e09639a8d739e54408fe8162704a88f", "fusion_lon": 0.0, "lon": -77.03496783333334, "name": "3e09639a8d739e54408fe8162704a88f", "is_disabled": 0, "rental_uris": {"android": "https://dc.lft.to/lastmile_qr_scan", "ios": "https://dc.lft.to/lastmile_qr_scan"}, "type": "electric_scooter", "lat": 38.9169655, "is_reserved": 0, "fusion_lat": 0.0}, {"bike_id": "486eee1315070bcb0008b03ed0fc82e9", "fusion_lon": 0.0, "lon": -77.0255165, "name": "486eee1315070bcb0008b03ed0fc82e9", "is_disabled": 0, "rental_uris": {"android": "https://dc.lft.to/lastmile_qr_scan", "ios": "https://dc.lft.to/lastmile_qr_scan"}, "type": "electric_scooter", "lat": 38.88074916666667, "is_reserved": 0, "fusion_lat": 0.0}, {"bike_id": "efa52584743ad2d2bac6ab8473c8ae2d", "fusion_lon": 0.0, "lon": -77.04570383333333, "name": "efa52584743ad2d2bac6ab8473c8ae2d", "is_disabled": 0, "rental_uris": {"android": "https://dc.lft.to/lastmile_qr_scan", "ios": "https://dc.lft.to/lastmile_qr_scan"}, "type": "electric_bike", "lat": 38.924227, "is_reserved": 0, "fusion_lat": 0.0}, {"bike_id": "b7e6d561e899240c39c1d2dd35c1b9bb", "fusion_lon": 0.0, "lon": -77.01748316666666, "name": "b7e6d561e899240c39c1d2dd35c1b9bb", "is_disabled": 0, "rental_uris": {"android": "https://dc.lft.to/lastmile_qr_scan", "ios": "https://dc.lft.to/lastmile_qr_scan"}, "type": "electric_scooter", "lat": 38.8749835, "is_reserved": 0, "fusion_lat": 0.0}, {"bike_id": "1516728972601082f61b8192deba53d0", "fusion_lon": 0.0, "lon": -77.04413116666667, "name": "1516728972601082f61b8192deba53d0", "is_disabled": 0, "rental_uris": {"android": "https://dc.lft.to/lastmile_qr_scan", "ios": "https://dc.lft.to/lastmile_qr_scan"}, "type": "electric_scooter", "lat": 38.91278333333333, "is_reserved": 0, "fusion_lat": 0.0}, {"bike_id": "a2f25e96f774044a57821dcc073179ca", "fusion_lon": 0.0, "lon": -77.04932933333333, "name": "a2f25e96f774044a57821dcc073179ca", "is_disabled": 0, "rental_uris": {"android": "https://dc.lft.to/lastmile_qr_scan", "ios": "https://dc.lft.to/lastmile_qr_scan"}, "type": "electric_bike", "lat": 38.8135535, "is_reserved": 0, "fusion_lat": 0.0}, {"bike_id": "c7bacaca2be98ba32b4ef99b5ac09ed2", "fusion_lon": 0.0, "lon": -77.0088505, "name": "c7bacaca2be98ba32b4ef99b5ac09ed2", "is_disabled": 0, "rental_uris": {"android": "https://dc.lft.to/lastmile_qr_scan", "ios": "https://dc.lft.to/lastmile_qr_scan"}, "type": "electric_scooter", "lat": 38.906570333333335, "is_reserved": 0, "fusion_lat": 0.0}, {"bike_id": "552bfd54e5637f65e861df7b1eedd5ce", "fusion_lon": 0.0, "lon": -77.02414833333333, "name": "552bfd54e5637f65e861df7b1eedd5ce", "is_disabled": 0, "rental_uris": {"android": "https://dc.lft.to/lastmile_qr_scan", "ios": "https://dc.lft.to/lastmile_qr_scan"}, "type": "electric_scooter", "lat": 38.901923, "is_reserved": 0, "fusion_lat": 0.0}, {"bike_id": "a9227d424a16126af9fa6bc600431d9f", "fusion_lon": 0.0, "lon": -77.02000933333333, "name": "a9227d424a16126af9fa6bc600431d9f", "is_disabled": 0, "rental_uris": {"android": "https://dc.lft.to/lastmile_qr_scan", "ios": "https://dc.lft.to/lastmile_qr_scan"}, "type": "electric_scooter", "lat": 38.91371566666667, "is_reserved": 0, "fusion_lat": 0.0}, {"bike_id": "88acbecd90c6a67bc158795cef9034be", "fusion_lon": 0.0, "lon": -77.01730633333334, "name": "88acbecd90c6a67bc158795cef9034be", "is_disabled": 0, "rental_uris": {"android": "https://dc.lft.to/lastmile_qr_scan", "ios": "https://dc.lft.to/lastmile_qr_scan"}, "type": "electric_scooter", "lat": 38.87275533333333, "is_reserved": 0, "fusion_lat": 0.0}, {"bike_id": "5479d787054f249513963fe833fffd7a", "fusion_lon": 0.0, "lon": -77.03687583333334, "name": "5479d787054f249513963fe833fffd7a", "is_disabled": 0, "rental_uris": {"android": "https://dc.lft.to/lastmile_qr_scan", "ios": "https://dc.lft.to/lastmile_qr_scan"}, "type": "electric_scooter", "lat": 38.91681783333333, "is_reserved": 0, "fusion_lat": 0.0}, {"bike_id": "e3a024eed62ac9b52befb39e82df08aa", "fusion_lon": 0.0, "lon": -77.0174585, "name": "e3a024eed62ac9b52befb39e82df08aa", "is_disabled": 0, "rental_uris": {"android": "https://dc.lft.to/lastmile_qr_scan", "ios": "https://dc.lft.to/lastmile_qr_scan"}, "type": "electric_scooter", "lat": 38.91123833333333, "is_reserved": 0, "fusion_lat": 0.0}, {"bike_id": "87f89fb0b4c54b02ca1ac65ad8d57c05", "fusion_lon": 0.0, "lon": -77.0310615, "name": "87f89fb0b4c54b02ca1ac65ad8d57c05", "is_disabled": 0, "rental_uris": {"android": "https://dc.lft.to/lastmile_qr_scan", "ios": "https://dc.lft.to/lastmile_qr_scan"}, "type": "electric_scooter", "lat": 38.8985245, "is_reserved": 0, "fusion_lat": 0.0}, {"bike_id": "9958652292d7dc06d3267e3e2c080f17", "fusion_lon": 0.0, "lon": -77.02988216666667, "name": "9958652292d7dc06d3267e3e2c080f17", "is_disabled": 0, "rental_uris": {"android": "https://dc.lft.to/lastmile_qr_scan", "ios": "https://dc.lft.to/lastmile_qr_scan"}, "type": "electric_scooter", "lat": 38.9237545, "is_reserved": 0, "fusion_lat": 0.0}, {"bike_id": "1bfab9a94a6397c66ea22d9b33c595a9", "fusion_lon": 0.0, "lon": -77.12073233333334, "name": "1bfab9a94a6397c66ea22d9b33c595a9", "is_disabled": 0, "rental_uris": {"android": "https://dc.lft.to/lastmile_qr_scan", "ios": "https://dc.lft.to/lastmile_qr_scan"}, "type": "electric_bike", "lat": 38.8541515, "is_reserved": 0, "fusion_lat": 0.0}, {"bike_id": "0d50ea1ca8ce9993081b4b300516d8f7", "fusion_lon": 0.0, "lon": -77.0229535, "name": "0d50ea1ca8ce9993081b4b300516d8f7", "is_disabled": 0, "rental_uris": {"android": "https://dc.lft.to/lastmile_qr_scan", "ios": "https://dc.lft.to/lastmile_qr_scan"}, "type": "electric_scooter", "lat": 38.93597666666667, "is_reserved": 0, "fusion_lat": 0.0}, {"bike_id": "e2963014d6b0fcf1dbcbdf2c33f04593", "fusion_lon": 0.0, "lon": -77.032937, "name": "e2963014d6b0fcf1dbcbdf2c33f04593", "is_disabled": 0, "rental_uris": {"android": "https://dc.lft.to/lastmile_qr_scan", "ios": "https://dc.lft.to/lastmile_qr_scan"}, "type": "electric_scooter", "lat": 38.91993816666667, "is_reserved": 0, "fusion_lat": 0.0}, {"bike_id": "f054a1f6581cd7f1f6ca0c5c1d21d778", "fusion_lon": 0.0, "lon": -77.00731083333334, "name": "f054a1f6581cd7f1f6ca0c5c1d21d778", "is_disabled": 0, "rental_uris": {"android": "https://dc.lft.to/lastmile_qr_scan", "ios": "https://dc.lft.to/lastmile_qr_scan"}, "type": "electric_scooter", "lat": 38.88493483333333, "is_reserved": 0, "fusion_lat": 0.0}, {"bike_id": "e27265b6249ee1cc081451a64604ae23", "fusion_lon": 0.0, "lon": -77.03350816666666, "name": "e27265b6249ee1cc081451a64604ae23", "is_disabled": 0, "rental_uris": {"android": "https://dc.lft.to/lastmile_qr_scan", "ios": "https://dc.lft.to/lastmile_qr_scan"}, "type": "electric_scooter", "lat": 38.8984525, "is_reserved": 0, "fusion_lat": 0.0}, {"bike_id": "5d77128bf919529799434e41fd711e96", "fusion_lon": 0.0, "lon": -77.11246066666666, "name": "5d77128bf919529799434e41fd711e96", "is_disabled": 0, "rental_uris": {"android": "https://dc.lft.to/lastmile_qr_scan", "ios": "https://dc.lft.to/lastmile_qr_scan"}, "type": "electric_bike", "lat": 38.856091166666666, "is_reserved": 0, "fusion_lat": 0.0}, {"bike_id": "14d5cbd6e931502926af592e0a204108", "fusion_lon": 0.0, "lon": -77.05397066666667, "name": "14d5cbd6e931502926af592e0a204108", "is_disabled": 0, "rental_uris": {"android": "https://dc.lft.to/lastmile_qr_scan", "ios": "https://dc.lft.to/lastmile_qr_scan"}, "type": "electric_scooter", "lat": 38.92807066666667, "is_reserved": 0, "fusion_lat": 0.0}, {"bike_id": "032925b6a6f57b42b41cb3a2d1f60dc2", "fusion_lon": 0.0, "lon": -77.00360583333334, "name": "032925b6a6f57b42b41cb3a2d1f60dc2", "is_disabled": 0, "rental_uris": {"android": "https://dc.lft.to/lastmile_qr_scan", "ios": "https://dc.lft.to/lastmile_qr_scan"}, "type": "electric_scooter", "lat": 38.901259333333336, "is_reserved": 0, "fusion_lat": 0.0}, {"bike_id": "e722b6e5e0d7f823eebd4f1e21aed435", "fusion_lon": 0.0, "lon": -76.99135033333333, "name": "e722b6e5e0d7f823eebd4f1e21aed435", "is_disabled": 0, "rental_uris": {"android": "https://dc.lft.to/lastmile_qr_scan", "ios": "https://dc.lft.to/lastmile_qr_scan"}, "type": "electric_scooter", "lat": 38.879127, "is_reserved": 0, "fusion_lat": 0.0}, {"bike_id": "74715e0bb59a353718018eea3c5d6cb8", "fusion_lon": 0.0, "lon": -77.022878, "name": "74715e0bb59a353718018eea3c5d6cb8", "is_disabled": 0, "rental_uris": {"android": "https://dc.lft.to/lastmile_qr_scan", "ios": "https://dc.lft.to/lastmile_qr_scan"}, "type": "electric_scooter", "lat": 38.89061683333333, "is_reserved": 0, "fusion_lat": 0.0}, {"bike_id": "e11112da53babb2891568fe4c5cb215a", "fusion_lon": 0.0, "lon": -77.00074283333333, "name": "e11112da53babb2891568fe4c5cb215a", "is_disabled": 0, "rental_uris": {"android": "https://dc.lft.to/lastmile_qr_scan", "ios": "https://dc.lft.to/lastmile_qr_scan"}, "type": "electric_scooter", "lat": 38.9003305, "is_reserved": 0, "fusion_lat": 0.0}, {"bike_id": "ee8d063c34f04a5d67034a4df9fd6aa9", "fusion_lon": 0.0, "lon": -77.01228233333333, "name": "ee8d063c34f04a5d67034a4df9fd6aa9", "is_disabled": 0, "rental_uris": {"android": "https://dc.lft.to/lastmile_qr_scan", "ios": "https://dc.lft.to/lastmile_qr_scan"}, "type": "electric_scooter", "lat": 38.91406883333333, "is_reserved": 0, "fusion_lat": 0.0}, {"bike_id": "eeb3216e829bce13d08c61c3b57417fb", "fusion_lon": 0.0, "lon": -76.93028116666666, "name": "eeb3216e829bce13d08c61c3b57417fb", "is_disabled": 0, "rental_uris": {"android": "https://dc.lft.to/lastmile_qr_scan", "ios": "https://dc.lft.to/lastmile_qr_scan"}, "type": "electric_scooter", "lat": 38.89821533333333, "is_reserved": 0, "fusion_lat": 0.0}, {"bike_id": "e3dc08de7e93281cfdbbd31cd6c6c974", "fusion_lon": 0.0, "lon": -77.0158425, "name": "e3dc08de7e93281cfdbbd31cd6c6c974", "is_disabled": 0, "rental_uris": {"android": "https://dc.lft.to/lastmile_qr_scan", "ios": "https://dc.lft.to/lastmile_qr_scan"}, "type": "electric_scooter", "lat": 38.95013733333333, "is_reserved": 0, "fusion_lat": 0.0}, {"bike_id": "dc628ff3c494f151ffa40603b372a910", "fusion_lon": 0.0, "lon": -77.04685983333333, "name": "dc628ff3c494f151ffa40603b372a910", "is_disabled": 0, "rental_uris": {"android": "https://dc.lft.to/lastmile_qr_scan", "ios": "https://dc.lft.to/lastmile_qr_scan"}, "type": "electric_scooter", "lat": 38.8973775, "is_reserved": 0, "fusion_lat": 0.0}, {"bike_id": "70b43898f117efe3e6ed208009e6b802", "fusion_lon": 0.0, "lon": -77.02979133333334, "name": "70b43898f117efe3e6ed208009e6b802", "is_disabled": 0, "rental_uris": {"android": "https://dc.lft.to/lastmile_qr_scan", "ios": "https://dc.lft.to/lastmile_qr_scan"}, "type": "electric_scooter", "lat": 38.94599433333333, "is_reserved": 0, "fusion_lat": 0.0}, {"bike_id": "b46741e94ec5ea7cf7aa804647aa8274", "fusion_lon": 0.0, "lon": -77.028554, "name": "b46741e94ec5ea7cf7aa804647aa8274", "is_disabled": 0, "rental_uris": {"android": "https://dc.lft.to/lastmile_qr_scan", "ios": "https://dc.lft.to/lastmile_qr_scan"}, "type": "electric_scooter", "lat": 38.925730333333334, "is_reserved": 0, "fusion_lat": 0.0}, {"bike_id": "504740411a74f9555571500981e85ce9", "fusion_lon": 0.0, "lon": -77.01613233333333, "name": "504740411a74f9555571500981e85ce9", "is_disabled": 0, "rental_uris": {"android": "https://dc.lft.to/lastmile_qr_scan", "ios": "https://dc.lft.to/lastmile_qr_scan"}, "type": "electric_scooter", "lat": 38.91278066666667, "is_reserved": 0, "fusion_lat": 0.0}, {"bike_id": "b8a9b27ea3792c74493ff01bc4dd37db", "fusion_lon": 0.0, "lon": -77.03272116666666, "name": "b8a9b27ea3792c74493ff01bc4dd37db", "is_disabled": 0, "rental_uris": {"android": "https://dc.lft.to/lastmile_qr_scan", "ios": "https://dc.lft.to/lastmile_qr_scan"}, "type": "electric_scooter", "lat": 38.91626183333333, "is_reserved": 0, "fusion_lat": 0.0}, {"bike_id": "1c280605780df5500a2f3e8f7495164b", "fusion_lon": 0.0, "lon": -77.04301616666666, "name": "1c280605780df5500a2f3e8f7495164b", "is_disabled": 0, "rental_uris": {"android": "https://dc.lft.to/lastmile_qr_scan", "ios": "https://dc.lft.to/lastmile_qr_scan"}, "type": "electric_scooter", "lat": 38.91782466666667, "is_reserved": 0, "fusion_lat": 0.0}, {"bike_id": "b48430a90420baee5c5b19133921c005", "fusion_lon": 0.0, "lon": -77.02628183333333, "name": "b48430a90420baee5c5b19133921c005", "is_disabled": 0, "rental_uris": {"android": "https://dc.lft.to/lastmile_qr_scan", "ios": "https://dc.lft.to/lastmile_qr_scan"}, "type": "electric_scooter", "lat": 38.9301115, "is_reserved": 0, "fusion_lat": 0.0}, {"bike_id": "7e00af09717b0d2abce28a9140fcc35c", "fusion_lon": 0.0, "lon": -76.975886, "name": "7e00af09717b0d2abce28a9140fcc35c", "is_disabled": 0, "rental_uris": {"android": "https://dc.lft.to/lastmile_qr_scan", "ios": "https://dc.lft.to/lastmile_qr_scan"}, "type": "electric_bike", "lat": 38.840350666666666, "is_reserved": 0, "fusion_lat": 0.0}, {"bike_id": "2a503c311d19fce45bcd060efff8d3c9", "fusion_lon": 0.0, "lon": -77.092618, "name": "2a503c311d19fce45bcd060efff8d3c9", "is_disabled": 0, "rental_uris": {"android": "https://dc.lft.to/lastmile_qr_scan", "ios": "https://dc.lft.to/lastmile_qr_scan"}, "type": "electric_scooter", "lat": 38.941593, "is_reserved": 0, "fusion_lat": 0.0}, {"bike_id": "134acb5d3c6817052226cffa26c15b03", "fusion_lon": 0.0, "lon": -76.93042616666666, "name": "134acb5d3c6817052226cffa26c15b03", "is_disabled": 0, "rental_uris": {"android": "https://dc.lft.to/lastmile_qr_scan", "ios": "https://dc.lft.to/lastmile_qr_scan"}, "type": "electric_scooter", "lat": 38.89518133333333, "is_reserved": 0, "fusion_lat": 0.0}, {"bike_id": "99a503e801562f84fa216f2bd65194a6", "fusion_lon": 0.0, "lon": -76.9903215, "name": "99a503e801562f84fa216f2bd65194a6", "is_disabled": 0, "rental_uris": {"android": "https://dc.lft.to/lastmile_qr_scan", "ios": "https://dc.lft.to/lastmile_qr_scan"}, "type": "electric_scooter", "lat": 38.88873683333333, "is_reserved": 0, "fusion_lat": 0.0}, {"bike_id": "f958bb91304e78a1893b29a82a594601", "fusion_lon": 0.0, "lon": -77.01111833333333, "name": "f958bb91304e78a1893b29a82a594601", "is_disabled": 0, "rental_uris": {"android": "https://dc.lft.to/lastmile_qr_scan", "ios": "https://dc.lft.to/lastmile_qr_scan"}, "type": "electric_scooter", "lat": 38.903529666666664, "is_reserved": 0, "fusion_lat": 0.0}, {"bike_id": "eaf46691e2695e95e06e0faa05225d47", "fusion_lon": 0.0, "lon": -77.00203666666667, "name": "eaf46691e2695e95e06e0faa05225d47", "is_disabled": 0, "rental_uris": {"android": "https://dc.lft.to/lastmile_qr_scan", "ios": "https://dc.lft.to/lastmile_qr_scan"}, "type": "electric_bike", "lat": 38.8194025, "is_reserved": 0, "fusion_lat": 0.0}, {"bike_id": "8edefd60138da67df9471fb7060d3b7d", "fusion_lon": 0.0, "lon": -77.021698, "name": "8edefd60138da67df9471fb7060d3b7d", "is_disabled": 0, "rental_uris": {"android": "https://dc.lft.to/lastmile_qr_scan", "ios": "https://dc.lft.to/lastmile_qr_scan"}, "type": "electric_scooter", "lat": 38.925054333333335, "is_reserved": 0, "fusion_lat": 0.0}, {"bike_id": "9167987e914053c072d50c54ebb9e683", "fusion_lon": 0.0, "lon": -77.02694166666667, "name": "9167987e914053c072d50c54ebb9e683", "is_disabled": 0, "rental_uris": {"android": "https://dc.lft.to/lastmile_qr_scan", "ios": "https://dc.lft.to/lastmile_qr_scan"}, "type": "electric_scooter", "lat": 38.92781466666667, "is_reserved": 0, "fusion_lat": 0.0}, {"bike_id": "72a1054b521ce76608239be19be37ab1", "fusion_lon": 0.0, "lon": -77.032535, "name": "72a1054b521ce76608239be19be37ab1", "is_disabled": 0, "rental_uris": {"android": "https://dc.lft.to/lastmile_qr_scan", "ios": "https://dc.lft.to/lastmile_qr_scan"}, "type": "electric_scooter", "lat": 38.9340875, "is_reserved": 0, "fusion_lat": 0.0}, {"bike_id": "cb9dea37669fa9e24f2741446e1e877a", "fusion_lon": 0.0, "lon": -76.948776, "name": "cb9dea37669fa9e24f2741446e1e877a", "is_disabled": 0, "rental_uris": {"android": "https://dc.lft.to/lastmile_qr_scan", "ios": "https://dc.lft.to/lastmile_qr_scan"}, "type": "electric_scooter", "lat": 38.89501933333333, "is_reserved": 0, "fusion_lat": 0.0}, {"bike_id": "3c9e9bc53bd1c8584c5a09daf2295f70", "fusion_lon": 0.0, "lon": -77.0412575, "name": "3c9e9bc53bd1c8584c5a09daf2295f70", "is_disabled": 0, "rental_uris": {"android": "https://dc.lft.to/lastmile_qr_scan", "ios": "https://dc.lft.to/lastmile_qr_scan"}, "type": "electric_bike", "lat": 38.804960333333334, "is_reserved": 0, "fusion_lat": 0.0}, {"bike_id": "cf486c6e64514875b89c7169616e878f", "fusion_lon": 0.0, "lon": -77.040151, "name": "cf486c6e64514875b89c7169616e878f", "is_disabled": 0, "rental_uris": {"android": "https://dc.lft.to/lastmile_qr_scan", "ios": "https://dc.lft.to/lastmile_qr_scan"}, "type": "electric_scooter", "lat": 38.922742, "is_reserved": 0, "fusion_lat": 0.0}, {"bike_id": "c89af6eba8ebb2fe4e6fb9b1483cb89a", "fusion_lon": 0.0, "lon": -77.0341745, "name": "c89af6eba8ebb2fe4e6fb9b1483cb89a", "is_disabled": 0, "rental_uris": {"android": "https://dc.lft.to/lastmile_qr_scan", "ios": "https://dc.lft.to/lastmile_qr_scan"}, "type": "electric_scooter", "lat": 38.919279333333336, "is_reserved": 0, "fusion_lat": 0.0}, {"bike_id": "25d190566eb70891e451ef4533226ad6", "fusion_lon": 0.0, "lon": -77.02808633333333, "name": "25d190566eb70891e451ef4533226ad6", "is_disabled": 0, "rental_uris": {"android": "https://dc.lft.to/lastmile_qr_scan", "ios": "https://dc.lft.to/lastmile_qr_scan"}, "type": "electric_scooter", "lat": 38.911334333333336, "is_reserved": 0, "fusion_lat": 0.0}, {"bike_id": "73b60c64f86d9ad86fff8c2c1b885424", "fusion_lon": 0.0, "lon": -77.00617066666666, "name": "73b60c64f86d9ad86fff8c2c1b885424", "is_disabled": 0, "rental_uris": {"android": "https://dc.lft.to/lastmile_qr_scan", "ios": "https://dc.lft.to/lastmile_qr_scan"}, "type": "electric_scooter", "lat": 38.877670333333334, "is_reserved": 0, "fusion_lat": 0.0}, {"bike_id": "f30bde68f8e8a4622471b8c2c68726e6", "fusion_lon": 0.0, "lon": -77.02303083333334, "name": "f30bde68f8e8a4622471b8c2c68726e6", "is_disabled": 0, "rental_uris": {"android": "https://dc.lft.to/lastmile_qr_scan", "ios": "https://dc.lft.to/lastmile_qr_scan"}, "type": "electric_scooter", "lat": 38.915506666666666, "is_reserved": 0, "fusion_lat": 0.0}, {"bike_id": "3a69f49c3d0f0afe217ebb0efaa097a0", "fusion_lon": 0.0, "lon": -77.02299616666667, "name": "3a69f49c3d0f0afe217ebb0efaa097a0", "is_disabled": 0, "rental_uris": {"android": "https://dc.lft.to/lastmile_qr_scan", "ios": "https://dc.lft.to/lastmile_qr_scan"}, "type": "electric_scooter", "lat": 38.916207166666666, "is_reserved": 0, "fusion_lat": 0.0}, {"bike_id": "2195af12a8764b167eceec3414d7f894", "fusion_lon": 0.0, "lon": -77.04847766666667, "name": "2195af12a8764b167eceec3414d7f894", "is_disabled": 0, "rental_uris": {"android": "https://dc.lft.to/lastmile_qr_scan", "ios": "https://dc.lft.to/lastmile_qr_scan"}, "type": "electric_scooter", "lat": 38.91188616666667, "is_reserved": 0, "fusion_lat": 0.0}, {"bike_id": "5603ad743985421ff76dc12974a9450c", "fusion_lon": 0.0, "lon": -77.0413795, "name": "5603ad743985421ff76dc12974a9450c", "is_disabled": 0, "rental_uris": {"android": "https://dc.lft.to/lastmile_qr_scan", "ios": "https://dc.lft.to/lastmile_qr_scan"}, "type": "electric_scooter", "lat": 38.92152016666667, "is_reserved": 0, "fusion_lat": 0.0}, {"bike_id": "27468a0133a555bbc69cf8b21e5e5e80", "fusion_lon": 0.0, "lon": -77.0298145, "name": "27468a0133a555bbc69cf8b21e5e5e80", "is_disabled": 0, "rental_uris": {"android": "https://dc.lft.to/lastmile_qr_scan", "ios": "https://dc.lft.to/lastmile_qr_scan"}, "type": "electric_scooter", "lat": 38.922898, "is_reserved": 0, "fusion_lat": 0.0}, {"bike_id": "81a38fc27a44c05847e0377213aac173", "fusion_lon": 0.0, "lon": -77.04009666666667, "name": "81a38fc27a44c05847e0377213aac173", "is_disabled": 0, "rental_uris": {"android": "https://dc.lft.to/lastmile_qr_scan", "ios": "https://dc.lft.to/lastmile_qr_scan"},