{"data": {"bikes": [{"fusion_lat": 0.0, "name": "089f2b0c819fbd0932449efedfbf1519", "is_disabled": 0, "rental_uris": {"android": "https://dc.lft.to/lastmile_qr_scan", "ios": "https://dc.lft.to/lastmile_qr_scan"}, "fusion_lon": 0.0, "lat": 38.892508166666666, "bike_id": "089f2b0c819fbd0932449efedfbf1519", "type": "electric_scooter", "is_reserved": 0, "lon": -77.03377916666666}, {"fusion_lat": 0.0, "name": "4863d97b17f7d06d13077f05b405e2ce", "is_disabled": 0, "rental_uris": {"android": "https://dc.lft.to/lastmile_qr_scan", "ios": "https://dc.lft.to/lastmile_qr_scan"}, "fusion_lon": 0.0, "lat": 38.88051766666667, "bike_id": "4863d97b17f7d06d13077f05b405e2ce", "type": "electric_bike", "is_reserved": 0, "lon": -77.02525833333333}, {"fusion_lat": 0.0, "name": "17d5e35142679ad16e4421ef665fd36f", "is_disabled": 0, "rental_uris": {"android": "https://dc.lft.to/lastmile_qr_scan", "ios": "https://dc.lft.to/lastmile_qr_scan"}, "fusion_lon": 0.0, "lat": 38.908879666666664, "bike_id": "17d5e35142679ad16e4421ef665fd36f", "type": "electric_scooter", "is_reserved": 0, "lon": -77.06433533333333}, {"fusion_lat": 0.0, "name": "0e365604397b152f18c020fb252b7dd8", "is_disabled": 0, "rental_uris": {"android": "https://dc.lft.to/lastmile_qr_scan", "ios": "https://dc.lft.to/lastmile_qr_scan"}, "fusion_lon": 0.0, "lat": 38.9173075, "bike_id": "0e365604397b152f18c020fb252b7dd8", "type": "electric_scooter", "is_reserved": 0, "lon": -77.03212316666666}, {"fusion_lat": 0.0, "name": "3c4ccdfb6d1bc5b96aef3804d4d51df4", "is_disabled": 0, "rental_uris": {"android": "https://dc.lft.to/lastmile_qr_scan", "ios": "https://dc.lft.to/lastmile_qr_scan"}, "fusion_lon": 0.0, "lat": 38.9038445, "bike_id": "3c4ccdfb6d1bc5b96aef3804d4d51df4", "type": "electric_scooter", "is_reserved": 0, "lon": -77.01763}, {"fusion_lat": 0.0, "name": "ddc31282bbe31c1e33c3d4a52d20daad", "is_disabled": 0, "rental_uris": {"android": "https://dc.lft.to/lastmile_qr_scan", "ios": "https://dc.lft.to/lastmile_qr_scan"}, "fusion_lon": 0.0, "lat": 38.90777833333333, "bike_id": "ddc31282bbe31c1e33c3d4a52d20daad", "type": "electric_scooter", "is_reserved": 0, "lon": -77.0110795}, {"fusion_lat": 0.0, "name": "d1604945a0091413a18b2079564a77db", "is_disabled": 0, "rental_uris": {"android": "https://dc.lft.to/lastmile_qr_scan", "ios": "https://dc.lft.to/lastmile_qr_scan"}, "fusion_lon": 0.0, "lat": 38.918062, "bike_id": "d1604945a0091413a18b2079564a77db", "type": "electric_scooter", "is_reserved": 0, "lon": -77.03661916666667}, {"fusion_lat": 0.0, "name": "6034eeb1bf98e0fcf914be2af6b32403", "is_disabled": 0, "rental_uris": {"android": "https://dc.lft.to/lastmile_qr_scan", "ios": "https://dc.lft.to/lastmile_qr_scan"}, "fusion_lon": 0.0, "lat": 38.94199883333334, "bike_id": "6034eeb1bf98e0fcf914be2af6b32403", "type": "electric_scooter", "is_reserved": 0, "lon": -77.02590883333333}, {"fusion_lat": 0.0, "name": "2b4136fa05d8540a5ace3f4a366c11e2", "is_disabled": 0, "rental_uris": {"android": "https://dc.lft.to/lastmile_qr_scan", "ios": "https://dc.lft.to/lastmile_qr_scan"}, "fusion_lon": 0.0, "lat": 38.90011766666667, "bike_id": "2b4136fa05d8540a5ace3f4a366c11e2", "type": "electric_scooter", "is_reserved": 0, "lon": -77.00201783333333}, {"fusion_lat": 0.0, "name": "16cf332b29d69e921ffced620cad7fc0", "is_disabled": 0, "rental_uris": {"android": "https://dc.lft.to/lastmile_qr_scan", "ios": "https://dc.lft.to/lastmile_qr_scan"}, "fusion_lon": 0.0, "lat": 38.949666666666666, "bike_id": "16cf332b29d69e921ffced620cad7fc0", "type": "electric_scooter", "is_reserved": 0, "lon": -77.08081566666667}, {"fusion_lat": 0.0, "name": "0ee4c3a70b4be9d2cd2c51e5f119443a", "is_disabled": 0, "rental_uris": {"android": "https://dc.lft.to/lastmile_qr_scan", "ios": "https://dc.lft.to/lastmile_qr_scan"}, "fusion_lon": 0.0, "lat": 38.92219766666667, "bike_id": "0ee4c3a70b4be9d2cd2c51e5f119443a", "type": "electric_bike", "is_reserved": 0, "lon": -77.20139616666667}, {"fusion_lat": 0.0, "name": "ffeb54a97f5af7ce3ab66ed6ff6b805d", "is_disabled": 0, "rental_uris": {"android": "https://dc.lft.to/lastmile_qr_scan", "ios": "https://dc.lft.to/lastmile_qr_scan"}, "fusion_lon": 0.0, "lat": 38.94382816666667, "bike_id": "ffeb54a97f5af7ce3ab66ed6ff6b805d", "type": "electric_scooter", "is_reserved": 0, "lon": -77.06347716666667}, {"fusion_lat": 0.0, "name": "684a6035818cf024c9c00b23cd7157d4", "is_disabled": 0, "rental_uris": {"android": "https://dc.lft.to/lastmile_qr_scan", "ios": "https://dc.lft.to/lastmile_qr_scan"}, "fusion_lon": 0.0, "lat": 38.861446, "bike_id": "684a6035818cf024c9c00b23cd7157d4", "type": "electric_bike", "is_reserved": 0, "lon": -76.971721}, {"fusion_lat": 0.0, "name": "b0c0b451c6bdfc7dca424795e10eb1cd", "is_disabled": 0, "rental_uris": {"android": "https://dc.lft.to/lastmile_qr_scan", "ios": "https://dc.lft.to/lastmile_qr_scan"}, "fusion_lon": 0.0, "lat": 38.942948, "bike_id": "b0c0b451c6bdfc7dca424795e10eb1cd", "type": "electric_scooter", "is_reserved": 0, "lon": -77.02172883333333}, {"fusion_lat": 0.0, "name": "c43434d3842a43dc64d8faf19464412e", "is_disabled": 0, "rental_uris": {"android": "https://dc.lft.to/lastmile_qr_scan", "ios": "https://dc.lft.to/lastmile_qr_scan"}, "fusion_lon": 0.0, "lat": 38.905011333333334, "bike_id": "c43434d3842a43dc64d8faf19464412e", "type": "electric_scooter", "is_reserved": 0, "lon": -76.97955066666667}, {"fusion_lat": 0.0, "name": "7ecddf9fbb1bed1cc7f99bcbc3a0f6d5", "is_disabled": 0, "rental_uris": {"android": "https://dc.lft.to/lastmile_qr_scan", "ios": "https://dc.lft.to/lastmile_qr_scan"}, "fusion_lon": 0.0, "lat": 38.924164166666664, "bike_id": "7ecddf9fbb1bed1cc7f99bcbc3a0f6d5", "type": "electric_scooter", "is_reserved": 0, "lon": -77.02014366666667}, {"fusion_lat": 0.0, "name": "ad79c8956101e8722839a67b87cf9ff8", "is_disabled": 0, "rental_uris": {"android": "https://dc.lft.to/lastmile_qr_scan", "ios": "https://dc.lft.to/lastmile_qr_scan"}, "fusion_lon": 0.0, "lat": 38.90035566666667, "bike_id": "ad79c8956101e8722839a67b87cf9ff8", "type": "electric_scooter", "is_reserved": 0, "lon": -76.992602}, {"fusion_lat": 0.0, "name": "4c0c3ce963a12423f70eaa93e5c33ce4", "is_disabled": 0, "rental_uris": {"android": "https://dc.lft.to/lastmile_qr_scan", "ios": "https://dc.lft.to/lastmile_qr_scan"}, "fusion_lon": 0.0, "lat": 38.899016, "bike_id": "4c0c3ce963a12423f70eaa93e5c33ce4", "type": "electric_scooter", "is_reserved": 0, "lon": -76.97618866666667}, {"fusion_lat": 0.0, "name": "5115d0f316f17fd83f6503eba123a39e", "is_disabled": 0, "rental_uris": {"android": "https://dc.lft.to/lastmile_qr_scan", "ios": "https://dc.lft.to/lastmile_qr_scan"}, "fusion_lon": 0.0, "lat": 38.91179833333333, "bike_id": "5115d0f316f17fd83f6503eba123a39e", "type": "electric_scooter", "is_reserved": 0, "lon": -77.06863533333333}, {"fusion_lat": 0.0, "name": "1d8d37d7cf26111856b9bafc282ad60b", "is_disabled": 0, "rental_uris": {"android": "https://dc.lft.to/lastmile_qr_scan", "ios": "https://dc.lft.to/lastmile_qr_scan"}, "fusion_lon": 0.0, "lat": 38.9225985, "bike_id": "1d8d37d7cf26111856b9bafc282ad60b", "type": "electric_scooter", "is_reserved": 0, "lon": -77.01844166666666}, {"fusion_lat": 0.0, "name": "df8d1b0999854068ed6a2671a6709194", "is_disabled": 0, "rental_uris": {"android": "https://dc.lft.to/lastmile_qr_scan", "ios": "https://dc.lft.to/lastmile_qr_scan"}, "fusion_lon": 0.0, "lat": 38.937288333333335, "bike_id": "df8d1b0999854068ed6a2671a6709194", "type": "electric_scooter", "is_reserved": 0, "lon": -77.01920433333333}, {"fusion_lat": 0.0, "name": "d75043a5d6272314054ac32a3292b44f", "is_disabled": 0, "rental_uris": {"android": "https://dc.lft.to/lastmile_qr_scan", "ios": "https://dc.lft.to/lastmile_qr_scan"}, "fusion_lon": 0.0, "lat": 38.8922295, "bike_id": "d75043a5d6272314054ac32a3292b44f", "type": "electric_scooter", "is_reserved": 0, "lon": -77.04865566666666}, {"fusion_lat": 0.0, "name": "5b23abb33b5d29037c98980781f243a7", "is_disabled": 0, "rental_uris": {"android": "https://dc.lft.to/lastmile_qr_scan", "ios": "https://dc.lft.to/lastmile_qr_scan"}, "fusion_lon": 0.0, "lat": 38.935247833333335, "bike_id": "5b23abb33b5d29037c98980781f243a7", "type": "electric_scooter", "is_reserved": 0, "lon": -77.0729325}, {"fusion_lat": 0.0, "name": "90671d58fdb8c67e53e3fca84e716627", "is_disabled": 0, "rental_uris": {"android": "https://dc.lft.to/lastmile_qr_scan", "ios": "https://dc.lft.to/lastmile_qr_scan"}, "fusion_lon": 0.0, "lat": 38.9024435, "bike_id": "90671d58fdb8c67e53e3fca84e716627", "type": "electric_scooter", "is_reserved": 0, "lon": -77.001986}, {"fusion_lat": 0.0, "name": "e9626a15e2cae12fd461e46ca6438e7b", "is_disabled": 0, "rental_uris": {"android": "https://dc.lft.to/lastmile_qr_scan", "ios": "https://dc.lft.to/lastmile_qr_scan"}, "fusion_lon": 0.0, "lat": 38.950565, "bike_id": "e9626a15e2cae12fd461e46ca6438e7b", "type": "electric_scooter", "is_reserved": 0, "lon": -77.08031066666666}, {"fusion_lat": 0.0, "name": "359cc79d55eedc9f4d70cc850372e58d", "is_disabled": 0, "rental_uris": {"android": "https://dc.lft.to/lastmile_qr_scan", "ios": "https://dc.lft.to/lastmile_qr_scan"}, "fusion_lon": 0.0, "lat": 38.819859, "bike_id": "359cc79d55eedc9f4d70cc850372e58d", "type": "electric_bike", "is_reserved": 0, "lon": -76.9976705}, {"fusion_lat": 0.0, "name": "79f2ecd6c73b98f632a215c0b13b170d", "is_disabled": 0, "rental_uris": {"android": "https://dc.lft.to/lastmile_qr_scan", "ios": "https://dc.lft.to/lastmile_qr_scan"}, "fusion_lon": 0.0, "lat": 38.95110233333333, "bike_id": "79f2ecd6c73b98f632a215c0b13b170d", "type": "electric_scooter", "is_reserved": 0, "lon": -77.058671}, {"fusion_lat": 0.0, "name": "91987d784806c3cbe1d00be1d8e07e5b", "is_disabled": 0, "rental_uris": {"android": "https://dc.lft.to/lastmile_qr_scan", "ios": "https://dc.lft.to/lastmile_qr_scan"}, "fusion_lon": 0.0, "lat": 38.92298433333333, "bike_id": "91987d784806c3cbe1d00be1d8e07e5b", "type": "electric_scooter", "is_reserved": 0, "lon": -77.04143066666667}, {"fusion_lat": 0.0, "name": "a8ac9c1e29e8cdfa53971c75b0e41c77", "is_disabled": 0, "rental_uris": {"android": "https://dc.lft.to/lastmile_qr_scan", "ios": "https://dc.lft.to/lastmile_qr_scan"}, "fusion_lon": 0.0, "lat": 38.915554166666666, "bike_id": "a8ac9c1e29e8cdfa53971c75b0e41c77", "type": "electric_scooter", "is_reserved": 0, "lon": -77.0347715}, {"fusion_lat": 0.0, "name": "3cf54169d524446d43c642ab0170658e", "is_disabled": 0, "rental_uris": {"android": "https://dc.lft.to/lastmile_qr_scan", "ios": "https://dc.lft.to/lastmile_qr_scan"}, "fusion_lon": 0.0, "lat": 38.8761115, "bike_id": "3cf54169d524446d43c642ab0170658e", "type": "electric_scooter", "is_reserved": 0, "lon": -77.006495}, {"fusion_lat": 0.0, "name": "ffab2ad430f11a7069ad4a2a3fd549c9", "is_disabled": 0, "rental_uris": {"android": "https://dc.lft.to/lastmile_qr_scan", "ios": "https://dc.lft.to/lastmile_qr_scan"}, "fusion_lon": 0.0, "lat": 38.9072205, "bike_id": "ffab2ad430f11a7069ad4a2a3fd549c9", "type": "electric_scooter", "is_reserved": 0, "lon": -77.0689945}, {"fusion_lat": 0.0, "name": "11368c3acc41289d8f2c2fa7ec23945b", "is_disabled": 0, "rental_uris": {"android": "https://dc.lft.to/lastmile_qr_scan", "ios": "https://dc.lft.to/lastmile_qr_scan"}, "fusion_lon": 0.0, "lat": 38.9563015, "bike_id": "11368c3acc41289d8f2c2fa7ec23945b", "type": "electric_scooter", "is_reserved": 0, "lon": -77.03283083333334}, {"fusion_lat": 0.0, "name": "231bdd79120f9bba8b3ec3decc95d220", "is_disabled": 0, "rental_uris": {"android": "https://dc.lft.to/lastmile_qr_scan", "ios": "https://dc.lft.to/lastmile_qr_scan"}, "fusion_lon": 0.0, "lat": 38.86627983333333, "bike_id": "231bdd79120f9bba8b3ec3decc95d220", "type": "electric_scooter", "is_reserved": 0, "lon": -76.98717066666667}, {"fusion_lat": 0.0, "name": "b7aaf2d2b0d501d07c71487befe82041", "is_disabled": 0, "rental_uris": {"android": "https://dc.lft.to/lastmile_qr_scan", "ios": "https://dc.lft.to/lastmile_qr_scan"}, "fusion_lon": 0.0, "lat": 38.92878416666667, "bike_id": "b7aaf2d2b0d501d07c71487befe82041", "type": "electric_scooter", "is_reserved": 0, "lon": -77.03236066666666}, {"fusion_lat": 0.0, "name": "9e3465cce77170d40b8404dcc54e3ccd", "is_disabled": 0, "rental_uris": {"android": "https://dc.lft.to/lastmile_qr_scan", "ios": "https://dc.lft.to/lastmile_qr_scan"}, "fusion_lon": 0.0, "lat": 38.8663225, "bike_id": "9e3465cce77170d40b8404dcc54e3ccd", "type": "electric_scooter", "is_reserved": 0, "lon": -76.98304783333333}, {"fusion_lat": 0.0, "name": "c784bad6e60ae516c7dcb4d224231ae3", "is_disabled": 0, "rental_uris": {"android": "https://dc.lft.to/lastmile_qr_scan", "ios": "https://dc.lft.to/lastmile_qr_scan"}, "fusion_lon": 0.0, "lat": 38.926807833333335, "bike_id": "c784bad6e60ae516c7dcb4d224231ae3", "type": "electric_scooter", "is_reserved": 0, "lon": -77.03145683333334}, {"fusion_lat": 0.0, "name": "9fe91bf7f159043c88ac47fc04f3f3ba", "is_disabled": 0, "rental_uris": {"android": "https://dc.lft.to/lastmile_qr_scan", "ios": "https://dc.lft.to/lastmile_qr_scan"}, "fusion_lon": 0.0, "lat": 38.91343616666666, "bike_id": "9fe91bf7f159043c88ac47fc04f3f3ba", "type": "electric_bike", "is_reserved": 0, "lon": -76.98897833333334}, {"fusion_lat": 0.0, "name": "d9cbaa697f02062112c54583d85dea12", "is_disabled": 0, "rental_uris": {"android": "https://dc.lft.to/lastmile_qr_scan", "ios": "https://dc.lft.to/lastmile_qr_scan"}, "fusion_lon": 0.0, "lat": 38.94169433333333, "bike_id": "d9cbaa697f02062112c54583d85dea12", "type": "electric_scooter", "is_reserved": 0, "lon": -77.02507383333334}, {"fusion_lat": 0.0, "name": "26cac79a6f7a2d1059946153b2f24955", "is_disabled": 0, "rental_uris": {"android": "https://dc.lft.to/lastmile_qr_scan", "ios": "https://dc.lft.to/lastmile_qr_scan"}, "fusion_lon": 0.0, "lat": 38.912678666666665, "bike_id": "26cac79a6f7a2d1059946153b2f24955", "type": "electric_scooter", "is_reserved": 0, "lon": -77.03243083333334}, {"fusion_lat": 0.0, "name": "72cbebb48b9e0caf03b7710b2f5fb691", "is_disabled": 0, "rental_uris": {"android": "https://dc.lft.to/lastmile_qr_scan", "ios": "https://dc.lft.to/lastmile_qr_scan"}, "fusion_lon": 0.0, "lat": 38.898156, "bike_id": "72cbebb48b9e0caf03b7710b2f5fb691", "type": "electric_scooter", "is_reserved": 0, "lon": -77.0242285}, {"fusion_lat": 0.0, "name": "e5bd247ae0f7f7cd2a984be3c71614f3", "is_disabled": 0, "rental_uris": {"android": "https://dc.lft.to/lastmile_qr_scan", "ios": "https://dc.lft.to/lastmile_qr_scan"}, "fusion_lon": 0.0, "lat": 38.9169955, "bike_id": "e5bd247ae0f7f7cd2a984be3c71614f3", "type": "electric_scooter", "is_reserved": 0, "lon": -77.03774183333333}, {"fusion_lat": 0.0, "name": "a60d0479ad393e56331f69aa0edd759b", "is_disabled": 0, "rental_uris": {"android": "https://dc.lft.to/lastmile_qr_scan", "ios": "https://dc.lft.to/lastmile_qr_scan"}, "fusion_lon": 0.0, "lat": 38.88817933333333, "bike_id": "a60d0479ad393e56331f69aa0edd759b", "type": "electric_scooter", "is_reserved": 0, "lon": -76.98363416666666}, {"fusion_lat": 0.0, "name": "1814a1d4e9bd0455013642c7a0f53e49", "is_disabled": 0, "rental_uris": {"android": "https://dc.lft.to/lastmile_qr_scan", "ios": "https://dc.lft.to/lastmile_qr_scan"}, "fusion_lon": 0.0, "lat": 38.9155925, "bike_id": "1814a1d4e9bd0455013642c7a0f53e49", "type": "electric_scooter", "is_reserved": 0, "lon": -77.020505}, {"fusion_lat": 0.0, "name": "8be8954e04b215e515ee761b5712829f", "is_disabled": 0, "rental_uris": {"android": "https://dc.lft.to/lastmile_qr_scan", "ios": "https://dc.lft.to/lastmile_qr_scan"}, "fusion_lon": 0.0, "lat": 38.902331833333335, "bike_id": "8be8954e04b215e515ee761b5712829f", "type": "electric_scooter", "is_reserved": 0, "lon": -77.022809}, {"fusion_lat": 0.0, "name": "97570b30fe2a9b9468ff4e38c0e812d5", "is_disabled": 0, "rental_uris": {"android": "https://dc.lft.to/lastmile_qr_scan", "ios": "https://dc.lft.to/lastmile_qr_scan"}, "fusion_lon": 0.0, "lat": 38.91975516666667, "bike_id": "97570b30fe2a9b9468ff4e38c0e812d5", "type": "electric_scooter", "is_reserved": 0, "lon": -77.02366033333334}, {"fusion_lat": 0.0, "name": "8766e63954211cf1aec3842adc15654b", "is_disabled": 0, "rental_uris": {"android": "https://dc.lft.to/lastmile_qr_scan", "ios": "https://dc.lft.to/lastmile_qr_scan"}, "fusion_lon": 0.0, "lat": 38.91699066666666, "bike_id": "8766e63954211cf1aec3842adc15654b", "type": "electric_scooter", "is_reserved": 0, "lon": -77.02853016666667}, {"fusion_lat": 0.0, "name": "a5a11c1d205dc204808fe3e4616ad8c1", "is_disabled": 0, "rental_uris": {"android": "https://dc.lft.to/lastmile_qr_scan", "ios": "https://dc.lft.to/lastmile_qr_scan"}, "fusion_lon": 0.0, "lat": 38.9234925, "bike_id": "a5a11c1d205dc204808fe3e4616ad8c1", "type": "electric_scooter", "is_reserved": 0, "lon": -77.02434816666667}, {"fusion_lat": 0.0, "name": "730c4034826938a3825d54cd921553a5", "is_disabled": 0, "rental_uris": {"android": "https://dc.lft.to/lastmile_qr_scan", "ios": "https://dc.lft.to/lastmile_qr_scan"}, "fusion_lon": 0.0, "lat": 38.887683, "bike_id": "730c4034826938a3825d54cd921553a5", "type": "electric_scooter", "is_reserved": 0, "lon": -77.00408283333333}, {"fusion_lat": 0.0, "name": "b7afc88866432ab980adeea55bd9a1e1", "is_disabled": 0, "rental_uris": {"android": "https://dc.lft.to/lastmile_qr_scan", "ios": "https://dc.lft.to/lastmile_qr_scan"}, "fusion_lon": 0.0, "lat": 38.931331, "bike_id": "b7afc88866432ab980adeea55bd9a1e1", "type": "electric_scooter", "is_reserved": 0, "lon": -77.03257116666667}, {"fusion_lat": 0.0, "name": "4d8ff0147a361633445b4121c6d8b399", "is_disabled": 0, "rental_uris": {"android": "https://dc.lft.to/lastmile_qr_scan", "ios": "https://dc.lft.to/lastmile_qr_scan"}, "fusion_lon": 0.0, "lat": 38.89557716666667, "bike_id": "4d8ff0147a361633445b4121c6d8b399", "type": "electric_scooter", "is_reserved": 0, "lon": -77.027229}, {"fusion_lat": 0.0, "name": "f36c7481c960f81ffb6db0b6e75911ff", "is_disabled": 0, "rental_uris": {"android": "https://dc.lft.to/lastmile_qr_scan", "ios": "https://dc.lft.to/lastmile_qr_scan"}, "fusion_lon": 0.0, "lat": 38.907791333333336, "bike_id": "f36c7481c960f81ffb6db0b6e75911ff", "type": "electric_scooter", "is_reserved": 0, "lon": -77.01117833333333}, {"fusion_lat": 0.0, "name": "836a69e5d90ecdead811467f607c1b21", "is_disabled": 0, "rental_uris": {"android": "https://dc.lft.to/lastmile_qr_scan", "ios": "https://dc.lft.to/lastmile_qr_scan"}, "fusion_lon": 0.0, "lat": 38.897307166666664, "bike_id": "836a69e5d90ecdead811467f607c1b21", "type": "electric_scooter", "is_reserved": 0, "lon": -76.94701566666667}, {"fusion_lat": 0.0, "name": "bdf29e2da0111e734194a6d3f5cd1fa8", "is_disabled": 0, "rental_uris": {"android": "https://dc.lft.to/lastmile_qr_scan", "ios": "https://dc.lft.to/lastmile_qr_scan"}, "fusion_lon": 0.0, "lat": 38.902225, "bike_id": "bdf29e2da0111e734194a6d3f5cd1fa8", "type": "electric_scooter", "is_reserved": 0, "lon": -77.02308516666666}, {"fusion_lat": 0.0, "name": "20b652844f25c9ed12e52ce592cb7505", "is_disabled": 0, "rental_uris": {"android": "https://dc.lft.to/lastmile_qr_scan", "ios": "https://dc.lft.to/lastmile_qr_scan"}, "fusion_lon": 0.0, "lat": 38.9440945, "bike_id": "20b652844f25c9ed12e52ce592cb7505", "type": "electric_scooter", "is_reserved": 0, "lon": -77.03205583333333}, {"fusion_lat": 0.0, "name": "a211393954a2b06d0fa56016cfd6c115", "is_disabled": 0, "rental_uris": {"android": "https://dc.lft.to/lastmile_qr_scan", "ios": "https://dc.lft.to/lastmile_qr_scan"}, "fusion_lon": 0.0, "lat": 38.91566066666667, "bike_id": "a211393954a2b06d0fa56016cfd6c115", "type": "electric_scooter", "is_reserved": 0, "lon": -77.06756433333334}, {"fusion_lat": 0.0, "name": "c5107f9637fb46c110396f8ff92f8ef4", "is_disabled": 0, "rental_uris": {"android": "https://dc.lft.to/lastmile_qr_scan", "ios": "https://dc.lft.to/lastmile_qr_scan"}, "fusion_lon": 0.0, "lat": 38.8789945, "bike_id": "c5107f9637fb46c110396f8ff92f8ef4", "type": "electric_scooter", "is_reserved": 0, "lon": -77.0136115}, {"fusion_lat": 0.0, "name": "17883812b75fbc821f51778d64c2e9a7", "is_disabled": 0, "rental_uris": {"android": "https://dc.lft.to/lastmile_qr_scan", "ios": "https://dc.lft.to/lastmile_qr_scan"}, "fusion_lon": 0.0, "lat": 38.92601, "bike_id": "17883812b75fbc821f51778d64c2e9a7", "type": "electric_scooter", "is_reserved": 0, "lon": -77.02156983333333}, {"fusion_lat": 0.0, "name": "e99c09cff3859d6cbe82cd0c0183a44f", "is_disabled": 0, "rental_uris": {"android": "https://dc.lft.to/lastmile_qr_scan", "ios": "https://dc.lft.to/lastmile_qr_scan"}, "fusion_lon": 0.0, "lat": 38.89736116666667, "bike_id": "e99c09cff3859d6cbe82cd0c0183a44f", "type": "electric_scooter", "is_reserved": 0, "lon": -76.94721083333333}, {"fusion_lat": 0.0, "name": "6b87f320b976a737f9f9a7f9e694bc7f", "is_disabled": 0, "rental_uris": {"android": "https://dc.lft.to/lastmile_qr_scan", "ios": "https://dc.lft.to/lastmile_qr_scan"}, "fusion_lon": 0.0, "lat": 38.90963433333334, "bike_id": "6b87f320b976a737f9f9a7f9e694bc7f", "type": "electric_scooter", "is_reserved": 0, "lon": -77.03419566666666}, {"fusion_lat": 0.0, "name": "37768a46610ce57bab216a786ba079e0", "is_disabled": 0, "rental_uris": {"android": "https://dc.lft.to/lastmile_qr_scan", "ios": "https://dc.lft.to/lastmile_qr_scan"}, "fusion_lon": 0.0, "lat": 38.913338833333334, "bike_id": "37768a46610ce57bab216a786ba079e0", "type": "electric_scooter", "is_reserved": 0, "lon": -77.05036766666667}, {"fusion_lat": 0.0, "name": "83271f1263605814be2893a8f83988b5", "is_disabled": 0, "rental_uris": {"android": "https://dc.lft.to/lastmile_qr_scan", "ios": "https://dc.lft.to/lastmile_qr_scan"}, "fusion_lon": 0.0, "lat": 38.92762033333333, "bike_id": "83271f1263605814be2893a8f83988b5", "type": "electric_scooter", "is_reserved": 0, "lon": -77.01618916666666}, {"fusion_lat": 0.0, "name": "f76cad91b27a0d5f8c88d52d231a6110", "is_disabled": 0, "rental_uris": {"android": "https://dc.lft.to/lastmile_qr_scan", "ios": "https://dc.lft.to/lastmile_qr_scan"}, "fusion_lon": 0.0, "lat": 38.8791325, "bike_id": "f76cad91b27a0d5f8c88d52d231a6110", "type": "electric_scooter", "is_reserved": 0, "lon": -77.008792}, {"fusion_lat": 0.0, "name": "8877c77b996445e76e3812a78e9d8c30", "is_disabled": 0, "rental_uris": {"android": "https://dc.lft.to/lastmile_qr_scan", "ios": "https://dc.lft.to/lastmile_qr_scan"}, "fusion_lon": 0.0, "lat": 38.920838, "bike_id": "8877c77b996445e76e3812a78e9d8c30", "type": "electric_scooter", "is_reserved": 0, "lon": -77.023003}, {"fusion_lat": 0.0, "name": "4f3c1f32dddb27923d4fdc76d99bcf9f", "is_disabled": 0, "rental_uris": {"android": "https://dc.lft.to/lastmile_qr_scan", "ios": "https://dc.lft.to/lastmile_qr_scan"}, "fusion_lon": 0.0, "lat": 38.92175533333333, "bike_id": "4f3c1f32dddb27923d4fdc76d99bcf9f", "type": "electric_scooter", "is_reserved": 0, "lon": -76.99760033333334}, {"fusion_lat": 0.0, "name": "0cee7f74c48a9d46c7f8cbf12d404f79", "is_disabled": 0, "rental_uris": {"android": "https://dc.lft.to/lastmile_qr_scan", "ios": "https://dc.lft.to/lastmile_qr_scan"}, "fusion_lon": 0.0, "lat": 38.928619, "bike_id": "0cee7f74c48a9d46c7f8cbf12d404f79", "type": "electric_scooter", "is_reserved": 0, "lon": -77.0349885}, {"fusion_lat": 0.0, "name": "8732e02085264fd7051c19e42a52ce99", "is_disabled": 0, "rental_uris": {"android": "https://dc.lft.to/lastmile_qr_scan", "ios": "https://dc.lft.to/lastmile_qr_scan"}, "fusion_lon": 0.0, "lat": 38.89875416666667, "bike_id": "8732e02085264fd7051c19e42a52ce99", "type": "electric_scooter", "is_reserved": 0, "lon": -76.93184383333333}, {"fusion_lat": 0.0, "name": "82ff0ee63ce89bef4228b72c00be3dd1", "is_disabled": 0, "rental_uris": {"android": "https://dc.lft.to/lastmile_qr_scan", "ios": "https://dc.lft.to/lastmile_qr_scan"}, "fusion_lon": 0.0, "lat": 38.90970633333333, "bike_id": "82ff0ee63ce89bef4228b72c00be3dd1", "type": "electric_scooter", "is_reserved": 0, "lon": -77.03332466666667}, {"fusion_lat": 0.0, "name": "3fb80b661754eb7f638c5643a9ba4f57", "is_disabled": 0, "rental_uris": {"android": "https://dc.lft.to/lastmile_qr_scan", "ios": "https://dc.lft.to/lastmile_qr_scan"}, "fusion_lon": 0.0, "lat": 38.931812666666666, "bike_id": "3fb80b661754eb7f638c5643a9ba4f57", "type": "electric_scooter", "is_reserved": 0, "lon": -77.043058}, {"fusion_lat": 0.0, "name": "37806bbbe0ae970bbd1b8548edfb308b", "is_disabled": 0, "rental_uris": {"android": "https://dc.lft.to/lastmile_qr_scan", "ios": "https://dc.lft.to/lastmile_qr_scan"}, "fusion_lon": 0.0, "lat": 38.921827, "bike_id": "37806bbbe0ae970bbd1b8548edfb308b", "type": "electric_scooter", "is_reserved": 0, "lon": -77.0253265}, {"fusion_lat": 0.0, "name": "ffd1292ed9786b1675777f57b982f384", "is_disabled": 0, "rental_uris": {"android": "https://dc.lft.to/lastmile_qr_scan", "ios": "https://dc.lft.to/lastmile_qr_scan"}, "fusion_lon": 0.0, "lat": 38.90236383333333, "bike_id": "ffd1292ed9786b1675777f57b982f384", "type": "electric_bike", "is_reserved": 0, "lon": -77.02299166666667}, {"fusion_lat": 0.0, "name": "88d2aa72720809475311706a03d8526a", "is_disabled": 0, "rental_uris": {"android": "https://dc.lft.to/lastmile_qr_scan", "ios": "https://dc.lft.to/lastmile_qr_scan"}, "fusion_lon": 0.0, "lat": 38.908854166666664, "bike_id": "88d2aa72720809475311706a03d8526a", "type": "electric_scooter", "is_reserved": 0, "lon": -77.05405933333333}, {"fusion_lat": 0.0, "name": "294810c9c74551cafecdc064d6080bc3", "is_disabled": 0, "rental_uris": {"android": "https://dc.lft.to/lastmile_qr_scan", "ios": "https://dc.lft.to/lastmile_qr_scan"}, "fusion_lon": 0.0, "lat": 38.93941433333333, "bike_id": "294810c9c74551cafecdc064d6080bc3", "type": "electric_scooter", "is_reserved": 0, "lon": -77.03335383333334}, {"fusion_lat": 0.0, "name": "1c4e82d0087b4038c900044d60ce97ee", "is_disabled": 0, "rental_uris": {"android": "https://dc.lft.to/lastmile_qr_scan", "ios": "https://dc.lft.to/lastmile_qr_scan"}, "fusion_lon": 0.0, "lat": 38.8938525, "bike_id": "1c4e82d0087b4038c900044d60ce97ee", "type": "electric_scooter", "is_reserved": 0, "lon": -76.94822416666666}, {"fusion_lat": 0.0, "name": "d4a7d6e4abcdca8b28688e600419298c", "is_disabled": 0, "rental_uris": {"android": "https://dc.lft.to/lastmile_qr_scan", "ios": "https://dc.lft.to/lastmile_qr_scan"}, "fusion_lon": 0.0, "lat": 38.920765333333335, "bike_id": "d4a7d6e4abcdca8b28688e600419298c", "type": "electric_scooter", "is_reserved": 0, "lon": -77.023748}, {"fusion_lat": 0.0, "name": "9cfa313440b531f98043e1c63673c154", "is_disabled": 0, "rental_uris": {"android": "https://dc.lft.to/lastmile_qr_scan", "ios": "https://dc.lft.to/lastmile_qr_scan"}, "fusion_lon": 0.0, "lat": 38.875335666666665, "bike_id": "9cfa313440b531f98043e1c63673c154", "type": "electric_scooter", "is_reserved": 0, "lon": -77.00064616666667}, {"fusion_lat": 0.0, "name": "48605f7a1093aa2d6a4ab379ca7deee1", "is_disabled": 0, "rental_uris": {"android": "https://dc.lft.to/lastmile_qr_scan", "ios": "https://dc.lft.to/lastmile_qr_scan"}, "fusion_lon": 0.0, "lat": 38.915695666666664, "bike_id": "48605f7a1093aa2d6a4ab379ca7deee1", "type": "electric_scooter", "is_reserved": 0, "lon": -77.02206766666667}, {"fusion_lat": 0.0, "name": "2aae0e39d7a6694171ef232741db3d88", "is_disabled": 0, "rental_uris": {"android": "https://dc.lft.to/lastmile_qr_scan", "ios": "https://dc.lft.to/lastmile_qr_scan"}, "fusion_lon": 0.0, "lat": 38.88987933333333, "bike_id": "2aae0e39d7a6694171ef232741db3d88", "type": "electric_scooter", "is_reserved": 0, "lon": -76.98738916666667}, {"fusion_lat": 0.0, "name": "0da3bb343245773f7ac1146a0839500f", "is_disabled": 0, "rental_uris": {"android": "https://dc.lft.to/lastmile_qr_scan", "ios": "https://dc.lft.to/lastmile_qr_scan"}, "fusion_lon": 0.0, "lat": 38.885271333333336, "bike_id": "0da3bb343245773f7ac1146a0839500f", "type": "electric_scooter", "is_reserved": 0, "lon": -76.92913166666666}, {"fusion_lat": 0.0, "name": "9154a26a385bd2b113e58dd0970cb43d", "is_disabled": 0, "rental_uris": {"android": "https://dc.lft.to/lastmile_qr_scan", "ios": "https://dc.lft.to/lastmile_qr_scan"}, "fusion_lon": 0.0, "lat": 38.91693433333333, "bike_id": "9154a26a385bd2b113e58dd0970cb43d", "type": "electric_scooter", "is_reserved": 0, "lon": -77.025974}, {"fusion_lat": 0.0, "name": "2e81e810c0ab2fdf9f28aadfa00ccdf4", "is_disabled": 0, "rental_uris": {"android": "https://dc.lft.to/lastmile_qr_scan", "ios": "https://dc.lft.to/lastmile_qr_scan"}, "fusion_lon": 0.0, "lat": 38.899140833333334, "bike_id": "2e81e810c0ab2fdf9f28aadfa00ccdf4", "type": "electric_scooter", "is_reserved": 0, "lon": -76.94584366666666}, {"fusion_lat": 0.0, "name": "82e3ba346a24d78295e987d2b6cbb2de", "is_disabled": 0, "rental_uris": {"android": "https://dc.lft.to/lastmile_qr_scan", "ios": "https://dc.lft.to/lastmile_qr_scan"}, "fusion_lon": 0.0, "lat": 38.91949866666667, "bike_id": "82e3ba346a24d78295e987d2b6cbb2de", "type": "electric_scooter", "is_reserved": 0, "lon": -77.02483133333334}, {"fusion_lat": 0.0, "name": "64db0fad7644004a1bd2604ce50abd04", "is_disabled": 0, "rental_uris": {"android": "https://dc.lft.to/lastmile_qr_scan", "ios": "https://dc.lft.to/lastmile_qr_scan"}, "fusion_lon": 0.0, "lat": 38.887535166666666, "bike_id": "64db0fad7644004a1bd2604ce50abd04", "type": "electric_scooter", "is_reserved": 0, "lon": -77.03220983333334}, {"fusion_lat": 0.0, "name": "87c84c6eea882b7759f19bb68b4751d0", "is_disabled": 0, "rental_uris": {"android": "https://dc.lft.to/lastmile_qr_scan", "ios": "https://dc.lft.to/lastmile_qr_scan"}, "fusion_lon": 0.0, "lat": 38.92134433333333, "bike_id": "87c84c6eea882b7759f19bb68b4751d0", "type": "electric_scooter", "is_reserved": 0, "lon": -77.01808}, {"fusion_lat": 0.0, "name": "c4b363c8605fd3de2dcc0d4d64ec9be4", "is_disabled": 0, "rental_uris": {"android": "https://dc.lft.to/lastmile_qr_scan", "ios": "https://dc.lft.to/lastmile_qr_scan"}, "fusion_lon": 0.0, "lat": 38.899037666666665, "bike_id": "c4b363c8605fd3de2dcc0d4d64ec9be4", "type": "electric_scooter", "is_reserved": 0, "lon": -76.93359183333334}, {"fusion_lat": 0.0, "name": "8a28f8b7796a8551deae34595b5554f4", "is_disabled": 0, "rental_uris": {"android": "https://dc.lft.to/lastmile_qr_scan", "ios": "https://dc.lft.to/lastmile_qr_scan"}, "fusion_lon": 0.0, "lat": 38.91694583333334, "bike_id": "8a28f8b7796a8551deae34595b5554f4", "type": "electric_scooter", "is_reserved": 0, "lon": -77.03226583333333}, {"fusion_lat": 0.0, "name": "e1e75f5743eebcfd3a3b4a75c69c1b46", "is_disabled": 0, "rental_uris": {"android": "https://dc.lft.to/lastmile_qr_scan", "ios": "https://dc.lft.to/lastmile_qr_scan"}, "fusion_lon": 0.0, "lat": 38.8757985, "bike_id": "e1e75f5743eebcfd3a3b4a75c69c1b46", "type": "electric_bike", "is_reserved": 0, "lon": -77.2340945}, {"fusion_lat": 0.0, "name": "7d08c5a4858c19513afd2d98d4298257", "is_disabled": 0, "rental_uris": {"android": "https://dc.lft.to/lastmile_qr_scan", "ios": "https://dc.lft.to/lastmile_qr_scan"}, "fusion_lon": 0.0, "lat": 38.950525166666665, "bike_id": "7d08c5a4858c19513afd2d98d4298257", "type": "electric_scooter", "is_reserved": 0, "lon": -77.08031083333333}, {"fusion_lat": 0.0, "name": "46fe5245be4e7c8f03f9829877bd87db", "is_disabled": 0, "rental_uris": {"android": "https://dc.lft.to/lastmile_qr_scan", "ios": "https://dc.lft.to/lastmile_qr_scan"}, "fusion_lon": 0.0, "lat": 38.89966416666667, "bike_id": "46fe5245be4e7c8f03f9829877bd87db", "type": "electric_scooter", "is_reserved": 0, "lon": -77.01506466666666}, {"fusion_lat": 0.0, "name": "a1a67e4335aafbd142da74209d1d750a", "is_disabled": 0, "rental_uris": {"android": "https://dc.lft.to/lastmile_qr_scan", "ios": "https://dc.lft.to/lastmile_qr_scan"}, "fusion_lon": 0.0, "lat": 39.0107935, "bike_id": "a1a67e4335aafbd142da74209d1d750a", "type": "electric_bike", "is_reserved": 0, "lon": -76.91065383333333}, {"fusion_lat": 0.0, "name": "cfe1f0ee7bf45924328e2d8f88d48bb2", "is_disabled": 0, "rental_uris": {"android": "https://dc.lft.to/lastmile_qr_scan", "ios": "https://dc.lft.to/lastmile_qr_scan"}, "fusion_lon": 0.0, "lat": 38.9220505, "bike_id": "cfe1f0ee7bf45924328e2d8f88d48bb2", "type": "electric_scooter", "is_reserved": 0, "lon": -77.04144666666667}, {"fusion_lat": 0.0, "name": "c72c71591e0f21c5b51013b5d9629987", "is_disabled": 0, "rental_uris": {"android": "https://dc.lft.to/lastmile_qr_scan", "ios": "https://dc.lft.to/lastmile_qr_scan"}, "fusion_lon": 0.0, "lat": 38.92424483333333, "bike_id": "c72c71591e0f21c5b51013b5d9629987", "type": "electric_scooter", "is_reserved": 0, "lon": -77.0200955}, {"fusion_lat": 0.0, "name": "cda6369b6cfb0cbb0339864ffdfbe6cf", "is_disabled": 0, "rental_uris": {"android": "https://dc.lft.to/lastmile_qr_scan", "ios": "https://dc.lft.to/lastmile_qr_scan"}, "fusion_lon": 0.0, "lat": 38.93801916666666, "bike_id": "cda6369b6cfb0cbb0339864ffdfbe6cf", "type": "electric_scooter", "is_reserved": 0, "lon": -77.06859633333333}, {"fusion_lat": 0.0, "name": "828465529d76af1662b8b085cd78c56e", "is_disabled": 0, "rental_uris": {"android": "https://dc.lft.to/lastmile_qr_scan", "ios": "https://dc.lft.to/lastmile_qr_scan"}, "fusion_lon": 0.0, "lat": 38.92359666666667, "bike_id": "828465529d76af1662b8b085cd78c56e", "type": "electric_scooter", "is_reserved": 0, "lon": -77.01945883333333}, {"fusion_lat": 0.0, "name": "8167c06accb1f3aaa36d63551aba5119", "is_disabled": 0, "rental_uris": {"android": "https://dc.lft.to/lastmile_qr_scan", "ios": "https://dc.lft.to/lastmile_qr_scan"}, "fusion_lon": 0.0, "lat": 38.907652666666664, "bike_id": "8167c06accb1f3aaa36d63551aba5119", "type": "electric_scooter", "is_reserved": 0, "lon": -77.03210216666666}, {"fusion_lat": 0.0, "name": "49cdd78f72dc409cfad6729c396a7e3b", "is_disabled": 0, "rental_uris": {"android": "https://dc.lft.to/lastmile_qr_scan", "ios": "https://dc.lft.to/lastmile_qr_scan"}, "fusion_lon": 0.0, "lat": 38.9422175, "bike_id": "49cdd78f72dc409cfad6729c396a7e3b", "type": "electric_scooter", "is_reserved": 0, "lon": -77.02339033333334}, {"fusion_lat": 0.0, "name": "03d036c6b555765dc5dcca346cf124de", "is_disabled": 0, "rental_uris": {"android": "https://dc.lft.to/lastmile_qr_scan", "ios": "https://dc.lft.to/lastmile_qr_scan"}, "fusion_lon": 0.0, "lat": 38.90977866666667, "bike_id": "03d036c6b555765dc5dcca346cf124de", "type": "electric_scooter", "is_reserved": 0, "lon": -77.023977}, {"fusion_lat": 0.0, "name": "1830af3f75aebf777043079d416ae9e8", "is_disabled": 0, "rental_uris": {"android": "https://dc.lft.to/lastmile_qr_scan", "ios": "https://dc.lft.to/lastmile_qr_scan"}, "fusion_lon": 0.0, "lat": 38.93042966666667, "bike_id": "1830af3f75aebf777043079d416ae9e8", "type": "electric_scooter", "is_reserved": 0, "lon": -77.04067}, {"fusion_lat": 0.0, "name": "d4267e121e4b82eed741dbfe35312896", "is_disabled": 0, "rental_uris": {"android": "https://dc.lft.to/lastmile_qr_scan", "ios": "https://dc.lft.to/lastmile_qr_scan"}, "fusion_lon": 0.0, "lat": 38.900110833333336, "bike_id": "d4267e121e4b82eed741dbfe35312896", "type": "electric_scooter", "is_reserved": 0, "lon": -77.026146}, {"fusion_lat": 0.0, "name": "4afc088c1cdeba79a00e15414085db08", "is_disabled": 0, "rental_uris": {"android": "https://dc.lft.to/lastmile_qr_scan", "ios": "https://dc.lft.to/lastmile_qr_scan"}, "fusion_lon": 0.0, "lat": 38.886630333333336, "bike_id": "4afc088c1cdeba79a00e15414085db08", "type": "electric_scooter", "is_reserved": 0, "lon": -77.02826333333333}, {"fusion_lat": 0.0, "name": "c542406a92bc191d86ad1fd9002677be", "is_disabled": 0, "rental_uris": {"android": "https://dc.lft.to/lastmile_qr_scan", "ios": "https://dc.lft.to/lastmile_qr_scan"}, "fusion_lon": 0.0, "lat": 38.901441, "bike_id": "c542406a92bc191d86ad1fd9002677be", "type": "electric_scooter", "is_reserved": 0, "lon": -77.033228}, {"fusion_lat": 0.0, "name": "4aca57a1de7f52765594e55c743b746c", "is_disabled": 0, "rental_uris": {"android": "https://dc.lft.to/lastmile_qr_scan", "ios": "https://dc.lft.to/lastmile_qr_scan"}, "fusion_lon": 0.0, "lat": 38.917663, "bike_id": "4aca57a1de7f52765594e55c743b746c", "type": "electric_scooter", "is_reserved": 0, "lon": -77.02409483333334}, {"fusion_lat": 0.0, "name": "999df41de1d73745c94d45b0f970cc1b", "is_disabled": 0, "rental_uris": {"android": "https://dc.lft.to/lastmile_qr_scan", "ios": "https://dc.lft.to/lastmile_qr_scan"}, "fusion_lon": 0.0, "lat": 38.93558933333333, "bike_id": "999df41de1d73745c94d45b0f970cc1b", "type": "electric_scooter", "is_reserved": 0, "lon": -77.0348835}, {"fusion_lat": 0.0, "name": "f166b126e9c01d37024d1375878fa340", "is_disabled": 0, "rental_uris": {"android": "https://dc.lft.to/lastmile_qr_scan", "ios": "https://dc.lft.to/lastmile_qr_scan"}, "fusion_lon": 0.0, "lat": 38.881522, "bike_id": "f166b126e9c01d37024d1375878fa340", "type": "electric_scooter", "is_reserved": 0, "lon": -77.02757183333334}, {"fusion_lat": 0.0, "name": "864d30c8bdbb9e8e8ed3690d6d4cc937", "is_disabled": 0, "rental_uris": {"android": "https://dc.lft.to/lastmile_qr_scan", "ios": "https://dc.lft.to/lastmile_qr_scan"}, "fusion_lon": 0.0, "lat": 38.862573, "bike_id": "864d30c8bdbb9e8e8ed3690d6d4cc937", "type": "electric_bike", "is_reserved": 0, "lon": -76.98351733333334}, {"fusion_lat": 0.0, "name": "c833a77c150e96594414560d4efd2f7d", "is_disabled": 0, "rental_uris": {"android": "https://dc.lft.to/lastmile_qr_scan", "ios": "https://dc.lft.to/lastmile_qr_scan"}, "fusion_lon": 0.0, "lat": 38.9314465, "bike_id": "c833a77c150e96594414560d4efd2f7d", "type": "electric_scooter", "is_reserved": 0, "lon": -77.03830916666666}, {"fusion_lat": 0.0, "name": "64cd7d0f31e01ac415e83f6a4801f09a", "is_disabled": 0, "rental_uris": {"android": "https://dc.lft.to/lastmile_qr_scan", "ios": "https://dc.lft.to/lastmile_qr_scan"}, "fusion_lon": 0.0, "lat": 38.930503, "bike_id": "64cd7d0f31e01ac415e83f6a4801f09a", "type": "electric_scooter", "is_reserved": 0, "lon": -77.03617966666667}, {"fusion_lat": 0.0, "name": "e60eb43f16a4e0007af4f82466122643", "is_disabled": 0, "rental_uris": {"android": "https://dc.lft.to/lastmile_qr_scan", "ios": "https://dc.lft.to/lastmile_qr_scan"}, "fusion_lon": 0.0, "lat": 38.87178866666667, "bike_id": "e60eb43f16a4e0007af4f82466122643", "type": "electric_scooter", "is_reserved": 0, "lon": -77.00617166666666}, {"fusion_lat": 0.0, "name": "074ca8a9cd8a0aca768e06c146243bef", "is_disabled": 0, "rental_uris": {"android": "https://dc.lft.to/lastmile_qr_scan", "ios": "https://dc.lft.to/lastmile_qr_scan"}, "fusion_lon": 0.0, "lat": 38.942075, "bike_id": "074ca8a9cd8a0aca768e06c146243bef", "type": "electric_bike", "is_reserved": 0, "lon": -77.01829266666667}, {"fusion_lat": 0.0, "name": "3ec73f0c2dd7ccf4686fe59d9e22205a", "is_disabled": 0, "rental_uris": {"android": "https://dc.lft.to/lastmile_qr_scan", "ios": "https://dc.lft.to/lastmile_qr_scan"}, "fusion_lon": 0.0, "lat": 38.90561266666667, "bike_id": "3ec73f0c2dd7ccf4686fe59d9e22205a", "type": "electric_scooter", "is_reserved": 0, "lon": -77.01313433333333}, {"fusion_lat": 0.0, "name": "bbf38c859ef74a42b9892ad82da106a0", "is_disabled": 0, "rental_uris": {"android": "https://dc.lft.to/lastmile_qr_scan", "ios": "https://dc.lft.to/lastmile_qr_scan"}, "fusion_lon": 0.0, "lat": 38.9058185, "bike_id": "bbf38c859ef74a42b9892ad82da106a0", "type": "electric_scooter", "is_reserved": 0, "lon": -77.0050215}, {"fusion_lat": 0.0, "name": "dceb6d62f8a46856c3c4eb94c095760d", "is_disabled": 0, "rental_uris": {"android": "https://dc.lft.to/lastmile_qr_scan", "ios": "https://dc.lft.to/lastmile_qr_scan"}, "fusion_lon": 0.0, "lat": 38.85796833333333, "bike_id": "dceb6d62f8a46856c3c4eb94c095760d", "type": "electric_bike", "is_reserved": 0, "lon": -77.120149}, {"fusion_lat": 0.0, "name": "b328eace08adb6e351a3339d0f52f076", "is_disabled": 0, "rental_uris": {"android": "https://dc.lft.to/lastmile_qr_scan", "ios": "https://dc.lft.to/lastmile_qr_scan"}, "fusion_lon": 0.0, "lat": 38.91123366666667, "bike_id": "b328eace08adb6e351a3339d0f52f076", "type": "electric_scooter", "is_reserved": 0, "lon": -77.02199833333333}, {"fusion_lat": 0.0, "name": "2a6bf4962410f2683c672195d961bfaf", "is_disabled": 0, "rental_uris": {"android": "https://dc.lft.to/lastmile_qr_scan", "ios": "https://dc.lft.to/lastmile_qr_scan"}, "fusion_lon": 0.0, "lat": 38.93061383333333, "bike_id": "2a6bf4962410f2683c672195d961bfaf", "type": "electric_scooter", "is_reserved": 0, "lon": -77.029789}, {"fusion_lat": 0.0, "name": "578b38ddd2192ad8c49fdace3ade96e4", "is_disabled": 0, "rental_uris": {"android": "https://dc.lft.to/lastmile_qr_scan", "ios": "https://dc.lft.to/lastmile_qr_scan"}, "fusion_lon": 0.0, "lat": 38.9324495, "bike_id": "578b38ddd2192ad8c49fdace3ade96e4", "type": "electric_scooter", "is_reserved": 0, "lon": -77.02854016666667}, {"fusion_lat": 0.0, "name": "48a53b5c83630f6cabab987a7678bd50", "is_disabled": 0, "rental_uris": {"android": "https://dc.lft.to/lastmile_qr_scan", "ios": "https://dc.lft.to/lastmile_qr_scan"}, "fusion_lon": 0.0, "lat": 38.89221116666667, "bike_id": "48a53b5c83630f6cabab987a7678bd50", "type": "electric_scooter", "is_reserved": 0, "lon": -77.039976}, {"fusion_lat": 0.0, "name": "4a539b378ca1034cf5ecab2bb8523439", "is_disabled": 0, "rental_uris": {"android": "https://dc.lft.to/lastmile_qr_scan", "ios": "https://dc.lft.to/lastmile_qr_scan"}, "fusion_lon": 0.0, "lat": 38.899964833333335, "bike_id": "4a539b378ca1034cf5ecab2bb8523439", "type": "electric_scooter", "is_reserved": 0, "lon": -77.02214466666666}, {"fusion_lat": 0.0, "name": "c7139246b712fd0efb5462c376e38c01", "is_disabled": 0, "rental_uris": {"android": "https://dc.lft.to/lastmile_qr_scan", "ios": "https://dc.lft.to/lastmile_qr_scan"}, "fusion_lon": 0.0, "lat": 38.90460383333333, "bike_id": "c7139246b712fd0efb5462c376e38c01", "type": "electric_scooter", "is_reserved": 0, "lon": -77.05120966666667}, {"fusion_lat": 0.0, "name": "1a4e9f1df8989e4ed9887def43b3ecae", "is_disabled": 0, "rental_uris": {"android": "https://dc.lft.to/lastmile_qr_scan", "ios": "https://dc.lft.to/lastmile_qr_scan"}, "fusion_lon": 0.0, "lat": 38.9201195, "bike_id": "1a4e9f1df8989e4ed9887def43b3ecae", "type": "electric_scooter", "is_reserved": 0, "lon": -77.02182966666666}, {"fusion_lat": 0.0, "name": "38fc813ea77ec60d976ab96857135253", "is_disabled": 0, "rental_uris": {"android": "https://dc.lft.to/lastmile_qr_scan", "ios": "https://dc.lft.to/lastmile_qr_scan"}, "fusion_lon": 0.0, "lat": 38.896300833333335, "bike_id": "38fc813ea77ec60d976ab96857135253", "type": "electric_scooter", "is_reserved": 0, "lon": -77.03379633333333}, {"fusion_lat": 0.0, "name": "3fe624b988a643fcd0c9cb35d2bae86c", "is_disabled": 0, "rental_uris": {"android": "https://dc.lft.to/lastmile_qr_scan", "ios": "https://dc.lft.to/lastmile_qr_scan"}, "fusion_lon": 0.0, "lat": 38.9071225, "bike_id": "3fe624b988a643fcd0c9cb35d2bae86c", "type": "electric_scooter", "is_reserved": 0, "lon": -77.05135466666667}, {"fusion_lat": 0.0, "name": "e013eefcd0f3cac861cf7655c59beb2c", "is_disabled": 0, "rental_uris": {"android": "https://dc.lft.to/lastmile_qr_scan", "ios": "https://dc.lft.to/lastmile_qr_scan"}, "fusion_lon": 0.0, "lat": 38.93304633333333, "bike_id": "e013eefcd0f3cac861cf7655c59beb2c", "type": "electric_scooter", "is_reserved": 0, "lon": -77.0308815}, {"fusion_lat": 0.0, "name": "f6518fe8c1c30a4e442b114941ebd72e", "is_disabled": 0, "rental_uris": {"android": "https://dc.lft.to/lastmile_qr_scan", "ios": "https://dc.lft.to/lastmile_qr_scan"}, "fusion_lon": 0.0, "lat": 38.904124, "bike_id": "f6518fe8c1c30a4e442b114941ebd72e", "type": "electric_scooter", "is_reserved": 0, "lon": -76.97333183333333}, {"fusion_lat": 0.0, "name": "3165b458175e0e5d6a8337a9717b39f1", "is_disabled": 0, "rental_uris": {"android": "https://dc.lft.to/lastmile_qr_scan", "ios": "https://dc.lft.to/lastmile_qr_scan"}, "fusion_lon": 0.0, "lat": 38.905912666666666, "bike_id": "3165b458175e0e5d6a8337a9717b39f1", "type": "electric_scooter", "is_reserved": 0, "lon": -77.038713}, {"fusion_lat": 0.0, "name": "34138fa13d9caf981a87cd30a418caaf", "is_disabled": 0, "rental_uris": {"android": "https://dc.lft.to/lastmile_qr_scan", "ios": "https://dc.lft.to/lastmile_qr_scan"}, "fusion_lon": 0.0, "lat": 38.89883416666667, "bike_id": "34138fa13d9caf981a87cd30a418caaf", "type": "electric_scooter", "is_reserved": 0, "lon": -77.04154033333333}, {"fusion_lat": 0.0, "name": "779bfea892b6f7df176921e020acd2f5", "is_disabled": 0, "rental_uris": {"android": "https://dc.lft.to/lastmile_qr_scan", "ios": "https://dc.lft.to/lastmile_qr_scan"}, "fusion_lon": 0.0, "lat": 38.86214983333333, "bike_id": "779bfea892b6f7df176921e020acd2f5", "type": "electric_bike", "is_reserved": 0, "lon": -76.99546566666666}, {"fusion_lat": 0.0, "name": "ed01e41b9b701fcde4072e8aa769282c", "is_disabled": 0, "rental_uris": {"android": "https://dc.lft.to/lastmile_qr_scan", "ios": "https://dc.lft.to/lastmile_qr_scan"}, "fusion_lon": 0.0, "lat": 38.877636333333335, "bike_id": "ed01e41b9b701fcde4072e8aa769282c", "type": "electric_scooter", "is_reserved": 0, "lon": -76.993823}, {"fusion_lat": 0.0, "name": "380fc526a58f048b1063efd0f00f0d50", "is_disabled": 0, "rental_uris": {"android": "https://dc.lft.to/lastmile_qr_scan", "ios": "https://dc.lft.to/lastmile_qr_scan"}, "fusion_lon": 0.0, "lat": 38.92256283333333, "bike_id": "380fc526a58f048b1063efd0f00f0d50", "type": "electric_scooter", "is_reserved": 0, "lon": -77.0184275}, {"fusion_lat": 0.0, "name": "7df1aeb8eedba4abb4816e649aff64e2", "is_disabled": 0, "rental_uris": {"android": "https://dc.lft.to/lastmile_qr_scan", "ios": "https://dc.lft.to/lastmile_qr_scan"}, "fusion_lon": 0.0, "lat": 38.89205833333333, "bike_id": "7df1aeb8eedba4abb4816e649aff64e2", "type": "electric_scooter", "is_reserved": 0, "lon": -76.977067}, {"fusion_lat": 0.0, "name": "3212c8573aac5b063c7378dd1aa2c243", "is_disabled": 0, "rental_uris": {"android": "https://dc.lft.to/lastmile_qr_scan", "ios": "https://dc.lft.to/lastmile_qr_scan"}, "fusion_lon": 0.0, "lat": 38.903807, "bike_id": "3212c8573aac5b063c7378dd1aa2c243", "type": "electric_scooter", "is_reserved": 0, "lon": -77.007541}, {"fusion_lat": 0.0, "name": "d872edbdf50e2ef66baa7b864273b23f", "is_disabled": 0, "rental_uris": {"android": "https://dc.lft.to/lastmile_qr_scan", "ios": "https://dc.lft.to/lastmile_qr_scan"}, "fusion_lon": 0.0, "lat": 38.9132595, "bike_id": "d872edbdf50e2ef66baa7b864273b23f", "type": "electric_scooter", "is_reserved": 0, "lon": -77.03191716666667}, {"fusion_lat": 0.0, "name": "25e58a3fc27d2aca7aad4a2162733bd2", "is_disabled": 0, "rental_uris": {"android": "https://dc.lft.to/lastmile_qr_scan", "ios": "https://dc.lft.to/lastmile_qr_scan"}, "fusion_lon": 0.0, "lat": 38.892584666666664, "bike_id": "25e58a3fc27d2aca7aad4a2162733bd2", "type": "electric_bike", "is_reserved": 0, "lon": -76.95115666666666}, {"fusion_lat": 0.0, "name": "27e3957f510a3f8c155f4cc6ae07e4e7", "is_disabled": 0, "rental_uris": {"android": "https://dc.lft.to/lastmile_qr_scan", "ios": "https://dc.lft.to/lastmile_qr_scan"}, "fusion_lon": 0.0, "lat": 38.92464116666667, "bike_id": "27e3957f510a3f8c155f4cc6ae07e4e7", "type": "electric_scooter", "is_reserved": 0, "lon": -77.08032733333333}, {"fusion_lat": 0.0, "name": "7ee8afd30eb102413abb14191b6d8b5e", "is_disabled": 0, "rental_uris": {"android": "https://dc.lft.to/lastmile_qr_scan", "ios": "https://dc.lft.to/lastmile_qr_scan"}, "fusion_lon": 0.0, "lat": 38.9050855, "bike_id": "7ee8afd30eb102413abb14191b6d8b5e", "type": "electric_scooter", "is_reserved": 0, "lon": -77.05745816666666}, {"fusion_lat": 0.0, "name": "973169b26d3259c3c6e0eae19dd72084", "is_disabled": 0, "rental_uris": {"android": "https://dc.lft.to/lastmile_qr_scan", "ios": "https://dc.lft.to/lastmile_qr_scan"}, "fusion_lon": 0.0, "lat": 38.967316333333336, "bike_id": "973169b26d3259c3c6e0eae19dd72084", "type": "electric_scooter", "is_reserved": 0, "lon": -77.00917816666667}, {"fusion_lat": 0.0, "name": "a6a72e11afcccdc6deeaf4176a095674", "is_disabled": 0, "rental_uris": {"android": "https://dc.lft.to/lastmile_qr_scan", "ios": "https://dc.lft.to/lastmile_qr_scan"}, "fusion_lon": 0.0, "lat": 38.952542666666666, "bike_id": "a6a72e11afcccdc6deeaf4176a095674", "type": "electric_scooter", "is_reserved": 0, "lon": -77.02382133333333}, {"fusion_lat": 0.0, "name": "8c0bfa9566addec09397886be55fcfba", "is_disabled": 0, "rental_uris": {"android": "https://dc.lft.to/lastmile_qr_scan", "ios": "https://dc.lft.to/lastmile_qr_scan"}, "fusion_lon": 0.0, "lat": 38.8935095, "bike_id": "8c0bfa9566addec09397886be55fcfba", "type": "electric_scooter", "is_reserved": 0, "lon": -77.000681}, {"fusion_lat": 0.0, "name": "95511debb0f439dc1b39a96310b5406c", "is_disabled": 0, "rental_uris": {"android": "https://dc.lft.to/lastmile_qr_scan", "ios": "https://dc.lft.to/lastmile_qr_scan"}, "fusion_lon": 0.0, "lat": 38.905608666666666, "bike_id": "95511debb0f439dc1b39a96310b5406c", "type": "electric_scooter", "is_reserved": 0, "lon": -77.04293283333334}, {"fusion_lat": 0.0, "name": "cedec6687000bcbd3055363be0c70b0b", "is_disabled": 0, "rental_uris": {"android": "https://dc.lft.to/lastmile_qr_scan", "ios": "https://dc.lft.to/lastmile_qr_scan"}, "fusion_lon": 0.0, "lat": 38.91360683333333, "bike_id": "cedec6687000bcbd3055363be0c70b0b", "type": "electric_scooter", "is_reserved": 0, "lon": -77.02048433333333}, {"fusion_lat": 0.0, "name": "dcc0082186bf27b967b011d02e45026c", "is_disabled": 0, "rental_uris": {"android": "https://dc.lft.to/lastmile_qr_scan", "ios": "https://dc.lft.to/lastmile_qr_scan"}, "fusion_lon": 0.0, "lat": 38.8963475, "bike_id": "dcc0082186bf27b967b011d02e45026c", "type": "electric_scooter", "is_reserved": 0, "lon": -77.0267415}, {"fusion_lat": 0.0, "name": "7d9f15b2e6eaa9e134be3a92df37c11e", "is_disabled": 0, "rental_uris": {"android": "https://dc.lft.to/lastmile_qr_scan", "ios": "https://dc.lft.to/lastmile_qr_scan"}, "fusion_lon": 0.0, "lat": 38.91921816666667, "bike_id": "7d9f15b2e6eaa9e134be3a92df37c11e", "type": "electric_scooter", "is_reserved": 0, "lon": -77.02618383333333}, {"fusion_lat": 0.0, "name": "97ea1908d8bd4e45f59069851e8aec5a", "is_disabled": 0, "rental_uris": {"android": "https://dc.lft.to/lastmile_qr_scan", "ios": "https://dc.lft.to/lastmile_qr_scan"}, "fusion_lon": 0.0, "lat": 38.91149016666667, "bike_id": "97ea1908d8bd4e45f59069851e8aec5a", "type": "electric_scooter", "is_reserved": 0, "lon": -77.0246995}, {"fusion_lat": 0.0, "name": "a26e544bb23fca94d8b63e62d97ffd13", "is_disabled": 0, "rental_uris": {"android": "https://dc.lft.to/lastmile_qr_scan", "ios": "https://dc.lft.to/lastmile_qr_scan"}, "fusion_lon": 0.0, "lat": 38.88320216666666, "bike_id": "a26e544bb23fca94d8b63e62d97ffd13", "type": "electric_scooter", "is_reserved": 0, "lon": -77.018506}, {"fusion_lat": 0.0, "name": "5659923a868b85b91dfa6ac7c1f81815", "is_disabled": 0, "rental_uris": {"android": "https://dc.lft.to/lastmile_qr_scan", "ios": "https://dc.lft.to/lastmile_qr_scan"}, "fusion_lon": 0.0, "lat": 38.9155165, "bike_id": "5659923a868b85b91dfa6ac7c1f81815", "type": "electric_scooter", "is_reserved": 0, "lon": -77.01202666666667}, {"fusion_lat": 0.0, "name": "8b0b1e3d68e491d2555727db5bea304e", "is_disabled": 0, "rental_uris": {"android": "https://dc.lft.to/lastmile_qr_scan", "ios": "https://dc.lft.to/lastmile_qr_scan"}, "fusion_lon": 0.0, "lat": 38.89784816666667, "bike_id": "8b0b1e3d68e491d2555727db5bea304e", "type": "electric_scooter", "is_reserved": 0, "lon": -77.033459}, {"fusion_lat": 0.0, "name": "3b9f13cd80aff36533b7cb50e64e4ab6", "is_disabled": 0, "rental_uris": {"android": "https://dc.lft.to/lastmile_qr_scan", "ios": "https://dc.lft.to/lastmile_qr_scan"}, "fusion_lon": 0.0, "lat": 38.9057185, "bike_id": "3b9f13cd80aff36533b7cb50e64e4ab6", "type": "electric_scooter", "is_reserved": 0, "lon": -77.038453}, {"fusion_lat": 0.0, "name": "cd82d169ab61d4c7b4afe2f5853e76a8", "is_disabled": 0, "rental_uris": {"android": "https://dc.lft.to/lastmile_qr_scan", "ios": "https://dc.lft.to/lastmile_qr_scan"}, "fusion_lon": 0.0, "lat": 38.915921, "bike_id": "cd82d169ab61d4c7b4afe2f5853e76a8", "type": "electric_scooter", "is_reserved": 0, "lon": -77.03199916666667}, {"fusion_lat": 0.0, "name": "52f3aa3b554cc0877a0a44c87aecee35", "is_disabled": 0, "rental_uris": {"android": "https://dc.lft.to/lastmile_qr_scan", "ios": "https://dc.lft.to/lastmile_qr_scan"}, "fusion_lon": 0.0, "lat": 38.930801, "bike_id": "52f3aa3b554cc0877a0a44c87aecee35", "type": "electric_scooter", "is_reserved": 0, "lon": -77.07762766666667}, {"fusion_lat": 0.0, "name": "e13b5ca8e8bd6ea22ce50f38d4f3032c", "is_disabled": 0, "rental_uris": {"android": "https://dc.lft.to/lastmile_qr_scan", "ios": "https://dc.lft.to/lastmile_qr_scan"}, "fusion_lon": 0.0, "lat": 38.90062783333333, "bike_id": "e13b5ca8e8bd6ea22ce50f38d4f3032c", "type": "electric_scooter", "is_reserved": 0, "lon": -77.04543166666667}, {"fusion_lat": 0.0, "name": "0c151e95cd923b9ce783351b0e7511a6", "is_disabled": 0, "rental_uris": {"android": "https://dc.lft.to/lastmile_qr_scan", "ios": "https://dc.lft.to/lastmile_qr_scan"}, "fusion_lon": 0.0, "lat": 38.9040925, "bike_id": "0c151e95cd923b9ce783351b0e7511a6", "type": "electric_scooter", "is_reserved": 0, "lon": -76.97333183333333}, {"fusion_lat": 0.0, "name": "c2e3a6b295f503d5fe0ac751bdda63c4", "is_disabled": 0, "rental_uris": {"android": "https://dc.lft.to/lastmile_qr_scan", "ios": "https://dc.lft.to/lastmile_qr_scan"}, "fusion_lon": 0.0, "lat": 38.9072975, "bike_id": "c2e3a6b295f503d5fe0ac751bdda63c4", "type": "electric_scooter", "is_reserved": 0, "lon": -77.01227716666666}, {"fusion_lat": 0.0, "name": "135fb2cef65bcb8ab922f7f24a3df38b", "is_disabled": 0, "rental_uris": {"android": "https://dc.lft.to/lastmile_qr_scan", "ios": "https://dc.lft.to/lastmile_qr_scan"}, "fusion_lon": 0.0, "lat": 38.90147733333333, "bike_id": "135fb2cef65bcb8ab922f7f24a3df38b", "type": "electric_scooter", "is_reserved": 0, "lon": -77.03326883333334}, {"fusion_lat": 0.0, "name": "4314c158881c3b43eafb4da120a2386d", "is_disabled": 0, "rental_uris": {"android": "https://dc.lft.to/lastmile_qr_scan", "ios": "https://dc.lft.to/lastmile_qr_scan"}, "fusion_lon": 0.0, "lat": 38.9025835, "bike_id": "4314c158881c3b43eafb4da120a2386d", "type": "electric_scooter", "is_reserved": 0, "lon": -76.97450166666667}, {"fusion_lat": 0.0, "name": "3d5b69b97da88ff286ab9d4bf2bcd60a", "is_disabled": 0, "rental_uris": {"android": "https://dc.lft.to/lastmile_qr_scan", "ios": "https://dc.lft.to/lastmile_qr_scan"}, "fusion_lon": 0.0, "lat": 38.95629733333333, "bike_id": "3d5b69b97da88ff286ab9d4bf2bcd60a", "type": "electric_scooter", "is_reserved": 0, "lon": -77.02317083333334}, {"fusion_lat": 0.0, "name": "57d68ccdd8f11a7d0d9c16ceefff99d8", "is_disabled": 0, "rental_uris": {"android": "https://dc.lft.to/lastmile_qr_scan", "ios": "https://dc.lft.to/lastmile_qr_scan"}, "fusion_lon": 0.0, "lat": 38.952358333333336, "bike_id": "57d68ccdd8f11a7d0d9c16ceefff99d8", "type": "electric_scooter", "is_reserved": 0, "lon": -76.9900915}, {"fusion_lat": 0.0, "name": "3f989ab8dcb343d1b1caeba227b06274", "is_disabled": 0, "rental_uris": {"android": "https://dc.lft.to/lastmile_qr_scan", "ios": "https://dc.lft.to/lastmile_qr_scan"}, "fusion_lon": 0.0, "lat": 38.860215, "bike_id": "3f989ab8dcb343d1b1caeba227b06274", "type": "electric_bike", "is_reserved": 0, "lon": -77.12804483333333}, {"fusion_lat": 0.0, "name": "0a15eee9df555ec0b705db8330b97bc9", "is_disabled": 0, "rental_uris": {"android": "https://dc.lft.to/lastmile_qr_scan", "ios": "https://dc.lft.to/lastmile_qr_scan"}, "fusion_lon": 0.0, "lat": 38.92097366666667, "bike_id": "0a15eee9df555ec0b705db8330b97bc9", "type": "electric_scooter", "is_reserved": 0, "lon": -77.02393283333333}, {"fusion_lat": 0.0, "name": "ea20d0bc9f6190a857f9e124201a635d", "is_disabled": 0, "rental_uris": {"android": "https://dc.lft.to/lastmile_qr_scan", "ios": "https://dc.lft.to/lastmile_qr_scan"}, "fusion_lon": 0.0, "lat": 38.90404066666667, "bike_id": "ea20d0bc9f6190a857f9e124201a635d", "type": "electric_scooter", "is_reserved": 0, "lon": -77.0206535}, {"fusion_lat": 0.0, "name": "ddc2d5066ceaed4b658f145eeb5a7d9a", "is_disabled": 0, "rental_uris": {"android": "https://dc.lft.to/lastmile_qr_scan", "ios": "https://dc.lft.to/lastmile_qr_scan"}, "fusion_lon": 0.0, "lat": 38.89234533333333, "bike_id": "ddc2d5066ceaed4b658f145eeb5a7d9a", "type": "electric_scooter", "is_reserved": 0, "lon": -77.0171045}, {"fusion_lat": 0.0, "name": "d03e4e4c7467b80d137fba26ae80ed18", "is_disabled": 0, "rental_uris": {"android": "https://dc.lft.to/lastmile_qr_scan", "ios": "https://dc.lft.to/lastmile_qr_scan"}, "fusion_lon": 0.0, "lat": 38.8861585, "bike_id": "d03e4e4c7467b80d137fba26ae80ed18", "type": "electric_scooter", "is_reserved": 0, "lon": -77.01556533333333}, {"fusion_lat": 0.0, "name": "2fcfe70c3846625ef5c4b9339a9eb94e", "is_disabled": 0, "rental_uris": {"android": "https://dc.lft.to/lastmile_qr_scan", "ios": "https://dc.lft.to/lastmile_qr_scan"}, "fusion_lon": 0.0, "lat": 38.854700666666666, "bike_id": "2fcfe70c3846625ef5c4b9339a9eb94e", "type": "electric_scooter", "is_reserved": 0, "lon": -76.97235783333333}, {"fusion_lat": 0.0, "name": "3ff21258fdc469e7465f3bff84ebd522", "is_disabled": 0, "rental_uris": {"android": "https://dc.lft.to/lastmile_qr_scan", "ios": "https://dc.lft.to/lastmile_qr_scan"}, "fusion_lon": 0.0, "lat": 38.887348, "bike_id": "3ff21258fdc469e7465f3bff84ebd522", "type": "electric_scooter", "is_reserved": 0, "lon": -76.99491466666667}, {"fusion_lat": 0.0, "name": "6fe0cd5cda6d7e9ae155e44eff6c07fa", "is_disabled": 0, "rental_uris": {"android": "https://dc.lft.to/lastmile_qr_scan", "ios": "https://dc.lft.to/lastmile_qr_scan"}, "fusion_lon": 0.0, "lat": 38.9285125, "bike_id": "6fe0cd5cda6d7e9ae155e44eff6c07fa", "type": "electric_scooter", "is_reserved": 0, "lon": -77.02439766666667}, {"fusion_lat": 0.0, "name": "57b4d1e9b9df88d7e8ef3640410bc4ce", "is_disabled": 0, "rental_uris": {"android": "https://dc.lft.to/lastmile_qr_scan", "ios": "https://dc.lft.to/lastmile_qr_scan"}, "fusion_lon": 0.0, "lat": 38.9212995, "bike_id": "57b4d1e9b9df88d7e8ef3640410bc4ce", "type": "electric_scooter", "is_reserved": 0, "lon": -77.009621}, {"fusion_lat": 0.0, "name": "7ff6aa4cc2bd65dedc66d5dfad7c0c5c", "is_disabled": 0, "rental_uris": {"android": "https://dc.lft.to/lastmile_qr_scan", "ios": "https://dc.lft.to/lastmile_qr_scan"}, "fusion_lon": 0.0, "lat": 38.887679, "bike_id": "7ff6aa4cc2bd65dedc66d5dfad7c0c5c", "type": "electric_scooter", "is_reserved": 0, "lon": -76.977505}, {"fusion_lat": 0.0, "name": "8ac0cf3735f833e9bac796dc19991684", "is_disabled": 0, "rental_uris": {"android": "https://dc.lft.to/lastmile_qr_scan", "ios": "https://dc.lft.to/lastmile_qr_scan"}, "fusion_lon": 0.0, "lat": 38.91015083333333, "bike_id": "8ac0cf3735f833e9bac796dc19991684", "type": "electric_scooter", "is_reserved": 0, "lon": -77.03852183333333}, {"fusion_lat": 0.0, "name": "13582ad4ef19a132380a2b9a65b08fd2", "is_disabled": 0, "rental_uris": {"android": "https://dc.lft.to/lastmile_qr_scan", "ios": "https://dc.lft.to/lastmile_qr_scan"}, "fusion_lon": 0.0, "lat": 38.8737275, "bike_id": "13582ad4ef19a132380a2b9a65b08fd2", "type": "electric_scooter", "is_reserved": 0, "lon": -77.00090833333333}, {"fusion_lat": 0.0, "name": "3d93f80f35cc0a53814a2e42e972b72b", "is_disabled": 0, "rental_uris": {"android": "https://dc.lft.to/lastmile_qr_scan", "ios": "https://dc.lft.to/lastmile_qr_scan"}, "fusion_lon": 0.0, "lat": 38.909744, "bike_id": "3d93f80f35cc0a53814a2e42e972b72b", "type": "electric_scooter", "is_reserved": 0, "lon": -77.00885083333333}, {"fusion_lat": 0.0, "name": "ef6bc57d058dd458192660061098f672", "is_disabled": 0, "rental_uris": {"android": "https://dc.lft.to/lastmile_qr_scan", "ios": "https://dc.lft.to/lastmile_qr_scan"}, "fusion_lon": 0.0, "lat": 38.91704333333333, "bike_id": "ef6bc57d058dd458192660061098f672", "type": "electric_scooter", "is_reserved": 0, "lon": -77.032006}, {"fusion_lat": 0.0, "name": "fee7491b61c29791185c6594ae9ef400", "is_disabled": 0, "rental_uris": {"android": "https://dc.lft.to/lastmile_qr_scan", "ios": "https://dc.lft.to/lastmile_qr_scan"}, "fusion_lon": 0.0, "lat": 38.9030755, "bike_id": "fee7491b61c29791185c6594ae9ef400", "type": "electric_scooter", "is_reserved": 0, "lon": -77.04468116666666}, {"fusion_lat": 0.0, "name": "3ea4361684d4cd66d2ec676975e88265", "is_disabled": 0, "rental_uris": {"android": "https://dc.lft.to/lastmile_qr_scan", "ios": "https://dc.lft.to/lastmile_qr_scan"}, "fusion_lon": 0.0, "lat": 38.95531416666667, "bike_id": "3ea4361684d4cd66d2ec676975e88265", "type": "electric_bike", "is_reserved": 0, "lon": -76.96821683333333}, {"fusion_lat": 0.0, "name": "cdd96b9e85124227ac77dacf10183dba", "is_disabled": 0, "rental_uris": {"android": "https://dc.lft.to/lastmile_qr_scan", "ios": "https://dc.lft.to/lastmile_qr_scan"}, "fusion_lon": 0.0, "lat": 38.91701666666667, "bike_id": "cdd96b9e85124227ac77dacf10183dba", "type": "electric_scooter", "is_reserved": 0, "lon": -77.04047616666666}, {"fusion_lat": 0.0, "name": "63ef727d6997b763b08920cdd79c4b31", "is_disabled": 0, "rental_uris": {"android": "https://dc.lft.to/lastmile_qr_scan", "ios": "https://dc.lft.to/lastmile_qr_scan"}, "fusion_lon": 0.0, "lat": 38.93117016666667, "bike_id": "63ef727d6997b763b08920cdd79c4b31", "type": "electric_scooter", "is_reserved": 0, "lon": -77.02099333333334}, {"fusion_lat": 0.0, "name": "0f7da373f6be363536ea4c322b8fdaab", "is_disabled": 0, "rental_uris": {"android": "https://dc.lft.to/lastmile_qr_scan", "ios": "https://dc.lft.to/lastmile_qr_scan"}, "fusion_lon": 0.0, "lat": 38.840901833333334, "bike_id": "0f7da373f6be363536ea4c322b8fdaab", "type": "electric_bike", "is_reserved": 0, "lon": -76.97029333333333}, {"fusion_lat": 0.0, "name": "1d42b41c90400e0bc00e031cec768136", "is_disabled": 0, "rental_uris": {"android": "https://dc.lft.to/lastmile_qr_scan", "ios": "https://dc.lft.to/lastmile_qr_scan"}, "fusion_lon": 0.0, "lat": 38.920056833333334, "bike_id": "1d42b41c90400e0bc00e031cec768136", "type": "electric_scooter", "is_reserved": 0, "lon": -77.07132283333334}, {"fusion_lat": 0.0, "name": "537073674190dc27d68a693c16a59d2c", "is_disabled": 0, "rental_uris": {"android": "https://dc.lft.to/lastmile_qr_scan", "ios": "https://dc.lft.to/lastmile_qr_scan"}, "fusion_lon": 0.0, "lat": 38.906031166666665, "bike_id": "537073674190dc27d68a693c16a59d2c", "type": "electric_scooter", "is_reserved": 0, "lon": -77.05691033333333}, {"fusion_lat": 0.0, "name": "b449385ead84e5cea4c0be00427d0d9a", "is_disabled": 0, "rental_uris": {"android": "https://dc.lft.to/lastmile_qr_scan", "ios": "https://dc.lft.to/lastmile_qr_scan"}, "fusion_lon": 0.0, "lat": 38.90016383333333, "bike_id": "b449385ead84e5cea4c0be00427d0d9a", "type": "electric_scooter", "is_reserved": 0, "lon": -77.000437}, {"fusion_lat": 0.0, "name": "5d3eb68d9e14bfa24358f6a0ee8d4c3b", "is_disabled": 0, "rental_uris": {"android": "https://dc.lft.to/lastmile_qr_scan", "ios": "https://dc.lft.to/lastmile_qr_scan"}, "fusion_lon": 0.0, "lat": 38.90639766666666, "bike_id": "5d3eb68d9e14bfa24358f6a0ee8d4c3b", "type": "electric_scooter", "is_reserved": 0, "lon": -77.01138}, {"fusion_lat": 0.0, "name": "a967c2cd4e618f0c93f3343abe72b95a", "is_disabled": 0, "rental_uris": {"android": "https://dc.lft.to/lastmile_qr_scan", "ios": "https://dc.lft.to/lastmile_qr_scan"}, "fusion_lon": 0.0, "lat": 38.9215325, "bike_id": "a967c2cd4e618f0c93f3343abe72b95a", "type": "electric_scooter", "is_reserved": 0, "lon": -77.03869266666666}, {"fusion_lat": 0.0, "name": "a00ac79f2ddcf1841ce32a5edc1b78a6", "is_disabled": 0, "rental_uris": {"android": "https://dc.lft.to/lastmile_qr_scan", "ios": "https://dc.lft.to/lastmile_qr_scan"}, "fusion_lon": 0.0, "lat": 38.938469, "bike_id": "a00ac79f2ddcf1841ce32a5edc1b78a6", "type": "electric_scooter", "is_reserved": 0, "lon": -77.06248583333333}, {"fusion_lat": 0.0, "name": "c6df8e3cdb8dcebcd6f32044240677f1", "is_disabled": 0, "rental_uris": {"android": "https://dc.lft.to/lastmile_qr_scan", "ios": "https://dc.lft.to/lastmile_qr_scan"}, "fusion_lon": 0.0, "lat": 38.90249766666667, "bike_id": "c6df8e3cdb8dcebcd6f32044240677f1", "type": "electric_scooter", "is_reserved": 0, "lon": -77.06098083333333}, {"fusion_lat": 0.0, "name": "c146d8695fdcb7f4bdcfdf9328dfb0e0", "is_disabled": 0, "rental_uris": {"android": "https://dc.lft.to/lastmile_qr_scan", "ios": "https://dc.lft.to/lastmile_qr_scan"}, "fusion_lon": 0.0, "lat": 38.89671216666667, "bike_id": "c146d8695fdcb7f4bdcfdf9328dfb0e0", "type": "electric_scooter", "is_reserved": 0, "lon": -76.932113}, {"fusion_lat": 0.0, "name": "2a22e562ed3e1878e104f59c1fedc8da", "is_disabled": 0, "rental_uris": {"android": "https://dc.lft.to/lastmile_qr_scan", "ios": "https://dc.lft.to/lastmile_qr_scan"}, "fusion_lon": 0.0, "lat": 38.90912733333333, "bike_id": "2a22e562ed3e1878e104f59c1fedc8da", "type": "electric_scooter", "is_reserved": 0, "lon": -77.04400683333333}, {"fusion_lat": 0.0, "name": "9cf0f8440b614572af4efa271025a73b", "is_disabled": 0, "rental_uris": {"android": "https://dc.lft.to/lastmile_qr_scan", "ios": "https://dc.lft.to/lastmile_qr_scan"}, "fusion_lon": 0.0, "lat": 38.871765833333335, "bike_id": "9cf0f8440b614572af4efa271025a73b", "type": "electric_scooter", "is_reserved": 0, "lon": -77.00618016666667}, {"fusion_lat": 0.0, "name": "f028401690d2d52835b84ba4507c4e03", "is_disabled": 0, "rental_uris": {"android": "https://dc.lft.to/lastmile_qr_scan", "ios": "https://dc.lft.to/lastmile_qr_scan"}, "fusion_lon": 0.0, "lat": 38.93484983333333, "bike_id": "f028401690d2d52835b84ba4507c4e03", "type": "electric_scooter", "is_reserved": 0, "lon": -77.045288}, {"fusion_lat": 0.0, "name": "c5ce632087a273b901693f340c41a22c", "is_disabled": 0, "rental_uris": {"android": "https://dc.lft.to/lastmile_qr_scan", "ios": "https://dc.lft.to/lastmile_qr_scan"}, "fusion_lon": 0.0, "lat": 38.9031235, "bike_id": "c5ce632087a273b901693f340c41a22c", "type": "electric_scooter", "is_reserved": 0, "lon": -76.97504233333333}, {"fusion_lat": 0.0, "name": "aa24eb3a61684db06e9794fb53742685", "is_disabled": 0, "rental_uris": {"android": "https://dc.lft.to/lastmile_qr_scan", "ios": "https://dc.lft.to/lastmile_qr_scan"}, "fusion_lon": 0.0, "lat": 38.892316666666666, "bike_id": "aa24eb3a61684db06e9794fb53742685", "type": "electric_scooter", "is_reserved": 0, "lon": -77.02410566666667}, {"fusion_lat": 0.0, "name": "3e93adb02ba75a0a82fcdd5cb374b234", "is_disabled": 0, "rental_uris": {"android": "https://dc.lft.to/lastmile_qr_scan", "ios": "https://dc.lft.to/lastmile_qr_scan"}, "fusion_lon": 0.0, "lat": 38.905522, "bike_id": "3e93adb02ba75a0a82fcdd5cb374b234", "type": "electric_scooter", "is_reserved": 0, "lon": -77.00232466666667}, {"fusion_lat": 0.0, "name": "403a000ab10616c21fc097ddb648bc76", "is_disabled": 0, "rental_uris": {"android": "https://dc.lft.to/lastmile_qr_scan", "ios": "https://dc.lft.to/lastmile_qr_scan"}, "fusion_lon": 0.0, "lat": 38.923896, "bike_id": "403a000ab10616c21fc097ddb648bc76", "type": "electric_scooter", "is_reserved": 0, "lon": -77.03053216666666}, {"fusion_lat": 0.0, "name": "3e740320a1adb2af2d702484fc377663", "is_disabled": 0, "rental_uris": {"android": "https://dc.lft.to/lastmile_qr_scan", "ios": "https://dc.lft.to/lastmile_qr_scan"}, "fusion_lon": 0.0, "lat": 38.924532166666665, "bike_id": "3e740320a1adb2af2d702484fc377663", "type": "electric_scooter", "is_reserved": 0, "lon": -77.02405}, {"fusion_lat": 0.0, "name": "227d0da4ffed35d701de8c1879a0c296", "is_disabled": 0, "rental_uris": {"android": "https://dc.lft.to/lastmile_qr_scan", "ios": "https://dc.lft.to/lastmile_qr_scan"}, "fusion_lon": 0.0, "lat": 38.91527683333333, "bike_id": "227d0da4ffed35d701de8c1879a0c296", "type": "electric_scooter", "is_reserved": 0, "lon": -77.07271366666667}, {"fusion_lat": 0.0, "name": "8ea489aef3382ad37d5aa00d3d42e4e4", "is_disabled": 0, "rental_uris": {"android": "https://dc.lft.to/lastmile_qr_scan", "ios": "https://dc.lft.to/lastmile_qr_scan"}, "fusion_lon": 0.0, "lat": 38.923455, "bike_id": "8ea489aef3382ad37d5aa00d3d42e4e4", "type": "electric_scooter", "is_reserved": 0, "lon": -77.02016016666667}, {"fusion_lat": 0.0, "name": "036e176d99f0d2ecd010f680efbe5be3", "is_disabled": 0, "rental_uris": {"android": "https://dc.lft.to/lastmile_qr_scan", "ios": "https://dc.lft.to/lastmile_qr_scan"}, "fusion_lon": 0.0, "lat": 38.857004833333335, "bike_id": "036e176d99f0d2ecd010f680efbe5be3", "type": "electric_scooter", "is_reserved": 0, "lon": -76.9959695}, {"fusion_lat": 0.0, "name": "22e9160fb562fd0b9d293ec54037f2ed", "is_disabled": 0, "rental_uris": {"android": "https://dc.lft.to/lastmile_qr_scan", "ios": "https://dc.lft.to/lastmile_qr_scan"}, "fusion_lon": 0.0, "lat": 38.9061525, "bike_id": "22e9160fb562fd0b9d293ec54037f2ed", "type": "electric_scooter", "is_reserved": 0, "lon": -77.0396785}, {"fusion_lat": 0.0, "name": "4428c197f9de5de713e706edd70d7c48", "is_disabled": 0, "rental_uris": {"android": "https://dc.lft.to/lastmile_qr_scan", "ios": "https://dc.lft.to/lastmile_qr_scan"}, "fusion_lon": 0.0, "lat": 38.881891, "bike_id": "4428c197f9de5de713e706edd70d7c48", "type": "electric_scooter", "is_reserved": 0, "lon": -77.02809983333333}, {"fusion_lat": 0.0, "name": "34005e4c247c04b0354a3632345eb04f", "is_disabled": 0, "rental_uris": {"android": "https://dc.lft.to/lastmile_qr_scan", "ios": "https://dc.lft.to/lastmile_qr_scan"}, "fusion_lon": 0.0, "lat": 38.889876666666666, "bike_id": "34005e4c247c04b0354a3632345eb04f", "type": "electric_scooter", "is_reserved": 0, "lon": -76.98415233333333}, {"fusion_lat": 0.0, "name": "cccc76f6aecd40ba853405dc86d50259", "is_disabled": 0, "rental_uris": {"android": "https://dc.lft.to/lastmile_qr_scan", "ios": "https://dc.lft.to/lastmile_qr_scan"}, "fusion_lon": 0.0, "lat": 38.9279485, "bike_id": "cccc76f6aecd40ba853405dc86d50259", "type": "electric_scooter", "is_reserved": 0, "lon": -77.05521533333334}, {"fusion_lat": 0.0, "name": "709802d7e2cbfa3b0a5c03822f6baba0", "is_disabled": 0, "rental_uris": {"android": "https://dc.lft.to/lastmile_qr_scan", "ios": "https://dc.lft.to/lastmile_qr_scan"}, "fusion_lon": 0.0, "lat": 38.916983333333334, "bike_id": "709802d7e2cbfa3b0a5c03822f6baba0", "type": "electric_scooter", "is_reserved": 0, "lon": -77.0377}, {"fusion_lat": 0.0, "name": "0b0bb41d10134b1f4f87d79ae93f141a", "is_disabled": 0, "rental_uris": {"android": "https://dc.lft.to/lastmile_qr_scan", "ios": "https://dc.lft.to/lastmile_qr_scan"}, "fusion_lon": 0.0, "lat": 38.92991416666667, "bike_id": "0b0bb41d10134b1f4f87d79ae93f141a", "type": "electric_scooter", "is_reserved": 0, "lon": -77.03232683333333}, {"fusion_lat": 0.0, "name": "44ac7d22202a00cb31f58a43a5db22b4", "is_disabled": 0, "rental_uris": {"android": "https://dc.lft.to/lastmile_qr_scan", "ios": "https://dc.lft.to/lastmile_qr_scan"}, "fusion_lon": 0.0, "lat": 38.90264466666667, "bike_id": "44ac7d22202a00cb31f58a43a5db22b4", "type": "electric_scooter", "is_reserved": 0, "lon": -77.043753}, {"fusion_lat": 0.0, "name": "c97467ec45faea8d4ae210f42ab522fb", "is_disabled": 0, "rental_uris": {"android": "https://dc.lft.to/lastmile_qr_scan", "ios": "https://dc.lft.to/lastmile_qr_scan"}, "fusion_lon": 0.0, "lat": 38.883268, "bike_id": "c97467ec45faea8d4ae210f42ab522fb", "type": "electric_scooter", "is_reserved": 0, "lon": -77.0137505}, {"fusion_lat": 0.0, "name": "2be1082266dda537f96fe738693fa201", "is_disabled": 0, "rental_uris": {"android": "https://dc.lft.to/lastmile_qr_scan", "ios": "https://dc.lft.to/lastmile_qr_scan"}, "fusion_lon": 0.0, "lat": 38.972579333333336, "bike_id": "2be1082266dda537f96fe738693fa201", "type": "electric_bike", "is_reserved": 0, "lon": -76.99275066666667}, {"fusion_lat": 0.0, "name": "60c6e8ff4b15a1d5d45d12fbd761effa", "is_disabled": 0, "rental_uris": {"android": "https://dc.lft.to/lastmile_qr_scan", "ios": "https://dc.lft.to/lastmile_qr_scan"}, "fusion_lon": 0.0, "lat": 39.039048333333334, "bike_id": "60c6e8ff4b15a1d5d45d12fbd761effa", "type": "electric_bike", "is_reserved": 0, "lon": -77.05034366666666}, {"fusion_lat": 0.0, "name": "cc9b8e7d12a137230a86476b9c8faaba", "is_disabled": 0, "rental_uris": {"android": "https://dc.lft.to/lastmile_qr_scan", "ios": "https://dc.lft.to/lastmile_qr_scan"}, "fusion_lon": 0.0, "lat": 38.92893733333333, "bike_id": "cc9b8e7d12a137230a86476b9c8faaba", "type": "electric_scooter", "is_reserved": 0, "lon": -77.03273316666667}, {"fusion_lat": 0.0, "name": "b49e4333436fbb402bc037ac892c6ee3", "is_disabled": 0, "rental_uris": {"android": "https://dc.lft.to/lastmile_qr_scan", "ios": "https://dc.lft.to/lastmile_qr_scan"}, "fusion_lon": 0.0, "lat": 38.90524966666667, "bike_id": "b49e4333436fbb402bc037ac892c6ee3", "type": "electric_scooter", "is_reserved": 0, "lon": -77.06763983333333}, {"fusion_lat": 0.0, "name": "d81111f4026c1ebf21179f3040432d1c", "is_disabled": 0, "rental_uris": {"android": "https://dc.lft.to/lastmile_qr_scan", "ios": "https://dc.lft.to/lastmile_qr_scan"}, "fusion_lon": 0.0, "lat": 38.899457, "bike_id": "d81111f4026c1ebf21179f3040432d1c", "type": "electric_scooter", "is_reserved": 0, "lon": -76.99733216666667}, {"fusion_lat": 0.0, "name": "d044b3473e32ae65fca8fccb674effcd", "is_disabled": 0, "rental_uris": {"android": "https://dc.lft.to/lastmile_qr_scan", "ios": "https://dc.lft.to/lastmile_qr_scan"}, "fusion_lon": 0.0, "lat": 38.92274533333333, "bike_id": "d044b3473e32ae65fca8fccb674effcd", "type": "electric_scooter", "is_reserved": 0, "lon": -77.02955783333333}, {"fusion_lat": 0.0, "name": "55aaf02729e8ba6ad734d860414f874e", "is_disabled": 0, "rental_uris": {"android": "https://dc.lft.to/lastmile_qr_scan", "ios": "https://dc.lft.to/lastmile_qr_scan"}, "fusion_lon": 0.0, "lat": 38.89654216666667, "bike_id": "55aaf02729e8ba6ad734d860414f874e", "type": "electric_scooter", "is_reserved": 0, "lon": -77.0515955}, {"fusion_lat": 0.0, "name": "5fcad90c144398bed52e29b90a75871f", "is_disabled": 0, "rental_uris": {"android": "https://dc.lft.to/lastmile_qr_scan", "ios": "https://dc.lft.to/lastmile_qr_scan"}, "fusion_lon": 0.0, "lat": 38.92452683333333, "bike_id": "5fcad90c144398bed52e29b90a75871f", "type": "electric_scooter", "is_reserved": 0, "lon": -77.008782}, {"fusion_lat": 0.0, "name": "4ba7dd231bd3638ae1cf0e3a7a58168d", "is_disabled": 0, "rental_uris": {"android": "https://dc.lft.to/lastmile_qr_scan", "ios": "https://dc.lft.to/lastmile_qr_scan"}, "fusion_lon": 0.0, "lat": 38.90237483333333, "bike_id": "4ba7dd231bd3638ae1cf0e3a7a58168d", "type": "electric_scooter", "is_reserved": 0, "lon": -77.06102166666666}, {"fusion_lat": 0.0, "name": "205646d36eb542c103fd7b2d6032cd56", "is_disabled": 0, "rental_uris": {"android": "https://dc.lft.to/lastmile_qr_scan", "ios": "https://dc.lft.to/lastmile_qr_scan"}, "fusion_lon": 0.0, "lat": 38.90029716666667, "bike_id": "205646d36eb542c103fd7b2d6032cd56", "type": "electric_scooter", "is_reserved": 0, "lon": -76.99866216666666}, {"fusion_lat": 0.0, "name": "677d74fcc986564d17eee8ebc3c52428", "is_disabled": 0, "rental_uris": {"android": "https://dc.lft.to/lastmile_qr_scan", "ios": "https://dc.lft.to/lastmile_qr_scan"}, "fusion_lon": 0.0, "lat": 38.91552166666666, "bike_id": "677d74fcc986564d17eee8ebc3c52428", "type": "electric_scooter", "is_reserved": 0, "lon": -77.012026}, {"fusion_lat": 0.0, "name": "06c166ca7e5677ad35710ff3a18c9fd8", "is_disabled": 0, "rental_uris": {"android": "https://dc.lft.to/lastmile_qr_scan", "ios": "https://dc.lft.to/lastmile_qr_scan"}, "fusion_lon": 0.0, "lat": 38.884781, "bike_id": "06c166ca7e5677ad35710ff3a18c9fd8", "type": "electric_scooter", "is_reserved": 0, "lon": -76.99674766666666}, {"fusion_lat": 0.0, "name": "fcbcf3fb9a816ba9cdd2cf9a448904b2", "is_disabled": 0, "rental_uris": {"android": "https://dc.lft.to/lastmile_qr_scan", "ios": "https://dc.lft.to/lastmile_qr_scan"}, "fusion_lon": 0.0, "lat": 38.88615583333333, "bike_id": "fcbcf3fb9a816ba9cdd2cf9a448904b2", "type": "electric_scooter", "is_reserved": 0, "lon": -77.01557866666667}, {"fusion_lat": 0.0, "name": "b6291d0d0b7d95bbd75c6ab32bc04a25", "is_disabled": 0, "rental_uris": {"android": "https://dc.lft.to/lastmile_qr_scan", "ios": "https://dc.lft.to/lastmile_qr_scan"}, "fusion_lon": 0.0, "lat": 38.903815333333334, "bike_id": "b6291d0d0b7d95bbd75c6ab32bc04a25", "type": "electric_scooter", "is_reserved": 0, "lon": -77.05509183333334}, {"fusion_lat": 0.0, "name": "1b519ae61a8e38c1a213fa7e6f64d1a1", "is_disabled": 0, "rental_uris": {"android": "https://dc.lft.to/lastmile_qr_scan", "ios": "https://dc.lft.to/lastmile_qr_scan"}, "fusion_lon": 0.0, "lat": 38.90063266666667, "bike_id": "1b519ae61a8e38c1a213fa7e6f64d1a1", "type": "electric_scooter", "is_reserved": 0, "lon": -76.93386683333334}, {"fusion_lat": 0.0, "name": "5c9f884b5c411a731fa11c63352076bf", "is_disabled": 0, "rental_uris": {"android": "https://dc.lft.to/lastmile_qr_scan", "ios": "https://dc.lft.to/lastmile_qr_scan"}, "fusion_lon": 0.0, "lat": 38.942387333333336, "bike_id": "5c9f884b5c411a731fa11c63352076bf", "type": "electric_scooter", "is_reserved": 0, "lon": -77.07641016666666}, {"fusion_lat": 0.0, "name": "31e9f3328559e0131087334358180e41", "is_disabled": 0, "rental_uris": {"android": "https://dc.lft.to/lastmile_qr_scan", "ios": "https://dc.lft.to/lastmile_qr_scan"}, "fusion_lon": 0.0, "lat": 38.907730666666666, "bike_id": "31e9f3328559e0131087334358180e41", "type": "electric_scooter", "is_reserved": 0, "lon": -77.05594366666666}, {"fusion_lat": 0.0, "name": "bbb35595d38e3e9882c4d1685852c330", "is_disabled": 0, "rental_uris": {"android": "https://dc.lft.to/lastmile_qr_scan", "ios": "https://dc.lft.to/lastmile_qr_scan"}, "fusion_lon": 0.0, "lat": 38.923758166666666, "bike_id": "bbb35595d38e3e9882c4d1685852c330", "type": "electric_scooter", "is_reserved": 0, "lon": -77.03665533333333}, {"fusion_lat": 0.0, "name": "1212dc0fa1f18b002ee8364b9fd15ce2", "is_disabled": 0, "rental_uris": {"android": "https://dc.lft.to/lastmile_qr_scan", "ios": "https://dc.lft.to/lastmile_qr_scan"}, "fusion_lon": 0.0, "lat": 38.83503433333333, "bike_id": "1212dc0fa1f18b002ee8364b9fd15ce2", "type": "electric_bike", "is_reserved": 0, "lon": -76.986801}, {"fusion_lat": 0.0, "name": "fa7c0808e617297c3f2155396843f88d", "is_disabled": 0, "rental_uris": {"android": "https://dc.lft.to/lastmile_qr_scan", "ios": "https://dc.lft.to/lastmile_qr_scan"}, "fusion_lon": 0.0, "lat": 38.948220666666664, "bike_id": "fa7c0808e617297c3f2155396843f88d", "type": "electric_scooter", "is_reserved": 0, "lon": -77.02615766666666}, {"fusion_lat": 0.0, "name": "795e5be12dd1dd8a8e379b906a8cbdf4", "is_disabled": 0, "rental_uris": {"android": "https://dc.lft.to/lastmile_qr_scan", "ios": "https://dc.lft.to/lastmile_qr_scan"}, "fusion_lon": 0.0, "lat": 38.90159416666667, "bike_id": "795e5be12dd1dd8a8e379b906a8cbdf4", "type": "electric_scooter", "is_reserved": 0, "lon": -77.02015183333333}, {"fusion_lat": 0.0, "name": "8a8231314a5a9f95b355696f628c4879", "is_disabled": 0, "rental_uris": {"android": "https://dc.lft.to/lastmile_qr_scan", "ios": "https://dc.lft.to/lastmile_qr_scan"}, "fusion_lon": 0.0, "lat": 38.924536833333335, "bike_id": "8a8231314a5a9f95b355696f628c4879", "type": "electric_scooter", "is_reserved": 0, "lon": -77.0342995}, {"fusion_lat": 0.0, "name": "2f9b420c3a1ee5719dcf1aa904327d9c", "is_disabled": 0, "rental_uris": {"android": "https://dc.lft.to/lastmile_qr_scan", "ios": "https://dc.lft.to/lastmile_qr_scan"}, "fusion_lon": 0.0, "lat": 38.92008383333334, "bike_id": "2f9b420c3a1ee5719dcf1aa904327d9c", "type": "electric_scooter", "is_reserved": 0, "lon": -77.021898}, {"fusion_lat": 0.0, "name": "3d30b84c3af0e753c4da18793091e969", "is_disabled": 0, "rental_uris": {"android": "https://dc.lft.to/lastmile_qr_scan", "ios": "https://dc.lft.to/lastmile_qr_scan"}, "fusion_lon": 0.0, "lat": 38.92080083333333, "bike_id": "3d30b84c3af0e753c4da18793091e969", "type": "electric_bike", "is_reserved": 0, "lon": -76.98946016666666}, {"fusion_lat": 0.0, "name": "d7eff23fe3e0ac9fecbb757c7fc4e337", "is_disabled": 0, "rental_uris": {"android": "https://dc.lft.to/lastmile_qr_scan", "ios": "https://dc.lft.to/lastmile_qr_scan"}, "fusion_lon": 0.0, "lat": 38.89732983333333, "bike_id": "d7eff23fe3e0ac9fecbb757c7fc4e337", "type": "electric_scooter", "is_reserved": 0, "lon": -77.00335816666667}, {"fusion_lat": 0.0, "name": "c3fe7312ec784147378ede1dfb6fb34f", "is_disabled": 0, "rental_uris": {"android": "https://dc.lft.to/lastmile_qr_scan", "ios": "https://dc.lft.to/lastmile_qr_scan"}, "fusion_lon": 0.0, "lat": 38.885281666666664, "bike_id": "c3fe7312ec784147378ede1dfb6fb34f", "type": "electric_scooter", "is_reserved": 0, "lon": -77.01506583333334}, {"fusion_lat": 0.0, "name": "86cc67312ff550cdccdd994e2cc33efe", "is_disabled": 0, "rental_uris": {"android": "https://dc.lft.to/lastmile_qr_scan", "ios": "https://dc.lft.to/lastmile_qr_scan"}, "fusion_lon": 0.0, "lat": 38.89327983333333, "bike_id": "86cc67312ff550cdccdd994e2cc33efe", "type": "electric_scooter", "is_reserved": 0, "lon": -77.02239133333333}, {"fusion_lat": 0.0, "name": "feddafb1cb9a93321cdd29626c336bf6", "is_disabled": 0, "rental_uris": {"android": "https://dc.lft.to/lastmile_qr_scan", "ios": "https://dc.lft.to/lastmile_qr_scan"}, "fusion_lon": 0.0, "lat": 38.9009675, "bike_id": "feddafb1cb9a93321cdd29626c336bf6", "type": "electric_scooter", "is_reserved": 0, "lon": -77.05161633333333}, {"fusion_lat": 0.0, "name": "d4b13edb492307b05e0f1ff453c8c3d9", "is_disabled": 0, "rental_uris": {"android": "https://dc.lft.to/lastmile_qr_scan", "ios": "https://dc.lft.to/lastmile_qr_scan"}, "fusion_lon": 0.0, "lat": 38.9422985, "bike_id": "d4b13edb492307b05e0f1ff453c8c3d9", "type": "electric_scooter", "is_reserved": 0, "lon": -77.01385233333333}, {"fusion_lat": 0.0, "name": "079ec21e8befbe33664869c95723633a", "is_disabled": 0, "rental_uris": {"android": "https://dc.lft.to/lastmile_qr_scan", "ios": "https://dc.lft.to/lastmile_qr_scan"}, "fusion_lon": 0.0, "lat": 38.902827, "bike_id": "079ec21e8befbe33664869c95723633a", "type": "electric_scooter", "is_reserved": 0, "lon": -77.01738766666666}, {"fusion_lat": 0.0, "name": "2cecb06c36e6629e136de010426def5a", "is_disabled": 0, "rental_uris": {"android": "https://dc.lft.to/lastmile_qr_scan", "ios": "https://dc.lft.to/lastmile_qr_scan"}, "fusion_lon": 0.0, "lat": 38.907007666666665, "bike_id": "2cecb06c36e6629e136de010426def5a", "type": "electric_scooter", "is_reserved": 0, "lon": -76.99978}, {"fusion_lat": 0.0, "name": "d5e5ad48fc614421ed404862c92ac3c5", "is_disabled": 0, "rental_uris": {"android": "https://dc.lft.to/lastmile_qr_scan", "ios": "https://dc.lft.to/lastmile_qr_scan"}, "fusion_lon": 0.0, "lat": 38.936495666666666, "bike_id": "d5e5ad48fc614421ed404862c92ac3c5", "type": "electric_scooter", "is_reserved": 0, "lon": -77.03054933333334}, {"fusion_lat": 0.0, "name": "4a6612d364e35bc1d9cd3468301f01fb", "is_disabled": 0, "rental_uris": {"android": "https://dc.lft.to/lastmile_qr_scan", "ios": "https://dc.lft.to/lastmile_qr_scan"}, "fusion_lon": 0.0, "lat": 38.9051765, "bike_id": "4a6612d364e35bc1d9cd3468301f01fb", "type": "electric_scooter", "is_reserved": 0, "lon": -77.06454183333334}, {"fusion_lat": 0.0, "name": "3fa0920f2449b3b6404f30723d625490", "is_disabled": 0, "rental_uris": {"android": "https://dc.lft.to/lastmile_qr_scan", "ios": "https://dc.lft.to/lastmile_qr_scan"}, "fusion_lon": 0.0, "lat": 38.92385483333333, "bike_id": "3fa0920f2449b3b6404f30723d625490", "type": "electric_scooter", "is_reserved": 0, "lon": -77.030535}, {"fusion_lat": 0.0, "name": "0050c9b3dbfd68832f133c75f6b61bc6", "is_disabled": 0, "rental_uris": {"android": "https://dc.lft.to/lastmile_qr_scan", "ios": "https://dc.lft.to/lastmile_qr_scan"}, "fusion_lon": 0.0, "lat": 38.887318666666665, "bike_id": "0050c9b3dbfd68832f133c75f6b61bc6", "type": "electric_scooter", "is_reserved": 0, "lon": -76.98354816666667}, {"fusion_lat": 0.0, "name": "3fe57e23ef3bef110ef4bf6243793881", "is_disabled": 0, "rental_uris": {"android": "https://dc.lft.to/lastmile_qr_scan", "ios": "https://dc.lft.to/lastmile_qr_scan"}, "fusion_lon": 0.0, "lat": 38.91125616666667, "bike_id": "3fe57e23ef3bef110ef4bf6243793881", "type": "electric_scooter", "is_reserved": 0, "lon": -77.02200483333333}, {"fusion_lat": 0.0, "name": "aa35ba5f1b54d8acabaf25b04255a184", "is_disabled": 0, "rental_uris": {"android": "https://dc.lft.to/lastmile_qr_scan", "ios": "https://dc.lft.to/lastmile_qr_scan"}, "fusion_lon": 0.0, "lat": 38.904059333333336, "bike_id": "aa35ba5f1b54d8acabaf25b04255a184", "type": "electric_scooter", "is_reserved": 0, "lon": -77.067776}, {"fusion_lat": 0.0, "name": "75e36707efd78841b877a59f8d696176", "is_disabled": 0, "rental_uris": {"android": "https://dc.lft.to/lastmile_qr_scan", "ios": "https://dc.lft.to/lastmile_qr_scan"}, "fusion_lon": 0.0, "lat": 38.863286333333335, "bike_id": "75e36707efd78841b877a59f8d696176", "type": "electric_bike", "is_reserved": 0, "lon": -76.98724316666667}, {"fusion_lat": 0.0, "name": "9b6b30323810bbcdacf4478492b06deb", "is_disabled": 0, "rental_uris": {"android": "https://dc.lft.to/lastmile_qr_scan", "ios": "https://dc.lft.to/lastmile_qr_scan"}, "fusion_lon": 0.0, "lat": 38.905322, "bike_id": "9b6b30323810bbcdacf4478492b06deb", "type": "electric_scooter", "is_reserved": 0, "lon": -77.0590215}, {"fusion_lat": 0.0, "name": "8453807677d1be403ebfbc180aaf0117", "is_disabled": 0, "rental_uris": {"android": "https://dc.lft.to/lastmile_qr_scan", "ios": "https://dc.lft.to/lastmile_qr_scan"}, "fusion_lon": 0.0, "lat": 38.879953, "bike_id": "8453807677d1be403ebfbc180aaf0117", "type": "electric_scooter", "is_reserved": 0, "lon": -77.03739366666667}, {"fusion_lat": 0.0, "name": "a34f22e510a9b216248fb3ef78321961", "is_disabled": 0, "rental_uris": {"android": "https://dc.lft.to/lastmile_qr_scan", "ios": "https://dc.lft.to/lastmile_qr_scan"}, "fusion_lon": 0.0, "lat": 38.9176805, "bike_id": "a34f22e510a9b216248fb3ef78321961", "type": "electric_scooter", "is_reserved": 0, "lon": -77.0149575}, {"fusion_lat": 0.0, "name": "05da2917231b5b449c862636632d9b1b", "is_disabled": 0, "rental_uris": {"android": "https://dc.lft.to/lastmile_qr_scan", "ios": "https://dc.lft.to/lastmile_qr_scan"}, "fusion_lon": 0.0, "lat": 38.87944366666667, "bike_id": "05da2917231b5b449c862636632d9b1b", "type": "electric_scooter", "is_reserved": 0, "lon": -77.02381866666667}, {"fusion_lat": 0.0, "name": "6672eaf2ddaae265556c45b2e44d1513", "is_disabled": 0, "rental_uris": {"android": "https://dc.lft.to/lastmile_qr_scan", "ios": "https://dc.lft.to/lastmile_qr_scan"}, "fusion_lon": 0.0, "lat": 38.921673, "bike_id": "6672eaf2ddaae265556c45b2e44d1513", "type": "electric_scooter", "is_reserved": 0, "lon": -76.99804033333334}, {"fusion_lat": 0.0, "name": "70091dfe7e1392c7026da10779a1815c", "is_disabled": 0, "rental_uris": {"android": "https://dc.lft.to/lastmile_qr_scan", "ios": "https://dc.lft.to/lastmile_qr_scan"}, "fusion_lon": 0.0, "lat": 38.909281, "bike_id": "70091dfe7e1392c7026da10779a1815c", "type": "electric_scooter", "is_reserved": 0, "lon": -77.04581083333333}, {"fusion_lat": 0.0, "name": "a058d83c84b133ee10eacef88d04fefb", "is_disabled": 0, "rental_uris": {"android": "https://dc.lft.to/lastmile_qr_scan", "ios": "https://dc.lft.to/lastmile_qr_scan"}, "fusion_lon": 0.0, "lat": 38.903872666666665, "bike_id": "a058d83c84b133ee10eacef88d04fefb", "type": "electric_scooter", "is_reserved": 0, "lon": -77.01808566666666}, {"fusion_lat": 0.0, "name": "9ce4207c9c044dfa34f164acebdf0188", "is_disabled": 0, "rental_uris": {"android": "https://dc.lft.to/lastmile_qr_scan", "ios": "https://dc.lft.to/lastmile_qr_scan"}, "fusion_lon": 0.0, "lat": 38.897737, "bike_id": "9ce4207c9c044dfa34f164acebdf0188", "type": "electric_scooter", "is_reserved": 0, "lon": -77.01210316666666}, {"fusion_lat": 0.0, "name": "f84911646040c53eb052e55089a34f6d", "is_disabled": 0, "rental_uris": {"android": "https://dc.lft.to/lastmile_qr_scan", "ios": "https://dc.lft.to/lastmile_qr_scan"}, "fusion_lon": 0.0, "lat": 38.95272333333333, "bike_id": "f84911646040c53eb052e55089a34f6d", "type": "electric_scooter", "is_reserved": 0, "lon": -77.0688285}, {"fusion_lat": 0.0, "name": "7e2cb0983270afad174825f2adcb8d95", "is_disabled": 0, "rental_uris": {"android": "https://dc.lft.to/lastmile_qr_scan", "ios": "https://dc.lft.to/lastmile_qr_scan"}, "fusion_lon": 0.0, "lat": 38.928956666666664, "bike_id": "7e2cb0983270afad174825f2adcb8d95", "type": "electric_bike", "is_reserved": 0, "lon": -77.23180533333333}, {"fusion_lat": 0.0, "name": "d19e32955d6ff386f5d25d8d3eafa6de", "is_disabled": 0, "rental_uris": {"android": "https://dc.lft.to/lastmile_qr_scan", "ios": "https://dc.lft.to/lastmile_qr_scan"}, "fusion_lon": 0.0, "lat": 38.89753283333334, "bike_id": "d19e32955d6ff386f5d25d8d3eafa6de", "type": "electric_scooter", "is_reserved": 0, "lon": -77.02013916666667}, {"fusion_lat": 0.0, "name": "fef8f17c06f904ec362e8ca549c0b876", "is_disabled": 0, "rental_uris": {"android": "https://dc.lft.to/lastmile_qr_scan", "ios": "https://dc.lft.to/lastmile_qr_scan"}, "fusion_lon": 0.0, "lat": 38.92327216666666, "bike_id": "fef8f17c06f904ec362e8ca549c0b876", "type": "electric_scooter", "is_reserved": 0, "lon": -77.04305483333333}, {"fusion_lat": 0.0, "name": "d04e315121cc1ba49adb61f5751a6d09", "is_disabled": 0, "rental_uris": {"android": "https://dc.lft.to/lastmile_qr_scan", "ios": "https://dc.lft.to/lastmile_qr_scan"}, "fusion_lon": 0.0, "lat": 38.90400133333333, "bike_id": "d04e315121cc1ba49adb61f5751a6d09", "type": "electric_scooter", "is_reserved": 0, "lon": -76.980986}, {"fusion_lat": 0.0, "name": "ceadd5abbda84b9d0395ccab80649380", "is_disabled": 0, "rental_uris": {"android": "https://dc.lft.to/lastmile_qr_scan", "ios": "https://dc.lft.to/lastmile_qr_scan"}, "fusion_lon": 0.0, "lat": 38.8875405, "bike_id": "ceadd5abbda84b9d0395ccab80649380", "type": "electric_scooter", "is_reserved": 0, "lon": -77.00258666666667}, {"fusion_lat": 0.0, "name": "e67ff154ff1dca9961081e455487ab60", "is_disabled": 0, "rental_uris": {"android": "https://dc.lft.to/lastmile_qr_scan", "ios": "https://dc.lft.to/lastmile_qr_scan"}, "fusion_lon": 0.0, "lat": 38.92195483333333, "bike_id": "e67ff154ff1dca9961081e455487ab60", "type": "electric_scooter", "is_reserved": 0, "lon": -77.05046666666667}, {"fusion_lat": 0.0, "name": "e29a075ddcdde5f27087dd580282076f", "is_disabled": 0, "rental_uris": {"android": "https://dc.lft.to/lastmile_qr_scan", "ios": "https://dc.lft.to/lastmile_qr_scan"}, "fusion_lon": 0.0, "lat": 38.84140433333334, "bike_id": "e29a075ddcdde5f27087dd580282076f", "type": "electric_bike", "is_reserved": 0, "lon": -76.94763183333333}, {"fusion_lat": 0.0, "name": "4a2ef532da39eb7b9187f02bf6fcb1ea", "is_disabled": 0, "rental_uris": {"android": "https://dc.lft.to/lastmile_qr_scan", "ios": "https://dc.lft.to/lastmile_qr_scan"}, "fusion_lon": 0.0, "lat": 38.91271866666666, "bike_id": "4a2ef532da39eb7b9187f02bf6fcb1ea", "type": "electric_scooter", "is_reserved": 0, "lon": -77.01227716666666}, {"fusion_lat": 0.0, "name": "37e6e15442fe7284f3e43d218c7e0cdc", "is_disabled": 0, "rental_uris": {"android": "https://dc.lft.to/lastmile_qr_scan", "ios": "https://dc.lft.to/lastmile_qr_scan"}, "fusion_lon": 0.0, "lat": 38.92436266666667, "bike_id": "37e6e15442fe7284f3e43d218c7e0cdc", "type": "electric_scooter", "is_reserved": 0, "lon": -77.000675}, {"fusion_lat": 0.0, "name": "9a7759768b889d08e51f5b42880914cc", "is_disabled": 0, "rental_uris": {"android": "https://dc.lft.to/lastmile_qr_scan", "ios": "https://dc.lft.to/lastmile_qr_scan"}, "fusion_lon": 0.0, "lat": 38.90549516666667, "bike_id": "9a7759768b889d08e51f5b42880914cc", "type": "electric_scooter", "is_reserved": 0, "lon": -77.06267483333333}, {"fusion_lat": 0.0, "name": "b0543e2cb37744fe58266d177de00e77", "is_disabled": 0, "rental_uris": {"android": "https://dc.lft.to/lastmile_qr_scan", "ios": "https://dc.lft.to/lastmile_qr_scan"}, "fusion_lon": 0.0, "lat": 38.87637616666667, "bike_id": "b0543e2cb37744fe58266d177de00e77", "type": "electric_scooter", "is_reserved": 0, "lon": -77.00912616666666}, {"fusion_lat": 0.0, "name": "22c37a574799bd3e653d5daf08ce7530", "is_disabled": 0, "rental_uris": {"android": "https://dc.lft.to/lastmile_qr_scan", "ios": "https://dc.lft.to/lastmile_qr_scan"}, "fusion_lon": 0.0, "lat": 38.93188966666666, "bike_id": "22c37a574799bd3e653d5daf08ce7530", "type": "electric_scooter", "is_reserved": 0, "lon": -77.04304366666666}, {"fusion_lat": 0.0, "name": "1005bef79481252bf59695f511d0cffb", "is_disabled": 0, "rental_uris": {"android": "https://dc.lft.to/lastmile_qr_scan", "ios": "https://dc.lft.to/lastmile_qr_scan"}, "fusion_lon": 0.0, "lat": 38.9040625, "bike_id": "1005bef79481252bf59695f511d0cffb", "type": "electric_scooter", "is_reserved": 0, "lon": -76.97335883333334}, {"fusion_lat": 0.0, "name": "f532c3a21bc5af1040b34565c10b96a0", "is_disabled": 0, "rental_uris": {"android": "https://dc.lft.to/lastmile_qr_scan", "ios": "https://dc.lft.to/lastmile_qr_scan"}, "fusion_lon": 0.0, "lat": 38.905286, "bike_id": "f532c3a21bc5af1040b34565c10b96a0", "type": "electric_scooter", "is_reserved": 0, "lon": -77.058818}, {"fusion_lat": 0.0, "name": "c836f55d7ab067be870b0d6c61688668", "is_disabled": 0, "rental_uris": {"android": "https://dc.lft.to/lastmile_qr_scan", "ios": "https://dc.lft.to/lastmile_qr_scan"}, "fusion_lon": 0.0, "lat": 38.8851275, "bike_id": "c836f55d7ab067be870b0d6c61688668", "type": "electric_scooter", "is_reserved": 0, "lon": -77.02095266666667}, {"fusion_lat": 0.0, "name": "3014e1fd8bfd1dff23afdc38e11565da", "is_disabled": 0, "rental_uris": {"android": "https://dc.lft.to/lastmile_qr_scan", "ios": "https://dc.lft.to/lastmile_qr_scan"}, "fusion_lon": 0.0, "lat": 38.914377, "bike_id": "3014e1fd8bfd1dff23afdc38e11565da", "type": "electric_scooter", "is_reserved": 0, "lon": -76.99355583333333}, {"fusion_lat": 0.0, "name": "563574fd0c9be68a28f64a83ae4f769c", "is_disabled": 0, "rental_uris": {"android": "https://dc.lft.to/lastmile_qr_scan", "ios": "https://dc.lft.to/lastmile_qr_scan"}, "fusion_lon": 0.0, "lat": 38.904333, "bike_id": "563574fd0c9be68a28f64a83ae4f769c", "type": "electric_scooter", "is_reserved": 0, "lon": -77.02509916666666}, {"fusion_lat": 0.0, "name": "4b1c54565d2a43759617b5312c3db512", "is_disabled": 0, "rental_uris": {"android": "https://dc.lft.to/lastmile_qr_scan", "ios": "https://dc.lft.to/lastmile_qr_scan"}, "fusion_lon": 0.0, "lat": 38.911284333333334, "bike_id": "4b1c54565d2a43759617b5312c3db512", "type": "electric_scooter", "is_reserved": 0, "lon": -77.037277}, {"fusion_lat": 0.0, "name": "2d30e25b5c7d05f2ea40245dabb7566c", "is_disabled": 0, "rental_uris": {"android": "https://dc.lft.to/lastmile_qr_scan", "ios": "https://dc.lft.to/lastmile_qr_scan"}, "fusion_lon": 0.0, "lat": 38.90031466666667, "bike_id": "2d30e25b5c7d05f2ea40245dabb7566c", "type": "electric_bike", "is_reserved": 0, "lon": -76.972258}, {"fusion_lat": 0.0, "name": "b4760966181917c60d8a66f6b8df03d9", "is_disabled": 0, "rental_uris": {"android": "https://dc.lft.to/lastmile_qr_scan", "ios": "https://dc.lft.to/lastmile_qr_scan"}, "fusion_lon": 0.0, "lat": 38.92963833333334, "bike_id": "b4760966181917c60d8a66f6b8df03d9", "type": "electric_scooter", "is_reserved": 0, "lon": -76.991698}, {"fusion_lat": 0.0, "name": "c8796929e7ebd0b957de359fc257b85e", "is_disabled": 0, "rental_uris": {"android": "https://dc.lft.to/lastmile_qr_scan", "ios": "https://dc.lft.to/lastmile_qr_scan"}, "fusion_lon": 0.0, "lat": 38.87688766666667, "bike_id": "c8796929e7ebd0b957de359fc257b85e", "type": "electric_scooter", "is_reserved": 0, "lon": -77.00415633333333}, {"fusion_lat": 0.0, "name": "27a399bbffa0460588b3f9cb6fb08c5c", "is_disabled": 0, "rental_uris": {"android": "https://dc.lft.to/lastmile_qr_scan", "ios": "https://dc.lft.to/lastmile_qr_scan"}, "fusion_lon": 0.0, "lat": 38.91321083333333, "bike_id": "27a399bbffa0460588b3f9cb6fb08c5c", "type": "electric_scooter", "is_reserved": 0, "lon": -77.01211333333333}, {"fusion_lat": 0.0, "name": "4e5089baeb018a840f176594da0ff69d", "is_disabled": 0, "rental_uris": {"android": "https://dc.lft.to/lastmile_qr_scan", "ios": "https://dc.lft.to/lastmile_qr_scan"}, "fusion_lon": 0.0, "lat": 38.92254716666667, "bike_id": "4e5089baeb018a840f176594da0ff69d", "type": "electric_scooter", "is_reserved": 0, "lon": -77.0091565}, {"fusion_lat": 0.0, "name": "4e66861f366a784ccbd542f22ab45375", "is_disabled": 0, "rental_uris": {"android": "https://dc.lft.to/lastmile_qr_scan", "ios": "https://dc.lft.to/lastmile_qr_scan"}, "fusion_lon": 0.0, "lat": 38.9667735, "bike_id": "4e66861f366a784ccbd542f22ab45375", "type": "electric_bike", "is_reserved": 0, "lon": -77.023012}, {"fusion_lat": 0.0, "name": "66ec5fb258d0eb1f42220bb0d589d9f1", "is_disabled": 0, "rental_uris": {"android": "https://dc.lft.to/lastmile_qr_scan", "ios": "https://dc.lft.to/lastmile_qr_scan"}, "fusion_lon": 0.0, "lat": 38.93170883333333, "bike_id": "66ec5fb258d0eb1f42220bb0d589d9f1", "type": "electric_scooter", "is_reserved": 0, "lon": -77.03796383333334}, {"fusion_lat": 0.0, "name": "1765200d9be82e4fe89c651a4d519ab6", "is_disabled": 0, "rental_uris": {"android": "https://dc.lft.to/lastmile_qr_scan", "ios": "https://dc.lft.to/lastmile_qr_scan"}, "fusion_lon": 0.0, "lat": 38.909758, "bike_id": "1765200d9be82e4fe89c651a4d519ab6", "type": "electric_scooter", "is_reserved": 0, "lon": -77.03384066666666}, {"fusion_lat": 0.0, "name": "c68e25b2c1b69c6e22b2e7d9f8e56dd0", "is_disabled": 0, "rental_uris": {"android": "https://dc.lft.to/lastmile_qr_scan", "ios": "https://dc.lft.to/lastmile_qr_scan"}, "fusion_lon": 0.0, "lat": 38.916953, "bike_id": "c68e25b2c1b69c6e22b2e7d9f8e56dd0", "type": "electric_scooter", "is_reserved": 0, "lon": -77.03506566666667}, {"fusion_lat": 0.0, "name": "e117bcf93c76512eb5e749a896374f0b", "is_disabled": 0, "rental_uris": {"android": "https://dc.lft.to/lastmile_qr_scan", "ios": "https://dc.lft.to/lastmile_qr_scan"}, "fusion_lon": 0.0, "lat": 38.92477683333333, "bike_id": "e117bcf93c76512eb5e749a896374f0b", "type": "electric_scooter", "is_reserved": 0, "lon": -77.02273166666667}, {"fusion_lat": 0.0, "name": "8aa22c251135d5e417110d6d6c5a4633", "is_disabled": 0, "rental_uris": {"android": "https://dc.lft.to/lastmile_qr_scan", "ios": "https://dc.lft.to/lastmile_qr_scan"}, "fusion_lon": 0.0, "lat": 38.8361715, "bike_id": "8aa22c251135d5e417110d6d6c5a4633", "type": "electric_bike", "is_reserved": 0, "lon": -76.996753}, {"fusion_lat": 0.0, "name": "54374e9ae1772520221e79396eaf5552", "is_disabled": 0, "rental_uris": {"android": "https://dc.lft.to/lastmile_qr_scan", "ios": "https://dc.lft.to/lastmile_qr_scan"}, "fusion_lon": 0.0, "lat": 38.9028445, "bike_id": "54374e9ae1772520221e79396eaf5552", "type": "electric_scooter", "is_reserved": 0, "lon": -77.043745}, {"fusion_lat": 0.0, "name": "e716a429021cbfc33b55b8a115a548c3", "is_disabled": 0, "rental_uris": {"android": "https://dc.lft.to/lastmile_qr_scan", "ios": "https://dc.lft.to/lastmile_qr_scan"}, "fusion_lon": 0.0, "lat": 38.931693833333334, "bike_id": "e716a429021cbfc33b55b8a115a548c3", "type": "electric_scooter", "is_reserved": 0, "lon": -77.07846183333334}, {"fusion_lat": 0.0, "name": "fadd292ab23b4a65ae5b09ccd3681f6b", "is_disabled": 0, "rental_uris": {"android": "https://dc.lft.to/lastmile_qr_scan", "ios": "https://dc.lft.to/lastmile_qr_scan"}, "fusion_lon": 0.0, "lat": 38.911128833333336, "bike_id": "fadd292ab23b4a65ae5b09ccd3681f6b", "type": "electric_scooter", "is_reserved": 0, "lon": -77.01764133333333}, {"fusion_lat": 0.0, "name": "6241dd9f0e83f4cf8d122d3aa693334f", "is_disabled": 0, "rental_uris": {"android": "https://dc.lft.to/lastmile_qr_scan", "ios": "https://dc.lft.to/lastmile_qr_scan"}, "fusion_lon": 0.0, "lat": 38.900940166666665, "bike_id": "6241dd9f0e83f4cf8d122d3aa693334f", "type": "electric_scooter", "is_reserved": 0, "lon": -77.05831666666667}, {"fusion_lat": 0.0, "name": "a19269ac426ae215a9f2de8c1fa5bda8", "is_disabled": 0, "rental_uris": {"android": "https://dc.lft.to/lastmile_qr_scan", "ios": "https://dc.lft.to/lastmile_qr_scan"}, "fusion_lon": 0.0, "lat": 38.866279, "bike_id": "a19269ac426ae215a9f2de8c1fa5bda8", "type": "electric_scooter", "is_reserved": 0, "lon": -76.98718566666666}, {"fusion_lat": 0.0, "name": "4648c88f21aa4d56a7bbafdb36671a5b", "is_disabled": 0, "rental_uris": {"android": "https://dc.lft.to/lastmile_qr_scan", "ios": "https://dc.lft.to/lastmile_qr_scan"}, "fusion_lon": 0.0, "lat": 38.9242145, "bike_id": "4648c88f21aa4d56a7bbafdb36671a5b", "type": "electric_scooter", "is_reserved": 0, "lon": -77.02008883333333},