{"data": {"bikes": [{"bike_id": "06663c6d3d323d0ce4626a72025462c5", "type": "electric_scooter", "is_disabled": 0, "lat": 38.905768, "rental_uris": {"ios": "https://dc.lft.to/lastmile_qr_scan", "android": "https://dc.lft.to/lastmile_qr_scan"}, "is_reserved": 0, "fusion_lon": 0.0, "fusion_lat": 0.0, "lon": -77.0260965, "name": "06663c6d3d323d0ce4626a72025462c5"}, {"bike_id": "100a695d52770beb88186f34f058a628", "type": "electric_scooter", "is_disabled": 0, "lat": 38.928209, "rental_uris": {"ios": "https://dc.lft.to/lastmile_qr_scan", "android": "https://dc.lft.to/lastmile_qr_scan"}, "is_reserved": 0, "fusion_lon": 0.0, "fusion_lat": 0.0, "lon": -77.02258616666667, "name": "100a695d52770beb88186f34f058a628"}, {"bike_id": "4afbdcf921066efec2077a821f2f2be4", "type": "electric_scooter", "is_disabled": 0, "lat": 38.9346665, "rental_uris": {"ios": "https://dc.lft.to/lastmile_qr_scan", "android": "https://dc.lft.to/lastmile_qr_scan"}, "is_reserved": 0, "fusion_lon": 0.0, "fusion_lat": 0.0, "lon": -77.029337, "name": "4afbdcf921066efec2077a821f2f2be4"}, {"bike_id": "fa1760c4900e6ce38b0dcf80c2300d8e", "type": "electric_scooter", "is_disabled": 0, "lat": 38.9071585, "rental_uris": {"ios": "https://dc.lft.to/lastmile_qr_scan", "android": "https://dc.lft.to/lastmile_qr_scan"}, "is_reserved": 0, "fusion_lon": 0.0, "fusion_lat": 0.0, "lon": -77.01465833333333, "name": "fa1760c4900e6ce38b0dcf80c2300d8e"}, {"bike_id": "b7047a2b9a9be0995accb2d9ce7131f7", "type": "electric_scooter", "is_disabled": 0, "lat": 38.935361666666665, "rental_uris": {"ios": "https://dc.lft.to/lastmile_qr_scan", "android": "https://dc.lft.to/lastmile_qr_scan"}, "is_reserved": 0, "fusion_lon": 0.0, "fusion_lat": 0.0, "lon": -77.023567, "name": "b7047a2b9a9be0995accb2d9ce7131f7"}, {"bike_id": "738545a00149a1199670f2f78711b1ba", "type": "electric_scooter", "is_disabled": 0, "lat": 38.891779666666665, "rental_uris": {"ios": "https://dc.lft.to/lastmile_qr_scan", "android": "https://dc.lft.to/lastmile_qr_scan"}, "is_reserved": 0, "fusion_lon": 0.0, "fusion_lat": 0.0, "lon": -77.02202433333333, "name": "738545a00149a1199670f2f78711b1ba"}, {"bike_id": "7702b71bfe866b192eb85b1388ad1fb0", "type": "electric_scooter", "is_disabled": 0, "lat": 38.914185333333336, "rental_uris": {"ios": "https://dc.lft.to/lastmile_qr_scan", "android": "https://dc.lft.to/lastmile_qr_scan"}, "is_reserved": 0, "fusion_lon": 0.0, "fusion_lat": 0.0, "lon": -77.02290233333333, "name": "7702b71bfe866b192eb85b1388ad1fb0"}, {"bike_id": "2caa9c7c514734d1e4b97d351a8f7437", "type": "electric_scooter", "is_disabled": 0, "lat": 38.92073833333333, "rental_uris": {"ios": "https://dc.lft.to/lastmile_qr_scan", "android": "https://dc.lft.to/lastmile_qr_scan"}, "is_reserved": 0, "fusion_lon": 0.0, "fusion_lat": 0.0, "lon": -77.0252615, "name": "2caa9c7c514734d1e4b97d351a8f7437"}, {"bike_id": "2e98651d42226613db313a21cd54254b", "type": "electric_scooter", "is_disabled": 0, "lat": 38.92478333333333, "rental_uris": {"ios": "https://dc.lft.to/lastmile_qr_scan", "android": "https://dc.lft.to/lastmile_qr_scan"}, "is_reserved": 0, "fusion_lon": 0.0, "fusion_lat": 0.0, "lon": -77.0266665, "name": "2e98651d42226613db313a21cd54254b"}, {"bike_id": "457402127f63cb4b4c979a22ff6ab596", "type": "electric_scooter", "is_disabled": 0, "lat": 38.94205616666667, "rental_uris": {"ios": "https://dc.lft.to/lastmile_qr_scan", "android": "https://dc.lft.to/lastmile_qr_scan"}, "is_reserved": 0, "fusion_lon": 0.0, "fusion_lat": 0.0, "lon": -77.023547, "name": "457402127f63cb4b4c979a22ff6ab596"}, {"bike_id": "b07c086d7672e23a53abbe7eab4c77c6", "type": "electric_scooter", "is_disabled": 0, "lat": 38.8701675, "rental_uris": {"ios": "https://dc.lft.to/lastmile_qr_scan", "android": "https://dc.lft.to/lastmile_qr_scan"}, "is_reserved": 0, "fusion_lon": 0.0, "fusion_lat": 0.0, "lon": -76.98078516666666, "name": "b07c086d7672e23a53abbe7eab4c77c6"}, {"bike_id": "220c6832e0cc22ba30bfaef5c3ee7995", "type": "electric_scooter", "is_disabled": 0, "lat": 38.89231383333333, "rental_uris": {"ios": "https://dc.lft.to/lastmile_qr_scan", "android": "https://dc.lft.to/lastmile_qr_scan"}, "is_reserved": 0, "fusion_lon": 0.0, "fusion_lat": 0.0, "lon": -77.04998416666666, "name": "220c6832e0cc22ba30bfaef5c3ee7995"}, {"bike_id": "a376fb5847724f12dcf2e4a43e8c76d8", "type": "electric_scooter", "is_disabled": 0, "lat": 38.919949833333334, "rental_uris": {"ios": "https://dc.lft.to/lastmile_qr_scan", "android": "https://dc.lft.to/lastmile_qr_scan"}, "is_reserved": 0, "fusion_lon": 0.0, "fusion_lat": 0.0, "lon": -77.02398683333334, "name": "a376fb5847724f12dcf2e4a43e8c76d8"}, {"bike_id": "e52df5a7f5dacae2c008966fd332db94", "type": "electric_scooter", "is_disabled": 0, "lat": 38.916895833333335, "rental_uris": {"ios": "https://dc.lft.to/lastmile_qr_scan", "android": "https://dc.lft.to/lastmile_qr_scan"}, "is_reserved": 0, "fusion_lon": 0.0, "fusion_lat": 0.0, "lon": -77.03112383333334, "name": "e52df5a7f5dacae2c008966fd332db94"}, {"bike_id": "a2d9f2b891a91e8d0823414e0883f0e8", "type": "electric_scooter", "is_disabled": 0, "lat": 38.925203, "rental_uris": {"ios": "https://dc.lft.to/lastmile_qr_scan", "android": "https://dc.lft.to/lastmile_qr_scan"}, "is_reserved": 0, "fusion_lon": 0.0, "fusion_lat": 0.0, "lon": -77.07720116666667, "name": "a2d9f2b891a91e8d0823414e0883f0e8"}, {"bike_id": "6cd4bc591c5bfae9b654447ea7714a2b", "type": "electric_scooter", "is_disabled": 0, "lat": 38.9095605, "rental_uris": {"ios": "https://dc.lft.to/lastmile_qr_scan", "android": "https://dc.lft.to/lastmile_qr_scan"}, "is_reserved": 0, "fusion_lon": 0.0, "fusion_lat": 0.0, "lon": -77.02309983333333, "name": "6cd4bc591c5bfae9b654447ea7714a2b"}, {"bike_id": "6034bb2b6bbddb0f99321bb9a9e017e5", "type": "electric_scooter", "is_disabled": 0, "lat": 38.92750616666667, "rental_uris": {"ios": "https://dc.lft.to/lastmile_qr_scan", "android": "https://dc.lft.to/lastmile_qr_scan"}, "is_reserved": 0, "fusion_lon": 0.0, "fusion_lat": 0.0, "lon": -77.03269866666666, "name": "6034bb2b6bbddb0f99321bb9a9e017e5"}, {"bike_id": "475e4803aa5656eae1fbe7e39f8e352d", "type": "electric_scooter", "is_disabled": 0, "lat": 38.920706, "rental_uris": {"ios": "https://dc.lft.to/lastmile_qr_scan", "android": "https://dc.lft.to/lastmile_qr_scan"}, "is_reserved": 0, "fusion_lon": 0.0, "fusion_lat": 0.0, "lon": -77.025105, "name": "475e4803aa5656eae1fbe7e39f8e352d"}, {"bike_id": "b9a306e71ddd938e96ed072fca2fe47c", "type": "electric_scooter", "is_disabled": 0, "lat": 38.897285833333335, "rental_uris": {"ios": "https://dc.lft.to/lastmile_qr_scan", "android": "https://dc.lft.to/lastmile_qr_scan"}, "is_reserved": 0, "fusion_lon": 0.0, "fusion_lat": 0.0, "lon": -77.00370183333334, "name": "b9a306e71ddd938e96ed072fca2fe47c"}, {"bike_id": "df8ea106d7feb5ab94f0e116219c8293", "type": "electric_bike", "is_disabled": 0, "lat": 38.990895, "rental_uris": {"ios": "https://dc.lft.to/lastmile_qr_scan", "android": "https://dc.lft.to/lastmile_qr_scan"}, "is_reserved": 0, "fusion_lon": 0.0, "fusion_lat": 0.0, "lon": -76.874958, "name": "df8ea106d7feb5ab94f0e116219c8293"}, {"bike_id": "5f2e03c5711dba8b28341ea6a77fea6b", "type": "electric_scooter", "is_disabled": 0, "lat": 38.84314166666667, "rental_uris": {"ios": "https://dc.lft.to/lastmile_qr_scan", "android": "https://dc.lft.to/lastmile_qr_scan"}, "is_reserved": 0, "fusion_lon": 0.0, "fusion_lat": 0.0, "lon": -76.9992875, "name": "5f2e03c5711dba8b28341ea6a77fea6b"}, {"bike_id": "8df995510ca4c4430fcfd1e7aa9aed35", "type": "electric_scooter", "is_disabled": 0, "lat": 38.905008, "rental_uris": {"ios": "https://dc.lft.to/lastmile_qr_scan", "android": "https://dc.lft.to/lastmile_qr_scan"}, "is_reserved": 0, "fusion_lon": 0.0, "fusion_lat": 0.0, "lon": -77.06016033333333, "name": "8df995510ca4c4430fcfd1e7aa9aed35"}, {"bike_id": "5f5aa2fa053db21a3c093b2a9ff6bba2", "type": "electric_scooter", "is_disabled": 0, "lat": 38.894937, "rental_uris": {"ios": "https://dc.lft.to/lastmile_qr_scan", "android": "https://dc.lft.to/lastmile_qr_scan"}, "is_reserved": 0, "fusion_lon": 0.0, "fusion_lat": 0.0, "lon": -76.98834283333333, "name": "5f5aa2fa053db21a3c093b2a9ff6bba2"}, {"bike_id": "f92a7e186c89f75e74dd8781d1ec91c5", "type": "electric_scooter", "is_disabled": 0, "lat": 38.89613633333333, "rental_uris": {"ios": "https://dc.lft.to/lastmile_qr_scan", "android": "https://dc.lft.to/lastmile_qr_scan"}, "is_reserved": 0, "fusion_lon": 0.0, "fusion_lat": 0.0, "lon": -77.02685516666666, "name": "f92a7e186c89f75e74dd8781d1ec91c5"}, {"bike_id": "4ee2ec7dc1f5d8a856d2985553daedb4", "type": "electric_bike", "is_disabled": 0, "lat": 38.86513983333333, "rental_uris": {"ios": "https://dc.lft.to/lastmile_qr_scan", "android": "https://dc.lft.to/lastmile_qr_scan"}, "is_reserved": 0, "fusion_lon": 0.0, "fusion_lat": 0.0, "lon": -76.97334983333333, "name": "4ee2ec7dc1f5d8a856d2985553daedb4"}, {"bike_id": "0f14a0bb400f4a9ea345085f2c235228", "type": "electric_scooter", "is_disabled": 0, "lat": 38.888763, "rental_uris": {"ios": "https://dc.lft.to/lastmile_qr_scan", "android": "https://dc.lft.to/lastmile_qr_scan"}, "is_reserved": 0, "fusion_lon": 0.0, "fusion_lat": 0.0, "lon": -76.99034733333333, "name": "0f14a0bb400f4a9ea345085f2c235228"}, {"bike_id": "0694b2281326fa13ca4030072ed0f7b6", "type": "electric_scooter", "is_disabled": 0, "lat": 38.90041433333333, "rental_uris": {"ios": "https://dc.lft.to/lastmile_qr_scan", "android": "https://dc.lft.to/lastmile_qr_scan"}, "is_reserved": 0, "fusion_lon": 0.0, "fusion_lat": 0.0, "lon": -76.919162, "name": "0694b2281326fa13ca4030072ed0f7b6"}, {"bike_id": "8bf8e72e99e95b55384730e6f01141d8", "type": "electric_scooter", "is_disabled": 0, "lat": 38.90642966666667, "rental_uris": {"ios": "https://dc.lft.to/lastmile_qr_scan", "android": "https://dc.lft.to/lastmile_qr_scan"}, "is_reserved": 0, "fusion_lon": 0.0, "fusion_lat": 0.0, "lon": -77.0141045, "name": "8bf8e72e99e95b55384730e6f01141d8"}, {"bike_id": "12c130846bf1e6246bce1502fc7dc02d", "type": "electric_scooter", "is_disabled": 0, "lat": 38.92605783333333, "rental_uris": {"ios": "https://dc.lft.to/lastmile_qr_scan", "android": "https://dc.lft.to/lastmile_qr_scan"}, "is_reserved": 0, "fusion_lon": 0.0, "fusion_lat": 0.0, "lon": -77.04305033333333, "name": "12c130846bf1e6246bce1502fc7dc02d"}, {"bike_id": "bb71520ab3b03f2f8d3eeb8267f2e0c0", "type": "electric_scooter", "is_disabled": 0, "lat": 38.935335, "rental_uris": {"ios": "https://dc.lft.to/lastmile_qr_scan", "android": "https://dc.lft.to/lastmile_qr_scan"}, "is_reserved": 0, "fusion_lon": 0.0, "fusion_lat": 0.0, "lon": -77.03889083333334, "name": "bb71520ab3b03f2f8d3eeb8267f2e0c0"}, {"bike_id": "6c74a12a17e7b99accbbdf26bab7170b", "type": "electric_bike", "is_disabled": 0, "lat": 38.946520666666665, "rental_uris": {"ios": "https://dc.lft.to/lastmile_qr_scan", "android": "https://dc.lft.to/lastmile_qr_scan"}, "is_reserved": 0, "fusion_lon": 0.0, "fusion_lat": 0.0, "lon": -76.99487383333333, "name": "6c74a12a17e7b99accbbdf26bab7170b"}, {"bike_id": "862044b3eb843f5a0027fbe929cef918", "type": "electric_scooter", "is_disabled": 0, "lat": 38.900075666666666, "rental_uris": {"ios": "https://dc.lft.to/lastmile_qr_scan", "android": "https://dc.lft.to/lastmile_qr_scan"}, "is_reserved": 0, "fusion_lon": 0.0, "fusion_lat": 0.0, "lon": -77.00198216666666, "name": "862044b3eb843f5a0027fbe929cef918"}, {"bike_id": "cca34f6f880d49bc2b1dbbd6b9d74c49", "type": "electric_scooter", "is_disabled": 0, "lat": 38.90798066666667, "rental_uris": {"ios": "https://dc.lft.to/lastmile_qr_scan", "android": "https://dc.lft.to/lastmile_qr_scan"}, "is_reserved": 0, "fusion_lon": 0.0, "fusion_lat": 0.0, "lon": -77.03127766666667, "name": "cca34f6f880d49bc2b1dbbd6b9d74c49"}, {"bike_id": "ebd0947ac6c1e7a91728f8aa4b48b9c5", "type": "electric_scooter", "is_disabled": 0, "lat": 38.91014, "rental_uris": {"ios": "https://dc.lft.to/lastmile_qr_scan", "android": "https://dc.lft.to/lastmile_qr_scan"}, "is_reserved": 0, "fusion_lon": 0.0, "fusion_lat": 0.0, "lon": -77.01621166666666, "name": "ebd0947ac6c1e7a91728f8aa4b48b9c5"}, {"bike_id": "c5e3d8543ff55281843894831191ea69", "type": "electric_scooter", "is_disabled": 0, "lat": 38.914198666666664, "rental_uris": {"ios": "https://dc.lft.to/lastmile_qr_scan", "android": "https://dc.lft.to/lastmile_qr_scan"}, "is_reserved": 0, "fusion_lon": 0.0, "fusion_lat": 0.0, "lon": -77.02289983333333, "name": "c5e3d8543ff55281843894831191ea69"}, {"bike_id": "a5bae2b52dc6b1cf1db3666fad354a7b", "type": "electric_scooter", "is_disabled": 0, "lat": 38.905169666666666, "rental_uris": {"ios": "https://dc.lft.to/lastmile_qr_scan", "android": "https://dc.lft.to/lastmile_qr_scan"}, "is_reserved": 0, "fusion_lon": 0.0, "fusion_lat": 0.0, "lon": -77.02973333333334, "name": "a5bae2b52dc6b1cf1db3666fad354a7b"}, {"bike_id": "5240e90d08ccccce0823df0761b0a0f7", "type": "electric_scooter", "is_disabled": 0, "lat": 38.91141416666667, "rental_uris": {"ios": "https://dc.lft.to/lastmile_qr_scan", "android": "https://dc.lft.to/lastmile_qr_scan"}, "is_reserved": 0, "fusion_lon": 0.0, "fusion_lat": 0.0, "lon": -77.02801433333333, "name": "5240e90d08ccccce0823df0761b0a0f7"}, {"bike_id": "568b8b410b7bc6c6c735331f1797eec2", "type": "electric_scooter", "is_disabled": 0, "lat": 38.918029, "rental_uris": {"ios": "https://dc.lft.to/lastmile_qr_scan", "android": "https://dc.lft.to/lastmile_qr_scan"}, "is_reserved": 0, "fusion_lon": 0.0, "fusion_lat": 0.0, "lon": -77.03253766666667, "name": "568b8b410b7bc6c6c735331f1797eec2"}, {"bike_id": "c13c14a5e4f7666b9352c28426779129", "type": "electric_scooter", "is_disabled": 0, "lat": 38.93875, "rental_uris": {"ios": "https://dc.lft.to/lastmile_qr_scan", "android": "https://dc.lft.to/lastmile_qr_scan"}, "is_reserved": 0, "fusion_lon": 0.0, "fusion_lat": 0.0, "lon": -77.029208, "name": "c13c14a5e4f7666b9352c28426779129"}, {"bike_id": "519b8a64dd2214a1d4c431faf1361295", "type": "electric_bike", "is_disabled": 0, "lat": 38.95593233333334, "rental_uris": {"ios": "https://dc.lft.to/lastmile_qr_scan", "android": "https://dc.lft.to/lastmile_qr_scan"}, "is_reserved": 0, "fusion_lon": 0.0, "fusion_lat": 0.0, "lon": -77.08794566666667, "name": "519b8a64dd2214a1d4c431faf1361295"}, {"bike_id": "49e36ef715e1a0d46c102765af03ecef", "type": "electric_bike", "is_disabled": 0, "lat": 38.95247766666667, "rental_uris": {"ios": "https://dc.lft.to/lastmile_qr_scan", "android": "https://dc.lft.to/lastmile_qr_scan"}, "is_reserved": 0, "fusion_lon": 0.0, "fusion_lat": 0.0, "lon": -76.97672716666666, "name": "49e36ef715e1a0d46c102765af03ecef"}, {"bike_id": "3b8ce239cdccdc1d0853a7f08e5638fb", "type": "electric_scooter", "is_disabled": 0, "lat": 38.911193, "rental_uris": {"ios": "https://dc.lft.to/lastmile_qr_scan", "android": "https://dc.lft.to/lastmile_qr_scan"}, "is_reserved": 0, "fusion_lon": 0.0, "fusion_lat": 0.0, "lon": -77.039151, "name": "3b8ce239cdccdc1d0853a7f08e5638fb"}, {"bike_id": "85714ec4620dbfe92da91d0e267df6a4", "type": "electric_scooter", "is_disabled": 0, "lat": 38.9170455, "rental_uris": {"ios": "https://dc.lft.to/lastmile_qr_scan", "android": "https://dc.lft.to/lastmile_qr_scan"}, "is_reserved": 0, "fusion_lon": 0.0, "fusion_lat": 0.0, "lon": -77.0346035, "name": "85714ec4620dbfe92da91d0e267df6a4"}, {"bike_id": "d86da24bdedf627945c9c9dc65e1b160", "type": "electric_scooter", "is_disabled": 0, "lat": 38.935305, "rental_uris": {"ios": "https://dc.lft.to/lastmile_qr_scan", "android": "https://dc.lft.to/lastmile_qr_scan"}, "is_reserved": 0, "fusion_lon": 0.0, "fusion_lat": 0.0, "lon": -77.0296185, "name": "d86da24bdedf627945c9c9dc65e1b160"}, {"bike_id": "7381293c30c92045e12aa08832662dc0", "type": "electric_scooter", "is_disabled": 0, "lat": 38.90639766666666, "rental_uris": {"ios": "https://dc.lft.to/lastmile_qr_scan", "android": "https://dc.lft.to/lastmile_qr_scan"}, "is_reserved": 0, "fusion_lon": 0.0, "fusion_lat": 0.0, "lon": -77.0101625, "name": "7381293c30c92045e12aa08832662dc0"}, {"bike_id": "3907a70cb58b6c573c3fb67322eee533", "type": "electric_scooter", "is_disabled": 0, "lat": 38.97203283333333, "rental_uris": {"ios": "https://dc.lft.to/lastmile_qr_scan", "android": "https://dc.lft.to/lastmile_qr_scan"}, "is_reserved": 0, "fusion_lon": 0.0, "fusion_lat": 0.0, "lon": -77.02641166666666, "name": "3907a70cb58b6c573c3fb67322eee533"}, {"bike_id": "6123172a5ab58b6ded5954f92bea0c57", "type": "electric_bike", "is_disabled": 0, "lat": 38.8921885, "rental_uris": {"ios": "https://dc.lft.to/lastmile_qr_scan", "android": "https://dc.lft.to/lastmile_qr_scan"}, "is_reserved": 0, "fusion_lon": 0.0, "fusion_lat": 0.0, "lon": -76.97081116666666, "name": "6123172a5ab58b6ded5954f92bea0c57"}, {"bike_id": "6078e772c6e220899b5139338b5d615a", "type": "electric_bike", "is_disabled": 0, "lat": 38.95709216666667, "rental_uris": {"ios": "https://dc.lft.to/lastmile_qr_scan", "android": "https://dc.lft.to/lastmile_qr_scan"}, "is_reserved": 0, "fusion_lon": 0.0, "fusion_lat": 0.0, "lon": -77.00279516666667, "name": "6078e772c6e220899b5139338b5d615a"}, {"bike_id": "e2b0a1127e44d2a42646d478e0034efb", "type": "electric_scooter", "is_disabled": 0, "lat": 38.91659383333333, "rental_uris": {"ios": "https://dc.lft.to/lastmile_qr_scan", "android": "https://dc.lft.to/lastmile_qr_scan"}, "is_reserved": 0, "fusion_lon": 0.0, "fusion_lat": 0.0, "lon": -77.0319425, "name": "e2b0a1127e44d2a42646d478e0034efb"}, {"bike_id": "6810adc3158689824f7386eda43242d1", "type": "electric_scooter", "is_disabled": 0, "lat": 38.93538483333333, "rental_uris": {"ios": "https://dc.lft.to/lastmile_qr_scan", "android": "https://dc.lft.to/lastmile_qr_scan"}, "is_reserved": 0, "fusion_lon": 0.0, "fusion_lat": 0.0, "lon": -77.058283, "name": "6810adc3158689824f7386eda43242d1"}, {"bike_id": "536a8bfafbd885799bb62e0b274f94ef", "type": "electric_scooter", "is_disabled": 0, "lat": 38.905316, "rental_uris": {"ios": "https://dc.lft.to/lastmile_qr_scan", "android": "https://dc.lft.to/lastmile_qr_scan"}, "is_reserved": 0, "fusion_lon": 0.0, "fusion_lat": 0.0, "lon": -77.04997016666667, "name": "536a8bfafbd885799bb62e0b274f94ef"}, {"bike_id": "39ce0f46690651c29dd0a5a7916b2383", "type": "electric_scooter", "is_disabled": 0, "lat": 38.8934425, "rental_uris": {"ios": "https://dc.lft.to/lastmile_qr_scan", "android": "https://dc.lft.to/lastmile_qr_scan"}, "is_reserved": 0, "fusion_lon": 0.0, "fusion_lat": 0.0, "lon": -77.02429783333334, "name": "39ce0f46690651c29dd0a5a7916b2383"}, {"bike_id": "2d63be079babf5d1db252f6b63abb0b0", "type": "electric_scooter", "is_disabled": 0, "lat": 38.90499533333333, "rental_uris": {"ios": "https://dc.lft.to/lastmile_qr_scan", "android": "https://dc.lft.to/lastmile_qr_scan"}, "is_reserved": 0, "fusion_lon": 0.0, "fusion_lat": 0.0, "lon": -77.06114533333333, "name": "2d63be079babf5d1db252f6b63abb0b0"}, {"bike_id": "b8b167315b3d0c89550db0da870b57f3", "type": "electric_scooter", "is_disabled": 0, "lat": 38.895040333333334, "rental_uris": {"ios": "https://dc.lft.to/lastmile_qr_scan", "android": "https://dc.lft.to/lastmile_qr_scan"}, "is_reserved": 0, "fusion_lon": 0.0, "fusion_lat": 0.0, "lon": -77.0111115, "name": "b8b167315b3d0c89550db0da870b57f3"}, {"bike_id": "15a2e68937b3b20430e402e515a286b1", "type": "electric_scooter", "is_disabled": 0, "lat": 38.9177585, "rental_uris": {"ios": "https://dc.lft.to/lastmile_qr_scan", "android": "https://dc.lft.to/lastmile_qr_scan"}, "is_reserved": 0, "fusion_lon": 0.0, "fusion_lat": 0.0, "lon": -77.0476915, "name": "15a2e68937b3b20430e402e515a286b1"}, {"bike_id": "310639acbfd489614f559133d6c2e85a", "type": "electric_scooter", "is_disabled": 0, "lat": 38.9111885, "rental_uris": {"ios": "https://dc.lft.to/lastmile_qr_scan", "android": "https://dc.lft.to/lastmile_qr_scan"}, "is_reserved": 0, "fusion_lon": 0.0, "fusion_lat": 0.0, "lon": -77.044794, "name": "310639acbfd489614f559133d6c2e85a"}, {"bike_id": "acd9676ed193acf11383803f7629c0d7", "type": "electric_scooter", "is_disabled": 0, "lat": 38.90804883333333, "rental_uris": {"ios": "https://dc.lft.to/lastmile_qr_scan", "android": "https://dc.lft.to/lastmile_qr_scan"}, "is_reserved": 0, "fusion_lon": 0.0, "fusion_lat": 0.0, "lon": -77.03464983333333, "name": "acd9676ed193acf11383803f7629c0d7"}, {"bike_id": "203f2c5840d41bcbd5121e2612169e6b", "type": "electric_scooter", "is_disabled": 0, "lat": 38.91353866666667, "rental_uris": {"ios": "https://dc.lft.to/lastmile_qr_scan", "android": "https://dc.lft.to/lastmile_qr_scan"}, "is_reserved": 0, "fusion_lon": 0.0, "fusion_lat": 0.0, "lon": -77.02567983333333, "name": "203f2c5840d41bcbd5121e2612169e6b"}, {"bike_id": "4d73762de11789d415b584cfbdd2f80a", "type": "electric_scooter", "is_disabled": 0, "lat": 38.923919833333336, "rental_uris": {"ios": "https://dc.lft.to/lastmile_qr_scan", "android": "https://dc.lft.to/lastmile_qr_scan"}, "is_reserved": 0, "fusion_lon": 0.0, "fusion_lat": 0.0, "lon": -77.02607166666667, "name": "4d73762de11789d415b584cfbdd2f80a"}, {"bike_id": "7dcedbe71eba73d147b08dfbd5a75682", "type": "electric_scooter", "is_disabled": 0, "lat": 38.90681516666667, "rental_uris": {"ios": "https://dc.lft.to/lastmile_qr_scan", "android": "https://dc.lft.to/lastmile_qr_scan"}, "is_reserved": 0, "fusion_lon": 0.0, "fusion_lat": 0.0, "lon": -77.02693166666667, "name": "7dcedbe71eba73d147b08dfbd5a75682"}, {"bike_id": "48019a8181e6dd8acd17ef435682ffb5", "type": "electric_scooter", "is_disabled": 0, "lat": 38.90517666666667, "rental_uris": {"ios": "https://dc.lft.to/lastmile_qr_scan", "android": "https://dc.lft.to/lastmile_qr_scan"}, "is_reserved": 0, "fusion_lon": 0.0, "fusion_lat": 0.0, "lon": -77.00580333333333, "name": "48019a8181e6dd8acd17ef435682ffb5"}, {"bike_id": "990ef01f41967e335dfe34e19e3e2b0c", "type": "electric_scooter", "is_disabled": 0, "lat": 38.896128, "rental_uris": {"ios": "https://dc.lft.to/lastmile_qr_scan", "android": "https://dc.lft.to/lastmile_qr_scan"}, "is_reserved": 0, "fusion_lon": 0.0, "fusion_lat": 0.0, "lon": -76.98164566666667, "name": "990ef01f41967e335dfe34e19e3e2b0c"}, {"bike_id": "14693d55371ad043e3b47ed3b994828f", "type": "electric_scooter", "is_disabled": 0, "lat": 38.90001433333333, "rental_uris": {"ios": "https://dc.lft.to/lastmile_qr_scan", "android": "https://dc.lft.to/lastmile_qr_scan"}, "is_reserved": 0, "fusion_lon": 0.0, "fusion_lat": 0.0, "lon": -77.0465555, "name": "14693d55371ad043e3b47ed3b994828f"}, {"bike_id": "96bf4ad03b7945ea823b148390444e55", "type": "electric_scooter", "is_disabled": 0, "lat": 38.91776316666667, "rental_uris": {"ios": "https://dc.lft.to/lastmile_qr_scan", "android": "https://dc.lft.to/lastmile_qr_scan"}, "is_reserved": 0, "fusion_lon": 0.0, "fusion_lat": 0.0, "lon": -77.023059, "name": "96bf4ad03b7945ea823b148390444e55"}, {"bike_id": "0bc7141e6770d83fb0c5b04fc9f2068b", "type": "electric_scooter", "is_disabled": 0, "lat": 38.8992335, "rental_uris": {"ios": "https://dc.lft.to/lastmile_qr_scan", "android": "https://dc.lft.to/lastmile_qr_scan"}, "is_reserved": 0, "fusion_lon": 0.0, "fusion_lat": 0.0, "lon": -77.05367633333333, "name": "0bc7141e6770d83fb0c5b04fc9f2068b"}, {"bike_id": "b8350ed54070ee2fc8e761716179a6f7", "type": "electric_scooter", "is_disabled": 0, "lat": 38.901081166666664, "rental_uris": {"ios": "https://dc.lft.to/lastmile_qr_scan", "android": "https://dc.lft.to/lastmile_qr_scan"}, "is_reserved": 0, "fusion_lon": 0.0, "fusion_lat": 0.0, "lon": -77.0180955, "name": "b8350ed54070ee2fc8e761716179a6f7"}, {"bike_id": "7bab55f9ab4ccce887eea7fe4f317b64", "type": "electric_scooter", "is_disabled": 0, "lat": 38.90533, "rental_uris": {"ios": "https://dc.lft.to/lastmile_qr_scan", "android": "https://dc.lft.to/lastmile_qr_scan"}, "is_reserved": 0, "fusion_lon": 0.0, "fusion_lat": 0.0, "lon": -77.0613825, "name": "7bab55f9ab4ccce887eea7fe4f317b64"}, {"bike_id": "f965e77841350dee85dfb5a40dbad905", "type": "electric_bike", "is_disabled": 0, "lat": 38.96304883333333, "rental_uris": {"ios": "https://dc.lft.to/lastmile_qr_scan", "android": "https://dc.lft.to/lastmile_qr_scan"}, "is_reserved": 0, "fusion_lon": 0.0, "fusion_lat": 0.0, "lon": -77.01112616666667, "name": "f965e77841350dee85dfb5a40dbad905"}, {"bike_id": "26e249bf90b38623702a0691c17a9c4b", "type": "electric_bike", "is_disabled": 0, "lat": 38.96322516666667, "rental_uris": {"ios": "https://dc.lft.to/lastmile_qr_scan", "android": "https://dc.lft.to/lastmile_qr_scan"}, "is_reserved": 0, "fusion_lon": 0.0, "fusion_lat": 0.0, "lon": -76.973631, "name": "26e249bf90b38623702a0691c17a9c4b"}, {"bike_id": "6a30405bc4d80313bb4aee829f9abbee", "type": "electric_scooter", "is_disabled": 0, "lat": 38.90503366666667, "rental_uris": {"ios": "https://dc.lft.to/lastmile_qr_scan", "android": "https://dc.lft.to/lastmile_qr_scan"}, "is_reserved": 0, "fusion_lon": 0.0, "fusion_lat": 0.0, "lon": -77.06012633333333, "name": "6a30405bc4d80313bb4aee829f9abbee"}, {"bike_id": "8a8902ee4a5a9f1278074493eb123202", "type": "electric_scooter", "is_disabled": 0, "lat": 38.92082416666667, "rental_uris": {"ios": "https://dc.lft.to/lastmile_qr_scan", "android": "https://dc.lft.to/lastmile_qr_scan"}, "is_reserved": 0, "fusion_lon": 0.0, "fusion_lat": 0.0, "lon": -77.02508983333334, "name": "8a8902ee4a5a9f1278074493eb123202"}, {"bike_id": "f1579cee9ac1795a0f32950042886e49", "type": "electric_scooter", "is_disabled": 0, "lat": 38.86674466666667, "rental_uris": {"ios": "https://dc.lft.to/lastmile_qr_scan", "android": "https://dc.lft.to/lastmile_qr_scan"}, "is_reserved": 0, "fusion_lon": 0.0, "fusion_lat": 0.0, "lon": -76.9853475, "name": "f1579cee9ac1795a0f32950042886e49"}, {"bike_id": "177c138f0903f7bb3bdbec5a1e252fbb", "type": "electric_scooter", "is_disabled": 0, "lat": 38.9021405, "rental_uris": {"ios": "https://dc.lft.to/lastmile_qr_scan", "android": "https://dc.lft.to/lastmile_qr_scan"}, "is_reserved": 0, "fusion_lon": 0.0, "fusion_lat": 0.0, "lon": -77.023743, "name": "177c138f0903f7bb3bdbec5a1e252fbb"}, {"bike_id": "b0bcf1ff3042d6b46aa56241e2c0f5c3", "type": "electric_scooter", "is_disabled": 0, "lat": 38.897141833333336, "rental_uris": {"ios": "https://dc.lft.to/lastmile_qr_scan", "android": "https://dc.lft.to/lastmile_qr_scan"}, "is_reserved": 0, "fusion_lon": 0.0, "fusion_lat": 0.0, "lon": -77.00858183333334, "name": "b0bcf1ff3042d6b46aa56241e2c0f5c3"}, {"bike_id": "fd80ea49bdbaf0169800f2404608a39c", "type": "electric_scooter", "is_disabled": 0, "lat": 38.92340866666667, "rental_uris": {"ios": "https://dc.lft.to/lastmile_qr_scan", "android": "https://dc.lft.to/lastmile_qr_scan"}, "is_reserved": 0, "fusion_lon": 0.0, "fusion_lat": 0.0, "lon": -77.04173533333334, "name": "fd80ea49bdbaf0169800f2404608a39c"}, {"bike_id": "bde56d3a9d4b2f6b0c069b1399c0467c", "type": "electric_scooter", "is_disabled": 0, "lat": 38.915676833333336, "rental_uris": {"ios": "https://dc.lft.to/lastmile_qr_scan", "android": "https://dc.lft.to/lastmile_qr_scan"}, "is_reserved": 0, "fusion_lon": 0.0, "fusion_lat": 0.0, "lon": -77.04275116666666, "name": "bde56d3a9d4b2f6b0c069b1399c0467c"}, {"bike_id": "7193d56beb32cef7116efc9443981293", "type": "electric_scooter", "is_disabled": 0, "lat": 38.91108533333333, "rental_uris": {"ios": "https://dc.lft.to/lastmile_qr_scan", "android": "https://dc.lft.to/lastmile_qr_scan"}, "is_reserved": 0, "fusion_lon": 0.0, "fusion_lat": 0.0, "lon": -77.03294583333333, "name": "7193d56beb32cef7116efc9443981293"}, {"bike_id": "b32d5266c833a7c06f4536dbb98321df", "type": "electric_scooter", "is_disabled": 0, "lat": 38.912403166666664, "rental_uris": {"ios": "https://dc.lft.to/lastmile_qr_scan", "android": "https://dc.lft.to/lastmile_qr_scan"}, "is_reserved": 0, "fusion_lon": 0.0, "fusion_lat": 0.0, "lon": -77.0091755, "name": "b32d5266c833a7c06f4536dbb98321df"}, {"bike_id": "6a04c9f4ad2bca402d4044e90c320dfc", "type": "electric_scooter", "is_disabled": 0, "lat": 38.94899566666667, "rental_uris": {"ios": "https://dc.lft.to/lastmile_qr_scan", "android": "https://dc.lft.to/lastmile_qr_scan"}, "is_reserved": 0, "fusion_lon": 0.0, "fusion_lat": 0.0, "lon": -77.00652066666666, "name": "6a04c9f4ad2bca402d4044e90c320dfc"}, {"bike_id": "bc6a35cef4f69a7463581a707db36218", "type": "electric_scooter", "is_disabled": 0, "lat": 38.91671383333333, "rental_uris": {"ios": "https://dc.lft.to/lastmile_qr_scan", "android": "https://dc.lft.to/lastmile_qr_scan"}, "is_reserved": 0, "fusion_lon": 0.0, "fusion_lat": 0.0, "lon": -77.028996, "name": "bc6a35cef4f69a7463581a707db36218"}, {"bike_id": "2331c62109aa390187c8e0e26d421846", "type": "electric_scooter", "is_disabled": 0, "lat": 38.906583833333336, "rental_uris": {"ios": "https://dc.lft.to/lastmile_qr_scan", "android": "https://dc.lft.to/lastmile_qr_scan"}, "is_reserved": 0, "fusion_lon": 0.0, "fusion_lat": 0.0, "lon": -77.0531805, "name": "2331c62109aa390187c8e0e26d421846"}, {"bike_id": "847f7b02b61286979c98dc780ec38f62", "type": "electric_scooter", "is_disabled": 0, "lat": 38.924027833333334, "rental_uris": {"ios": "https://dc.lft.to/lastmile_qr_scan", "android": "https://dc.lft.to/lastmile_qr_scan"}, "is_reserved": 0, "fusion_lon": 0.0, "fusion_lat": 0.0, "lon": -77.02981816666667, "name": "847f7b02b61286979c98dc780ec38f62"}, {"bike_id": "f870f4d3cab642d4d5fc4a416055ae13", "type": "electric_scooter", "is_disabled": 0, "lat": 38.93288166666667, "rental_uris": {"ios": "https://dc.lft.to/lastmile_qr_scan", "android": "https://dc.lft.to/lastmile_qr_scan"}, "is_reserved": 0, "fusion_lon": 0.0, "fusion_lat": 0.0, "lon": -77.03614783333333, "name": "f870f4d3cab642d4d5fc4a416055ae13"}, {"bike_id": "4090b0a8cc6152ca1c4f2ab7b797d9a1", "type": "electric_scooter", "is_disabled": 0, "lat": 38.9086445, "rental_uris": {"ios": "https://dc.lft.to/lastmile_qr_scan", "android": "https://dc.lft.to/lastmile_qr_scan"}, "is_reserved": 0, "fusion_lon": 0.0, "fusion_lat": 0.0, "lon": -77.02829583333333, "name": "4090b0a8cc6152ca1c4f2ab7b797d9a1"}, {"bike_id": "dbdb6849db74527e391a456733dbe6c8", "type": "electric_scooter", "is_disabled": 0, "lat": 38.915963, "rental_uris": {"ios": "https://dc.lft.to/lastmile_qr_scan", "android": "https://dc.lft.to/lastmile_qr_scan"}, "is_reserved": 0, "fusion_lon": 0.0, "fusion_lat": 0.0, "lon": -77.012274, "name": "dbdb6849db74527e391a456733dbe6c8"}, {"bike_id": "66abfa1db46d30684993c1b11ce7c4e2", "type": "electric_scooter", "is_disabled": 0, "lat": 38.924615, "rental_uris": {"ios": "https://dc.lft.to/lastmile_qr_scan", "android": "https://dc.lft.to/lastmile_qr_scan"}, "is_reserved": 0, "fusion_lon": 0.0, "fusion_lat": 0.0, "lon": -77.05232183333334, "name": "66abfa1db46d30684993c1b11ce7c4e2"}, {"bike_id": "ddc13d9b9c242060499647107d5bd34c", "type": "electric_scooter", "is_disabled": 0, "lat": 38.910403333333335, "rental_uris": {"ios": "https://dc.lft.to/lastmile_qr_scan", "android": "https://dc.lft.to/lastmile_qr_scan"}, "is_reserved": 0, "fusion_lon": 0.0, "fusion_lat": 0.0, "lon": -77.01020733333333, "name": "ddc13d9b9c242060499647107d5bd34c"}, {"bike_id": "f4f12370636a91d9db6b7d272048c191", "type": "electric_bike", "is_disabled": 0, "lat": 38.88346683333333, "rental_uris": {"ios": "https://dc.lft.to/lastmile_qr_scan", "android": "https://dc.lft.to/lastmile_qr_scan"}, "is_reserved": 0, "fusion_lon": 0.0, "fusion_lat": 0.0, "lon": -76.93627566666666, "name": "f4f12370636a91d9db6b7d272048c191"}, {"bike_id": "861c376ddc87378c0d52e2b021d38567", "type": "electric_scooter", "is_disabled": 0, "lat": 38.9216565, "rental_uris": {"ios": "https://dc.lft.to/lastmile_qr_scan", "android": "https://dc.lft.to/lastmile_qr_scan"}, "is_reserved": 0, "fusion_lon": 0.0, "fusion_lat": 0.0, "lon": -77.033683, "name": "861c376ddc87378c0d52e2b021d38567"}, {"bike_id": "a3e402830fd4e1e9c21dce4ef3533597", "type": "electric_scooter", "is_disabled": 0, "lat": 38.92891016666667, "rental_uris": {"ios": "https://dc.lft.to/lastmile_qr_scan", "android": "https://dc.lft.to/lastmile_qr_scan"}, "is_reserved": 0, "fusion_lon": 0.0, "fusion_lat": 0.0, "lon": -77.0326535, "name": "a3e402830fd4e1e9c21dce4ef3533597"}, {"bike_id": "f0fcd01a9cf003d6982048e67d67886a", "type": "electric_scooter", "is_disabled": 0, "lat": 38.90300416666667, "rental_uris": {"ios": "https://dc.lft.to/lastmile_qr_scan", "android": "https://dc.lft.to/lastmile_qr_scan"}, "is_reserved": 0, "fusion_lon": 0.0, "fusion_lat": 0.0, "lon": -77.02422433333334, "name": "f0fcd01a9cf003d6982048e67d67886a"}, {"bike_id": "9b98e213cabc1210c23b58d8b6dd78cd", "type": "electric_scooter", "is_disabled": 0, "lat": 38.908164666666664, "rental_uris": {"ios": "https://dc.lft.to/lastmile_qr_scan", "android": "https://dc.lft.to/lastmile_qr_scan"}, "is_reserved": 0, "fusion_lon": 0.0, "fusion_lat": 0.0, "lon": -77.03853016666666, "name": "9b98e213cabc1210c23b58d8b6dd78cd"}, {"bike_id": "994b28564c059116301b93418a304f6a", "type": "electric_scooter", "is_disabled": 0, "lat": 38.905683, "rental_uris": {"ios": "https://dc.lft.to/lastmile_qr_scan", "android": "https://dc.lft.to/lastmile_qr_scan"}, "is_reserved": 0, "fusion_lon": 0.0, "fusion_lat": 0.0, "lon": -77.02834466666667, "name": "994b28564c059116301b93418a304f6a"}, {"bike_id": "223e343d0729d1ddd68a8c786118cd8c", "type": "electric_scooter", "is_disabled": 0, "lat": 38.93280266666667, "rental_uris": {"ios": "https://dc.lft.to/lastmile_qr_scan", "android": "https://dc.lft.to/lastmile_qr_scan"}, "is_reserved": 0, "fusion_lon": 0.0, "fusion_lat": 0.0, "lon": -77.02869066666666, "name": "223e343d0729d1ddd68a8c786118cd8c"}, {"bike_id": "8235e55c1e5cdd01ef01e760222c749a", "type": "electric_scooter", "is_disabled": 0, "lat": 38.9207605, "rental_uris": {"ios": "https://dc.lft.to/lastmile_qr_scan", "android": "https://dc.lft.to/lastmile_qr_scan"}, "is_reserved": 0, "fusion_lon": 0.0, "fusion_lat": 0.0, "lon": -77.01456916666666, "name": "8235e55c1e5cdd01ef01e760222c749a"}, {"bike_id": "4c00e7731bd97ddfb261608675b24dbc", "type": "electric_scooter", "is_disabled": 0, "lat": 38.866888333333335, "rental_uris": {"ios": "https://dc.lft.to/lastmile_qr_scan", "android": "https://dc.lft.to/lastmile_qr_scan"}, "is_reserved": 0, "fusion_lon": 0.0, "fusion_lat": 0.0, "lon": -76.985679, "name": "4c00e7731bd97ddfb261608675b24dbc"}, {"bike_id": "19b18d2f192ea0e44e56332ebe589a71", "type": "electric_scooter", "is_disabled": 0, "lat": 38.908834666666664, "rental_uris": {"ios": "https://dc.lft.to/lastmile_qr_scan", "android": "https://dc.lft.to/lastmile_qr_scan"}, "is_reserved": 0, "fusion_lon": 0.0, "fusion_lat": 0.0, "lon": -76.9985635, "name": "19b18d2f192ea0e44e56332ebe589a71"}, {"bike_id": "417b7b74b63d9af8dad64d3821615ecf", "type": "electric_scooter", "is_disabled": 0, "lat": 38.88479316666667, "rental_uris": {"ios": "https://dc.lft.to/lastmile_qr_scan", "android": "https://dc.lft.to/lastmile_qr_scan"}, "is_reserved": 0, "fusion_lon": 0.0, "fusion_lat": 0.0, "lon": -77.02367883333334, "name": "417b7b74b63d9af8dad64d3821615ecf"}, {"bike_id": "fe559954a8be08606092545c5acd928f", "type": "electric_scooter", "is_disabled": 0, "lat": 38.9026455, "rental_uris": {"ios": "https://dc.lft.to/lastmile_qr_scan", "android": "https://dc.lft.to/lastmile_qr_scan"}, "is_reserved": 0, "fusion_lon": 0.0, "fusion_lat": 0.0, "lon": -77.00326, "name": "fe559954a8be08606092545c5acd928f"}, {"bike_id": "ff5ac1d581c7794479b6a19cc437f3d1", "type": "electric_scooter", "is_disabled": 0, "lat": 38.89194233333333, "rental_uris": {"ios": "https://dc.lft.to/lastmile_qr_scan", "android": "https://dc.lft.to/lastmile_qr_scan"}, "is_reserved": 0, "fusion_lon": 0.0, "fusion_lat": 0.0, "lon": -77.00233333333334, "name": "ff5ac1d581c7794479b6a19cc437f3d1"}, {"bike_id": "157a998bca392de0637202b2b5ca5572", "type": "electric_scooter", "is_disabled": 0, "lat": 38.91357516666667, "rental_uris": {"ios": "https://dc.lft.to/lastmile_qr_scan", "android": "https://dc.lft.to/lastmile_qr_scan"}, "is_reserved": 0, "fusion_lon": 0.0, "fusion_lat": 0.0, "lon": -77.04485866666667, "name": "157a998bca392de0637202b2b5ca5572"}, {"bike_id": "344d3694bc3b968f14554dc5ba11e8b2", "type": "electric_scooter", "is_disabled": 0, "lat": 38.91285583333333, "rental_uris": {"ios": "https://dc.lft.to/lastmile_qr_scan", "android": "https://dc.lft.to/lastmile_qr_scan"}, "is_reserved": 0, "fusion_lon": 0.0, "fusion_lat": 0.0, "lon": -77.02710616666667, "name": "344d3694bc3b968f14554dc5ba11e8b2"}, {"bike_id": "06663cd65f8c96f8d8fd99d4b43d94d8", "type": "electric_scooter", "is_disabled": 0, "lat": 38.89743716666667, "rental_uris": {"ios": "https://dc.lft.to/lastmile_qr_scan", "android": "https://dc.lft.to/lastmile_qr_scan"}, "is_reserved": 0, "fusion_lon": 0.0, "fusion_lat": 0.0, "lon": -77.03353433333334, "name": "06663cd65f8c96f8d8fd99d4b43d94d8"}, {"bike_id": "70855ed31f2009ff1ffae14eb87fc7fa", "type": "electric_scooter", "is_disabled": 0, "lat": 38.881142833333335, "rental_uris": {"ios": "https://dc.lft.to/lastmile_qr_scan", "android": "https://dc.lft.to/lastmile_qr_scan"}, "is_reserved": 0, "fusion_lon": 0.0, "fusion_lat": 0.0, "lon": -77.01645466666666, "name": "70855ed31f2009ff1ffae14eb87fc7fa"}, {"bike_id": "65ff21588474f80994a1d5df1c1eeb87", "type": "electric_scooter", "is_disabled": 0, "lat": 38.87071983333333, "rental_uris": {"ios": "https://dc.lft.to/lastmile_qr_scan", "android": "https://dc.lft.to/lastmile_qr_scan"}, "is_reserved": 0, "fusion_lon": 0.0, "fusion_lat": 0.0, "lon": -76.9892445, "name": "65ff21588474f80994a1d5df1c1eeb87"}, {"bike_id": "3bcaa0d5a4b522504c34de67dfe19e81", "type": "electric_scooter", "is_disabled": 0, "lat": 38.92088233333333, "rental_uris": {"ios": "https://dc.lft.to/lastmile_qr_scan", "android": "https://dc.lft.to/lastmile_qr_scan"}, "is_reserved": 0, "fusion_lon": 0.0, "fusion_lat": 0.0, "lon": -77.0253105, "name": "3bcaa0d5a4b522504c34de67dfe19e81"}, {"bike_id": "5274eb37ec5d6a45ba16cf7a9795816f", "type": "electric_scooter", "is_disabled": 0, "lat": 38.916493, "rental_uris": {"ios": "https://dc.lft.to/lastmile_qr_scan", "android": "https://dc.lft.to/lastmile_qr_scan"}, "is_reserved": 0, "fusion_lon": 0.0, "fusion_lat": 0.0, "lon": -77.046518, "name": "5274eb37ec5d6a45ba16cf7a9795816f"}, {"bike_id": "e7986a1c3355cf196a0ab12883da820b", "type": "electric_scooter", "is_disabled": 0, "lat": 38.90680316666667, "rental_uris": {"ios": "https://dc.lft.to/lastmile_qr_scan", "android": "https://dc.lft.to/lastmile_qr_scan"}, "is_reserved": 0, "fusion_lon": 0.0, "fusion_lat": 0.0, "lon": -77.07153133333334, "name": "e7986a1c3355cf196a0ab12883da820b"}, {"bike_id": "d4d6e829cc1170298eca7e2315d35375", "type": "electric_scooter", "is_disabled": 0, "lat": 38.9000835, "rental_uris": {"ios": "https://dc.lft.to/lastmile_qr_scan", "android": "https://dc.lft.to/lastmile_qr_scan"}, "is_reserved": 0, "fusion_lon": 0.0, "fusion_lat": 0.0, "lon": -77.00090933333334, "name": "d4d6e829cc1170298eca7e2315d35375"}, {"bike_id": "d9e00f9094e88c3255b3d22fc1acfd12", "type": "electric_scooter", "is_disabled": 0, "lat": 38.9072465, "rental_uris": {"ios": "https://dc.lft.to/lastmile_qr_scan", "android": "https://dc.lft.to/lastmile_qr_scan"}, "is_reserved": 0, "fusion_lon": 0.0, "fusion_lat": 0.0, "lon": -77.04508466666667, "name": "d9e00f9094e88c3255b3d22fc1acfd12"}, {"bike_id": "1edee42459d29a636bf3e71eb6f2a949", "type": "electric_scooter", "is_disabled": 0, "lat": 38.90291916666666, "rental_uris": {"ios": "https://dc.lft.to/lastmile_qr_scan", "android": "https://dc.lft.to/lastmile_qr_scan"}, "is_reserved": 0, "fusion_lon": 0.0, "fusion_lat": 0.0, "lon": -76.98346566666666, "name": "1edee42459d29a636bf3e71eb6f2a949"}, {"bike_id": "ee7a9b093716a6c2fe2a125ce274f592", "type": "electric_scooter", "is_disabled": 0, "lat": 38.93229866666667, "rental_uris": {"ios": "https://dc.lft.to/lastmile_qr_scan", "android": "https://dc.lft.to/lastmile_qr_scan"}, "is_reserved": 0, "fusion_lon": 0.0, "fusion_lat": 0.0, "lon": -77.033916, "name": "ee7a9b093716a6c2fe2a125ce274f592"}, {"bike_id": "18791a2d59cec48cc8a9bf3bf42874f3", "type": "electric_scooter", "is_disabled": 0, "lat": 38.910367666666666, "rental_uris": {"ios": "https://dc.lft.to/lastmile_qr_scan", "android": "https://dc.lft.to/lastmile_qr_scan"}, "is_reserved": 0, "fusion_lon": 0.0, "fusion_lat": 0.0, "lon": -77.03826116666667, "name": "18791a2d59cec48cc8a9bf3bf42874f3"}, {"bike_id": "0128c82b54aeb72e7d55c97632b37642", "type": "electric_scooter", "is_disabled": 0, "lat": 38.93457433333333, "rental_uris": {"ios": "https://dc.lft.to/lastmile_qr_scan", "android": "https://dc.lft.to/lastmile_qr_scan"}, "is_reserved": 0, "fusion_lon": 0.0, "fusion_lat": 0.0, "lon": -77.03044716666666, "name": "0128c82b54aeb72e7d55c97632b37642"}, {"bike_id": "ecc90a10fb13eb2138769c47170d43ce", "type": "electric_scooter", "is_disabled": 0, "lat": 38.93533166666667, "rental_uris": {"ios": "https://dc.lft.to/lastmile_qr_scan", "android": "https://dc.lft.to/lastmile_qr_scan"}, "is_reserved": 0, "fusion_lon": 0.0, "fusion_lat": 0.0, "lon": -77.02348066666667, "name": "ecc90a10fb13eb2138769c47170d43ce"}, {"bike_id": "5a9abb32d7d6ddb07df4e49719d52add", "type": "electric_scooter", "is_disabled": 0, "lat": 38.92056483333333, "rental_uris": {"ios": "https://dc.lft.to/lastmile_qr_scan", "android": "https://dc.lft.to/lastmile_qr_scan"}, "is_reserved": 0, "fusion_lon": 0.0, "fusion_lat": 0.0, "lon": -77.03462366666666, "name": "5a9abb32d7d6ddb07df4e49719d52add"}, {"bike_id": "4f241496a27f3f2b4ec78d5c58e430cd", "type": "electric_scooter", "is_disabled": 0, "lat": 38.8966735, "rental_uris": {"ios": "https://dc.lft.to/lastmile_qr_scan", "android": "https://dc.lft.to/lastmile_qr_scan"}, "is_reserved": 0, "fusion_lon": 0.0, "fusion_lat": 0.0, "lon": -76.9881325, "name": "4f241496a27f3f2b4ec78d5c58e430cd"}, {"bike_id": "fb2271c8d30d708c12480f943cae8bf0", "type": "electric_scooter", "is_disabled": 0, "lat": 38.920582333333336, "rental_uris": {"ios": "https://dc.lft.to/lastmile_qr_scan", "android": "https://dc.lft.to/lastmile_qr_scan"}, "is_reserved": 0, "fusion_lon": 0.0, "fusion_lat": 0.0, "lon": -77.0237765, "name": "fb2271c8d30d708c12480f943cae8bf0"}, {"bike_id": "0c7c1557aca3cd728d59c71e355f6a24", "type": "electric_bike", "is_disabled": 0, "lat": 39.039887666666665, "rental_uris": {"ios": "https://dc.lft.to/lastmile_qr_scan", "android": "https://dc.lft.to/lastmile_qr_scan"}, "is_reserved": 0, "fusion_lon": 0.0, "fusion_lat": 0.0, "lon": -76.999254, "name": "0c7c1557aca3cd728d59c71e355f6a24"}, {"bike_id": "2ff33d2e5ab7760f4a83a6eee3f117ab", "type": "electric_scooter", "is_disabled": 0, "lat": 38.9038275, "rental_uris": {"ios": "https://dc.lft.to/lastmile_qr_scan", "android": "https://dc.lft.to/lastmile_qr_scan"}, "is_reserved": 0, "fusion_lon": 0.0, "fusion_lat": 0.0, "lon": -77.0483465, "name": "2ff33d2e5ab7760f4a83a6eee3f117ab"}, {"bike_id": "d8ce32dbd4a10b2c16f9a7ee1c780743", "type": "electric_scooter", "is_disabled": 0, "lat": 38.909796666666665, "rental_uris": {"ios": "https://dc.lft.to/lastmile_qr_scan", "android": "https://dc.lft.to/lastmile_qr_scan"}, "is_reserved": 0, "fusion_lon": 0.0, "fusion_lat": 0.0, "lon": -77.03838516666667, "name": "d8ce32dbd4a10b2c16f9a7ee1c780743"}, {"bike_id": "119ba37ad8452a9f16490d0c59dbf21b", "type": "electric_scooter", "is_disabled": 0, "lat": 38.89732566666667, "rental_uris": {"ios": "https://dc.lft.to/lastmile_qr_scan", "android": "https://dc.lft.to/lastmile_qr_scan"}, "is_reserved": 0, "fusion_lon": 0.0, "fusion_lat": 0.0, "lon": -77.05474516666666, "name": "119ba37ad8452a9f16490d0c59dbf21b"}, {"bike_id": "27cfa916a586d005348dac69cf8e50ab", "type": "electric_scooter", "is_disabled": 0, "lat": 38.90649783333333, "rental_uris": {"ios": "https://dc.lft.to/lastmile_qr_scan", "android": "https://dc.lft.to/lastmile_qr_scan"}, "is_reserved": 0, "fusion_lon": 0.0, "fusion_lat": 0.0, "lon": -76.9858775, "name": "27cfa916a586d005348dac69cf8e50ab"}, {"bike_id": "f8c447e164146cd7b153203debc1f387", "type": "electric_scooter", "is_disabled": 0, "lat": 38.92214583333333, "rental_uris": {"ios": "https://dc.lft.to/lastmile_qr_scan", "android": "https://dc.lft.to/lastmile_qr_scan"}, "is_reserved": 0, "fusion_lon": 0.0, "fusion_lat": 0.0, "lon": -77.03458966666666, "name": "f8c447e164146cd7b153203debc1f387"}, {"bike_id": "177c2d4e7f90bcad9ba2081f197f96ad", "type": "electric_scooter", "is_disabled": 0, "lat": 38.90257483333333, "rental_uris": {"ios": "https://dc.lft.to/lastmile_qr_scan", "android": "https://dc.lft.to/lastmile_qr_scan"}, "is_reserved": 0, "fusion_lon": 0.0, "fusion_lat": 0.0, "lon": -76.97545733333334, "name": "177c2d4e7f90bcad9ba2081f197f96ad"}, {"bike_id": "d9fd9d1b66712e519ecd53876f315ef7", "type": "electric_scooter", "is_disabled": 0, "lat": 38.907746333333336, "rental_uris": {"ios": "https://dc.lft.to/lastmile_qr_scan", "android": "https://dc.lft.to/lastmile_qr_scan"}, "is_reserved": 0, "fusion_lon": 0.0, "fusion_lat": 0.0, "lon": -77.03856033333334, "name": "d9fd9d1b66712e519ecd53876f315ef7"}, {"bike_id": "95c20f9e5c1b6725eea6a58aae3f07d9", "type": "electric_scooter", "is_disabled": 0, "lat": 38.885267666666664, "rental_uris": {"ios": "https://dc.lft.to/lastmile_qr_scan", "android": "https://dc.lft.to/lastmile_qr_scan"}, "is_reserved": 0, "fusion_lon": 0.0, "fusion_lat": 0.0, "lon": -77.01137683333333, "name": "95c20f9e5c1b6725eea6a58aae3f07d9"}, {"bike_id": "978ecf726d7b300422e8e947347f2647", "type": "electric_scooter", "is_disabled": 0, "lat": 38.961381833333334, "rental_uris": {"ios": "https://dc.lft.to/lastmile_qr_scan", "android": "https://dc.lft.to/lastmile_qr_scan"}, "is_reserved": 0, "fusion_lon": 0.0, "fusion_lat": 0.0, "lon": -77.02986766666666, "name": "978ecf726d7b300422e8e947347f2647"}, {"bike_id": "1b13cdc08c22630cc36f01dc168c3738", "type": "electric_scooter", "is_disabled": 0, "lat": 38.90233933333333, "rental_uris": {"ios": "https://dc.lft.to/lastmile_qr_scan", "android": "https://dc.lft.to/lastmile_qr_scan"}, "is_reserved": 0, "fusion_lon": 0.0, "fusion_lat": 0.0, "lon": -77.00201716666666, "name": "1b13cdc08c22630cc36f01dc168c3738"}, {"bike_id": "1ba72fe011b50eeaede25e27c8f156a5", "type": "electric_scooter", "is_disabled": 0, "lat": 38.919884833333334, "rental_uris": {"ios": "https://dc.lft.to/lastmile_qr_scan", "android": "https://dc.lft.to/lastmile_qr_scan"}, "is_reserved": 0, "fusion_lon": 0.0, "fusion_lat": 0.0, "lon": -77.02397383333333, "name": "1ba72fe011b50eeaede25e27c8f156a5"}, {"bike_id": "e9ea8f63ed16e54e3c128a6ff0bb2277", "type": "electric_scooter", "is_disabled": 0, "lat": 38.90119633333333, "rental_uris": {"ios": "https://dc.lft.to/lastmile_qr_scan", "android": "https://dc.lft.to/lastmile_qr_scan"}, "is_reserved": 0, "fusion_lon": 0.0, "fusion_lat": 0.0, "lon": -77.0163305, "name": "e9ea8f63ed16e54e3c128a6ff0bb2277"}, {"bike_id": "a07be029b32cfabd29ef265511f180f7", "type": "electric_bike", "is_disabled": 0, "lat": 39.03700416666667, "rental_uris": {"ios": "https://dc.lft.to/lastmile_qr_scan", "android": "https://dc.lft.to/lastmile_qr_scan"}, "is_reserved": 0, "fusion_lon": 0.0, "fusion_lat": 0.0, "lon": -77.02861516666667, "name": "a07be029b32cfabd29ef265511f180f7"}, {"bike_id": "7510b99e84f27c1711826e8e3d82b48c", "type": "electric_scooter", "is_disabled": 0, "lat": 38.93701983333333, "rental_uris": {"ios": "https://dc.lft.to/lastmile_qr_scan", "android": "https://dc.lft.to/lastmile_qr_scan"}, "is_reserved": 0, "fusion_lon": 0.0, "fusion_lat": 0.0, "lon": -77.03270466666666, "name": "7510b99e84f27c1711826e8e3d82b48c"}, {"bike_id": "4fc0fc74f85434cf5ebf0955e6689264", "type": "electric_bike", "is_disabled": 0, "lat": 38.95503183333334, "rental_uris": {"ios": "https://dc.lft.to/lastmile_qr_scan", "android": "https://dc.lft.to/lastmile_qr_scan"}, "is_reserved": 0, "fusion_lon": 0.0, "fusion_lat": 0.0, "lon": -76.99355016666667, "name": "4fc0fc74f85434cf5ebf0955e6689264"}, {"bike_id": "d7ab10804d0f70dfa0f3763277a9286b", "type": "electric_scooter", "is_disabled": 0, "lat": 38.90340316666666, "rental_uris": {"ios": "https://dc.lft.to/lastmile_qr_scan", "android": "https://dc.lft.to/lastmile_qr_scan"}, "is_reserved": 0, "fusion_lon": 0.0, "fusion_lat": 0.0, "lon": -76.9850115, "name": "d7ab10804d0f70dfa0f3763277a9286b"}, {"bike_id": "fe966893ac3e1b5267ef5785914a37bd", "type": "electric_scooter", "is_disabled": 0, "lat": 38.90113383333333, "rental_uris": {"ios": "https://dc.lft.to/lastmile_qr_scan", "android": "https://dc.lft.to/lastmile_qr_scan"}, "is_reserved": 0, "fusion_lon": 0.0, "fusion_lat": 0.0, "lon": -77.04996116666666, "name": "fe966893ac3e1b5267ef5785914a37bd"}, {"bike_id": "d3d6327d269858c532994e459c97f84b", "type": "electric_scooter", "is_disabled": 0, "lat": 38.959364, "rental_uris": {"ios": "https://dc.lft.to/lastmile_qr_scan", "android": "https://dc.lft.to/lastmile_qr_scan"}, "is_reserved": 0, "fusion_lon": 0.0, "fusion_lat": 0.0, "lon": -77.03121366666667, "name": "d3d6327d269858c532994e459c97f84b"}, {"bike_id": "baa5d047500037064d5fe0cb95debd7b", "type": "electric_scooter", "is_disabled": 0, "lat": 38.941967166666664, "rental_uris": {"ios": "https://dc.lft.to/lastmile_qr_scan", "android": "https://dc.lft.to/lastmile_qr_scan"}, "is_reserved": 0, "fusion_lon": 0.0, "fusion_lat": 0.0, "lon": -77.0234985, "name": "baa5d047500037064d5fe0cb95debd7b"}, {"bike_id": "4cb29500f9d14a8189306e38226a92b3", "type": "electric_scooter", "is_disabled": 0, "lat": 38.9144485, "rental_uris": {"ios": "https://dc.lft.to/lastmile_qr_scan", "android": "https://dc.lft.to/lastmile_qr_scan"}, "is_reserved": 0, "fusion_lon": 0.0, "fusion_lat": 0.0, "lon": -77.02179833333334, "name": "4cb29500f9d14a8189306e38226a92b3"}, {"bike_id": "cc6afc56afaf0622bd72bd2703aed396", "type": "electric_scooter", "is_disabled": 0, "lat": 38.88346033333333, "rental_uris": {"ios": "https://dc.lft.to/lastmile_qr_scan", "android": "https://dc.lft.to/lastmile_qr_scan"}, "is_reserved": 0, "fusion_lon": 0.0, "fusion_lat": 0.0, "lon": -76.9950935, "name": "cc6afc56afaf0622bd72bd2703aed396"}, {"bike_id": "fab557dca060662f37dabe0ece911810", "type": "electric_scooter", "is_disabled": 0, "lat": 38.87650033333333, "rental_uris": {"ios": "https://dc.lft.to/lastmile_qr_scan", "android": "https://dc.lft.to/lastmile_qr_scan"}, "is_reserved": 0, "fusion_lon": 0.0, "fusion_lat": 0.0, "lon": -76.9650665, "name": "fab557dca060662f37dabe0ece911810"}, {"bike_id": "145172075f3410718a59b8698d0687d1", "type": "electric_scooter", "is_disabled": 0, "lat": 38.91717666666667, "rental_uris": {"ios": "https://dc.lft.to/lastmile_qr_scan", "android": "https://dc.lft.to/lastmile_qr_scan"}, "is_reserved": 0, "fusion_lon": 0.0, "fusion_lat": 0.0, "lon": -77.03663616666667, "name": "145172075f3410718a59b8698d0687d1"}, {"bike_id": "2d6c0a24ec85b71a7cba0655cb0309aa", "type": "electric_scooter", "is_disabled": 0, "lat": 38.87731683333333, "rental_uris": {"ios": "https://dc.lft.to/lastmile_qr_scan", "android": "https://dc.lft.to/lastmile_qr_scan"}, "is_reserved": 0, "fusion_lon": 0.0, "fusion_lat": 0.0, "lon": -77.01779033333334, "name": "2d6c0a24ec85b71a7cba0655cb0309aa"}, {"bike_id": "b5c90ce2cb9e4bf615922e154baf3009", "type": "electric_scooter", "is_disabled": 0, "lat": 38.9260845, "rental_uris": {"ios": "https://dc.lft.to/lastmile_qr_scan", "android": "https://dc.lft.to/lastmile_qr_scan"}, "is_reserved": 0, "fusion_lon": 0.0, "fusion_lat": 0.0, "lon": -77.02410016666667, "name": "b5c90ce2cb9e4bf615922e154baf3009"}, {"bike_id": "48d1eec01461a0e27663e64f82377340", "type": "electric_scooter", "is_disabled": 0, "lat": 38.905534833333334, "rental_uris": {"ios": "https://dc.lft.to/lastmile_qr_scan", "android": "https://dc.lft.to/lastmile_qr_scan"}, "is_reserved": 0, "fusion_lon": 0.0, "fusion_lat": 0.0, "lon": -77.03445483333333, "name": "48d1eec01461a0e27663e64f82377340"}, {"bike_id": "8a17dfdc5dda872b35c3197d4317b29a", "type": "electric_scooter", "is_disabled": 0, "lat": 38.8921755, "rental_uris": {"ios": "https://dc.lft.to/lastmile_qr_scan", "android": "https://dc.lft.to/lastmile_qr_scan"}, "is_reserved": 0, "fusion_lon": 0.0, "fusion_lat": 0.0, "lon": -77.0257495, "name": "8a17dfdc5dda872b35c3197d4317b29a"}, {"bike_id": "8c65465b18545b452b2891f360532662", "type": "electric_scooter", "is_disabled": 0, "lat": 38.91330383333333, "rental_uris": {"ios": "https://dc.lft.to/lastmile_qr_scan", "android": "https://dc.lft.to/lastmile_qr_scan"}, "is_reserved": 0, "fusion_lon": 0.0, "fusion_lat": 0.0, "lon": -77.0472695, "name": "8c65465b18545b452b2891f360532662"}, {"bike_id": "1d835a7042914229c1234234fe03e9cf", "type": "electric_scooter", "is_disabled": 0, "lat": 38.92565116666667, "rental_uris": {"ios": "https://dc.lft.to/lastmile_qr_scan", "android": "https://dc.lft.to/lastmile_qr_scan"}, "is_reserved": 0, "fusion_lon": 0.0, "fusion_lat": 0.0, "lon": -77.04374866666667, "name": "1d835a7042914229c1234234fe03e9cf"}, {"bike_id": "8e3b2968d52543ea006c1bf2012556ec", "type": "electric_scooter", "is_disabled": 0, "lat": 38.912647666666665, "rental_uris": {"ios": "https://dc.lft.to/lastmile_qr_scan", "android": "https://dc.lft.to/lastmile_qr_scan"}, "is_reserved": 0, "fusion_lon": 0.0, "fusion_lat": 0.0, "lon": -77.03830116666667, "name": "8e3b2968d52543ea006c1bf2012556ec"}, {"bike_id": "a4004f51b0e9099ff0c2b076bcf53ec4", "type": "electric_scooter", "is_disabled": 0, "lat": 38.92402333333333, "rental_uris": {"ios": "https://dc.lft.to/lastmile_qr_scan", "android": "https://dc.lft.to/lastmile_qr_scan"}, "is_reserved": 0, "fusion_lon": 0.0, "fusion_lat": 0.0, "lon": -77.02018766666667, "name": "a4004f51b0e9099ff0c2b076bcf53ec4"}, {"bike_id": "a0798667d743bf69e63dbe2cf8968eb7", "type": "electric_scooter", "is_disabled": 0, "lat": 38.90651716666667, "rental_uris": {"ios": "https://dc.lft.to/lastmile_qr_scan", "android": "https://dc.lft.to/lastmile_qr_scan"}, "is_reserved": 0, "fusion_lon": 0.0, "fusion_lat": 0.0, "lon": -77.0532505, "name": "a0798667d743bf69e63dbe2cf8968eb7"}, {"bike_id": "9c206a524cdc5a0c3c38a39666b922a4", "type": "electric_scooter", "is_disabled": 0, "lat": 38.927956, "rental_uris": {"ios": "https://dc.lft.to/lastmile_qr_scan", "android": "https://dc.lft.to/lastmile_qr_scan"}, "is_reserved": 0, "fusion_lon": 0.0, "fusion_lat": 0.0, "lon": -77.025992, "name": "9c206a524cdc5a0c3c38a39666b922a4"}, {"bike_id": "70d477b1bcc31a3ab3ce6f20717ee69a", "type": "electric_scooter", "is_disabled": 0, "lat": 38.944646166666665, "rental_uris": {"ios": "https://dc.lft.to/lastmile_qr_scan", "android": "https://dc.lft.to/lastmile_qr_scan"}, "is_reserved": 0, "fusion_lon": 0.0, "fusion_lat": 0.0, "lon": -77.00656533333333, "name": "70d477b1bcc31a3ab3ce6f20717ee69a"}, {"bike_id": "e69d6a4eee9876480552f946f61630cd", "type": "electric_scooter", "is_disabled": 0, "lat": 38.936098666666666, "rental_uris": {"ios": "https://dc.lft.to/lastmile_qr_scan", "android": "https://dc.lft.to/lastmile_qr_scan"}, "is_reserved": 0, "fusion_lon": 0.0, "fusion_lat": 0.0, "lon": -77.05860316666667, "name": "e69d6a4eee9876480552f946f61630cd"}, {"bike_id": "98519910f99add4dfb9d389149665d8d", "type": "electric_scooter", "is_disabled": 0, "lat": 38.9302145, "rental_uris": {"ios": "https://dc.lft.to/lastmile_qr_scan", "android": "https://dc.lft.to/lastmile_qr_scan"}, "is_reserved": 0, "fusion_lon": 0.0, "fusion_lat": 0.0, "lon": -77.06627733333333, "name": "98519910f99add4dfb9d389149665d8d"}, {"bike_id": "a6fdb521c9b87dde03068f3510013c8a", "type": "electric_scooter", "is_disabled": 0, "lat": 38.918905333333335, "rental_uris": {"ios": "https://dc.lft.to/lastmile_qr_scan", "android": "https://dc.lft.to/lastmile_qr_scan"}, "is_reserved": 0, "fusion_lon": 0.0, "fusion_lat": 0.0, "lon": -77.04626683333333, "name": "a6fdb521c9b87dde03068f3510013c8a"}, {"bike_id": "77b7148cec0d9ae03fea62258809a5cf", "type": "electric_scooter", "is_disabled": 0, "lat": 38.899227, "rental_uris": {"ios": "https://dc.lft.to/lastmile_qr_scan", "android": "https://dc.lft.to/lastmile_qr_scan"}, "is_reserved": 0, "fusion_lon": 0.0, "fusion_lat": 0.0, "lon": -77.053602, "name": "77b7148cec0d9ae03fea62258809a5cf"}, {"bike_id": "e3aa4f8bcecec510ffed04e59c732e0a", "type": "electric_scooter", "is_disabled": 0, "lat": 38.907225, "rental_uris": {"ios": "https://dc.lft.to/lastmile_qr_scan", "android": "https://dc.lft.to/lastmile_qr_scan"}, "is_reserved": 0, "fusion_lon": 0.0, "fusion_lat": 0.0, "lon": -77.000406, "name": "e3aa4f8bcecec510ffed04e59c732e0a"}, {"bike_id": "92dad33ca6e94c517c4fa39d40c9069f", "type": "electric_scooter", "is_disabled": 0, "lat": 38.905411, "rental_uris": {"ios": "https://dc.lft.to/lastmile_qr_scan", "android": "https://dc.lft.to/lastmile_qr_scan"}, "is_reserved": 0, "fusion_lon": 0.0, "fusion_lat": 0.0, "lon": -77.0219465, "name": "92dad33ca6e94c517c4fa39d40c9069f"}, {"bike_id": "09a5505a118d728ebeeb8a8102fc83ef", "type": "electric_bike", "is_disabled": 0, "lat": 38.92023116666667, "rental_uris": {"ios": "https://dc.lft.to/lastmile_qr_scan", "android": "https://dc.lft.to/lastmile_qr_scan"}, "is_reserved": 0, "fusion_lon": 0.0, "fusion_lat": 0.0, "lon": -77.01793316666667, "name": "09a5505a118d728ebeeb8a8102fc83ef"}, {"bike_id": "7178a3fcda0f3d01f96da3d21136c740", "type": "electric_scooter", "is_disabled": 0, "lat": 38.89115, "rental_uris": {"ios": "https://dc.lft.to/lastmile_qr_scan", "android": "https://dc.lft.to/lastmile_qr_scan"}, "is_reserved": 0, "fusion_lon": 0.0, "fusion_lat": 0.0, "lon": -76.99162183333334, "name": "7178a3fcda0f3d01f96da3d21136c740"}, {"bike_id": "59127d1af208d2992c381d6dc9ec6541", "type": "electric_scooter", "is_disabled": 0, "lat": 38.9010145, "rental_uris": {"ios": "https://dc.lft.to/lastmile_qr_scan", "android": "https://dc.lft.to/lastmile_qr_scan"}, "is_reserved": 0, "fusion_lon": 0.0, "fusion_lat": 0.0, "lon": -77.03864383333334, "name": "59127d1af208d2992c381d6dc9ec6541"}, {"bike_id": "db4254ea9c0f9d581184387a557859c5", "type": "electric_scooter", "is_disabled": 0, "lat": 38.906797833333336, "rental_uris": {"ios": "https://dc.lft.to/lastmile_qr_scan", "android": "https://dc.lft.to/lastmile_qr_scan"}, "is_reserved": 0, "fusion_lon": 0.0, "fusion_lat": 0.0, "lon": -77.026908, "name": "db4254ea9c0f9d581184387a557859c5"}, {"bike_id": "e3a1e0a712197438d3ff96abb7bc9021", "type": "electric_scooter", "is_disabled": 0, "lat": 38.93956333333333, "rental_uris": {"ios": "https://dc.lft.to/lastmile_qr_scan", "android": "https://dc.lft.to/lastmile_qr_scan"}, "is_reserved": 0, "fusion_lon": 0.0, "fusion_lat": 0.0, "lon": -77.07251416666666, "name": "e3a1e0a712197438d3ff96abb7bc9021"}, {"bike_id": "9e8cd16b3859a50079b3684ffe94a63b", "type": "electric_scooter", "is_disabled": 0, "lat": 38.914775, "rental_uris": {"ios": "https://dc.lft.to/lastmile_qr_scan", "android": "https://dc.lft.to/lastmile_qr_scan"}, "is_reserved": 0, "fusion_lon": 0.0, "fusion_lat": 0.0, "lon": -77.0028165, "name": "9e8cd16b3859a50079b3684ffe94a63b"}, {"bike_id": "eb4a2430ff5fb5fb4d7300ba5d144990", "type": "electric_scooter", "is_disabled": 0, "lat": 38.92371583333333, "rental_uris": {"ios": "https://dc.lft.to/lastmile_qr_scan", "android": "https://dc.lft.to/lastmile_qr_scan"}, "is_reserved": 0, "fusion_lon": 0.0, "fusion_lat": 0.0, "lon": -77.025378, "name": "eb4a2430ff5fb5fb4d7300ba5d144990"}, {"bike_id": "6f53db0e3b9cb59e5cff47493301111c", "type": "electric_scooter", "is_disabled": 0, "lat": 38.922673333333336, "rental_uris": {"ios": "https://dc.lft.to/lastmile_qr_scan", "android": "https://dc.lft.to/lastmile_qr_scan"}, "is_reserved": 0, "fusion_lon": 0.0, "fusion_lat": 0.0, "lon": -76.994493, "name": "6f53db0e3b9cb59e5cff47493301111c"}, {"bike_id": "2423f835c630acb55116e9de35b035e8", "type": "electric_scooter", "is_disabled": 0, "lat": 38.951526, "rental_uris": {"ios": "https://dc.lft.to/lastmile_qr_scan", "android": "https://dc.lft.to/lastmile_qr_scan"}, "is_reserved": 0, "fusion_lon": 0.0, "fusion_lat": 0.0, "lon": -77.01866383333333, "name": "2423f835c630acb55116e9de35b035e8"}, {"bike_id": "c8b4ab0566c5aa6ddb0fdb46866bce75", "type": "electric_bike", "is_disabled": 0, "lat": 38.96203533333333, "rental_uris": {"ios": "https://dc.lft.to/lastmile_qr_scan", "android": "https://dc.lft.to/lastmile_qr_scan"}, "is_reserved": 0, "fusion_lon": 0.0, "fusion_lat": 0.0, "lon": -77.02782783333333, "name": "c8b4ab0566c5aa6ddb0fdb46866bce75"}, {"bike_id": "32b505c5de140f3a08916aa6c36f68a1", "type": "electric_scooter", "is_disabled": 0, "lat": 38.917066166666665, "rental_uris": {"ios": "https://dc.lft.to/lastmile_qr_scan", "android": "https://dc.lft.to/lastmile_qr_scan"}, "is_reserved": 0, "fusion_lon": 0.0, "fusion_lat": 0.0, "lon": -77.09579183333334, "name": "32b505c5de140f3a08916aa6c36f68a1"}, {"bike_id": "4d277cd8dcc4447c3bb542198152a2ea", "type": "electric_scooter", "is_disabled": 0, "lat": 38.9207405, "rental_uris": {"ios": "https://dc.lft.to/lastmile_qr_scan", "android": "https://dc.lft.to/lastmile_qr_scan"}, "is_reserved": 0, "fusion_lon": 0.0, "fusion_lat": 0.0, "lon": -77.02501666666667, "name": "4d277cd8dcc4447c3bb542198152a2ea"}, {"bike_id": "f106e7a99b3bc497f21f02bb934280f8", "type": "electric_scooter", "is_disabled": 0, "lat": 38.91406416666667, "rental_uris": {"ios": "https://dc.lft.to/lastmile_qr_scan", "android": "https://dc.lft.to/lastmile_qr_scan"}, "is_reserved": 0, "fusion_lon": 0.0, "fusion_lat": 0.0, "lon": -77.03223316666667, "name": "f106e7a99b3bc497f21f02bb934280f8"}, {"bike_id": "79bdf6aa17b3e7b906a20cca5ec1a55a", "type": "electric_scooter", "is_disabled": 0, "lat": 38.90649366666667, "rental_uris": {"ios": "https://dc.lft.to/lastmile_qr_scan", "android": "https://dc.lft.to/lastmile_qr_scan"}, "is_reserved": 0, "fusion_lon": 0.0, "fusion_lat": 0.0, "lon": -77.0249465, "name": "79bdf6aa17b3e7b906a20cca5ec1a55a"}, {"bike_id": "9060e34266d8dd99823616169d2b5e50", "type": "electric_scooter", "is_disabled": 0, "lat": 38.93327383333333, "rental_uris": {"ios": "https://dc.lft.to/lastmile_qr_scan", "android": "https://dc.lft.to/lastmile_qr_scan"}, "is_reserved": 0, "fusion_lon": 0.0, "fusion_lat": 0.0, "lon": -77.03263783333334, "name": "9060e34266d8dd99823616169d2b5e50"}, {"bike_id": "f84119da9db1886811162493a6de6042", "type": "electric_scooter", "is_disabled": 0, "lat": 38.919831, "rental_uris": {"ios": "https://dc.lft.to/lastmile_qr_scan", "android": "https://dc.lft.to/lastmile_qr_scan"}, "is_reserved": 0, "fusion_lon": 0.0, "fusion_lat": 0.0, "lon": -77.03197216666666, "name": "f84119da9db1886811162493a6de6042"}, {"bike_id": "de6b84452920e41bb8b2f99359bac23b", "type": "electric_scooter", "is_disabled": 0, "lat": 38.923235, "rental_uris": {"ios": "https://dc.lft.to/lastmile_qr_scan", "android": "https://dc.lft.to/lastmile_qr_scan"}, "is_reserved": 0, "fusion_lon": 0.0, "fusion_lat": 0.0, "lon": -77.0214695, "name": "de6b84452920e41bb8b2f99359bac23b"}, {"bike_id": "4b0ffa29badca751225ef87bdd407e0a", "type": "electric_scooter", "is_disabled": 0, "lat": 38.92166983333333, "rental_uris": {"ios": "https://dc.lft.to/lastmile_qr_scan", "android": "https://dc.lft.to/lastmile_qr_scan"}, "is_reserved": 0, "fusion_lon": 0.0, "fusion_lat": 0.0, "lon": -77.01910166666667, "name": "4b0ffa29badca751225ef87bdd407e0a"}, {"bike_id": "45e71dfbbb1434d49c13e2f4aae41b87", "type": "electric_scooter", "is_disabled": 0, "lat": 38.9573285, "rental_uris": {"ios": "https://dc.lft.to/lastmile_qr_scan", "android": "https://dc.lft.to/lastmile_qr_scan"}, "is_reserved": 0, "fusion_lon": 0.0, "fusion_lat": 0.0, "lon": -77.02402566666666, "name": "45e71dfbbb1434d49c13e2f4aae41b87"}, {"bike_id": "3573722a9671cb2ac79b8066af448c0d", "type": "electric_scooter", "is_disabled": 0, "lat": 38.890426, "rental_uris": {"ios": "https://dc.lft.to/lastmile_qr_scan", "android": "https://dc.lft.to/lastmile_qr_scan"}, "is_reserved": 0, "fusion_lon": 0.0, "fusion_lat": 0.0, "lon": -77.015072, "name": "3573722a9671cb2ac79b8066af448c0d"}, {"bike_id": "4835a6e8e6b69f44b62d60ba4b0d8836", "type": "electric_scooter", "is_disabled": 0, "lat": 38.9050615, "rental_uris": {"ios": "https://dc.lft.to/lastmile_qr_scan", "android": "https://dc.lft.to/lastmile_qr_scan"}, "is_reserved": 0, "fusion_lon": 0.0, "fusion_lat": 0.0, "lon": -77.02509416666666, "name": "4835a6e8e6b69f44b62d60ba4b0d8836"}, {"bike_id": "9f50efdb62e0c6e4246e632d2f7eaaf3", "type": "electric_scooter", "is_disabled": 0, "lat": 38.86458716666667, "rental_uris": {"ios": "https://dc.lft.to/lastmile_qr_scan", "android": "https://dc.lft.to/lastmile_qr_scan"}, "is_reserved": 0, "fusion_lon": 0.0, "fusion_lat": 0.0, "lon": -77.012651, "name": "9f50efdb62e0c6e4246e632d2f7eaaf3"}, {"bike_id": "ab1417e33ab14efaf063dea572acf8f6", "type": "electric_scooter", "is_disabled": 0, "lat": 38.91803633333333, "rental_uris": {"ios": "https://dc.lft.to/lastmile_qr_scan", "android": "https://dc.lft.to/lastmile_qr_scan"}, "is_reserved": 0, "fusion_lon": 0.0, "fusion_lat": 0.0, "lon": -77.031292, "name": "ab1417e33ab14efaf063dea572acf8f6"}, {"bike_id": "304ecb09eef0b540d754bbd4d4fd59bd", "type": "electric_scooter", "is_disabled": 0, "lat": 38.885585166666665, "rental_uris": {"ios": "https://dc.lft.to/lastmile_qr_scan", "android": "https://dc.lft.to/lastmile_qr_scan"}, "is_reserved": 0, "fusion_lon": 0.0, "fusion_lat": 0.0, "lon": -77.00205833333334, "name": "304ecb09eef0b540d754bbd4d4fd59bd"}, {"bike_id": "fc54b808165365a9df81a5fdfba30112", "type": "electric_scooter", "is_disabled": 0, "lat": 38.91554583333333, "rental_uris": {"ios": "https://dc.lft.to/lastmile_qr_scan", "android": "https://dc.lft.to/lastmile_qr_scan"}, "is_reserved": 0, "fusion_lon": 0.0, "fusion_lat": 0.0, "lon": -77.04108, "name": "fc54b808165365a9df81a5fdfba30112"}, {"bike_id": "0c4f21dfe9720424ec45cfec683b2605", "type": "electric_scooter", "is_disabled": 0, "lat": 38.90489866666667, "rental_uris": {"ios": "https://dc.lft.to/lastmile_qr_scan", "android": "https://dc.lft.to/lastmile_qr_scan"}, "is_reserved": 0, "fusion_lon": 0.0, "fusion_lat": 0.0, "lon": -77.007384, "name": "0c4f21dfe9720424ec45cfec683b2605"}, {"bike_id": "e6f1eb60c31c0481af8ccf5699f2f233", "type": "electric_scooter", "is_disabled": 0, "lat": 38.900840333333335, "rental_uris": {"ios": "https://dc.lft.to/lastmile_qr_scan", "android": "https://dc.lft.to/lastmile_qr_scan"}, "is_reserved": 0, "fusion_lon": 0.0, "fusion_lat": 0.0, "lon": -77.04764616666667, "name": "e6f1eb60c31c0481af8ccf5699f2f233"}, {"bike_id": "3a008a32a467a91bdbd033df1c932ec3", "type": "electric_scooter", "is_disabled": 0, "lat": 38.9428925, "rental_uris": {"ios": "https://dc.lft.to/lastmile_qr_scan", "android": "https://dc.lft.to/lastmile_qr_scan"}, "is_reserved": 0, "fusion_lon": 0.0, "fusion_lat": 0.0, "lon": -77.02168383333333, "name": "3a008a32a467a91bdbd033df1c932ec3"}, {"bike_id": "55ed538cc958e954e07edfe7eed92057", "type": "electric_scooter", "is_disabled": 0, "lat": 38.92721266666667, "rental_uris": {"ios": "https://dc.lft.to/lastmile_qr_scan", "android": "https://dc.lft.to/lastmile_qr_scan"}, "is_reserved": 0, "fusion_lon": 0.0, "fusion_lat": 0.0, "lon": -77.0399495, "name": "55ed538cc958e954e07edfe7eed92057"}, {"bike_id": "e847e5dad09cfe2058096553fc58a8d2", "type": "electric_scooter", "is_disabled": 0, "lat": 38.908230833333334, "rental_uris": {"ios": "https://dc.lft.to/lastmile_qr_scan", "android": "https://dc.lft.to/lastmile_qr_scan"}, "is_reserved": 0, "fusion_lon": 0.0, "fusion_lat": 0.0, "lon": -76.9415615, "name": "e847e5dad09cfe2058096553fc58a8d2"}, {"bike_id": "bb441b1656ec5029b7b8f7ad53dcb427", "type": "electric_scooter", "is_disabled": 0, "lat": 38.91738016666667, "rental_uris": {"ios": "https://dc.lft.to/lastmile_qr_scan", "android": "https://dc.lft.to/lastmile_qr_scan"}, "is_reserved": 0, "fusion_lon": 0.0, "fusion_lat": 0.0, "lon": -77.01706916666667, "name": "bb441b1656ec5029b7b8f7ad53dcb427"}, {"bike_id": "0b90a712e138a02e9335da7eacb70574", "type": "electric_scooter", "is_disabled": 0, "lat": 38.91375816666667, "rental_uris": {"ios": "https://dc.lft.to/lastmile_qr_scan", "android": "https://dc.lft.to/lastmile_qr_scan"}, "is_reserved": 0, "fusion_lon": 0.0, "fusion_lat": 0.0, "lon": -77.04136583333333, "name": "0b90a712e138a02e9335da7eacb70574"}, {"bike_id": "13711ac7f0612068d8980bec556fb02b", "type": "electric_scooter", "is_disabled": 0, "lat": 38.9330395, "rental_uris": {"ios": "https://dc.lft.to/lastmile_qr_scan", "android": "https://dc.lft.to/lastmile_qr_scan"}, "is_reserved": 0, "fusion_lon": 0.0, "fusion_lat": 0.0, "lon": -77.02157183333334, "name": "13711ac7f0612068d8980bec556fb02b"}, {"bike_id": "98d5c82b8340c1867a27532c891635f4", "type": "electric_bike", "is_disabled": 0, "lat": 38.87278466666667, "rental_uris": {"ios": "https://dc.lft.to/lastmile_qr_scan", "android": "https://dc.lft.to/lastmile_qr_scan"}, "is_reserved": 0, "fusion_lon": 0.0, "fusion_lat": 0.0, "lon": -77.23332166666667, "name": "98d5c82b8340c1867a27532c891635f4"}, {"bike_id": "98dfeb21c4d4813b03931302d428e42c", "type": "electric_bike", "is_disabled": 0, "lat": 38.9646695, "rental_uris": {"ios": "https://dc.lft.to/lastmile_qr_scan", "android": "https://dc.lft.to/lastmile_qr_scan"}, "is_reserved": 0, "fusion_lon": 0.0, "fusion_lat": 0.0, "lon": -77.03562666666667, "name": "98dfeb21c4d4813b03931302d428e42c"}, {"bike_id": "3b2bccb52621f61fb14f61173263d91c", "type": "electric_scooter", "is_disabled": 0, "lat": 38.9095835, "rental_uris": {"ios": "https://dc.lft.to/lastmile_qr_scan", "android": "https://dc.lft.to/lastmile_qr_scan"}, "is_reserved": 0, "fusion_lon": 0.0, "fusion_lat": 0.0, "lon": -77.02377916666667, "name": "3b2bccb52621f61fb14f61173263d91c"}, {"bike_id": "485f55c011a2db3a4cb9ca46c4d45b09", "type": "electric_scooter", "is_disabled": 0, "lat": 38.8960835, "rental_uris": {"ios": "https://dc.lft.to/lastmile_qr_scan", "android": "https://dc.lft.to/lastmile_qr_scan"}, "is_reserved": 0, "fusion_lon": 0.0, "fusion_lat": 0.0, "lon": -77.0002495, "name": "485f55c011a2db3a4cb9ca46c4d45b09"}, {"bike_id": "897eb023e1bbb27469080d59d8c94bc0", "type": "electric_scooter", "is_disabled": 0, "lat": 38.89254283333333, "rental_uris": {"ios": "https://dc.lft.to/lastmile_qr_scan", "android": "https://dc.lft.to/lastmile_qr_scan"}, "is_reserved": 0, "fusion_lon": 0.0, "fusion_lat": 0.0, "lon": -77.0334645, "name": "897eb023e1bbb27469080d59d8c94bc0"}, {"bike_id": "8b4f6b3000c219d88f205d956b91f88e", "type": "electric_scooter", "is_disabled": 0, "lat": 38.908379833333335, "rental_uris": {"ios": "https://dc.lft.to/lastmile_qr_scan", "android": "https://dc.lft.to/lastmile_qr_scan"}, "is_reserved": 0, "fusion_lon": 0.0, "fusion_lat": 0.0, "lon": -77.04365633333333, "name": "8b4f6b3000c219d88f205d956b91f88e"}, {"bike_id": "a77e8a8da5f6bff350812a73ce7342c4", "type": "electric_scooter", "is_disabled": 0, "lat": 38.93026416666667, "rental_uris": {"ios": "https://dc.lft.to/lastmile_qr_scan", "android": "https://dc.lft.to/lastmile_qr_scan"}, "is_reserved": 0, "fusion_lon": 0.0, "fusion_lat": 0.0, "lon": -77.03801083333333, "name": "a77e8a8da5f6bff350812a73ce7342c4"}, {"bike_id": "1310944abd29d0309c8e7a1a46d62923", "type": "electric_scooter", "is_disabled": 0, "lat": 38.91786883333333, "rental_uris": {"ios": "https://dc.lft.to/lastmile_qr_scan", "android": "https://dc.lft.to/lastmile_qr_scan"}, "is_reserved": 0, "fusion_lon": 0.0, "fusion_lat": 0.0, "lon": -77.02308466666666, "name": "1310944abd29d0309c8e7a1a46d62923"}, {"bike_id": "75601c43c61be7d8f880023768dd5909", "type": "electric_scooter", "is_disabled": 0, "lat": 38.9024565, "rental_uris": {"ios": "https://dc.lft.to/lastmile_qr_scan", "android": "https://dc.lft.to/lastmile_qr_scan"}, "is_reserved": 0, "fusion_lon": 0.0, "fusion_lat": 0.0, "lon": -77.01853516666667, "name": "75601c43c61be7d8f880023768dd5909"}, {"bike_id": "9eb93249cc911fbf17751d57c8f076b1", "type": "electric_bike", "is_disabled": 0, "lat": 38.836043, "rental_uris": {"ios": "https://dc.lft.to/lastmile_qr_scan", "android": "https://dc.lft.to/lastmile_qr_scan"}, "is_reserved": 0, "fusion_lon": 0.0, "fusion_lat": 0.0, "lon": -77.0037975, "name": "9eb93249cc911fbf17751d57c8f076b1"}, {"bike_id": "6330c6544e209d012a25436456ccfd27", "type": "electric_bike", "is_disabled": 0, "lat": 38.87129383333333, "rental_uris": {"ios": "https://dc.lft.to/lastmile_qr_scan", "android": "https://dc.lft.to/lastmile_qr_scan"}, "is_reserved": 0, "fusion_lon": 0.0, "fusion_lat": 0.0, "lon": -77.100237, "name": "6330c6544e209d012a25436456ccfd27"}, {"bike_id": "3cc115031f26aa9b3916cc5491daa7dc", "type": "electric_scooter", "is_disabled": 0, "lat": 38.9161265, "rental_uris": {"ios": "https://dc.lft.to/lastmile_qr_scan", "android": "https://dc.lft.to/lastmile_qr_scan"}, "is_reserved": 0, "fusion_lon": 0.0, "fusion_lat": 0.0, "lon": -77.0486525, "name": "3cc115031f26aa9b3916cc5491daa7dc"}, {"bike_id": "20767257da8233ae13fe91130f3ebbc3", "type": "electric_scooter", "is_disabled": 0, "lat": 38.91861466666667, "rental_uris": {"ios": "https://dc.lft.to/lastmile_qr_scan", "android": "https://dc.lft.to/lastmile_qr_scan"}, "is_reserved": 0, "fusion_lon": 0.0, "fusion_lat": 0.0, "lon": -77.02809366666666, "name": "20767257da8233ae13fe91130f3ebbc3"}, {"bike_id": "240926c096d62e856d786709b3e456b7", "type": "electric_scooter", "is_disabled": 0, "lat": 38.935325, "rental_uris": {"ios": "https://dc.lft.to/lastmile_qr_scan", "android": "https://dc.lft.to/lastmile_qr_scan"}, "is_reserved": 0, "fusion_lon": 0.0, "fusion_lat": 0.0, "lon": -77.02345066666666, "name": "240926c096d62e856d786709b3e456b7"}, {"bike_id": "b46faa3731b29b2f6685112bf868fc2d", "type": "electric_scooter", "is_disabled": 0, "lat": 38.852018, "rental_uris": {"ios": "https://dc.lft.to/lastmile_qr_scan", "android": "https://dc.lft.to/lastmile_qr_scan"}, "is_reserved": 0, "fusion_lon": 0.0, "fusion_lat": 0.0, "lon": -76.985565, "name": "b46faa3731b29b2f6685112bf868fc2d"}, {"bike_id": "f919877cefefd135df23e4b3f862a476", "type": "electric_scooter", "is_disabled": 0, "lat": 38.90361083333333, "rental_uris": {"ios": "https://dc.lft.to/lastmile_qr_scan", "android": "https://dc.lft.to/lastmile_qr_scan"}, "is_reserved": 0, "fusion_lon": 0.0, "fusion_lat": 0.0, "lon": -76.99378883333333, "name": "f919877cefefd135df23e4b3f862a476"}, {"bike_id": "1ed349c5221cc9ff7962febf62b0bb61", "type": "electric_bike", "is_disabled": 0, "lat": 39.057885, "rental_uris": {"ios": "https://dc.lft.to/lastmile_qr_scan", "android": "https://dc.lft.to/lastmile_qr_scan"}, "is_reserved": 0, "fusion_lon": 0.0, "fusion_lat": 0.0, "lon": -77.150182, "name": "1ed349c5221cc9ff7962febf62b0bb61"}, {"bike_id": "8fb2b0770f9052c1df3b4ccaa8710fb4", "type": "electric_scooter", "is_disabled": 0, "lat": 38.93447666666667, "rental_uris": {"ios": "https://dc.lft.to/lastmile_qr_scan", "android": "https://dc.lft.to/lastmile_qr_scan"}, "is_reserved": 0, "fusion_lon": 0.0, "fusion_lat": 0.0, "lon": -77.02979216666667, "name": "8fb2b0770f9052c1df3b4ccaa8710fb4"}, {"bike_id": "f75ef3b04ac6f3705b3e4358e5e8aec3", "type": "electric_bike", "is_disabled": 0, "lat": 38.897366, "rental_uris": {"ios": "https://dc.lft.to/lastmile_qr_scan", "android": "https://dc.lft.to/lastmile_qr_scan"}, "is_reserved": 0, "fusion_lon": 0.0, "fusion_lat": 0.0, "lon": -76.9424495, "name": "f75ef3b04ac6f3705b3e4358e5e8aec3"}, {"bike_id": "d2b12df6a5880de29ba9f7163778ba23", "type": "electric_scooter", "is_disabled": 0, "lat": 38.92188183333333, "rental_uris": {"ios": "https://dc.lft.to/lastmile_qr_scan", "android": "https://dc.lft.to/lastmile_qr_scan"}, "is_reserved": 0, "fusion_lon": 0.0, "fusion_lat": 0.0, "lon": -76.99366, "name": "d2b12df6a5880de29ba9f7163778ba23"}, {"bike_id": "2fccb14be933e9662cd989b8f1c74d79", "type": "electric_scooter", "is_disabled": 0, "lat": 38.91276333333333, "rental_uris": {"ios": "https://dc.lft.to/lastmile_qr_scan", "android": "https://dc.lft.to/lastmile_qr_scan"}, "is_reserved": 0, "fusion_lon": 0.0, "fusion_lat": 0.0, "lon": -77.04732916666667, "name": "2fccb14be933e9662cd989b8f1c74d79"}, {"bike_id": "a69774436823d94058550d3e4702d148", "type": "electric_scooter", "is_disabled": 0, "lat": 38.90059566666667, "rental_uris": {"ios": "https://dc.lft.to/lastmile_qr_scan", "android": "https://dc.lft.to/lastmile_qr_scan"}, "is_reserved": 0, "fusion_lon": 0.0, "fusion_lat": 0.0, "lon": -76.934743, "name": "a69774436823d94058550d3e4702d148"}, {"bike_id": "250bfbc6d40386adb04ac6f9a298319f", "type": "electric_scooter", "is_disabled": 0, "lat": 38.857013333333335, "rental_uris": {"ios": "https://dc.lft.to/lastmile_qr_scan", "android": "https://dc.lft.to/lastmile_qr_scan"}, "is_reserved": 0, "fusion_lon": 0.0, "fusion_lat": 0.0, "lon": -76.98964716666667, "name": "250bfbc6d40386adb04ac6f9a298319f"}, {"bike_id": "7b357bafb8286464211c118022c250d9", "type": "electric_scooter", "is_disabled": 0, "lat": 38.93006333333334, "rental_uris": {"ios": "https://dc.lft.to/lastmile_qr_scan", "android": "https://dc.lft.to/lastmile_qr_scan"}, "is_reserved": 0, "fusion_lon": 0.0, "fusion_lat": 0.0, "lon": -77.01429833333333, "name": "7b357bafb8286464211c118022c250d9"}, {"bike_id": "efd595d84d481657b5696b1d94cd04c5", "type": "electric_scooter", "is_disabled": 0, "lat": 38.9001715, "rental_uris": {"ios": "https://dc.lft.to/lastmile_qr_scan", "android": "https://dc.lft.to/lastmile_qr_scan"}, "is_reserved": 0, "fusion_lon": 0.0, "fusion_lat": 0.0, "lon": -77.021904, "name": "efd595d84d481657b5696b1d94cd04c5"}, {"bike_id": "bd2a81e3c46a4490ff2483e208d18d89", "type": "electric_scooter", "is_disabled": 0, "lat": 38.925776166666665, "rental_uris": {"ios": "https://dc.lft.to/lastmile_qr_scan", "android": "https://dc.lft.to/lastmile_qr_scan"}, "is_reserved": 0, "fusion_lon": 0.0, "fusion_lat": 0.0, "lon": -77.027574, "name": "bd2a81e3c46a4490ff2483e208d18d89"}, {"bike_id": "80affbe1b42354d207510f471d04737e", "type": "electric_scooter", "is_disabled": 0, "lat": 38.917011333333335, "rental_uris": {"ios": "https://dc.lft.to/lastmile_qr_scan", "android": "https://dc.lft.to/lastmile_qr_scan"}, "is_reserved": 0, "fusion_lon": 0.0, "fusion_lat": 0.0, "lon": -77.00797883333334, "name": "80affbe1b42354d207510f471d04737e"}, {"bike_id": "ecb06cca2e641444177e4596ffb11327", "type": "electric_scooter", "is_disabled": 0, "lat": 38.922555333333335, "rental_uris": {"ios": "https://dc.lft.to/lastmile_qr_scan", "android": "https://dc.lft.to/lastmile_qr_scan"}, "is_reserved": 0, "fusion_lon": 0.0, "fusion_lat": 0.0, "lon": -77.03263133333333, "name": "ecb06cca2e641444177e4596ffb11327"}, {"bike_id": "025e37d067edbf207dd6ae86c0e2991a", "type": "electric_scooter", "is_disabled": 0, "lat": 38.912891, "rental_uris": {"ios": "https://dc.lft.to/lastmile_qr_scan", "android": "https://dc.lft.to/lastmile_qr_scan"}, "is_reserved": 0, "fusion_lon": 0.0, "fusion_lat": 0.0, "lon": -77.03858083333333, "name": "025e37d067edbf207dd6ae86c0e2991a"}, {"bike_id": "80a3be8183da6841516947f36a619dad", "type": "electric_scooter", "is_disabled": 0, "lat": 38.92662383333333, "rental_uris": {"ios": "https://dc.lft.to/lastmile_qr_scan", "android": "https://dc.lft.to/lastmile_qr_scan"}, "is_reserved": 0, "fusion_lon": 0.0, "fusion_lat": 0.0, "lon": -77.03730133333333, "name": "80a3be8183da6841516947f36a619dad"}, {"bike_id": "01126d2cdf977f7ac4c3e72aa1f6e141", "type": "electric_scooter", "is_disabled": 0, "lat": 38.92872766666667, "rental_uris": {"ios": "https://dc.lft.to/lastmile_qr_scan", "android": "https://dc.lft.to/lastmile_qr_scan"}, "is_reserved": 0, "fusion_lon": 0.0, "fusion_lat": 0.0, "lon": -77.03217583333333, "name": "01126d2cdf977f7ac4c3e72aa1f6e141"}, {"bike_id": "2d3bc62bf80c74fecb1a2b56ca7f7371", "type": "electric_scooter", "is_disabled": 0, "lat": 38.91419783333333, "rental_uris": {"ios": "https://dc.lft.to/lastmile_qr_scan", "android": "https://dc.lft.to/lastmile_qr_scan"}, "is_reserved": 0, "fusion_lon": 0.0, "fusion_lat": 0.0, "lon": -77.02256166666666, "name": "2d3bc62bf80c74fecb1a2b56ca7f7371"}, {"bike_id": "70413f57cdfa769490bcb87c06a7d89f", "type": "electric_bike", "is_disabled": 0, "lat": 38.897898833333336, "rental_uris": {"ios": "https://dc.lft.to/lastmile_qr_scan", "android": "https://dc.lft.to/lastmile_qr_scan"}, "is_reserved": 0, "fusion_lon": 0.0, "fusion_lat": 0.0, "lon": -77.00743533333333, "name": "70413f57cdfa769490bcb87c06a7d89f"}, {"bike_id": "10119b6f03ae8e64828e0aeeb21d023a", "type": "electric_scooter", "is_disabled": 0, "lat": 38.89928783333333, "rental_uris": {"ios": "https://dc.lft.to/lastmile_qr_scan", "android": "https://dc.lft.to/lastmile_qr_scan"}, "is_reserved": 0, "fusion_lon": 0.0, "fusion_lat": 0.0, "lon": -77.003574, "name": "10119b6f03ae8e64828e0aeeb21d023a"}, {"bike_id": "654995591d610c853e23be58b318b773", "type": "electric_scooter", "is_disabled": 0, "lat": 38.92408983333333, "rental_uris": {"ios": "https://dc.lft.to/lastmile_qr_scan", "android": "https://dc.lft.to/lastmile_qr_scan"}, "is_reserved": 0, "fusion_lon": 0.0, "fusion_lat": 0.0, "lon": -77.02747983333333, "name": "654995591d610c853e23be58b318b773"}, {"bike_id": "98d9bcaeebd4b05d5f9998ada4949b32", "type": "electric_scooter", "is_disabled": 0, "lat": 38.9160545, "rental_uris": {"ios": "https://dc.lft.to/lastmile_qr_scan", "android": "https://dc.lft.to/lastmile_qr_scan"}, "is_reserved": 0, "fusion_lon": 0.0, "fusion_lat": 0.0, "lon": -77.02952833333333, "name": "98d9bcaeebd4b05d5f9998ada4949b32"}, {"bike_id": "38048533d96f8eb8af7bec94d5cba7d7", "type": "electric_scooter", "is_disabled": 0, "lat": 38.973673166666664, "rental_uris": {"ios": "https://dc.lft.to/lastmile_qr_scan", "android": "https://dc.lft.to/lastmile_qr_scan"}, "is_reserved": 0, "fusion_lon": 0.0, "fusion_lat": 0.0, "lon": -77.01846566666667, "name": "38048533d96f8eb8af7bec94d5cba7d7"}, {"bike_id": "31327363f6a49f95cc2a8d1e7d4e9fae", "type": "electric_scooter", "is_disabled": 0, "lat": 38.90991183333333, "rental_uris": {"ios": "https://dc.lft.to/lastmile_qr_scan", "android": "https://dc.lft.to/lastmile_qr_scan"}, "is_reserved": 0, "fusion_lon": 0.0, "fusion_lat": 0.0, "lon": -77.04007016666667, "name": "31327363f6a49f95cc2a8d1e7d4e9fae"}, {"bike_id": "e39c561a2da9fdc8e3ba9e1bc85ffc2a", "type": "electric_scooter", "is_disabled": 0, "lat": 38.921163666666665, "rental_uris": {"ios": "https://dc.lft.to/lastmile_qr_scan", "android": "https://dc.lft.to/lastmile_qr_scan"}, "is_reserved": 0, "fusion_lon": 0.0, "fusion_lat": 0.0, "lon": -77.03664466666666, "name": "e39c561a2da9fdc8e3ba9e1bc85ffc2a"}, {"bike_id": "26687c7b1ad80e1ccc9c5cf3a51eb700", "type": "electric_scooter", "is_disabled": 0, "lat": 38.9281215, "rental_uris": {"ios": "https://dc.lft.to/lastmile_qr_scan", "android": "https://dc.lft.to/lastmile_qr_scan"}, "is_reserved": 0, "fusion_lon": 0.0, "fusion_lat": 0.0, "lon": -77.02810283333334, "name": "26687c7b1ad80e1ccc9c5cf3a51eb700"}, {"bike_id": "e659d18f8371331969587baeb038aaab", "type": "electric_bike", "is_disabled": 0, "lat": 38.88401016666667, "rental_uris": {"ios": "https://dc.lft.to/lastmile_qr_scan", "android": "https://dc.lft.to/lastmile_qr_scan"}, "is_reserved": 0, "fusion_lon": 0.0, "fusion_lat": 0.0, "lon": -76.9606025, "name": "e659d18f8371331969587baeb038aaab"}, {"bike_id": "3cd4f71c34fdd63621b421e9f8e96e39", "type": "electric_scooter", "is_disabled": 0, "lat": 38.93428016666667, "rental_uris": {"ios": "https://dc.lft.to/lastmile_qr_scan", "android": "https://dc.lft.to/lastmile_qr_scan"}, "is_reserved": 0, "fusion_lon": 0.0, "fusion_lat": 0.0, "lon": -77.04540083333333, "name": "3cd4f71c34fdd63621b421e9f8e96e39"}, {"bike_id": "0ec8d4b0a1e6b03fec23c871e42613b8", "type": "electric_scooter", "is_disabled": 0, "lat": 38.95627016666667, "rental_uris": {"ios": "https://dc.lft.to/lastmile_qr_scan", "android": "https://dc.lft.to/lastmile_qr_scan"}, "is_reserved": 0, "fusion_lon": 0.0, "fusion_lat": 0.0, "lon": -77.0278775, "name": "0ec8d4b0a1e6b03fec23c871e42613b8"}, {"bike_id": "103ad4241da7fb02e43730b86eb3c8aa", "type": "electric_scooter", "is_disabled": 0, "lat": 38.922639833333335, "rental_uris": {"ios": "https://dc.lft.to/lastmile_qr_scan", "android": "https://dc.lft.to/lastmile_qr_scan"}, "is_reserved": 0, "fusion_lon": 0.0, "fusion_lat": 0.0, "lon": -77.04292483333333, "name": "103ad4241da7fb02e43730b86eb3c8aa"}, {"bike_id": "04051e88ba3807ad41df114e46f76827", "type": "electric_scooter", "is_disabled": 0, "lat": 38.9154905, "rental_uris": {"ios": "https://dc.lft.to/lastmile_qr_scan", "android": "https://dc.lft.to/lastmile_qr_scan"}, "is_reserved": 0, "fusion_lon": 0.0, "fusion_lat": 0.0, "lon": -77.038723, "name": "04051e88ba3807ad41df114e46f76827"}, {"bike_id": "6d6bdd55c264bb34991fc8a38b8c79fa", "type": "electric_scooter", "is_disabled": 0, "lat": 38.90979183333334, "rental_uris": {"ios": "https://dc.lft.to/lastmile_qr_scan", "android": "https://dc.lft.to/lastmile_qr_scan"}, "is_reserved": 0, "fusion_lon": 0.0, "fusion_lat": 0.0, "lon": -77.03181316666667, "name": "6d6bdd55c264bb34991fc8a38b8c79fa"}, {"bike_id": "44bad15a35fa86e34629b6b213945813", "type": "electric_scooter", "is_disabled": 0, "lat": 38.958530333333336, "rental_uris": {"ios": "https://dc.lft.to/lastmile_qr_scan", "android": "https://dc.lft.to/lastmile_qr_scan"}, "is_reserved": 0, "fusion_lon": 0.0, "fusion_lat": 0.0, "lon": -77.027951, "name": "44bad15a35fa86e34629b6b213945813"}, {"bike_id": "4a44674a56d51ffd36eaf745dbf829b4", "type": "electric_scooter", "is_disabled": 0, "lat": 38.909564333333336, "rental_uris": {"ios": "https://dc.lft.to/lastmile_qr_scan", "android": "https://dc.lft.to/lastmile_qr_scan"}, "is_reserved": 0, "fusion_lon": 0.0, "fusion_lat": 0.0, "lon": -77.039428, "name": "4a44674a56d51ffd36eaf745dbf829b4"}, {"bike_id": "06e15da6a54335c2afeac3cd2ec6faed", "type": "electric_scooter", "is_disabled": 0, "lat": 38.89967983333333, "rental_uris": {"ios": "https://dc.lft.to/lastmile_qr_scan", "android": "https://dc.lft.to/lastmile_qr_scan"}, "is_reserved": 0, "fusion_lon": 0.0, "fusion_lat": 0.0, "lon": -77.0207565, "name": "06e15da6a54335c2afeac3cd2ec6faed"}, {"bike_id": "0b0a8dfd9f9d07953f699a20e8ceba7e", "type": "electric_scooter", "is_disabled": 0, "lat": 38.91972966666667, "rental_uris": {"ios": "https://dc.lft.to/lastmile_qr_scan", "android": "https://dc.lft.to/lastmile_qr_scan"}, "is_reserved": 0, "fusion_lon": 0.0, "fusion_lat": 0.0, "lon": -77.0423045, "name": "0b0a8dfd9f9d07953f699a20e8ceba7e"}, {"bike_id": "abacdab7affb3e16076ff8cee9236e9d", "type": "electric_scooter", "is_disabled": 0, "lat": 38.87655683333333, "rental_uris": {"ios": "https://dc.lft.to/lastmile_qr_scan", "android": "https://dc.lft.to/lastmile_qr_scan"}, "is_reserved": 0, "fusion_lon": 0.0, "fusion_lat": 0.0, "lon": -76.99641883333334, "name": "abacdab7affb3e16076ff8cee9236e9d"}, {"bike_id": "c720aaa8d504bcba82e182a030ad0544", "type": "electric_scooter", "is_disabled": 0, "lat": 38.920997166666666, "rental_uris": {"ios": "https://dc.lft.to/lastmile_qr_scan", "android": "https://dc.lft.to/lastmile_qr_scan"}, "is_reserved": 0, "fusion_lon": 0.0, "fusion_lat": 0.0, "lon": -77.01717616666667, "name": "c720aaa8d504bcba82e182a030ad0544"}, {"bike_id": "b35ff2429b0b6727464b8285ea46f953", "type": "electric_scooter", "is_disabled": 0, "lat": 38.8995055, "rental_uris": {"ios": "https://dc.lft.to/lastmile_qr_scan", "android": "https://dc.lft.to/lastmile_qr_scan"}, "is_reserved": 0, "fusion_lon": 0.0, "fusion_lat": 0.0, "lon": -77.02377283333334, "name": "b35ff2429b0b6727464b8285ea46f953"}, {"bike_id": "d9bbbfb416373e6e2348cea8178c57cf", "type": "electric_scooter", "is_disabled": 0, "lat": 38.910229666666666, "rental_uris": {"ios": "https://dc.lft.to/lastmile_qr_scan", "android": "https://dc.lft.to/lastmile_qr_scan"}, "is_reserved": 0, "fusion_lon": 0.0, "fusion_lat": 0.0, "lon": -77.00764516666666, "name": "d9bbbfb416373e6e2348cea8178c57cf"}, {"bike_id": "f65522834e634653242fed3dac852ebd", "type": "electric_scooter", "is_disabled": 0, "lat": 38.933159, "rental_uris": {"ios": "https://dc.lft.to/lastmile_qr_scan", "android": "https://dc.lft.to/lastmile_qr_scan"}, "is_reserved": 0, "fusion_lon": 0.0, "fusion_lat": 0.0, "lon": -77.02749366666667, "name": "f65522834e634653242fed3dac852ebd"}, {"bike_id": "78a923b1004172d42845168d15a68725", "type": "electric_scooter", "is_disabled": 0, "lat": 38.92230383333333, "rental_uris": {"ios": "https://dc.lft.to/lastmile_qr_scan", "android": "https://dc.lft.to/lastmile_qr_scan"}, "is_reserved": 0, "fusion_lon": 0.0, "fusion_lat": 0.0, "lon": -76.97532183333334, "name": "78a923b1004172d42845168d15a68725"}, {"bike_id": "cbc39d28ba3b6f37c0827fdb85a328fc", "type": "electric_bike", "is_disabled": 0, "lat": 38.807597666666666, "rental_uris": {"ios": "https://dc.lft.to/lastmile_qr_scan", "android": "https://dc.lft.to/lastmile_qr_scan"}, "is_reserved": 0, "fusion_lon": 0.0, "fusion_lat": 0.0, "lon": -77.09465483333334, "name": "cbc39d28ba3b6f37c0827fdb85a328fc"}, {"bike_id": "dd943add88d0941b7b7fd27c91075228", "type": "electric_scooter", "is_disabled": 0, "lat": 38.86503833333333, "rental_uris": {"ios": "https://dc.lft.to/lastmile_qr_scan", "android": "https://dc.lft.to/lastmile_qr_scan"}, "is_reserved": 0, "fusion_lon": 0.0, "fusion_lat": 0.0, "lon": -76.990013, "name": "dd943add88d0941b7b7fd27c91075228"}, {"bike_id": "4b848f8b34e368d8ee8830b920a498a0", "type": "electric_scooter", "is_disabled": 0, "lat": 38.929635833333336, "rental_uris": {"ios": "https://dc.lft.to/lastmile_qr_scan", "android": "https://dc.lft.to/lastmile_qr_scan"}, "is_reserved": 0, "fusion_lon": 0.0, "fusion_lat": 0.0, "lon": -77.031345, "name": "4b848f8b34e368d8ee8830b920a498a0"}, {"bike_id": "ad27b1cf57177433a8261694a6791b06", "type": "electric_scooter", "is_disabled": 0, "lat": 38.91877016666667, "rental_uris": {"ios": "https://dc.lft.to/lastmile_qr_scan", "android": "https://dc.lft.to/lastmile_qr_scan"}, "is_reserved": 0, "fusion_lon": 0.0, "fusion_lat": 0.0, "lon": -77.034813, "name": "ad27b1cf57177433a8261694a6791b06"}, {"bike_id": "8fff1e334e8444700d7e4e020661b771", "type": "electric_bike", "is_disabled": 0, "lat": 38.993421, "rental_uris": {"ios": "https://dc.lft.to/lastmile_qr_scan", "android": "https://dc.lft.to/lastmile_qr_scan"}, "is_reserved": 0, "fusion_lon": 0.0, "fusion_lat": 0.0, "lon": -77.115785, "name": "8fff1e334e8444700d7e4e020661b771"}, {"bike_id": "85e003bdf2b0342f1d8e396439057350", "type": "electric_scooter", "is_disabled": 0, "lat": 38.914010833333336, "rental_uris": {"ios": "https://dc.lft.to/lastmile_qr_scan", "android": "https://dc.lft.to/lastmile_qr_scan"}, "is_reserved": 0, "fusion_lon": 0.0, "fusion_lat": 0.0, "lon": -77.034481, "name": "85e003bdf2b0342f1d8e396439057350"}, {"bike_id": "0a133a41c98a8e13bce3598c02ff93dd", "type": "electric_scooter", "is_disabled": 0, "lat": 38.92316666666667, "rental_uris": {"ios": "https://dc.lft.to/lastmile_qr_scan", "android": "https://dc.lft.to/lastmile_qr_scan"}, "is_reserved": 0, "fusion_lon": 0.0, "fusion_lat": 0.0, "lon": -77.04037616666666, "name": "0a133a41c98a8e13bce3598c02ff93dd"}, {"bike_id": "19bb2293ff8c4b6a1fa29fed1cda0580", "type": "electric_scooter", "is_disabled": 0, "lat": 38.9357075, "rental_uris": {"ios": "https://dc.lft.to/lastmile_qr_scan", "android": "https://dc.lft.to/lastmile_qr_scan"}, "is_reserved": 0, "fusion_lon": 0.0, "fusion_lat": 0.0, "lon": -77.0336345, "name": "19bb2293ff8c4b6a1fa29fed1cda0580"}, {"bike_id": "93bb863a00b85b35349abe90839ccaae", "type": "electric_scooter", "is_disabled": 0, "lat": 38.877825333333334, "rental_uris": {"ios": "https://dc.lft.to/lastmile_qr_scan", "android": "https://dc.lft.to/lastmile_qr_scan"}, "is_reserved": 0, "fusion_lon": 0.0, "fusion_lat": 0.0, "lon": -77.01759716666666, "name": "93bb863a00b85b35349abe90839ccaae"}, {"bike_id": "2fe97803a5f9f7f288eae028dbc1633b", "type": "electric_scooter", "is_disabled": 0, "lat": 38.91615983333333, "rental_uris": {"ios": "https://dc.lft.to/lastmile_qr_scan", "android": "https://dc.lft.to/lastmile_qr_scan"}, "is_reserved": 0, "fusion_lon": 0.0, "fusion_lat": 0.0, "lon": -77.03391816666667, "name": "2fe97803a5f9f7f288eae028dbc1633b"}, {"bike_id": "88379227eb9e17fc6170ae8be333ea0e", "type": "electric_scooter", "is_disabled": 0, "lat": 38.9031905, "rental_uris": {"ios": "https://dc.lft.to/lastmile_qr_scan", "android": "https://dc.lft.to/lastmile_qr_scan"}, "is_reserved": 0, "fusion_lon": 0.0, "fusion_lat": 0.0, "lon": -76.98290983333334, "name": "88379227eb9e17fc6170ae8be333ea0e"}, {"bike_id": "eadc7b4414c4eeca3702a711a4d097b0", "type": "electric_scooter", "is_disabled": 0, "lat": 38.920490666666666, "rental_uris": {"ios": "https://dc.lft.to/lastmile_qr_scan", "android": "https://dc.lft.to/lastmile_qr_scan"}, "is_reserved": 0, "fusion_lon": 0.0, "fusion_lat": 0.0, "lon": -77.04400383333333, "name": "eadc7b4414c4eeca3702a711a4d097b0"}, {"bike_id": "87e18f41cbe0fb899647edc3ca8b71c7", "type": "electric_scooter", "is_disabled": 0, "lat": 38.902649333333336, "rental_uris": {"ios": "https://dc.lft.to/lastmile_qr_scan", "android": "https://dc.lft.to/lastmile_qr_scan"}, "is_reserved": 0, "fusion_lon": 0.0, "fusion_lat": 0.0, "lon": -77.03854333333334, "name": "87e18f41cbe0fb899647edc3ca8b71c7"}, {"bike_id": "9751de048497e866897e6a26994c25c8", "type": "electric_bike", "is_disabled": 0, "lat": 39.062939166666666, "rental_uris": {"ios": "https://dc.lft.to/lastmile_qr_scan", "android": "https://dc.lft.to/lastmile_qr_scan"}, "is_reserved": 0, "fusion_lon": 0.0, "fusion_lat": 0.0, "lon": -77.04980266666666, "name": "9751de048497e866897e6a26994c25c8"}, {"bike_id": "b647f4af7710db104cda0964da2c374d", "type": "electric_scooter", "is_disabled": 0, "lat": 38.90152616666666, "rental_uris": {"ios": "https://dc.lft.to/lastmile_qr_scan", "android": "https://dc.lft.to/lastmile_qr_scan"}, "is_reserved": 0, "fusion_lon": 0.0, "fusion_lat": 0.0, "lon": -76.93060383333334, "name": "b647f4af7710db104cda0964da2c374d"}, {"bike_id": "1382b0f7a208f112e6206f4c05c08e79", "type": "electric_scooter", "is_disabled": 0, "lat": 38.876711666666665, "rental_uris": {"ios": "https://dc.lft.to/lastmile_qr_scan", "android": "https://dc.lft.to/lastmile_qr_scan"}, "is_reserved": 0, "fusion_lon": 0.0, "fusion_lat": 0.0, "lon": -77.00579116666667, "name": "1382b0f7a208f112e6206f4c05c08e79"}, {"bike_id": "fca35f6bf0125b13e8938f587159065f", "type": "electric_scooter", "is_disabled": 0, "lat": 38.938855, "rental_uris": {"ios": "https://dc.lft.to/lastmile_qr_scan", "android": "https://dc.lft.to/lastmile_qr_scan"}, "is_reserved": 0, "fusion_lon": 0.0, "fusion_lat": 0.0, "lon": -77.0249775, "name": "fca35f6bf0125b13e8938f587159065f"}, {"bike_id": "5a0546d98788250d26264b6257e93efd", "type": "electric_scooter", "is_disabled": 0, "lat": 38.89217816666667, "rental_uris": {"ios": "https://dc.lft.to/lastmile_qr_scan", "android": "https://dc.lft.to/lastmile_qr_scan"}, "is_reserved": 0, "fusion_lon": 0.0, "fusion_lat": 0.0, "lon": -77.0258035, "name": "5a0546d98788250d26264b6257e93efd"}, {"bike_id": "0e6f8809937a1d3202ed6756ef675025", "type": "electric_scooter", "is_disabled": 0, "lat": 38.91348416666666, "rental_uris": {"ios": "https://dc.lft.to/lastmile_qr_scan", "android": "https://dc.lft.to/lastmile_qr_scan"}, "is_reserved": 0, "fusion_lon": 0.0, "fusion_lat": 0.0, "lon": -77.04487016666667, "name": "0e6f8809937a1d3202ed6756ef675025"}, {"bike_id": "6967cc82d452b6e7b8b2d84b6c35fbf4", "type": "electric_scooter", "is_disabled": 0, "lat": 38.90393983333333, "rental_uris": {"ios": "https://dc.lft.to/lastmile_qr_scan", "android": "https://dc.lft.to/lastmile_qr_scan"}, "is_reserved": 0, "fusion_lon": 0.0, "fusion_lat": 0.0, "lon": -77.06514716666666, "name": "6967cc82d452b6e7b8b2d84b6c35fbf4"}, {"bike_id": "2d56ca60132e1ffec256d8aaf02f56c4", "type": "electric_scooter", "is_disabled": 0, "lat": 38.893466, "rental_uris": {"ios": "https://dc.lft.to/lastmile_qr_scan", "android": "https://dc.lft.to/lastmile_qr_scan"}, "is_reserved": 0, "fusion_lon": 0.0, "fusion_lat": 0.0, "lon": -76.98087583333333, "name": "2d56ca60132e1ffec256d8aaf02f56c4"}, {"bike_id": "f0c1baa8730af7a080ab8a42fa500836", "type": "electric_scooter", "is_disabled": 0, "lat": 38.942909, "rental_uris": {"ios": "https://dc.lft.to/lastmile_qr_scan", "android": "https://dc.lft.to/lastmile_qr_scan"}, "is_reserved": 0, "fusion_lon": 0.0, "fusion_lat": 0.0, "lon": -77.00487166666667, "name": "f0c1baa8730af7a080ab8a42fa500836"}, {"bike_id": "1e5191fa8e8896caa577bb68e5a57963", "type": "electric_scooter", "is_disabled": 0, "lat": 38.91014216666667, "rental_uris": {"ios": "https://dc.lft.to/lastmile_qr_scan", "android": "https://dc.lft.to/lastmile_qr_scan"}, "is_reserved": 0, "fusion_lon": 0.0, "fusion_lat": 0.0, "lon": -77.05284333333333, "name": "1e5191fa8e8896caa577bb68e5a57963"}, {"bike_id": "085184fef3f90048b091da8a9c648dca", "type": "electric_bike", "is_disabled": 0, "lat": 38.81324383333333, "rental_uris": {"ios": "https://dc.lft.to/lastmile_qr_scan", "android": "https://dc.lft.to/lastmile_qr_scan"}, "is_reserved": 0, "fusion_lon": 0.0, "fusion_lat": 0.0, "lon": -77.05084966666666, "name": "085184fef3f90048b091da8a9c648dca"}, {"bike_id": "e36189f107cc572b4f98ae129a3dc8ae", "type": "electric_scooter", "is_disabled": 0, "lat": 38.91602966666667, "rental_uris": {"ios": "https://dc.lft.to/lastmile_qr_scan", "android": "https://dc.lft.to/lastmile_qr_scan"}, "is_reserved": 0, "fusion_lon": 0.0, "fusion_lat": 0.0, "lon": -77.01547533333333, "name": "e36189f107cc572b4f98ae129a3dc8ae"}, {"bike_id": "e990772e5ea8a0ce395f89a700ef4236", "type": "electric_bike", "is_disabled": 0, "lat": 38.874785333333335, "rental_uris": {"ios": "https://dc.lft.to/lastmile_qr_scan", "android": "https://dc.lft.to/lastmile_qr_scan"}, "is_reserved": 0, "fusion_lon": 0.0, "fusion_lat": 0.0, "lon": -76.96532083333334, "name": "e990772e5ea8a0ce395f89a700ef4236"}, {"bike_id": "94cd6d115ba65ba0caa1ff48e36fc7af", "type": "electric_scooter", "is_disabled": 0, "lat": 38.931905, "rental_uris": {"ios": "https://dc.lft.to/lastmile_qr_scan", "android": "https://dc.lft.to/lastmile_qr_scan"}, "is_reserved": 0, "fusion_lon": 0.0, "fusion_lat": 0.0, "lon": -77.02023916666667, "name": "94cd6d115ba65ba0caa1ff48e36fc7af"}, {"bike_id": "a23250753498d89f7263c105e07c11a1", "type": "electric_scooter", "is_disabled": 0, "lat": 38.908282166666666, "rental_uris": {"ios": "https://dc.lft.to/lastmile_qr_scan", "android": "https://dc.lft.to/lastmile_qr_scan"}, "is_reserved": 0, "fusion_lon": 0.0, "fusion_lat": 0.0, "lon": -77.00086383333333, "name": "a23250753498d89f7263c105e07c11a1"}, {"bike_id": "61128e0913260a0c82a4ed22b9246dd1", "type": "electric_scooter", "is_disabled": 0, "lat": 38.89322666666666, "rental_uris": {"ios": "https://dc.lft.to/lastmile_qr_scan", "android": "https://dc.lft.to/lastmile_qr_scan"}, "is_reserved": 0, "fusion_lon": 0.0, "fusion_lat": 0.0, "lon": -77.04874533333333, "name": "61128e0913260a0c82a4ed22b9246dd1"}, {"bike_id": "7487591962fb696171e630bfb21ec021", "type": "electric_scooter", "is_disabled": 0, "lat": 38.8735035, "rental_uris": {"ios": "https://dc.lft.to/lastmile_qr_scan", "android": "https://dc.lft.to/lastmile_qr_scan"}, "is_reserved": 0, "fusion_lon": 0.0, "fusion_lat": 0.0, "lon": -77.00060216666667, "name": "7487591962fb696171e630bfb21ec021"}, {"bike_id": "26b340bacfae8d0edee2d5b0dd6843eb", "type": "electric_scooter", "is_disabled": 0, "lat": 38.930967333333335, "rental_uris": {"ios": "https://dc.lft.to/lastmile_qr_scan", "android": "https://dc.lft.to/lastmile_qr_scan"}, "is_reserved": 0, "fusion_lon": 0.0, "fusion_lat": 0.0, "lon": -77.025691, "name": "26b340bacfae8d0edee2d5b0dd6843eb"}, {"bike_id": "4964b16331564c5b04f94811bdc298e0", "type": "electric_scooter", "is_disabled": 0, "lat": 38.86687583333333, "rental_uris": {"ios": "https://dc.lft.to/lastmile_qr_scan", "android": "https://dc.lft.to/lastmile_qr_scan"}, "is_reserved": 0, "fusion_lon": 0.0, "fusion_lat": 0.0, "lon": -76.9857075, "name": "4964b16331564c5b04f94811bdc298e0"}, {"bike_id": "52168a3d931bb03887e61635302a65de", "type": "electric_scooter", "is_disabled": 0, "lat": 38.8766685, "rental_uris": {"ios": "https://dc.lft.to/lastmile_qr_scan", "android": "https://dc.lft.to/lastmile_qr_scan"}, "is_reserved": 0, "fusion_lon": 0.0, "fusion_lat": 0.0, "lon": -77.0026825, "name": "52168a3d931bb03887e61635302a65de"}, {"bike_id": "bfdbe2fc24e92a171a0c62658ecda22a", "type": "electric_scooter", "is_disabled": 0, "lat": 38.90738416666667, "rental_uris": {"ios": "https://dc.lft.to/lastmile_qr_scan", "android": "https://dc.lft.to/lastmile_qr_scan"}, "is_reserved": 0, "fusion_lon": 0.0, "fusion_lat": 0.0, "lon": -77.01314733333334, "name": "bfdbe2fc24e92a171a0c62658ecda22a"},