{"data": {"bikes": [{"rental_uris": {"android": "https://dc.lft.to/lastmile_qr_scan", "ios": "https://dc.lft.to/lastmile_qr_scan"}, "is_reserved": 0, "is_disabled": 0, "name": "6ad85afa4d082f66ce6b8287ee4e4b8b", "bike_id": "6ad85afa4d082f66ce6b8287ee4e4b8b", "fusion_lat": 0.0, "lon": -76.99542816666667, "type": "electric_bike", "fusion_lon": 0.0, "lat": 38.95633933333333}, {"rental_uris": {"android": "https://dc.lft.to/lastmile_qr_scan", "ios": "https://dc.lft.to/lastmile_qr_scan"}, "is_reserved": 0, "is_disabled": 0, "name": "a22ed095a75e9fc348518decce13ca65", "bike_id": "a22ed095a75e9fc348518decce13ca65", "fusion_lat": 0.0, "lon": -77.02178566666667, "type": "electric_scooter", "fusion_lon": 0.0, "lat": 38.8871685}, {"rental_uris": {"android": "https://dc.lft.to/lastmile_qr_scan", "ios": "https://dc.lft.to/lastmile_qr_scan"}, "is_reserved": 0, "is_disabled": 0, "name": "34c402bcf6bd69a5d6678150ce3aee1a", "bike_id": "34c402bcf6bd69a5d6678150ce3aee1a", "fusion_lat": 0.0, "lon": -77.02571766666667, "type": "electric_scooter", "fusion_lon": 0.0, "lat": 38.912582666666665}, {"rental_uris": {"android": "https://dc.lft.to/lastmile_qr_scan", "ios": "https://dc.lft.to/lastmile_qr_scan"}, "is_reserved": 0, "is_disabled": 0, "name": "a70dfd577c595d74f0988bba7ce11495", "bike_id": "a70dfd577c595d74f0988bba7ce11495", "fusion_lat": 0.0, "lon": -77.02780683333333, "type": "electric_scooter", "fusion_lon": 0.0, "lat": 38.93416233333333}, {"rental_uris": {"android": "https://dc.lft.to/lastmile_qr_scan", "ios": "https://dc.lft.to/lastmile_qr_scan"}, "is_reserved": 0, "is_disabled": 0, "name": "4c5789f893ec69bbffbd9a370a8be979", "bike_id": "4c5789f893ec69bbffbd9a370a8be979", "fusion_lat": 0.0, "lon": -76.9355995, "type": "electric_scooter", "fusion_lon": 0.0, "lat": 38.88273}, {"rental_uris": {"android": "https://dc.lft.to/lastmile_qr_scan", "ios": "https://dc.lft.to/lastmile_qr_scan"}, "is_reserved": 0, "is_disabled": 0, "name": "0757e1d91e322ada4f674bc2543a90c4", "bike_id": "0757e1d91e322ada4f674bc2543a90c4", "fusion_lat": 0.0, "lon": -77.04376833333333, "type": "electric_scooter", "fusion_lon": 0.0, "lat": 38.91118083333333}, {"rental_uris": {"android": "https://dc.lft.to/lastmile_qr_scan", "ios": "https://dc.lft.to/lastmile_qr_scan"}, "is_reserved": 0, "is_disabled": 0, "name": "5b655ce8f0d6e727d7a37e6e2b7ff478", "bike_id": "5b655ce8f0d6e727d7a37e6e2b7ff478", "fusion_lat": 0.0, "lon": -76.96546366666666, "type": "electric_scooter", "fusion_lon": 0.0, "lat": 38.918533333333336}, {"rental_uris": {"android": "https://dc.lft.to/lastmile_qr_scan", "ios": "https://dc.lft.to/lastmile_qr_scan"}, "is_reserved": 0, "is_disabled": 0, "name": "12b7b76ad382d2e9cc4048111f065270", "bike_id": "12b7b76ad382d2e9cc4048111f065270", "fusion_lat": 0.0, "lon": -77.0068095, "type": "electric_scooter", "fusion_lon": 0.0, "lat": 38.900179666666666}, {"rental_uris": {"android": "https://dc.lft.to/lastmile_qr_scan", "ios": "https://dc.lft.to/lastmile_qr_scan"}, "is_reserved": 0, "is_disabled": 0, "name": "2e7f8e71ac5cdf34c8c710b2011093e5", "bike_id": "2e7f8e71ac5cdf34c8c710b2011093e5", "fusion_lat": 0.0, "lon": -77.02130883333334, "type": "electric_scooter", "fusion_lon": 0.0, "lat": 38.92271816666667}, {"rental_uris": {"android": "https://dc.lft.to/lastmile_qr_scan", "ios": "https://dc.lft.to/lastmile_qr_scan"}, "is_reserved": 0, "is_disabled": 0, "name": "0d1dfe842ac5702a2dc1cea1e7adda0b", "bike_id": "0d1dfe842ac5702a2dc1cea1e7adda0b", "fusion_lat": 0.0, "lon": -77.03168233333334, "type": "electric_scooter", "fusion_lon": 0.0, "lat": 38.929674}, {"rental_uris": {"android": "https://dc.lft.to/lastmile_qr_scan", "ios": "https://dc.lft.to/lastmile_qr_scan"}, "is_reserved": 0, "is_disabled": 0, "name": "d760f89a3872953fcee07d957c8e5dd9", "bike_id": "d760f89a3872953fcee07d957c8e5dd9", "fusion_lat": 0.0, "lon": -77.03038183333334, "type": "electric_scooter", "fusion_lon": 0.0, "lat": 38.950842}, {"rental_uris": {"android": "https://dc.lft.to/lastmile_qr_scan", "ios": "https://dc.lft.to/lastmile_qr_scan"}, "is_reserved": 0, "is_disabled": 0, "name": "6365faefd586e51de02fed5df471236c", "bike_id": "6365faefd586e51de02fed5df471236c", "fusion_lat": 0.0, "lon": -77.055073, "type": "electric_scooter", "fusion_lon": 0.0, "lat": 38.928374833333336}, {"rental_uris": {"android": "https://dc.lft.to/lastmile_qr_scan", "ios": "https://dc.lft.to/lastmile_qr_scan"}, "is_reserved": 0, "is_disabled": 0, "name": "65dbd4e87188ed3135d700d23fdc57c7", "bike_id": "65dbd4e87188ed3135d700d23fdc57c7", "fusion_lat": 0.0, "lon": -76.96713516666667, "type": "electric_scooter", "fusion_lon": 0.0, "lat": 38.859722}, {"rental_uris": {"android": "https://dc.lft.to/lastmile_qr_scan", "ios": "https://dc.lft.to/lastmile_qr_scan"}, "is_reserved": 0, "is_disabled": 0, "name": "9e298d5dc23c28ecfa0c02280629d854", "bike_id": "9e298d5dc23c28ecfa0c02280629d854", "fusion_lat": 0.0, "lon": -77.03052966666667, "type": "electric_scooter", "fusion_lon": 0.0, "lat": 38.92369216666667}, {"rental_uris": {"android": "https://dc.lft.to/lastmile_qr_scan", "ios": "https://dc.lft.to/lastmile_qr_scan"}, "is_reserved": 0, "is_disabled": 0, "name": "9af1d6c4693351cff1a977384ec2d332", "bike_id": "9af1d6c4693351cff1a977384ec2d332", "fusion_lat": 0.0, "lon": -77.04231333333334, "type": "electric_scooter", "fusion_lon": 0.0, "lat": 38.934036166666665}, {"rental_uris": {"android": "https://dc.lft.to/lastmile_qr_scan", "ios": "https://dc.lft.to/lastmile_qr_scan"}, "is_reserved": 0, "is_disabled": 0, "name": "96cb6798e063dcdff7b9dc0c99978f2f", "bike_id": "96cb6798e063dcdff7b9dc0c99978f2f", "fusion_lat": 0.0, "lon": -77.01868533333334, "type": "electric_scooter", "fusion_lon": 0.0, "lat": 38.9737065}, {"rental_uris": {"android": "https://dc.lft.to/lastmile_qr_scan", "ios": "https://dc.lft.to/lastmile_qr_scan"}, "is_reserved": 0, "is_disabled": 0, "name": "9f7917768d69e2fee5e4a9078cc941d5", "bike_id": "9f7917768d69e2fee5e4a9078cc941d5", "fusion_lat": 0.0, "lon": -77.0035605, "type": "electric_scooter", "fusion_lon": 0.0, "lat": 38.876686666666664}, {"rental_uris": {"android": "https://dc.lft.to/lastmile_qr_scan", "ios": "https://dc.lft.to/lastmile_qr_scan"}, "is_reserved": 0, "is_disabled": 0, "name": "e49466121262bfe63f36c615e9e42e79", "bike_id": "e49466121262bfe63f36c615e9e42e79", "fusion_lat": 0.0, "lon": -77.0061305, "type": "electric_scooter", "fusion_lon": 0.0, "lat": 38.905759}, {"rental_uris": {"android": "https://dc.lft.to/lastmile_qr_scan", "ios": "https://dc.lft.to/lastmile_qr_scan"}, "is_reserved": 0, "is_disabled": 0, "name": "c4ab7acb900491b9e95a606678fbb289", "bike_id": "c4ab7acb900491b9e95a606678fbb289", "fusion_lat": 0.0, "lon": -76.93597733333333, "type": "electric_scooter", "fusion_lon": 0.0, "lat": 38.90947466666667}, {"rental_uris": {"android": "https://dc.lft.to/lastmile_qr_scan", "ios": "https://dc.lft.to/lastmile_qr_scan"}, "is_reserved": 0, "is_disabled": 0, "name": "a2f45ef5a20bce9b4a2d5097d84e6c29", "bike_id": "a2f45ef5a20bce9b4a2d5097d84e6c29", "fusion_lat": 0.0, "lon": -77.02230283333333, "type": "electric_scooter", "fusion_lon": 0.0, "lat": 38.91254433333334}, {"rental_uris": {"android": "https://dc.lft.to/lastmile_qr_scan", "ios": "https://dc.lft.to/lastmile_qr_scan"}, "is_reserved": 0, "is_disabled": 0, "name": "b5c3522936dbbb0f5b7e7d393cfc58aa", "bike_id": "b5c3522936dbbb0f5b7e7d393cfc58aa", "fusion_lat": 0.0, "lon": -76.95158516666666, "type": "electric_bike", "fusion_lon": 0.0, "lat": 39.0843935}, {"rental_uris": {"android": "https://dc.lft.to/lastmile_qr_scan", "ios": "https://dc.lft.to/lastmile_qr_scan"}, "is_reserved": 0, "is_disabled": 0, "name": "3506874ba3283b34b735c1ac49e800fe", "bike_id": "3506874ba3283b34b735c1ac49e800fe", "fusion_lat": 0.0, "lon": -77.050045, "type": "electric_scooter", "fusion_lon": 0.0, "lat": 38.89230883333333}, {"rental_uris": {"android": "https://dc.lft.to/lastmile_qr_scan", "ios": "https://dc.lft.to/lastmile_qr_scan"}, "is_reserved": 0, "is_disabled": 0, "name": "7cd750d74f444ee5bd9584b9215df555", "bike_id": "7cd750d74f444ee5bd9584b9215df555", "fusion_lat": 0.0, "lon": -77.01212366666667, "type": "electric_scooter", "fusion_lon": 0.0, "lat": 38.91819683333333}, {"rental_uris": {"android": "https://dc.lft.to/lastmile_qr_scan", "ios": "https://dc.lft.to/lastmile_qr_scan"}, "is_reserved": 0, "is_disabled": 0, "name": "0c64a70a3d02c7b3cb51794bb9d3dcf6", "bike_id": "0c64a70a3d02c7b3cb51794bb9d3dcf6", "fusion_lat": 0.0, "lon": -77.02795666666667, "type": "electric_scooter", "fusion_lon": 0.0, "lat": 38.9307875}, {"rental_uris": {"android": "https://dc.lft.to/lastmile_qr_scan", "ios": "https://dc.lft.to/lastmile_qr_scan"}, "is_reserved": 0, "is_disabled": 0, "name": "5f8fa2f925eb493a3d6f0f54232c96ae", "bike_id": "5f8fa2f925eb493a3d6f0f54232c96ae", "fusion_lat": 0.0, "lon": -77.03658233333333, "type": "electric_scooter", "fusion_lon": 0.0, "lat": 38.902757333333334}, {"rental_uris": {"android": "https://dc.lft.to/lastmile_qr_scan", "ios": "https://dc.lft.to/lastmile_qr_scan"}, "is_reserved": 0, "is_disabled": 0, "name": "42a140dbba93e274e88a50a2dac0331b", "bike_id": "42a140dbba93e274e88a50a2dac0331b", "fusion_lat": 0.0, "lon": -77.0324765, "type": "electric_scooter", "fusion_lon": 0.0, "lat": 38.917108999999996}, {"rental_uris": {"android": "https://dc.lft.to/lastmile_qr_scan", "ios": "https://dc.lft.to/lastmile_qr_scan"}, "is_reserved": 0, "is_disabled": 0, "name": "ee8df45f5ed443c4e037f226740f0592", "bike_id": "ee8df45f5ed443c4e037f226740f0592", "fusion_lat": 0.0, "lon": -77.00156566666666, "type": "electric_scooter", "fusion_lon": 0.0, "lat": 38.821337166666666}, {"rental_uris": {"android": "https://dc.lft.to/lastmile_qr_scan", "ios": "https://dc.lft.to/lastmile_qr_scan"}, "is_reserved": 0, "is_disabled": 0, "name": "904f0d0ae8b9f1cd6a9a9fe4a93b525d", "bike_id": "904f0d0ae8b9f1cd6a9a9fe4a93b525d", "fusion_lat": 0.0, "lon": -77.002944, "type": "electric_scooter", "fusion_lon": 0.0, "lat": 38.891978}, {"rental_uris": {"android": "https://dc.lft.to/lastmile_qr_scan", "ios": "https://dc.lft.to/lastmile_qr_scan"}, "is_reserved": 0, "is_disabled": 0, "name": "4593387946ecb07ace31fd7fc65303a1", "bike_id": "4593387946ecb07ace31fd7fc65303a1", "fusion_lat": 0.0, "lon": -77.030626, "type": "electric_scooter", "fusion_lon": 0.0, "lat": 38.89839683333334}, {"rental_uris": {"android": "https://dc.lft.to/lastmile_qr_scan", "ios": "https://dc.lft.to/lastmile_qr_scan"}, "is_reserved": 0, "is_disabled": 0, "name": "73d9e4abfd49d536b333232ba4c9678a", "bike_id": "73d9e4abfd49d536b333232ba4c9678a", "fusion_lat": 0.0, "lon": -77.0029505, "type": "electric_scooter", "fusion_lon": 0.0, "lat": 38.903674}, {"rental_uris": {"android": "https://dc.lft.to/lastmile_qr_scan", "ios": "https://dc.lft.to/lastmile_qr_scan"}, "is_reserved": 0, "is_disabled": 0, "name": "73a468ae70008fc4c4ff538d47cdac38", "bike_id": "73a468ae70008fc4c4ff538d47cdac38", "fusion_lat": 0.0, "lon": -77.06431033333334, "type": "electric_scooter", "fusion_lon": 0.0, "lat": 38.935650333333335}, {"rental_uris": {"android": "https://dc.lft.to/lastmile_qr_scan", "ios": "https://dc.lft.to/lastmile_qr_scan"}, "is_reserved": 0, "is_disabled": 0, "name": "65fa131d3610901ce0e24cbf70c40fc7", "bike_id": "65fa131d3610901ce0e24cbf70c40fc7", "fusion_lat": 0.0, "lon": -77.03848316666667, "type": "electric_scooter", "fusion_lon": 0.0, "lat": 38.92161266666667}, {"rental_uris": {"android": "https://dc.lft.to/lastmile_qr_scan", "ios": "https://dc.lft.to/lastmile_qr_scan"}, "is_reserved": 0, "is_disabled": 0, "name": "39c29a89e2d456759a8cc180b706588d", "bike_id": "39c29a89e2d456759a8cc180b706588d", "fusion_lat": 0.0, "lon": -77.01452016666667, "type": "electric_scooter", "fusion_lon": 0.0, "lat": 38.958099}, {"rental_uris": {"android": "https://dc.lft.to/lastmile_qr_scan", "ios": "https://dc.lft.to/lastmile_qr_scan"}, "is_reserved": 0, "is_disabled": 0, "name": "37f24c7f16d71ff74dab0ce3406a64bf", "bike_id": "37f24c7f16d71ff74dab0ce3406a64bf", "fusion_lat": 0.0, "lon": -77.06522516666666, "type": "electric_scooter", "fusion_lon": 0.0, "lat": 38.9052735}, {"rental_uris": {"android": "https://dc.lft.to/lastmile_qr_scan", "ios": "https://dc.lft.to/lastmile_qr_scan"}, "is_reserved": 0, "is_disabled": 0, "name": "40a283d31a01ff67b8dffe3b08788481", "bike_id": "40a283d31a01ff67b8dffe3b08788481", "fusion_lat": 0.0, "lon": -77.02640066666666, "type": "electric_scooter", "fusion_lon": 0.0, "lat": 38.929178666666665}, {"rental_uris": {"android": "https://dc.lft.to/lastmile_qr_scan", "ios": "https://dc.lft.to/lastmile_qr_scan"}, "is_reserved": 0, "is_disabled": 0, "name": "33a6346e7331dcd1eadc45e6fd8cdb25", "bike_id": "33a6346e7331dcd1eadc45e6fd8cdb25", "fusion_lat": 0.0, "lon": -76.93361066666667, "type": "electric_scooter", "fusion_lon": 0.0, "lat": 38.89828}, {"rental_uris": {"android": "https://dc.lft.to/lastmile_qr_scan", "ios": "https://dc.lft.to/lastmile_qr_scan"}, "is_reserved": 0, "is_disabled": 0, "name": "be71897bdf19a01ff845d3efe2f43bfa", "bike_id": "be71897bdf19a01ff845d3efe2f43bfa", "fusion_lat": 0.0, "lon": -77.02164183333333, "type": "electric_scooter", "fusion_lon": 0.0, "lat": 38.926127}, {"rental_uris": {"android": "https://dc.lft.to/lastmile_qr_scan", "ios": "https://dc.lft.to/lastmile_qr_scan"}, "is_reserved": 0, "is_disabled": 0, "name": "4ae30a6bd4d8da6d35d8f94f271bf781", "bike_id": "4ae30a6bd4d8da6d35d8f94f271bf781", "fusion_lat": 0.0, "lon": -77.01951966666667, "type": "electric_scooter", "fusion_lon": 0.0, "lat": 38.923323333333336}, {"rental_uris": {"android": "https://dc.lft.to/lastmile_qr_scan", "ios": "https://dc.lft.to/lastmile_qr_scan"}, "is_reserved": 0, "is_disabled": 0, "name": "e57866830bd1bce47976da8224255503", "bike_id": "e57866830bd1bce47976da8224255503", "fusion_lat": 0.0, "lon": -77.03726766666666, "type": "electric_scooter", "fusion_lon": 0.0, "lat": 38.917074666666664}, {"rental_uris": {"android": "https://dc.lft.to/lastmile_qr_scan", "ios": "https://dc.lft.to/lastmile_qr_scan"}, "is_reserved": 0, "is_disabled": 0, "name": "11548d95dd98a7212d5c679b49f27c2e", "bike_id": "11548d95dd98a7212d5c679b49f27c2e", "fusion_lat": 0.0, "lon": -77.07908333333333, "type": "electric_bike", "fusion_lon": 0.0, "lat": 38.838312}, {"rental_uris": {"android": "https://dc.lft.to/lastmile_qr_scan", "ios": "https://dc.lft.to/lastmile_qr_scan"}, "is_reserved": 0, "is_disabled": 0, "name": "3f8fa0a466ccecb87e88d893a723732f", "bike_id": "3f8fa0a466ccecb87e88d893a723732f", "fusion_lat": 0.0, "lon": -77.2317825, "type": "electric_bike", "fusion_lon": 0.0, "lat": 38.9289145}, {"rental_uris": {"android": "https://dc.lft.to/lastmile_qr_scan", "ios": "https://dc.lft.to/lastmile_qr_scan"}, "is_reserved": 0, "is_disabled": 0, "name": "ec8fdcf40332193d528b295ce2c233ed", "bike_id": "ec8fdcf40332193d528b295ce2c233ed", "fusion_lat": 0.0, "lon": -77.03354916666666, "type": "electric_scooter", "fusion_lon": 0.0, "lat": 38.935781666666664}, {"rental_uris": {"android": "https://dc.lft.to/lastmile_qr_scan", "ios": "https://dc.lft.to/lastmile_qr_scan"}, "is_reserved": 0, "is_disabled": 0, "name": "79a09526acc60f0051116834c043bcc1", "bike_id": "79a09526acc60f0051116834c043bcc1", "fusion_lat": 0.0, "lon": -77.02181816666666, "type": "electric_scooter", "fusion_lon": 0.0, "lat": 38.89224383333333}, {"rental_uris": {"android": "https://dc.lft.to/lastmile_qr_scan", "ios": "https://dc.lft.to/lastmile_qr_scan"}, "is_reserved": 0, "is_disabled": 0, "name": "f668b7f8507f6375cae7dc00ed14a01b", "bike_id": "f668b7f8507f6375cae7dc00ed14a01b", "fusion_lat": 0.0, "lon": -77.10294083333334, "type": "electric_bike", "fusion_lon": 0.0, "lat": 38.85252116666667}, {"rental_uris": {"android": "https://dc.lft.to/lastmile_qr_scan", "ios": "https://dc.lft.to/lastmile_qr_scan"}, "is_reserved": 0, "is_disabled": 0, "name": "fcbc7212dc56e1cf95243046263ed025", "bike_id": "fcbc7212dc56e1cf95243046263ed025", "fusion_lat": 0.0, "lon": -77.06264283333333, "type": "electric_bike", "fusion_lon": 0.0, "lat": 38.944148}, {"rental_uris": {"android": "https://dc.lft.to/lastmile_qr_scan", "ios": "https://dc.lft.to/lastmile_qr_scan"}, "is_reserved": 0, "is_disabled": 0, "name": "b5506e9e5e02d51671ba65caf80605cb", "bike_id": "b5506e9e5e02d51671ba65caf80605cb", "fusion_lat": 0.0, "lon": -77.03545233333334, "type": "electric_scooter", "fusion_lon": 0.0, "lat": 38.91827516666667}, {"rental_uris": {"android": "https://dc.lft.to/lastmile_qr_scan", "ios": "https://dc.lft.to/lastmile_qr_scan"}, "is_reserved": 0, "is_disabled": 0, "name": "d882f28caf0c665d42c05b55b316b4b9", "bike_id": "d882f28caf0c665d42c05b55b316b4b9", "fusion_lat": 0.0, "lon": -77.02091683333333, "type": "electric_scooter", "fusion_lon": 0.0, "lat": 38.92126866666667}, {"rental_uris": {"android": "https://dc.lft.to/lastmile_qr_scan", "ios": "https://dc.lft.to/lastmile_qr_scan"}, "is_reserved": 0, "is_disabled": 0, "name": "1b53750a73689c580602ca894bc8fd99", "bike_id": "1b53750a73689c580602ca894bc8fd99", "fusion_lat": 0.0, "lon": -77.03180016666667, "type": "electric_scooter", "fusion_lon": 0.0, "lat": 38.918150833333335}, {"rental_uris": {"android": "https://dc.lft.to/lastmile_qr_scan", "ios": "https://dc.lft.to/lastmile_qr_scan"}, "is_reserved": 0, "is_disabled": 0, "name": "9944fd76bc68b2236203f429ae8041ac", "bike_id": "9944fd76bc68b2236203f429ae8041ac", "fusion_lat": 0.0, "lon": -77.0276025, "type": "electric_bike", "fusion_lon": 0.0, "lat": 38.919566833333334}, {"rental_uris": {"android": "https://dc.lft.to/lastmile_qr_scan", "ios": "https://dc.lft.to/lastmile_qr_scan"}, "is_reserved": 0, "is_disabled": 0, "name": "291e9ed2523c54397f368dbf8bf13d7c", "bike_id": "291e9ed2523c54397f368dbf8bf13d7c", "fusion_lat": 0.0, "lon": -77.00656, "type": "electric_scooter", "fusion_lon": 0.0, "lat": 38.90970166666666}, {"rental_uris": {"android": "https://dc.lft.to/lastmile_qr_scan", "ios": "https://dc.lft.to/lastmile_qr_scan"}, "is_reserved": 0, "is_disabled": 0, "name": "4e861d0d289eade10b195bc6349de2a0", "bike_id": "4e861d0d289eade10b195bc6349de2a0", "fusion_lat": 0.0, "lon": -77.0186935, "type": "electric_scooter", "fusion_lon": 0.0, "lat": 38.951533}, {"rental_uris": {"android": "https://dc.lft.to/lastmile_qr_scan", "ios": "https://dc.lft.to/lastmile_qr_scan"}, "is_reserved": 0, "is_disabled": 0, "name": "ac99cfcc78a29ad6684c0ac6ab04fec5", "bike_id": "ac99cfcc78a29ad6684c0ac6ab04fec5", "fusion_lat": 0.0, "lon": -77.02491266666667, "type": "electric_scooter", "fusion_lon": 0.0, "lat": 38.917517833333335}, {"rental_uris": {"android": "https://dc.lft.to/lastmile_qr_scan", "ios": "https://dc.lft.to/lastmile_qr_scan"}, "is_reserved": 0, "is_disabled": 0, "name": "34693b229872a98f6eb497106741f6d2", "bike_id": "34693b229872a98f6eb497106741f6d2", "fusion_lat": 0.0, "lon": -77.0217615, "type": "electric_scooter", "fusion_lon": 0.0, "lat": 38.91483783333334}, {"rental_uris": {"android": "https://dc.lft.to/lastmile_qr_scan", "ios": "https://dc.lft.to/lastmile_qr_scan"}, "is_reserved": 0, "is_disabled": 0, "name": "c4ac27f7fe0146ed891f5ba0ed8e1a08", "bike_id": "c4ac27f7fe0146ed891f5ba0ed8e1a08", "fusion_lat": 0.0, "lon": -76.98566116666667, "type": "electric_scooter", "fusion_lon": 0.0, "lat": 38.90707366666667}, {"rental_uris": {"android": "https://dc.lft.to/lastmile_qr_scan", "ios": "https://dc.lft.to/lastmile_qr_scan"}, "is_reserved": 0, "is_disabled": 0, "name": "d3d2a7e7a7f9cb680d7b08ac4edc67cd", "bike_id": "d3d2a7e7a7f9cb680d7b08ac4edc67cd", "fusion_lat": 0.0, "lon": -77.02074316666666, "type": "electric_scooter", "fusion_lon": 0.0, "lat": 38.9272005}, {"rental_uris": {"android": "https://dc.lft.to/lastmile_qr_scan", "ios": "https://dc.lft.to/lastmile_qr_scan"}, "is_reserved": 0, "is_disabled": 0, "name": "eb5ab0ddc5dff62653c2a57b37dc7623", "bike_id": "eb5ab0ddc5dff62653c2a57b37dc7623", "fusion_lat": 0.0, "lon": -77.02710766666667, "type": "electric_scooter", "fusion_lon": 0.0, "lat": 38.90668183333333}, {"rental_uris": {"android": "https://dc.lft.to/lastmile_qr_scan", "ios": "https://dc.lft.to/lastmile_qr_scan"}, "is_reserved": 0, "is_disabled": 0, "name": "73bb4e38c4f115f6e6c51204b6866091", "bike_id": "73bb4e38c4f115f6e6c51204b6866091", "fusion_lat": 0.0, "lon": -77.02208616666667, "type": "electric_bike", "fusion_lon": 0.0, "lat": 38.96489233333333}, {"rental_uris": {"android": "https://dc.lft.to/lastmile_qr_scan", "ios": "https://dc.lft.to/lastmile_qr_scan"}, "is_reserved": 0, "is_disabled": 0, "name": "64adcc6f91e7c4f6db80ebdf23c7a92b", "bike_id": "64adcc6f91e7c4f6db80ebdf23c7a92b", "fusion_lat": 0.0, "lon": -76.9984375, "type": "electric_bike", "fusion_lon": 0.0, "lat": 38.883864}, {"rental_uris": {"android": "https://dc.lft.to/lastmile_qr_scan", "ios": "https://dc.lft.to/lastmile_qr_scan"}, "is_reserved": 0, "is_disabled": 0, "name": "8b09fc0e0ac67ee7cc67e82afeda7c0e", "bike_id": "8b09fc0e0ac67ee7cc67e82afeda7c0e", "fusion_lat": 0.0, "lon": -77.00900333333334, "type": "electric_scooter", "fusion_lon": 0.0, "lat": 38.900434}, {"rental_uris": {"android": "https://dc.lft.to/lastmile_qr_scan", "ios": "https://dc.lft.to/lastmile_qr_scan"}, "is_reserved": 0, "is_disabled": 0, "name": "ae900b339954b0144c9f91fbb3da015d", "bike_id": "ae900b339954b0144c9f91fbb3da015d", "fusion_lat": 0.0, "lon": -77.05355066666667, "type": "electric_bike", "fusion_lon": 0.0, "lat": 38.820402}, {"rental_uris": {"android": "https://dc.lft.to/lastmile_qr_scan", "ios": "https://dc.lft.to/lastmile_qr_scan"}, "is_reserved": 0, "is_disabled": 0, "name": "9efa322e0db9528f89ac7019181ca73c", "bike_id": "9efa322e0db9528f89ac7019181ca73c", "fusion_lat": 0.0, "lon": -77.02866783333333, "type": "electric_bike", "fusion_lon": 0.0, "lat": 38.92136283333333}, {"rental_uris": {"android": "https://dc.lft.to/lastmile_qr_scan", "ios": "https://dc.lft.to/lastmile_qr_scan"}, "is_reserved": 0, "is_disabled": 0, "name": "8aa31924b6f343f205a1040fd1e2411d", "bike_id": "8aa31924b6f343f205a1040fd1e2411d", "fusion_lat": 0.0, "lon": -76.93755833333333, "type": "electric_scooter", "fusion_lon": 0.0, "lat": 38.87858583333333}, {"rental_uris": {"android": "https://dc.lft.to/lastmile_qr_scan", "ios": "https://dc.lft.to/lastmile_qr_scan"}, "is_reserved": 0, "is_disabled": 0, "name": "b5e803143e3b0677482f0377b4c29f5f", "bike_id": "b5e803143e3b0677482f0377b4c29f5f", "fusion_lat": 0.0, "lon": -77.02794516666667, "type": "electric_scooter", "fusion_lon": 0.0, "lat": 38.95395333333333}, {"rental_uris": {"android": "https://dc.lft.to/lastmile_qr_scan", "ios": "https://dc.lft.to/lastmile_qr_scan"}, "is_reserved": 0, "is_disabled": 0, "name": "164766e8da33232d8130948f75eaacec", "bike_id": "164766e8da33232d8130948f75eaacec", "fusion_lat": 0.0, "lon": -77.02900716666667, "type": "electric_scooter", "fusion_lon": 0.0, "lat": 38.914045}, {"rental_uris": {"android": "https://dc.lft.to/lastmile_qr_scan", "ios": "https://dc.lft.to/lastmile_qr_scan"}, "is_reserved": 0, "is_disabled": 0, "name": "439e9f2ab6996f8256df4d816db503c0", "bike_id": "439e9f2ab6996f8256df4d816db503c0", "fusion_lat": 0.0, "lon": -77.00760033333333, "type": "electric_bike", "fusion_lon": 0.0, "lat": 38.997824333333334}, {"rental_uris": {"android": "https://dc.lft.to/lastmile_qr_scan", "ios": "https://dc.lft.to/lastmile_qr_scan"}, "is_reserved": 0, "is_disabled": 0, "name": "88962e1e7c2a2934fd8b5926f2341e06", "bike_id": "88962e1e7c2a2934fd8b5926f2341e06", "fusion_lat": 0.0, "lon": -76.94551916666667, "type": "electric_bike", "fusion_lon": 0.0, "lat": 38.982952833333336}, {"rental_uris": {"android": "https://dc.lft.to/lastmile_qr_scan", "ios": "https://dc.lft.to/lastmile_qr_scan"}, "is_reserved": 0, "is_disabled": 0, "name": "8fae71406c8b03144cfa650f7e36d153", "bike_id": "8fae71406c8b03144cfa650f7e36d153", "fusion_lat": 0.0, "lon": -76.99735, "type": "electric_scooter", "fusion_lon": 0.0, "lat": 38.9002765}, {"rental_uris": {"android": "https://dc.lft.to/lastmile_qr_scan", "ios": "https://dc.lft.to/lastmile_qr_scan"}, "is_reserved": 0, "is_disabled": 0, "name": "fea4adb9423fea373f8579f8f0f70786", "bike_id": "fea4adb9423fea373f8579f8f0f70786", "fusion_lat": 0.0, "lon": -77.02851266666667, "type": "electric_scooter", "fusion_lon": 0.0, "lat": 38.93317316666667}, {"rental_uris": {"android": "https://dc.lft.to/lastmile_qr_scan", "ios": "https://dc.lft.to/lastmile_qr_scan"}, "is_reserved": 0, "is_disabled": 0, "name": "87a8b148ae682b36cee5069238ba98bd", "bike_id": "87a8b148ae682b36cee5069238ba98bd", "fusion_lat": 0.0, "lon": -76.95245366666667, "type": "electric_bike", "fusion_lon": 0.0, "lat": 38.88463133333333}, {"rental_uris": {"android": "https://dc.lft.to/lastmile_qr_scan", "ios": "https://dc.lft.to/lastmile_qr_scan"}, "is_reserved": 0, "is_disabled": 0, "name": "429a5d10df04b5fbb115a606c9cc5457", "bike_id": "429a5d10df04b5fbb115a606c9cc5457", "fusion_lat": 0.0, "lon": -77.03047983333333, "type": "electric_scooter", "fusion_lon": 0.0, "lat": 38.90021466666666}, {"rental_uris": {"android": "https://dc.lft.to/lastmile_qr_scan", "ios": "https://dc.lft.to/lastmile_qr_scan"}, "is_reserved": 0, "is_disabled": 0, "name": "1476bc185e3f7bb38b2d14aaea8a40aa", "bike_id": "1476bc185e3f7bb38b2d14aaea8a40aa", "fusion_lat": 0.0, "lon": -77.00429066666666, "type": "electric_scooter", "fusion_lon": 0.0, "lat": 38.876605833333336}, {"rental_uris": {"android": "https://dc.lft.to/lastmile_qr_scan", "ios": "https://dc.lft.to/lastmile_qr_scan"}, "is_reserved": 0, "is_disabled": 0, "name": "8a781a461f110d9a322b0db9d68b1fa2", "bike_id": "8a781a461f110d9a322b0db9d68b1fa2", "fusion_lat": 0.0, "lon": -77.04478633333333, "type": "electric_scooter", "fusion_lon": 0.0, "lat": 38.90251416666667}, {"rental_uris": {"android": "https://dc.lft.to/lastmile_qr_scan", "ios": "https://dc.lft.to/lastmile_qr_scan"}, "is_reserved": 0, "is_disabled": 0, "name": "936407f2cf4133a4689d81783dc75598", "bike_id": "936407f2cf4133a4689d81783dc75598", "fusion_lat": 0.0, "lon": -77.0265275, "type": "electric_bike", "fusion_lon": 0.0, "lat": 38.9882625}, {"rental_uris": {"android": "https://dc.lft.to/lastmile_qr_scan", "ios": "https://dc.lft.to/lastmile_qr_scan"}, "is_reserved": 0, "is_disabled": 0, "name": "5996afe092ede10f3472fbb08beb428a", "bike_id": "5996afe092ede10f3472fbb08beb428a", "fusion_lat": 0.0, "lon": -77.03744216666666, "type": "electric_scooter", "fusion_lon": 0.0, "lat": 38.929018}, {"rental_uris": {"android": "https://dc.lft.to/lastmile_qr_scan", "ios": "https://dc.lft.to/lastmile_qr_scan"}, "is_reserved": 0, "is_disabled": 0, "name": "a8a28f3be774742615bf4bd6b64f94bf", "bike_id": "a8a28f3be774742615bf4bd6b64f94bf", "fusion_lat": 0.0, "lon": -77.04379983333334, "type": "electric_scooter", "fusion_lon": 0.0, "lat": 38.920535}, {"rental_uris": {"android": "https://dc.lft.to/lastmile_qr_scan", "ios": "https://dc.lft.to/lastmile_qr_scan"}, "is_reserved": 0, "is_disabled": 0, "name": "5a7ce34eb5a3bfb8c706561f8f7c2f1e", "bike_id": "5a7ce34eb5a3bfb8c706561f8f7c2f1e", "fusion_lat": 0.0, "lon": -76.938072, "type": "electric_bike", "fusion_lon": 0.0, "lat": 38.97971666666667}, {"rental_uris": {"android": "https://dc.lft.to/lastmile_qr_scan", "ios": "https://dc.lft.to/lastmile_qr_scan"}, "is_reserved": 0, "is_disabled": 0, "name": "79a7b75fb40c6432182d336e2e94b6e7", "bike_id": "79a7b75fb40c6432182d336e2e94b6e7", "fusion_lat": 0.0, "lon": -77.032692, "type": "electric_bike", "fusion_lon": 0.0, "lat": 38.902714}, {"rental_uris": {"android": "https://dc.lft.to/lastmile_qr_scan", "ios": "https://dc.lft.to/lastmile_qr_scan"}, "is_reserved": 0, "is_disabled": 0, "name": "9fd5f5a9e5e420c2173180b2a141a3df", "bike_id": "9fd5f5a9e5e420c2173180b2a141a3df", "fusion_lat": 0.0, "lon": -77.0394525, "type": "electric_scooter", "fusion_lon": 0.0, "lat": 38.915674333333335}, {"rental_uris": {"android": "https://dc.lft.to/lastmile_qr_scan", "ios": "https://dc.lft.to/lastmile_qr_scan"}, "is_reserved": 0, "is_disabled": 0, "name": "a6c678f5c4c8f0a2f07cb7b0666362f1", "bike_id": "a6c678f5c4c8f0a2f07cb7b0666362f1", "fusion_lat": 0.0, "lon": -77.04153566666666, "type": "electric_scooter", "fusion_lon": 0.0, "lat": 38.9233475}, {"rental_uris": {"android": "https://dc.lft.to/lastmile_qr_scan", "ios": "https://dc.lft.to/lastmile_qr_scan"}, "is_reserved": 0, "is_disabled": 0, "name": "9ea1b032569c07744de44e5b7ea9d3a6", "bike_id": "9ea1b032569c07744de44e5b7ea9d3a6", "fusion_lat": 0.0, "lon": -77.007214, "type": "electric_scooter", "fusion_lon": 0.0, "lat": 38.8974655}, {"rental_uris": {"android": "https://dc.lft.to/lastmile_qr_scan", "ios": "https://dc.lft.to/lastmile_qr_scan"}, "is_reserved": 0, "is_disabled": 0, "name": "ff90121d3531039a597324c2d21d7b01", "bike_id": "ff90121d3531039a597324c2d21d7b01", "fusion_lat": 0.0, "lon": -77.02963583333333, "type": "electric_scooter", "fusion_lon": 0.0, "lat": 38.92725633333333}, {"rental_uris": {"android": "https://dc.lft.to/lastmile_qr_scan", "ios": "https://dc.lft.to/lastmile_qr_scan"}, "is_reserved": 0, "is_disabled": 0, "name": "74471719f5bdf5fef720f8246773f0e7", "bike_id": "74471719f5bdf5fef720f8246773f0e7", "fusion_lat": 0.0, "lon": -76.97642783333333, "type": "electric_bike", "fusion_lon": 0.0, "lat": 38.88685866666667}, {"rental_uris": {"android": "https://dc.lft.to/lastmile_qr_scan", "ios": "https://dc.lft.to/lastmile_qr_scan"}, "is_reserved": 0, "is_disabled": 0, "name": "0cb040334e7f70a88c15ea2f37a49b16", "bike_id": "0cb040334e7f70a88c15ea2f37a49b16", "fusion_lat": 0.0, "lon": -77.015156, "type": "electric_scooter", "fusion_lon": 0.0, "lat": 38.88733533333333}, {"rental_uris": {"android": "https://dc.lft.to/lastmile_qr_scan", "ios": "https://dc.lft.to/lastmile_qr_scan"}, "is_reserved": 0, "is_disabled": 0, "name": "837f4f170ecdf421cdd396de6a75e948", "bike_id": "837f4f170ecdf421cdd396de6a75e948", "fusion_lat": 0.0, "lon": -77.02518066666667, "type": "electric_scooter", "fusion_lon": 0.0, "lat": 38.92093783333333}, {"rental_uris": {"android": "https://dc.lft.to/lastmile_qr_scan", "ios": "https://dc.lft.to/lastmile_qr_scan"}, "is_reserved": 0, "is_disabled": 0, "name": "9dee4b3daf3a1ed1a9119d47047d2542", "bike_id": "9dee4b3daf3a1ed1a9119d47047d2542", "fusion_lat": 0.0, "lon": -77.02939883333333, "type": "electric_scooter", "fusion_lon": 0.0, "lat": 38.9027065}, {"rental_uris": {"android": "https://dc.lft.to/lastmile_qr_scan", "ios": "https://dc.lft.to/lastmile_qr_scan"}, "is_reserved": 0, "is_disabled": 0, "name": "25aaef91fb1bb267250908550356e0a0", "bike_id": "25aaef91fb1bb267250908550356e0a0", "fusion_lat": 0.0, "lon": -77.03283683333333, "type": "electric_scooter", "fusion_lon": 0.0, "lat": 38.89878183333333}, {"rental_uris": {"android": "https://dc.lft.to/lastmile_qr_scan", "ios": "https://dc.lft.to/lastmile_qr_scan"}, "is_reserved": 0, "is_disabled": 0, "name": "0b04c7fcccebc2fe73fb7eeace28271a", "bike_id": "0b04c7fcccebc2fe73fb7eeace28271a", "fusion_lat": 0.0, "lon": -76.99573633333333, "type": "electric_bike", "fusion_lon": 0.0, "lat": 38.831586}, {"rental_uris": {"android": "https://dc.lft.to/lastmile_qr_scan", "ios": "https://dc.lft.to/lastmile_qr_scan"}, "is_reserved": 0, "is_disabled": 0, "name": "178ce7aa9f5206c63db78d6574bb88cb", "bike_id": "178ce7aa9f5206c63db78d6574bb88cb", "fusion_lat": 0.0, "lon": -77.02153766666666, "type": "electric_scooter", "fusion_lon": 0.0, "lat": 38.92463633333333}, {"rental_uris": {"android": "https://dc.lft.to/lastmile_qr_scan", "ios": "https://dc.lft.to/lastmile_qr_scan"}, "is_reserved": 0, "is_disabled": 0, "name": "5e9030d1cd5ce031fb2cd604155a033f", "bike_id": "5e9030d1cd5ce031fb2cd604155a033f", "fusion_lat": 0.0, "lon": -77.04656666666666, "type": "electric_scooter", "fusion_lon": 0.0, "lat": 38.89341816666666}, {"rental_uris": {"android": "https://dc.lft.to/lastmile_qr_scan", "ios": "https://dc.lft.to/lastmile_qr_scan"}, "is_reserved": 0, "is_disabled": 0, "name": "2aa071a1806c89a90c126fab359841ef", "bike_id": "2aa071a1806c89a90c126fab359841ef", "fusion_lat": 0.0, "lon": -76.9809165, "type": "electric_bike", "fusion_lon": 0.0, "lat": 38.953517833333336}, {"rental_uris": {"android": "https://dc.lft.to/lastmile_qr_scan", "ios": "https://dc.lft.to/lastmile_qr_scan"}, "is_reserved": 0, "is_disabled": 0, "name": "552d4bed92a7d3e4638642b4ebd5acfd", "bike_id": "552d4bed92a7d3e4638642b4ebd5acfd", "fusion_lat": 0.0, "lon": -77.0303645, "type": "electric_scooter", "fusion_lon": 0.0, "lat": 38.930959666666666}, {"rental_uris": {"android": "https://dc.lft.to/lastmile_qr_scan", "ios": "https://dc.lft.to/lastmile_qr_scan"}, "is_reserved": 0, "is_disabled": 0, "name": "a51a8fbc301718f0c648ed607e4435b0", "bike_id": "a51a8fbc301718f0c648ed607e4435b0", "fusion_lat": 0.0, "lon": -77.03886333333334, "type": "electric_scooter", "fusion_lon": 0.0, "lat": 38.918501666666664}, {"rental_uris": {"android": "https://dc.lft.to/lastmile_qr_scan", "ios": "https://dc.lft.to/lastmile_qr_scan"}, "is_reserved": 0, "is_disabled": 0, "name": "0ddb6cbc53f8531bfa0fa1dc03b2a69c", "bike_id": "0ddb6cbc53f8531bfa0fa1dc03b2a69c", "fusion_lat": 0.0, "lon": -77.0487415, "type": "electric_scooter", "fusion_lon": 0.0, "lat": 38.90022616666667}, {"rental_uris": {"android": "https://dc.lft.to/lastmile_qr_scan", "ios": "https://dc.lft.to/lastmile_qr_scan"}, "is_reserved": 0, "is_disabled": 0, "name": "ecffd850e53f20204104d4be9a207c6f", "bike_id": "ecffd850e53f20204104d4be9a207c6f", "fusion_lat": 0.0, "lon": -77.0019625, "type": "electric_scooter", "fusion_lon": 0.0, "lat": 38.902327666666665}, {"rental_uris": {"android": "https://dc.lft.to/lastmile_qr_scan", "ios": "https://dc.lft.to/lastmile_qr_scan"}, "is_reserved": 0, "is_disabled": 0, "name": "d51591d49bef7741d6df013cab35d54f", "bike_id": "d51591d49bef7741d6df013cab35d54f", "fusion_lat": 0.0, "lon": -77.02549666666667, "type": "electric_scooter", "fusion_lon": 0.0, "lat": 38.8919785}, {"rental_uris": {"android": "https://dc.lft.to/lastmile_qr_scan", "ios": "https://dc.lft.to/lastmile_qr_scan"}, "is_reserved": 0, "is_disabled": 0, "name": "42af5913b707fd37a72da9c636ba29c7", "bike_id": "42af5913b707fd37a72da9c636ba29c7", "fusion_lat": 0.0, "lon": -77.07335033333334, "type": "electric_scooter", "fusion_lon": 0.0, "lat": 38.9260495}, {"rental_uris": {"android": "https://dc.lft.to/lastmile_qr_scan", "ios": "https://dc.lft.to/lastmile_qr_scan"}, "is_reserved": 0, "is_disabled": 0, "name": "576bac94f51d1983863aea62ee38475b", "bike_id": "576bac94f51d1983863aea62ee38475b", "fusion_lat": 0.0, "lon": -77.0365705, "type": "electric_scooter", "fusion_lon": 0.0, "lat": 38.93596483333334}, {"rental_uris": {"android": "https://dc.lft.to/lastmile_qr_scan", "ios": "https://dc.lft.to/lastmile_qr_scan"}, "is_reserved": 0, "is_disabled": 0, "name": "792045131a06054a14b1f0190a6553a9", "bike_id": "792045131a06054a14b1f0190a6553a9", "fusion_lat": 0.0, "lon": -77.007702, "type": "electric_scooter", "fusion_lon": 0.0, "lat": 38.926677166666664}, {"rental_uris": {"android": "https://dc.lft.to/lastmile_qr_scan", "ios": "https://dc.lft.to/lastmile_qr_scan"}, "is_reserved": 0, "is_disabled": 0, "name": "7a0eb1141cb56153128e744d2f465a64", "bike_id": "7a0eb1141cb56153128e744d2f465a64", "fusion_lat": 0.0, "lon": -76.95060966666667, "type": "electric_bike", "fusion_lon": 0.0, "lat": 39.08511333333333}, {"rental_uris": {"android": "https://dc.lft.to/lastmile_qr_scan", "ios": "https://dc.lft.to/lastmile_qr_scan"}, "is_reserved": 0, "is_disabled": 0, "name": "deb487717e8a5c13b0af24cd1f98799d", "bike_id": "deb487717e8a5c13b0af24cd1f98799d", "fusion_lat": 0.0, "lon": -77.01561833333334, "type": "electric_scooter", "fusion_lon": 0.0, "lat": 38.88327733333333}, {"rental_uris": {"android": "https://dc.lft.to/lastmile_qr_scan", "ios": "https://dc.lft.to/lastmile_qr_scan"}, "is_reserved": 0, "is_disabled": 0, "name": "af5c4ada54a96790c647e5bb2eecbf5a", "bike_id": "af5c4ada54a96790c647e5bb2eecbf5a", "fusion_lat": 0.0, "lon": -77.01314033333334, "type": "electric_scooter", "fusion_lon": 0.0, "lat": 38.89729083333334}, {"rental_uris": {"android": "https://dc.lft.to/lastmile_qr_scan", "ios": "https://dc.lft.to/lastmile_qr_scan"}, "is_reserved": 0, "is_disabled": 0, "name": "a22ef8d5d69498da5e71f1d00804f451", "bike_id": "a22ef8d5d69498da5e71f1d00804f451", "fusion_lat": 0.0, "lon": -76.98614783333333, "type": "electric_scooter", "fusion_lon": 0.0, "lat": 38.907307833333334}, {"rental_uris": {"android": "https://dc.lft.to/lastmile_qr_scan", "ios": "https://dc.lft.to/lastmile_qr_scan"}, "is_reserved": 0, "is_disabled": 0, "name": "3d823d370eabf510839f68fe8502e1d2", "bike_id": "3d823d370eabf510839f68fe8502e1d2", "fusion_lat": 0.0, "lon": -77.03493716666667, "type": "electric_scooter", "fusion_lon": 0.0, "lat": 38.92146733333333}, {"rental_uris": {"android": "https://dc.lft.to/lastmile_qr_scan", "ios": "https://dc.lft.to/lastmile_qr_scan"}, "is_reserved": 0, "is_disabled": 0, "name": "9e75aa372b5f580f183ca3a964479e57", "bike_id": "9e75aa372b5f580f183ca3a964479e57", "fusion_lat": 0.0, "lon": -77.02462433333334, "type": "electric_scooter", "fusion_lon": 0.0, "lat": 38.897452666666666}, {"rental_uris": {"android": "https://dc.lft.to/lastmile_qr_scan", "ios": "https://dc.lft.to/lastmile_qr_scan"}, "is_reserved": 0, "is_disabled": 0, "name": "c1591c4b13b11fda215e2d67e6e71231", "bike_id": "c1591c4b13b11fda215e2d67e6e71231", "fusion_lat": 0.0, "lon": -77.05043666666667, "type": "electric_scooter", "fusion_lon": 0.0, "lat": 38.92357483333333}, {"rental_uris": {"android": "https://dc.lft.to/lastmile_qr_scan", "ios": "https://dc.lft.to/lastmile_qr_scan"}, "is_reserved": 0, "is_disabled": 0, "name": "059c8ae15f6e34b714a22df460b07ff4", "bike_id": "059c8ae15f6e34b714a22df460b07ff4", "fusion_lat": 0.0, "lon": -77.034761, "type": "electric_scooter", "fusion_lon": 0.0, "lat": 38.92478633333333}, {"rental_uris": {"android": "https://dc.lft.to/lastmile_qr_scan", "ios": "https://dc.lft.to/lastmile_qr_scan"}, "is_reserved": 0, "is_disabled": 0, "name": "bb3024c90d0088b95336e4c6555434a2", "bike_id": "bb3024c90d0088b95336e4c6555434a2", "fusion_lat": 0.0, "lon": -77.02296416666667, "type": "electric_scooter", "fusion_lon": 0.0, "lat": 38.917819}, {"rental_uris": {"android": "https://dc.lft.to/lastmile_qr_scan", "ios": "https://dc.lft.to/lastmile_qr_scan"}, "is_reserved": 0, "is_disabled": 0, "name": "2a06db78baa85b1a3f041a1d61779608", "bike_id": "2a06db78baa85b1a3f041a1d61779608", "fusion_lat": 0.0, "lon": -77.01929283333334, "type": "electric_scooter", "fusion_lon": 0.0, "lat": 38.9172695}, {"rental_uris": {"android": "https://dc.lft.to/lastmile_qr_scan", "ios": "https://dc.lft.to/lastmile_qr_scan"}, "is_reserved": 0, "is_disabled": 0, "name": "67aa798f25ead0ab6e055c505690f1fd", "bike_id": "67aa798f25ead0ab6e055c505690f1fd", "fusion_lat": 0.0, "lon": -77.0333845, "type": "electric_scooter", "fusion_lon": 0.0, "lat": 38.935156166666665}, {"rental_uris": {"android": "https://dc.lft.to/lastmile_qr_scan", "ios": "https://dc.lft.to/lastmile_qr_scan"}, "is_reserved": 0, "is_disabled": 0, "name": "b59d8bedc1fd6e8b6a2f64d562139f8e", "bike_id": "b59d8bedc1fd6e8b6a2f64d562139f8e", "fusion_lat": 0.0, "lon": -77.047555, "type": "electric_scooter", "fusion_lon": 0.0, "lat": 38.900742}, {"rental_uris": {"android": "https://dc.lft.to/lastmile_qr_scan", "ios": "https://dc.lft.to/lastmile_qr_scan"}, "is_reserved": 0, "is_disabled": 0, "name": "63861b8b342a27a3984e2c522886776c", "bike_id": "63861b8b342a27a3984e2c522886776c", "fusion_lat": 0.0, "lon": -77.045652, "type": "electric_scooter", "fusion_lon": 0.0, "lat": 38.90377866666667}, {"rental_uris": {"android": "https://dc.lft.to/lastmile_qr_scan", "ios": "https://dc.lft.to/lastmile_qr_scan"}, "is_reserved": 0, "is_disabled": 0, "name": "eb1d7e5f1cc3cf65a4312a18c40e6a44", "bike_id": "eb1d7e5f1cc3cf65a4312a18c40e6a44", "fusion_lat": 0.0, "lon": -77.002088, "type": "electric_scooter", "fusion_lon": 0.0, "lat": 38.908447333333335}, {"rental_uris": {"android": "https://dc.lft.to/lastmile_qr_scan", "ios": "https://dc.lft.to/lastmile_qr_scan"}, "is_reserved": 0, "is_disabled": 0, "name": "7fc73108a74aa6ab097379111ecb109b", "bike_id": "7fc73108a74aa6ab097379111ecb109b", "fusion_lat": 0.0, "lon": -77.03849716666667, "type": "electric_scooter", "fusion_lon": 0.0, "lat": 38.91663716666667}, {"rental_uris": {"android": "https://dc.lft.to/lastmile_qr_scan", "ios": "https://dc.lft.to/lastmile_qr_scan"}, "is_reserved": 0, "is_disabled": 0, "name": "a8a7399e24305584f19c1fbe2818a60b", "bike_id": "a8a7399e24305584f19c1fbe2818a60b", "fusion_lat": 0.0, "lon": -77.02209066666667, "type": "electric_scooter", "fusion_lon": 0.0, "lat": 38.90088033333333}, {"rental_uris": {"android": "https://dc.lft.to/lastmile_qr_scan", "ios": "https://dc.lft.to/lastmile_qr_scan"}, "is_reserved": 0, "is_disabled": 0, "name": "a509ef79e0864f69c6ff7f43a24e8b85", "bike_id": "a509ef79e0864f69c6ff7f43a24e8b85", "fusion_lat": 0.0, "lon": -77.02385866666667, "type": "electric_scooter", "fusion_lon": 0.0, "lat": 38.90980483333333}, {"rental_uris": {"android": "https://dc.lft.to/lastmile_qr_scan", "ios": "https://dc.lft.to/lastmile_qr_scan"}, "is_reserved": 0, "is_disabled": 0, "name": "01927f2abff9ec99da4beb77e97a0b2d", "bike_id": "01927f2abff9ec99da4beb77e97a0b2d", "fusion_lat": 0.0, "lon": -77.02552083333333, "type": "electric_scooter", "fusion_lon": 0.0, "lat": 38.97004733333333}, {"rental_uris": {"android": "https://dc.lft.to/lastmile_qr_scan", "ios": "https://dc.lft.to/lastmile_qr_scan"}, "is_reserved": 0, "is_disabled": 0, "name": "04ee1f11459325c1295127a21b560028", "bike_id": "04ee1f11459325c1295127a21b560028", "fusion_lat": 0.0, "lon": -77.03455233333334, "type": "electric_scooter", "fusion_lon": 0.0, "lat": 38.928745166666666}, {"rental_uris": {"android": "https://dc.lft.to/lastmile_qr_scan", "ios": "https://dc.lft.to/lastmile_qr_scan"}, "is_reserved": 0, "is_disabled": 0, "name": "8b899ebf93ba61c5a770ef54c840adab", "bike_id": "8b899ebf93ba61c5a770ef54c840adab", "fusion_lat": 0.0, "lon": -77.014584, "type": "electric_scooter", "fusion_lon": 0.0, "lat": 38.907172833333334}, {"rental_uris": {"android": "https://dc.lft.to/lastmile_qr_scan", "ios": "https://dc.lft.to/lastmile_qr_scan"}, "is_reserved": 0, "is_disabled": 0, "name": "ed812fdf01ef79990ab67365f767968e", "bike_id": "ed812fdf01ef79990ab67365f767968e", "fusion_lat": 0.0, "lon": -77.07280733333333, "type": "electric_scooter", "fusion_lon": 0.0, "lat": 38.934722}, {"rental_uris": {"android": "https://dc.lft.to/lastmile_qr_scan", "ios": "https://dc.lft.to/lastmile_qr_scan"}, "is_reserved": 0, "is_disabled": 0, "name": "b42602f54f42187c877694ae3352b0d8", "bike_id": "b42602f54f42187c877694ae3352b0d8", "fusion_lat": 0.0, "lon": -76.99871116666667, "type": "electric_scooter", "fusion_lon": 0.0, "lat": 38.900203}, {"rental_uris": {"android": "https://dc.lft.to/lastmile_qr_scan", "ios": "https://dc.lft.to/lastmile_qr_scan"}, "is_reserved": 0, "is_disabled": 0, "name": "0712bda89d324a27a94911b4fc2be86b", "bike_id": "0712bda89d324a27a94911b4fc2be86b", "fusion_lat": 0.0, "lon": -77.03858116666666, "type": "electric_scooter", "fusion_lon": 0.0, "lat": 38.9171835}, {"rental_uris": {"android": "https://dc.lft.to/lastmile_qr_scan", "ios": "https://dc.lft.to/lastmile_qr_scan"}, "is_reserved": 0, "is_disabled": 0, "name": "8afd1e12b656ae325d9c0bfb0f2770a8", "bike_id": "8afd1e12b656ae325d9c0bfb0f2770a8", "fusion_lat": 0.0, "lon": -77.02717266666667, "type": "electric_scooter", "fusion_lon": 0.0, "lat": 38.924632833333334}, {"rental_uris": {"android": "https://dc.lft.to/lastmile_qr_scan", "ios": "https://dc.lft.to/lastmile_qr_scan"}, "is_reserved": 0, "is_disabled": 0, "name": "a319b33e1a4c71b45e02846ab7cc52be", "bike_id": "a319b33e1a4c71b45e02846ab7cc52be", "fusion_lat": 0.0, "lon": -77.000784, "type": "electric_scooter", "fusion_lon": 0.0, "lat": 38.87454316666667}, {"rental_uris": {"android": "https://dc.lft.to/lastmile_qr_scan", "ios": "https://dc.lft.to/lastmile_qr_scan"}, "is_reserved": 0, "is_disabled": 0, "name": "c6e2277fb127345327d13231a8647146", "bike_id": "c6e2277fb127345327d13231a8647146", "fusion_lat": 0.0, "lon": -77.1283995, "type": "electric_bike", "fusion_lon": 0.0, "lat": 38.800539666666666}, {"rental_uris": {"android": "https://dc.lft.to/lastmile_qr_scan", "ios": "https://dc.lft.to/lastmile_qr_scan"}, "is_reserved": 0, "is_disabled": 0, "name": "00d487c5f16e94396734ded12837082f", "bike_id": "00d487c5f16e94396734ded12837082f", "fusion_lat": 0.0, "lon": -77.0198235, "type": "electric_scooter", "fusion_lon": 0.0, "lat": 38.8759605}, {"rental_uris": {"android": "https://dc.lft.to/lastmile_qr_scan", "ios": "https://dc.lft.to/lastmile_qr_scan"}, "is_reserved": 0, "is_disabled": 0, "name": "83b616909db0b859a6d6bda57eccaec7", "bike_id": "83b616909db0b859a6d6bda57eccaec7", "fusion_lat": 0.0, "lon": -77.001634, "type": "electric_scooter", "fusion_lon": 0.0, "lat": 38.919130833333334}, {"rental_uris": {"android": "https://dc.lft.to/lastmile_qr_scan", "ios": "https://dc.lft.to/lastmile_qr_scan"}, "is_reserved": 0, "is_disabled": 0, "name": "6565b30f7df02aad3f057f5ce2f0dc89", "bike_id": "6565b30f7df02aad3f057f5ce2f0dc89", "fusion_lat": 0.0, "lon": -77.04436766666667, "type": "electric_scooter", "fusion_lon": 0.0, "lat": 38.922281}, {"rental_uris": {"android": "https://dc.lft.to/lastmile_qr_scan", "ios": "https://dc.lft.to/lastmile_qr_scan"}, "is_reserved": 0, "is_disabled": 0, "name": "c14db1e7c65a38e6d7e6e5c694955f5a", "bike_id": "c14db1e7c65a38e6d7e6e5c694955f5a", "fusion_lat": 0.0, "lon": -77.03799966666666, "type": "electric_scooter", "fusion_lon": 0.0, "lat": 38.925456}, {"rental_uris": {"android": "https://dc.lft.to/lastmile_qr_scan", "ios": "https://dc.lft.to/lastmile_qr_scan"}, "is_reserved": 0, "is_disabled": 0, "name": "1525890fbe9e4ee85c3f8d2d47c05dbb", "bike_id": "1525890fbe9e4ee85c3f8d2d47c05dbb", "fusion_lat": 0.0, "lon": -77.04532116666667, "type": "electric_scooter", "fusion_lon": 0.0, "lat": 38.902386}, {"rental_uris": {"android": "https://dc.lft.to/lastmile_qr_scan", "ios": "https://dc.lft.to/lastmile_qr_scan"}, "is_reserved": 0, "is_disabled": 0, "name": "dbe7dbec22980ecec1c0dd65fd3bb1f0", "bike_id": "dbe7dbec22980ecec1c0dd65fd3bb1f0", "fusion_lat": 0.0, "lon": -77.030266, "type": "electric_scooter", "fusion_lon": 0.0, "lat": 38.907127}, {"rental_uris": {"android": "https://dc.lft.to/lastmile_qr_scan", "ios": "https://dc.lft.to/lastmile_qr_scan"}, "is_reserved": 0, "is_disabled": 0, "name": "bd165b97562f577f26d025085e69ba31", "bike_id": "bd165b97562f577f26d025085e69ba31", "fusion_lat": 0.0, "lon": -77.05259383333333, "type": "electric_scooter", "fusion_lon": 0.0, "lat": 38.92571816666667}, {"rental_uris": {"android": "https://dc.lft.to/lastmile_qr_scan", "ios": "https://dc.lft.to/lastmile_qr_scan"}, "is_reserved": 0, "is_disabled": 0, "name": "d38787dfed959a3aac041e3579a5ee06", "bike_id": "d38787dfed959a3aac041e3579a5ee06", "fusion_lat": 0.0, "lon": -77.020573, "type": "electric_scooter", "fusion_lon": 0.0, "lat": 38.92364216666667}, {"rental_uris": {"android": "https://dc.lft.to/lastmile_qr_scan", "ios": "https://dc.lft.to/lastmile_qr_scan"}, "is_reserved": 0, "is_disabled": 0, "name": "bfc84285822378e38027c038585f1a16", "bike_id": "bfc84285822378e38027c038585f1a16", "fusion_lat": 0.0, "lon": -77.00802933333334, "type": "electric_scooter", "fusion_lon": 0.0, "lat": 38.9266935}, {"rental_uris": {"android": "https://dc.lft.to/lastmile_qr_scan", "ios": "https://dc.lft.to/lastmile_qr_scan"}, "is_reserved": 0, "is_disabled": 0, "name": "a246cf48ec001f89daed1f1102c61369", "bike_id": "a246cf48ec001f89daed1f1102c61369", "fusion_lat": 0.0, "lon": -77.03176233333333, "type": "electric_scooter", "fusion_lon": 0.0, "lat": 38.9182305}, {"rental_uris": {"android": "https://dc.lft.to/lastmile_qr_scan", "ios": "https://dc.lft.to/lastmile_qr_scan"}, "is_reserved": 0, "is_disabled": 0, "name": "09c09f85951a67284f19810009c1df10", "bike_id": "09c09f85951a67284f19810009c1df10", "fusion_lat": 0.0, "lon": -77.03220333333333, "type": "electric_scooter", "fusion_lon": 0.0, "lat": 38.89677533333333}, {"rental_uris": {"android": "https://dc.lft.to/lastmile_qr_scan", "ios": "https://dc.lft.to/lastmile_qr_scan"}, "is_reserved": 0, "is_disabled": 0, "name": "7ac73cb74c1213c7ceec67c3c66bd097", "bike_id": "7ac73cb74c1213c7ceec67c3c66bd097", "fusion_lat": 0.0, "lon": -76.97745916666666, "type": "electric_bike", "fusion_lon": 0.0, "lat": 38.864842333333335}, {"rental_uris": {"android": "https://dc.lft.to/lastmile_qr_scan", "ios": "https://dc.lft.to/lastmile_qr_scan"}, "is_reserved": 0, "is_disabled": 0, "name": "95edb56016d94dde804b96aa78f85406", "bike_id": "95edb56016d94dde804b96aa78f85406", "fusion_lat": 0.0, "lon": -77.03270316666666, "type": "electric_scooter", "fusion_lon": 0.0, "lat": 38.930124}, {"rental_uris": {"android": "https://dc.lft.to/lastmile_qr_scan", "ios": "https://dc.lft.to/lastmile_qr_scan"}, "is_reserved": 0, "is_disabled": 0, "name": "cd8e9b6400d79c007c232222ed9552ed", "bike_id": "cd8e9b6400d79c007c232222ed9552ed", "fusion_lat": 0.0, "lon": -77.024061, "type": "electric_scooter", "fusion_lon": 0.0, "lat": 38.9109865}, {"rental_uris": {"android": "https://dc.lft.to/lastmile_qr_scan", "ios": "https://dc.lft.to/lastmile_qr_scan"}, "is_reserved": 0, "is_disabled": 0, "name": "59279304308c1822555def5cb6e36e21", "bike_id": "59279304308c1822555def5cb6e36e21", "fusion_lat": 0.0, "lon": -77.0757225, "type": "electric_scooter", "fusion_lon": 0.0, "lat": 38.907342166666666}, {"rental_uris": {"android": "https://dc.lft.to/lastmile_qr_scan", "ios": "https://dc.lft.to/lastmile_qr_scan"}, "is_reserved": 0, "is_disabled": 0, "name": "31f0d3b2c203c7fceadd09fa1c484b05", "bike_id": "31f0d3b2c203c7fceadd09fa1c484b05", "fusion_lat": 0.0, "lon": -77.02164966666666, "type": "electric_scooter", "fusion_lon": 0.0, "lat": 38.89985216666667}, {"rental_uris": {"android": "https://dc.lft.to/lastmile_qr_scan", "ios": "https://dc.lft.to/lastmile_qr_scan"}, "is_reserved": 0, "is_disabled": 0, "name": "8eaf230b409ae8820d732f3d2d790a4f", "bike_id": "8eaf230b409ae8820d732f3d2d790a4f", "fusion_lat": 0.0, "lon": -77.02321683333334, "type": "electric_scooter", "fusion_lon": 0.0, "lat": 38.92091816666667}, {"rental_uris": {"android": "https://dc.lft.to/lastmile_qr_scan", "ios": "https://dc.lft.to/lastmile_qr_scan"}, "is_reserved": 0, "is_disabled": 0, "name": "54cdc6affe04efd8d016f590fc7bf993", "bike_id": "54cdc6affe04efd8d016f590fc7bf993", "fusion_lat": 0.0, "lon": -77.03631266666666, "type": "electric_scooter", "fusion_lon": 0.0, "lat": 38.936778}, {"rental_uris": {"android": "https://dc.lft.to/lastmile_qr_scan", "ios": "https://dc.lft.to/lastmile_qr_scan"}, "is_reserved": 0, "is_disabled": 0, "name": "baa7722b020bab0c2126b825858fe204", "bike_id": "baa7722b020bab0c2126b825858fe204", "fusion_lat": 0.0, "lon": -77.02635283333333, "type": "electric_scooter", "fusion_lon": 0.0, "lat": 38.930273666666665}, {"rental_uris": {"android": "https://dc.lft.to/lastmile_qr_scan", "ios": "https://dc.lft.to/lastmile_qr_scan"}, "is_reserved": 0, "is_disabled": 0, "name": "784af64960689b9bc90ec0c3003d799a", "bike_id": "784af64960689b9bc90ec0c3003d799a", "fusion_lat": 0.0, "lon": -77.06824583333334, "type": "electric_scooter", "fusion_lon": 0.0, "lat": 38.916590166666666}, {"rental_uris": {"android": "https://dc.lft.to/lastmile_qr_scan", "ios": "https://dc.lft.to/lastmile_qr_scan"}, "is_reserved": 0, "is_disabled": 0, "name": "2b2fbe026deb582026e5d6ea931bfde0", "bike_id": "2b2fbe026deb582026e5d6ea931bfde0", "fusion_lat": 0.0, "lon": -77.037609, "type": "electric_scooter", "fusion_lon": 0.0, "lat": 38.9292885}, {"rental_uris": {"android": "https://dc.lft.to/lastmile_qr_scan", "ios": "https://dc.lft.to/lastmile_qr_scan"}, "is_reserved": 0, "is_disabled": 0, "name": "bd03fe40fefa0d6b08a83eb40e52b170", "bike_id": "bd03fe40fefa0d6b08a83eb40e52b170", "fusion_lat": 0.0, "lon": -77.04175883333333, "type": "electric_scooter", "fusion_lon": 0.0, "lat": 38.91730666666667}, {"rental_uris": {"android": "https://dc.lft.to/lastmile_qr_scan", "ios": "https://dc.lft.to/lastmile_qr_scan"}, "is_reserved": 0, "is_disabled": 0, "name": "765a3271f8be9bf174f0104284194c1d", "bike_id": "765a3271f8be9bf174f0104284194c1d", "fusion_lat": 0.0, "lon": -77.02694033333333, "type": "electric_scooter", "fusion_lon": 0.0, "lat": 38.916762}, {"rental_uris": {"android": "https://dc.lft.to/lastmile_qr_scan", "ios": "https://dc.lft.to/lastmile_qr_scan"}, "is_reserved": 0, "is_disabled": 0, "name": "7fe8bc65a737b8d0c6ce7519865fdeaa", "bike_id": "7fe8bc65a737b8d0c6ce7519865fdeaa", "fusion_lat": 0.0, "lon": -77.02256466666667, "type": "electric_scooter", "fusion_lon": 0.0, "lat": 38.928233166666665}, {"rental_uris": {"android": "https://dc.lft.to/lastmile_qr_scan", "ios": "https://dc.lft.to/lastmile_qr_scan"}, "is_reserved": 0, "is_disabled": 0, "name": "34f797d5215282a804025ebd2648a5b5", "bike_id": "34f797d5215282a804025ebd2648a5b5", "fusion_lat": 0.0, "lon": -77.06564433333334, "type": "electric_bike", "fusion_lon": 0.0, "lat": 38.9326715}, {"rental_uris": {"android": "https://dc.lft.to/lastmile_qr_scan", "ios": "https://dc.lft.to/lastmile_qr_scan"}, "is_reserved": 0, "is_disabled": 0, "name": "27617e6e4c02be82b0c09ba6cda42bde", "bike_id": "27617e6e4c02be82b0c09ba6cda42bde", "fusion_lat": 0.0, "lon": -76.99850333333333, "type": "electric_scooter", "fusion_lon": 0.0, "lat": 38.8962445}, {"rental_uris": {"android": "https://dc.lft.to/lastmile_qr_scan", "ios": "https://dc.lft.to/lastmile_qr_scan"}, "is_reserved": 0, "is_disabled": 0, "name": "7530c97f17d4a6e9016b84cdfec3d6e8", "bike_id": "7530c97f17d4a6e9016b84cdfec3d6e8", "fusion_lat": 0.0, "lon": -77.01982833333334, "type": "electric_scooter", "fusion_lon": 0.0, "lat": 38.87605466666667}, {"rental_uris": {"android": "https://dc.lft.to/lastmile_qr_scan", "ios": "https://dc.lft.to/lastmile_qr_scan"}, "is_reserved": 0, "is_disabled": 0, "name": "024f91c90a73791c606e3ecac0dc35e3", "bike_id": "024f91c90a73791c606e3ecac0dc35e3", "fusion_lat": 0.0, "lon": -77.0520705, "type": "electric_scooter", "fusion_lon": 0.0, "lat": 38.90267633333333}, {"rental_uris": {"android": "https://dc.lft.to/lastmile_qr_scan", "ios": "https://dc.lft.to/lastmile_qr_scan"}, "is_reserved": 0, "is_disabled": 0, "name": "f6d24fdf1508fbb4c3c38ca5a3c2f9b8", "bike_id": "f6d24fdf1508fbb4c3c38ca5a3c2f9b8", "fusion_lat": 0.0, "lon": -77.033854, "type": "electric_scooter", "fusion_lon": 0.0, "lat": 38.902701}, {"rental_uris": {"android": "https://dc.lft.to/lastmile_qr_scan", "ios": "https://dc.lft.to/lastmile_qr_scan"}, "is_reserved": 0, "is_disabled": 0, "name": "6d6b1de3b7244b75a447a8a3e279e435", "bike_id": "6d6b1de3b7244b75a447a8a3e279e435", "fusion_lat": 0.0, "lon": -77.04578183333334, "type": "electric_scooter", "fusion_lon": 0.0, "lat": 38.913881333333336}, {"rental_uris": {"android": "https://dc.lft.to/lastmile_qr_scan", "ios": "https://dc.lft.to/lastmile_qr_scan"}, "is_reserved": 0, "is_disabled": 0, "name": "6988675626aa41c6a8231944977c1744", "bike_id": "6988675626aa41c6a8231944977c1744", "fusion_lat": 0.0, "lon": -77.03472783333333, "type": "electric_scooter", "fusion_lon": 0.0, "lat": 38.91698}, {"rental_uris": {"android": "https://dc.lft.to/lastmile_qr_scan", "ios": "https://dc.lft.to/lastmile_qr_scan"}, "is_reserved": 0, "is_disabled": 0, "name": "12c9603c01d1af53cf2f2162e6fb8083", "bike_id": "12c9603c01d1af53cf2f2162e6fb8083", "fusion_lat": 0.0, "lon": -77.04512383333334, "type": "electric_scooter", "fusion_lon": 0.0, "lat": 38.905637166666665}, {"rental_uris": {"android": "https://dc.lft.to/lastmile_qr_scan", "ios": "https://dc.lft.to/lastmile_qr_scan"}, "is_reserved": 0, "is_disabled": 0, "name": "94aab2209215b54812d95e24a43998c4", "bike_id": "94aab2209215b54812d95e24a43998c4", "fusion_lat": 0.0, "lon": -77.00618, "type": "electric_scooter", "fusion_lon": 0.0, "lat": 38.9057125}, {"rental_uris": {"android": "https://dc.lft.to/lastmile_qr_scan", "ios": "https://dc.lft.to/lastmile_qr_scan"}, "is_reserved": 0, "is_disabled": 0, "name": "47ad7f466a969d4fafe53ef4388f4a9b", "bike_id": "47ad7f466a969d4fafe53ef4388f4a9b", "fusion_lat": 0.0, "lon": -77.04356466666667, "type": "electric_scooter", "fusion_lon": 0.0, "lat": 38.910939166666665}, {"rental_uris": {"android": "https://dc.lft.to/lastmile_qr_scan", "ios": "https://dc.lft.to/lastmile_qr_scan"}, "is_reserved": 0, "is_disabled": 0, "name": "458fe10ddaa8c2356c9224a2654f884c", "bike_id": "458fe10ddaa8c2356c9224a2654f884c", "fusion_lat": 0.0, "lon": -77.01889633333333, "type": "electric_scooter", "fusion_lon": 0.0, "lat": 38.897507833333336}, {"rental_uris": {"android": "https://dc.lft.to/lastmile_qr_scan", "ios": "https://dc.lft.to/lastmile_qr_scan"}, "is_reserved": 0, "is_disabled": 0, "name": "fa8102fbbc98d38016ac70ab3712d4dd", "bike_id": "fa8102fbbc98d38016ac70ab3712d4dd", "fusion_lat": 0.0, "lon": -77.02375916666666, "type": "electric_scooter", "fusion_lon": 0.0, "lat": 38.892188}, {"rental_uris": {"android": "https://dc.lft.to/lastmile_qr_scan", "ios": "https://dc.lft.to/lastmile_qr_scan"}, "is_reserved": 0, "is_disabled": 0, "name": "e6ee635e4d84142aed09a77675cc41d9", "bike_id": "e6ee635e4d84142aed09a77675cc41d9", "fusion_lat": 0.0, "lon": -77.04076533333334, "type": "electric_scooter", "fusion_lon": 0.0, "lat": 38.91415666666666}, {"rental_uris": {"android": "https://dc.lft.to/lastmile_qr_scan", "ios": "https://dc.lft.to/lastmile_qr_scan"}, "is_reserved": 0, "is_disabled": 0, "name": "73563192b81b2c0c65de7f07bbd18370", "bike_id": "73563192b81b2c0c65de7f07bbd18370", "fusion_lat": 0.0, "lon": -77.02731616666667, "type": "electric_scooter", "fusion_lon": 0.0, "lat": 38.952015333333335}, {"rental_uris": {"android": "https://dc.lft.to/lastmile_qr_scan", "ios": "https://dc.lft.to/lastmile_qr_scan"}, "is_reserved": 0, "is_disabled": 0, "name": "3bb9f11885630e059ac8d243fcb93a41", "bike_id": "3bb9f11885630e059ac8d243fcb93a41", "fusion_lat": 0.0, "lon": -77.02132366666666, "type": "electric_scooter", "fusion_lon": 0.0, "lat": 38.92413416666667}, {"rental_uris": {"android": "https://dc.lft.to/lastmile_qr_scan", "ios": "https://dc.lft.to/lastmile_qr_scan"}, "is_reserved": 0, "is_disabled": 0, "name": "db72c6a63556223afb7a20586ebe7d46", "bike_id": "db72c6a63556223afb7a20586ebe7d46", "fusion_lat": 0.0, "lon": -77.03096533333333, "type": "electric_scooter", "fusion_lon": 0.0, "lat": 38.9237645}, {"rental_uris": {"android": "https://dc.lft.to/lastmile_qr_scan", "ios": "https://dc.lft.to/lastmile_qr_scan"}, "is_reserved": 0, "is_disabled": 0, "name": "442581107429712b7a300eb0e6e02876", "bike_id": "442581107429712b7a300eb0e6e02876", "fusion_lat": 0.0, "lon": -77.02807716666666, "type": "electric_scooter", "fusion_lon": 0.0, "lat": 38.910577333333336}, {"rental_uris": {"android": "https://dc.lft.to/lastmile_qr_scan", "ios": "https://dc.lft.to/lastmile_qr_scan"}, "is_reserved": 0, "is_disabled": 0, "name": "29d15c40f3139f56cc45da9848024ae1", "bike_id": "29d15c40f3139f56cc45da9848024ae1", "fusion_lat": 0.0, "lon": -77.04628933333333, "type": "electric_scooter", "fusion_lon": 0.0, "lat": 38.909652666666666}, {"rental_uris": {"android": "https://dc.lft.to/lastmile_qr_scan", "ios": "https://dc.lft.to/lastmile_qr_scan"}, "is_reserved": 0, "is_disabled": 0, "name": "b2665885213c72e1a132f6ad1801a009", "bike_id": "b2665885213c72e1a132f6ad1801a009", "fusion_lat": 0.0, "lon": -77.039824, "type": "electric_scooter", "fusion_lon": 0.0, "lat": 38.90135266666667}, {"rental_uris": {"android": "https://dc.lft.to/lastmile_qr_scan", "ios": "https://dc.lft.to/lastmile_qr_scan"}, "is_reserved": 0, "is_disabled": 0, "name": "6350ee7b773cf1e22bbb6457b7339f4e", "bike_id": "6350ee7b773cf1e22bbb6457b7339f4e", "fusion_lat": 0.0, "lon": -77.019443, "type": "electric_scooter", "fusion_lon": 0.0, "lat": 38.924231166666665}, {"rental_uris": {"android": "https://dc.lft.to/lastmile_qr_scan", "ios": "https://dc.lft.to/lastmile_qr_scan"}, "is_reserved": 0, "is_disabled": 0, "name": "bf7c3277ddce10defa0bf481ffc57d52", "bike_id": "bf7c3277ddce10defa0bf481ffc57d52", "fusion_lat": 0.0, "lon": -77.01859566666667, "type": "electric_scooter", "fusion_lon": 0.0, "lat": 38.9492075}, {"rental_uris": {"android": "https://dc.lft.to/lastmile_qr_scan", "ios": "https://dc.lft.to/lastmile_qr_scan"}, "is_reserved": 0, "is_disabled": 0, "name": "7674523a168d26a15de57b2ccd5c0d32", "bike_id": "7674523a168d26a15de57b2ccd5c0d32", "fusion_lat": 0.0, "lon": -77.02718016666667, "type": "electric_scooter", "fusion_lon": 0.0, "lat": 38.906785}, {"rental_uris": {"android": "https://dc.lft.to/lastmile_qr_scan", "ios": "https://dc.lft.to/lastmile_qr_scan"}, "is_reserved": 0, "is_disabled": 0, "name": "3a4ca89a80588106778b45a5817543d6", "bike_id": "3a4ca89a80588106778b45a5817543d6", "fusion_lat": 0.0, "lon": -76.98536066666666, "type": "electric_scooter", "fusion_lon": 0.0, "lat": 38.900087166666665}, {"rental_uris": {"android": "https://dc.lft.to/lastmile_qr_scan", "ios": "https://dc.lft.to/lastmile_qr_scan"}, "is_reserved": 0, "is_disabled": 0, "name": "8a4a301fee21532e2e8b117f6a844b2c", "bike_id": "8a4a301fee21532e2e8b117f6a844b2c", "fusion_lat": 0.0, "lon": -76.98743783333333, "type": "electric_scooter", "fusion_lon": 0.0, "lat": 38.879627666666664}, {"rental_uris": {"android": "https://dc.lft.to/lastmile_qr_scan", "ios": "https://dc.lft.to/lastmile_qr_scan"}, "is_reserved": 0, "is_disabled": 0, "name": "cb14c2a39830bbb692655e5d3d2a4ff2", "bike_id": "cb14c2a39830bbb692655e5d3d2a4ff2", "fusion_lat": 0.0, "lon": -77.03587783333333, "type": "electric_bike", "fusion_lon": 0.0, "lat": 38.992243}, {"rental_uris": {"android": "https://dc.lft.to/lastmile_qr_scan", "ios": "https://dc.lft.to/lastmile_qr_scan"}, "is_reserved": 0, "is_disabled": 0, "name": "335834ac8bd631619c2df88e0222a6df", "bike_id": "335834ac8bd631619c2df88e0222a6df", "fusion_lat": 0.0, "lon": -77.02784866666667, "type": "electric_scooter", "fusion_lon": 0.0, "lat": 38.96164016666667}, {"rental_uris": {"android": "https://dc.lft.to/lastmile_qr_scan", "ios": "https://dc.lft.to/lastmile_qr_scan"}, "is_reserved": 0, "is_disabled": 0, "name": "e33ae9a425342942125b1a9d06207915", "bike_id": "e33ae9a425342942125b1a9d06207915", "fusion_lat": 0.0, "lon": -77.031659, "type": "electric_scooter", "fusion_lon": 0.0, "lat": 38.91634283333333}, {"rental_uris": {"android": "https://dc.lft.to/lastmile_qr_scan", "ios": "https://dc.lft.to/lastmile_qr_scan"}, "is_reserved": 0, "is_disabled": 0, "name": "e7083e3274686c9e4f528457160d1ae6", "bike_id": "e7083e3274686c9e4f528457160d1ae6", "fusion_lat": 0.0, "lon": -77.0269205, "type": "electric_scooter", "fusion_lon": 0.0, "lat": 38.91673266666667}, {"rental_uris": {"android": "https://dc.lft.to/lastmile_qr_scan", "ios": "https://dc.lft.to/lastmile_qr_scan"}, "is_reserved": 0, "is_disabled": 0, "name": "c24a20cd6f8d191cbeba89b075ae3b23", "bike_id": "c24a20cd6f8d191cbeba89b075ae3b23", "fusion_lat": 0.0, "lon": -77.03454, "type": "electric_scooter", "fusion_lon": 0.0, "lat": 38.92154}, {"rental_uris": {"android": "https://dc.lft.to/lastmile_qr_scan", "ios": "https://dc.lft.to/lastmile_qr_scan"}, "is_reserved": 0, "is_disabled": 0, "name": "c19b1c2ff135ea2c363cc9382013ab1b", "bike_id": "c19b1c2ff135ea2c363cc9382013ab1b", "fusion_lat": 0.0, "lon": -77.00275816666667, "type": "electric_bike", "fusion_lon": 0.0, "lat": 38.8380905}, {"rental_uris": {"android": "https://dc.lft.to/lastmile_qr_scan", "ios": "https://dc.lft.to/lastmile_qr_scan"}, "is_reserved": 0, "is_disabled": 0, "name": "009fd56b2a6c1f908689f8279a1c2063", "bike_id": "009fd56b2a6c1f908689f8279a1c2063", "fusion_lat": 0.0, "lon": -76.96326366666666, "type": "electric_bike", "fusion_lon": 0.0, "lat": 38.93896433333333}, {"rental_uris": {"android": "https://dc.lft.to/lastmile_qr_scan", "ios": "https://dc.lft.to/lastmile_qr_scan"}, "is_reserved": 0, "is_disabled": 0, "name": "d19609caff9dd16f4c142e6d63a574a6", "bike_id": "d19609caff9dd16f4c142e6d63a574a6", "fusion_lat": 0.0, "lon": -77.02075016666667, "type": "electric_scooter", "fusion_lon": 0.0, "lat": 38.93018816666667}, {"rental_uris": {"android": "https://dc.lft.to/lastmile_qr_scan", "ios": "https://dc.lft.to/lastmile_qr_scan"}, "is_reserved": 0, "is_disabled": 0, "name": "addb24c1bc4922c28aa3bc1025e5a4b3", "bike_id": "addb24c1bc4922c28aa3bc1025e5a4b3", "fusion_lat": 0.0, "lon": -77.0281425, "type": "electric_scooter", "fusion_lon": 0.0, "lat": 38.89949633333333}, {"rental_uris": {"android": "https://dc.lft.to/lastmile_qr_scan", "ios": "https://dc.lft.to/lastmile_qr_scan"}, "is_reserved": 0, "is_disabled": 0, "name": "3bc748bc2f9d7446810caa109bf8cfcc", "bike_id": "3bc748bc2f9d7446810caa109bf8cfcc", "fusion_lat": 0.0, "lon": -77.03315616666667, "type": "electric_scooter", "fusion_lon": 0.0, "lat": 38.9003915}, {"rental_uris": {"android": "https://dc.lft.to/lastmile_qr_scan", "ios": "https://dc.lft.to/lastmile_qr_scan"}, "is_reserved": 0, "is_disabled": 0, "name": "3ab94ed6e2eb075b5e5c5652132c4545", "bike_id": "3ab94ed6e2eb075b5e5c5652132c4545", "fusion_lat": 0.0, "lon": -77.00377533333334, "type": "electric_bike", "fusion_lon": 0.0, "lat": 38.83603516666667}, {"rental_uris": {"android": "https://dc.lft.to/lastmile_qr_scan", "ios": "https://dc.lft.to/lastmile_qr_scan"}, "is_reserved": 0, "is_disabled": 0, "name": "9c14003423facf66d85a0b0c2318250b", "bike_id": "9c14003423facf66d85a0b0c2318250b", "fusion_lat": 0.0, "lon": -77.05903366666666, "type": "electric_scooter", "fusion_lon": 0.0, "lat": 38.90159033333333}, {"rental_uris": {"android": "https://dc.lft.to/lastmile_qr_scan", "ios": "https://dc.lft.to/lastmile_qr_scan"}, "is_reserved": 0, "is_disabled": 0, "name": "e36958747128edf28c31b67bb34df902", "bike_id": "e36958747128edf28c31b67bb34df902", "fusion_lat": 0.0, "lon": -77.01375166666666, "type": "electric_scooter", "fusion_lon": 0.0, "lat": 38.8760315}, {"rental_uris": {"android": "https://dc.lft.to/lastmile_qr_scan", "ios": "https://dc.lft.to/lastmile_qr_scan"}, "is_reserved": 0, "is_disabled": 0, "name": "ad995540dcd62000b2b70c83e74ece81", "bike_id": "ad995540dcd62000b2b70c83e74ece81", "fusion_lat": 0.0, "lon": -77.05265233333333, "type": "electric_scooter", "fusion_lon": 0.0, "lat": 38.925690333333336}, {"rental_uris": {"android": "https://dc.lft.to/lastmile_qr_scan", "ios": "https://dc.lft.to/lastmile_qr_scan"}, "is_reserved": 0, "is_disabled": 0, "name": "2442ac0f5e5cf88eef89e2db393e582d", "bike_id": "2442ac0f5e5cf88eef89e2db393e582d", "fusion_lat": 0.0, "lon": -76.94873883333334, "type": "electric_scooter", "fusion_lon": 0.0, "lat": 38.894991833333336}, {"rental_uris": {"android": "https://dc.lft.to/lastmile_qr_scan", "ios": "https://dc.lft.to/lastmile_qr_scan"}, "is_reserved": 0, "is_disabled": 0, "name": "074ec9738373b8ddba62ccb2f5ef09c0", "bike_id": "074ec9738373b8ddba62ccb2f5ef09c0", "fusion_lat": 0.0, "lon": -77.03784916666666, "type": "electric_scooter", "fusion_lon": 0.0, "lat": 38.92430483333333}, {"rental_uris": {"android": "https://dc.lft.to/lastmile_qr_scan", "ios": "https://dc.lft.to/lastmile_qr_scan"}, "is_reserved": 0, "is_disabled": 0, "name": "25275547c85cb4d58f923668b771380f", "bike_id": "25275547c85cb4d58f923668b771380f", "fusion_lat": 0.0, "lon": -76.973171, "type": "electric_bike", "fusion_lon": 0.0, "lat": 38.865104}, {"rental_uris": {"android": "https://dc.lft.to/lastmile_qr_scan", "ios": "https://dc.lft.to/lastmile_qr_scan"}, "is_reserved": 0, "is_disabled": 0, "name": "c25176f6f5d685c6f70cd6f7ec8401c7", "bike_id": "c25176f6f5d685c6f70cd6f7ec8401c7", "fusion_lat": 0.0, "lon": -77.02179883333334, "type": "electric_scooter", "fusion_lon": 0.0, "lat": 38.89226216666667}, {"rental_uris": {"android": "https://dc.lft.to/lastmile_qr_scan", "ios": "https://dc.lft.to/lastmile_qr_scan"}, "is_reserved": 0, "is_disabled": 0, "name": "3a73d107fb7ba9d9635502797f3efb88", "bike_id": "3a73d107fb7ba9d9635502797f3efb88", "fusion_lat": 0.0, "lon": -77.0370765, "type": "electric_scooter", "fusion_lon": 0.0, "lat": 38.926371}, {"rental_uris": {"android": "https://dc.lft.to/lastmile_qr_scan", "ios": "https://dc.lft.to/lastmile_qr_scan"}, "is_reserved": 0, "is_disabled": 0, "name": "e7140fdd7b7cf6c9fd17e945c93ca0c4", "bike_id": "e7140fdd7b7cf6c9fd17e945c93ca0c4", "fusion_lat": 0.0, "lon": -77.04170783333333, "type": "electric_scooter", "fusion_lon": 0.0, "lat": 38.90146433333334}, {"rental_uris": {"android": "https://dc.lft.to/lastmile_qr_scan", "ios": "https://dc.lft.to/lastmile_qr_scan"}, "is_reserved": 0, "is_disabled": 0, "name": "901d60dddab7c50117204ce7ba5d8fb7", "bike_id": "901d60dddab7c50117204ce7ba5d8fb7", "fusion_lat": 0.0, "lon": -77.14872816666667, "type": "electric_bike", "fusion_lon": 0.0, "lat": 38.87738066666667}, {"rental_uris": {"android": "https://dc.lft.to/lastmile_qr_scan", "ios": "https://dc.lft.to/lastmile_qr_scan"}, "is_reserved": 0, "is_disabled": 0, "name": "9db1153d6fef7afd255742c677858354", "bike_id": "9db1153d6fef7afd255742c677858354", "fusion_lat": 0.0, "lon": -77.0482035, "type": "electric_scooter", "fusion_lon": 0.0, "lat": 38.905178166666666}, {"rental_uris": {"android": "https://dc.lft.to/lastmile_qr_scan", "ios": "https://dc.lft.to/lastmile_qr_scan"}, "is_reserved": 0, "is_disabled": 0, "name": "10b26e733ae8123a2d7cd7f05ad6a950", "bike_id": "10b26e733ae8123a2d7cd7f05ad6a950", "fusion_lat": 0.0, "lon": -77.03762366666666, "type": "electric_bike", "fusion_lon": 0.0, "lat": 38.91692716666667}, {"rental_uris": {"android": "https://dc.lft.to/lastmile_qr_scan", "ios": "https://dc.lft.to/lastmile_qr_scan"}, "is_reserved": 0, "is_disabled": 0, "name": "b3f030605b72563ea4a34ab4df70dc49", "bike_id": "b3f030605b72563ea4a34ab4df70dc49", "fusion_lat": 0.0, "lon": -76.99512716666666, "type": "electric_scooter", "fusion_lon": 0.0, "lat": 38.882374666666664}, {"rental_uris": {"android": "https://dc.lft.to/lastmile_qr_scan", "ios": "https://dc.lft.to/lastmile_qr_scan"}, "is_reserved": 0, "is_disabled": 0, "name": "88cc4b959001700911413a2d70b18625", "bike_id": "88cc4b959001700911413a2d70b18625", "fusion_lat": 0.0, "lon": -77.03267216666667, "type": "electric_scooter", "fusion_lon": 0.0, "lat": 38.93737183333333}, {"rental_uris": {"android": "https://dc.lft.to/lastmile_qr_scan", "ios": "https://dc.lft.to/lastmile_qr_scan"}, "is_reserved": 0, "is_disabled": 0, "name": "15ad5de5d303ddb1f5b7461ab7583ce6", "bike_id": "15ad5de5d303ddb1f5b7461ab7583ce6", "fusion_lat": 0.0, "lon": -77.04009083333334, "type": "electric_scooter", "fusion_lon": 0.0, "lat": 38.910000833333335}, {"rental_uris": {"android": "https://dc.lft.to/lastmile_qr_scan", "ios": "https://dc.lft.to/lastmile_qr_scan"}, "is_reserved": 0, "is_disabled": 0, "name": "7a2caef86a5ca58dc28df22eda49a515", "bike_id": "7a2caef86a5ca58dc28df22eda49a515", "fusion_lat": 0.0, "lon": -77.01390533333333, "type": "electric_scooter", "fusion_lon": 0.0, "lat": 38.87893283333333}, {"rental_uris": {"android": "https://dc.lft.to/lastmile_qr_scan", "ios": "https://dc.lft.to/lastmile_qr_scan"}, "is_reserved": 0, "is_disabled": 0, "name": "57089d9981d0befd55d5e386aa7dc7ab", "bike_id": "57089d9981d0befd55d5e386aa7dc7ab", "fusion_lat": 0.0, "lon": -76.98888316666667, "type": "electric_scooter", "fusion_lon": 0.0, "lat": 38.90208}, {"rental_uris": {"android": "https://dc.lft.to/lastmile_qr_scan", "ios": "https://dc.lft.to/lastmile_qr_scan"}, "is_reserved": 0, "is_disabled": 0, "name": "238d50d39e8533de4775a74fc51ed0a1", "bike_id": "238d50d39e8533de4775a74fc51ed0a1", "fusion_lat": 0.0, "lon": -77.01656016666666, "type": "electric_scooter", "fusion_lon": 0.0, "lat": 38.881162}, {"rental_uris": {"android": "https://dc.lft.to/lastmile_qr_scan", "ios": "https://dc.lft.to/lastmile_qr_scan"}, "is_reserved": 0, "is_disabled": 0, "name": "97c8d502425962fc367c0e02b10e5dc9", "bike_id": "97c8d502425962fc367c0e02b10e5dc9", "fusion_lat": 0.0, "lon": -77.02284533333334, "type": "electric_scooter", "fusion_lon": 0.0, "lat": 38.91785016666667}, {"rental_uris": {"android": "https://dc.lft.to/lastmile_qr_scan", "ios": "https://dc.lft.to/lastmile_qr_scan"}, "is_reserved": 0, "is_disabled": 0, "name": "74eed3cc10b9a02e7ca39790885f4f5a", "bike_id": "74eed3cc10b9a02e7ca39790885f4f5a", "fusion_lat": 0.0, "lon": -77.02801016666666, "type": "electric_scooter", "fusion_lon": 0.0, "lat": 38.923169}, {"rental_uris": {"android": "https://dc.lft.to/lastmile_qr_scan", "ios": "https://dc.lft.to/lastmile_qr_scan"}, "is_reserved": 0, "is_disabled": 0, "name": "7fdca2e5cfda6c3bb0ccdd5b6c77d09b", "bike_id": "7fdca2e5cfda6c3bb0ccdd5b6c77d09b", "fusion_lat": 0.0, "lon": -77.03952566666666, "type": "electric_scooter", "fusion_lon": 0.0, "lat": 38.9002045}, {"rental_uris": {"android": "https://dc.lft.to/lastmile_qr_scan", "ios": "https://dc.lft.to/lastmile_qr_scan"}, "is_reserved": 0, "is_disabled": 0, "name": "038888cfcf6e98b89e0b702a091200b6", "bike_id": "038888cfcf6e98b89e0b702a091200b6", "fusion_lat": 0.0, "lon": -76.9952225, "type": "electric_scooter", "fusion_lon": 0.0, "lat": 38.883660166666665}, {"rental_uris": {"android": "https://dc.lft.to/lastmile_qr_scan", "ios": "https://dc.lft.to/lastmile_qr_scan"}, "is_reserved": 0, "is_disabled": 0, "name": "c40f0beab03abfa77f98ffd3a26c476d", "bike_id": "c40f0beab03abfa77f98ffd3a26c476d", "fusion_lat": 0.0, "lon": -76.9861745, "type": "electric_scooter", "fusion_lon": 0.0, "lat": 38.93827133333333}, {"rental_uris": {"android": "https://dc.lft.to/lastmile_qr_scan", "ios": "https://dc.lft.to/lastmile_qr_scan"}, "is_reserved": 0, "is_disabled": 0, "name": "37954fd85bb71f5d980ba0707cf2af2a", "bike_id": "37954fd85bb71f5d980ba0707cf2af2a", "fusion_lat": 0.0, "lon": -76.9872455, "type": "electric_bike", "fusion_lon": 0.0, "lat": 38.86335583333333}, {"rental_uris": {"android": "https://dc.lft.to/lastmile_qr_scan", "ios": "https://dc.lft.to/lastmile_qr_scan"}, "is_reserved": 0, "is_disabled": 0, "name": "615879051f27477dc83ebce1db1699c2", "bike_id": "615879051f27477dc83ebce1db1699c2", "fusion_lat": 0.0, "lon": -76.987467, "type": "electric_scooter", "fusion_lon": 0.0, "lat": 38.879663}, {"rental_uris": {"android": "https://dc.lft.to/lastmile_qr_scan", "ios": "https://dc.lft.to/lastmile_qr_scan"}, "is_reserved": 0, "is_disabled": 0, "name": "3b71eccc079f1453da4852e231ffe702", "bike_id": "3b71eccc079f1453da4852e231ffe702", "fusion_lat": 0.0, "lon": -76.9951085, "type": "electric_scooter", "fusion_lon": 0.0, "lat": 38.883397333333335}, {"rental_uris": {"android": "https://dc.lft.to/lastmile_qr_scan", "ios": "https://dc.lft.to/lastmile_qr_scan"}, "is_reserved": 0, "is_disabled": 0, "name": "5f5c9e227592b0bca510d692d9e1f7b8", "bike_id": "5f5c9e227592b0bca510d692d9e1f7b8", "fusion_lat": 0.0, "lon": -76.97905083333333, "type": "electric_bike", "fusion_lon": 0.0, "lat": 38.926988333333334}, {"rental_uris": {"android": "https://dc.lft.to/lastmile_qr_scan", "ios": "https://dc.lft.to/lastmile_qr_scan"}, "is_reserved": 0, "is_disabled": 0, "name": "9435aa3fca4edad8a91e0462a0ca7103", "bike_id": "9435aa3fca4edad8a91e0462a0ca7103", "fusion_lat": 0.0, "lon": -77.02091583333333, "type": "electric_scooter", "fusion_lon": 0.0, "lat": 38.9073275}, {"rental_uris": {"android": "https://dc.lft.to/lastmile_qr_scan", "ios": "https://dc.lft.to/lastmile_qr_scan"}, "is_reserved": 0, "is_disabled": 0, "name": "ab21ed0122f133a497ed16ed04717c92", "bike_id": "ab21ed0122f133a497ed16ed04717c92", "fusion_lat": 0.0, "lon": -77.01336816666667, "type": "electric_scooter", "fusion_lon": 0.0, "lat": 38.881296166666665}, {"rental_uris": {"android": "https://dc.lft.to/lastmile_qr_scan", "ios": "https://dc.lft.to/lastmile_qr_scan"}, "is_reserved": 0, "is_disabled": 0, "name": "9001b273560a08d54535b81067ce89aa", "bike_id": "9001b273560a08d54535b81067ce89aa", "fusion_lat": 0.0, "lon": -77.05343816666667, "type": "electric_scooter", "fusion_lon": 0.0, "lat": 38.923139}, {"rental_uris": {"android": "https://dc.lft.to/lastmile_qr_scan", "ios": "https://dc.lft.to/lastmile_qr_scan"}, "is_reserved": 0, "is_disabled": 0, "name": "bfaf7eb5d2fcf23f1d908f9deec82990", "bike_id": "bfaf7eb5d2fcf23f1d908f9deec82990", "fusion_lat": 0.0, "lon": -77.03343116666667, "type": "electric_scooter", "fusion_lon": 0.0, "lat": 38.89748}, {"rental_uris": {"android": "https://dc.lft.to/lastmile_qr_scan", "ios": "https://dc.lft.to/lastmile_qr_scan"}, "is_reserved": 0, "is_disabled": 0, "name": "7d49107ccad4c35154ea1b7f30a85511", "bike_id": "7d49107ccad4c35154ea1b7f30a85511", "fusion_lat": 0.0, "lon": -77.01628483333333, "type": "electric_scooter", "fusion_lon": 0.0, "lat": 38.916932833333334}, {"rental_uris": {"android": "https://dc.lft.to/lastmile_qr_scan", "ios": "https://dc.lft.to/lastmile_qr_scan"}, "is_reserved": 0, "is_disabled": 0, "name": "bec8125c79b75859d468f230416065ba", "bike_id": "bec8125c79b75859d468f230416065ba", "fusion_lat": 0.0, "lon": -77.06869383333333, "type": "electric_scooter", "fusion_lon": 0.0, "lat": 38.93019016666667}, {"rental_uris": {"android": "https://dc.lft.to/lastmile_qr_scan", "ios": "https://dc.lft.to/lastmile_qr_scan"}, "is_reserved": 0, "is_disabled": 0, "name": "1fc5ba667b47388bdacdfb042baba0bb", "bike_id": "1fc5ba667b47388bdacdfb042baba0bb", "fusion_lat": 0.0, "lon": -77.09618366666666, "type": "electric_bike", "fusion_lon": 0.0, "lat": 38.97438183333333}, {"rental_uris": {"android": "https://dc.lft.to/lastmile_qr_scan", "ios": "https://dc.lft.to/lastmile_qr_scan"}, "is_reserved": 0, "is_disabled": 0, "name": "c7189d02e99ec1f87da33c0bb5497e4d", "bike_id": "c7189d02e99ec1f87da33c0bb5497e4d", "fusion_lat": 0.0, "lon": -77.00232583333333, "type": "electric_scooter", "fusion_lon": 0.0, "lat": 38.8746685}, {"rental_uris": {"android": "https://dc.lft.to/lastmile_qr_scan", "ios": "https://dc.lft.to/lastmile_qr_scan"}, "is_reserved": 0, "is_disabled": 0, "name": "6f93b4c42897c8cffcff8c7b06e79552", "bike_id": "6f93b4c42897c8cffcff8c7b06e79552", "fusion_lat": 0.0, "lon": -76.95350583333334, "type": "electric_bike", "fusion_lon": 0.0, "lat": 38.9416935}, {"rental_uris": {"android": "https://dc.lft.to/lastmile_qr_scan", "ios": "https://dc.lft.to/lastmile_qr_scan"}, "is_reserved": 0, "is_disabled": 0, "name": "ad127c4a450092e759f50b5f5e6cb8bd", "bike_id": "ad127c4a450092e759f50b5f5e6cb8bd", "fusion_lat": 0.0, "lon": -77.02566966666667, "type": "electric_scooter", "fusion_lon": 0.0, "lat": 38.941917}, {"rental_uris": {"android": "https://dc.lft.to/lastmile_qr_scan", "ios": "https://dc.lft.to/lastmile_qr_scan"}, "is_reserved": 0, "is_disabled": 0, "name": "ce971ba1d46d0aaaaad64c0b09471ed1", "bike_id": "ce971ba1d46d0aaaaad64c0b09471ed1", "fusion_lat": 0.0, "lon": -77.00960216666667, "type": "electric_scooter", "fusion_lon": 0.0, "lat": 38.87461033333334}, {"rental_uris": {"android": "https://dc.lft.to/lastmile_qr_scan", "ios": "https://dc.lft.to/lastmile_qr_scan"}, "is_reserved": 0, "is_disabled": 0, "name": "57c30ec47c2247616d0bf8716745e697", "bike_id": "57c30ec47c2247616d0bf8716745e697", "fusion_lat": 0.0, "lon": -77.0415495, "type": "electric_scooter", "fusion_lon": 0.0, "lat": 38.907377333333336}, {"rental_uris": {"android": "https://dc.lft.to/lastmile_qr_scan", "ios": "https://dc.lft.to/lastmile_qr_scan"}, "is_reserved": 0, "is_disabled": 0, "name": "c43b1d680dba72528b9fac9be03006a7", "bike_id": "c43b1d680dba72528b9fac9be03006a7", "fusion_lat": 0.0, "lon": -77.032355, "type": "electric_scooter", "fusion_lon": 0.0, "lat": 38.915635333333334}, {"rental_uris": {"android": "https://dc.lft.to/lastmile_qr_scan", "ios": "https://dc.lft.to/lastmile_qr_scan"}, "is_reserved": 0, "is_disabled": 0, "name": "e4b53c1404d88f95e81a8c9dd20198c1", "bike_id": "e4b53c1404d88f95e81a8c9dd20198c1", "fusion_lat": 0.0, "lon": -77.031865, "type": "electric_scooter", "fusion_lon": 0.0, "lat": 38.9075475}, {"rental_uris": {"android": "https://dc.lft.to/lastmile_qr_scan", "ios": "https://dc.lft.to/lastmile_qr_scan"}, "is_reserved": 0, "is_disabled": 0, "name": "2511e232a6e3c0a93d72bc62c85864bb", "bike_id": "2511e232a6e3c0a93d72bc62c85864bb", "fusion_lat": 0.0, "lon": -77.0317435, "type": "electric_scooter", "fusion_lon": 0.0, "lat": 38.9156475}, {"rental_uris": {"android": "https://dc.lft.to/lastmile_qr_scan", "ios": "https://dc.lft.to/lastmile_qr_scan"}, "is_reserved": 0, "is_disabled": 0, "name": "d18179ea776dc9c044e9c89f65984875", "bike_id": "d18179ea776dc9c044e9c89f65984875", "fusion_lat": 0.0, "lon": -77.02356116666667, "type": "electric_scooter", "fusion_lon": 0.0, "lat": 38.92076483333334}, {"rental_uris": {"android": "https://dc.lft.to/lastmile_qr_scan", "ios": "https://dc.lft.to/lastmile_qr_scan"}, "is_reserved": 0, "is_disabled": 0, "name": "c9ea2add569e898409284c39f215ef1b", "bike_id": "c9ea2add569e898409284c39f215ef1b", "fusion_lat": 0.0, "lon": -77.040505, "type": "electric_scooter", "fusion_lon": 0.0, "lat": 38.9086805}, {"rental_uris": {"android": "https://dc.lft.to/lastmile_qr_scan", "ios": "https://dc.lft.to/lastmile_qr_scan"}, "is_reserved": 0, "is_disabled": 0, "name": "fc18a4764dfe043e2cf1d20adbb46a6c", "bike_id": "fc18a4764dfe043e2cf1d20adbb46a6c", "fusion_lat": 0.0, "lon": -77.03446966666667, "type": "electric_scooter", "fusion_lon": 0.0, "lat": 38.90265866666667}, {"rental_uris": {"android": "https://dc.lft.to/lastmile_qr_scan", "ios": "https://dc.lft.to/lastmile_qr_scan"}, "is_reserved": 0, "is_disabled": 0, "name": "986e47404bd9f9ec8874438f4000909c", "bike_id": "986e47404bd9f9ec8874438f4000909c", "fusion_lat": 0.0, "lon": -76.94087033333334, "type": "electric_scooter", "fusion_lon": 0.0, "lat": 38.8912105}, {"rental_uris": {"android": "https://dc.lft.to/lastmile_qr_scan", "ios": "https://dc.lft.to/lastmile_qr_scan"}, "is_reserved": 0, "is_disabled": 0, "name": "b84ce11e6b2b8b45fd381451475ac075", "bike_id": "b84ce11e6b2b8b45fd381451475ac075", "fusion_lat": 0.0, "lon": -77.03262, "type": "electric_scooter", "fusion_lon": 0.0, "lat": 38.93736483333333}, {"rental_uris": {"android": "https://dc.lft.to/lastmile_qr_scan", "ios": "https://dc.lft.to/lastmile_qr_scan"}, "is_reserved": 0, "is_disabled": 0, "name": "2cf94be34a2a93a90e974b98b0a0e2d0", "bike_id": "2cf94be34a2a93a90e974b98b0a0e2d0", "fusion_lat": 0.0, "lon": -77.0198785, "type": "electric_scooter", "fusion_lon": 0.0, "lat": 38.90367366666667}, {"rental_uris": {"android": "https://dc.lft.to/lastmile_qr_scan", "ios": "https://dc.lft.to/lastmile_qr_scan"}, "is_reserved": 0, "is_disabled": 0, "name": "6c063d3a314395e9db0d65d397a933fc", "bike_id": "6c063d3a314395e9db0d65d397a933fc", "fusion_lat": 0.0, "lon": -77.023798, "type": "electric_scooter", "fusion_lon": 0.0, "lat": 38.952728}, {"rental_uris": {"android": "https://dc.lft.to/lastmile_qr_scan", "ios": "https://dc.lft.to/lastmile_qr_scan"}, "is_reserved": 0, "is_disabled": 0, "name": "bb8d291573fc1a5902ac185c3d81e1fb", "bike_id": "bb8d291573fc1a5902ac185c3d81e1fb", "fusion_lat": 0.0, "lon": -77.02725033333333, "type": "electric_scooter", "fusion_lon": 0.0, "lat": 38.898411333333335}, {"rental_uris": {"android": "https://dc.lft.to/lastmile_qr_scan", "ios": "https://dc.lft.to/lastmile_qr_scan"}, "is_reserved": 0, "is_disabled": 0, "name": "e83e1add4d9aad8a5669a6161971ec29", "bike_id": "e83e1add4d9aad8a5669a6161971ec29", "fusion_lat": 0.0, "lon": -77.04310333333333, "type": "electric_scooter", "fusion_lon": 0.0, "lat": 38.91876283333333}, {"rental_uris": {"android": "https://dc.lft.to/lastmile_qr_scan", "ios": "https://dc.lft.to/lastmile_qr_scan"}, "is_reserved": 0, "is_disabled": 0, "name": "5f78199045563f208d3b1883f84fc722", "bike_id": "5f78199045563f208d3b1883f84fc722", "fusion_lat": 0.0, "lon": -77.04067816666667, "type": "electric_scooter", "fusion_lon": 0.0, "lat": 38.90391566666667}, {"rental_uris": {"android": "https://dc.lft.to/lastmile_qr_scan", "ios": "https://dc.lft.to/lastmile_qr_scan"}, "is_reserved": 0, "is_disabled": 0, "name": "f1e6a737c448b73fed5e67ee8977b523", "bike_id": "f1e6a737c448b73fed5e67ee8977b523", "fusion_lat": 0.0, "lon": -77.03220866666666, "type": "electric_scooter", "fusion_lon": 0.0, "lat": 38.9164355}, {"rental_uris": {"android": "https://dc.lft.to/lastmile_qr_scan", "ios": "https://dc.lft.to/lastmile_qr_scan"}, "is_reserved": 0, "is_disabled": 0, "name": "f0c67177f12d1477b4a4163d30b40db0", "bike_id": "f0c67177f12d1477b4a4163d30b40db0", "fusion_lat": 0.0, "lon": -77.06349383333334, "type": "electric_scooter", "fusion_lon": 0.0, "lat": 38.944362}, {"rental_uris": {"android": "https://dc.lft.to/lastmile_qr_scan", "ios": "https://dc.lft.to/lastmile_qr_scan"}, "is_reserved": 0, "is_disabled": 0, "name": "cb4a95baad6cc6a2b26153b8668eea60", "bike_id": "cb4a95baad6cc6a2b26153b8668eea60", "fusion_lat": 0.0, "lon": -77.05330216666667, "type": "electric_scooter", "fusion_lon": 0.0, "lat": 38.905043666666664}, {"rental_uris": {"android": "https://dc.lft.to/lastmile_qr_scan", "ios": "https://dc.lft.to/lastmile_qr_scan"}, "is_reserved": 0, "is_disabled": 0, "name": "31c25d73e405b86c6a0658c734588c37", "bike_id": "31c25d73e405b86c6a0658c734588c37", "fusion_lat": 0.0, "lon": -77.02822516666667, "type": "electric_scooter", "fusion_lon": 0.0, "lat": 38.929718666666666}, {"rental_uris": {"android": "https://dc.lft.to/lastmile_qr_scan", "ios": "https://dc.lft.to/lastmile_qr_scan"}, "is_reserved": 0, "is_disabled": 0, "name": "e2ffedf0464eb868bfd08020479fb6d0", "bike_id": "e2ffedf0464eb868bfd08020479fb6d0", "fusion_lat": 0.0, "lon": -77.02024116666666, "type": "electric_scooter", "fusion_lon": 0.0, "lat": 38.915631833333336}, {"rental_uris": {"android": "https://dc.lft.to/lastmile_qr_scan", "ios": "https://dc.lft.to/lastmile_qr_scan"}, "is_reserved": 0, "is_disabled": 0, "name": "c49a7de2f127fbcb41d9f08cb7a00c87", "bike_id": "c49a7de2f127fbcb41d9f08cb7a00c87", "fusion_lat": 0.0, "lon": -76.98771066666667, "type": "electric_bike", "fusion_lon": 0.0, "lat": 38.85768566666667}, {"rental_uris": {"android": "https://dc.lft.to/lastmile_qr_scan", "ios": "https://dc.lft.to/lastmile_qr_scan"}, "is_reserved": 0, "is_disabled": 0, "name": "036d0f466f34fc84aef4f06ce4b49444", "bike_id": "036d0f466f34fc84aef4f06ce4b49444", "fusion_lat": 0.0, "lon": -77.0589335, "type": "electric_scooter", "fusion_lon": 0.0, "lat": 38.93607933333333}, {"rental_uris": {"android": "https://dc.lft.to/lastmile_qr_scan", "ios": "https://dc.lft.to/lastmile_qr_scan"}, "is_reserved": 0, "is_disabled": 0, "name": "2bb796d1075a1a210422e74556cc493c", "bike_id": "2bb796d1075a1a210422e74556cc493c", "fusion_lat": 0.0, "lon": -77.03027833333333, "type": "electric_scooter", "fusion_lon": 0.0, "lat": 38.878469833333334}, {"rental_uris": {"android": "https://dc.lft.to/lastmile_qr_scan", "ios": "https://dc.lft.to/lastmile_qr_scan"}, "is_reserved": 0, "is_disabled": 0, "name": "169367159e8fda1d41e4703e3dc36852", "bike_id": "169367159e8fda1d41e4703e3dc36852", "fusion_lat": 0.0, "lon": -77.02944683333334, "type": "electric_scooter", "fusion_lon": 0.0, "lat": 38.9071625}, {"rental_uris": {"android": "https://dc.lft.to/lastmile_qr_scan", "ios": "https://dc.lft.to/lastmile_qr_scan"}, "is_reserved": 0, "is_disabled": 0, "name": "c414e61cc1a666f213279fb8cece2c09", "bike_id": "c414e61cc1a666f213279fb8cece2c09", "fusion_lat": 0.0, "lon": -77.011172, "type": "electric_scooter", "fusion_lon": 0.0, "lat": 38.885080333333335}, {"rental_uris": {"android": "https://dc.lft.to/lastmile_qr_scan", "ios": "https://dc.lft.to/lastmile_qr_scan"}, "is_reserved": 0, "is_disabled": 0, "name": "58eec26c233e88234495ad4e740374ec", "bike_id": "58eec26c233e88234495ad4e740374ec", "fusion_lat": 0.0, "lon": -77.02022266666667, "type": "electric_scooter", "fusion_lon": 0.0, "lat": 38.92440933333334}, {"rental_uris": {"android": "https://dc.lft.to/lastmile_qr_scan", "ios": "https://dc.lft.to/lastmile_qr_scan"}, "is_reserved": 0, "is_disabled": 0, "name": "ac7a4b45499ffdb8701fbc47ea0462f1", "bike_id": "ac7a4b45499ffdb8701fbc47ea0462f1", "fusion_lat": 0.0, "lon": -77.02282666666666, "type": "electric_scooter", "fusion_lon": 0.0, "lat": 38.917808666666666}, {"rental_uris": {"android": "https://dc.lft.to/lastmile_qr_scan", "ios": "https://dc.lft.to/lastmile_qr_scan"}, "is_reserved": 0, "is_disabled": 0, "name": "2a8c54a12975f9113fe8f0b85b2a002b", "bike_id": "2a8c54a12975f9113fe8f0b85b2a002b", "fusion_lat": 0.0, "lon": -77.07279166666666, "type": "electric_scooter", "fusion_lon": 0.0, "lat": 38.934737166666665}, {"rental_uris": {"android": "https://dc.lft.to/lastmile_qr_scan", "ios": "https://dc.lft.to/lastmile_qr_scan"}, "is_reserved": 0, "is_disabled": 0, "name": "e927866a9fe84a2b5fd723897737556e", "bike_id": "e927866a9fe84a2b5fd723897737556e", "fusion_lat": 0.0, "lon": -76.99811733333334, "type": "electric_scooter", "fusion_lon": 0.0, "lat": 38.90561433333333}, {"rental_uris": {"android": "https://dc.lft.to/lastmile_qr_scan", "ios": "https://dc.lft.to/lastmile_qr_scan"}, "is_reserved": 0, "is_disabled": 0, "name": "d8d5eed6b2be69788bc40f7849c3c4f6", "bike_id": "d8d5eed6b2be69788bc40f7849c3c4f6", "fusion_lat": 0.0, "lon": -77.04674133333333, "type": "electric_scooter", "fusion_lon": 0.0, "lat": 38.89559416666667}, {"rental_uris": {"android": "https://dc.lft.to/lastmile_qr_scan", "ios": "https://dc.lft.to/lastmile_qr_scan"}, "is_reserved": 0, "is_disabled": 0, "name": "f66372cbcea1ae14920a6bd9c4236e20", "bike_id": "f66372cbcea1ae14920a6bd9c4236e20", "fusion_lat": 0.0, "lon": -77.12978616666666, "type": "electric_bike", "fusion_lon": 0.0, "lat": 38.799861666666665}, {"rental_uris": {"android": "https://dc.lft.to/lastmile_qr_scan", "ios": "https://dc.lft.to/lastmile_qr_scan"}, "is_reserved": 0, "is_disabled": 0, "name": "46490232cb6bdc088bdb389e5fea66cd", "bike_id": "46490232cb6bdc088bdb389e5fea66cd", "fusion_lat": 0.0, "lon": -77.0271585, "type": "electric_scooter", "fusion_lon": 0.0, "lat": 38.92464566666666}, {"rental_uris": {"android": "https://dc.lft.to/lastmile_qr_scan", "ios": "https://dc.lft.to/lastmile_qr_scan"}, "is_reserved": 0, "is_disabled": 0, "name": "a1c71271bc27dfd7591c72aa5c94010d", "bike_id": "a1c71271bc27dfd7591c72aa5c94010d", "fusion_lat": 0.0, "lon": -77.0255375, "type": "electric_scooter", "fusion_lon": 0.0, "lat": 38.8834215}, {"rental_uris": {"android": "https://dc.lft.to/lastmile_qr_scan", "ios": "https://dc.lft.to/lastmile_qr_scan"}, "is_reserved": 0, "is_disabled": 0, "name": "f685484ab2648d6111fb16680fc3cdcc", "bike_id": "f685484ab2648d6111fb16680fc3cdcc", "fusion_lat": 0.0, "lon": -77.040118, "type": "electric_scooter", "fusion_lon": 0.0, "lat": 38.92435833333333}, {"rental_uris": {"android": "https://dc.lft.to/lastmile_qr_scan", "ios": "https://dc.lft.to/lastmile_qr_scan"}, "is_reserved": 0, "is_disabled": 0, "name": "092cef51ff813ca41fffcf86b8ce543f", "bike_id": "092cef51ff813ca41fffcf86b8ce543f", "fusion_lat": 0.0, "lon": -76.98637716666667, "type": "electric_scooter", "fusion_lon": 0.0, "lat": 38.855115166666664}, {"rental_uris": {"android": "https://dc.lft.to/lastmile_qr_scan", "ios": "https://dc.lft.to/lastmile_qr_scan"}, "is_reserved": 0, "is_disabled": 0, "name": "a0ebd44423d87503584f05c652b8d7c3", "bike_id": "a0ebd44423d87503584f05c652b8d7c3", "fusion_lat": 0.0, "lon": -77.04346933333333, "type": "electric_scooter", "fusion_lon": 0.0, "lat": 38.896775}, {"rental_uris": {"android": "https://dc.lft.to/lastmile_qr_scan", "ios": "https://dc.lft.to/lastmile_qr_scan"}, "is_reserved": 0, "is_disabled": 0, "name": "8a62dd584250b1d9156453bc2a6f5c71", "bike_id": "8a62dd584250b1d9156453bc2a6f5c71", "fusion_lat": 0.0, "lon": -77.03661383333333, "type": "electric_scooter", "fusion_lon": 0.0, "lat": 38.91627883333334}, {"rental_uris": {"android": "https://dc.lft.to/lastmile_qr_scan", "ios": "https://dc.lft.to/lastmile_qr_scan"}, "is_reserved": 0, "is_disabled": 0, "name": "0d13d1100e57e323493fa74b2733223f", "bike_id": "0d13d1100e57e323493fa74b2733223f", "fusion_lat": 0.0, "lon": -76.9858015, "type": "electric_scooter", "fusion_lon": 0.0, "lat": 38.900062166666665}, {"rental_uris": {"android": "https://dc.lft.to/lastmile_qr_scan", "ios": "https://dc.lft.to/lastmile_qr_scan"}, "is_reserved": 0, "is_disabled": 0, "name": "131633eff0d019544f1b1aff83de5fad", "bike_id": "131633eff0d019544f1b1aff83de5fad", "fusion_lat": 0.0, "lon": -77.02407766666667, "type": "electric_scooter", "fusion_lon": 0.0, "lat": 38.9127015}, {"rental_uris": {"android": "https://dc.lft.to/lastmile_qr_scan", "ios": "https://dc.lft.to/lastmile_qr_scan"}, "is_reserved": 0, "is_disabled": 0, "name": "a387067f26cc8f82c7a0340a7928a05c", "bike_id": "a387067f26cc8f82c7a0340a7928a05c", "fusion_lat": 0.0, "lon": -77.01850366666666, "type": "electric_scooter", "fusion_lon": 0.0, "lat": 38.909588666666664}, {"rental_uris": {"android": "https://dc.lft.to/lastmile_qr_scan", "ios": "https://dc.lft.to/lastmile_qr_scan"}, "is_reserved": 0, "is_disabled": 0, "name": "ae4e5f7696f69bdf78ccbe5246ea71c1", "bike_id": "ae4e5f7696f69bdf78ccbe5246ea71c1", "fusion_lat": 0.0, "lon": -77.02293016666667, "type": "electric_scooter", "fusion_lon": 0.0, "lat": 38.917829}, {"rental_uris": {"android": "https://dc.lft.to/lastmile_qr_scan", "ios": "https://dc.lft.to/lastmile_qr_scan"}, "is_reserved": 0, "is_disabled": 0, "name": "e50f44b5b6f9715ce481477c7f930563", "bike_id": "e50f44b5b6f9715ce481477c7f930563", "fusion_lat": 0.0, "lon": -77.01999266666667, "type": "electric_scooter", "fusion_lon": 0.0, "lat": 38.90050216666667}, {"rental_uris": {"android": "https://dc.lft.to/lastmile_qr_scan", "ios": "https://dc.lft.to/lastmile_qr_scan"}, "is_reserved": 0, "is_disabled": 0, "name": "fe21e33df24c51aa058c86c310c0101a", "bike_id": "fe21e33df24c51aa058c86c310c0101a", "fusion_lat": 0.0, "lon": -77.00929133333334, "type": "electric_scooter", "fusion_lon": 0.0, "lat": 38.913794333333335}, {"rental_uris": {"android": "https://dc.lft.to/lastmile_qr_scan", "ios": "https://dc.lft.to/lastmile_qr_scan"}, "is_reserved": 0, "is_disabled": 0, "name": "cfb27346ea177342f9b73232e78ed9cc", "bike_id": "cfb27346ea177342f9b73232e78ed9cc", "fusion_lat": 0.0, "lon": -77.0293845, "type": "electric_scooter", "fusion_lon": 0.0, "lat": 38.920601}, {"rental_uris": {"android": "https://dc.lft.to/lastmile_qr_scan", "ios": "https://dc.lft.to/lastmile_qr_scan"}, "is_reserved": 0, "is_disabled": 0, "name": "1d11dd89d461a4b7f445509c57c66af7", "bike_id": "1d11dd89d461a4b7f445509c57c66af7", "fusion_lat": 0.0, "lon": -77.036683, "type": "electric_scooter", "fusion_lon": 0.0, "lat": 38.92271616666667}, {"rental_uris": {"android": "https://dc.lft.to/lastmile_qr_scan", "ios": "https://dc.lft.to/lastmile_qr_scan"}, "is_reserved": 0, "is_disabled": 0, "name": "eb3a9268944079cb476130e3d86a711b", "bike_id": "eb3a9268944079cb476130e3d86a711b", "fusion_lat": 0.0, "lon": -76.9258905, "type": "electric_scooter", "fusion_lon": 0.0, "lat": 38.89730316666667}, {"rental_uris": {"android": "https://dc.lft.to/lastmile_qr_scan", "ios": "https://dc.lft.to/lastmile_qr_scan"}, "is_reserved": 0, "is_disabled": 0, "name": "c6ddf604a66958319c3069602e7f0a27", "bike_id": "c6ddf604a66958319c3069602e7f0a27", "fusion_lat": 0.0, "lon": -77.035384, "type": "electric_scooter", "fusion_lon": 0.0, "lat": 38.92472566666667}, {"rental_uris": {"android": "https://dc.lft.to/lastmile_qr_scan", "ios": "https://dc.lft.to/lastmile_qr_scan"}, "is_reserved": 0, "is_disabled": 0, "name": "77e88b3b421ccc6d657b0cac18e1b60b", "bike_id": "77e88b3b421ccc6d657b0cac18e1b60b", "fusion_lat": 0.0, "lon": -77.02889783333333, "type": "electric_scooter", "fusion_lon": 0.0, "lat": 38.926792}, {"rental_uris": {"android": "https://dc.lft.to/lastmile_qr_scan", "ios": "https://dc.lft.to/lastmile_qr_scan"}, "is_reserved": 0, "is_disabled": 0, "name": "d0de340d2196613bbb7e55330671b94c", "bike_id": "d0de340d2196613bbb7e55330671b94c", "fusion_lat": 0.0, "lon": -77.076613, "type": "electric_scooter", "fusion_lon": 0.0, "lat": 38.9108365}, {"rental_uris": {"android": "https://dc.lft.to/lastmile_qr_scan", "ios": "https://dc.lft.to/lastmile_qr_scan"}, "is_reserved": 0, "is_disabled": 0, "name": "5be1179255721739f5ee40d1e0562d55", "bike_id": "5be1179255721739f5ee40d1e0562d55", "fusion_lat": 0.0, "lon": -76.98799633333333, "type": "electric_scooter", "fusion_lon": 0.0, "lat": 38.9003505}, {"rental_uris": {"android": "https://dc.lft.to/lastmile_qr_scan", "ios": "https://dc.lft.to/lastmile_qr_scan"}, "is_reserved": 0, "is_disabled": 0, "name": "c71d4ce53ae0f7d35c77775c34c8469c", "bike_id": "c71d4ce53ae0f7d35c77775c34c8469c", "fusion_lat": 0.0, "lon": -77.07336766666667, "type": "electric_scooter", "fusion_lon": 0.0, "lat": 38.96088266666667}, {"rental_uris": {"android": "https://dc.lft.to/lastmile_qr_scan", "ios": "https://dc.lft.to/lastmile_qr_scan"}, "is_reserved": 0, "is_disabled": 0, "name": "50b48f9ea86bbb0d51690a4b57229604", "bike_id": "50b48f9ea86bbb0d51690a4b57229604", "fusion_lat": 0.0, "lon": -77.05220316666667, "type": "electric_scooter", "fusion_lon": 0.0, "lat": 38.889127}, {"rental_uris": {"android": "https://dc.lft.to/lastmile_qr_scan", "ios": "https://dc.lft.to/lastmile_qr_scan"}, "is_reserved": 0, "is_disabled": 0, "name": "f5ef9c167b8a2946b1209a06d325f2d5", "bike_id": "f5ef9c167b8a2946b1209a06d325f2d5", "fusion_lat": 0.0, "lon": -77.00115616666666, "type": "electric_scooter", "fusion_lon": 0.0, "lat": 38.876314666666666}, {"rental_uris": {"android": "https://dc.lft.to/lastmile_qr_scan", "ios": "https://dc.lft.to/lastmile_qr_scan"}, "is_reserved": 0, "is_disabled": 0, "name": "4b0bf2b18472593b000cd18345cb6c58", "bike_id": "4b0bf2b18472593b000cd18345cb6c58", "fusion_lat": 0.0, "lon": -77.00138483333333, "type": "electric_bike", "fusion_lon": 0.0, "lat": 38.9949825}, {"rental_uris": {"android": "https://dc.lft.to/lastmile_qr_scan", "ios": "https://dc.lft.to/lastmile_qr_scan"}, "is_reserved": 0, "is_disabled": 0, "name": "767fb10992cc45fd768190f2c138bbfe", "bike_id": "767fb10992cc45fd768190f2c138bbfe", "fusion_lat": 0.0, "lon": -77.02207833333334, "type": "electric_scooter", "fusion_lon": 0.0, "lat": 38.915494333333335}, {"rental_uris": {"android": "https://dc.lft.to/lastmile_qr_scan", "ios": "https://dc.lft.to/lastmile_qr_scan"}, "is_reserved": 0, "is_disabled": 0, "name": "2c7f5dbf52e35b5def88f5a49d9bfa4e", "bike_id": "2c7f5dbf52e35b5def88f5a49d9bfa4e", "fusion_lat": 0.0, "lon": -77.01857916666667, "type": "electric_scooter", "fusion_lon": 0.0, "lat": 38.914931833333334}, {"rental_uris": {"android": "https://dc.lft.to/lastmile_qr_scan", "ios": "https://dc.lft.to/lastmile_qr_scan"}, "is_reserved": 0, "is_disabled": 0, "name": "9d9415e3037550525d7acd887f5a6e9a", "bike_id": "9d9415e3037550525d7acd887f5a6e9a", "fusion_lat": 0.0, "lon": -76.94931466666667, "type": "electric_scooter", "fusion_lon": 0.0, "lat": 38.89533566666667}, {"rental_uris": {"android": "https://dc.lft.to/lastmile_qr_scan", "ios": "https://dc.lft.to/lastmile_qr_scan"}, "is_reserved": 0, "is_disabled": 0, "name": "9766281e3cc8f0b12e195ba87a175d6a", "bike_id": "9766281e3cc8f0b12e195ba87a175d6a", "fusion_lat": 0.0, "lon": -77.03781766666667, "type": "electric_scooter", "fusion_lon": 0.0, "lat": 38.902358}, {"rental_uris": {"android": "https://dc.lft.to/lastmile_qr_scan", "ios": "https://dc.lft.to/lastmile_qr_scan"}, "is_reserved": 0, "is_disabled": 0, "name": "064b31eb14fb1cee46f4443bcd86d315", "bike_id": "064b31eb14fb1cee46f4443bcd86d315", "fusion_lat": 0.0, "lon": -76.989707, "type": "electric_bike", "fusion_lon": 0.0, "lat": 38.93067466666667}, {"rental_uris": {"android": "https://dc.lft.to/lastmile_qr_scan", "ios": "https://dc.lft.to/lastmile_qr_scan"}, "is_reserved": 0, "is_disabled": 0, "name": "e9c3d3ba0f4d9ee6080507110b906cd8", "bike_id": "e9c3d3ba0f4d9ee6080507110b906cd8", "fusion_lat": 0.0, "lon": -77.02171583333333, "type": "electric_scooter", "fusion_lon": 0.0, "lat": 38.9019615}, {"rental_uris": {"android": "https://dc.lft.to/lastmile_qr_scan", "ios": "https://dc.lft.to/lastmile_qr_scan"}, "is_reserved": 0, "is_disabled": 0, "name": "7e1f4df0256a185de4b0d503b708d192", "bike_id": "7e1f4df0256a185de4b0d503b708d192", "fusion_lat": 0.0, "lon": -76.95294666666666, "type": "electric_scooter", "fusion_lon": 0.0, "lat": 38.890266833333335}, {"rental_uris": {"android": "https://dc.lft.to/lastmile_qr_scan", "ios": "https://dc.lft.to/lastmile_qr_scan"}, "is_reserved": 0, "is_disabled": 0, "name": "14eef84487673fb6628718e198daced3", "bike_id": "14eef84487673fb6628718e198daced3", "fusion_lat": 0.0, "lon": -76.9579655, "type": "electric_bike", "fusion_lon": 0.0, "lat": 38.980455166666665}, {"rental_uris": {"android": "https://dc.lft.to/lastmile_qr_scan", "ios": "https://dc.lft.to/lastmile_qr_scan"},