{"data": {"bikes": [{"lat": 38.89228033333333, "lon": -77.022063, "is_disabled": 0, "fusion_lon": 0.0, "is_reserved": 0, "name": "14f8d7c4ec2a910aa3ee101763e14eab", "type": "electric_scooter", "bike_id": "14f8d7c4ec2a910aa3ee101763e14eab", "rental_uris": {"ios": "https://dc.lft.to/lastmile_qr_scan", "android": "https://dc.lft.to/lastmile_qr_scan"}, "fusion_lat": 0.0}, {"lat": 38.88689866666667, "lon": -76.9763675, "is_disabled": 0, "fusion_lon": 0.0, "is_reserved": 0, "name": "308343c2f7bd3f83955b6f6258b46fad", "type": "electric_scooter", "bike_id": "308343c2f7bd3f83955b6f6258b46fad", "rental_uris": {"ios": "https://dc.lft.to/lastmile_qr_scan", "android": "https://dc.lft.to/lastmile_qr_scan"}, "fusion_lat": 0.0}, {"lat": 38.878252333333336, "lon": -76.99608633333334, "is_disabled": 0, "fusion_lon": 0.0, "is_reserved": 0, "name": "4924b773219648a5840a5ecc255d7d68", "type": "electric_scooter", "bike_id": "4924b773219648a5840a5ecc255d7d68", "rental_uris": {"ios": "https://dc.lft.to/lastmile_qr_scan", "android": "https://dc.lft.to/lastmile_qr_scan"}, "fusion_lat": 0.0}, {"lat": 38.874053833333335, "lon": -77.0019075, "is_disabled": 0, "fusion_lon": 0.0, "is_reserved": 0, "name": "d5a490e370ad20bf94f61334517ac4ff", "type": "electric_scooter", "bike_id": "d5a490e370ad20bf94f61334517ac4ff", "rental_uris": {"ios": "https://dc.lft.to/lastmile_qr_scan", "android": "https://dc.lft.to/lastmile_qr_scan"}, "fusion_lat": 0.0}, {"lat": 38.91597566666667, "lon": -77.04468683333333, "is_disabled": 0, "fusion_lon": 0.0, "is_reserved": 0, "name": "64878906805ef5d27a18e77afb301c91", "type": "electric_scooter", "bike_id": "64878906805ef5d27a18e77afb301c91", "rental_uris": {"ios": "https://dc.lft.to/lastmile_qr_scan", "android": "https://dc.lft.to/lastmile_qr_scan"}, "fusion_lat": 0.0}, {"lat": 38.92028233333333, "lon": -77.0716045, "is_disabled": 0, "fusion_lon": 0.0, "is_reserved": 0, "name": "74626286c03a06c7637eb75ca338d296", "type": "electric_scooter", "bike_id": "74626286c03a06c7637eb75ca338d296", "rental_uris": {"ios": "https://dc.lft.to/lastmile_qr_scan", "android": "https://dc.lft.to/lastmile_qr_scan"}, "fusion_lat": 0.0}, {"lat": 38.91604816666667, "lon": -77.04908916666666, "is_disabled": 0, "fusion_lon": 0.0, "is_reserved": 0, "name": "1b9667ef30e552a6e11b6f12bd9af266", "type": "electric_scooter", "bike_id": "1b9667ef30e552a6e11b6f12bd9af266", "rental_uris": {"ios": "https://dc.lft.to/lastmile_qr_scan", "android": "https://dc.lft.to/lastmile_qr_scan"}, "fusion_lat": 0.0}, {"lat": 38.8770985, "lon": -77.01668716666667, "is_disabled": 0, "fusion_lon": 0.0, "is_reserved": 0, "name": "021ad23dd18d5db73255314e27e576b3", "type": "electric_scooter", "bike_id": "021ad23dd18d5db73255314e27e576b3", "rental_uris": {"ios": "https://dc.lft.to/lastmile_qr_scan", "android": "https://dc.lft.to/lastmile_qr_scan"}, "fusion_lat": 0.0}, {"lat": 38.8873505, "lon": -77.02384966666666, "is_disabled": 0, "fusion_lon": 0.0, "is_reserved": 0, "name": "58d6fcdfff995615d8c693a87aa3f457", "type": "electric_scooter", "bike_id": "58d6fcdfff995615d8c693a87aa3f457", "rental_uris": {"ios": "https://dc.lft.to/lastmile_qr_scan", "android": "https://dc.lft.to/lastmile_qr_scan"}, "fusion_lat": 0.0}, {"lat": 38.8316155, "lon": -76.995739, "is_disabled": 0, "fusion_lon": 0.0, "is_reserved": 0, "name": "d2fcd419bcc7e1a3c35976453c69b4a6", "type": "electric_bike", "bike_id": "d2fcd419bcc7e1a3c35976453c69b4a6", "rental_uris": {"ios": "https://dc.lft.to/lastmile_qr_scan", "android": "https://dc.lft.to/lastmile_qr_scan"}, "fusion_lat": 0.0}, {"lat": 38.898894, "lon": -77.00825583333334, "is_disabled": 0, "fusion_lon": 0.0, "is_reserved": 0, "name": "6b93da9cd43366bfa9885dc8116b8ffc", "type": "electric_scooter", "bike_id": "6b93da9cd43366bfa9885dc8116b8ffc", "rental_uris": {"ios": "https://dc.lft.to/lastmile_qr_scan", "android": "https://dc.lft.to/lastmile_qr_scan"}, "fusion_lat": 0.0}, {"lat": 38.90206083333333, "lon": -77.0237895, "is_disabled": 0, "fusion_lon": 0.0, "is_reserved": 0, "name": "9cdadf62355e17ae429caa2c8c94c35e", "type": "electric_scooter", "bike_id": "9cdadf62355e17ae429caa2c8c94c35e", "rental_uris": {"ios": "https://dc.lft.to/lastmile_qr_scan", "android": "https://dc.lft.to/lastmile_qr_scan"}, "fusion_lat": 0.0}, {"lat": 38.9072655, "lon": -77.02969116666667, "is_disabled": 0, "fusion_lon": 0.0, "is_reserved": 0, "name": "535a768459c5c936dc4fb5f0f8dfc2ab", "type": "electric_scooter", "bike_id": "535a768459c5c936dc4fb5f0f8dfc2ab", "rental_uris": {"ios": "https://dc.lft.to/lastmile_qr_scan", "android": "https://dc.lft.to/lastmile_qr_scan"}, "fusion_lat": 0.0}, {"lat": 38.92835816666667, "lon": -77.054354, "is_disabled": 0, "fusion_lon": 0.0, "is_reserved": 0, "name": "110a7b41f0211cd3e27ec6b7a1f634b0", "type": "electric_scooter", "bike_id": "110a7b41f0211cd3e27ec6b7a1f634b0", "rental_uris": {"ios": "https://dc.lft.to/lastmile_qr_scan", "android": "https://dc.lft.to/lastmile_qr_scan"}, "fusion_lat": 0.0}, {"lat": 38.903624, "lon": -77.04478416666667, "is_disabled": 0, "fusion_lon": 0.0, "is_reserved": 0, "name": "ab21b52039e7af6436aec69de3c2099f", "type": "electric_scooter", "bike_id": "ab21b52039e7af6436aec69de3c2099f", "rental_uris": {"ios": "https://dc.lft.to/lastmile_qr_scan", "android": "https://dc.lft.to/lastmile_qr_scan"}, "fusion_lat": 0.0}, {"lat": 38.903900666666665, "lon": -77.0601745, "is_disabled": 0, "fusion_lon": 0.0, "is_reserved": 0, "name": "433e3c241ad17a77ab2057c27fe1929f", "type": "electric_scooter", "bike_id": "433e3c241ad17a77ab2057c27fe1929f", "rental_uris": {"ios": "https://dc.lft.to/lastmile_qr_scan", "android": "https://dc.lft.to/lastmile_qr_scan"}, "fusion_lat": 0.0}, {"lat": 38.903073, "lon": -77.03424433333333, "is_disabled": 0, "fusion_lon": 0.0, "is_reserved": 0, "name": "748a75f7aa0a402f28e5b5fc4d8b1c5c", "type": "electric_scooter", "bike_id": "748a75f7aa0a402f28e5b5fc4d8b1c5c", "rental_uris": {"ios": "https://dc.lft.to/lastmile_qr_scan", "android": "https://dc.lft.to/lastmile_qr_scan"}, "fusion_lat": 0.0}, {"lat": 38.903945, "lon": -77.03861033333334, "is_disabled": 0, "fusion_lon": 0.0, "is_reserved": 0, "name": "972a0b92d08627bb3dde7258b514a453", "type": "electric_scooter", "bike_id": "972a0b92d08627bb3dde7258b514a453", "rental_uris": {"ios": "https://dc.lft.to/lastmile_qr_scan", "android": "https://dc.lft.to/lastmile_qr_scan"}, "fusion_lat": 0.0}, {"lat": 38.879192333333336, "lon": -77.002005, "is_disabled": 0, "fusion_lon": 0.0, "is_reserved": 0, "name": "c2531a075eb78d2951849ba3d12833f0", "type": "electric_scooter", "bike_id": "c2531a075eb78d2951849ba3d12833f0", "rental_uris": {"ios": "https://dc.lft.to/lastmile_qr_scan", "android": "https://dc.lft.to/lastmile_qr_scan"}, "fusion_lat": 0.0}, {"lat": 38.918225166666666, "lon": -77.02419666666667, "is_disabled": 0, "fusion_lon": 0.0, "is_reserved": 0, "name": "1ce6ebbf22f3e2b17e8a3aaff5cc3c44", "type": "electric_scooter", "bike_id": "1ce6ebbf22f3e2b17e8a3aaff5cc3c44", "rental_uris": {"ios": "https://dc.lft.to/lastmile_qr_scan", "android": "https://dc.lft.to/lastmile_qr_scan"}, "fusion_lat": 0.0}, {"lat": 38.919139333333334, "lon": -77.0244165, "is_disabled": 0, "fusion_lon": 0.0, "is_reserved": 0, "name": "7221668cb7c3315b0eab1f7eed20cf23", "type": "electric_scooter", "bike_id": "7221668cb7c3315b0eab1f7eed20cf23", "rental_uris": {"ios": "https://dc.lft.to/lastmile_qr_scan", "android": "https://dc.lft.to/lastmile_qr_scan"}, "fusion_lat": 0.0}, {"lat": 38.90031283333333, "lon": -77.00200066666666, "is_disabled": 0, "fusion_lon": 0.0, "is_reserved": 0, "name": "88ef267f1f74f2e58efb8fd63aeb8974", "type": "electric_scooter", "bike_id": "88ef267f1f74f2e58efb8fd63aeb8974", "rental_uris": {"ios": "https://dc.lft.to/lastmile_qr_scan", "android": "https://dc.lft.to/lastmile_qr_scan"}, "fusion_lat": 0.0}, {"lat": 38.905506333333335, "lon": -77.0417885, "is_disabled": 0, "fusion_lon": 0.0, "is_reserved": 0, "name": "28250ccca02e2ba578fdb5e7c89f35e9", "type": "electric_scooter", "bike_id": "28250ccca02e2ba578fdb5e7c89f35e9", "rental_uris": {"ios": "https://dc.lft.to/lastmile_qr_scan", "android": "https://dc.lft.to/lastmile_qr_scan"}, "fusion_lat": 0.0}, {"lat": 38.87733333333333, "lon": -77.01766966666666, "is_disabled": 0, "fusion_lon": 0.0, "is_reserved": 0, "name": "a759ccbe31e7f6c1c804ff57a32157b7", "type": "electric_scooter", "bike_id": "a759ccbe31e7f6c1c804ff57a32157b7", "rental_uris": {"ios": "https://dc.lft.to/lastmile_qr_scan", "android": "https://dc.lft.to/lastmile_qr_scan"}, "fusion_lat": 0.0}, {"lat": 38.90201416666667, "lon": -77.0234535, "is_disabled": 0, "fusion_lon": 0.0, "is_reserved": 0, "name": "420409089495319c961763218caf2077", "type": "electric_scooter", "bike_id": "420409089495319c961763218caf2077", "rental_uris": {"ios": "https://dc.lft.to/lastmile_qr_scan", "android": "https://dc.lft.to/lastmile_qr_scan"}, "fusion_lat": 0.0}, {"lat": 38.89511733333333, "lon": -77.010919, "is_disabled": 0, "fusion_lon": 0.0, "is_reserved": 0, "name": "c4e04e71ecaab207a69ff07bf86446c3", "type": "electric_scooter", "bike_id": "c4e04e71ecaab207a69ff07bf86446c3", "rental_uris": {"ios": "https://dc.lft.to/lastmile_qr_scan", "android": "https://dc.lft.to/lastmile_qr_scan"}, "fusion_lat": 0.0}, {"lat": 38.917097166666665, "lon": -76.97648483333333, "is_disabled": 0, "fusion_lon": 0.0, "is_reserved": 0, "name": "d79f75fe02b289b9d601bd7f1c4122f1", "type": "electric_scooter", "bike_id": "d79f75fe02b289b9d601bd7f1c4122f1", "rental_uris": {"ios": "https://dc.lft.to/lastmile_qr_scan", "android": "https://dc.lft.to/lastmile_qr_scan"}, "fusion_lat": 0.0}, {"lat": 38.9025935, "lon": -77.033256, "is_disabled": 0, "fusion_lon": 0.0, "is_reserved": 0, "name": "7247189c754b3bac2a0441ea426bb857", "type": "electric_scooter", "bike_id": "7247189c754b3bac2a0441ea426bb857", "rental_uris": {"ios": "https://dc.lft.to/lastmile_qr_scan", "android": "https://dc.lft.to/lastmile_qr_scan"}, "fusion_lat": 0.0}, {"lat": 38.88726483333333, "lon": -77.02847966666667, "is_disabled": 0, "fusion_lon": 0.0, "is_reserved": 0, "name": "6f99d0e23f700228b9ce9d78ec400b1c", "type": "electric_scooter", "bike_id": "6f99d0e23f700228b9ce9d78ec400b1c", "rental_uris": {"ios": "https://dc.lft.to/lastmile_qr_scan", "android": "https://dc.lft.to/lastmile_qr_scan"}, "fusion_lat": 0.0}, {"lat": 38.934223333333335, "lon": -77.03294683333333, "is_disabled": 0, "fusion_lon": 0.0, "is_reserved": 0, "name": "d5cc2dcc9bd815af1ea5d1970d1237c9", "type": "electric_scooter", "bike_id": "d5cc2dcc9bd815af1ea5d1970d1237c9", "rental_uris": {"ios": "https://dc.lft.to/lastmile_qr_scan", "android": "https://dc.lft.to/lastmile_qr_scan"}, "fusion_lat": 0.0}, {"lat": 38.89944466666667, "lon": -77.04497766666667, "is_disabled": 0, "fusion_lon": 0.0, "is_reserved": 0, "name": "43fdd76063ace7e5ba5f2258b109763d", "type": "electric_scooter", "bike_id": "43fdd76063ace7e5ba5f2258b109763d", "rental_uris": {"ios": "https://dc.lft.to/lastmile_qr_scan", "android": "https://dc.lft.to/lastmile_qr_scan"}, "fusion_lat": 0.0}, {"lat": 38.871053, "lon": -76.965797, "is_disabled": 0, "fusion_lon": 0.0, "is_reserved": 0, "name": "4acbb215d44c40d7892fc754ba728b1c", "type": "electric_scooter", "bike_id": "4acbb215d44c40d7892fc754ba728b1c", "rental_uris": {"ios": "https://dc.lft.to/lastmile_qr_scan", "android": "https://dc.lft.to/lastmile_qr_scan"}, "fusion_lat": 0.0}, {"lat": 38.92824566666667, "lon": -76.99590516666666, "is_disabled": 0, "fusion_lon": 0.0, "is_reserved": 0, "name": "fc3eaa60d1bdd43244654c7dca5de520", "type": "electric_scooter", "bike_id": "fc3eaa60d1bdd43244654c7dca5de520", "rental_uris": {"ios": "https://dc.lft.to/lastmile_qr_scan", "android": "https://dc.lft.to/lastmile_qr_scan"}, "fusion_lat": 0.0}, {"lat": 38.87736866666667, "lon": -77.118501, "is_disabled": 0, "fusion_lon": 0.0, "is_reserved": 0, "name": "0355765d5798ceeb21ed239a058dc97f", "type": "electric_bike", "bike_id": "0355765d5798ceeb21ed239a058dc97f", "rental_uris": {"ios": "https://dc.lft.to/lastmile_qr_scan", "android": "https://dc.lft.to/lastmile_qr_scan"}, "fusion_lat": 0.0}, {"lat": 38.9187765, "lon": -77.04315316666667, "is_disabled": 0, "fusion_lon": 0.0, "is_reserved": 0, "name": "e97e86905d0cc66ebb5c7320e454f956", "type": "electric_scooter", "bike_id": "e97e86905d0cc66ebb5c7320e454f956", "rental_uris": {"ios": "https://dc.lft.to/lastmile_qr_scan", "android": "https://dc.lft.to/lastmile_qr_scan"}, "fusion_lat": 0.0}, {"lat": 38.8924215, "lon": -77.031926, "is_disabled": 0, "fusion_lon": 0.0, "is_reserved": 0, "name": "19b553498281e53cb125587c42e77a23", "type": "electric_scooter", "bike_id": "19b553498281e53cb125587c42e77a23", "rental_uris": {"ios": "https://dc.lft.to/lastmile_qr_scan", "android": "https://dc.lft.to/lastmile_qr_scan"}, "fusion_lat": 0.0}, {"lat": 38.897569833333336, "lon": -77.04362683333333, "is_disabled": 0, "fusion_lon": 0.0, "is_reserved": 0, "name": "e9a1468612534f3617cd93bc41c23e03", "type": "electric_scooter", "bike_id": "e9a1468612534f3617cd93bc41c23e03", "rental_uris": {"ios": "https://dc.lft.to/lastmile_qr_scan", "android": "https://dc.lft.to/lastmile_qr_scan"}, "fusion_lat": 0.0}, {"lat": 38.9563815, "lon": -77.019333, "is_disabled": 0, "fusion_lon": 0.0, "is_reserved": 0, "name": "fa7fa45e7c57c3858d298cafd35c6dc4", "type": "electric_bike", "bike_id": "fa7fa45e7c57c3858d298cafd35c6dc4", "rental_uris": {"ios": "https://dc.lft.to/lastmile_qr_scan", "android": "https://dc.lft.to/lastmile_qr_scan"}, "fusion_lat": 0.0}, {"lat": 38.892245833333334, "lon": -77.04467416666667, "is_disabled": 0, "fusion_lon": 0.0, "is_reserved": 0, "name": "b14f41e291862ec864483999ffd56e11", "type": "electric_scooter", "bike_id": "b14f41e291862ec864483999ffd56e11", "rental_uris": {"ios": "https://dc.lft.to/lastmile_qr_scan", "android": "https://dc.lft.to/lastmile_qr_scan"}, "fusion_lat": 0.0}, {"lat": 38.87187016666667, "lon": -77.00640616666666, "is_disabled": 0, "fusion_lon": 0.0, "is_reserved": 0, "name": "dc98571550e261e9e48d81d7c6ca4008", "type": "electric_scooter", "bike_id": "dc98571550e261e9e48d81d7c6ca4008", "rental_uris": {"ios": "https://dc.lft.to/lastmile_qr_scan", "android": "https://dc.lft.to/lastmile_qr_scan"}, "fusion_lat": 0.0}, {"lat": 38.907755333333334, "lon": -77.0351855, "is_disabled": 0, "fusion_lon": 0.0, "is_reserved": 0, "name": "132d8be45c4a6a915f4a04f1e49b97e0", "type": "electric_scooter", "bike_id": "132d8be45c4a6a915f4a04f1e49b97e0", "rental_uris": {"ios": "https://dc.lft.to/lastmile_qr_scan", "android": "https://dc.lft.to/lastmile_qr_scan"}, "fusion_lat": 0.0}, {"lat": 38.90085466666667, "lon": -77.05906283333333, "is_disabled": 0, "fusion_lon": 0.0, "is_reserved": 0, "name": "b9b99a90c5431b80b3058c0c263da8d9", "type": "electric_bike", "bike_id": "b9b99a90c5431b80b3058c0c263da8d9", "rental_uris": {"ios": "https://dc.lft.to/lastmile_qr_scan", "android": "https://dc.lft.to/lastmile_qr_scan"}, "fusion_lat": 0.0}, {"lat": 38.905986166666665, "lon": -77.04145516666667, "is_disabled": 0, "fusion_lon": 0.0, "is_reserved": 0, "name": "aa0d496f7fbc55b7bc1815216d0258e5", "type": "electric_scooter", "bike_id": "aa0d496f7fbc55b7bc1815216d0258e5", "rental_uris": {"ios": "https://dc.lft.to/lastmile_qr_scan", "android": "https://dc.lft.to/lastmile_qr_scan"}, "fusion_lat": 0.0}, {"lat": 38.84418066666667, "lon": -77.07818733333333, "is_disabled": 0, "fusion_lon": 0.0, "is_reserved": 0, "name": "a798209e1d986dfbe426b7aa25f2564b", "type": "electric_bike", "bike_id": "a798209e1d986dfbe426b7aa25f2564b", "rental_uris": {"ios": "https://dc.lft.to/lastmile_qr_scan", "android": "https://dc.lft.to/lastmile_qr_scan"}, "fusion_lat": 0.0}, {"lat": 38.877984833333336, "lon": -76.99415933333333, "is_disabled": 0, "fusion_lon": 0.0, "is_reserved": 0, "name": "fef574900806ae43edca1a310b382c2c", "type": "electric_scooter", "bike_id": "fef574900806ae43edca1a310b382c2c", "rental_uris": {"ios": "https://dc.lft.to/lastmile_qr_scan", "android": "https://dc.lft.to/lastmile_qr_scan"}, "fusion_lat": 0.0}, {"lat": 38.9182365, "lon": -77.01207966666666, "is_disabled": 0, "fusion_lon": 0.0, "is_reserved": 0, "name": "31e699daafc53996fdbf0a898f9d3e20", "type": "electric_scooter", "bike_id": "31e699daafc53996fdbf0a898f9d3e20", "rental_uris": {"ios": "https://dc.lft.to/lastmile_qr_scan", "android": "https://dc.lft.to/lastmile_qr_scan"}, "fusion_lat": 0.0}, {"lat": 38.93566833333333, "lon": -77.087652, "is_disabled": 0, "fusion_lon": 0.0, "is_reserved": 0, "name": "a50b7cb45908020a5ed034d042c9877d", "type": "electric_scooter", "bike_id": "a50b7cb45908020a5ed034d042c9877d", "rental_uris": {"ios": "https://dc.lft.to/lastmile_qr_scan", "android": "https://dc.lft.to/lastmile_qr_scan"}, "fusion_lat": 0.0}, {"lat": 38.909312, "lon": -76.9996835, "is_disabled": 0, "fusion_lon": 0.0, "is_reserved": 0, "name": "a16273f77b84bdd17ff94b442828d8b0", "type": "electric_scooter", "bike_id": "a16273f77b84bdd17ff94b442828d8b0", "rental_uris": {"ios": "https://dc.lft.to/lastmile_qr_scan", "android": "https://dc.lft.to/lastmile_qr_scan"}, "fusion_lat": 0.0}, {"lat": 38.903191666666665, "lon": -77.01641233333334, "is_disabled": 0, "fusion_lon": 0.0, "is_reserved": 0, "name": "d25e3fe99a29bb74280e521ce64da910", "type": "electric_scooter", "bike_id": "d25e3fe99a29bb74280e521ce64da910", "rental_uris": {"ios": "https://dc.lft.to/lastmile_qr_scan", "android": "https://dc.lft.to/lastmile_qr_scan"}, "fusion_lat": 0.0}, {"lat": 38.88774883333333, "lon": -77.02839466666667, "is_disabled": 0, "fusion_lon": 0.0, "is_reserved": 0, "name": "620b01ade101931e40cba287eb8a4825", "type": "electric_scooter", "bike_id": "620b01ade101931e40cba287eb8a4825", "rental_uris": {"ios": "https://dc.lft.to/lastmile_qr_scan", "android": "https://dc.lft.to/lastmile_qr_scan"}, "fusion_lat": 0.0}, {"lat": 38.90278683333333, "lon": -77.06284433333333, "is_disabled": 0, "fusion_lon": 0.0, "is_reserved": 0, "name": "f299ec33b81264a3498603ce857c8fcd", "type": "electric_scooter", "bike_id": "f299ec33b81264a3498603ce857c8fcd", "rental_uris": {"ios": "https://dc.lft.to/lastmile_qr_scan", "android": "https://dc.lft.to/lastmile_qr_scan"}, "fusion_lat": 0.0}, {"lat": 38.913230666666664, "lon": -77.03181266666667, "is_disabled": 0, "fusion_lon": 0.0, "is_reserved": 0, "name": "1d1e82ffeccae0edb7543ea162db740e", "type": "electric_scooter", "bike_id": "1d1e82ffeccae0edb7543ea162db740e", "rental_uris": {"ios": "https://dc.lft.to/lastmile_qr_scan", "android": "https://dc.lft.to/lastmile_qr_scan"}, "fusion_lat": 0.0}, {"lat": 38.8795315, "lon": -76.9950525, "is_disabled": 0, "fusion_lon": 0.0, "is_reserved": 0, "name": "3522f4a2d786a81bdfb381fdd99c8b8b", "type": "electric_scooter", "bike_id": "3522f4a2d786a81bdfb381fdd99c8b8b", "rental_uris": {"ios": "https://dc.lft.to/lastmile_qr_scan", "android": "https://dc.lft.to/lastmile_qr_scan"}, "fusion_lat": 0.0}, {"lat": 38.904670833333334, "lon": -76.99505833333333, "is_disabled": 0, "fusion_lon": 0.0, "is_reserved": 0, "name": "d43502a0f15874673b84f5d4ec04c48e", "type": "electric_scooter", "bike_id": "d43502a0f15874673b84f5d4ec04c48e", "rental_uris": {"ios": "https://dc.lft.to/lastmile_qr_scan", "android": "https://dc.lft.to/lastmile_qr_scan"}, "fusion_lat": 0.0}, {"lat": 38.92297033333333, "lon": -77.0429645, "is_disabled": 0, "fusion_lon": 0.0, "is_reserved": 0, "name": "842524e075f9b82893535d8085f2e192", "type": "electric_scooter", "bike_id": "842524e075f9b82893535d8085f2e192", "rental_uris": {"ios": "https://dc.lft.to/lastmile_qr_scan", "android": "https://dc.lft.to/lastmile_qr_scan"}, "fusion_lat": 0.0}, {"lat": 38.88120583333333, "lon": -77.01641383333333, "is_disabled": 0, "fusion_lon": 0.0, "is_reserved": 0, "name": "8ed088ce4e075301aa42c4418fc377ae", "type": "electric_scooter", "bike_id": "8ed088ce4e075301aa42c4418fc377ae", "rental_uris": {"ios": "https://dc.lft.to/lastmile_qr_scan", "android": "https://dc.lft.to/lastmile_qr_scan"}, "fusion_lat": 0.0}, {"lat": 38.927497, "lon": -77.024328, "is_disabled": 0, "fusion_lon": 0.0, "is_reserved": 0, "name": "5da5b84c9d24eb161236c468744484db", "type": "electric_scooter", "bike_id": "5da5b84c9d24eb161236c468744484db", "rental_uris": {"ios": "https://dc.lft.to/lastmile_qr_scan", "android": "https://dc.lft.to/lastmile_qr_scan"}, "fusion_lat": 0.0}, {"lat": 38.90278766666667, "lon": -77.0345015, "is_disabled": 0, "fusion_lon": 0.0, "is_reserved": 0, "name": "4f669691a09e20fcbe0bba830d1d58f6", "type": "electric_scooter", "bike_id": "4f669691a09e20fcbe0bba830d1d58f6", "rental_uris": {"ios": "https://dc.lft.to/lastmile_qr_scan", "android": "https://dc.lft.to/lastmile_qr_scan"}, "fusion_lat": 0.0}, {"lat": 38.91796333333333, "lon": -77.02300233333334, "is_disabled": 0, "fusion_lon": 0.0, "is_reserved": 0, "name": "660729662a7844578fb55e7169120248", "type": "electric_scooter", "bike_id": "660729662a7844578fb55e7169120248", "rental_uris": {"ios": "https://dc.lft.to/lastmile_qr_scan", "android": "https://dc.lft.to/lastmile_qr_scan"}, "fusion_lat": 0.0}, {"lat": 38.9230205, "lon": -77.02329, "is_disabled": 0, "fusion_lon": 0.0, "is_reserved": 0, "name": "8c5e6d33a96a2b18171911dede428d7d", "type": "electric_scooter", "bike_id": "8c5e6d33a96a2b18171911dede428d7d", "rental_uris": {"ios": "https://dc.lft.to/lastmile_qr_scan", "android": "https://dc.lft.to/lastmile_qr_scan"}, "fusion_lat": 0.0}, {"lat": 38.8922245, "lon": -77.02354466666667, "is_disabled": 0, "fusion_lon": 0.0, "is_reserved": 0, "name": "f0112b64705510d5e1760de86d64f81f", "type": "electric_scooter", "bike_id": "f0112b64705510d5e1760de86d64f81f", "rental_uris": {"ios": "https://dc.lft.to/lastmile_qr_scan", "android": "https://dc.lft.to/lastmile_qr_scan"}, "fusion_lat": 0.0}, {"lat": 38.905044, "lon": -77.05693466666666, "is_disabled": 0, "fusion_lon": 0.0, "is_reserved": 0, "name": "9c829002e48dcf1783a3414055108ffd", "type": "electric_scooter", "bike_id": "9c829002e48dcf1783a3414055108ffd", "rental_uris": {"ios": "https://dc.lft.to/lastmile_qr_scan", "android": "https://dc.lft.to/lastmile_qr_scan"}, "fusion_lat": 0.0}, {"lat": 38.8991645, "lon": -77.02385566666666, "is_disabled": 0, "fusion_lon": 0.0, "is_reserved": 0, "name": "b314d9e52d9784d4b98ded07201df0e4", "type": "electric_scooter", "bike_id": "b314d9e52d9784d4b98ded07201df0e4", "rental_uris": {"ios": "https://dc.lft.to/lastmile_qr_scan", "android": "https://dc.lft.to/lastmile_qr_scan"}, "fusion_lat": 0.0}, {"lat": 38.91431266666667, "lon": -77.04512216666667, "is_disabled": 0, "fusion_lon": 0.0, "is_reserved": 0, "name": "aad4958b3dcd23c0af5632dd7bf93db6", "type": "electric_scooter", "bike_id": "aad4958b3dcd23c0af5632dd7bf93db6", "rental_uris": {"ios": "https://dc.lft.to/lastmile_qr_scan", "android": "https://dc.lft.to/lastmile_qr_scan"}, "fusion_lat": 0.0}, {"lat": 38.973751, "lon": -77.01271933333334, "is_disabled": 0, "fusion_lon": 0.0, "is_reserved": 0, "name": "5bd34e68ce6bdc052af1f4a5fa55a680", "type": "electric_scooter", "bike_id": "5bd34e68ce6bdc052af1f4a5fa55a680", "rental_uris": {"ios": "https://dc.lft.to/lastmile_qr_scan", "android": "https://dc.lft.to/lastmile_qr_scan"}, "fusion_lat": 0.0}, {"lat": 38.906735833333336, "lon": -76.98941616666667, "is_disabled": 0, "fusion_lon": 0.0, "is_reserved": 0, "name": "bad5a98757aff3478d0fba7687e861f8", "type": "electric_scooter", "bike_id": "bad5a98757aff3478d0fba7687e861f8", "rental_uris": {"ios": "https://dc.lft.to/lastmile_qr_scan", "android": "https://dc.lft.to/lastmile_qr_scan"}, "fusion_lat": 0.0}, {"lat": 38.935397333333334, "lon": -77.05745766666666, "is_disabled": 0, "fusion_lon": 0.0, "is_reserved": 0, "name": "a9dcf8cd03ff8895ef1a10ae6604eaee", "type": "electric_scooter", "bike_id": "a9dcf8cd03ff8895ef1a10ae6604eaee", "rental_uris": {"ios": "https://dc.lft.to/lastmile_qr_scan", "android": "https://dc.lft.to/lastmile_qr_scan"}, "fusion_lat": 0.0}, {"lat": 38.938486166666664, "lon": -77.07231666666667, "is_disabled": 0, "fusion_lon": 0.0, "is_reserved": 0, "name": "505f405ed9b97c6a39d674ac4245b9b4", "type": "electric_scooter", "bike_id": "505f405ed9b97c6a39d674ac4245b9b4", "rental_uris": {"ios": "https://dc.lft.to/lastmile_qr_scan", "android": "https://dc.lft.to/lastmile_qr_scan"}, "fusion_lat": 0.0}, {"lat": 38.893014, "lon": -77.01229316666667, "is_disabled": 0, "fusion_lon": 0.0, "is_reserved": 0, "name": "bb0cc0843c7ee0caaba7b1f7bf4823ab", "type": "electric_scooter", "bike_id": "bb0cc0843c7ee0caaba7b1f7bf4823ab", "rental_uris": {"ios": "https://dc.lft.to/lastmile_qr_scan", "android": "https://dc.lft.to/lastmile_qr_scan"}, "fusion_lat": 0.0}, {"lat": 38.862726333333335, "lon": -76.99541666666667, "is_disabled": 0, "fusion_lon": 0.0, "is_reserved": 0, "name": "855c03bc22a3a379109401d366e508b7", "type": "electric_scooter", "bike_id": "855c03bc22a3a379109401d366e508b7", "rental_uris": {"ios": "https://dc.lft.to/lastmile_qr_scan", "android": "https://dc.lft.to/lastmile_qr_scan"}, "fusion_lat": 0.0}, {"lat": 38.992188666666664, "lon": -77.03218783333334, "is_disabled": 0, "fusion_lon": 0.0, "is_reserved": 0, "name": "e94d8dd88cea69fbb413aa937054945b", "type": "electric_bike", "bike_id": "e94d8dd88cea69fbb413aa937054945b", "rental_uris": {"ios": "https://dc.lft.to/lastmile_qr_scan", "android": "https://dc.lft.to/lastmile_qr_scan"}, "fusion_lat": 0.0}, {"lat": 38.919922666666665, "lon": -77.02389716666667, "is_disabled": 0, "fusion_lon": 0.0, "is_reserved": 0, "name": "bd70b982d7b31ef67443cf16a781f857", "type": "electric_scooter", "bike_id": "bd70b982d7b31ef67443cf16a781f857", "rental_uris": {"ios": "https://dc.lft.to/lastmile_qr_scan", "android": "https://dc.lft.to/lastmile_qr_scan"}, "fusion_lat": 0.0}, {"lat": 38.966044833333335, "lon": -77.02750383333333, "is_disabled": 0, "fusion_lon": 0.0, "is_reserved": 0, "name": "f496a5a59c3700dd6dc9dfc55c514987", "type": "electric_scooter", "bike_id": "f496a5a59c3700dd6dc9dfc55c514987", "rental_uris": {"ios": "https://dc.lft.to/lastmile_qr_scan", "android": "https://dc.lft.to/lastmile_qr_scan"}, "fusion_lat": 0.0}, {"lat": 38.8397065, "lon": -76.97734833333334, "is_disabled": 0, "fusion_lon": 0.0, "is_reserved": 0, "name": "bdc57f5865bd0e2c45a00a2c3e7e0a90", "type": "electric_bike", "bike_id": "bdc57f5865bd0e2c45a00a2c3e7e0a90", "rental_uris": {"ios": "https://dc.lft.to/lastmile_qr_scan", "android": "https://dc.lft.to/lastmile_qr_scan"}, "fusion_lat": 0.0}, {"lat": 38.89255966666666, "lon": -76.98848, "is_disabled": 0, "fusion_lon": 0.0, "is_reserved": 0, "name": "ce7948ec5ef02bd81f94770674fe0a97", "type": "electric_scooter", "bike_id": "ce7948ec5ef02bd81f94770674fe0a97", "rental_uris": {"ios": "https://dc.lft.to/lastmile_qr_scan", "android": "https://dc.lft.to/lastmile_qr_scan"}, "fusion_lat": 0.0}, {"lat": 38.910856333333335, "lon": -77.04485433333333, "is_disabled": 0, "fusion_lon": 0.0, "is_reserved": 0, "name": "984bcbce1ea04983d0f6df17860c6838", "type": "electric_scooter", "bike_id": "984bcbce1ea04983d0f6df17860c6838", "rental_uris": {"ios": "https://dc.lft.to/lastmile_qr_scan", "android": "https://dc.lft.to/lastmile_qr_scan"}, "fusion_lat": 0.0}, {"lat": 38.91807216666667, "lon": -77.04019383333333, "is_disabled": 0, "fusion_lon": 0.0, "is_reserved": 0, "name": "6f294b6e7cdaebcbc3ccf2092226d9dd", "type": "electric_scooter", "bike_id": "6f294b6e7cdaebcbc3ccf2092226d9dd", "rental_uris": {"ios": "https://dc.lft.to/lastmile_qr_scan", "android": "https://dc.lft.to/lastmile_qr_scan"}, "fusion_lat": 0.0}, {"lat": 38.910253833333336, "lon": -77.02936966666667, "is_disabled": 0, "fusion_lon": 0.0, "is_reserved": 0, "name": "e423f238d50325770d12a35b2315b919", "type": "electric_scooter", "bike_id": "e423f238d50325770d12a35b2315b919", "rental_uris": {"ios": "https://dc.lft.to/lastmile_qr_scan", "android": "https://dc.lft.to/lastmile_qr_scan"}, "fusion_lat": 0.0}, {"lat": 38.9015345, "lon": -77.01611316666667, "is_disabled": 0, "fusion_lon": 0.0, "is_reserved": 0, "name": "89be10b7bbf038e5e9a8d4cbef6ea581", "type": "electric_scooter", "bike_id": "89be10b7bbf038e5e9a8d4cbef6ea581", "rental_uris": {"ios": "https://dc.lft.to/lastmile_qr_scan", "android": "https://dc.lft.to/lastmile_qr_scan"}, "fusion_lat": 0.0}, {"lat": 38.927378166666664, "lon": -76.99556916666667, "is_disabled": 0, "fusion_lon": 0.0, "is_reserved": 0, "name": "feafbefe4966c03ab97b7937ba4da19e", "type": "electric_scooter", "bike_id": "feafbefe4966c03ab97b7937ba4da19e", "rental_uris": {"ios": "https://dc.lft.to/lastmile_qr_scan", "android": "https://dc.lft.to/lastmile_qr_scan"}, "fusion_lat": 0.0}, {"lat": 38.906898166666664, "lon": -77.038049, "is_disabled": 0, "fusion_lon": 0.0, "is_reserved": 0, "name": "d30e0347641252a9ba57aec658f96d93", "type": "electric_scooter", "bike_id": "d30e0347641252a9ba57aec658f96d93", "rental_uris": {"ios": "https://dc.lft.to/lastmile_qr_scan", "android": "https://dc.lft.to/lastmile_qr_scan"}, "fusion_lat": 0.0}, {"lat": 38.898035, "lon": -77.01901966666667, "is_disabled": 0, "fusion_lon": 0.0, "is_reserved": 0, "name": "133d42b437e8e2f20ed12c9650378824", "type": "electric_scooter", "bike_id": "133d42b437e8e2f20ed12c9650378824", "rental_uris": {"ios": "https://dc.lft.to/lastmile_qr_scan", "android": "https://dc.lft.to/lastmile_qr_scan"}, "fusion_lat": 0.0}, {"lat": 39.00480566666667, "lon": -77.021894, "is_disabled": 0, "fusion_lon": 0.0, "is_reserved": 0, "name": "91f4ec6a1762625bd4c7a52e8a60a5da", "type": "electric_bike", "bike_id": "91f4ec6a1762625bd4c7a52e8a60a5da", "rental_uris": {"ios": "https://dc.lft.to/lastmile_qr_scan", "android": "https://dc.lft.to/lastmile_qr_scan"}, "fusion_lat": 0.0}, {"lat": 38.913587666666665, "lon": -77.02055083333333, "is_disabled": 0, "fusion_lon": 0.0, "is_reserved": 0, "name": "8f8f9e0a8c7ed773dcaf9e81f330b029", "type": "electric_scooter", "bike_id": "8f8f9e0a8c7ed773dcaf9e81f330b029", "rental_uris": {"ios": "https://dc.lft.to/lastmile_qr_scan", "android": "https://dc.lft.to/lastmile_qr_scan"}, "fusion_lat": 0.0}, {"lat": 38.90531166666667, "lon": -77.04851466666666, "is_disabled": 0, "fusion_lon": 0.0, "is_reserved": 0, "name": "eaad811ea59e14d9ee05a2dfa8204f92", "type": "electric_scooter", "bike_id": "eaad811ea59e14d9ee05a2dfa8204f92", "rental_uris": {"ios": "https://dc.lft.to/lastmile_qr_scan", "android": "https://dc.lft.to/lastmile_qr_scan"}, "fusion_lat": 0.0}, {"lat": 38.87102566666667, "lon": -76.9420445, "is_disabled": 0, "fusion_lon": 0.0, "is_reserved": 0, "name": "3f0aee9703043232fc416b6b1db3992d", "type": "electric_scooter", "bike_id": "3f0aee9703043232fc416b6b1db3992d", "rental_uris": {"ios": "https://dc.lft.to/lastmile_qr_scan", "android": "https://dc.lft.to/lastmile_qr_scan"}, "fusion_lat": 0.0}, {"lat": 38.9039245, "lon": -77.038571, "is_disabled": 0, "fusion_lon": 0.0, "is_reserved": 0, "name": "b7a48ff4c9dbc8052cf473cc333c775f", "type": "electric_scooter", "bike_id": "b7a48ff4c9dbc8052cf473cc333c775f", "rental_uris": {"ios": "https://dc.lft.to/lastmile_qr_scan", "android": "https://dc.lft.to/lastmile_qr_scan"}, "fusion_lat": 0.0}, {"lat": 38.936139, "lon": -77.03171083333334, "is_disabled": 0, "fusion_lon": 0.0, "is_reserved": 0, "name": "5dcd3a4411ce318b545e5da5b86bfc36", "type": "electric_scooter", "bike_id": "5dcd3a4411ce318b545e5da5b86bfc36", "rental_uris": {"ios": "https://dc.lft.to/lastmile_qr_scan", "android": "https://dc.lft.to/lastmile_qr_scan"}, "fusion_lat": 0.0}, {"lat": 38.9053405, "lon": -77.0502295, "is_disabled": 0, "fusion_lon": 0.0, "is_reserved": 0, "name": "ce77fd9ad341c9374fab73466e660210", "type": "electric_scooter", "bike_id": "ce77fd9ad341c9374fab73466e660210", "rental_uris": {"ios": "https://dc.lft.to/lastmile_qr_scan", "android": "https://dc.lft.to/lastmile_qr_scan"}, "fusion_lat": 0.0}, {"lat": 38.927664, "lon": -76.97348433333333, "is_disabled": 0, "fusion_lon": 0.0, "is_reserved": 0, "name": "34061d140521a113b03e84690ffadb0a", "type": "electric_scooter", "bike_id": "34061d140521a113b03e84690ffadb0a", "rental_uris": {"ios": "https://dc.lft.to/lastmile_qr_scan", "android": "https://dc.lft.to/lastmile_qr_scan"}, "fusion_lat": 0.0}, {"lat": 38.898587, "lon": -77.03942266666667, "is_disabled": 0, "fusion_lon": 0.0, "is_reserved": 0, "name": "6ca1f3034536caaad6ed4df45f9ede8c", "type": "electric_scooter", "bike_id": "6ca1f3034536caaad6ed4df45f9ede8c", "rental_uris": {"ios": "https://dc.lft.to/lastmile_qr_scan", "android": "https://dc.lft.to/lastmile_qr_scan"}, "fusion_lat": 0.0}, {"lat": 38.94564066666667, "lon": -77.07956483333334, "is_disabled": 0, "fusion_lon": 0.0, "is_reserved": 0, "name": "64f7eee851930b3ae5a555f23186e2f4", "type": "electric_scooter", "bike_id": "64f7eee851930b3ae5a555f23186e2f4", "rental_uris": {"ios": "https://dc.lft.to/lastmile_qr_scan", "android": "https://dc.lft.to/lastmile_qr_scan"}, "fusion_lat": 0.0}, {"lat": 38.89982716666667, "lon": -77.0071915, "is_disabled": 0, "fusion_lon": 0.0, "is_reserved": 0, "name": "dbd6c91ba21a0f0ad1b53cbd6282b62a", "type": "electric_bike", "bike_id": "dbd6c91ba21a0f0ad1b53cbd6282b62a", "rental_uris": {"ios": "https://dc.lft.to/lastmile_qr_scan", "android": "https://dc.lft.to/lastmile_qr_scan"}, "fusion_lat": 0.0}, {"lat": 38.9067325, "lon": -77.02717933333334, "is_disabled": 0, "fusion_lon": 0.0, "is_reserved": 0, "name": "8157857dce4787e139e178b3d040a8e7", "type": "electric_scooter", "bike_id": "8157857dce4787e139e178b3d040a8e7", "rental_uris": {"ios": "https://dc.lft.to/lastmile_qr_scan", "android": "https://dc.lft.to/lastmile_qr_scan"}, "fusion_lat": 0.0}, {"lat": 38.9122365, "lon": -77.0269615, "is_disabled": 0, "fusion_lon": 0.0, "is_reserved": 0, "name": "0f44a16c1c3797830d24f278239fade7", "type": "electric_scooter", "bike_id": "0f44a16c1c3797830d24f278239fade7", "rental_uris": {"ios": "https://dc.lft.to/lastmile_qr_scan", "android": "https://dc.lft.to/lastmile_qr_scan"}, "fusion_lat": 0.0}, {"lat": 38.872414, "lon": -77.0091055, "is_disabled": 0, "fusion_lon": 0.0, "is_reserved": 0, "name": "9703cdd161bf2b650ea5d6bdd0cca9ce", "type": "electric_bike", "bike_id": "9703cdd161bf2b650ea5d6bdd0cca9ce", "rental_uris": {"ios": "https://dc.lft.to/lastmile_qr_scan", "android": "https://dc.lft.to/lastmile_qr_scan"}, "fusion_lat": 0.0}, {"lat": 38.89045466666666, "lon": -76.9375875, "is_disabled": 0, "fusion_lon": 0.0, "is_reserved": 0, "name": "9d3392f2f46a4d605dc672e78a07eba8", "type": "electric_scooter", "bike_id": "9d3392f2f46a4d605dc672e78a07eba8", "rental_uris": {"ios": "https://dc.lft.to/lastmile_qr_scan", "android": "https://dc.lft.to/lastmile_qr_scan"}, "fusion_lat": 0.0}, {"lat": 38.90207233333334, "lon": -77.02378566666667, "is_disabled": 0, "fusion_lon": 0.0, "is_reserved": 0, "name": "3508c90f4d8dbfdb6ebc90193d366e4f", "type": "electric_scooter", "bike_id": "3508c90f4d8dbfdb6ebc90193d366e4f", "rental_uris": {"ios": "https://dc.lft.to/lastmile_qr_scan", "android": "https://dc.lft.to/lastmile_qr_scan"}, "fusion_lat": 0.0}, {"lat": 38.92720216666667, "lon": -77.02781783333333, "is_disabled": 0, "fusion_lon": 0.0, "is_reserved": 0, "name": "06eb155aaec1479a58050e537b39d41c", "type": "electric_scooter", "bike_id": "06eb155aaec1479a58050e537b39d41c", "rental_uris": {"ios": "https://dc.lft.to/lastmile_qr_scan", "android": "https://dc.lft.to/lastmile_qr_scan"}, "fusion_lat": 0.0}, {"lat": 38.92491616666667, "lon": -77.23370983333334, "is_disabled": 0, "fusion_lon": 0.0, "is_reserved": 0, "name": "e36fa4e5ffdd18472c4520a12b0d362a", "type": "electric_bike", "bike_id": "e36fa4e5ffdd18472c4520a12b0d362a", "rental_uris": {"ios": "https://dc.lft.to/lastmile_qr_scan", "android": "https://dc.lft.to/lastmile_qr_scan"}, "fusion_lat": 0.0}, {"lat": 38.94432366666667, "lon": -77.063256, "is_disabled": 0, "fusion_lon": 0.0, "is_reserved": 0, "name": "4c1798e17d2261a1db027c8dcafd5b0e", "type": "electric_scooter", "bike_id": "4c1798e17d2261a1db027c8dcafd5b0e", "rental_uris": {"ios": "https://dc.lft.to/lastmile_qr_scan", "android": "https://dc.lft.to/lastmile_qr_scan"}, "fusion_lat": 0.0}, {"lat": 38.892209, "lon": -77.043673, "is_disabled": 0, "fusion_lon": 0.0, "is_reserved": 0, "name": "e2b38d2a5efc0ffa0724153f10f34468", "type": "electric_scooter", "bike_id": "e2b38d2a5efc0ffa0724153f10f34468", "rental_uris": {"ios": "https://dc.lft.to/lastmile_qr_scan", "android": "https://dc.lft.to/lastmile_qr_scan"}, "fusion_lat": 0.0}, {"lat": 38.9104915, "lon": -77.042794, "is_disabled": 0, "fusion_lon": 0.0, "is_reserved": 0, "name": "9c8e1f28fbb39003d13a5e66d63d490f", "type": "electric_scooter", "bike_id": "9c8e1f28fbb39003d13a5e66d63d490f", "rental_uris": {"ios": "https://dc.lft.to/lastmile_qr_scan", "android": "https://dc.lft.to/lastmile_qr_scan"}, "fusion_lat": 0.0}, {"lat": 38.92884133333333, "lon": -77.03264083333333, "is_disabled": 0, "fusion_lon": 0.0, "is_reserved": 0, "name": "d3144dbc074da1cb4a1a3cfe09274dca", "type": "electric_scooter", "bike_id": "d3144dbc074da1cb4a1a3cfe09274dca", "rental_uris": {"ios": "https://dc.lft.to/lastmile_qr_scan", "android": "https://dc.lft.to/lastmile_qr_scan"}, "fusion_lat": 0.0}, {"lat": 38.9290985, "lon": -77.073037, "is_disabled": 0, "fusion_lon": 0.0, "is_reserved": 0, "name": "3b9e4cdfdbecd80c106685cf8960754e", "type": "electric_scooter", "bike_id": "3b9e4cdfdbecd80c106685cf8960754e", "rental_uris": {"ios": "https://dc.lft.to/lastmile_qr_scan", "android": "https://dc.lft.to/lastmile_qr_scan"}, "fusion_lat": 0.0}, {"lat": 38.910074, "lon": -76.99408616666666, "is_disabled": 0, "fusion_lon": 0.0, "is_reserved": 0, "name": "0637a8095dacb941d2a77641f16d471e", "type": "electric_scooter", "bike_id": "0637a8095dacb941d2a77641f16d471e", "rental_uris": {"ios": "https://dc.lft.to/lastmile_qr_scan", "android": "https://dc.lft.to/lastmile_qr_scan"}, "fusion_lat": 0.0}, {"lat": 38.89269433333333, "lon": -77.04677416666667, "is_disabled": 0, "fusion_lon": 0.0, "is_reserved": 0, "name": "969b4058374da9555b7565108985a625", "type": "electric_scooter", "bike_id": "969b4058374da9555b7565108985a625", "rental_uris": {"ios": "https://dc.lft.to/lastmile_qr_scan", "android": "https://dc.lft.to/lastmile_qr_scan"}, "fusion_lat": 0.0}, {"lat": 38.90999383333333, "lon": -76.98389666666667, "is_disabled": 0, "fusion_lon": 0.0, "is_reserved": 0, "name": "1c69fdf32d7d01069f554079b4b8af5c", "type": "electric_scooter", "bike_id": "1c69fdf32d7d01069f554079b4b8af5c", "rental_uris": {"ios": "https://dc.lft.to/lastmile_qr_scan", "android": "https://dc.lft.to/lastmile_qr_scan"}, "fusion_lat": 0.0}, {"lat": 38.910456333333336, "lon": -77.040017, "is_disabled": 0, "fusion_lon": 0.0, "is_reserved": 0, "name": "798bdc209f0ebb785225be1735ba4f78", "type": "electric_scooter", "bike_id": "798bdc209f0ebb785225be1735ba4f78", "rental_uris": {"ios": "https://dc.lft.to/lastmile_qr_scan", "android": "https://dc.lft.to/lastmile_qr_scan"}, "fusion_lat": 0.0}, {"lat": 38.900482333333336, "lon": -77.01303333333334, "is_disabled": 0, "fusion_lon": 0.0, "is_reserved": 0, "name": "dd924752edaa418a3d55ab76e9837d47", "type": "electric_scooter", "bike_id": "dd924752edaa418a3d55ab76e9837d47", "rental_uris": {"ios": "https://dc.lft.to/lastmile_qr_scan", "android": "https://dc.lft.to/lastmile_qr_scan"}, "fusion_lat": 0.0}, {"lat": 38.92136883333333, "lon": -77.00944383333334, "is_disabled": 0, "fusion_lon": 0.0, "is_reserved": 0, "name": "f5d4c202a03f6eab2abb4ba2e6e257d8", "type": "electric_scooter", "bike_id": "f5d4c202a03f6eab2abb4ba2e6e257d8", "rental_uris": {"ios": "https://dc.lft.to/lastmile_qr_scan", "android": "https://dc.lft.to/lastmile_qr_scan"}, "fusion_lat": 0.0}, {"lat": 38.9614825, "lon": -77.02782, "is_disabled": 0, "fusion_lon": 0.0, "is_reserved": 0, "name": "ec6b2b5fbeee6fd8722d19b0654223a0", "type": "electric_scooter", "bike_id": "ec6b2b5fbeee6fd8722d19b0654223a0", "rental_uris": {"ios": "https://dc.lft.to/lastmile_qr_scan", "android": "https://dc.lft.to/lastmile_qr_scan"}, "fusion_lat": 0.0}, {"lat": 38.9100465, "lon": -76.9941275, "is_disabled": 0, "fusion_lon": 0.0, "is_reserved": 0, "name": "739a626069ba916034395e444e4e6c79", "type": "electric_scooter", "bike_id": "739a626069ba916034395e444e4e6c79", "rental_uris": {"ios": "https://dc.lft.to/lastmile_qr_scan", "android": "https://dc.lft.to/lastmile_qr_scan"}, "fusion_lat": 0.0}, {"lat": 38.89235033333333, "lon": -77.04876083333333, "is_disabled": 0, "fusion_lon": 0.0, "is_reserved": 0, "name": "64212e67c42f5e8da06ec100dcb84d5b", "type": "electric_scooter", "bike_id": "64212e67c42f5e8da06ec100dcb84d5b", "rental_uris": {"ios": "https://dc.lft.to/lastmile_qr_scan", "android": "https://dc.lft.to/lastmile_qr_scan"}, "fusion_lat": 0.0}, {"lat": 38.90383416666667, "lon": -76.97614216666666, "is_disabled": 0, "fusion_lon": 0.0, "is_reserved": 0, "name": "78a538cef3aa762807c7f6ae56ef2d15", "type": "electric_scooter", "bike_id": "78a538cef3aa762807c7f6ae56ef2d15", "rental_uris": {"ios": "https://dc.lft.to/lastmile_qr_scan", "android": "https://dc.lft.to/lastmile_qr_scan"}, "fusion_lat": 0.0}, {"lat": 38.9191255, "lon": -77.03183883333334, "is_disabled": 0, "fusion_lon": 0.0, "is_reserved": 0, "name": "b7ab3fc4cf875d73a054870656b6041e", "type": "electric_scooter", "bike_id": "b7ab3fc4cf875d73a054870656b6041e", "rental_uris": {"ios": "https://dc.lft.to/lastmile_qr_scan", "android": "https://dc.lft.to/lastmile_qr_scan"}, "fusion_lat": 0.0}, {"lat": 38.92644083333333, "lon": -77.02841083333334, "is_disabled": 0, "fusion_lon": 0.0, "is_reserved": 0, "name": "af541380aff6f8ca5be880c78388c040", "type": "electric_bike", "bike_id": "af541380aff6f8ca5be880c78388c040", "rental_uris": {"ios": "https://dc.lft.to/lastmile_qr_scan", "android": "https://dc.lft.to/lastmile_qr_scan"}, "fusion_lat": 0.0}, {"lat": 38.918018333333336, "lon": -77.0271045, "is_disabled": 0, "fusion_lon": 0.0, "is_reserved": 0, "name": "34bf5b9c3c587de80be20dcf363f01eb", "type": "electric_scooter", "bike_id": "34bf5b9c3c587de80be20dcf363f01eb", "rental_uris": {"ios": "https://dc.lft.to/lastmile_qr_scan", "android": "https://dc.lft.to/lastmile_qr_scan"}, "fusion_lat": 0.0}, {"lat": 38.847566, "lon": -76.99500416666666, "is_disabled": 0, "fusion_lon": 0.0, "is_reserved": 0, "name": "c3d56ffddfc825cf6e1612d1f22907e1", "type": "electric_scooter", "bike_id": "c3d56ffddfc825cf6e1612d1f22907e1", "rental_uris": {"ios": "https://dc.lft.to/lastmile_qr_scan", "android": "https://dc.lft.to/lastmile_qr_scan"}, "fusion_lat": 0.0}, {"lat": 38.907802333333336, "lon": -77.07170116666667, "is_disabled": 0, "fusion_lon": 0.0, "is_reserved": 0, "name": "45a1d24bdfa91c8642f9ddeee2c4569d", "type": "electric_scooter", "bike_id": "45a1d24bdfa91c8642f9ddeee2c4569d", "rental_uris": {"ios": "https://dc.lft.to/lastmile_qr_scan", "android": "https://dc.lft.to/lastmile_qr_scan"}, "fusion_lat": 0.0}, {"lat": 38.923430833333335, "lon": -77.05177216666667, "is_disabled": 0, "fusion_lon": 0.0, "is_reserved": 0, "name": "044fe311b7e9984821c2d78c172b9a9f", "type": "electric_scooter", "bike_id": "044fe311b7e9984821c2d78c172b9a9f", "rental_uris": {"ios": "https://dc.lft.to/lastmile_qr_scan", "android": "https://dc.lft.to/lastmile_qr_scan"}, "fusion_lat": 0.0}, {"lat": 38.9223035, "lon": -77.02121133333333, "is_disabled": 0, "fusion_lon": 0.0, "is_reserved": 0, "name": "49139f8fc4c5a9045dae90fe53a68cd4", "type": "electric_scooter", "bike_id": "49139f8fc4c5a9045dae90fe53a68cd4", "rental_uris": {"ios": "https://dc.lft.to/lastmile_qr_scan", "android": "https://dc.lft.to/lastmile_qr_scan"}, "fusion_lat": 0.0}, {"lat": 38.8896025, "lon": -76.9368445, "is_disabled": 0, "fusion_lon": 0.0, "is_reserved": 0, "name": "6a29e39932440fa3a21e16356496cdff", "type": "electric_scooter", "bike_id": "6a29e39932440fa3a21e16356496cdff", "rental_uris": {"ios": "https://dc.lft.to/lastmile_qr_scan", "android": "https://dc.lft.to/lastmile_qr_scan"}, "fusion_lat": 0.0}, {"lat": 38.9157535, "lon": -77.01906116666666, "is_disabled": 0, "fusion_lon": 0.0, "is_reserved": 0, "name": "3dab71cdff2a0342403376af2f1b9436", "type": "electric_scooter", "bike_id": "3dab71cdff2a0342403376af2f1b9436", "rental_uris": {"ios": "https://dc.lft.to/lastmile_qr_scan", "android": "https://dc.lft.to/lastmile_qr_scan"}, "fusion_lat": 0.0}, {"lat": 38.90914683333333, "lon": -77.036606, "is_disabled": 0, "fusion_lon": 0.0, "is_reserved": 0, "name": "7e4ed95055c5dccaefc22a61fa49e6d6", "type": "electric_scooter", "bike_id": "7e4ed95055c5dccaefc22a61fa49e6d6", "rental_uris": {"ios": "https://dc.lft.to/lastmile_qr_scan", "android": "https://dc.lft.to/lastmile_qr_scan"}, "fusion_lat": 0.0}, {"lat": 38.89977733333333, "lon": -76.9854645, "is_disabled": 0, "fusion_lon": 0.0, "is_reserved": 0, "name": "12d8d9047b7cd0ae647c4f8e0153f8f0", "type": "electric_scooter", "bike_id": "12d8d9047b7cd0ae647c4f8e0153f8f0", "rental_uris": {"ios": "https://dc.lft.to/lastmile_qr_scan", "android": "https://dc.lft.to/lastmile_qr_scan"}, "fusion_lat": 0.0}, {"lat": 38.904407166666665, "lon": -76.99825916666667, "is_disabled": 0, "fusion_lon": 0.0, "is_reserved": 0, "name": "855c86ada3a301ded885c7b1ed89675d", "type": "electric_scooter", "bike_id": "855c86ada3a301ded885c7b1ed89675d", "rental_uris": {"ios": "https://dc.lft.to/lastmile_qr_scan", "android": "https://dc.lft.to/lastmile_qr_scan"}, "fusion_lat": 0.0}, {"lat": 38.896375166666665, "lon": -77.023921, "is_disabled": 0, "fusion_lon": 0.0, "is_reserved": 0, "name": "1c08cd59679c8d000946c864f0382bf2", "type": "electric_scooter", "bike_id": "1c08cd59679c8d000946c864f0382bf2", "rental_uris": {"ios": "https://dc.lft.to/lastmile_qr_scan", "android": "https://dc.lft.to/lastmile_qr_scan"}, "fusion_lat": 0.0}, {"lat": 38.903381, "lon": -77.06289, "is_disabled": 0, "fusion_lon": 0.0, "is_reserved": 0, "name": "40ca0f89e627f2edf2bab8dccca7ebf6", "type": "electric_scooter", "bike_id": "40ca0f89e627f2edf2bab8dccca7ebf6", "rental_uris": {"ios": "https://dc.lft.to/lastmile_qr_scan", "android": "https://dc.lft.to/lastmile_qr_scan"}, "fusion_lat": 0.0}, {"lat": 38.90575616666667, "lon": -77.04865883333333, "is_disabled": 0, "fusion_lon": 0.0, "is_reserved": 0, "name": "8283892c9cc7ff76c8259fb88aad213b", "type": "electric_scooter", "bike_id": "8283892c9cc7ff76c8259fb88aad213b", "rental_uris": {"ios": "https://dc.lft.to/lastmile_qr_scan", "android": "https://dc.lft.to/lastmile_qr_scan"}, "fusion_lat": 0.0}, {"lat": 38.8922095, "lon": -77.04365983333334, "is_disabled": 0, "fusion_lon": 0.0, "is_reserved": 0, "name": "99e1d388805cfb5147d15092daef4eeb", "type": "electric_scooter", "bike_id": "99e1d388805cfb5147d15092daef4eeb", "rental_uris": {"ios": "https://dc.lft.to/lastmile_qr_scan", "android": "https://dc.lft.to/lastmile_qr_scan"}, "fusion_lat": 0.0}, {"lat": 38.868931, "lon": -76.985215, "is_disabled": 0, "fusion_lon": 0.0, "is_reserved": 0, "name": "0064029d51ae610a5993e81f925c0cef", "type": "electric_bike", "bike_id": "0064029d51ae610a5993e81f925c0cef", "rental_uris": {"ios": "https://dc.lft.to/lastmile_qr_scan", "android": "https://dc.lft.to/lastmile_qr_scan"}, "fusion_lat": 0.0}, {"lat": 38.9050945, "lon": -77.04820766666667, "is_disabled": 0, "fusion_lon": 0.0, "is_reserved": 0, "name": "78ec1bb7ae5e5721993aef58ef7a0093", "type": "electric_scooter", "bike_id": "78ec1bb7ae5e5721993aef58ef7a0093", "rental_uris": {"ios": "https://dc.lft.to/lastmile_qr_scan", "android": "https://dc.lft.to/lastmile_qr_scan"}, "fusion_lat": 0.0}, {"lat": 38.95014583333333, "lon": -77.080751, "is_disabled": 0, "fusion_lon": 0.0, "is_reserved": 0, "name": "d2aef0f9dca633ff466c7fbe55a9e31e", "type": "electric_scooter", "bike_id": "d2aef0f9dca633ff466c7fbe55a9e31e", "rental_uris": {"ios": "https://dc.lft.to/lastmile_qr_scan", "android": "https://dc.lft.to/lastmile_qr_scan"}, "fusion_lat": 0.0}, {"lat": 39.05255416666667, "lon": -77.08068216666666, "is_disabled": 0, "fusion_lon": 0.0, "is_reserved": 0, "name": "0e4bf431deac1fc6b9ad2b30c5c72611", "type": "electric_bike", "bike_id": "0e4bf431deac1fc6b9ad2b30c5c72611", "rental_uris": {"ios": "https://dc.lft.to/lastmile_qr_scan", "android": "https://dc.lft.to/lastmile_qr_scan"}, "fusion_lat": 0.0}, {"lat": 38.9643995, "lon": -77.0315865, "is_disabled": 0, "fusion_lon": 0.0, "is_reserved": 0, "name": "78fab49ea47ee79dd8ff44a6dab90a56", "type": "electric_bike", "bike_id": "78fab49ea47ee79dd8ff44a6dab90a56", "rental_uris": {"ios": "https://dc.lft.to/lastmile_qr_scan", "android": "https://dc.lft.to/lastmile_qr_scan"}, "fusion_lat": 0.0}, {"lat": 38.87720566666667, "lon": -77.017185, "is_disabled": 0, "fusion_lon": 0.0, "is_reserved": 0, "name": "da177c4f75bdbe75caabb1e54721409b", "type": "electric_scooter", "bike_id": "da177c4f75bdbe75caabb1e54721409b", "rental_uris": {"ios": "https://dc.lft.to/lastmile_qr_scan", "android": "https://dc.lft.to/lastmile_qr_scan"}, "fusion_lat": 0.0}, {"lat": 38.922501833333335, "lon": -77.01948866666666, "is_disabled": 0, "fusion_lon": 0.0, "is_reserved": 0, "name": "c70b41d7b1c8806230248591fc0d3de2", "type": "electric_scooter", "bike_id": "c70b41d7b1c8806230248591fc0d3de2", "rental_uris": {"ios": "https://dc.lft.to/lastmile_qr_scan", "android": "https://dc.lft.to/lastmile_qr_scan"}, "fusion_lat": 0.0}, {"lat": 38.89999783333333, "lon": -77.04124933333334, "is_disabled": 0, "fusion_lon": 0.0, "is_reserved": 0, "name": "6f3dbd3963d635b89bd6c16563357e1f", "type": "electric_scooter", "bike_id": "6f3dbd3963d635b89bd6c16563357e1f", "rental_uris": {"ios": "https://dc.lft.to/lastmile_qr_scan", "android": "https://dc.lft.to/lastmile_qr_scan"}, "fusion_lat": 0.0}, {"lat": 38.90667916666666, "lon": -77.0387765, "is_disabled": 0, "fusion_lon": 0.0, "is_reserved": 0, "name": "814cada74f91cd2b706185d902060535", "type": "electric_scooter", "bike_id": "814cada74f91cd2b706185d902060535", "rental_uris": {"ios": "https://dc.lft.to/lastmile_qr_scan", "android": "https://dc.lft.to/lastmile_qr_scan"}, "fusion_lat": 0.0}, {"lat": 38.916832166666666, "lon": -77.02277816666667, "is_disabled": 0, "fusion_lon": 0.0, "is_reserved": 0, "name": "ceb0ca968f037eebc1377b96b59efa7b", "type": "electric_scooter", "bike_id": "ceb0ca968f037eebc1377b96b59efa7b", "rental_uris": {"ios": "https://dc.lft.to/lastmile_qr_scan", "android": "https://dc.lft.to/lastmile_qr_scan"}, "fusion_lat": 0.0}, {"lat": 38.90080283333333, "lon": -77.04479583333334, "is_disabled": 0, "fusion_lon": 0.0, "is_reserved": 0, "name": "6214b46c315642da7fd11193b52b1c77", "type": "electric_scooter", "bike_id": "6214b46c315642da7fd11193b52b1c77", "rental_uris": {"ios": "https://dc.lft.to/lastmile_qr_scan", "android": "https://dc.lft.to/lastmile_qr_scan"}, "fusion_lat": 0.0}, {"lat": 38.923346, "lon": -77.04189966666667, "is_disabled": 0, "fusion_lon": 0.0, "is_reserved": 0, "name": "958eac3e3ae50062e90f80ab73e1bc8c", "type": "electric_scooter", "bike_id": "958eac3e3ae50062e90f80ab73e1bc8c", "rental_uris": {"ios": "https://dc.lft.to/lastmile_qr_scan", "android": "https://dc.lft.to/lastmile_qr_scan"}, "fusion_lat": 0.0}, {"lat": 38.918341, "lon": -77.03207016666667, "is_disabled": 0, "fusion_lon": 0.0, "is_reserved": 0, "name": "c8678ce25c57717eaa6ab2a004c1e105", "type": "electric_scooter", "bike_id": "c8678ce25c57717eaa6ab2a004c1e105", "rental_uris": {"ios": "https://dc.lft.to/lastmile_qr_scan", "android": "https://dc.lft.to/lastmile_qr_scan"}, "fusion_lat": 0.0}, {"lat": 38.905641, "lon": -77.0019005, "is_disabled": 0, "fusion_lon": 0.0, "is_reserved": 0, "name": "9cb38f1a8e54d992037968dc9c343c6c", "type": "electric_scooter", "bike_id": "9cb38f1a8e54d992037968dc9c343c6c", "rental_uris": {"ios": "https://dc.lft.to/lastmile_qr_scan", "android": "https://dc.lft.to/lastmile_qr_scan"}, "fusion_lat": 0.0}, {"lat": 38.90991833333333, "lon": -77.03195766666667, "is_disabled": 0, "fusion_lon": 0.0, "is_reserved": 0, "name": "1c98f1500b79f28367019cbbe990d3f0", "type": "electric_scooter", "bike_id": "1c98f1500b79f28367019cbbe990d3f0", "rental_uris": {"ios": "https://dc.lft.to/lastmile_qr_scan", "android": "https://dc.lft.to/lastmile_qr_scan"}, "fusion_lat": 0.0}, {"lat": 38.917392666666665, "lon": -77.02115716666667, "is_disabled": 0, "fusion_lon": 0.0, "is_reserved": 0, "name": "dad0ad34c2e4d8dac0e6ca23119812f7", "type": "electric_scooter", "bike_id": "dad0ad34c2e4d8dac0e6ca23119812f7", "rental_uris": {"ios": "https://dc.lft.to/lastmile_qr_scan", "android": "https://dc.lft.to/lastmile_qr_scan"}, "fusion_lat": 0.0}, {"lat": 38.9075575, "lon": -77.03590566666666, "is_disabled": 0, "fusion_lon": 0.0, "is_reserved": 0, "name": "e91f0afb9cfcce8f138b0977face7957", "type": "electric_scooter", "bike_id": "e91f0afb9cfcce8f138b0977face7957", "rental_uris": {"ios": "https://dc.lft.to/lastmile_qr_scan", "android": "https://dc.lft.to/lastmile_qr_scan"}, "fusion_lat": 0.0}, {"lat": 38.91263266666667, "lon": -77.0221965, "is_disabled": 0, "fusion_lon": 0.0, "is_reserved": 0, "name": "87426cb572bcecc4d1a52c7916bb2be1", "type": "electric_scooter", "bike_id": "87426cb572bcecc4d1a52c7916bb2be1", "rental_uris": {"ios": "https://dc.lft.to/lastmile_qr_scan", "android": "https://dc.lft.to/lastmile_qr_scan"}, "fusion_lat": 0.0}, {"lat": 38.8802945, "lon": -77.02476933333334, "is_disabled": 0, "fusion_lon": 0.0, "is_reserved": 0, "name": "01bd5809b3b2763b01ba6e4301525bf5", "type": "electric_scooter", "bike_id": "01bd5809b3b2763b01ba6e4301525bf5", "rental_uris": {"ios": "https://dc.lft.to/lastmile_qr_scan", "android": "https://dc.lft.to/lastmile_qr_scan"}, "fusion_lat": 0.0}, {"lat": 38.9199125, "lon": -77.01785966666667, "is_disabled": 0, "fusion_lon": 0.0, "is_reserved": 0, "name": "5942bf7fd4a6c900eb6734d5eb2f1ab6", "type": "electric_scooter", "bike_id": "5942bf7fd4a6c900eb6734d5eb2f1ab6", "rental_uris": {"ios": "https://dc.lft.to/lastmile_qr_scan", "android": "https://dc.lft.to/lastmile_qr_scan"}, "fusion_lat": 0.0}, {"lat": 38.901613, "lon": -77.0451965, "is_disabled": 0, "fusion_lon": 0.0, "is_reserved": 0, "name": "1b157f188f011d10df7b13392190829c", "type": "electric_scooter", "bike_id": "1b157f188f011d10df7b13392190829c", "rental_uris": {"ios": "https://dc.lft.to/lastmile_qr_scan", "android": "https://dc.lft.to/lastmile_qr_scan"}, "fusion_lat": 0.0}, {"lat": 38.894360166666665, "lon": -76.9498875, "is_disabled": 0, "fusion_lon": 0.0, "is_reserved": 0, "name": "389890c2a58a4c5d8868eba9f95d35ba", "type": "electric_scooter", "bike_id": "389890c2a58a4c5d8868eba9f95d35ba", "rental_uris": {"ios": "https://dc.lft.to/lastmile_qr_scan", "android": "https://dc.lft.to/lastmile_qr_scan"}, "fusion_lat": 0.0}, {"lat": 38.90266733333333, "lon": -77.03772966666666, "is_disabled": 0, "fusion_lon": 0.0, "is_reserved": 0, "name": "75943062d02acc5cee186b2005473e86", "type": "electric_scooter", "bike_id": "75943062d02acc5cee186b2005473e86", "rental_uris": {"ios": "https://dc.lft.to/lastmile_qr_scan", "android": "https://dc.lft.to/lastmile_qr_scan"}, "fusion_lat": 0.0}, {"lat": 38.80982633333333, "lon": -77.07659783333334, "is_disabled": 0, "fusion_lon": 0.0, "is_reserved": 0, "name": "666349172022a106740125fc188a4ca8", "type": "electric_bike", "bike_id": "666349172022a106740125fc188a4ca8", "rental_uris": {"ios": "https://dc.lft.to/lastmile_qr_scan", "android": "https://dc.lft.to/lastmile_qr_scan"}, "fusion_lat": 0.0}, {"lat": 38.8958525, "lon": -76.98322016666667, "is_disabled": 0, "fusion_lon": 0.0, "is_reserved": 0, "name": "5c9427aded8d902a2fe6824b7d43b005", "type": "electric_scooter", "bike_id": "5c9427aded8d902a2fe6824b7d43b005", "rental_uris": {"ios": "https://dc.lft.to/lastmile_qr_scan", "android": "https://dc.lft.to/lastmile_qr_scan"}, "fusion_lat": 0.0}, {"lat": 38.9067475, "lon": -77.027148, "is_disabled": 0, "fusion_lon": 0.0, "is_reserved": 0, "name": "68c9bbfeaae4703804c8406797e3fccd", "type": "electric_scooter", "bike_id": "68c9bbfeaae4703804c8406797e3fccd", "rental_uris": {"ios": "https://dc.lft.to/lastmile_qr_scan", "android": "https://dc.lft.to/lastmile_qr_scan"}, "fusion_lat": 0.0}, {"lat": 38.89230216666667, "lon": -77.02205466666666, "is_disabled": 0, "fusion_lon": 0.0, "is_reserved": 0, "name": "a67956035e8bd44598bc5dcb85507ddf", "type": "electric_scooter", "bike_id": "a67956035e8bd44598bc5dcb85507ddf", "rental_uris": {"ios": "https://dc.lft.to/lastmile_qr_scan", "android": "https://dc.lft.to/lastmile_qr_scan"}, "fusion_lat": 0.0}, {"lat": 38.949609, "lon": -77.06671066666667, "is_disabled": 0, "fusion_lon": 0.0, "is_reserved": 0, "name": "9866dba0e51c9fc3139f735eac8d2725", "type": "electric_scooter", "bike_id": "9866dba0e51c9fc3139f735eac8d2725", "rental_uris": {"ios": "https://dc.lft.to/lastmile_qr_scan", "android": "https://dc.lft.to/lastmile_qr_scan"}, "fusion_lat": 0.0}, {"lat": 38.920978, "lon": -77.02404166666666, "is_disabled": 0, "fusion_lon": 0.0, "is_reserved": 0, "name": "3b5c6348c45170866c6f632fe0b23c42", "type": "electric_scooter", "bike_id": "3b5c6348c45170866c6f632fe0b23c42", "rental_uris": {"ios": "https://dc.lft.to/lastmile_qr_scan", "android": "https://dc.lft.to/lastmile_qr_scan"}, "fusion_lat": 0.0}, {"lat": 38.915537666666665, "lon": -77.02174683333334, "is_disabled": 0, "fusion_lon": 0.0, "is_reserved": 0, "name": "8968392ad434c298588db02294fa424b", "type": "electric_scooter", "bike_id": "8968392ad434c298588db02294fa424b", "rental_uris": {"ios": "https://dc.lft.to/lastmile_qr_scan", "android": "https://dc.lft.to/lastmile_qr_scan"}, "fusion_lat": 0.0}, {"lat": 38.90977983333333, "lon": -77.03568716666666, "is_disabled": 0, "fusion_lon": 0.0, "is_reserved": 0, "name": "0421df3395690b0cb0d83abcadeaff91", "type": "electric_scooter", "bike_id": "0421df3395690b0cb0d83abcadeaff91", "rental_uris": {"ios": "https://dc.lft.to/lastmile_qr_scan", "android": "https://dc.lft.to/lastmile_qr_scan"}, "fusion_lat": 0.0}, {"lat": 38.892708666666664, "lon": -77.00349216666666, "is_disabled": 0, "fusion_lon": 0.0, "is_reserved": 0, "name": "0d21d09e835dfa1c2c00f7a0f2bba0c2", "type": "electric_scooter", "bike_id": "0d21d09e835dfa1c2c00f7a0f2bba0c2", "rental_uris": {"ios": "https://dc.lft.to/lastmile_qr_scan", "android": "https://dc.lft.to/lastmile_qr_scan"}, "fusion_lat": 0.0}, {"lat": 38.892272, "lon": -77.04091, "is_disabled": 0, "fusion_lon": 0.0, "is_reserved": 0, "name": "16b90f00e42a7ddd71fc1b548d853d37", "type": "electric_scooter", "bike_id": "16b90f00e42a7ddd71fc1b548d853d37", "rental_uris": {"ios": "https://dc.lft.to/lastmile_qr_scan", "android": "https://dc.lft.to/lastmile_qr_scan"}, "fusion_lat": 0.0}, {"lat": 38.96179933333333, "lon": -77.01433116666666, "is_disabled": 0, "fusion_lon": 0.0, "is_reserved": 0, "name": "7a665b771b9e7e2990876d49e6d432d7", "type": "electric_scooter", "bike_id": "7a665b771b9e7e2990876d49e6d432d7", "rental_uris": {"ios": "https://dc.lft.to/lastmile_qr_scan", "android": "https://dc.lft.to/lastmile_qr_scan"}, "fusion_lat": 0.0}, {"lat": 38.89188433333333, "lon": -77.00336333333334, "is_disabled": 0, "fusion_lon": 0.0, "is_reserved": 0, "name": "9ec5029bb27d1ceb57a1a6eb5b964555", "type": "electric_scooter", "bike_id": "9ec5029bb27d1ceb57a1a6eb5b964555", "rental_uris": {"ios": "https://dc.lft.to/lastmile_qr_scan", "android": "https://dc.lft.to/lastmile_qr_scan"}, "fusion_lat": 0.0}, {"lat": 38.90275716666667, "lon": -77.04077983333333, "is_disabled": 0, "fusion_lon": 0.0, "is_reserved": 0, "name": "5f14380067ca35d8dcd84dbe123068fc", "type": "electric_scooter", "bike_id": "5f14380067ca35d8dcd84dbe123068fc", "rental_uris": {"ios": "https://dc.lft.to/lastmile_qr_scan", "android": "https://dc.lft.to/lastmile_qr_scan"}, "fusion_lat": 0.0}, {"lat": 38.91663916666667, "lon": -77.02477083333333, "is_disabled": 0, "fusion_lon": 0.0, "is_reserved": 0, "name": "e696bd55506de1ce8c01a60442cd232e", "type": "electric_scooter", "bike_id": "e696bd55506de1ce8c01a60442cd232e", "rental_uris": {"ios": "https://dc.lft.to/lastmile_qr_scan", "android": "https://dc.lft.to/lastmile_qr_scan"}, "fusion_lat": 0.0}, {"lat": 38.87480683333333, "lon": -77.00603516666666, "is_disabled": 0, "fusion_lon": 0.0, "is_reserved": 0, "name": "8316626a1c105e87e2913cfa5b899ae5", "type": "electric_scooter", "bike_id": "8316626a1c105e87e2913cfa5b899ae5", "rental_uris": {"ios": "https://dc.lft.to/lastmile_qr_scan", "android": "https://dc.lft.to/lastmile_qr_scan"}, "fusion_lat": 0.0}, {"lat": 38.8766505, "lon": -77.00307466666666, "is_disabled": 0, "fusion_lon": 0.0, "is_reserved": 0, "name": "a9e8874a0432cdbb464dd3c213d86537", "type": "electric_scooter", "bike_id": "a9e8874a0432cdbb464dd3c213d86537", "rental_uris": {"ios": "https://dc.lft.to/lastmile_qr_scan", "android": "https://dc.lft.to/lastmile_qr_scan"}, "fusion_lat": 0.0}, {"lat": 38.92327783333333, "lon": -77.03909583333333, "is_disabled": 0, "fusion_lon": 0.0, "is_reserved": 0, "name": "7bffec5549c16fa8274dbbb82aaaa8b3", "type": "electric_scooter", "bike_id": "7bffec5549c16fa8274dbbb82aaaa8b3", "rental_uris": {"ios": "https://dc.lft.to/lastmile_qr_scan", "android": "https://dc.lft.to/lastmile_qr_scan"}, "fusion_lat": 0.0}, {"lat": 38.9180135, "lon": -77.040165, "is_disabled": 0, "fusion_lon": 0.0, "is_reserved": 0, "name": "753ec6ebc8d4c284cc4456a47a2ea5b0", "type": "electric_scooter", "bike_id": "753ec6ebc8d4c284cc4456a47a2ea5b0", "rental_uris": {"ios": "https://dc.lft.to/lastmile_qr_scan", "android": "https://dc.lft.to/lastmile_qr_scan"}, "fusion_lat": 0.0}, {"lat": 38.88733583333333, "lon": -77.03186083333334, "is_disabled": 0, "fusion_lon": 0.0, "is_reserved": 0, "name": "3edb38b1d9ff200672debf62feae6339", "type": "electric_scooter", "bike_id": "3edb38b1d9ff200672debf62feae6339", "rental_uris": {"ios": "https://dc.lft.to/lastmile_qr_scan", "android": "https://dc.lft.to/lastmile_qr_scan"}, "fusion_lat": 0.0}, {"lat": 38.88743433333333, "lon": -77.01406383333334, "is_disabled": 0, "fusion_lon": 0.0, "is_reserved": 0, "name": "8428f126b68be2cbe99f80a763981fa5", "type": "electric_scooter", "bike_id": "8428f126b68be2cbe99f80a763981fa5", "rental_uris": {"ios": "https://dc.lft.to/lastmile_qr_scan", "android": "https://dc.lft.to/lastmile_qr_scan"}, "fusion_lat": 0.0}, {"lat": 38.924197666666664, "lon": -77.05062716666667, "is_disabled": 0, "fusion_lon": 0.0, "is_reserved": 0, "name": "683c57e318cb7260ae04098ba12a74eb", "type": "electric_scooter", "bike_id": "683c57e318cb7260ae04098ba12a74eb", "rental_uris": {"ios": "https://dc.lft.to/lastmile_qr_scan", "android": "https://dc.lft.to/lastmile_qr_scan"}, "fusion_lat": 0.0}, {"lat": 38.902745, "lon": -77.04606083333333, "is_disabled": 0, "fusion_lon": 0.0, "is_reserved": 0, "name": "48a48cce5856cd61587e64bc520ce244", "type": "electric_scooter", "bike_id": "48a48cce5856cd61587e64bc520ce244", "rental_uris": {"ios": "https://dc.lft.to/lastmile_qr_scan", "android": "https://dc.lft.to/lastmile_qr_scan"}, "fusion_lat": 0.0}, {"lat": 38.8873545, "lon": -77.01389533333334, "is_disabled": 0, "fusion_lon": 0.0, "is_reserved": 0, "name": "7bcac6ad1a3e1c09af248de7186c957c", "type": "electric_scooter", "bike_id": "7bcac6ad1a3e1c09af248de7186c957c", "rental_uris": {"ios": "https://dc.lft.to/lastmile_qr_scan", "android": "https://dc.lft.to/lastmile_qr_scan"}, "fusion_lat": 0.0}, {"lat": 38.880158, "lon": -76.98077316666667, "is_disabled": 0, "fusion_lon": 0.0, "is_reserved": 0, "name": "b19f6f3d842aaa196a4fa35ffd5aecc0", "type": "electric_scooter", "bike_id": "b19f6f3d842aaa196a4fa35ffd5aecc0", "rental_uris": {"ios": "https://dc.lft.to/lastmile_qr_scan", "android": "https://dc.lft.to/lastmile_qr_scan"}, "fusion_lat": 0.0}, {"lat": 38.962286, "lon": -77.02625033333334, "is_disabled": 0, "fusion_lon": 0.0, "is_reserved": 0, "name": "211fb9433a23fd4e2008a2089e67b32f", "type": "electric_bike", "bike_id": "211fb9433a23fd4e2008a2089e67b32f", "rental_uris": {"ios": "https://dc.lft.to/lastmile_qr_scan", "android": "https://dc.lft.to/lastmile_qr_scan"}, "fusion_lat": 0.0}, {"lat": 38.9318935, "lon": -77.03461083333333, "is_disabled": 0, "fusion_lon": 0.0, "is_reserved": 0, "name": "ded58573d7d1ef671f2ea93e4202b3f0", "type": "electric_scooter", "bike_id": "ded58573d7d1ef671f2ea93e4202b3f0", "rental_uris": {"ios": "https://dc.lft.to/lastmile_qr_scan", "android": "https://dc.lft.to/lastmile_qr_scan"}, "fusion_lat": 0.0}, {"lat": 38.95733666666667, "lon": -77.02402833333333, "is_disabled": 0, "fusion_lon": 0.0, "is_reserved": 0, "name": "37dc53c8b17de789848588713f8544a0", "type": "electric_scooter", "bike_id": "37dc53c8b17de789848588713f8544a0", "rental_uris": {"ios": "https://dc.lft.to/lastmile_qr_scan", "android": "https://dc.lft.to/lastmile_qr_scan"}, "fusion_lat": 0.0}, {"lat": 38.937258666666665, "lon": -77.03258833333334, "is_disabled": 0, "fusion_lon": 0.0, "is_reserved": 0, "name": "15deb62705af023805bd0250084e10c3", "type": "electric_scooter", "bike_id": "15deb62705af023805bd0250084e10c3", "rental_uris": {"ios": "https://dc.lft.to/lastmile_qr_scan", "android": "https://dc.lft.to/lastmile_qr_scan"}, "fusion_lat": 0.0}, {"lat": 38.91698316666667, "lon": -77.0287935, "is_disabled": 0, "fusion_lon": 0.0, "is_reserved": 0, "name": "abb3e7cc4fce4ba98d1ebf444398db10", "type": "electric_scooter", "bike_id": "abb3e7cc4fce4ba98d1ebf444398db10", "rental_uris": {"ios": "https://dc.lft.to/lastmile_qr_scan", "android": "https://dc.lft.to/lastmile_qr_scan"}, "fusion_lat": 0.0}, {"lat": 38.8974745, "lon": -77.04350116666667, "is_disabled": 0, "fusion_lon": 0.0, "is_reserved": 0, "name": "e7a2d254e014637f2b2346dcdc5d8651", "type": "electric_scooter", "bike_id": "e7a2d254e014637f2b2346dcdc5d8651", "rental_uris": {"ios": "https://dc.lft.to/lastmile_qr_scan", "android": "https://dc.lft.to/lastmile_qr_scan"}, "fusion_lat": 0.0}, {"lat": 38.892224666666664, "lon": -77.04471683333334, "is_disabled": 0, "fusion_lon": 0.0, "is_reserved": 0, "name": "37cace873ef1fd870f9b79f4153a9bbe", "type": "electric_scooter", "bike_id": "37cace873ef1fd870f9b79f4153a9bbe", "rental_uris": {"ios": "https://dc.lft.to/lastmile_qr_scan", "android": "https://dc.lft.to/lastmile_qr_scan"}, "fusion_lat": 0.0}, {"lat": 38.956374, "lon": -77.0331155, "is_disabled": 0, "fusion_lon": 0.0, "is_reserved": 0, "name": "ec8f417640bd4301fa7d00227049723d", "type": "electric_scooter", "bike_id": "ec8f417640bd4301fa7d00227049723d", "rental_uris": {"ios": "https://dc.lft.to/lastmile_qr_scan", "android": "https://dc.lft.to/lastmile_qr_scan"}, "fusion_lat": 0.0}, {"lat": 38.93896016666667, "lon": -77.02499316666666, "is_disabled": 0, "fusion_lon": 0.0, "is_reserved": 0, "name": "7498e44505028d56cb9d4b39277f257c", "type": "electric_scooter", "bike_id": "7498e44505028d56cb9d4b39277f257c", "rental_uris": {"ios": "https://dc.lft.to/lastmile_qr_scan", "android": "https://dc.lft.to/lastmile_qr_scan"}, "fusion_lat": 0.0}, {"lat": 38.90602633333334, "lon": -77.0437285, "is_disabled": 0, "fusion_lon": 0.0, "is_reserved": 0, "name": "91382c8196285598bfe6cb33a5b7c9f7", "type": "electric_scooter", "bike_id": "91382c8196285598bfe6cb33a5b7c9f7", "rental_uris": {"ios": "https://dc.lft.to/lastmile_qr_scan", "android": "https://dc.lft.to/lastmile_qr_scan"}, "fusion_lat": 0.0}, {"lat": 38.89811433333333, "lon": -77.03140333333333, "is_disabled": 0, "fusion_lon": 0.0, "is_reserved": 0, "name": "3c14f2a0a687df122c3e9d1ddcbd3eda", "type": "electric_scooter", "bike_id": "3c14f2a0a687df122c3e9d1ddcbd3eda", "rental_uris": {"ios": "https://dc.lft.to/lastmile_qr_scan", "android": "https://dc.lft.to/lastmile_qr_scan"}, "fusion_lat": 0.0}, {"lat": 38.9360695, "lon": -77.0318305, "is_disabled": 0, "fusion_lon": 0.0, "is_reserved": 0, "name": "45eedc27b05b5df0f782be2925babe06", "type": "electric_scooter", "bike_id": "45eedc27b05b5df0f782be2925babe06", "rental_uris": {"ios": "https://dc.lft.to/lastmile_qr_scan", "android": "https://dc.lft.to/lastmile_qr_scan"}, "fusion_lat": 0.0}, {"lat": 38.898879, "lon": -77.05296333333334, "is_disabled": 0, "fusion_lon": 0.0, "is_reserved": 0, "name": "daaa3a9a2576c3bca95e8b8dfd3263eb", "type": "electric_scooter", "bike_id": "daaa3a9a2576c3bca95e8b8dfd3263eb", "rental_uris": {"ios": "https://dc.lft.to/lastmile_qr_scan", "android": "https://dc.lft.to/lastmile_qr_scan"}, "fusion_lat": 0.0}, {"lat": 38.91597983333333, "lon": -77.04903683333333, "is_disabled": 0, "fusion_lon": 0.0, "is_reserved": 0, "name": "d2c2cce013e3ec0f183d25dd1ad26f94", "type": "electric_scooter", "bike_id": "d2c2cce013e3ec0f183d25dd1ad26f94", "rental_uris": {"ios": "https://dc.lft.to/lastmile_qr_scan", "android": "https://dc.lft.to/lastmile_qr_scan"}, "fusion_lat": 0.0}, {"lat": 38.896080833333336, "lon": -77.042746, "is_disabled": 0, "fusion_lon": 0.0, "is_reserved": 0, "name": "4525459eb329a805c3c1fee1a227cf44", "type": "electric_scooter", "bike_id": "4525459eb329a805c3c1fee1a227cf44", "rental_uris": {"ios": "https://dc.lft.to/lastmile_qr_scan", "android": "https://dc.lft.to/lastmile_qr_scan"}, "fusion_lat": 0.0}, {"lat": 38.89224883333333, "lon": -77.045034, "is_disabled": 0, "fusion_lon": 0.0, "is_reserved": 0, "name": "600e28d16b9dc166f0f4c3610a486af1", "type": "electric_scooter", "bike_id": "600e28d16b9dc166f0f4c3610a486af1", "rental_uris": {"ios": "https://dc.lft.to/lastmile_qr_scan", "android": "https://dc.lft.to/lastmile_qr_scan"}, "fusion_lat": 0.0}, {"lat": 38.8787115, "lon": -76.996795, "is_disabled": 0, "fusion_lon": 0.0, "is_reserved": 0, "name": "4709faeebf9e65067df3f3e74e532f91", "type": "electric_scooter", "bike_id": "4709faeebf9e65067df3f3e74e532f91", "rental_uris": {"ios": "https://dc.lft.to/lastmile_qr_scan", "android": "https://dc.lft.to/lastmile_qr_scan"}, "fusion_lat": 0.0}, {"lat": 38.8785295, "lon": -77.019317, "is_disabled": 0, "fusion_lon": 0.0, "is_reserved": 0, "name": "e7261e1014efc0fd241bf484b29aa344", "type": "electric_scooter", "bike_id": "e7261e1014efc0fd241bf484b29aa344", "rental_uris": {"ios": "https://dc.lft.to/lastmile_qr_scan", "android": "https://dc.lft.to/lastmile_qr_scan"}, "fusion_lat": 0.0}, {"lat": 38.90253583333333, "lon": -77.005457, "is_disabled": 0, "fusion_lon": 0.0, "is_reserved": 0, "name": "d8edb50882193b1f798749e95c96f56e", "type": "electric_scooter", "bike_id": "d8edb50882193b1f798749e95c96f56e", "rental_uris": {"ios": "https://dc.lft.to/lastmile_qr_scan", "android": "https://dc.lft.to/lastmile_qr_scan"}, "fusion_lat": 0.0}, {"lat": 38.89273583333333, "lon": -77.04674383333334, "is_disabled": 0, "fusion_lon": 0.0, "is_reserved": 0, "name": "eb1c61ab290d2686b602c90412817026", "type": "electric_scooter", "bike_id": "eb1c61ab290d2686b602c90412817026", "rental_uris": {"ios": "https://dc.lft.to/lastmile_qr_scan", "android": "https://dc.lft.to/lastmile_qr_scan"}, "fusion_lat": 0.0}, {"lat": 38.93453616666667, "lon": -77.03862416666666, "is_disabled": 0, "fusion_lon": 0.0, "is_reserved": 0, "name": "84fc6513f3ea881846a775cc599ec0a0", "type": "electric_scooter", "bike_id": "84fc6513f3ea881846a775cc599ec0a0", "rental_uris": {"ios": "https://dc.lft.to/lastmile_qr_scan", "android": "https://dc.lft.to/lastmile_qr_scan"}, "fusion_lat": 0.0}, {"lat": 38.88746316666667, "lon": -77.01406383333334, "is_disabled": 0, "fusion_lon": 0.0, "is_reserved": 0, "name": "524a850c2056702df0588da9d3b9f99b", "type": "electric_scooter", "bike_id": "524a850c2056702df0588da9d3b9f99b", "rental_uris": {"ios": "https://dc.lft.to/lastmile_qr_scan", "android": "https://dc.lft.to/lastmile_qr_scan"}, "fusion_lat": 0.0}, {"lat": 38.887557, "lon": -77.0212275, "is_disabled": 0, "fusion_lon": 0.0, "is_reserved": 0, "name": "a952d2a92d2e174f18d40b031a51b6ba", "type": "electric_scooter", "bike_id": "a952d2a92d2e174f18d40b031a51b6ba", "rental_uris": {"ios": "https://dc.lft.to/lastmile_qr_scan", "android": "https://dc.lft.to/lastmile_qr_scan"}, "fusion_lat": 0.0}, {"lat": 38.93994816666667, "lon": -77.02549933333333, "is_disabled": 0, "fusion_lon": 0.0, "is_reserved": 0, "name": "3cc9e6e234f45e3f52c67887a9501e98", "type": "electric_scooter", "bike_id": "3cc9e6e234f45e3f52c67887a9501e98", "rental_uris": {"ios": "https://dc.lft.to/lastmile_qr_scan", "android": "https://dc.lft.to/lastmile_qr_scan"}, "fusion_lat": 0.0}, {"lat": 38.922915333333336, "lon": -76.99777666666667, "is_disabled": 0, "fusion_lon": 0.0, "is_reserved": 0, "name": "0b4c51c33bd96336906c8fa9d9d003aa", "type": "electric_bike", "bike_id": "0b4c51c33bd96336906c8fa9d9d003aa", "rental_uris": {"ios": "https://dc.lft.to/lastmile_qr_scan", "android": "https://dc.lft.to/lastmile_qr_scan"}, "fusion_lat": 0.0}, {"lat": 38.917070833333334, "lon": -77.02747066666667, "is_disabled": 0, "fusion_lon": 0.0, "is_reserved": 0, "name": "03f646f4936e873a60f4e974132e684a", "type": "electric_scooter", "bike_id": "03f646f4936e873a60f4e974132e684a", "rental_uris": {"ios": "https://dc.lft.to/lastmile_qr_scan", "android": "https://dc.lft.to/lastmile_qr_scan"}, "fusion_lat": 0.0}, {"lat": 38.924155166666665, "lon": -77.05066083333334, "is_disabled": 0, "fusion_lon": 0.0, "is_reserved": 0, "name": "ea0a95667073ab544549e265eeb7480d", "type": "electric_scooter", "bike_id": "ea0a95667073ab544549e265eeb7480d", "rental_uris": {"ios": "https://dc.lft.to/lastmile_qr_scan", "android": "https://dc.lft.to/lastmile_qr_scan"}, "fusion_lat": 0.0}, {"lat": 38.920291166666665, "lon": -77.03063283333333, "is_disabled": 0, "fusion_lon": 0.0, "is_reserved": 0, "name": "964763d752436c5b01c883190966311a", "type": "electric_scooter", "bike_id": "964763d752436c5b01c883190966311a", "rental_uris": {"ios": "https://dc.lft.to/lastmile_qr_scan", "android": "https://dc.lft.to/lastmile_qr_scan"}, "fusion_lat": 0.0}, {"lat": 38.90295166666667, "lon": -77.0278665, "is_disabled": 0, "fusion_lon": 0.0, "is_reserved": 0, "name": "8f4ecaffa94a70f4f7ae35e31a22208d", "type": "electric_scooter", "bike_id": "8f4ecaffa94a70f4f7ae35e31a22208d", "rental_uris": {"ios": "https://dc.lft.to/lastmile_qr_scan", "android": "https://dc.lft.to/lastmile_qr_scan"}, "fusion_lat": 0.0}, {"lat": 38.89359433333333, "lon": -77.0034595, "is_disabled": 0, "fusion_lon": 0.0, "is_reserved": 0, "name": "a9114346fd789395ae43de812a20aefb", "type": "electric_scooter", "bike_id": "a9114346fd789395ae43de812a20aefb", "rental_uris": {"ios": "https://dc.lft.to/lastmile_qr_scan", "android": "https://dc.lft.to/lastmile_qr_scan"}, "fusion_lat": 0.0}, {"lat": 38.9057645, "lon": -77.0027465, "is_disabled": 0, "fusion_lon": 0.0, "is_reserved": 0, "name": "27896ff7689b861da7b7628a4d87f4dd", "type": "electric_scooter", "bike_id": "27896ff7689b861da7b7628a4d87f4dd", "rental_uris": {"ios": "https://dc.lft.to/lastmile_qr_scan", "android": "https://dc.lft.to/lastmile_qr_scan"}, "fusion_lat": 0.0}, {"lat": 38.92127933333333, "lon": -77.044356, "is_disabled": 0, "fusion_lon": 0.0, "is_reserved": 0, "name": "ce3bed65b924c44c412115aa01b07ef5", "type": "electric_scooter", "bike_id": "ce3bed65b924c44c412115aa01b07ef5", "rental_uris": {"ios": "https://dc.lft.to/lastmile_qr_scan", "android": "https://dc.lft.to/lastmile_qr_scan"}, "fusion_lat": 0.0}, {"lat": 38.90257366666667, "lon": -77.01538983333333, "is_disabled": 0, "fusion_lon": 0.0, "is_reserved": 0, "name": "41f4b8e46af7dd09e4d389a86982e1df", "type": "electric_scooter", "bike_id": "41f4b8e46af7dd09e4d389a86982e1df", "rental_uris": {"ios": "https://dc.lft.to/lastmile_qr_scan", "android": "https://dc.lft.to/lastmile_qr_scan"}, "fusion_lat": 0.0}, {"lat": 38.921767333333335, "lon": -77.03834766666667, "is_disabled": 0, "fusion_lon": 0.0, "is_reserved": 0, "name": "7947c3d8e7833cac295175ccc72307bb", "type": "electric_scooter", "bike_id": "7947c3d8e7833cac295175ccc72307bb", "rental_uris": {"ios": "https://dc.lft.to/lastmile_qr_scan", "android": "https://dc.lft.to/lastmile_qr_scan"}, "fusion_lat": 0.0}, {"lat": 38.890461, "lon": -76.9375795, "is_disabled": 0, "fusion_lon": 0.0, "is_reserved": 0, "name": "a311c58ed387fd25d356e2535b516c68", "type": "electric_scooter", "bike_id": "a311c58ed387fd25d356e2535b516c68", "rental_uris": {"ios": "https://dc.lft.to/lastmile_qr_scan", "android": "https://dc.lft.to/lastmile_qr_scan"}, "fusion_lat": 0.0}, {"lat": 38.95036733333333, "lon": -77.02733233333333, "is_disabled": 0, "fusion_lon": 0.0, "is_reserved": 0, "name": "84f2a4cb2e5fcd9c38f54888c20be5d2", "type": "electric_scooter", "bike_id": "84f2a4cb2e5fcd9c38f54888c20be5d2", "rental_uris": {"ios": "https://dc.lft.to/lastmile_qr_scan", "android": "https://dc.lft.to/lastmile_qr_scan"}, "fusion_lat": 0.0}, {"lat": 38.907590166666665, "lon": -77.03738533333333, "is_disabled": 0, "fusion_lon": 0.0, "is_reserved": 0, "name": "7da824ac5069f25a1741e1fb2cb59f44", "type": "electric_scooter", "bike_id": "7da824ac5069f25a1741e1fb2cb59f44", "rental_uris": {"ios": "https://dc.lft.to/lastmile_qr_scan", "android": "https://dc.lft.to/lastmile_qr_scan"}, "fusion_lat": 0.0}, {"lat": 38.96143266666667, "lon": -77.02776, "is_disabled": 0, "fusion_lon": 0.0, "is_reserved": 0, "name": "e7536a7cd2b9dba9ad8d96081847e0e3", "type": "electric_scooter", "bike_id": "e7536a7cd2b9dba9ad8d96081847e0e3", "rental_uris": {"ios": "https://dc.lft.to/lastmile_qr_scan", "android": "https://dc.lft.to/lastmile_qr_scan"}, "fusion_lat": 0.0}, {"lat": 38.90477766666667, "lon": -77.04192366666666, "is_disabled": 0, "fusion_lon": 0.0, "is_reserved": 0, "name": "4c0fbc6a8c0bdea17fd70871e1df3e34", "type": "electric_bike", "bike_id": "4c0fbc6a8c0bdea17fd70871e1df3e34", "rental_uris": {"ios": "https://dc.lft.to/lastmile_qr_scan", "android": "https://dc.lft.to/lastmile_qr_scan"}, "fusion_lat": 0.0}, {"lat": 38.932215666666664, "lon": -77.03344116666666, "is_disabled": 0, "fusion_lon": 0.0, "is_reserved": 0, "name": "f20c79a4527028160f53f91734ece304", "type": "electric_scooter", "bike_id": "f20c79a4527028160f53f91734ece304", "rental_uris": {"ios": "https://dc.lft.to/lastmile_qr_scan", "android": "https://dc.lft.to/lastmile_qr_scan"}, "fusion_lat": 0.0}, {"lat": 38.92860483333333, "lon": -77.032931, "is_disabled": 0, "fusion_lon": 0.0, "is_reserved": 0, "name": "f216f24432abd19cbd95f3d42ba9d4a2", "type": "electric_scooter", "bike_id": "f216f24432abd19cbd95f3d42ba9d4a2", "rental_uris": {"ios": "https://dc.lft.to/lastmile_qr_scan", "android": "https://dc.lft.to/lastmile_qr_scan"}, "fusion_lat": 0.0}, {"lat": 38.92229783333333, "lon": -77.018158, "is_disabled": 0, "fusion_lon": 0.0, "is_reserved": 0, "name": "963f960915f14123b926cd3569fcdc90", "type": "electric_scooter", "bike_id": "963f960915f14123b926cd3569fcdc90", "rental_uris": {"ios": "https://dc.lft.to/lastmile_qr_scan", "android": "https://dc.lft.to/lastmile_qr_scan"}, "fusion_lat": 0.0}, {"lat": 38.81253183333333, "lon": -77.11783716666666, "is_disabled": 0, "fusion_lon": 0.0, "is_reserved": 0, "name": "10441cc1ae8271175c5a275351e6d850", "type": "electric_bike", "bike_id": "10441cc1ae8271175c5a275351e6d850", "rental_uris": {"ios": "https://dc.lft.to/lastmile_qr_scan", "android": "https://dc.lft.to/lastmile_qr_scan"}, "fusion_lat": 0.0}, {"lat": 38.892539, "lon": -77.033513, "is_disabled": 0, "fusion_lon": 0.0, "is_reserved": 0, "name": "45994d05b42dddd75e8edfe880ba6b0d", "type": "electric_scooter", "bike_id": "45994d05b42dddd75e8edfe880ba6b0d", "rental_uris": {"ios": "https://dc.lft.to/lastmile_qr_scan", "android": "https://dc.lft.to/lastmile_qr_scan"}, "fusion_lat": 0.0}, {"lat": 38.8737785, "lon": -77.001152, "is_disabled": 0, "fusion_lon": 0.0, "is_reserved": 0, "name": "3c9f6c2c0f4aad2dbfeb610abcd4f1a4", "type": "electric_scooter", "bike_id": "3c9f6c2c0f4aad2dbfeb610abcd4f1a4", "rental_uris": {"ios": "https://dc.lft.to/lastmile_qr_scan", "android": "https://dc.lft.to/lastmile_qr_scan"}, "fusion_lat": 0.0}, {"lat": 38.909261, "lon": -76.9855615, "is_disabled": 0, "fusion_lon": 0.0, "is_reserved": 0, "name": "590877396aa5403e6b0399888dd94fdc", "type": "electric_scooter", "bike_id": "590877396aa5403e6b0399888dd94fdc", "rental_uris": {"ios": "https://dc.lft.to/lastmile_qr_scan", "android": "https://dc.lft.to/lastmile_qr_scan"}, "fusion_lat": 0.0}, {"lat": 38.957095833333334, "lon": -77.02400733333333, "is_disabled": 0, "fusion_lon": 0.0, "is_reserved": 0, "name": "4aef4bc2ef088326dc1156539e7bf439", "type": "electric_scooter", "bike_id": "4aef4bc2ef088326dc1156539e7bf439", "rental_uris": {"ios": "https://dc.lft.to/lastmile_qr_scan", "android": "https://dc.lft.to/lastmile_qr_scan"}, "fusion_lat": 0.0}, {"lat": 38.922423333333334, "lon": -77.07317816666666, "is_disabled": 0, "fusion_lon": 0.0, "is_reserved": 0, "name": "93f91c56361d34c70a38280a18db9713", "type": "electric_scooter", "bike_id": "93f91c56361d34c70a38280a18db9713", "rental_uris": {"ios": "https://dc.lft.to/lastmile_qr_scan", "android": "https://dc.lft.to/lastmile_qr_scan"}, "fusion_lat": 0.0}, {"lat": 38.91802233333333, "lon": -77.02488016666666, "is_disabled": 0, "fusion_lon": 0.0, "is_reserved": 0, "name": "1c68d25f59075fb937764af1ab12409b", "type": "electric_scooter", "bike_id": "1c68d25f59075fb937764af1ab12409b", "rental_uris": {"ios": "https://dc.lft.to/lastmile_qr_scan", "android": "https://dc.lft.to/lastmile_qr_scan"}, "fusion_lat": 0.0}, {"lat": 38.924147166666664, "lon": -77.02104116666666, "is_disabled": 0, "fusion_lon": 0.0, "is_reserved": 0, "name": "874236d1b0ba90636c21c4fe43c7db0c", "type": "electric_scooter", "bike_id": "874236d1b0ba90636c21c4fe43c7db0c", "rental_uris": {"ios": "https://dc.lft.to/lastmile_qr_scan", "android": "https://dc.lft.to/lastmile_qr_scan"}, "fusion_lat": 0.0}, {"lat": 38.9187965, "lon": -77.02478416666666, "is_disabled": 0, "fusion_lon": 0.0, "is_reserved": 0, "name": "9cb0a56d0adbacb89247a3f1eba6061e", "type": "electric_scooter", "bike_id": "9cb0a56d0adbacb89247a3f1eba6061e", "rental_uris": {"ios": "https://dc.lft.to/lastmile_qr_scan", "android": "https://dc.lft.to/lastmile_qr_scan"}, "fusion_lat": 0.0}, {"lat": 38.909494333333335, "lon": -77.04482666666667, "is_disabled": 0, "fusion_lon": 0.0, "is_reserved": 0, "name": "6392d1d4e9682e958807c3257be2ac82", "type": "electric_scooter", "bike_id": "6392d1d4e9682e958807c3257be2ac82", "rental_uris": {"ios": "https://dc.lft.to/lastmile_qr_scan", "android": "https://dc.lft.to/lastmile_qr_scan"}, "fusion_lat": 0.0}, {"lat": 38.956774333333335, "lon": -77.01357, "is_disabled": 0, "fusion_lon": 0.0, "is_reserved": 0, "name": "54be01e396f2c6a6606a299c95c6a1ab", "type": "electric_scooter", "bike_id": "54be01e396f2c6a6606a299c95c6a1ab", "rental_uris": {"ios": "https://dc.lft.to/lastmile_qr_scan", "android": "https://dc.lft.to/lastmile_qr_scan"}, "fusion_lat": 0.0}, {"lat": 38.91800383333333, "lon": -77.02707866666667, "is_disabled": 0, "fusion_lon": 0.0, "is_reserved": 0, "name": "1743539083b2f543e6c6ffc1ca88143f", "type": "electric_scooter", "bike_id": "1743539083b2f543e6c6ffc1ca88143f", "rental_uris": {"ios": "https://dc.lft.to/lastmile_qr_scan", "android": "https://dc.lft.to/lastmile_qr_scan"}, "fusion_lat": 0.0}, {"lat": 38.8840365, "lon": -77.02584216666666, "is_disabled": 0, "fusion_lon": 0.0, "is_reserved": 0, "name": "fa8fd6c5f40f0e11990263c0c9ea3021", "type": "electric_scooter", "bike_id": "fa8fd6c5f40f0e11990263c0c9ea3021", "rental_uris": {"ios": "https://dc.lft.to/lastmile_qr_scan", "android": "https://dc.lft.to/lastmile_qr_scan"}, "fusion_lat": 0.0}, {"lat": 38.89489316666667, "lon": -77.0199545, "is_disabled": 0, "fusion_lon": 0.0, "is_reserved": 0, "name": "6cd745607e113578c22a50d93d73317d", "type": "electric_scooter", "bike_id": "6cd745607e113578c22a50d93d73317d", "rental_uris": {"ios": "https://dc.lft.to/lastmile_qr_scan", "android": "https://dc.lft.to/lastmile_qr_scan"}, "fusion_lat": 0.0}, {"lat": 38.887326333333334, "lon": -77.02382483333334, "is_disabled": 0, "fusion_lon": 0.0, "is_reserved": 0, "name": "07f1dec53ba17c18ddc861611722b37a", "type": "electric_scooter", "bike_id": "07f1dec53ba17c18ddc861611722b37a", "rental_uris": {"ios": "https://dc.lft.to/lastmile_qr_scan", "android": "https://dc.lft.to/lastmile_qr_scan"}, "fusion_lat": 0.0}, {"lat": 38.9289525, "lon": -77.03258116666667, "is_disabled": 0, "fusion_lon": 0.0, "is_reserved": 0, "name": "dd2261cccee8c61f3731c110ca3206c4", "type": "electric_scooter", "bike_id": "dd2261cccee8c61f3731c110ca3206c4", "rental_uris": {"ios": "https://dc.lft.to/lastmile_qr_scan", "android": "https://dc.lft.to/lastmile_qr_scan"}, "fusion_lat": 0.0}, {"lat": 38.897862833333335, "lon": -77.05483383333333, "is_disabled": 0, "fusion_lon": 0.0, "is_reserved": 0, "name": "0899b0563e4e18aeb6b0cd8a0c74a163", "type": "electric_scooter", "bike_id": "0899b0563e4e18aeb6b0cd8a0c74a163", "rental_uris": {"ios": "https://dc.lft.to/lastmile_qr_scan", "android": "https://dc.lft.to/lastmile_qr_scan"}, "fusion_lat": 0.0}, {"lat": 38.89618466666667, "lon": -77.00927933333334, "is_disabled": 0, "fusion_lon": 0.0, "is_reserved": 0, "name": "5e52409524f1e58f03287b028a25dfb2", "type": "electric_scooter", "bike_id": "5e52409524f1e58f03287b028a25dfb2", "rental_uris": {"ios": "https://dc.lft.to/lastmile_qr_scan", "android": "https://dc.lft.to/lastmile_qr_scan"}, "fusion_lat": 0.0}, {"lat": 38.90695383333333, "lon": -77.03532833333334, "is_disabled": 0, "fusion_lon": 0.0, "is_reserved": 0, "name": "23deb7a20a50fd39cf2cd2abb608f856", "type": "electric_scooter", "bike_id": "23deb7a20a50fd39cf2cd2abb608f856", "rental_uris": {"ios": "https://dc.lft.to/lastmile_qr_scan", "android": "https://dc.lft.to/lastmile_qr_scan"}, "fusion_lat": 0.0}, {"lat": 38.8988915, "lon": -77.04334366666667, "is_disabled": 0, "fusion_lon": 0.0, "is_reserved": 0, "name": "06188c6dea2ad7d25dc6638d020318f7", "type": "electric_scooter", "bike_id": "06188c6dea2ad7d25dc6638d020318f7", "rental_uris": {"ios": "https://dc.lft.to/lastmile_qr_scan", "android": "https://dc.lft.to/lastmile_qr_scan"}, "fusion_lat": 0.0}, {"lat": 38.918235833333334, "lon": -77.04179183333333, "is_disabled": 0, "fusion_lon": 0.0, "is_reserved": 0, "name": "0b1572acfeb3a3cf9a2c9a9f1241550f", "type": "electric_scooter", "bike_id": "0b1572acfeb3a3cf9a2c9a9f1241550f", "rental_uris": {"ios": "https://dc.lft.to/lastmile_qr_scan", "android": "https://dc.lft.to/lastmile_qr_scan"}, "fusion_lat": 0.0}, {"lat": 38.8845395, "lon": -77.017756, "is_disabled": 0, "fusion_lon": 0.0, "is_reserved": 0, "name": "d6ebc2a7b19cb6beab4c169debe32674", "type": "electric_scooter", "bike_id": "d6ebc2a7b19cb6beab4c169debe32674", "rental_uris": {"ios": "https://dc.lft.to/lastmile_qr_scan", "android": "https://dc.lft.to/lastmile_qr_scan"}, "fusion_lat": 0.0}, {"lat": 38.850805666666666, "lon": -76.95707683333333, "is_disabled": 0, "fusion_lon": 0.0, "is_reserved": 0, "name": "7e581a700f35a4ad67f9a0b589bdc298", "type": "electric_bike", "bike_id": "7e581a700f35a4ad67f9a0b589bdc298", "rental_uris": {"ios": "https://dc.lft.to/lastmile_qr_scan", "android": "https://dc.lft.to/lastmile_qr_scan"}, "fusion_lat": 0.0}, {"lat": 38.9192635, "lon": -77.0239035, "is_disabled": 0, "fusion_lon": 0.0, "is_reserved": 0, "name": "190dd5acccfad477b2cc85c83144d134", "type": "electric_scooter", "bike_id": "190dd5acccfad477b2cc85c83144d134", "rental_uris": {"ios": "https://dc.lft.to/lastmile_qr_scan", "android": "https://dc.lft.to/lastmile_qr_scan"}, "fusion_lat": 0.0}, {"lat": 38.90254433333333, "lon": -77.04672466666666, "is_disabled": 0, "fusion_lon": 0.0, "is_reserved": 0, "name": "222828a163005870867a2879f1145ef8", "type": "electric_scooter", "bike_id": "222828a163005870867a2879f1145ef8", "rental_uris": {"ios": "https://dc.lft.to/lastmile_qr_scan", "android": "https://dc.lft.to/lastmile_qr_scan"}, "fusion_lat": 0.0}, {"lat": 38.905541166666666, "lon": -77.04659983333333, "is_disabled": 0, "fusion_lon": 0.0, "is_reserved": 0, "name": "88885793a5afa02e4ef74cfd6fb0ad7b", "type": "electric_scooter", "bike_id": "88885793a5afa02e4ef74cfd6fb0ad7b", "rental_uris": {"ios": "https://dc.lft.to/lastmile_qr_scan", "android": "https://dc.lft.to/lastmile_qr_scan"}, "fusion_lat": 0.0}, {"lat": 38.9262695, "lon": -77.04191583333333, "is_disabled": 0, "fusion_lon": 0.0, "is_reserved": 0, "name": "eb6bfb34ce4cb8f14a33ae48cd13a64b", "type": "electric_scooter", "bike_id": "eb6bfb34ce4cb8f14a33ae48cd13a64b", "rental_uris": {"ios": "https://dc.lft.to/lastmile_qr_scan", "android": "https://dc.lft.to/lastmile_qr_scan"}, "fusion_lat": 0.0}, {"lat": 38.8737135, "lon": -77.00158266666666, "is_disabled": 0, "fusion_lon": 0.0, "is_reserved": 0, "name": "bc82f7b08ffe634b1bb34e247ecaa5de", "type": "electric_scooter", "bike_id": "bc82f7b08ffe634b1bb34e247ecaa5de", "rental_uris": {"ios": "https://dc.lft.to/lastmile_qr_scan", "android": "https://dc.lft.to/lastmile_qr_scan"}, "fusion_lat": 0.0}, {"lat": 38.8980885, "lon": -77.03144483333334, "is_disabled": 0, "fusion_lon": 0.0, "is_reserved": 0, "name": "70de69d4ae0a334ba1f96e2d9152b811", "type": "electric_scooter", "bike_id": "70de69d4ae0a334ba1f96e2d9152b811", "rental_uris": {"ios": "https://dc.lft.to/lastmile_qr_scan", "android": "https://dc.lft.to/lastmile_qr_scan"}, "fusion_lat": 0.0}, {"lat": 38.8730205, "lon": -76.9702135, "is_disabled": 0, "fusion_lon": 0.0, "is_reserved": 0, "name": "b2b6128bfff1fde0e284dba52fc9df1c", "type": "electric_scooter", "bike_id": "b2b6128bfff1fde0e284dba52fc9df1c", "rental_uris": {"ios": "https://dc.lft.to/lastmile_qr_scan", "android": "https://dc.lft.to/lastmile_qr_scan"}, "fusion_lat": 0.0}, {"lat": 38.93069883333333, "lon": -77.021613, "is_disabled": 0, "fusion_lon": 0.0, "is_reserved": 0, "name": "b45eba9a696fcf9ecbb5f1cb0eaab13c", "type": "electric_scooter", "bike_id": "b45eba9a696fcf9ecbb5f1cb0eaab13c", "rental_uris": {"ios": "https://dc.lft.to/lastmile_qr_scan", "android": "https://dc.lft.to/lastmile_qr_scan"}, "fusion_lat": 0.0}, {"lat": 38.91115633333333, "lon": -77.02416883333333, "is_disabled": 0, "fusion_lon": 0.0, "is_reserved": 0, "name": "38eafb94cb42dce619e620ef1f1cf635", "type": "electric_scooter", "bike_id": "38eafb94cb42dce619e620ef1f1cf635", "rental_uris": {"ios": "https://dc.lft.to/lastmile_qr_scan", "android": "https://dc.lft.to/lastmile_qr_scan"}, "fusion_lat": 0.0}, {"lat": 38.892248333333335, "lon": -77.03173033333333, "is_disabled": 0, "fusion_lon": 0.0, "is_reserved": 0, "name": "fbbf57e1bd7c594d3169edde90ef83e3", "type": "electric_scooter", "bike_id": "fbbf57e1bd7c594d3169edde90ef83e3", "rental_uris": {"ios": "https://dc.lft.to/lastmile_qr_scan", "android": "https://dc.lft.to/lastmile_qr_scan"}, "fusion_lat": 0.0}, {"lat": 38.89827916666667, "lon": -77.05010633333333, "is_disabled": 0, "fusion_lon": 0.0, "is_reserved": 0, "name": "53ba22dc2f0a66cb48fec72c5464d43e", "type": "electric_scooter", "bike_id": "53ba22dc2f0a66cb48fec72c5464d43e", "rental_uris": {"ios": "https://dc.lft.to/lastmile_qr_scan", "android": "https://dc.lft.to/lastmile_qr_scan"}, "fusion_lat": 0.0}, {"lat": 38.90389183333333, "lon": -77.02980333333333, "is_disabled": 0, "fusion_lon": 0.0, "is_reserved": 0, "name": "ecb318ded68f9edcd0e6767b4bdd38cb", "type": "electric_scooter", "bike_id": "ecb318ded68f9edcd0e6767b4bdd38cb", "rental_uris": {"ios": "https://dc.lft.to/lastmile_qr_scan", "android": "https://dc.lft.to/lastmile_qr_scan"}, "fusion_lat": 0.0}, {"lat": 38.90260416666667, "lon": -77.0460235, "is_disabled": 0, "fusion_lon": 0.0, "is_reserved": 0, "name": "621993c9cd6bc98801abe15463717410", "type": "electric_scooter", "bike_id": "621993c9cd6bc98801abe15463717410", "rental_uris": {"ios": "https://dc.lft.to/lastmile_qr_scan", "android": "https://dc.lft.to/lastmile_qr_scan"}, "fusion_lat": 0.0}, {"lat": 38.90569383333333, "lon": -77.04236333333333, "is_disabled": 0, "fusion_lon": 0.0, "is_reserved": 0, "name": "db6e4f5cb0a066a7041a6aa971fbfdd9", "type": "electric_scooter", "bike_id": "db6e4f5cb0a066a7041a6aa971fbfdd9", "rental_uris": {"ios": "https://dc.lft.to/lastmile_qr_scan", "android": "https://dc.lft.to/lastmile_qr_scan"}, "fusion_lat": 0.0}, {"lat": 38.857294, "lon": -76.9777275, "is_disabled": 0, "fusion_lon": 0.0, "is_reserved": 0, "name": "898faaf372d5abe0408e0d17cfdb59b0", "type": "electric_bike", "bike_id": "898faaf372d5abe0408e0d17cfdb59b0", "rental_uris": {"ios": "https://dc.lft.to/lastmile_qr_scan", "android": "https://dc.lft.to/lastmile_qr_scan"}, "fusion_lat": 0.0}, {"lat": 38.897502833333334, "lon": -77.00746983333333, "is_disabled": 0, "fusion_lon": 0.0, "is_reserved": 0, "name": "9866d9f81a003eb32f5836cf95b06a47", "type": "electric_scooter", "bike_id": "9866d9f81a003eb32f5836cf95b06a47", "rental_uris": {"ios": "https://dc.lft.to/lastmile_qr_scan", "android": "https://dc.lft.to/lastmile_qr_scan"}, "fusion_lat": 0.0}, {"lat": 38.8872395, "lon": -77.0283985, "is_disabled": 0, "fusion_lon": 0.0, "is_reserved": 0, "name": "c5c428d27de25adbb7668060cded0377", "type": "electric_scooter", "bike_id": "c5c428d27de25adbb7668060cded0377", "rental_uris": {"ios": "https://dc.lft.to/lastmile_qr_scan", "android": "https://dc.lft.to/lastmile_qr_scan"}, "fusion_lat": 0.0}, {"lat": 38.906766166666664, "lon": -77.020748, "is_disabled": 0, "fusion_lon": 0.0, "is_reserved": 0, "name": "c47e10d73a7e656fc4814863f6906b92", "type": "electric_scooter", "bike_id": "c47e10d73a7e656fc4814863f6906b92", "rental_uris": {"ios": "https://dc.lft.to/lastmile_qr_scan", "android": "https://dc.lft.to/lastmile_qr_scan"}, "fusion_lat": 0.0}, {"lat": 38.9341335, "lon": -77.043057, "is_disabled": 0, "fusion_lon": 0.0, "is_reserved": 0, "name": "5c594f2e6680564108c07e9c60075798", "type": "electric_bike", "bike_id": "5c594f2e6680564108c07e9c60075798", "rental_uris": {"ios": "https://dc.lft.to/lastmile_qr_scan", "android": "https://dc.lft.to/lastmile_qr_scan"}, "fusion_lat": 0.0}, {"lat": 38.901986666666666, "lon": -77.02186766666667, "is_disabled": 0, "fusion_lon": 0.0, "is_reserved": 0, "name": "12583d2d9e26613a6fc34d3ab9c1aa78", "type": "electric_scooter", "bike_id": "12583d2d9e26613a6fc34d3ab9c1aa78", "rental_uris": {"ios": "https://dc.lft.to/lastmile_qr_scan", "android": "https://dc.lft.to/lastmile_qr_scan"}, "fusion_lat": 0.0}, {"lat": 38.887672333333335, "lon": -77.0283785, "is_disabled": 0, "fusion_lon": 0.0, "is_reserved": 0, "name": "3178bce6678882d317b43d945041fd08", "type": "electric_scooter", "bike_id": "3178bce6678882d317b43d945041fd08", "rental_uris": {"ios": "https://dc.lft.to/lastmile_qr_scan", "android": "https://dc.lft.to/lastmile_qr_scan"}, "fusion_lat": 0.0}, {"lat": 38.91713516666667, "lon": -77.03256933333333, "is_disabled": 0, "fusion_lon": 0.0, "is_reserved": 0, "name": "aeb8f87b9a7d24a912be83aae95b0262", "type": "electric_scooter", "bike_id": "aeb8f87b9a7d24a912be83aae95b0262", "rental_uris": {"ios": "https://dc.lft.to/lastmile_qr_scan", "android": "https://dc.lft.to/lastmile_qr_scan"}, "fusion_lat": 0.0}, {"lat": 38.919657, "lon": -77.01490033333333, "is_disabled": 0, "fusion_lon": 0.0, "is_reserved": 0, "name": "51881cbb9664420e6686d0badc8b23bb", "type": "electric_scooter", "bike_id": "51881cbb9664420e6686d0badc8b23bb", "rental_uris": {"ios": "https://dc.lft.to/lastmile_qr_scan", "android": "https://dc.lft.to/lastmile_qr_scan"}, "fusion_lat": 0.0}, {"lat": 38.91033766666666, "lon": -77.04310183333334, "is_disabled": 0, "fusion_lon": 0.0, "is_reserved": 0, "name": "d5df20572bc67373b2e38aa7843a4a51", "type": "electric_scooter", "bike_id": "d5df20572bc67373b2e38aa7843a4a51", "rental_uris": {"ios": "https://dc.lft.to/lastmile_qr_scan", "android": "https://dc.lft.to/lastmile_qr_scan"}, "fusion_lat": 0.0}, {"lat": 38.93967383333333, "lon": -77.03255166666666, "is_disabled": 0, "fusion_lon": 0.0, "is_reserved": 0, "name": "df327630b837cb7799a3552454520726", "type": "electric_scooter", "bike_id": "df327630b837cb7799a3552454520726", "rental_uris": {"ios": "https://dc.lft.to/lastmile_qr_scan", "android": "https://dc.lft.to/lastmile_qr_scan"}, "fusion_lat": 0.0}, {"lat": 38.89592833333333, "lon": -77.02578266666667, "is_disabled": 0, "fusion_lon": 0.0, "is_reserved": 0, "name": "f3185388ea043899ca01724c729f4f4e", "type": "electric_scooter", "bike_id": "f3185388ea043899ca01724c729f4f4e", "rental_uris": {"ios": "https://dc.lft.to/lastmile_qr_scan", "android": "https://dc.lft.to/lastmile_qr_scan"}, "fusion_lat": 0.0}, {"lat": 38.9428735, "lon": -77.02925683333333, "is_disabled": 0, "fusion_lon": 0.0, "is_reserved": 0, "name": "9640d2a578ca6be21391d4d562f41186", "type": "electric_scooter", "bike_id": "9640d2a578ca6be21391d4d562f41186", "rental_uris": {"ios": "https://dc.lft.to/lastmile_qr_scan", "android": "https://dc.lft.to/lastmile_qr_scan"}, "fusion_lat": 0.0}, {"lat": 38.89246166666667, "lon": -77.03190116666667, "is_disabled": 0, "fusion_lon": 0.0, "is_reserved": 0, "name": "45ffe6ef7542f92a981b8977d13d06ff", "type": "electric_scooter", "bike_id": "45ffe6ef7542f92a981b8977d13d06ff", "rental_uris": {"ios": "https://dc.lft.to/lastmile_qr_scan", "android": "https://dc.lft.to/lastmile_qr_scan"}, "fusion_lat": 0.0}, {"lat": 38.92026416666667, "lon": -77.07164266666666, "is_disabled": 0, "fusion_lon": 0.0, "is_reserved": 0, "name": "0e57ab1d0eb2d49c974227c4cb72b94b", "type": "electric_scooter", "bike_id": "0e57ab1d0eb2d49c974227c4cb72b94b", "rental_uris": {"ios": "https://dc.lft.to/lastmile_qr_scan", "android": "https://dc.lft.to/lastmile_qr_scan"}, "fusion_lat": 0.0}, {"lat": 38.9103215, "lon": -77.0318425, "is_disabled": 0, "fusion_lon": 0.0, "is_reserved": 0, "name": "3597a5ed4709b481cb114874c8ddf507", "type": "electric_scooter", "bike_id": "3597a5ed4709b481cb114874c8ddf507", "rental_uris": {"ios": "https://dc.lft.to/lastmile_qr_scan", "android": "https://dc.lft.to/lastmile_qr_scan"}, "fusion_lat": 0.0}, {"lat": 38.860038833333334, "lon": -77.057564, "is_disabled": 0, "fusion_lon": 0.0, "is_reserved": 0, "name": "c0a2b1292c1da73dbe41fdbcba86c181", "type": "electric_bike", "bike_id": "c0a2b1292c1da73dbe41fdbcba86c181", "rental_uris": {"ios": "https://dc.lft.to/lastmile_qr_scan", "android": "https://dc.lft.to/lastmile_qr_scan"}, "fusion_lat": 0.0}, {"lat": 38.89731166666667, "lon": -77.01762066666667, "is_disabled": 0, "fusion_lon": 0.0, "is_reserved": 0, "name": "217253e0d71cf1811fb6d19cb2272754", "type": "electric_scooter", "bike_id": "217253e0d71cf1811fb6d19cb2272754", "rental_uris": {"ios": "https://dc.lft.to/lastmile_qr_scan", "android": "https://dc.lft.to/lastmile_qr_scan"}, "fusion_lat": 0.0}, {"lat": 38.892409, "lon": -77.02620533333334, "is_disabled": 0, "fusion_lon": 0.0, "is_reserved": 0, "name": "f8bc4fbdc5e32dad741d6f2a974251a1", "type": "electric_scooter", "bike_id": "f8bc4fbdc5e32dad741d6f2a974251a1", "rental_uris": {"ios": "https://dc.lft.to/lastmile_qr_scan", "android": "https://dc.lft.to/lastmile_qr_scan"}, "fusion_lat": 0.0}, {"lat": 38.9100435, "lon": -77.07351883333334, "is_disabled": 0, "fusion_lon": 0.0, "is_reserved": 0, "name": "9ac9441db577b14ad8d2cf20176e7a8b", "type": "electric_scooter", "bike_id": "9ac9441db577b14ad8d2cf20176e7a8b", "rental_uris": {"ios": "https://dc.lft.to/lastmile_qr_scan", "android": "https://dc.lft.to/lastmile_qr_scan"}, "fusion_lat": 0.0}, {"lat": 38.997794166666665, "lon": -77.04716316666666, "is_disabled": 0, "fusion_lon": 0.0, "is_reserved": 0, "name": "714795ea94c3722128701f15020cb74f", "type": "electric_bike", "bike_id": "714795ea94c3722128701f15020cb74f", "rental_uris": {"ios": "https://dc.lft.to/lastmile_qr_scan", "android": "https://dc.lft.to/lastmile_qr_scan"}, "fusion_lat": 0.0}, {"lat": 38.879241, "lon": -76.98500833333334, "is_disabled": 0, "fusion_lon": 0.0, "is_reserved": 0, "name": "d7927907791607e961485805f542949a", "type": "electric_bike", "bike_id": "d7927907791607e961485805f542949a", "rental_uris": {"ios": "https://dc.lft.to/lastmile_qr_scan", "android": "https://dc.lft.to/lastmile_qr_scan"}, "fusion_lat": 0.0}, {"lat": 38.8947085, "lon": -77.02386733333333, "is_disabled": 0, "fusion_lon": 0.0, "is_reserved": 0, "name": "968642bcb5e6269344a2f5ec0d069ae5", "type": "electric_scooter", "bike_id": "968642bcb5e6269344a2f5ec0d069ae5", "rental_uris": {"ios": "https://dc.lft.to/lastmile_qr_scan", "android": "https://dc.lft.to/lastmile_qr_scan"}, "fusion_lat": 0.0}, {"lat": 38.921218333333336, "lon": -77.23676183333333, "is_disabled": 0, "fusion_lon": 0.0, "is_reserved": 0, "name": "3e7b1de7049a42ee01cb795d92fb4b45", "type": "electric_bike", "bike_id": "3e7b1de7049a42ee01cb795d92fb4b45", "rental_uris": {"ios": "https://dc.lft.to/lastmile_qr_scan", "android": "https://dc.lft.to/lastmile_qr_scan"}, "fusion_lat": 0.0}, {"lat": 38.903529166666665, "lon": -77.0294285, "is_disabled": 0, "fusion_lon": 0.0, "is_reserved": 0, "name": "a18ae179c65fbff36a1f5a2d50f9446d", "type": "electric_scooter", "bike_id": "a18ae179c65fbff36a1f5a2d50f9446d", "rental_uris": {"ios": "https://dc.lft.to/lastmile_qr_scan", "android": "https://dc.lft.to/lastmile_qr_scan"}, "fusion_lat": 0.0},