{"data": {"bikes": [{"bike_id": "245f4823d314922cfd119e0cd1e79923", "is_reserved": 0, "fusion_lon": 0.0, "lat": 38.91960483333333, "is_disabled": 0, "name": "245f4823d314922cfd119e0cd1e79923", "fusion_lat": 0.0, "rental_uris": {"ios": "https://dc.lft.to/lastmile_qr_scan", "android": "https://dc.lft.to/lastmile_qr_scan"}, "lon": -76.97268266666667, "type": "electric_bike"}, {"bike_id": "51eb85d8d0ae5611eaf4b32cdff33d94", "is_reserved": 0, "fusion_lon": 0.0, "lat": 38.89622266666667, "is_disabled": 0, "name": "51eb85d8d0ae5611eaf4b32cdff33d94", "fusion_lat": 0.0, "rental_uris": {"ios": "https://dc.lft.to/lastmile_qr_scan", "android": "https://dc.lft.to/lastmile_qr_scan"}, "lon": -77.00913116666666, "type": "electric_scooter"}, {"bike_id": "ea9cb71cb6528f72a28ff6b46886d809", "is_reserved": 0, "fusion_lon": 0.0, "lat": 38.899854833333336, "is_disabled": 0, "name": "ea9cb71cb6528f72a28ff6b46886d809", "fusion_lat": 0.0, "rental_uris": {"ios": "https://dc.lft.to/lastmile_qr_scan", "android": "https://dc.lft.to/lastmile_qr_scan"}, "lon": -77.03977666666667, "type": "electric_bike"}, {"bike_id": "5754521e2d5aaec9a52977eff533a1a9", "is_reserved": 0, "fusion_lon": 0.0, "lat": 38.90333183333333, "is_disabled": 0, "name": "5754521e2d5aaec9a52977eff533a1a9", "fusion_lat": 0.0, "rental_uris": {"ios": "https://dc.lft.to/lastmile_qr_scan", "android": "https://dc.lft.to/lastmile_qr_scan"}, "lon": -77.038576, "type": "electric_scooter"}, {"bike_id": "eada2b3a75c383330f492ffea700a9d6", "is_reserved": 0, "fusion_lon": 0.0, "lat": 38.90586716666667, "is_disabled": 0, "name": "eada2b3a75c383330f492ffea700a9d6", "fusion_lat": 0.0, "rental_uris": {"ios": "https://dc.lft.to/lastmile_qr_scan", "android": "https://dc.lft.to/lastmile_qr_scan"}, "lon": -77.04671033333334, "type": "electric_scooter"}, {"bike_id": "680187a43adbcf8869b76df8f8d63bf6", "is_reserved": 0, "fusion_lon": 0.0, "lat": 38.92961533333333, "is_disabled": 0, "name": "680187a43adbcf8869b76df8f8d63bf6", "fusion_lat": 0.0, "rental_uris": {"ios": "https://dc.lft.to/lastmile_qr_scan", "android": "https://dc.lft.to/lastmile_qr_scan"}, "lon": -77.22571966666666, "type": "electric_bike"}, {"bike_id": "9d715138efbdcdf097625fecdfbdd9a1", "is_reserved": 0, "fusion_lon": 0.0, "lat": 38.961731666666665, "is_disabled": 0, "name": "9d715138efbdcdf097625fecdfbdd9a1", "fusion_lat": 0.0, "rental_uris": {"ios": "https://dc.lft.to/lastmile_qr_scan", "android": "https://dc.lft.to/lastmile_qr_scan"}, "lon": -76.9959025, "type": "electric_bike"}, {"bike_id": "a529e18a02f430d7e28df3ad99cf275f", "is_reserved": 0, "fusion_lon": 0.0, "lat": 38.9157255, "is_disabled": 0, "name": "a529e18a02f430d7e28df3ad99cf275f", "fusion_lat": 0.0, "rental_uris": {"ios": "https://dc.lft.to/lastmile_qr_scan", "android": "https://dc.lft.to/lastmile_qr_scan"}, "lon": -77.04675983333334, "type": "electric_scooter"}, {"bike_id": "2f5e3d4528fd812bd8069117cd076915", "is_reserved": 0, "fusion_lon": 0.0, "lat": 38.91711083333333, "is_disabled": 0, "name": "2f5e3d4528fd812bd8069117cd076915", "fusion_lat": 0.0, "rental_uris": {"ios": "https://dc.lft.to/lastmile_qr_scan", "android": "https://dc.lft.to/lastmile_qr_scan"}, "lon": -77.023978, "type": "electric_scooter"}, {"bike_id": "b921ee4c46b5a879919d1a44908e8d12", "is_reserved": 0, "fusion_lon": 0.0, "lat": 38.95528766666666, "is_disabled": 0, "name": "b921ee4c46b5a879919d1a44908e8d12", "fusion_lat": 0.0, "rental_uris": {"ios": "https://dc.lft.to/lastmile_qr_scan", "android": "https://dc.lft.to/lastmile_qr_scan"}, "lon": -77.0241255, "type": "electric_bike"}, {"bike_id": "e041ce8ad0d4add43c4778951bc1384f", "is_reserved": 0, "fusion_lon": 0.0, "lat": 38.8619845, "is_disabled": 0, "name": "e041ce8ad0d4add43c4778951bc1384f", "fusion_lat": 0.0, "rental_uris": {"ios": "https://dc.lft.to/lastmile_qr_scan", "android": "https://dc.lft.to/lastmile_qr_scan"}, "lon": -76.99463516666667, "type": "electric_scooter"}, {"bike_id": "697dd6071394052fde92b2ea52918a7b", "is_reserved": 0, "fusion_lon": 0.0, "lat": 38.94949866666666, "is_disabled": 0, "name": "697dd6071394052fde92b2ea52918a7b", "fusion_lat": 0.0, "rental_uris": {"ios": "https://dc.lft.to/lastmile_qr_scan", "android": "https://dc.lft.to/lastmile_qr_scan"}, "lon": -77.01624583333333, "type": "electric_scooter"}, {"bike_id": "1a56d4f963fc1dfadb344bfac9dd8ab4", "is_reserved": 0, "fusion_lon": 0.0, "lat": 38.90088183333334, "is_disabled": 0, "name": "1a56d4f963fc1dfadb344bfac9dd8ab4", "fusion_lat": 0.0, "rental_uris": {"ios": "https://dc.lft.to/lastmile_qr_scan", "android": "https://dc.lft.to/lastmile_qr_scan"}, "lon": -77.04508816666667, "type": "electric_scooter"}, {"bike_id": "08a6f1e41e9ace719c6a3926257fe9d0", "is_reserved": 0, "fusion_lon": 0.0, "lat": 38.9021155, "is_disabled": 0, "name": "08a6f1e41e9ace719c6a3926257fe9d0", "fusion_lat": 0.0, "rental_uris": {"ios": "https://dc.lft.to/lastmile_qr_scan", "android": "https://dc.lft.to/lastmile_qr_scan"}, "lon": -76.94589916666666, "type": "electric_scooter"}, {"bike_id": "5cec7fb270ca6fd4faf17a608edee563", "is_reserved": 0, "fusion_lon": 0.0, "lat": 38.9209745, "is_disabled": 0, "name": "5cec7fb270ca6fd4faf17a608edee563", "fusion_lat": 0.0, "rental_uris": {"ios": "https://dc.lft.to/lastmile_qr_scan", "android": "https://dc.lft.to/lastmile_qr_scan"}, "lon": -77.06333216666667, "type": "electric_scooter"}, {"bike_id": "af08cb9837d9a156df8e697da59a8a16", "is_reserved": 0, "fusion_lon": 0.0, "lat": 38.89905916666667, "is_disabled": 0, "name": "af08cb9837d9a156df8e697da59a8a16", "fusion_lat": 0.0, "rental_uris": {"ios": "https://dc.lft.to/lastmile_qr_scan", "android": "https://dc.lft.to/lastmile_qr_scan"}, "lon": -77.03943283333334, "type": "electric_scooter"}, {"bike_id": "0ded6a814d91492a189e34a3d7d03070", "is_reserved": 0, "fusion_lon": 0.0, "lat": 38.89218733333333, "is_disabled": 0, "name": "0ded6a814d91492a189e34a3d7d03070", "fusion_lat": 0.0, "rental_uris": {"ios": "https://dc.lft.to/lastmile_qr_scan", "android": "https://dc.lft.to/lastmile_qr_scan"}, "lon": -77.0450555, "type": "electric_scooter"}, {"bike_id": "84f9e726e5d4aaa96a5be4509cf22cd2", "is_reserved": 0, "fusion_lon": 0.0, "lat": 38.90975683333333, "is_disabled": 0, "name": "84f9e726e5d4aaa96a5be4509cf22cd2", "fusion_lat": 0.0, "rental_uris": {"ios": "https://dc.lft.to/lastmile_qr_scan", "android": "https://dc.lft.to/lastmile_qr_scan"}, "lon": -77.048715, "type": "electric_scooter"}, {"bike_id": "d04f7f0f3aeaf036154757eb222948c6", "is_reserved": 0, "fusion_lon": 0.0, "lat": 38.88860016666667, "is_disabled": 0, "name": "d04f7f0f3aeaf036154757eb222948c6", "fusion_lat": 0.0, "rental_uris": {"ios": "https://dc.lft.to/lastmile_qr_scan", "android": "https://dc.lft.to/lastmile_qr_scan"}, "lon": -77.0011545, "type": "electric_scooter"}, {"bike_id": "50495381e7c1297aa2e0421218b09df6", "is_reserved": 0, "fusion_lon": 0.0, "lat": 38.90576633333333, "is_disabled": 0, "name": "50495381e7c1297aa2e0421218b09df6", "fusion_lat": 0.0, "rental_uris": {"ios": "https://dc.lft.to/lastmile_qr_scan", "android": "https://dc.lft.to/lastmile_qr_scan"}, "lon": -77.0343975, "type": "electric_scooter"}, {"bike_id": "f761fd386c6be4e6a50d7d13217071f8", "is_reserved": 0, "fusion_lon": 0.0, "lat": 38.909713833333335, "is_disabled": 0, "name": "f761fd386c6be4e6a50d7d13217071f8", "fusion_lat": 0.0, "rental_uris": {"ios": "https://dc.lft.to/lastmile_qr_scan", "android": "https://dc.lft.to/lastmile_qr_scan"}, "lon": -77.04503283333334, "type": "electric_scooter"}, {"bike_id": "f032a81af8e490e34a0a38321923f7cf", "is_reserved": 0, "fusion_lon": 0.0, "lat": 38.90818016666667, "is_disabled": 0, "name": "f032a81af8e490e34a0a38321923f7cf", "fusion_lat": 0.0, "rental_uris": {"ios": "https://dc.lft.to/lastmile_qr_scan", "android": "https://dc.lft.to/lastmile_qr_scan"}, "lon": -77.03459733333334, "type": "electric_scooter"}, {"bike_id": "c36017106a8be396debbeb650f64ced7", "is_reserved": 0, "fusion_lon": 0.0, "lat": 38.933568, "is_disabled": 0, "name": "c36017106a8be396debbeb650f64ced7", "fusion_lat": 0.0, "rental_uris": {"ios": "https://dc.lft.to/lastmile_qr_scan", "android": "https://dc.lft.to/lastmile_qr_scan"}, "lon": -77.06932933333333, "type": "electric_scooter"}, {"bike_id": "0dec6e90dccb219e85c7e17a90c28d6d", "is_reserved": 0, "fusion_lon": 0.0, "lat": 38.902766166666666, "is_disabled": 0, "name": "0dec6e90dccb219e85c7e17a90c28d6d", "fusion_lat": 0.0, "rental_uris": {"ios": "https://dc.lft.to/lastmile_qr_scan", "android": "https://dc.lft.to/lastmile_qr_scan"}, "lon": -77.03851883333333, "type": "electric_scooter"}, {"bike_id": "756dc4dc3dfa7988c6d64cbff51713aa", "is_reserved": 0, "fusion_lon": 0.0, "lat": 38.866635333333335, "is_disabled": 0, "name": "756dc4dc3dfa7988c6d64cbff51713aa", "fusion_lat": 0.0, "rental_uris": {"ios": "https://dc.lft.to/lastmile_qr_scan", "android": "https://dc.lft.to/lastmile_qr_scan"}, "lon": -76.98908866666666, "type": "electric_scooter"}, {"bike_id": "fdaf3eafc77525b0aaf33b5e1b3ba1b4", "is_reserved": 0, "fusion_lon": 0.0, "lat": 38.9203925, "is_disabled": 0, "name": "fdaf3eafc77525b0aaf33b5e1b3ba1b4", "fusion_lat": 0.0, "rental_uris": {"ios": "https://dc.lft.to/lastmile_qr_scan", "android": "https://dc.lft.to/lastmile_qr_scan"}, "lon": -76.979095, "type": "electric_scooter"}, {"bike_id": "4c93a95ac26c7a0b034f73af2c6bb2fe", "is_reserved": 0, "fusion_lon": 0.0, "lat": 38.88489466666667, "is_disabled": 0, "name": "4c93a95ac26c7a0b034f73af2c6bb2fe", "fusion_lat": 0.0, "rental_uris": {"ios": "https://dc.lft.to/lastmile_qr_scan", "android": "https://dc.lft.to/lastmile_qr_scan"}, "lon": -77.00709883333333, "type": "electric_scooter"}, {"bike_id": "605949bef718d13be685a8ed161f6f99", "is_reserved": 0, "fusion_lon": 0.0, "lat": 38.89916066666667, "is_disabled": 0, "name": "605949bef718d13be685a8ed161f6f99", "fusion_lat": 0.0, "rental_uris": {"ios": "https://dc.lft.to/lastmile_qr_scan", "android": "https://dc.lft.to/lastmile_qr_scan"}, "lon": -77.04649716666667, "type": "electric_scooter"}, {"bike_id": "1987da0c48b743017342bdafbe130503", "is_reserved": 0, "fusion_lon": 0.0, "lat": 38.92142233333333, "is_disabled": 0, "name": "1987da0c48b743017342bdafbe130503", "fusion_lat": 0.0, "rental_uris": {"ios": "https://dc.lft.to/lastmile_qr_scan", "android": "https://dc.lft.to/lastmile_qr_scan"}, "lon": -77.03533616666667, "type": "electric_scooter"}, {"bike_id": "d2476f7ef3e956c847b62e60ebde5962", "is_reserved": 0, "fusion_lon": 0.0, "lat": 38.93892016666667, "is_disabled": 0, "name": "d2476f7ef3e956c847b62e60ebde5962", "fusion_lat": 0.0, "rental_uris": {"ios": "https://dc.lft.to/lastmile_qr_scan", "android": "https://dc.lft.to/lastmile_qr_scan"}, "lon": -77.03341083333333, "type": "electric_scooter"}, {"bike_id": "842752fdc87c066142ef4c7f92aaac90", "is_reserved": 0, "fusion_lon": 0.0, "lat": 38.903437833333335, "is_disabled": 0, "name": "842752fdc87c066142ef4c7f92aaac90", "fusion_lat": 0.0, "rental_uris": {"ios": "https://dc.lft.to/lastmile_qr_scan", "android": "https://dc.lft.to/lastmile_qr_scan"}, "lon": -77.0467575, "type": "electric_scooter"}, {"bike_id": "927a0de39e07cc0af71011909a4a39f3", "is_reserved": 0, "fusion_lon": 0.0, "lat": 38.887393833333334, "is_disabled": 0, "name": "927a0de39e07cc0af71011909a4a39f3", "fusion_lat": 0.0, "rental_uris": {"ios": "https://dc.lft.to/lastmile_qr_scan", "android": "https://dc.lft.to/lastmile_qr_scan"}, "lon": -77.01533483333333, "type": "electric_scooter"}, {"bike_id": "153e15ca2d8b52f37fbac1628b27c24e", "is_reserved": 0, "fusion_lon": 0.0, "lat": 38.88499916666667, "is_disabled": 0, "name": "153e15ca2d8b52f37fbac1628b27c24e", "fusion_lat": 0.0, "rental_uris": {"ios": "https://dc.lft.to/lastmile_qr_scan", "android": "https://dc.lft.to/lastmile_qr_scan"}, "lon": -77.00562583333334, "type": "electric_scooter"}, {"bike_id": "b5f5c871b7e29bec487f30e00cdedcef", "is_reserved": 0, "fusion_lon": 0.0, "lat": 38.90345116666667, "is_disabled": 0, "name": "b5f5c871b7e29bec487f30e00cdedcef", "fusion_lat": 0.0, "rental_uris": {"ios": "https://dc.lft.to/lastmile_qr_scan", "android": "https://dc.lft.to/lastmile_qr_scan"}, "lon": -77.03745516666666, "type": "electric_scooter"}, {"bike_id": "6625f2f831c4edcaf5fbd13786775bd7", "is_reserved": 0, "fusion_lon": 0.0, "lat": 38.918522333333335, "is_disabled": 0, "name": "6625f2f831c4edcaf5fbd13786775bd7", "fusion_lat": 0.0, "rental_uris": {"ios": "https://dc.lft.to/lastmile_qr_scan", "android": "https://dc.lft.to/lastmile_qr_scan"}, "lon": -77.02278216666667, "type": "electric_scooter"}, {"bike_id": "b9a091a849cc9edb7140887517e1f5dd", "is_reserved": 0, "fusion_lon": 0.0, "lat": 38.9061775, "is_disabled": 0, "name": "b9a091a849cc9edb7140887517e1f5dd", "fusion_lat": 0.0, "rental_uris": {"ios": "https://dc.lft.to/lastmile_qr_scan", "android": "https://dc.lft.to/lastmile_qr_scan"}, "lon": -77.039691, "type": "electric_scooter"}, {"bike_id": "71c7573759287826f25ed6806807cace", "is_reserved": 0, "fusion_lon": 0.0, "lat": 38.90279116666667, "is_disabled": 0, "name": "71c7573759287826f25ed6806807cace", "fusion_lat": 0.0, "rental_uris": {"ios": "https://dc.lft.to/lastmile_qr_scan", "android": "https://dc.lft.to/lastmile_qr_scan"}, "lon": -77.0386865, "type": "electric_scooter"}, {"bike_id": "b686976182603b587af37f895d793e85", "is_reserved": 0, "fusion_lon": 0.0, "lat": 38.930887166666665, "is_disabled": 0, "name": "b686976182603b587af37f895d793e85", "fusion_lat": 0.0, "rental_uris": {"ios": "https://dc.lft.to/lastmile_qr_scan", "android": "https://dc.lft.to/lastmile_qr_scan"}, "lon": -76.96714533333333, "type": "electric_scooter"}, {"bike_id": "213e7fddc0fc10650967d55a9be662a4", "is_reserved": 0, "fusion_lon": 0.0, "lat": 38.90033966666667, "is_disabled": 0, "name": "213e7fddc0fc10650967d55a9be662a4", "fusion_lat": 0.0, "rental_uris": {"ios": "https://dc.lft.to/lastmile_qr_scan", "android": "https://dc.lft.to/lastmile_qr_scan"}, "lon": -76.995359, "type": "electric_scooter"}, {"bike_id": "74754cb4664ddb88d77a14fef5f8ed00", "is_reserved": 0, "fusion_lon": 0.0, "lat": 39.03044216666667, "is_disabled": 0, "name": "74754cb4664ddb88d77a14fef5f8ed00", "fusion_lat": 0.0, "rental_uris": {"ios": "https://dc.lft.to/lastmile_qr_scan", "android": "https://dc.lft.to/lastmile_qr_scan"}, "lon": -77.09480733333334, "type": "electric_bike"}, {"bike_id": "4d9170fa77388f33e1b0f4bf65ca0081", "is_reserved": 0, "fusion_lon": 0.0, "lat": 38.9207385, "is_disabled": 0, "name": "4d9170fa77388f33e1b0f4bf65ca0081", "fusion_lat": 0.0, "rental_uris": {"ios": "https://dc.lft.to/lastmile_qr_scan", "android": "https://dc.lft.to/lastmile_qr_scan"}, "lon": -77.0239295, "type": "electric_scooter"}, {"bike_id": "63b3cdff58c731970c670b696b073c4d", "is_reserved": 0, "fusion_lon": 0.0, "lat": 38.91659033333333, "is_disabled": 0, "name": "63b3cdff58c731970c670b696b073c4d", "fusion_lat": 0.0, "rental_uris": {"ios": "https://dc.lft.to/lastmile_qr_scan", "android": "https://dc.lft.to/lastmile_qr_scan"}, "lon": -77.02711816666667, "type": "electric_scooter"}, {"bike_id": "1fb6af1ad483dbdf3d20e58aa6f5a6ca", "is_reserved": 0, "fusion_lon": 0.0, "lat": 38.9310795, "is_disabled": 0, "name": "1fb6af1ad483dbdf3d20e58aa6f5a6ca", "fusion_lat": 0.0, "rental_uris": {"ios": "https://dc.lft.to/lastmile_qr_scan", "android": "https://dc.lft.to/lastmile_qr_scan"}, "lon": -77.038412, "type": "electric_scooter"}, {"bike_id": "2d6db98a4e95be018855406ee01b3c27", "is_reserved": 0, "fusion_lon": 0.0, "lat": 38.92479616666667, "is_disabled": 0, "name": "2d6db98a4e95be018855406ee01b3c27", "fusion_lat": 0.0, "rental_uris": {"ios": "https://dc.lft.to/lastmile_qr_scan", "android": "https://dc.lft.to/lastmile_qr_scan"}, "lon": -77.052092, "type": "electric_scooter"}, {"bike_id": "4ef2e6e97d26c24f046ff36530cda4a8", "is_reserved": 0, "fusion_lon": 0.0, "lat": 38.99825933333334, "is_disabled": 0, "name": "4ef2e6e97d26c24f046ff36530cda4a8", "fusion_lat": 0.0, "rental_uris": {"ios": "https://dc.lft.to/lastmile_qr_scan", "android": "https://dc.lft.to/lastmile_qr_scan"}, "lon": -76.883706, "type": "electric_bike"}, {"bike_id": "73445f3417c38e4540380eed3a92f343", "is_reserved": 0, "fusion_lon": 0.0, "lat": 38.901396, "is_disabled": 0, "name": "73445f3417c38e4540380eed3a92f343", "fusion_lat": 0.0, "rental_uris": {"ios": "https://dc.lft.to/lastmile_qr_scan", "android": "https://dc.lft.to/lastmile_qr_scan"}, "lon": -76.9979295, "type": "electric_scooter"}, {"bike_id": "877e9616b35bccb93826d30d621e0aa0", "is_reserved": 0, "fusion_lon": 0.0, "lat": 38.90470883333333, "is_disabled": 0, "name": "877e9616b35bccb93826d30d621e0aa0", "fusion_lat": 0.0, "rental_uris": {"ios": "https://dc.lft.to/lastmile_qr_scan", "android": "https://dc.lft.to/lastmile_qr_scan"}, "lon": -77.06020883333333, "type": "electric_scooter"}, {"bike_id": "608b0932f19547490b9562245c477d5b", "is_reserved": 0, "fusion_lon": 0.0, "lat": 38.896809833333336, "is_disabled": 0, "name": "608b0932f19547490b9562245c477d5b", "fusion_lat": 0.0, "rental_uris": {"ios": "https://dc.lft.to/lastmile_qr_scan", "android": "https://dc.lft.to/lastmile_qr_scan"}, "lon": -76.99625016666667, "type": "electric_scooter"}, {"bike_id": "13d2609c113857a7a0a673f0d6ee1934", "is_reserved": 0, "fusion_lon": 0.0, "lat": 38.90719683333333, "is_disabled": 0, "name": "13d2609c113857a7a0a673f0d6ee1934", "fusion_lat": 0.0, "rental_uris": {"ios": "https://dc.lft.to/lastmile_qr_scan", "android": "https://dc.lft.to/lastmile_qr_scan"}, "lon": -77.00103816666666, "type": "electric_scooter"}, {"bike_id": "b939fe50aac8b7836836d1be04ae3dd7", "is_reserved": 0, "fusion_lon": 0.0, "lat": 38.842922, "is_disabled": 0, "name": "b939fe50aac8b7836836d1be04ae3dd7", "fusion_lat": 0.0, "rental_uris": {"ios": "https://dc.lft.to/lastmile_qr_scan", "android": "https://dc.lft.to/lastmile_qr_scan"}, "lon": -76.99946516666667, "type": "electric_scooter"}, {"bike_id": "3714cc6c0db758e0caf8cfd7dc0d35ed", "is_reserved": 0, "fusion_lon": 0.0, "lat": 38.940530333333335, "is_disabled": 0, "name": "3714cc6c0db758e0caf8cfd7dc0d35ed", "fusion_lat": 0.0, "rental_uris": {"ios": "https://dc.lft.to/lastmile_qr_scan", "android": "https://dc.lft.to/lastmile_qr_scan"}, "lon": -77.0926495, "type": "electric_scooter"}, {"bike_id": "09b7f0614e5a324c9705ca65ebf71f63", "is_reserved": 0, "fusion_lon": 0.0, "lat": 38.916556666666665, "is_disabled": 0, "name": "09b7f0614e5a324c9705ca65ebf71f63", "fusion_lat": 0.0, "rental_uris": {"ios": "https://dc.lft.to/lastmile_qr_scan", "android": "https://dc.lft.to/lastmile_qr_scan"}, "lon": -76.985887, "type": "electric_bike"}, {"bike_id": "235fc16329e7c7db074b0ec58567f957", "is_reserved": 0, "fusion_lon": 0.0, "lat": 38.905475333333335, "is_disabled": 0, "name": "235fc16329e7c7db074b0ec58567f957", "fusion_lat": 0.0, "rental_uris": {"ios": "https://dc.lft.to/lastmile_qr_scan", "android": "https://dc.lft.to/lastmile_qr_scan"}, "lon": -77.0473, "type": "electric_scooter"}, {"bike_id": "000476cc71c0b30dc571a11c5c431aea", "is_reserved": 0, "fusion_lon": 0.0, "lat": 38.900399, "is_disabled": 0, "name": "000476cc71c0b30dc571a11c5c431aea", "fusion_lat": 0.0, "rental_uris": {"ios": "https://dc.lft.to/lastmile_qr_scan", "android": "https://dc.lft.to/lastmile_qr_scan"}, "lon": -77.00210683333333, "type": "electric_scooter"}, {"bike_id": "9219fc42febe00bcf3ab7598159f7c32", "is_reserved": 0, "fusion_lon": 0.0, "lat": 38.91742716666667, "is_disabled": 0, "name": "9219fc42febe00bcf3ab7598159f7c32", "fusion_lat": 0.0, "rental_uris": {"ios": "https://dc.lft.to/lastmile_qr_scan", "android": "https://dc.lft.to/lastmile_qr_scan"}, "lon": -77.00752366666667, "type": "electric_scooter"}, {"bike_id": "361f550519ef536746f4b3980a844aab", "is_reserved": 0, "fusion_lon": 0.0, "lat": 38.9742605, "is_disabled": 0, "name": "361f550519ef536746f4b3980a844aab", "fusion_lat": 0.0, "rental_uris": {"ios": "https://dc.lft.to/lastmile_qr_scan", "android": "https://dc.lft.to/lastmile_qr_scan"}, "lon": -77.01521616666666, "type": "electric_scooter"}, {"bike_id": "2890004833a7c9da4be537957b392712", "is_reserved": 0, "fusion_lon": 0.0, "lat": 38.9033615, "is_disabled": 0, "name": "2890004833a7c9da4be537957b392712", "fusion_lat": 0.0, "rental_uris": {"ios": "https://dc.lft.to/lastmile_qr_scan", "android": "https://dc.lft.to/lastmile_qr_scan"}, "lon": -77.03864133333333, "type": "electric_scooter"}, {"bike_id": "ec600a58283c348f5c7c66fc99bfc886", "is_reserved": 0, "fusion_lon": 0.0, "lat": 38.86711416666667, "is_disabled": 0, "name": "ec600a58283c348f5c7c66fc99bfc886", "fusion_lat": 0.0, "rental_uris": {"ios": "https://dc.lft.to/lastmile_qr_scan", "android": "https://dc.lft.to/lastmile_qr_scan"}, "lon": -76.9872255, "type": "electric_scooter"}, {"bike_id": "5e1a3d204890781cdf1ad30d816ed22a", "is_reserved": 0, "fusion_lon": 0.0, "lat": 38.923655833333335, "is_disabled": 0, "name": "5e1a3d204890781cdf1ad30d816ed22a", "fusion_lat": 0.0, "rental_uris": {"ios": "https://dc.lft.to/lastmile_qr_scan", "android": "https://dc.lft.to/lastmile_qr_scan"}, "lon": -77.01953766666666, "type": "electric_scooter"}, {"bike_id": "611f0369469a067f10eceb0067b97fce", "is_reserved": 0, "fusion_lon": 0.0, "lat": 38.906446833333334, "is_disabled": 0, "name": "611f0369469a067f10eceb0067b97fce", "fusion_lat": 0.0, "rental_uris": {"ios": "https://dc.lft.to/lastmile_qr_scan", "android": "https://dc.lft.to/lastmile_qr_scan"}, "lon": -76.99378733333333, "type": "electric_scooter"}, {"bike_id": "08fd7708ba61869de4202ddf3ec94ab5", "is_reserved": 0, "fusion_lon": 0.0, "lat": 38.89969516666667, "is_disabled": 0, "name": "08fd7708ba61869de4202ddf3ec94ab5", "fusion_lat": 0.0, "rental_uris": {"ios": "https://dc.lft.to/lastmile_qr_scan", "android": "https://dc.lft.to/lastmile_qr_scan"}, "lon": -77.047182, "type": "electric_scooter"}, {"bike_id": "68d61c38892e81d9abf2413760954bdf", "is_reserved": 0, "fusion_lon": 0.0, "lat": 38.90584583333333, "is_disabled": 0, "name": "68d61c38892e81d9abf2413760954bdf", "fusion_lat": 0.0, "rental_uris": {"ios": "https://dc.lft.to/lastmile_qr_scan", "android": "https://dc.lft.to/lastmile_qr_scan"}, "lon": -77.05107383333333, "type": "electric_scooter"}, {"bike_id": "1776591093693f0458bd42908c017571", "is_reserved": 0, "fusion_lon": 0.0, "lat": 38.887371333333334, "is_disabled": 0, "name": "1776591093693f0458bd42908c017571", "fusion_lat": 0.0, "rental_uris": {"ios": "https://dc.lft.to/lastmile_qr_scan", "android": "https://dc.lft.to/lastmile_qr_scan"}, "lon": -77.03177566666666, "type": "electric_scooter"}, {"bike_id": "a67ee41d58e25664b51873cc3c4882df", "is_reserved": 0, "fusion_lon": 0.0, "lat": 38.89559233333333, "is_disabled": 0, "name": "a67ee41d58e25664b51873cc3c4882df", "fusion_lat": 0.0, "rental_uris": {"ios": "https://dc.lft.to/lastmile_qr_scan", "android": "https://dc.lft.to/lastmile_qr_scan"}, "lon": -77.12733666666666, "type": "electric_bike"}, {"bike_id": "4ae1450f685191eaa7bbb0df33821609", "is_reserved": 0, "fusion_lon": 0.0, "lat": 38.8982865, "is_disabled": 0, "name": "4ae1450f685191eaa7bbb0df33821609", "fusion_lat": 0.0, "rental_uris": {"ios": "https://dc.lft.to/lastmile_qr_scan", "android": "https://dc.lft.to/lastmile_qr_scan"}, "lon": -77.05029266666666, "type": "electric_scooter"}, {"bike_id": "49835af1f57aadea57a31551f96eca7b", "is_reserved": 0, "fusion_lon": 0.0, "lat": 38.90120983333333, "is_disabled": 0, "name": "49835af1f57aadea57a31551f96eca7b", "fusion_lat": 0.0, "rental_uris": {"ios": "https://dc.lft.to/lastmile_qr_scan", "android": "https://dc.lft.to/lastmile_qr_scan"}, "lon": -77.043001, "type": "electric_scooter"}, {"bike_id": "599ff65b8609de46c3c8d0af27702764", "is_reserved": 0, "fusion_lon": 0.0, "lat": 38.922630833333336, "is_disabled": 0, "name": "599ff65b8609de46c3c8d0af27702764", "fusion_lat": 0.0, "rental_uris": {"ios": "https://dc.lft.to/lastmile_qr_scan", "android": "https://dc.lft.to/lastmile_qr_scan"}, "lon": -77.04136333333334, "type": "electric_scooter"}, {"bike_id": "a500bd344e57e27c96e14ff69af841b2", "is_reserved": 0, "fusion_lon": 0.0, "lat": 38.902186, "is_disabled": 0, "name": "a500bd344e57e27c96e14ff69af841b2", "fusion_lat": 0.0, "rental_uris": {"ios": "https://dc.lft.to/lastmile_qr_scan", "android": "https://dc.lft.to/lastmile_qr_scan"}, "lon": -76.95053783333333, "type": "electric_bike"}, {"bike_id": "c670e5318ed37bc8ccbde468499e70bd", "is_reserved": 0, "fusion_lon": 0.0, "lat": 38.87611366666667, "is_disabled": 0, "name": "c670e5318ed37bc8ccbde468499e70bd", "fusion_lat": 0.0, "rental_uris": {"ios": "https://dc.lft.to/lastmile_qr_scan", "android": "https://dc.lft.to/lastmile_qr_scan"}, "lon": -77.00709716666667, "type": "electric_scooter"}, {"bike_id": "4983e9909ed8988ec7f8b9379c5877b2", "is_reserved": 0, "fusion_lon": 0.0, "lat": 38.89876316666667, "is_disabled": 0, "name": "4983e9909ed8988ec7f8b9379c5877b2", "fusion_lat": 0.0, "rental_uris": {"ios": "https://dc.lft.to/lastmile_qr_scan", "android": "https://dc.lft.to/lastmile_qr_scan"}, "lon": -76.93160483333334, "type": "electric_scooter"}, {"bike_id": "8fb2f5a9c7ece2e13dd77e2096132560", "is_reserved": 0, "fusion_lon": 0.0, "lat": 38.90606833333333, "is_disabled": 0, "name": "8fb2f5a9c7ece2e13dd77e2096132560", "fusion_lat": 0.0, "rental_uris": {"ios": "https://dc.lft.to/lastmile_qr_scan", "android": "https://dc.lft.to/lastmile_qr_scan"}, "lon": -77.03981083333333, "type": "electric_scooter"}, {"bike_id": "5ecfc0c804ee00b94d723929fc717e48", "is_reserved": 0, "fusion_lon": 0.0, "lat": 38.915235333333335, "is_disabled": 0, "name": "5ecfc0c804ee00b94d723929fc717e48", "fusion_lat": 0.0, "rental_uris": {"ios": "https://dc.lft.to/lastmile_qr_scan", "android": "https://dc.lft.to/lastmile_qr_scan"}, "lon": -77.018425, "type": "electric_scooter"}, {"bike_id": "37a633235c2c7501afa4d9edac006587", "is_reserved": 0, "fusion_lon": 0.0, "lat": 38.920551, "is_disabled": 0, "name": "37a633235c2c7501afa4d9edac006587", "fusion_lat": 0.0, "rental_uris": {"ios": "https://dc.lft.to/lastmile_qr_scan", "android": "https://dc.lft.to/lastmile_qr_scan"}, "lon": -77.0236625, "type": "electric_scooter"}, {"bike_id": "7776d6e6962c150a31b789ca5611672d", "is_reserved": 0, "fusion_lon": 0.0, "lat": 38.909686, "is_disabled": 0, "name": "7776d6e6962c150a31b789ca5611672d", "fusion_lat": 0.0, "rental_uris": {"ios": "https://dc.lft.to/lastmile_qr_scan", "android": "https://dc.lft.to/lastmile_qr_scan"}, "lon": -77.02721866666667, "type": "electric_scooter"}, {"bike_id": "93573f56c1ef17242c6226b2de65f1e3", "is_reserved": 0, "fusion_lon": 0.0, "lat": 38.912103333333334, "is_disabled": 0, "name": "93573f56c1ef17242c6226b2de65f1e3", "fusion_lat": 0.0, "rental_uris": {"ios": "https://dc.lft.to/lastmile_qr_scan", "android": "https://dc.lft.to/lastmile_qr_scan"}, "lon": -77.04870083333333, "type": "electric_scooter"}, {"bike_id": "c2128d02b48888df0946aaf9a137b896", "is_reserved": 0, "fusion_lon": 0.0, "lat": 38.90112466666667, "is_disabled": 0, "name": "c2128d02b48888df0946aaf9a137b896", "fusion_lat": 0.0, "rental_uris": {"ios": "https://dc.lft.to/lastmile_qr_scan", "android": "https://dc.lft.to/lastmile_qr_scan"}, "lon": -77.043686, "type": "electric_scooter"}, {"bike_id": "42b60d7fc9a2d9203cf6380ed18a34c3", "is_reserved": 0, "fusion_lon": 0.0, "lat": 38.91243466666667, "is_disabled": 0, "name": "42b60d7fc9a2d9203cf6380ed18a34c3", "fusion_lat": 0.0, "rental_uris": {"ios": "https://dc.lft.to/lastmile_qr_scan", "android": "https://dc.lft.to/lastmile_qr_scan"}, "lon": -77.01624583333333, "type": "electric_scooter"}, {"bike_id": "ac129636b8b005a07e8ee1b1d23f78c9", "is_reserved": 0, "fusion_lon": 0.0, "lat": 38.912123666666666, "is_disabled": 0, "name": "ac129636b8b005a07e8ee1b1d23f78c9", "fusion_lat": 0.0, "rental_uris": {"ios": "https://dc.lft.to/lastmile_qr_scan", "android": "https://dc.lft.to/lastmile_qr_scan"}, "lon": -77.00460483333333, "type": "electric_scooter"}, {"bike_id": "57cf9ee21d459def1d9f6f9ef4589000", "is_reserved": 0, "fusion_lon": 0.0, "lat": 38.912682333333336, "is_disabled": 0, "name": "57cf9ee21d459def1d9f6f9ef4589000", "fusion_lat": 0.0, "rental_uris": {"ios": "https://dc.lft.to/lastmile_qr_scan", "android": "https://dc.lft.to/lastmile_qr_scan"}, "lon": -77.0221295, "type": "electric_scooter"}, {"bike_id": "f9c4fa1af3664049cbc3a95cf9df90d7", "is_reserved": 0, "fusion_lon": 0.0, "lat": 38.92158116666667, "is_disabled": 0, "name": "f9c4fa1af3664049cbc3a95cf9df90d7", "fusion_lat": 0.0, "rental_uris": {"ios": "https://dc.lft.to/lastmile_qr_scan", "android": "https://dc.lft.to/lastmile_qr_scan"}, "lon": -77.032841, "type": "electric_scooter"}, {"bike_id": "990f6c818f7e0357db0e552501b84de5", "is_reserved": 0, "fusion_lon": 0.0, "lat": 38.94397133333333, "is_disabled": 0, "name": "990f6c818f7e0357db0e552501b84de5", "fusion_lat": 0.0, "rental_uris": {"ios": "https://dc.lft.to/lastmile_qr_scan", "android": "https://dc.lft.to/lastmile_qr_scan"}, "lon": -77.03893366666667, "type": "electric_scooter"}, {"bike_id": "03416650b9e9dea3a3bf8f32ed813fe0", "is_reserved": 0, "fusion_lon": 0.0, "lat": 38.90858216666667, "is_disabled": 0, "name": "03416650b9e9dea3a3bf8f32ed813fe0", "fusion_lat": 0.0, "rental_uris": {"ios": "https://dc.lft.to/lastmile_qr_scan", "android": "https://dc.lft.to/lastmile_qr_scan"}, "lon": -77.04500916666667, "type": "electric_scooter"}, {"bike_id": "0b54fcdab2be665a7f3eb35d79b3096b", "is_reserved": 0, "fusion_lon": 0.0, "lat": 38.88142883333333, "is_disabled": 0, "name": "0b54fcdab2be665a7f3eb35d79b3096b", "fusion_lat": 0.0, "rental_uris": {"ios": "https://dc.lft.to/lastmile_qr_scan", "android": "https://dc.lft.to/lastmile_qr_scan"}, "lon": -77.02741466666667, "type": "electric_scooter"}, {"bike_id": "5ea51b28b3c293a6c3a535e745d0e800", "is_reserved": 0, "fusion_lon": 0.0, "lat": 38.90555633333334, "is_disabled": 0, "name": "5ea51b28b3c293a6c3a535e745d0e800", "fusion_lat": 0.0, "rental_uris": {"ios": "https://dc.lft.to/lastmile_qr_scan", "android": "https://dc.lft.to/lastmile_qr_scan"}, "lon": -77.03975183333333, "type": "electric_scooter"}, {"bike_id": "749e224b297938240838cd76bc4231b5", "is_reserved": 0, "fusion_lon": 0.0, "lat": 38.90463333333334, "is_disabled": 0, "name": "749e224b297938240838cd76bc4231b5", "fusion_lat": 0.0, "rental_uris": {"ios": "https://dc.lft.to/lastmile_qr_scan", "android": "https://dc.lft.to/lastmile_qr_scan"}, "lon": -77.03857266666667, "type": "electric_scooter"}, {"bike_id": "17a9d504f0de1ab9378e9f55791691d5", "is_reserved": 0, "fusion_lon": 0.0, "lat": 38.88765433333333, "is_disabled": 0, "name": "17a9d504f0de1ab9378e9f55791691d5", "fusion_lat": 0.0, "rental_uris": {"ios": "https://dc.lft.to/lastmile_qr_scan", "android": "https://dc.lft.to/lastmile_qr_scan"}, "lon": -77.022282, "type": "electric_scooter"}, {"bike_id": "b4717f4109931521a1263b5c55702789", "is_reserved": 0, "fusion_lon": 0.0, "lat": 38.90811566666667, "is_disabled": 0, "name": "b4717f4109931521a1263b5c55702789", "fusion_lat": 0.0, "rental_uris": {"ios": "https://dc.lft.to/lastmile_qr_scan", "android": "https://dc.lft.to/lastmile_qr_scan"}, "lon": -77.038399, "type": "electric_scooter"}, {"bike_id": "0f89a863feecf58be19840ee812e933d", "is_reserved": 0, "fusion_lon": 0.0, "lat": 38.9026715, "is_disabled": 0, "name": "0f89a863feecf58be19840ee812e933d", "fusion_lat": 0.0, "rental_uris": {"ios": "https://dc.lft.to/lastmile_qr_scan", "android": "https://dc.lft.to/lastmile_qr_scan"}, "lon": -77.04136533333333, "type": "electric_scooter"}, {"bike_id": "26b3273e7f61de33ddfbfd0561d66130", "is_reserved": 0, "fusion_lon": 0.0, "lat": 38.967903166666666, "is_disabled": 0, "name": "26b3273e7f61de33ddfbfd0561d66130", "fusion_lat": 0.0, "rental_uris": {"ios": "https://dc.lft.to/lastmile_qr_scan", "android": "https://dc.lft.to/lastmile_qr_scan"}, "lon": -76.97987083333334, "type": "electric_bike"}, {"bike_id": "222e6802a0d2a3ae34774c0d1b8efd4d", "is_reserved": 0, "fusion_lon": 0.0, "lat": 38.91801816666667, "is_disabled": 0, "name": "222e6802a0d2a3ae34774c0d1b8efd4d", "fusion_lat": 0.0, "rental_uris": {"ios": "https://dc.lft.to/lastmile_qr_scan", "android": "https://dc.lft.to/lastmile_qr_scan"}, "lon": -77.03443116666666, "type": "electric_scooter"}, {"bike_id": "bedebcb4616c0f543bdf343db49b242e", "is_reserved": 0, "fusion_lon": 0.0, "lat": 38.9199565, "is_disabled": 0, "name": "bedebcb4616c0f543bdf343db49b242e", "fusion_lat": 0.0, "rental_uris": {"ios": "https://dc.lft.to/lastmile_qr_scan", "android": "https://dc.lft.to/lastmile_qr_scan"}, "lon": -77.03230216666667, "type": "electric_scooter"}, {"bike_id": "c946b4d6a08386890e81439d15f17bbf", "is_reserved": 0, "fusion_lon": 0.0, "lat": 38.999374833333334, "is_disabled": 0, "name": "c946b4d6a08386890e81439d15f17bbf", "fusion_lat": 0.0, "rental_uris": {"ios": "https://dc.lft.to/lastmile_qr_scan", "android": "https://dc.lft.to/lastmile_qr_scan"}, "lon": -77.0176705, "type": "electric_bike"}, {"bike_id": "3b488eb52b73d184ce53207bb6a8bcef", "is_reserved": 0, "fusion_lon": 0.0, "lat": 38.93981016666667, "is_disabled": 0, "name": "3b488eb52b73d184ce53207bb6a8bcef", "fusion_lat": 0.0, "rental_uris": {"ios": "https://dc.lft.to/lastmile_qr_scan", "android": "https://dc.lft.to/lastmile_qr_scan"}, "lon": -77.02899933333333, "type": "electric_scooter"}, {"bike_id": "594e791e58e398c8104d84ceb739b852", "is_reserved": 0, "fusion_lon": 0.0, "lat": 38.89951666666666, "is_disabled": 0, "name": "594e791e58e398c8104d84ceb739b852", "fusion_lat": 0.0, "rental_uris": {"ios": "https://dc.lft.to/lastmile_qr_scan", "android": "https://dc.lft.to/lastmile_qr_scan"}, "lon": -77.03197066666667, "type": "electric_scooter"}, {"bike_id": "7f599c7c7d18558fbc69c3e4157370f8", "is_reserved": 0, "fusion_lon": 0.0, "lat": 38.924423, "is_disabled": 0, "name": "7f599c7c7d18558fbc69c3e4157370f8", "fusion_lat": 0.0, "rental_uris": {"ios": "https://dc.lft.to/lastmile_qr_scan", "android": "https://dc.lft.to/lastmile_qr_scan"}, "lon": -77.03397283333334, "type": "electric_scooter"}, {"bike_id": "906d3df8ff31cd11c509405f45296150", "is_reserved": 0, "fusion_lon": 0.0, "lat": 38.920477166666664, "is_disabled": 0, "name": "906d3df8ff31cd11c509405f45296150", "fusion_lat": 0.0, "rental_uris": {"ios": "https://dc.lft.to/lastmile_qr_scan", "android": "https://dc.lft.to/lastmile_qr_scan"}, "lon": -77.03393966666667, "type": "electric_scooter"}, {"bike_id": "e7c1027ffe0c5f3178dd612646eca107", "is_reserved": 0, "fusion_lon": 0.0, "lat": 38.90765916666667, "is_disabled": 0, "name": "e7c1027ffe0c5f3178dd612646eca107", "fusion_lat": 0.0, "rental_uris": {"ios": "https://dc.lft.to/lastmile_qr_scan", "android": "https://dc.lft.to/lastmile_qr_scan"}, "lon": -77.06914983333333, "type": "electric_scooter"}, {"bike_id": "8945a543b3e3a2206793ebb74521d326", "is_reserved": 0, "fusion_lon": 0.0, "lat": 38.892209, "is_disabled": 0, "name": "8945a543b3e3a2206793ebb74521d326", "fusion_lat": 0.0, "rental_uris": {"ios": "https://dc.lft.to/lastmile_qr_scan", "android": "https://dc.lft.to/lastmile_qr_scan"}, "lon": -77.03165683333333, "type": "electric_scooter"}, {"bike_id": "b09abe390b8e7f3b467320c879645261", "is_reserved": 0, "fusion_lon": 0.0, "lat": 38.88497666666667, "is_disabled": 0, "name": "b09abe390b8e7f3b467320c879645261", "fusion_lat": 0.0, "rental_uris": {"ios": "https://dc.lft.to/lastmile_qr_scan", "android": "https://dc.lft.to/lastmile_qr_scan"}, "lon": -77.008926, "type": "electric_scooter"}, {"bike_id": "2a1a41442fc2baf861fba5db870e31f0", "is_reserved": 0, "fusion_lon": 0.0, "lat": 38.912117333333335, "is_disabled": 0, "name": "2a1a41442fc2baf861fba5db870e31f0", "fusion_lat": 0.0, "rental_uris": {"ios": "https://dc.lft.to/lastmile_qr_scan", "android": "https://dc.lft.to/lastmile_qr_scan"}, "lon": -77.07601016666666, "type": "electric_scooter"}, {"bike_id": "e74f635abcd7f42fc04189501500605c", "is_reserved": 0, "fusion_lon": 0.0, "lat": 38.922142, "is_disabled": 0, "name": "e74f635abcd7f42fc04189501500605c", "fusion_lat": 0.0, "rental_uris": {"ios": "https://dc.lft.to/lastmile_qr_scan", "android": "https://dc.lft.to/lastmile_qr_scan"}, "lon": -77.04258033333333, "type": "electric_scooter"}, {"bike_id": "a3b1835108c07ec4beb19c0b4927296d", "is_reserved": 0, "fusion_lon": 0.0, "lat": 38.9037685, "is_disabled": 0, "name": "a3b1835108c07ec4beb19c0b4927296d", "fusion_lat": 0.0, "rental_uris": {"ios": "https://dc.lft.to/lastmile_qr_scan", "android": "https://dc.lft.to/lastmile_qr_scan"}, "lon": -77.03630916666667, "type": "electric_scooter"}, {"bike_id": "a38b19fb0a560038638323d78df6078d", "is_reserved": 0, "fusion_lon": 0.0, "lat": 38.8921785, "is_disabled": 0, "name": "a38b19fb0a560038638323d78df6078d", "fusion_lat": 0.0, "rental_uris": {"ios": "https://dc.lft.to/lastmile_qr_scan", "android": "https://dc.lft.to/lastmile_qr_scan"}, "lon": -77.0309475, "type": "electric_scooter"}, {"bike_id": "52913abd2372bdab2561608a4dcbd69f", "is_reserved": 0, "fusion_lon": 0.0, "lat": 38.8975305, "is_disabled": 0, "name": "52913abd2372bdab2561608a4dcbd69f", "fusion_lat": 0.0, "rental_uris": {"ios": "https://dc.lft.to/lastmile_qr_scan", "android": "https://dc.lft.to/lastmile_qr_scan"}, "lon": -77.0502375, "type": "electric_scooter"}, {"bike_id": "84317afa985d7b15b6b0b28d6cd924f9", "is_reserved": 0, "fusion_lon": 0.0, "lat": 38.88431416666667, "is_disabled": 0, "name": "84317afa985d7b15b6b0b28d6cd924f9", "fusion_lat": 0.0, "rental_uris": {"ios": "https://dc.lft.to/lastmile_qr_scan", "android": "https://dc.lft.to/lastmile_qr_scan"}, "lon": -76.95754883333333, "type": "electric_scooter"}, {"bike_id": "40b99d3d4e541168964a47842234bcf3", "is_reserved": 0, "fusion_lon": 0.0, "lat": 38.907483666666664, "is_disabled": 0, "name": "40b99d3d4e541168964a47842234bcf3", "fusion_lat": 0.0, "rental_uris": {"ios": "https://dc.lft.to/lastmile_qr_scan", "android": "https://dc.lft.to/lastmile_qr_scan"}, "lon": -77.03464766666667, "type": "electric_scooter"}, {"bike_id": "32f2cceffd7d41606511b95e84bfccdd", "is_reserved": 0, "fusion_lon": 0.0, "lat": 38.9219045, "is_disabled": 0, "name": "32f2cceffd7d41606511b95e84bfccdd", "fusion_lat": 0.0, "rental_uris": {"ios": "https://dc.lft.to/lastmile_qr_scan", "android": "https://dc.lft.to/lastmile_qr_scan"}, "lon": -77.024108, "type": "electric_scooter"}, {"bike_id": "184deb9f31aed3c42764dcfa807bea79", "is_reserved": 0, "fusion_lon": 0.0, "lat": 38.90533583333333, "is_disabled": 0, "name": "184deb9f31aed3c42764dcfa807bea79", "fusion_lat": 0.0, "rental_uris": {"ios": "https://dc.lft.to/lastmile_qr_scan", "android": "https://dc.lft.to/lastmile_qr_scan"}, "lon": -76.99808633333333, "type": "electric_bike"}, {"bike_id": "8f4ba9ea6a8954b0e09a17bec6d86d92", "is_reserved": 0, "fusion_lon": 0.0, "lat": 38.903481166666666, "is_disabled": 0, "name": "8f4ba9ea6a8954b0e09a17bec6d86d92", "fusion_lat": 0.0, "rental_uris": {"ios": "https://dc.lft.to/lastmile_qr_scan", "android": "https://dc.lft.to/lastmile_qr_scan"}, "lon": -77.03294366666667, "type": "electric_scooter"}, {"bike_id": "460da78ded80d1d87d1a82d2b32180b0", "is_reserved": 0, "fusion_lon": 0.0, "lat": 38.9006365, "is_disabled": 0, "name": "460da78ded80d1d87d1a82d2b32180b0", "fusion_lat": 0.0, "rental_uris": {"ios": "https://dc.lft.to/lastmile_qr_scan", "android": "https://dc.lft.to/lastmile_qr_scan"}, "lon": -76.93385316666667, "type": "electric_scooter"}, {"bike_id": "349e6a5abf5807176998f5eae6d2b893", "is_reserved": 0, "fusion_lon": 0.0, "lat": 38.90444933333333, "is_disabled": 0, "name": "349e6a5abf5807176998f5eae6d2b893", "fusion_lat": 0.0, "rental_uris": {"ios": "https://dc.lft.to/lastmile_qr_scan", "android": "https://dc.lft.to/lastmile_qr_scan"}, "lon": -77.05152583333333, "type": "electric_scooter"}, {"bike_id": "cf9f6f05f45000eaa7243eaaa633e926", "is_reserved": 0, "fusion_lon": 0.0, "lat": 38.8669765, "is_disabled": 0, "name": "cf9f6f05f45000eaa7243eaaa633e926", "fusion_lat": 0.0, "rental_uris": {"ios": "https://dc.lft.to/lastmile_qr_scan", "android": "https://dc.lft.to/lastmile_qr_scan"}, "lon": -76.9871405, "type": "electric_scooter"}, {"bike_id": "ee85e234341c262f2e9cd63cbccfd3be", "is_reserved": 0, "fusion_lon": 0.0, "lat": 38.93109283333333, "is_disabled": 0, "name": "ee85e234341c262f2e9cd63cbccfd3be", "fusion_lat": 0.0, "rental_uris": {"ios": "https://dc.lft.to/lastmile_qr_scan", "android": "https://dc.lft.to/lastmile_qr_scan"}, "lon": -77.0185035, "type": "electric_scooter"}, {"bike_id": "7fdc3e70a22bf3f029cdb1006f1d4bb2", "is_reserved": 0, "fusion_lon": 0.0, "lat": 38.88768983333333, "is_disabled": 0, "name": "7fdc3e70a22bf3f029cdb1006f1d4bb2", "fusion_lat": 0.0, "rental_uris": {"ios": "https://dc.lft.to/lastmile_qr_scan", "android": "https://dc.lft.to/lastmile_qr_scan"}, "lon": -77.02229983333334, "type": "electric_scooter"}, {"bike_id": "0346e0ceb1e302eebf35594d826145a8", "is_reserved": 0, "fusion_lon": 0.0, "lat": 38.990741, "is_disabled": 0, "name": "0346e0ceb1e302eebf35594d826145a8", "fusion_lat": 0.0, "rental_uris": {"ios": "https://dc.lft.to/lastmile_qr_scan", "android": "https://dc.lft.to/lastmile_qr_scan"}, "lon": -76.87471083333334, "type": "electric_bike"}, {"bike_id": "5e0c3bf9e37d198aa23b165ea88afda1", "is_reserved": 0, "fusion_lon": 0.0, "lat": 38.92288283333333, "is_disabled": 0, "name": "5e0c3bf9e37d198aa23b165ea88afda1", "fusion_lat": 0.0, "rental_uris": {"ios": "https://dc.lft.to/lastmile_qr_scan", "android": "https://dc.lft.to/lastmile_qr_scan"}, "lon": -77.02072616666666, "type": "electric_scooter"}, {"bike_id": "a5db5711d5850dfa2e4fea2acb70f1f4", "is_reserved": 0, "fusion_lon": 0.0, "lat": 38.83935783333333, "is_disabled": 0, "name": "a5db5711d5850dfa2e4fea2acb70f1f4", "fusion_lat": 0.0, "rental_uris": {"ios": "https://dc.lft.to/lastmile_qr_scan", "android": "https://dc.lft.to/lastmile_qr_scan"}, "lon": -77.079087, "type": "electric_bike"}, {"bike_id": "3c9657286f89db39699a505586210756", "is_reserved": 0, "fusion_lon": 0.0, "lat": 38.903141, "is_disabled": 0, "name": "3c9657286f89db39699a505586210756", "fusion_lat": 0.0, "rental_uris": {"ios": "https://dc.lft.to/lastmile_qr_scan", "android": "https://dc.lft.to/lastmile_qr_scan"}, "lon": -77.03328633333334, "type": "electric_scooter"}, {"bike_id": "7521c869a8139a25a66ebef243bd2427", "is_reserved": 0, "fusion_lon": 0.0, "lat": 38.88490383333333, "is_disabled": 0, "name": "7521c869a8139a25a66ebef243bd2427", "fusion_lat": 0.0, "rental_uris": {"ios": "https://dc.lft.to/lastmile_qr_scan", "android": "https://dc.lft.to/lastmile_qr_scan"}, "lon": -77.007288, "type": "electric_scooter"}, {"bike_id": "951a64f58b23eb70a4a70672fe95f654", "is_reserved": 0, "fusion_lon": 0.0, "lat": 38.9035845, "is_disabled": 0, "name": "951a64f58b23eb70a4a70672fe95f654", "fusion_lat": 0.0, "rental_uris": {"ios": "https://dc.lft.to/lastmile_qr_scan", "android": "https://dc.lft.to/lastmile_qr_scan"}, "lon": -77.0317145, "type": "electric_scooter"}, {"bike_id": "8d041ec3cd2374551dd9bc95efa654c4", "is_reserved": 0, "fusion_lon": 0.0, "lat": 38.8728965, "is_disabled": 0, "name": "8d041ec3cd2374551dd9bc95efa654c4", "fusion_lat": 0.0, "rental_uris": {"ios": "https://dc.lft.to/lastmile_qr_scan", "android": "https://dc.lft.to/lastmile_qr_scan"}, "lon": -76.97728666666667, "type": "electric_scooter"}, {"bike_id": "043d23a57bbda61faabf63c844ab8e3f", "is_reserved": 0, "fusion_lon": 0.0, "lat": 38.8982465, "is_disabled": 0, "name": "043d23a57bbda61faabf63c844ab8e3f", "fusion_lat": 0.0, "rental_uris": {"ios": "https://dc.lft.to/lastmile_qr_scan", "android": "https://dc.lft.to/lastmile_qr_scan"}, "lon": -77.0334465, "type": "electric_scooter"}, {"bike_id": "f23df22b7b693274d09c81e6110588bd", "is_reserved": 0, "fusion_lon": 0.0, "lat": 38.91714366666667, "is_disabled": 0, "name": "f23df22b7b693274d09c81e6110588bd", "fusion_lat": 0.0, "rental_uris": {"ios": "https://dc.lft.to/lastmile_qr_scan", "android": "https://dc.lft.to/lastmile_qr_scan"}, "lon": -77.032138, "type": "electric_scooter"}, {"bike_id": "339b664ccac325e938dd5557034a2f10", "is_reserved": 0, "fusion_lon": 0.0, "lat": 38.84272833333333, "is_disabled": 0, "name": "339b664ccac325e938dd5557034a2f10", "fusion_lat": 0.0, "rental_uris": {"ios": "https://dc.lft.to/lastmile_qr_scan", "android": "https://dc.lft.to/lastmile_qr_scan"}, "lon": -76.98840883333334, "type": "electric_bike"}, {"bike_id": "52da7d1da63ec7ba655a354b2b14301c", "is_reserved": 0, "fusion_lon": 0.0, "lat": 38.89225233333333, "is_disabled": 0, "name": "52da7d1da63ec7ba655a354b2b14301c", "fusion_lat": 0.0, "rental_uris": {"ios": "https://dc.lft.to/lastmile_qr_scan", "android": "https://dc.lft.to/lastmile_qr_scan"}, "lon": -77.02203533333333, "type": "electric_scooter"}, {"bike_id": "218e767d735fdb252b838b7a5a9c990d", "is_reserved": 0, "fusion_lon": 0.0, "lat": 38.89816066666667, "is_disabled": 0, "name": "218e767d735fdb252b838b7a5a9c990d", "fusion_lat": 0.0, "rental_uris": {"ios": "https://dc.lft.to/lastmile_qr_scan", "android": "https://dc.lft.to/lastmile_qr_scan"}, "lon": -77.03308683333333, "type": "electric_scooter"}, {"bike_id": "a39b988029d1c44c4e0f7ff0c137312f", "is_reserved": 0, "fusion_lon": 0.0, "lat": 38.88039, "is_disabled": 0, "name": "a39b988029d1c44c4e0f7ff0c137312f", "fusion_lat": 0.0, "rental_uris": {"ios": "https://dc.lft.to/lastmile_qr_scan", "android": "https://dc.lft.to/lastmile_qr_scan"}, "lon": -77.01323666666667, "type": "electric_bike"}, {"bike_id": "764e1f915685d443f693dbd858cb67c0", "is_reserved": 0, "fusion_lon": 0.0, "lat": 38.96755666666667, "is_disabled": 0, "name": "764e1f915685d443f693dbd858cb67c0", "fusion_lat": 0.0, "rental_uris": {"ios": "https://dc.lft.to/lastmile_qr_scan", "android": "https://dc.lft.to/lastmile_qr_scan"}, "lon": -77.0916665, "type": "electric_bike"}, {"bike_id": "b6c0f976bfb1b7a9cd52fda3102be127", "is_reserved": 0, "fusion_lon": 0.0, "lat": 38.89222516666667, "is_disabled": 0, "name": "b6c0f976bfb1b7a9cd52fda3102be127", "fusion_lat": 0.0, "rental_uris": {"ios": "https://dc.lft.to/lastmile_qr_scan", "android": "https://dc.lft.to/lastmile_qr_scan"}, "lon": -77.033376, "type": "electric_scooter"}, {"bike_id": "35eeb80abbf9254ce456de4c2d0ffadb", "is_reserved": 0, "fusion_lon": 0.0, "lat": 38.9063395, "is_disabled": 0, "name": "35eeb80abbf9254ce456de4c2d0ffadb", "fusion_lat": 0.0, "rental_uris": {"ios": "https://dc.lft.to/lastmile_qr_scan", "android": "https://dc.lft.to/lastmile_qr_scan"}, "lon": -77.03859266666667, "type": "electric_scooter"}, {"bike_id": "575c6c6beb0daece5641d7c264cc04bd", "is_reserved": 0, "fusion_lon": 0.0, "lat": 38.91571, "is_disabled": 0, "name": "575c6c6beb0daece5641d7c264cc04bd", "fusion_lat": 0.0, "rental_uris": {"ios": "https://dc.lft.to/lastmile_qr_scan", "android": "https://dc.lft.to/lastmile_qr_scan"}, "lon": -77.0318745, "type": "electric_scooter"}, {"bike_id": "9dbc440600068b59b719bf7739a2c3db", "is_reserved": 0, "fusion_lon": 0.0, "lat": 38.90311066666666, "is_disabled": 0, "name": "9dbc440600068b59b719bf7739a2c3db", "fusion_lat": 0.0, "rental_uris": {"ios": "https://dc.lft.to/lastmile_qr_scan", "android": "https://dc.lft.to/lastmile_qr_scan"}, "lon": -77.02580016666667, "type": "electric_scooter"}, {"bike_id": "7d9bd779bca04a9aab837a029ef7a3f9", "is_reserved": 0, "fusion_lon": 0.0, "lat": 38.926406166666666, "is_disabled": 0, "name": "7d9bd779bca04a9aab837a029ef7a3f9", "fusion_lat": 0.0, "rental_uris": {"ios": "https://dc.lft.to/lastmile_qr_scan", "android": "https://dc.lft.to/lastmile_qr_scan"}, "lon": -77.021494, "type": "electric_scooter"}, {"bike_id": "9304982efc73a782583624c725a56816", "is_reserved": 0, "fusion_lon": 0.0, "lat": 38.913358333333335, "is_disabled": 0, "name": "9304982efc73a782583624c725a56816", "fusion_lat": 0.0, "rental_uris": {"ios": "https://dc.lft.to/lastmile_qr_scan", "android": "https://dc.lft.to/lastmile_qr_scan"}, "lon": -77.03444283333333, "type": "electric_scooter"}, {"bike_id": "c5bb476c948091f6c59addff05ac0e4b", "is_reserved": 0, "fusion_lon": 0.0, "lat": 38.90427966666667, "is_disabled": 0, "name": "c5bb476c948091f6c59addff05ac0e4b", "fusion_lat": 0.0, "rental_uris": {"ios": "https://dc.lft.to/lastmile_qr_scan", "android": "https://dc.lft.to/lastmile_qr_scan"}, "lon": -77.02949133333334, "type": "electric_scooter"}, {"bike_id": "3b2f8b8c7b9d45b2619d67dc79ad604c", "is_reserved": 0, "fusion_lon": 0.0, "lat": 38.901122666666666, "is_disabled": 0, "name": "3b2f8b8c7b9d45b2619d67dc79ad604c", "fusion_lat": 0.0, "rental_uris": {"ios": "https://dc.lft.to/lastmile_qr_scan", "android": "https://dc.lft.to/lastmile_qr_scan"}, "lon": -77.04390416666666, "type": "electric_scooter"}, {"bike_id": "ab0af974f9e97a40cfde66cd46fcd4ad", "is_reserved": 0, "fusion_lon": 0.0, "lat": 38.917592, "is_disabled": 0, "name": "ab0af974f9e97a40cfde66cd46fcd4ad", "fusion_lat": 0.0, "rental_uris": {"ios": "https://dc.lft.to/lastmile_qr_scan", "android": "https://dc.lft.to/lastmile_qr_scan"}, "lon": -77.016073, "type": "electric_scooter"}, {"bike_id": "6e43b2bb48aa42ac31dee0eff6dcc751", "is_reserved": 0, "fusion_lon": 0.0, "lat": 38.86162383333333, "is_disabled": 0, "name": "6e43b2bb48aa42ac31dee0eff6dcc751", "fusion_lat": 0.0, "rental_uris": {"ios": "https://dc.lft.to/lastmile_qr_scan", "android": "https://dc.lft.to/lastmile_qr_scan"}, "lon": -77.13094833333334, "type": "electric_bike"}, {"bike_id": "0a14ad541a0ce74dbaf74bcebb86a42a", "is_reserved": 0, "fusion_lon": 0.0, "lat": 38.89616483333333, "is_disabled": 0, "name": "0a14ad541a0ce74dbaf74bcebb86a42a", "fusion_lat": 0.0, "rental_uris": {"ios": "https://dc.lft.to/lastmile_qr_scan", "android": "https://dc.lft.to/lastmile_qr_scan"}, "lon": -76.99572666666667, "type": "electric_scooter"}, {"bike_id": "e65fc59b463840d23a12d5d754e11fc8", "is_reserved": 0, "fusion_lon": 0.0, "lat": 38.89537766666667, "is_disabled": 0, "name": "e65fc59b463840d23a12d5d754e11fc8", "fusion_lat": 0.0, "rental_uris": {"ios": "https://dc.lft.to/lastmile_qr_scan", "android": "https://dc.lft.to/lastmile_qr_scan"}, "lon": -76.98079116666666, "type": "electric_scooter"}, {"bike_id": "41247fa6ca8b76706f1bd48af8a8dd62", "is_reserved": 0, "fusion_lon": 0.0, "lat": 38.90639616666667, "is_disabled": 0, "name": "41247fa6ca8b76706f1bd48af8a8dd62", "fusion_lat": 0.0, "rental_uris": {"ios": "https://dc.lft.to/lastmile_qr_scan", "android": "https://dc.lft.to/lastmile_qr_scan"}, "lon": -77.0466175, "type": "electric_scooter"}, {"bike_id": "e484f95447dde203a2628c1e83a7dc22", "is_reserved": 0, "fusion_lon": 0.0, "lat": 38.92366466666667, "is_disabled": 0, "name": "e484f95447dde203a2628c1e83a7dc22", "fusion_lat": 0.0, "rental_uris": {"ios": "https://dc.lft.to/lastmile_qr_scan", "android": "https://dc.lft.to/lastmile_qr_scan"}, "lon": -77.04129816666666, "type": "electric_scooter"}, {"bike_id": "147ce8171cf82a39e1aeb2d1e9949bdc", "is_reserved": 0, "fusion_lon": 0.0, "lat": 38.88025116666667, "is_disabled": 0, "name": "147ce8171cf82a39e1aeb2d1e9949bdc", "fusion_lat": 0.0, "rental_uris": {"ios": "https://dc.lft.to/lastmile_qr_scan", "android": "https://dc.lft.to/lastmile_qr_scan"}, "lon": -77.00244933333333, "type": "electric_scooter"}, {"bike_id": "4d0bd8d3551bd9de001920d38894942b", "is_reserved": 0, "fusion_lon": 0.0, "lat": 38.89531433333333, "is_disabled": 0, "name": "4d0bd8d3551bd9de001920d38894942b", "fusion_lat": 0.0, "rental_uris": {"ios": "https://dc.lft.to/lastmile_qr_scan", "android": "https://dc.lft.to/lastmile_qr_scan"}, "lon": -77.033521, "type": "electric_scooter"}, {"bike_id": "35f7b3ca33292ebaad1a277a7d106b87", "is_reserved": 0, "fusion_lon": 0.0, "lat": 38.884071666666664, "is_disabled": 0, "name": "35f7b3ca33292ebaad1a277a7d106b87", "fusion_lat": 0.0, "rental_uris": {"ios": "https://dc.lft.to/lastmile_qr_scan", "android": "https://dc.lft.to/lastmile_qr_scan"}, "lon": -77.0259915, "type": "electric_scooter"}, {"bike_id": "bd60cd4c62acd25401452a154ff74d78", "is_reserved": 0, "fusion_lon": 0.0, "lat": 38.892294666666665, "is_disabled": 0, "name": "bd60cd4c62acd25401452a154ff74d78", "fusion_lat": 0.0, "rental_uris": {"ios": "https://dc.lft.to/lastmile_qr_scan", "android": "https://dc.lft.to/lastmile_qr_scan"}, "lon": -77.02177166666667, "type": "electric_scooter"}, {"bike_id": "203c598605a334eefc43ebad9cb27a8f", "is_reserved": 0, "fusion_lon": 0.0, "lat": 38.8962345, "is_disabled": 0, "name": "203c598605a334eefc43ebad9cb27a8f", "fusion_lat": 0.0, "rental_uris": {"ios": "https://dc.lft.to/lastmile_qr_scan", "android": "https://dc.lft.to/lastmile_qr_scan"}, "lon": -76.998465, "type": "electric_scooter"}, {"bike_id": "82fa5e536854dca5fdcc0649dd83aa64", "is_reserved": 0, "fusion_lon": 0.0, "lat": 38.917137, "is_disabled": 0, "name": "82fa5e536854dca5fdcc0649dd83aa64", "fusion_lat": 0.0, "rental_uris": {"ios": "https://dc.lft.to/lastmile_qr_scan", "android": "https://dc.lft.to/lastmile_qr_scan"}, "lon": -77.031963, "type": "electric_scooter"}, {"bike_id": "f87e7515134084568de5ed8db85ff588", "is_reserved": 0, "fusion_lon": 0.0, "lat": 38.86827733333333, "is_disabled": 0, "name": "f87e7515134084568de5ed8db85ff588", "fusion_lat": 0.0, "rental_uris": {"ios": "https://dc.lft.to/lastmile_qr_scan", "android": "https://dc.lft.to/lastmile_qr_scan"}, "lon": -76.98611266666667, "type": "electric_scooter"}, {"bike_id": "5cc4f0814eb96e7e48cbfe898e17d492", "is_reserved": 0, "fusion_lon": 0.0, "lat": 39.05633733333333, "is_disabled": 0, "name": "5cc4f0814eb96e7e48cbfe898e17d492", "fusion_lat": 0.0, "rental_uris": {"ios": "https://dc.lft.to/lastmile_qr_scan", "android": "https://dc.lft.to/lastmile_qr_scan"}, "lon": -77.12528533333334, "type": "electric_bike"}, {"bike_id": "a76f8134810521185793ac1cacb6eff5", "is_reserved": 0, "fusion_lon": 0.0, "lat": 38.945379833333334, "is_disabled": 0, "name": "a76f8134810521185793ac1cacb6eff5", "fusion_lat": 0.0, "rental_uris": {"ios": "https://dc.lft.to/lastmile_qr_scan", "android": "https://dc.lft.to/lastmile_qr_scan"}, "lon": -77.02211983333333, "type": "electric_scooter"}, {"bike_id": "82c122cb5a95ea0beebf79d03bf66a32", "is_reserved": 0, "fusion_lon": 0.0, "lat": 38.906370333333335, "is_disabled": 0, "name": "82c122cb5a95ea0beebf79d03bf66a32", "fusion_lat": 0.0, "rental_uris": {"ios": "https://dc.lft.to/lastmile_qr_scan", "android": "https://dc.lft.to/lastmile_qr_scan"}, "lon": -77.011441, "type": "electric_scooter"}, {"bike_id": "2596dd029f63c8b2fce9d98176e4a9ff", "is_reserved": 0, "fusion_lon": 0.0, "lat": 38.912090666666664, "is_disabled": 0, "name": "2596dd029f63c8b2fce9d98176e4a9ff", "fusion_lat": 0.0, "rental_uris": {"ios": "https://dc.lft.to/lastmile_qr_scan", "android": "https://dc.lft.to/lastmile_qr_scan"}, "lon": -77.0487235, "type": "electric_scooter"}, {"bike_id": "524387e9c590db1b4bb35a9060b1317f", "is_reserved": 0, "fusion_lon": 0.0, "lat": 38.9028265, "is_disabled": 0, "name": "524387e9c590db1b4bb35a9060b1317f", "fusion_lat": 0.0, "rental_uris": {"ios": "https://dc.lft.to/lastmile_qr_scan", "android": "https://dc.lft.to/lastmile_qr_scan"}, "lon": -77.0365895, "type": "electric_scooter"}, {"bike_id": "599f03213100c17fadad4809a38a53ff", "is_reserved": 0, "fusion_lon": 0.0, "lat": 38.887224833333335, "is_disabled": 0, "name": "599f03213100c17fadad4809a38a53ff", "fusion_lat": 0.0, "rental_uris": {"ios": "https://dc.lft.to/lastmile_qr_scan", "android": "https://dc.lft.to/lastmile_qr_scan"}, "lon": -77.13316483333334, "type": "electric_bike"}, {"bike_id": "70bb5b15f10147c6cf18a3b9dff15a92", "is_reserved": 0, "fusion_lon": 0.0, "lat": 38.824471333333335, "is_disabled": 0, "name": "70bb5b15f10147c6cf18a3b9dff15a92", "fusion_lat": 0.0, "rental_uris": {"ios": "https://dc.lft.to/lastmile_qr_scan", "android": "https://dc.lft.to/lastmile_qr_scan"}, "lon": -77.07041433333333, "type": "electric_bike"}, {"bike_id": "8fdcb257aba30d206e67cb01c1123cd3", "is_reserved": 0, "fusion_lon": 0.0, "lat": 38.8838325, "is_disabled": 0, "name": "8fdcb257aba30d206e67cb01c1123cd3", "fusion_lat": 0.0, "rental_uris": {"ios": "https://dc.lft.to/lastmile_qr_scan", "android": "https://dc.lft.to/lastmile_qr_scan"}, "lon": -76.94924216666666, "type": "electric_scooter"}, {"bike_id": "709061436caefa503ec9c9f4a3048990", "is_reserved": 0, "fusion_lon": 0.0, "lat": 38.91857383333333, "is_disabled": 0, "name": "709061436caefa503ec9c9f4a3048990", "fusion_lat": 0.0, "rental_uris": {"ios": "https://dc.lft.to/lastmile_qr_scan", "android": "https://dc.lft.to/lastmile_qr_scan"}, "lon": -76.96092733333333, "type": "electric_bike"}, {"bike_id": "45b5fd5d32d81d12cd18c801a2b0326a", "is_reserved": 0, "fusion_lon": 0.0, "lat": 38.9293775, "is_disabled": 0, "name": "45b5fd5d32d81d12cd18c801a2b0326a", "fusion_lat": 0.0, "rental_uris": {"ios": "https://dc.lft.to/lastmile_qr_scan", "android": "https://dc.lft.to/lastmile_qr_scan"}, "lon": -77.01965433333334, "type": "electric_scooter"}, {"bike_id": "aecefb12bb177aae8e78d3af08202326", "is_reserved": 0, "fusion_lon": 0.0, "lat": 38.8924575, "is_disabled": 0, "name": "aecefb12bb177aae8e78d3af08202326", "fusion_lat": 0.0, "rental_uris": {"ios": "https://dc.lft.to/lastmile_qr_scan", "android": "https://dc.lft.to/lastmile_qr_scan"}, "lon": -77.0318125, "type": "electric_scooter"}, {"bike_id": "087326786ac94fed3272e9eba55aae2a", "is_reserved": 0, "fusion_lon": 0.0, "lat": 38.906776, "is_disabled": 0, "name": "087326786ac94fed3272e9eba55aae2a", "fusion_lat": 0.0, "rental_uris": {"ios": "https://dc.lft.to/lastmile_qr_scan", "android": "https://dc.lft.to/lastmile_qr_scan"}, "lon": -77.04497983333333, "type": "electric_scooter"}, {"bike_id": "56bb95f10607e66ca03ca22582a645d3", "is_reserved": 0, "fusion_lon": 0.0, "lat": 38.90662966666667, "is_disabled": 0, "name": "56bb95f10607e66ca03ca22582a645d3", "fusion_lat": 0.0, "rental_uris": {"ios": "https://dc.lft.to/lastmile_qr_scan", "android": "https://dc.lft.to/lastmile_qr_scan"}, "lon": -77.04496833333333, "type": "electric_scooter"}, {"bike_id": "5bab1c9230e2e744d8a5222f584e0b17", "is_reserved": 0, "fusion_lon": 0.0, "lat": 38.880034, "is_disabled": 0, "name": "5bab1c9230e2e744d8a5222f584e0b17", "fusion_lat": 0.0, "rental_uris": {"ios": "https://dc.lft.to/lastmile_qr_scan", "android": "https://dc.lft.to/lastmile_qr_scan"}, "lon": -76.91595216666667, "type": "electric_bike"}, {"bike_id": "acaa12ffc034b1f075dfc60e28835884", "is_reserved": 0, "fusion_lon": 0.0, "lat": 38.91767883333333, "is_disabled": 0, "name": "acaa12ffc034b1f075dfc60e28835884", "fusion_lat": 0.0, "rental_uris": {"ios": "https://dc.lft.to/lastmile_qr_scan", "android": "https://dc.lft.to/lastmile_qr_scan"}, "lon": -77.02316166666667, "type": "electric_scooter"}, {"bike_id": "64bb5b8e96b11ce0931051afaa26a8c4", "is_reserved": 0, "fusion_lon": 0.0, "lat": 38.9555125, "is_disabled": 0, "name": "64bb5b8e96b11ce0931051afaa26a8c4", "fusion_lat": 0.0, "rental_uris": {"ios": "https://dc.lft.to/lastmile_qr_scan", "android": "https://dc.lft.to/lastmile_qr_scan"}, "lon": -76.94011583333334, "type": "electric_bike"}, {"bike_id": "ed10574ba1c2920ced2b31d67cf38e0e", "is_reserved": 0, "fusion_lon": 0.0, "lat": 38.905754333333334, "is_disabled": 0, "name": "ed10574ba1c2920ced2b31d67cf38e0e", "fusion_lat": 0.0, "rental_uris": {"ios": "https://dc.lft.to/lastmile_qr_scan", "android": "https://dc.lft.to/lastmile_qr_scan"}, "lon": -77.01857433333333, "type": "electric_scooter"}, {"bike_id": "b2deffe9addd65cad2b483295f19af00", "is_reserved": 0, "fusion_lon": 0.0, "lat": 38.90417766666667, "is_disabled": 0, "name": "b2deffe9addd65cad2b483295f19af00", "fusion_lat": 0.0, "rental_uris": {"ios": "https://dc.lft.to/lastmile_qr_scan", "android": "https://dc.lft.to/lastmile_qr_scan"}, "lon": -77.029564, "type": "electric_scooter"}, {"bike_id": "c4283407e8c7e931ee5fef9858bb007e", "is_reserved": 0, "fusion_lon": 0.0, "lat": 38.923519166666665, "is_disabled": 0, "name": "c4283407e8c7e931ee5fef9858bb007e", "fusion_lat": 0.0, "rental_uris": {"ios": "https://dc.lft.to/lastmile_qr_scan", "android": "https://dc.lft.to/lastmile_qr_scan"}, "lon": -77.04149183333334, "type": "electric_scooter"}, {"bike_id": "7f1f779dd9d9551bd1292cd8ac8ee82c", "is_reserved": 0, "fusion_lon": 0.0, "lat": 38.908086, "is_disabled": 0, "name": "7f1f779dd9d9551bd1292cd8ac8ee82c", "fusion_lat": 0.0, "rental_uris": {"ios": "https://dc.lft.to/lastmile_qr_scan", "android": "https://dc.lft.to/lastmile_qr_scan"}, "lon": -77.036573, "type": "electric_scooter"}, {"bike_id": "f588ffc2a5ee49db5954da538217694b", "is_reserved": 0, "fusion_lon": 0.0, "lat": 38.90468583333333, "is_disabled": 0, "name": "f588ffc2a5ee49db5954da538217694b", "fusion_lat": 0.0, "rental_uris": {"ios": "https://dc.lft.to/lastmile_qr_scan", "android": "https://dc.lft.to/lastmile_qr_scan"}, "lon": -77.04680066666667, "type": "electric_scooter"}, {"bike_id": "eb196d0cc91fc7c5f1e0bbeedf5f0537", "is_reserved": 0, "fusion_lon": 0.0, "lat": 38.894804, "is_disabled": 0, "name": "eb196d0cc91fc7c5f1e0bbeedf5f0537", "fusion_lat": 0.0, "rental_uris": {"ios": "https://dc.lft.to/lastmile_qr_scan", "android": "https://dc.lft.to/lastmile_qr_scan"}, "lon": -76.99538433333333, "type": "electric_scooter"}, {"bike_id": "28f3e51f8704fd1423d0326be0de22b6", "is_reserved": 0, "fusion_lon": 0.0, "lat": 38.90520333333333, "is_disabled": 0, "name": "28f3e51f8704fd1423d0326be0de22b6", "fusion_lat": 0.0, "rental_uris": {"ios": "https://dc.lft.to/lastmile_qr_scan", "android": "https://dc.lft.to/lastmile_qr_scan"}, "lon": -77.06529983333333, "type": "electric_scooter"}, {"bike_id": "755d56de76a3555c7d23f33533d9cdcb", "is_reserved": 0, "fusion_lon": 0.0, "lat": 38.88404333333333, "is_disabled": 0, "name": "755d56de76a3555c7d23f33533d9cdcb", "fusion_lat": 0.0, "rental_uris": {"ios": "https://dc.lft.to/lastmile_qr_scan", "android": "https://dc.lft.to/lastmile_qr_scan"}, "lon": -77.01755483333334, "type": "electric_scooter"}, {"bike_id": "3f2fc34e9d0eea9d5bf5d8d12f167d5c", "is_reserved": 0, "fusion_lon": 0.0, "lat": 38.897706166666666, "is_disabled": 0, "name": "3f2fc34e9d0eea9d5bf5d8d12f167d5c", "fusion_lat": 0.0, "rental_uris": {"ios": "https://dc.lft.to/lastmile_qr_scan", "android": "https://dc.lft.to/lastmile_qr_scan"}, "lon": -77.03194083333334, "type": "electric_scooter"}, {"bike_id": "527aacabcb7de7f8b5a7117e2e8e11ab", "is_reserved": 0, "fusion_lon": 0.0, "lat": 38.90729116666667, "is_disabled": 0, "name": "527aacabcb7de7f8b5a7117e2e8e11ab", "fusion_lat": 0.0, "rental_uris": {"ios": "https://dc.lft.to/lastmile_qr_scan", "android": "https://dc.lft.to/lastmile_qr_scan"}, "lon": -77.03050366666666, "type": "electric_scooter"}, {"bike_id": "2616a1e111eedabd142d2b252102ec0f", "is_reserved": 0, "fusion_lon": 0.0, "lat": 38.90011966666667, "is_disabled": 0, "name": "2616a1e111eedabd142d2b252102ec0f", "fusion_lat": 0.0, "rental_uris": {"ios": "https://dc.lft.to/lastmile_qr_scan", "android": "https://dc.lft.to/lastmile_qr_scan"}, "lon": -77.03014333333333, "type": "electric_scooter"}, {"bike_id": "a553f3f004cb32f47ea47015e74e6d2a", "is_reserved": 0, "fusion_lon": 0.0, "lat": 38.905263166666664, "is_disabled": 0, "name": "a553f3f004cb32f47ea47015e74e6d2a", "fusion_lat": 0.0, "rental_uris": {"ios": "https://dc.lft.to/lastmile_qr_scan", "android": "https://dc.lft.to/lastmile_qr_scan"}, "lon": -77.05955716666666, "type": "electric_bike"}, {"bike_id": "d7a01d501a746be081570abd82d3f0a2", "is_reserved": 0, "fusion_lon": 0.0, "lat": 38.86286716666667, "is_disabled": 0, "name": "d7a01d501a746be081570abd82d3f0a2", "fusion_lat": 0.0, "rental_uris": {"ios": "https://dc.lft.to/lastmile_qr_scan", "android": "https://dc.lft.to/lastmile_qr_scan"}, "lon": -76.9923765, "type": "electric_scooter"}, {"bike_id": "9375d43d31a62e3db30c0deab4dc849c", "is_reserved": 0, "fusion_lon": 0.0, "lat": 38.94179283333333, "is_disabled": 0, "name": "9375d43d31a62e3db30c0deab4dc849c", "fusion_lat": 0.0, "rental_uris": {"ios": "https://dc.lft.to/lastmile_qr_scan", "android": "https://dc.lft.to/lastmile_qr_scan"}, "lon": -77.0252705, "type": "electric_scooter"}, {"bike_id": "37c0d46b514de15630c2bf63811f4f5b", "is_reserved": 0, "fusion_lon": 0.0, "lat": 38.92418133333334, "is_disabled": 0, "name": "37c0d46b514de15630c2bf63811f4f5b", "fusion_lat": 0.0, "rental_uris": {"ios": "https://dc.lft.to/lastmile_qr_scan", "android": "https://dc.lft.to/lastmile_qr_scan"}, "lon": -77.019478, "type": "electric_scooter"}, {"bike_id": "29e2694c67ebb4f333ba3aa0eb148d86", "is_reserved": 0, "fusion_lon": 0.0, "lat": 38.923560333333334, "is_disabled": 0, "name": "29e2694c67ebb4f333ba3aa0eb148d86", "fusion_lat": 0.0, "rental_uris": {"ios": "https://dc.lft.to/lastmile_qr_scan", "android": "https://dc.lft.to/lastmile_qr_scan"}, "lon": -77.05239166666667, "type": "electric_scooter"}, {"bike_id": "f851bc1ac70153884c6f07d3658ec153", "is_reserved": 0, "fusion_lon": 0.0, "lat": 38.9061005, "is_disabled": 0, "name": "f851bc1ac70153884c6f07d3658ec153", "fusion_lat": 0.0, "rental_uris": {"ios": "https://dc.lft.to/lastmile_qr_scan", "android": "https://dc.lft.to/lastmile_qr_scan"}, "lon": -77.07487033333334, "type": "electric_scooter"}, {"bike_id": "e53f5976b64805185ae9d7ed8e6a5155", "is_reserved": 0, "fusion_lon": 0.0, "lat": 39.03883316666667, "is_disabled": 0, "name": "e53f5976b64805185ae9d7ed8e6a5155", "fusion_lat": 0.0, "rental_uris": {"ios": "https://dc.lft.to/lastmile_qr_scan", "android": "https://dc.lft.to/lastmile_qr_scan"}, "lon": -76.99042116666666, "type": "electric_bike"}, {"bike_id": "c5383686cfa64be8c3e2c8fee3926a9b", "is_reserved": 0, "fusion_lon": 0.0, "lat": 38.8876975, "is_disabled": 0, "name": "c5383686cfa64be8c3e2c8fee3926a9b", "fusion_lat": 0.0, "rental_uris": {"ios": "https://dc.lft.to/lastmile_qr_scan", "android": "https://dc.lft.to/lastmile_qr_scan"}, "lon": -77.030161, "type": "electric_scooter"}, {"bike_id": "e0185d85a85517776e79c60c9e3e7ad2", "is_reserved": 0, "fusion_lon": 0.0, "lat": 38.89221, "is_disabled": 0, "name": "e0185d85a85517776e79c60c9e3e7ad2", "fusion_lat": 0.0, "rental_uris": {"ios": "https://dc.lft.to/lastmile_qr_scan", "android": "https://dc.lft.to/lastmile_qr_scan"}, "lon": -77.02445316666666, "type": "electric_scooter"}, {"bike_id": "5e98d5c63e908148b51b7add51d6ef7f", "is_reserved": 0, "fusion_lon": 0.0, "lat": 38.9095795, "is_disabled": 0, "name": "5e98d5c63e908148b51b7add51d6ef7f", "fusion_lat": 0.0, "rental_uris": {"ios": "https://dc.lft.to/lastmile_qr_scan", "android": "https://dc.lft.to/lastmile_qr_scan"}, "lon": -77.0486885, "type": "electric_scooter"}, {"bike_id": "6bfb3592eabc8cd9426e097fb97ef32a", "is_reserved": 0, "fusion_lon": 0.0, "lat": 38.858061, "is_disabled": 0, "name": "6bfb3592eabc8cd9426e097fb97ef32a", "fusion_lat": 0.0, "rental_uris": {"ios": "https://dc.lft.to/lastmile_qr_scan", "android": "https://dc.lft.to/lastmile_qr_scan"}, "lon": -76.98651983333333, "type": "electric_scooter"}, {"bike_id": "93697a9f879ee4e7d9d3e0a989adff49", "is_reserved": 0, "fusion_lon": 0.0, "lat": 38.904866166666665, "is_disabled": 0, "name": "93697a9f879ee4e7d9d3e0a989adff49", "fusion_lat": 0.0, "rental_uris": {"ios": "https://dc.lft.to/lastmile_qr_scan", "android": "https://dc.lft.to/lastmile_qr_scan"}, "lon": -77.060189, "type": "electric_scooter"}, {"bike_id": "84fa9aaa4b959b833ceb5b1fbc99f0aa", "is_reserved": 0, "fusion_lon": 0.0, "lat": 38.8883285, "is_disabled": 0, "name": "84fa9aaa4b959b833ceb5b1fbc99f0aa", "fusion_lat": 0.0, "rental_uris": {"ios": "https://dc.lft.to/lastmile_qr_scan", "android": "https://dc.lft.to/lastmile_qr_scan"}, "lon": -76.9773115, "type": "electric_scooter"}, {"bike_id": "57d0c01cac41f54b67c6f2bf8506a00e", "is_reserved": 0, "fusion_lon": 0.0, "lat": 38.9034745, "is_disabled": 0, "name": "57d0c01cac41f54b67c6f2bf8506a00e", "fusion_lat": 0.0, "rental_uris": {"ios": "https://dc.lft.to/lastmile_qr_scan", "android": "https://dc.lft.to/lastmile_qr_scan"}, "lon": -77.05139433333333, "type": "electric_bike"}, {"bike_id": "a97df58e1e7c98e2abccc59f86686c53", "is_reserved": 0, "fusion_lon": 0.0, "lat": 38.95926083333333, "is_disabled": 0, "name": "a97df58e1e7c98e2abccc59f86686c53", "fusion_lat": 0.0, "rental_uris": {"ios": "https://dc.lft.to/lastmile_qr_scan", "android": "https://dc.lft.to/lastmile_qr_scan"}, "lon": -77.03324983333333, "type": "electric_scooter"}, {"bike_id": "3a019eafdb7064ca78bdf881d32de537", "is_reserved": 0, "fusion_lon": 0.0, "lat": 38.90386783333334, "is_disabled": 0, "name": "3a019eafdb7064ca78bdf881d32de537", "fusion_lat": 0.0, "rental_uris": {"ios": "https://dc.lft.to/lastmile_qr_scan", "android": "https://dc.lft.to/lastmile_qr_scan"}, "lon": -77.04368983333333, "type": "electric_scooter"}, {"bike_id": "11e9f04f30a33d11992fe32b435e8e06", "is_reserved": 0, "fusion_lon": 0.0, "lat": 38.90256083333333, "is_disabled": 0, "name": "11e9f04f30a33d11992fe32b435e8e06", "fusion_lat": 0.0, "rental_uris": {"ios": "https://dc.lft.to/lastmile_qr_scan", "android": "https://dc.lft.to/lastmile_qr_scan"}, "lon": -77.01745933333333, "type": "electric_scooter"}, {"bike_id": "bc174bc6138bfcefa4cbe4978184015c", "is_reserved": 0, "fusion_lon": 0.0, "lat": 38.86560466666667, "is_disabled": 0, "name": "bc174bc6138bfcefa4cbe4978184015c", "fusion_lat": 0.0, "rental_uris": {"ios": "https://dc.lft.to/lastmile_qr_scan", "android": "https://dc.lft.to/lastmile_qr_scan"}, "lon": -76.98947383333334, "type": "electric_scooter"}, {"bike_id": "8cc769a7678edb59a137724f6f54c028", "is_reserved": 0, "fusion_lon": 0.0, "lat": 38.900552166666664, "is_disabled": 0, "name": "8cc769a7678edb59a137724f6f54c028", "fusion_lat": 0.0, "rental_uris": {"ios": "https://dc.lft.to/lastmile_qr_scan", "android": "https://dc.lft.to/lastmile_qr_scan"}, "lon": -77.00212833333333, "type": "electric_scooter"}, {"bike_id": "1f70cf629f6627ef858204dcaf9b0ec6", "is_reserved": 0, "fusion_lon": 0.0, "lat": 38.905680333333336, "is_disabled": 0, "name": "1f70cf629f6627ef858204dcaf9b0ec6", "fusion_lat": 0.0, "rental_uris": {"ios": "https://dc.lft.to/lastmile_qr_scan", "android": "https://dc.lft.to/lastmile_qr_scan"}, "lon": -77.0248865, "type": "electric_scooter"}, {"bike_id": "1432aca780fc9f96f88956d638f17933", "is_reserved": 0, "fusion_lon": 0.0, "lat": 38.86536566666667, "is_disabled": 0, "name": "1432aca780fc9f96f88956d638f17933", "fusion_lat": 0.0, "rental_uris": {"ios": "https://dc.lft.to/lastmile_qr_scan", "android": "https://dc.lft.to/lastmile_qr_scan"}, "lon": -76.98708833333333, "type": "electric_scooter"}, {"bike_id": "727353d97bea03148af999dbb3739fe4", "is_reserved": 0, "fusion_lon": 0.0, "lat": 38.924004, "is_disabled": 0, "name": "727353d97bea03148af999dbb3739fe4", "fusion_lat": 0.0, "rental_uris": {"ios": "https://dc.lft.to/lastmile_qr_scan", "android": "https://dc.lft.to/lastmile_qr_scan"}, "lon": -77.0257105, "type": "electric_scooter"}, {"bike_id": "08940b9c14c9c9277637f999edc5e152", "is_reserved": 0, "fusion_lon": 0.0, "lat": 38.91669783333333, "is_disabled": 0, "name": "08940b9c14c9c9277637f999edc5e152", "fusion_lat": 0.0, "rental_uris": {"ios": "https://dc.lft.to/lastmile_qr_scan", "android": "https://dc.lft.to/lastmile_qr_scan"}, "lon": -77.02268883333333, "type": "electric_scooter"}, {"bike_id": "89efb1634571d9a0d0a7ffd493d66af0", "is_reserved": 0, "fusion_lon": 0.0, "lat": 38.87901983333333, "is_disabled": 0, "name": "89efb1634571d9a0d0a7ffd493d66af0", "fusion_lat": 0.0, "rental_uris": {"ios": "https://dc.lft.to/lastmile_qr_scan", "android": "https://dc.lft.to/lastmile_qr_scan"}, "lon": -77.0056555, "type": "electric_scooter"}, {"bike_id": "13cc9a472ffaba82a58364417d0437bd", "is_reserved": 0, "fusion_lon": 0.0, "lat": 38.92363816666666, "is_disabled": 0, "name": "13cc9a472ffaba82a58364417d0437bd", "fusion_lat": 0.0, "rental_uris": {"ios": "https://dc.lft.to/lastmile_qr_scan", "android": "https://dc.lft.to/lastmile_qr_scan"}, "lon": -77.05030383333333, "type": "electric_scooter"}, {"bike_id": "105eb88c59445694703dd683d7cb608b", "is_reserved": 0, "fusion_lon": 0.0, "lat": 38.89007083333333, "is_disabled": 0, "name": "105eb88c59445694703dd683d7cb608b", "fusion_lat": 0.0, "rental_uris": {"ios": "https://dc.lft.to/lastmile_qr_scan", "android": "https://dc.lft.to/lastmile_qr_scan"}, "lon": -76.93745066666666, "type": "electric_scooter"}, {"bike_id": "f5debc90a871ebadff1994762f257a10", "is_reserved": 0, "fusion_lon": 0.0, "lat": 38.905872333333335, "is_disabled": 0, "name": "f5debc90a871ebadff1994762f257a10", "fusion_lat": 0.0, "rental_uris": {"ios": "https://dc.lft.to/lastmile_qr_scan", "android": "https://dc.lft.to/lastmile_qr_scan"}, "lon": -77.0026575, "type": "electric_scooter"}, {"bike_id": "5b783a40ab3de6bca3065fe9f6c21971", "is_reserved": 0, "fusion_lon": 0.0, "lat": 38.900301666666664, "is_disabled": 0, "name": "5b783a40ab3de6bca3065fe9f6c21971", "fusion_lat": 0.0, "rental_uris": {"ios": "https://dc.lft.to/lastmile_qr_scan", "android": "https://dc.lft.to/lastmile_qr_scan"}, "lon": -77.04672016666666, "type": "electric_scooter"}, {"bike_id": "ef5c7ef6d8b45cfc4b1a641dd0ce3340", "is_reserved": 0, "fusion_lon": 0.0, "lat": 38.9235805, "is_disabled": 0, "name": "ef5c7ef6d8b45cfc4b1a641dd0ce3340", "fusion_lat": 0.0, "rental_uris": {"ios": "https://dc.lft.to/lastmile_qr_scan", "android": "https://dc.lft.to/lastmile_qr_scan"}, "lon": -77.0296195, "type": "electric_scooter"}, {"bike_id": "e660f94fc57433731991b116eb2f2722", "is_reserved": 0, "fusion_lon": 0.0, "lat": 38.89478583333333, "is_disabled": 0, "name": "e660f94fc57433731991b116eb2f2722", "fusion_lat": 0.0, "rental_uris": {"ios": "https://dc.lft.to/lastmile_qr_scan", "android": "https://dc.lft.to/lastmile_qr_scan"}, "lon": -77.02169333333333, "type": "electric_scooter"}, {"bike_id": "dedcb172b1be88e5b4e7f953764281e8", "is_reserved": 0, "fusion_lon": 0.0, "lat": 38.896499166666665, "is_disabled": 0, "name": "dedcb172b1be88e5b4e7f953764281e8", "fusion_lat": 0.0, "rental_uris": {"ios": "https://dc.lft.to/lastmile_qr_scan", "android": "https://dc.lft.to/lastmile_qr_scan"}, "lon": -77.03233033333333, "type": "electric_scooter"}, {"bike_id": "c6b4c28fc633084c5f80cc15ea2b0099", "is_reserved": 0, "fusion_lon": 0.0, "lat": 38.90405283333333, "is_disabled": 0, "name": "c6b4c28fc633084c5f80cc15ea2b0099", "fusion_lat": 0.0, "rental_uris": {"ios": "https://dc.lft.to/lastmile_qr_scan", "android": "https://dc.lft.to/lastmile_qr_scan"}, "lon": -77.04358016666667, "type": "electric_scooter"}, {"bike_id": "9b610580ca8196cf319a65e615ccff4a", "is_reserved": 0, "fusion_lon": 0.0, "lat": 38.930788666666665, "is_disabled": 0, "name": "9b610580ca8196cf319a65e615ccff4a", "fusion_lat": 0.0, "rental_uris": {"ios": "https://dc.lft.to/lastmile_qr_scan", "android": "https://dc.lft.to/lastmile_qr_scan"}, "lon": -77.03404883333333, "type": "electric_scooter"}, {"bike_id": "5057b023a3f65b57fe659067ae8bc1b0", "is_reserved": 0, "fusion_lon": 0.0, "lat": 38.8666005, "is_disabled": 0, "name": "5057b023a3f65b57fe659067ae8bc1b0", "fusion_lat": 0.0, "rental_uris": {"ios": "https://dc.lft.to/lastmile_qr_scan", "android": "https://dc.lft.to/lastmile_qr_scan"}, "lon": -76.988819, "type": "electric_scooter"}, {"bike_id": "6c03c9d90337a03c766c285b994af377", "is_reserved": 0, "fusion_lon": 0.0, "lat": 38.892194833333335, "is_disabled": 0, "name": "6c03c9d90337a03c766c285b994af377", "fusion_lat": 0.0, "rental_uris": {"ios": "https://dc.lft.to/lastmile_qr_scan", "android": "https://dc.lft.to/lastmile_qr_scan"}, "lon": -77.03162083333333, "type": "electric_scooter"}, {"bike_id": "d4ef387f21d89c1876bc7b304b9ee8d3", "is_reserved": 0, "fusion_lon": 0.0, "lat": 38.880025, "is_disabled": 0, "name": "d4ef387f21d89c1876bc7b304b9ee8d3", "fusion_lat": 0.0, "rental_uris": {"ios": "https://dc.lft.to/lastmile_qr_scan", "android": "https://dc.lft.to/lastmile_qr_scan"}, "lon": -76.99511166666667, "type": "electric_scooter"}, {"bike_id": "741b097ddc9224f01fd4225e1223c386", "is_reserved": 0, "fusion_lon": 0.0, "lat": 38.908453, "is_disabled": 0, "name": "741b097ddc9224f01fd4225e1223c386", "fusion_lat": 0.0, "rental_uris": {"ios": "https://dc.lft.to/lastmile_qr_scan", "android": "https://dc.lft.to/lastmile_qr_scan"}, "lon": -77.08533133333333, "type": "electric_scooter"}, {"bike_id": "239b53327021f27865397b2fd1e7f6b8", "is_reserved": 0, "fusion_lon": 0.0, "lat": 38.912502, "is_disabled": 0, "name": "239b53327021f27865397b2fd1e7f6b8", "fusion_lat": 0.0, "rental_uris": {"ios": "https://dc.lft.to/lastmile_qr_scan", "android": "https://dc.lft.to/lastmile_qr_scan"}, "lon": -77.02693416666666, "type": "electric_scooter"}, {"bike_id": "7526afd5e1142511d9da73f4bbaa6bfa", "is_reserved": 0, "fusion_lon": 0.0, "lat": 38.91918033333334, "is_disabled": 0, "name": "7526afd5e1142511d9da73f4bbaa6bfa", "fusion_lat": 0.0, "rental_uris": {"ios": "https://dc.lft.to/lastmile_qr_scan", "android": "https://dc.lft.to/lastmile_qr_scan"}, "lon": -77.03171733333333, "type": "electric_scooter"}, {"bike_id": "658f5326e0a5977306b652ca7e6c0599", "is_reserved": 0, "fusion_lon": 0.0, "lat": 38.898336666666665, "is_disabled": 0, "name": "658f5326e0a5977306b652ca7e6c0599", "fusion_lat": 0.0, "rental_uris": {"ios": "https://dc.lft.to/lastmile_qr_scan", "android": "https://dc.lft.to/lastmile_qr_scan"}, "lon": -77.0325855, "type": "electric_scooter"}, {"bike_id": "3e7ac83d3b34cc1da543dd83a9025f41", "is_reserved": 0, "fusion_lon": 0.0, "lat": 38.903663, "is_disabled": 0, "name": "3e7ac83d3b34cc1da543dd83a9025f41", "fusion_lat": 0.0, "rental_uris": {"ios": "https://dc.lft.to/lastmile_qr_scan", "android": "https://dc.lft.to/lastmile_qr_scan"}, "lon": -77.04344, "type": "electric_scooter"}, {"bike_id": "dfa1fa3b5b2d3c0b0d46df613f73ce89", "is_reserved": 0, "fusion_lon": 0.0, "lat": 38.902314, "is_disabled": 0, "name": "dfa1fa3b5b2d3c0b0d46df613f73ce89", "fusion_lat": 0.0, "rental_uris": {"ios": "https://dc.lft.to/lastmile_qr_scan", "android": "https://dc.lft.to/lastmile_qr_scan"}, "lon": -77.06056783333334, "type": "electric_scooter"}, {"bike_id": "1cec5282837d263c5c89254f8f7ca288", "is_reserved": 0, "fusion_lon": 0.0, "lat": 38.9002745, "is_disabled": 0, "name": "1cec5282837d263c5c89254f8f7ca288", "fusion_lat": 0.0, "rental_uris": {"ios": "https://dc.lft.to/lastmile_qr_scan", "android": "https://dc.lft.to/lastmile_qr_scan"}, "lon": -76.98795933333334, "type": "electric_scooter"}, {"bike_id": "a7578944d4f7b09e88a442ccb806f9c5", "is_reserved": 0, "fusion_lon": 0.0, "lat": 38.92088116666667, "is_disabled": 0, "name": "a7578944d4f7b09e88a442ccb806f9c5", "fusion_lat": 0.0, "rental_uris": {"ios": "https://dc.lft.to/lastmile_qr_scan", "android": "https://dc.lft.to/lastmile_qr_scan"}, "lon": -77.0252325, "type": "electric_scooter"}, {"bike_id": "6ee6780fcf616c6c499847fd943ca628", "is_reserved": 0, "fusion_lon": 0.0, "lat": 38.9335975, "is_disabled": 0, "name": "6ee6780fcf616c6c499847fd943ca628", "fusion_lat": 0.0, "rental_uris": {"ios": "https://dc.lft.to/lastmile_qr_scan", "android": "https://dc.lft.to/lastmile_qr_scan"}, "lon": -77.05714316666666, "type": "electric_scooter"}, {"bike_id": "fbf0efcc501cc2a7609043465502a92c", "is_reserved": 0, "fusion_lon": 0.0, "lat": 38.90365966666667, "is_disabled": 0, "name": "fbf0efcc501cc2a7609043465502a92c", "fusion_lat": 0.0, "rental_uris": {"ios": "https://dc.lft.to/lastmile_qr_scan", "android": "https://dc.lft.to/lastmile_qr_scan"}, "lon": -77.05410733333333, "type": "electric_scooter"}, {"bike_id": "ad6428dccf98cdcacfc2ef62b2c798aa", "is_reserved": 0, "fusion_lon": 0.0, "lat": 38.910366833333335, "is_disabled": 0, "name": "ad6428dccf98cdcacfc2ef62b2c798aa", "fusion_lat": 0.0, "rental_uris": {"ios": "https://dc.lft.to/lastmile_qr_scan", "android": "https://dc.lft.to/lastmile_qr_scan"}, "lon": -77.043905, "type": "electric_scooter"}, {"bike_id": "61d223d1646e30125388df6ee101ae7e", "is_reserved": 0, "fusion_lon": 0.0, "lat": 38.918473666666664, "is_disabled": 0, "name": "61d223d1646e30125388df6ee101ae7e", "fusion_lat": 0.0, "rental_uris": {"ios": "https://dc.lft.to/lastmile_qr_scan", "android": "https://dc.lft.to/lastmile_qr_scan"}, "lon": -77.02279116666666, "type": "electric_scooter"}, {"bike_id": "6fd18fb1317fd2034b94406021e8503c", "is_reserved": 0, "fusion_lon": 0.0, "lat": 38.900049333333335, "is_disabled": 0, "name": "6fd18fb1317fd2034b94406021e8503c", "fusion_lat": 0.0, "rental_uris": {"ios": "https://dc.lft.to/lastmile_qr_scan", "android": "https://dc.lft.to/lastmile_qr_scan"}, "lon": -77.05235083333334, "type": "electric_scooter"}, {"bike_id": "1c2f828f148089a267ae8dc294880010", "is_reserved": 0, "fusion_lon": 0.0, "lat": 38.89527316666667, "is_disabled": 0, "name": "1c2f828f148089a267ae8dc294880010", "fusion_lat": 0.0, "rental_uris": {"ios": "https://dc.lft.to/lastmile_qr_scan", "android": "https://dc.lft.to/lastmile_qr_scan"}, "lon": -77.04849916666667, "type": "electric_scooter"}, {"bike_id": "355fa2d443d163cb13704119b2ebbf89", "is_reserved": 0, "fusion_lon": 0.0, "lat": 38.932027, "is_disabled": 0, "name": "355fa2d443d163cb13704119b2ebbf89", "fusion_lat": 0.0, "rental_uris": {"ios": "https://dc.lft.to/lastmile_qr_scan", "android": "https://dc.lft.to/lastmile_qr_scan"}, "lon": -77.03874916666666, "type": "electric_scooter"}, {"bike_id": "4dd92f2e855d6b57d40d392b4e96c53d", "is_reserved": 0, "fusion_lon": 0.0, "lat": 38.958876, "is_disabled": 0, "name": "4dd92f2e855d6b57d40d392b4e96c53d", "fusion_lat": 0.0, "rental_uris": {"ios": "https://dc.lft.to/lastmile_qr_scan", "android": "https://dc.lft.to/lastmile_qr_scan"}, "lon": -76.92475033333334, "type": "electric_bike"}, {"bike_id": "e832bbbdac9968fbbb39bca923b84b80", "is_reserved": 0, "fusion_lon": 0.0, "lat": 38.8921895, "is_disabled": 0, "name": "e832bbbdac9968fbbb39bca923b84b80", "fusion_lat": 0.0, "rental_uris": {"ios": "https://dc.lft.to/lastmile_qr_scan", "android": "https://dc.lft.to/lastmile_qr_scan"}, "lon": -77.0436935, "type": "electric_scooter"}, {"bike_id": "67f1cd4eab84e48e0a70aecc1ea3bfa0", "is_reserved": 0, "fusion_lon": 0.0, "lat": 38.875502166666664, "is_disabled": 0, "name": "67f1cd4eab84e48e0a70aecc1ea3bfa0", "fusion_lat": 0.0, "rental_uris": {"ios": "https://dc.lft.to/lastmile_qr_scan", "android": "https://dc.lft.to/lastmile_qr_scan"}, "lon": -76.96491433333334, "type": "electric_scooter"}, {"bike_id": "2faccd6a47eb4d6e915d589b7f47ad2e", "is_reserved": 0, "fusion_lon": 0.0, "lat": 38.905038833333336, "is_disabled": 0, "name": "2faccd6a47eb4d6e915d589b7f47ad2e", "fusion_lat": 0.0, "rental_uris": {"ios": "https://dc.lft.to/lastmile_qr_scan", "android": "https://dc.lft.to/lastmile_qr_scan"}, "lon": -76.97926216666667, "type": "electric_scooter"}, {"bike_id": "6fa593991a9176a0b951bb2131bf01da", "is_reserved": 0, "fusion_lon": 0.0, "lat": 38.894805166666664, "is_disabled": 0, "name": "6fa593991a9176a0b951bb2131bf01da", "fusion_lat": 0.0, "rental_uris": {"ios": "https://dc.lft.to/lastmile_qr_scan", "android": "https://dc.lft.to/lastmile_qr_scan"}, "lon": -76.94871366666666, "type": "electric_scooter"}, {"bike_id": "e6205e71adb8cb26528aee805e95fe93", "is_reserved": 0, "fusion_lon": 0.0, "lat": 38.8921655, "is_disabled": 0, "name": "e6205e71adb8cb26528aee805e95fe93", "fusion_lat": 0.0, "rental_uris": {"ios": "https://dc.lft.to/lastmile_qr_scan", "android": "https://dc.lft.to/lastmile_qr_scan"}, "lon": -77.02622483333333, "type": "electric_scooter"}, {"bike_id": "cf1171da0e78b1ed814f8c797bea40c0", "is_reserved": 0, "fusion_lon": 0.0, "lat": 38.919885666666666, "is_disabled": 0, "name": "cf1171da0e78b1ed814f8c797bea40c0", "fusion_lat": 0.0, "rental_uris": {"ios": "https://dc.lft.to/lastmile_qr_scan", "android": "https://dc.lft.to/lastmile_qr_scan"}, "lon": -77.03198766666667, "type": "electric_scooter"}, {"bike_id": "42ab72db12ab1699bb13242d02ba7b78", "is_reserved": 0, "fusion_lon": 0.0, "lat": 38.9066975, "is_disabled": 0, "name": "42ab72db12ab1699bb13242d02ba7b78", "fusion_lat": 0.0, "rental_uris": {"ios": "https://dc.lft.to/lastmile_qr_scan", "android": "https://dc.lft.to/lastmile_qr_scan"}, "lon": -76.987842, "type": "electric_scooter"}, {"bike_id": "7aada85b649e24f57b70a1ea1f0c08b0", "is_reserved": 0, "fusion_lon": 0.0, "lat": 38.86199833333333, "is_disabled": 0, "name": "7aada85b649e24f57b70a1ea1f0c08b0", "fusion_lat": 0.0, "rental_uris": {"ios": "https://dc.lft.to/lastmile_qr_scan", "android": "https://dc.lft.to/lastmile_qr_scan"}, "lon": -76.994639, "type": "electric_scooter"}, {"bike_id": "fd5a21716d67283436a31082576de1cb", "is_reserved": 0, "fusion_lon": 0.0, "lat": 38.902735666666665, "is_disabled": 0, "name": "fd5a21716d67283436a31082576de1cb", "fusion_lat": 0.0, "rental_uris": {"ios": "https://dc.lft.to/lastmile_qr_scan", "android": "https://dc.lft.to/lastmile_qr_scan"}, "lon": -77.03267183333334, "type": "electric_scooter"}, {"bike_id": "0b3ce3d7bb71546b816b7736fcc73588", "is_reserved": 0, "fusion_lon": 0.0, "lat": 38.899526333333334, "is_disabled": 0, "name": "0b3ce3d7bb71546b816b7736fcc73588", "fusion_lat": 0.0, "rental_uris": {"ios": "https://dc.lft.to/lastmile_qr_scan", "android": "https://dc.lft.to/lastmile_qr_scan"}, "lon": -76.97545366666667, "type": "electric_scooter"}, {"bike_id": "1cb394807f1c1319ebcebe4faad5cf4c", "is_reserved": 0, "fusion_lon": 0.0, "lat": 38.898914833333336, "is_disabled": 0, "name": "1cb394807f1c1319ebcebe4faad5cf4c", "fusion_lat": 0.0, "rental_uris": {"ios": "https://dc.lft.to/lastmile_qr_scan", "android": "https://dc.lft.to/lastmile_qr_scan"}, "lon": -77.02984633333334, "type": "electric_scooter"}, {"bike_id": "f5302479d8447de368ddb72afde66275", "is_reserved": 0, "fusion_lon": 0.0, "lat": 38.9236295, "is_disabled": 0, "name": "f5302479d8447de368ddb72afde66275", "fusion_lat": 0.0, "rental_uris": {"ios": "https://dc.lft.to/lastmile_qr_scan", "android": "https://dc.lft.to/lastmile_qr_scan"}, "lon": -77.01913133333333, "type": "electric_scooter"}, {"bike_id": "9842ca1d60461220a4ff2f937640d788", "is_reserved": 0, "fusion_lon": 0.0, "lat": 38.924784833333334, "is_disabled": 0, "name": "9842ca1d60461220a4ff2f937640d788", "fusion_lat": 0.0, "rental_uris": {"ios": "https://dc.lft.to/lastmile_qr_scan", "android": "https://dc.lft.to/lastmile_qr_scan"}, "lon": -77.05213716666667, "type": "electric_scooter"}, {"bike_id": "daf35f6174d4f571304b5eb0ab8c7465", "is_reserved": 0, "fusion_lon": 0.0, "lat": 38.88772066666667, "is_disabled": 0, "name": "daf35f6174d4f571304b5eb0ab8c7465", "fusion_lat": 0.0, "rental_uris": {"ios": "https://dc.lft.to/lastmile_qr_scan", "android": "https://dc.lft.to/lastmile_qr_scan"}, "lon": -76.932646, "type": "electric_scooter"}, {"bike_id": "8f35c529d0692b9e7aa3f910a3f67a16", "is_reserved": 0, "fusion_lon": 0.0, "lat": 38.896186166666666, "is_disabled": 0, "name": "8f35c529d0692b9e7aa3f910a3f67a16", "fusion_lat": 0.0, "rental_uris": {"ios": "https://dc.lft.to/lastmile_qr_scan", "android": "https://dc.lft.to/lastmile_qr_scan"}, "lon": -76.956417, "type": "electric_scooter"}, {"bike_id": "0f74ccae31b05c8a3f0fed61d1ecdd03", "is_reserved": 0, "fusion_lon": 0.0, "lat": 38.9246645, "is_disabled": 0, "name": "0f74ccae31b05c8a3f0fed61d1ecdd03", "fusion_lat": 0.0, "rental_uris": {"ios": "https://dc.lft.to/lastmile_qr_scan", "android": "https://dc.lft.to/lastmile_qr_scan"}, "lon": -77.02711416666666, "type": "electric_scooter"}, {"bike_id": "4f8a4b949b3b47f4b584779497540fd2", "is_reserved": 0, "fusion_lon": 0.0, "lat": 38.9003005, "is_disabled": 0, "name": "4f8a4b949b3b47f4b584779497540fd2", "fusion_lat": 0.0, "rental_uris": {"ios": "https://dc.lft.to/lastmile_qr_scan", "android": "https://dc.lft.to/lastmile_qr_scan"}, "lon": -77.04681366666667, "type": "electric_scooter"}, {"bike_id": "a971b7a23f3ed9cf484beac667c97575", "is_reserved": 0, "fusion_lon": 0.0, "lat": 38.927642166666665, "is_disabled": 0, "name": "a971b7a23f3ed9cf484beac667c97575", "fusion_lat": 0.0, "rental_uris": {"ios": "https://dc.lft.to/lastmile_qr_scan", "android": "https://dc.lft.to/lastmile_qr_scan"}, "lon": -77.03244333333333, "type": "electric_scooter"}, {"bike_id": "734b2b672c8e38f684d347cf92b507d9", "is_reserved": 0, "fusion_lon": 0.0, "lat": 38.8967575, "is_disabled": 0, "name": "734b2b672c8e38f684d347cf92b507d9", "fusion_lat": 0.0, "rental_uris": {"ios": "https://dc.lft.to/lastmile_qr_scan", "android": "https://dc.lft.to/lastmile_qr_scan"}, "lon": -77.0261715, "type": "electric_scooter"}, {"bike_id": "c4a136bd18863693de3880197a26f40a", "is_reserved": 0, "fusion_lon": 0.0, "lat": 38.931594833333335, "is_disabled": 0, "name": "c4a136bd18863693de3880197a26f40a", "fusion_lat": 0.0, "rental_uris": {"ios": "https://dc.lft.to/lastmile_qr_scan", "android": "https://dc.lft.to/lastmile_qr_scan"}, "lon": -77.05642, "type": "electric_scooter"}, {"bike_id": "609578d704957f8447e17d2d58dcc727", "is_reserved": 0, "fusion_lon": 0.0, "lat": 38.927937166666666, "is_disabled": 0, "name": "609578d704957f8447e17d2d58dcc727", "fusion_lat": 0.0, "rental_uris": {"ios": "https://dc.lft.to/lastmile_qr_scan", "android": "https://dc.lft.to/lastmile_qr_scan"}, "lon": -77.04356283333334, "type": "electric_scooter"}, {"bike_id": "94f150bbbc8f044a13b6bd9ab30ddb48", "is_reserved": 0, "fusion_lon": 0.0, "lat": 38.890965333333334, "is_disabled": 0, "name": "94f150bbbc8f044a13b6bd9ab30ddb48", "fusion_lat": 0.0, "rental_uris": {"ios": "https://dc.lft.to/lastmile_qr_scan", "android": "https://dc.lft.to/lastmile_qr_scan"}, "lon": -76.94389483333333, "type": "electric_scooter"}, {"bike_id": "7de437dba26083e9b26bc89e38f82558", "is_reserved": 0, "fusion_lon": 0.0, "lat": 38.901773, "is_disabled": 0, "name": "7de437dba26083e9b26bc89e38f82558", "fusion_lat": 0.0, "rental_uris": {"ios": "https://dc.lft.to/lastmile_qr_scan", "android": "https://dc.lft.to/lastmile_qr_scan"}, "lon": -77.05100633333333, "type": "electric_scooter"}, {"bike_id": "07d233f4e6bb673e5397ef56b42e4fe6", "is_reserved": 0, "fusion_lon": 0.0, "lat": 38.89891566666667, "is_disabled": 0, "name": "07d233f4e6bb673e5397ef56b42e4fe6", "fusion_lat": 0.0, "rental_uris": {"ios": "https://dc.lft.to/lastmile_qr_scan", "android": "https://dc.lft.to/lastmile_qr_scan"}, "lon": -77.03958733333333, "type": "electric_scooter"}, {"bike_id": "d06fe1172a385c0ffec379fb89678ada", "is_reserved": 0, "fusion_lon": 0.0, "lat": 38.90030933333333, "is_disabled": 0, "name": "d06fe1172a385c0ffec379fb89678ada", "fusion_lat": 0.0, "rental_uris": {"ios": "https://dc.lft.to/lastmile_qr_scan", "android": "https://dc.lft.to/lastmile_qr_scan"}, "lon": -77.01186516666667, "type": "electric_bike"}, {"bike_id": "145610f5d6ce12b7c514349f39e9b127", "is_reserved": 0, "fusion_lon": 0.0, "lat": 38.90277233333333, "is_disabled": 0, "name": "145610f5d6ce12b7c514349f39e9b127", "fusion_lat": 0.0, "rental_uris": {"ios": "https://dc.lft.to/lastmile_qr_scan", "android": "https://dc.lft.to/lastmile_qr_scan"}, "lon": -77.03866216666667, "type": "electric_scooter"}, {"bike_id": "cf58d33129e4191bd383013d89260e39", "is_reserved": 0, "fusion_lon": 0.0, "lat": 38.898386, "is_disabled": 0, "name": "cf58d33129e4191bd383013d89260e39", "fusion_lat": 0.0, "rental_uris": {"ios": "https://dc.lft.to/lastmile_qr_scan", "android": "https://dc.lft.to/lastmile_qr_scan"}, "lon": -76.995035, "type": "electric_scooter"}, {"bike_id": "dcc46125e0fb9c74fe3176465de15877", "is_reserved": 0, "fusion_lon": 0.0, "lat": 38.9207395, "is_disabled": 0, "name": "dcc46125e0fb9c74fe3176465de15877", "fusion_lat": 0.0, "rental_uris": {"ios": "https://dc.lft.to/lastmile_qr_scan", "android": "https://dc.lft.to/lastmile_qr_scan"}, "lon": -77.02391266666666, "type": "electric_scooter"}, {"bike_id": "82992a4ebc3673112359a614a07aaf90", "is_reserved": 0, "fusion_lon": 0.0, "lat": 38.92268983333334, "is_disabled": 0, "name": "82992a4ebc3673112359a614a07aaf90", "fusion_lat": 0.0, "rental_uris": {"ios": "https://dc.lft.to/lastmile_qr_scan", "android": "https://dc.lft.to/lastmile_qr_scan"}, "lon": -77.01821016666666, "type": "electric_scooter"}, {"bike_id": "ec326e8f653e61edd10628b9c9ce5e52", "is_reserved": 0, "fusion_lon": 0.0, "lat": 38.89193216666666, "is_disabled": 0, "name": "ec326e8f653e61edd10628b9c9ce5e52", "fusion_lat": 0.0, "rental_uris": {"ios": "https://dc.lft.to/lastmile_qr_scan", "android": "https://dc.lft.to/lastmile_qr_scan"}, "lon": -77.02241933333333, "type": "electric_scooter"}, {"bike_id": "7045a0be7bf43db3cf414d6889925495", "is_reserved": 0, "fusion_lon": 0.0, "lat": 38.90536766666666, "is_disabled": 0, "name": "7045a0be7bf43db3cf414d6889925495", "fusion_lat": 0.0, "rental_uris": {"ios": "https://dc.lft.to/lastmile_qr_scan", "android": "https://dc.lft.to/lastmile_qr_scan"}, "lon": -77.06515766666666, "type": "electric_scooter"}, {"bike_id": "59180bfa0f6c37aea7bdf3aaefc89872", "is_reserved": 0, "fusion_lon": 0.0, "lat": 38.892228, "is_disabled": 0, "name": "59180bfa0f6c37aea7bdf3aaefc89872", "fusion_lat": 0.0, "rental_uris": {"ios": "https://dc.lft.to/lastmile_qr_scan", "android": "https://dc.lft.to/lastmile_qr_scan"}, "lon": -77.04871566666667, "type": "electric_scooter"}, {"bike_id": "d1f0a2a7d5615b5887ec2cf231c9c303", "is_reserved": 0, "fusion_lon": 0.0, "lat": 38.9012705, "is_disabled": 0, "name": "d1f0a2a7d5615b5887ec2cf231c9c303", "fusion_lat": 0.0, "rental_uris": {"ios": "https://dc.lft.to/lastmile_qr_scan", "android": "https://dc.lft.to/lastmile_qr_scan"}, "lon": -76.99709733333333, "type": "electric_scooter"}, {"bike_id": "256161030e016a527beba4f33ff407eb", "is_reserved": 0, "fusion_lon": 0.0, "lat": 38.911570166666664, "is_disabled": 0, "name": "256161030e016a527beba4f33ff407eb", "fusion_lat": 0.0, "rental_uris": {"ios": "https://dc.lft.to/lastmile_qr_scan", "android": "https://dc.lft.to/lastmile_qr_scan"}, "lon": -76.98660466666666, "type": "electric_scooter"}, {"bike_id": "8d90c5b099c512dc5bce3912932d17b7", "is_reserved": 0, "fusion_lon": 0.0, "lat": 38.9271115, "is_disabled": 0, "name": "8d90c5b099c512dc5bce3912932d17b7", "fusion_lat": 0.0, "rental_uris": {"ios": "https://dc.lft.to/lastmile_qr_scan", "android": "https://dc.lft.to/lastmile_qr_scan"}, "lon": -77.04046816666667, "type": "electric_scooter"}, {"bike_id": "493cb8e6b8053cecce0c5add6089ccd8", "is_reserved": 0, "fusion_lon": 0.0, "lat": 38.884054666666664, "is_disabled": 0, "name": "493cb8e6b8053cecce0c5add6089ccd8", "fusion_lat": 0.0, "rental_uris": {"ios": "https://dc.lft.to/lastmile_qr_scan", "android": "https://dc.lft.to/lastmile_qr_scan"}, "lon": -77.02617716666667, "type": "electric_scooter"}, {"bike_id": "5d67cf70d6d5bdd5ee717735ef58ee69", "is_reserved": 0, "fusion_lon": 0.0, "lat": 38.9352845, "is_disabled": 0, "name": "5d67cf70d6d5bdd5ee717735ef58ee69", "fusion_lat": 0.0, "rental_uris": {"ios": "https://dc.lft.to/lastmile_qr_scan", "android": "https://dc.lft.to/lastmile_qr_scan"}, "lon": -77.02342466666667, "type": "electric_scooter"}, {"bike_id": "77a1b235eea99e879575d3d941b2c51c", "is_reserved": 0, "fusion_lon": 0.0, "lat": 38.90569583333333, "is_disabled": 0, "name": "77a1b235eea99e879575d3d941b2c51c", "fusion_lat": 0.0, "rental_uris": {"ios": "https://dc.lft.to/lastmile_qr_scan", "android": "https://dc.lft.to/lastmile_qr_scan"}, "lon": -77.03832216666666, "type": "electric_scooter"}, {"bike_id": "0e13b5bae63ff80155322dfcd118c706", "is_reserved": 0, "fusion_lon": 0.0, "lat": 38.9024235, "is_disabled": 0, "name": "0e13b5bae63ff80155322dfcd118c706", "fusion_lat": 0.0, "rental_uris": {"ios": "https://dc.lft.to/lastmile_qr_scan", "android": "https://dc.lft.to/lastmile_qr_scan"}, "lon": -77.0503515, "type": "electric_bike"}, {"bike_id": "87ea40ebf160b00f2db08f42c626b7e7", "is_reserved": 0, "fusion_lon": 0.0, "lat": 38.905370166666664, "is_disabled": 0, "name": "87ea40ebf160b00f2db08f42c626b7e7", "fusion_lat": 0.0, "rental_uris": {"ios": "https://dc.lft.to/lastmile_qr_scan", "android": "https://dc.lft.to/lastmile_qr_scan"}, "lon": -77.05017766666667, "type": "electric_scooter"}, {"bike_id": "764454c313a03233d242adc82681292d", "is_reserved": 0, "fusion_lon": 0.0, "lat": 38.91814733333333, "is_disabled": 0, "name": "764454c313a03233d242adc82681292d", "fusion_lat": 0.0, "rental_uris": {"ios": "https://dc.lft.to/lastmile_qr_scan", "android": "https://dc.lft.to/lastmile_qr_scan"}, "lon": -77.0247625, "type": "electric_scooter"}, {"bike_id": "1440f88271d410baf336aa6e541a73b2", "is_reserved": 0, "fusion_lon": 0.0, "lat": 38.866188333333334, "is_disabled": 0, "name": "1440f88271d410baf336aa6e541a73b2", "fusion_lat": 0.0, "rental_uris": {"ios": "https://dc.lft.to/lastmile_qr_scan", "android": "https://dc.lft.to/lastmile_qr_scan"}, "lon": -76.98666883333334, "type": "electric_scooter"}, {"bike_id": "e182925ffc7814d01bfb108a93db21e2", "is_reserved": 0, "fusion_lon": 0.0, "lat": 38.901447, "is_disabled": 0, "name": "e182925ffc7814d01bfb108a93db21e2", "fusion_lat": 0.0, "rental_uris": {"ios": "https://dc.lft.to/lastmile_qr_scan", "android": "https://dc.lft.to/lastmile_qr_scan"}, "lon": -77.0272305, "type": "electric_scooter"}, {"bike_id": "881ea219cd9aa1e174071fb689c1444f", "is_reserved": 0, "fusion_lon": 0.0, "lat": 38.90275883333333, "is_disabled": 0, "name": "881ea219cd9aa1e174071fb689c1444f", "fusion_lat": 0.0, "rental_uris": {"ios": "https://dc.lft.to/lastmile_qr_scan", "android": "https://dc.lft.to/lastmile_qr_scan"}, "lon": -77.06180983333333, "type": "electric_scooter"}, {"bike_id": "0652b66f65ac62c1a3cec4a088cf3f8b", "is_reserved": 0, "fusion_lon": 0.0, "lat": 38.90863233333334, "is_disabled": 0, "name": "0652b66f65ac62c1a3cec4a088cf3f8b", "fusion_lat": 0.0, "rental_uris": {"ios": "https://dc.lft.to/lastmile_qr_scan", "android": "https://dc.lft.to/lastmile_qr_scan"}, "lon": -77.02542066666666, "type": "electric_scooter"}, {"bike_id": "5e51c86efb7997694bdd2c563c8b6655", "is_reserved": 0, "fusion_lon": 0.0, "lat": 38.9018385, "is_disabled": 0, "name": "5e51c86efb7997694bdd2c563c8b6655", "fusion_lat": 0.0, "rental_uris": {"ios": "https://dc.lft.to/lastmile_qr_scan", "android": "https://dc.lft.to/lastmile_qr_scan"}, "lon": -76.929945, "type": "electric_scooter"}, {"bike_id": "aaa313ef9729b5cdfa7be1fa36aef8a8", "is_reserved": 0, "fusion_lon": 0.0, "lat": 38.9138565, "is_disabled": 0, "name": "aaa313ef9729b5cdfa7be1fa36aef8a8", "fusion_lat": 0.0, "rental_uris": {"ios": "https://dc.lft.to/lastmile_qr_scan", "android": "https://dc.lft.to/lastmile_qr_scan"}, "lon": -77.044867, "type": "electric_scooter"}, {"bike_id": "a4c4a955305ce57c51cf231f37f559d9", "is_reserved": 0, "fusion_lon": 0.0, "lat": 38.88368533333333, "is_disabled": 0, "name": "a4c4a955305ce57c51cf231f37f559d9", "fusion_lat": 0.0, "rental_uris": {"ios": "https://dc.lft.to/lastmile_qr_scan", "android": "https://dc.lft.to/lastmile_qr_scan"}, "lon": -76.99564416666666, "type": "electric_scooter"}, {"bike_id": "879f1768c99c5901d558eb5daf1b7106", "is_reserved": 0, "fusion_lon": 0.0, "lat": 38.88136733333333, "is_disabled": 0, "name": "879f1768c99c5901d558eb5daf1b7106", "fusion_lat": 0.0, "rental_uris": {"ios": "https://dc.lft.to/lastmile_qr_scan", "android": "https://dc.lft.to/lastmile_qr_scan"}, "lon": -77.02709583333333, "type": "electric_bike"}, {"bike_id": "d3ae562fedf45cf6fe6293bf02c1b56b", "is_reserved": 0, "fusion_lon": 0.0, "lat": 38.9133465, "is_disabled": 0, "name": "d3ae562fedf45cf6fe6293bf02c1b56b", "fusion_lat": 0.0, "rental_uris": {"ios": "https://dc.lft.to/lastmile_qr_scan", "android": "https://dc.lft.to/lastmile_qr_scan"}, "lon": -77.04834683333333, "type": "electric_scooter"}, {"bike_id": "90bbed55974011fcf0e88041bd4b5da9", "is_reserved": 0, "fusion_lon": 0.0, "lat": 38.904454333333334, "is_disabled": 0, "name": "90bbed55974011fcf0e88041bd4b5da9", "fusion_lat": 0.0, "rental_uris": {"ios": "https://dc.lft.to/lastmile_qr_scan", "android": "https://dc.lft.to/lastmile_qr_scan"}, "lon": -77.04897033333333, "type": "electric_scooter"}, {"bike_id": "cee0b09d00c8ef61c9e876e3f9538fe1", "is_reserved": 0, "fusion_lon": 0.0, "lat": 38.926101, "is_disabled": 0, "name": "cee0b09d00c8ef61c9e876e3f9538fe1", "fusion_lat": 0.0, "rental_uris": {"ios": "https://dc.lft.to/lastmile_qr_scan", "android": "https://dc.lft.to/lastmile_qr_scan"}, "lon": -77.005406, "type": "electric_scooter"}, {"bike_id": "a4aaff70f799723260b089a9400433b6", "is_reserved": 0, "fusion_lon": 0.0, "lat": 38.91679383333334, "is_disabled": 0, "name": "a4aaff70f799723260b089a9400433b6", "fusion_lat": 0.0, "rental_uris": {"ios": "https://dc.lft.to/lastmile_qr_scan", "android": "https://dc.lft.to/lastmile_qr_scan"}, "lon": -77.03201966666667, "type": "electric_scooter"}, {"bike_id": "a9e2db349f5d084dee8841b19379796d", "is_reserved": 0, "fusion_lon": 0.0, "lat": 38.88424716666667, "is_disabled": 0, "name": "a9e2db349f5d084dee8841b19379796d", "fusion_lat": 0.0, "rental_uris": {"ios": "https://dc.lft.to/lastmile_qr_scan", "android": "https://dc.lft.to/lastmile_qr_scan"}, "lon": -76.95754783333334, "type": "electric_scooter"},