{"data": {"bikes": [{"is_disabled": 0, "fusion_lon": 0.0, "fusion_lat": 0.0, "lat": 38.918223166666664, "type": "electric_scooter", "lon": -77.03655883333333, "bike_id": "24f36f08f8b5f0b22d065439e7704067", "rental_uris": {"android": "https://dc.lft.to/lastmile_qr_scan", "ios": "https://dc.lft.to/lastmile_qr_scan"}, "name": "24f36f08f8b5f0b22d065439e7704067", "is_reserved": 0}, {"is_disabled": 0, "fusion_lon": 0.0, "fusion_lat": 0.0, "lat": 38.910724333333334, "type": "electric_scooter", "lon": -77.020987, "bike_id": "cfdfa1412cd60119a5dfea369b4ea29b", "rental_uris": {"android": "https://dc.lft.to/lastmile_qr_scan", "ios": "https://dc.lft.to/lastmile_qr_scan"}, "name": "cfdfa1412cd60119a5dfea369b4ea29b", "is_reserved": 0}, {"is_disabled": 0, "fusion_lon": 0.0, "fusion_lat": 0.0, "lat": 38.92362266666667, "type": "electric_scooter", "lon": -77.050294, "bike_id": "bceb47d50cb4381060a98a42039fc8ca", "rental_uris": {"android": "https://dc.lft.to/lastmile_qr_scan", "ios": "https://dc.lft.to/lastmile_qr_scan"}, "name": "bceb47d50cb4381060a98a42039fc8ca", "is_reserved": 0}, {"is_disabled": 0, "fusion_lon": 0.0, "fusion_lat": 0.0, "lat": 38.93312, "type": "electric_scooter", "lon": -77.0328545, "bike_id": "7ec9ecac8464461de3b0dcac9a7ceac8", "rental_uris": {"android": "https://dc.lft.to/lastmile_qr_scan", "ios": "https://dc.lft.to/lastmile_qr_scan"}, "name": "7ec9ecac8464461de3b0dcac9a7ceac8", "is_reserved": 0}, {"is_disabled": 0, "fusion_lon": 0.0, "fusion_lat": 0.0, "lat": 38.9237325, "type": "electric_scooter", "lon": -77.02814933333333, "bike_id": "1972baee368219003186b012f460d3bf", "rental_uris": {"android": "https://dc.lft.to/lastmile_qr_scan", "ios": "https://dc.lft.to/lastmile_qr_scan"}, "name": "1972baee368219003186b012f460d3bf", "is_reserved": 0}, {"is_disabled": 0, "fusion_lon": 0.0, "fusion_lat": 0.0, "lat": 38.93494583333333, "type": "electric_scooter", "lon": -77.02602966666667, "bike_id": "048dbddabd1f54a1ad6e2bfe2b2a6b86", "rental_uris": {"android": "https://dc.lft.to/lastmile_qr_scan", "ios": "https://dc.lft.to/lastmile_qr_scan"}, "name": "048dbddabd1f54a1ad6e2bfe2b2a6b86", "is_reserved": 0}, {"is_disabled": 0, "fusion_lon": 0.0, "fusion_lat": 0.0, "lat": 38.98597766666666, "type": "electric_bike", "lon": -77.03748733333333, "bike_id": "8a462c1017933098e495bbf91c23a79e", "rental_uris": {"android": "https://dc.lft.to/lastmile_qr_scan", "ios": "https://dc.lft.to/lastmile_qr_scan"}, "name": "8a462c1017933098e495bbf91c23a79e", "is_reserved": 0}, {"is_disabled": 0, "fusion_lon": 0.0, "fusion_lat": 0.0, "lat": 38.887220666666664, "type": "electric_scooter", "lon": -76.99629783333333, "bike_id": "c814dad8188cce9249e527b272f4c0ad", "rental_uris": {"android": "https://dc.lft.to/lastmile_qr_scan", "ios": "https://dc.lft.to/lastmile_qr_scan"}, "name": "c814dad8188cce9249e527b272f4c0ad", "is_reserved": 0}, {"is_disabled": 0, "fusion_lon": 0.0, "fusion_lat": 0.0, "lat": 38.885144, "type": "electric_scooter", "lon": -76.9985085, "bike_id": "2f14f3419736a46211ae90c5e31aad12", "rental_uris": {"android": "https://dc.lft.to/lastmile_qr_scan", "ios": "https://dc.lft.to/lastmile_qr_scan"}, "name": "2f14f3419736a46211ae90c5e31aad12", "is_reserved": 0}, {"is_disabled": 0, "fusion_lon": 0.0, "fusion_lat": 0.0, "lat": 38.98823983333333, "type": "electric_bike", "lon": -76.98764883333334, "bike_id": "fb2891ab7eb539eb21d58004723f3de6", "rental_uris": {"android": "https://dc.lft.to/lastmile_qr_scan", "ios": "https://dc.lft.to/lastmile_qr_scan"}, "name": "fb2891ab7eb539eb21d58004723f3de6", "is_reserved": 0}, {"is_disabled": 0, "fusion_lon": 0.0, "fusion_lat": 0.0, "lat": 38.91538216666667, "type": "electric_scooter", "lon": -77.03202666666667, "bike_id": "e51284ee2083dfdd0278e7b94c53426d", "rental_uris": {"android": "https://dc.lft.to/lastmile_qr_scan", "ios": "https://dc.lft.to/lastmile_qr_scan"}, "name": "e51284ee2083dfdd0278e7b94c53426d", "is_reserved": 0}, {"is_disabled": 0, "fusion_lon": 0.0, "fusion_lat": 0.0, "lat": 38.920356, "type": "electric_scooter", "lon": -77.02583416666667, "bike_id": "80e27e8803e7992a4381e771c132cd31", "rental_uris": {"android": "https://dc.lft.to/lastmile_qr_scan", "ios": "https://dc.lft.to/lastmile_qr_scan"}, "name": "80e27e8803e7992a4381e771c132cd31", "is_reserved": 0}, {"is_disabled": 0, "fusion_lon": 0.0, "fusion_lat": 0.0, "lat": 38.952134, "type": "electric_scooter", "lon": -77.0363235, "bike_id": "39b6d0b0c644f1d10959aae07aec621b", "rental_uris": {"android": "https://dc.lft.to/lastmile_qr_scan", "ios": "https://dc.lft.to/lastmile_qr_scan"}, "name": "39b6d0b0c644f1d10959aae07aec621b", "is_reserved": 0}, {"is_disabled": 0, "fusion_lon": 0.0, "fusion_lat": 0.0, "lat": 38.896074166666665, "type": "electric_scooter", "lon": -77.0215875, "bike_id": "e6a2d46d8884050c9dd61cd9c587b8e8", "rental_uris": {"android": "https://dc.lft.to/lastmile_qr_scan", "ios": "https://dc.lft.to/lastmile_qr_scan"}, "name": "e6a2d46d8884050c9dd61cd9c587b8e8", "is_reserved": 0}, {"is_disabled": 0, "fusion_lon": 0.0, "fusion_lat": 0.0, "lat": 38.8952425, "type": "electric_scooter", "lon": -77.028368, "bike_id": "32bec16e7391c6c8c2748f5eac8557e1", "rental_uris": {"android": "https://dc.lft.to/lastmile_qr_scan", "ios": "https://dc.lft.to/lastmile_qr_scan"}, "name": "32bec16e7391c6c8c2748f5eac8557e1", "is_reserved": 0}, {"is_disabled": 0, "fusion_lon": 0.0, "fusion_lat": 0.0, "lat": 38.896044333333336, "type": "electric_scooter", "lon": -77.00921866666667, "bike_id": "42de7e656d9ee8a16d207f948b5704ed", "rental_uris": {"android": "https://dc.lft.to/lastmile_qr_scan", "ios": "https://dc.lft.to/lastmile_qr_scan"}, "name": "42de7e656d9ee8a16d207f948b5704ed", "is_reserved": 0}, {"is_disabled": 0, "fusion_lon": 0.0, "fusion_lat": 0.0, "lat": 38.925279333333336, "type": "electric_scooter", "lon": -77.044225, "bike_id": "b7c92b8c75612e29db72ce1b71a2d7b6", "rental_uris": {"android": "https://dc.lft.to/lastmile_qr_scan", "ios": "https://dc.lft.to/lastmile_qr_scan"}, "name": "b7c92b8c75612e29db72ce1b71a2d7b6", "is_reserved": 0}, {"is_disabled": 0, "fusion_lon": 0.0, "fusion_lat": 0.0, "lat": 38.8848225, "type": "electric_scooter", "lon": -76.92966583333333, "bike_id": "f1deae4d1e12bb865d342f28632798ab", "rental_uris": {"android": "https://dc.lft.to/lastmile_qr_scan", "ios": "https://dc.lft.to/lastmile_qr_scan"}, "name": "f1deae4d1e12bb865d342f28632798ab", "is_reserved": 0}, {"is_disabled": 0, "fusion_lon": 0.0, "fusion_lat": 0.0, "lat": 38.916228833333335, "type": "electric_scooter", "lon": -77.040205, "bike_id": "5b51cc68451b443e7b9edcc883a8419b", "rental_uris": {"android": "https://dc.lft.to/lastmile_qr_scan", "ios": "https://dc.lft.to/lastmile_qr_scan"}, "name": "5b51cc68451b443e7b9edcc883a8419b", "is_reserved": 0}, {"is_disabled": 0, "fusion_lon": 0.0, "fusion_lat": 0.0, "lat": 38.90773033333333, "type": "electric_scooter", "lon": -77.032104, "bike_id": "d54fca0db5c4084093ec6be83f8607ba", "rental_uris": {"android": "https://dc.lft.to/lastmile_qr_scan", "ios": "https://dc.lft.to/lastmile_qr_scan"}, "name": "d54fca0db5c4084093ec6be83f8607ba", "is_reserved": 0}, {"is_disabled": 0, "fusion_lon": 0.0, "fusion_lat": 0.0, "lat": 38.89791, "type": "electric_scooter", "lon": -77.03356333333333, "bike_id": "f15e4421e335de33152252cc2b0920c9", "rental_uris": {"android": "https://dc.lft.to/lastmile_qr_scan", "ios": "https://dc.lft.to/lastmile_qr_scan"}, "name": "f15e4421e335de33152252cc2b0920c9", "is_reserved": 0}, {"is_disabled": 0, "fusion_lon": 0.0, "fusion_lat": 0.0, "lat": 38.9592515, "type": "electric_bike", "lon": -77.03115683333333, "bike_id": "a9f5329a13cdb8475d2f86ac0e04eb6c", "rental_uris": {"android": "https://dc.lft.to/lastmile_qr_scan", "ios": "https://dc.lft.to/lastmile_qr_scan"}, "name": "a9f5329a13cdb8475d2f86ac0e04eb6c", "is_reserved": 0}, {"is_disabled": 0, "fusion_lon": 0.0, "fusion_lat": 0.0, "lat": 38.90264783333333, "type": "electric_scooter", "lon": -77.05322633333333, "bike_id": "927fc0394e46b2f1509d81a824a54928", "rental_uris": {"android": "https://dc.lft.to/lastmile_qr_scan", "ios": "https://dc.lft.to/lastmile_qr_scan"}, "name": "927fc0394e46b2f1509d81a824a54928", "is_reserved": 0}, {"is_disabled": 0, "fusion_lon": 0.0, "fusion_lat": 0.0, "lat": 38.919181333333334, "type": "electric_scooter", "lon": -77.04175483333333, "bike_id": "f7adabc9e13bd63de91e03e5d62ebc42", "rental_uris": {"android": "https://dc.lft.to/lastmile_qr_scan", "ios": "https://dc.lft.to/lastmile_qr_scan"}, "name": "f7adabc9e13bd63de91e03e5d62ebc42", "is_reserved": 0}, {"is_disabled": 0, "fusion_lon": 0.0, "fusion_lat": 0.0, "lat": 38.93324716666667, "type": "electric_scooter", "lon": -77.032751, "bike_id": "ad5207153eb3f2238ffc0968c796899c", "rental_uris": {"android": "https://dc.lft.to/lastmile_qr_scan", "ios": "https://dc.lft.to/lastmile_qr_scan"}, "name": "ad5207153eb3f2238ffc0968c796899c", "is_reserved": 0}, {"is_disabled": 0, "fusion_lon": 0.0, "fusion_lat": 0.0, "lat": 38.87631533333333, "type": "electric_scooter", "lon": -77.012567, "bike_id": "4111d47de830429d5697726787a6a892", "rental_uris": {"android": "https://dc.lft.to/lastmile_qr_scan", "ios": "https://dc.lft.to/lastmile_qr_scan"}, "name": "4111d47de830429d5697726787a6a892", "is_reserved": 0}, {"is_disabled": 0, "fusion_lon": 0.0, "fusion_lat": 0.0, "lat": 38.92459383333333, "type": "electric_scooter", "lon": -77.0296295, "bike_id": "6c8c188f1c8f8fdca4b46f9c8bc614cf", "rental_uris": {"android": "https://dc.lft.to/lastmile_qr_scan", "ios": "https://dc.lft.to/lastmile_qr_scan"}, "name": "6c8c188f1c8f8fdca4b46f9c8bc614cf", "is_reserved": 0}, {"is_disabled": 0, "fusion_lon": 0.0, "fusion_lat": 0.0, "lat": 38.902935, "type": "electric_scooter", "lon": -77.02378233333333, "bike_id": "e3d313b9b41b313a51b45b8701bc29fd", "rental_uris": {"android": "https://dc.lft.to/lastmile_qr_scan", "ios": "https://dc.lft.to/lastmile_qr_scan"}, "name": "e3d313b9b41b313a51b45b8701bc29fd", "is_reserved": 0}, {"is_disabled": 0, "fusion_lon": 0.0, "fusion_lat": 0.0, "lat": 38.946266666666666, "type": "electric_bike", "lon": -76.934131, "bike_id": "0a1c7721d8faa34afbdf3a94d1e9cdee", "rental_uris": {"android": "https://dc.lft.to/lastmile_qr_scan", "ios": "https://dc.lft.to/lastmile_qr_scan"}, "name": "0a1c7721d8faa34afbdf3a94d1e9cdee", "is_reserved": 0}, {"is_disabled": 0, "fusion_lon": 0.0, "fusion_lat": 0.0, "lat": 38.917087, "type": "electric_scooter", "lon": -77.02502583333333, "bike_id": "834f88f3f5fc8f100af35d324461d00d", "rental_uris": {"android": "https://dc.lft.to/lastmile_qr_scan", "ios": "https://dc.lft.to/lastmile_qr_scan"}, "name": "834f88f3f5fc8f100af35d324461d00d", "is_reserved": 0}, {"is_disabled": 0, "fusion_lon": 0.0, "fusion_lat": 0.0, "lat": 38.937137666666665, "type": "electric_scooter", "lon": -77.02453833333334, "bike_id": "ff481515a528329ad6c6d094f8b6bad0", "rental_uris": {"android": "https://dc.lft.to/lastmile_qr_scan", "ios": "https://dc.lft.to/lastmile_qr_scan"}, "name": "ff481515a528329ad6c6d094f8b6bad0", "is_reserved": 0}, {"is_disabled": 0, "fusion_lon": 0.0, "fusion_lat": 0.0, "lat": 38.91050416666667, "type": "electric_scooter", "lon": -77.02280616666667, "bike_id": "59cc7ce46fcd46aa18da9af5bcd37657", "rental_uris": {"android": "https://dc.lft.to/lastmile_qr_scan", "ios": "https://dc.lft.to/lastmile_qr_scan"}, "name": "59cc7ce46fcd46aa18da9af5bcd37657", "is_reserved": 0}, {"is_disabled": 0, "fusion_lon": 0.0, "fusion_lat": 0.0, "lat": 38.923086166666664, "type": "electric_scooter", "lon": -77.04037183333334, "bike_id": "9a8995a8ab41d64fada83818c68de14f", "rental_uris": {"android": "https://dc.lft.to/lastmile_qr_scan", "ios": "https://dc.lft.to/lastmile_qr_scan"}, "name": "9a8995a8ab41d64fada83818c68de14f", "is_reserved": 0}, {"is_disabled": 0, "fusion_lon": 0.0, "fusion_lat": 0.0, "lat": 38.903893833333335, "type": "electric_scooter", "lon": -76.990036, "bike_id": "8a8c862c54b586fa2f32b0d882e4c795", "rental_uris": {"android": "https://dc.lft.to/lastmile_qr_scan", "ios": "https://dc.lft.to/lastmile_qr_scan"}, "name": "8a8c862c54b586fa2f32b0d882e4c795", "is_reserved": 0}, {"is_disabled": 0, "fusion_lon": 0.0, "fusion_lat": 0.0, "lat": 38.9185815, "type": "electric_scooter", "lon": -77.03209383333333, "bike_id": "1e33615cbf02d96d154e23e6df591e71", "rental_uris": {"android": "https://dc.lft.to/lastmile_qr_scan", "ios": "https://dc.lft.to/lastmile_qr_scan"}, "name": "1e33615cbf02d96d154e23e6df591e71", "is_reserved": 0}, {"is_disabled": 0, "fusion_lon": 0.0, "fusion_lat": 0.0, "lat": 38.9053265, "type": "electric_scooter", "lon": -77.005808, "bike_id": "56688a2dcccee74bbe296f65d9ab771b", "rental_uris": {"android": "https://dc.lft.to/lastmile_qr_scan", "ios": "https://dc.lft.to/lastmile_qr_scan"}, "name": "56688a2dcccee74bbe296f65d9ab771b", "is_reserved": 0}, {"is_disabled": 0, "fusion_lon": 0.0, "fusion_lat": 0.0, "lat": 38.92952366666667, "type": "electric_scooter", "lon": -77.018908, "bike_id": "903ad7e939744697d3e98e2340eccfb1", "rental_uris": {"android": "https://dc.lft.to/lastmile_qr_scan", "ios": "https://dc.lft.to/lastmile_qr_scan"}, "name": "903ad7e939744697d3e98e2340eccfb1", "is_reserved": 0}, {"is_disabled": 0, "fusion_lon": 0.0, "fusion_lat": 0.0, "lat": 38.95777116666667, "type": "electric_bike", "lon": -76.9408935, "bike_id": "91a6860abb9581a272999852c0db8174", "rental_uris": {"android": "https://dc.lft.to/lastmile_qr_scan", "ios": "https://dc.lft.to/lastmile_qr_scan"}, "name": "91a6860abb9581a272999852c0db8174", "is_reserved": 0}, {"is_disabled": 0, "fusion_lon": 0.0, "fusion_lat": 0.0, "lat": 38.91622733333333, "type": "electric_scooter", "lon": -77.0215845, "bike_id": "26e25df051e0910a292e43b7d14191bc", "rental_uris": {"android": "https://dc.lft.to/lastmile_qr_scan", "ios": "https://dc.lft.to/lastmile_qr_scan"}, "name": "26e25df051e0910a292e43b7d14191bc", "is_reserved": 0}, {"is_disabled": 0, "fusion_lon": 0.0, "fusion_lat": 0.0, "lat": 38.91954833333333, "type": "electric_scooter", "lon": -77.01648616666667, "bike_id": "aef6430516c4e5084d118bffb410473c", "rental_uris": {"android": "https://dc.lft.to/lastmile_qr_scan", "ios": "https://dc.lft.to/lastmile_qr_scan"}, "name": "aef6430516c4e5084d118bffb410473c", "is_reserved": 0}, {"is_disabled": 0, "fusion_lon": 0.0, "fusion_lat": 0.0, "lat": 38.893654166666664, "type": "electric_scooter", "lon": -76.94025533333334, "bike_id": "40f5a075ad2d90b92edfaa501e4fcefb", "rental_uris": {"android": "https://dc.lft.to/lastmile_qr_scan", "ios": "https://dc.lft.to/lastmile_qr_scan"}, "name": "40f5a075ad2d90b92edfaa501e4fcefb", "is_reserved": 0}, {"is_disabled": 0, "fusion_lon": 0.0, "fusion_lat": 0.0, "lat": 38.9195755, "type": "electric_scooter", "lon": -77.00074633333334, "bike_id": "77b89c891a0a55d96869b54968086798", "rental_uris": {"android": "https://dc.lft.to/lastmile_qr_scan", "ios": "https://dc.lft.to/lastmile_qr_scan"}, "name": "77b89c891a0a55d96869b54968086798", "is_reserved": 0}, {"is_disabled": 0, "fusion_lon": 0.0, "fusion_lat": 0.0, "lat": 38.907255666666664, "type": "electric_scooter", "lon": -77.02977283333334, "bike_id": "d334cdaabd8d54dd0322cd1e41e0dd02", "rental_uris": {"android": "https://dc.lft.to/lastmile_qr_scan", "ios": "https://dc.lft.to/lastmile_qr_scan"}, "name": "d334cdaabd8d54dd0322cd1e41e0dd02", "is_reserved": 0}, {"is_disabled": 0, "fusion_lon": 0.0, "fusion_lat": 0.0, "lat": 38.90692933333333, "type": "electric_bike", "lon": -76.95192416666667, "bike_id": "7a79c86e16c74f3f1997f80428d2122f", "rental_uris": {"android": "https://dc.lft.to/lastmile_qr_scan", "ios": "https://dc.lft.to/lastmile_qr_scan"}, "name": "7a79c86e16c74f3f1997f80428d2122f", "is_reserved": 0}, {"is_disabled": 0, "fusion_lon": 0.0, "fusion_lat": 0.0, "lat": 38.899871833333336, "type": "electric_scooter", "lon": -76.99505983333333, "bike_id": "c8589080c8bdb51f042d9051b08ebe45", "rental_uris": {"android": "https://dc.lft.to/lastmile_qr_scan", "ios": "https://dc.lft.to/lastmile_qr_scan"}, "name": "c8589080c8bdb51f042d9051b08ebe45", "is_reserved": 0}, {"is_disabled": 0, "fusion_lon": 0.0, "fusion_lat": 0.0, "lat": 38.912062666666664, "type": "electric_scooter", "lon": -77.03850033333333, "bike_id": "1b7751df96a93371799b4a0e01279f22", "rental_uris": {"android": "https://dc.lft.to/lastmile_qr_scan", "ios": "https://dc.lft.to/lastmile_qr_scan"}, "name": "1b7751df96a93371799b4a0e01279f22", "is_reserved": 0}, {"is_disabled": 0, "fusion_lon": 0.0, "fusion_lat": 0.0, "lat": 38.932279666666666, "type": "electric_scooter", "lon": -77.02032033333333, "bike_id": "3b4a9756fe48f3325c375d8b2340e9a4", "rental_uris": {"android": "https://dc.lft.to/lastmile_qr_scan", "ios": "https://dc.lft.to/lastmile_qr_scan"}, "name": "3b4a9756fe48f3325c375d8b2340e9a4", "is_reserved": 0}, {"is_disabled": 0, "fusion_lon": 0.0, "fusion_lat": 0.0, "lat": 38.88739233333333, "type": "electric_scooter", "lon": -77.015296, "bike_id": "0cfe63d3c9be378d347da5aa151c4ffc", "rental_uris": {"android": "https://dc.lft.to/lastmile_qr_scan", "ios": "https://dc.lft.to/lastmile_qr_scan"}, "name": "0cfe63d3c9be378d347da5aa151c4ffc", "is_reserved": 0}, {"is_disabled": 0, "fusion_lon": 0.0, "fusion_lat": 0.0, "lat": 38.9126615, "type": "electric_scooter", "lon": -77.01689716666667, "bike_id": "3ea256cde263f9e724fbd0531d359d8f", "rental_uris": {"android": "https://dc.lft.to/lastmile_qr_scan", "ios": "https://dc.lft.to/lastmile_qr_scan"}, "name": "3ea256cde263f9e724fbd0531d359d8f", "is_reserved": 0}, {"is_disabled": 0, "fusion_lon": 0.0, "fusion_lat": 0.0, "lat": 38.89535866666667, "type": "electric_scooter", "lon": -77.029489, "bike_id": "5b5e9101f18b58ed8b22ca49a86b179e", "rental_uris": {"android": "https://dc.lft.to/lastmile_qr_scan", "ios": "https://dc.lft.to/lastmile_qr_scan"}, "name": "5b5e9101f18b58ed8b22ca49a86b179e", "is_reserved": 0}, {"is_disabled": 0, "fusion_lon": 0.0, "fusion_lat": 0.0, "lat": 38.919698, "type": "electric_scooter", "lon": -77.04175466666666, "bike_id": "8d3d57ede19d192261a892c444ea3f51", "rental_uris": {"android": "https://dc.lft.to/lastmile_qr_scan", "ios": "https://dc.lft.to/lastmile_qr_scan"}, "name": "8d3d57ede19d192261a892c444ea3f51", "is_reserved": 0}, {"is_disabled": 0, "fusion_lon": 0.0, "fusion_lat": 0.0, "lat": 38.967587, "type": "electric_bike", "lon": -77.09158366666666, "bike_id": "9e63575227d7182f319931b23d103f42", "rental_uris": {"android": "https://dc.lft.to/lastmile_qr_scan", "ios": "https://dc.lft.to/lastmile_qr_scan"}, "name": "9e63575227d7182f319931b23d103f42", "is_reserved": 0}, {"is_disabled": 0, "fusion_lon": 0.0, "fusion_lat": 0.0, "lat": 38.998740166666664, "type": "electric_bike", "lon": -77.028773, "bike_id": "821bc36bfe640af8215effca9a05d48b", "rental_uris": {"android": "https://dc.lft.to/lastmile_qr_scan", "ios": "https://dc.lft.to/lastmile_qr_scan"}, "name": "821bc36bfe640af8215effca9a05d48b", "is_reserved": 0}, {"is_disabled": 0, "fusion_lon": 0.0, "fusion_lat": 0.0, "lat": 38.924807666666666, "type": "electric_scooter", "lon": -77.02713566666667, "bike_id": "c2e92ca43e6701156cf0a745051efb46", "rental_uris": {"android": "https://dc.lft.to/lastmile_qr_scan", "ios": "https://dc.lft.to/lastmile_qr_scan"}, "name": "c2e92ca43e6701156cf0a745051efb46", "is_reserved": 0}, {"is_disabled": 0, "fusion_lon": 0.0, "fusion_lat": 0.0, "lat": 38.896131, "type": "electric_bike", "lon": -77.02985816666667, "bike_id": "766e478675be39c448b18b6d99ee27a2", "rental_uris": {"android": "https://dc.lft.to/lastmile_qr_scan", "ios": "https://dc.lft.to/lastmile_qr_scan"}, "name": "766e478675be39c448b18b6d99ee27a2", "is_reserved": 0}, {"is_disabled": 0, "fusion_lon": 0.0, "fusion_lat": 0.0, "lat": 38.928600833333334, "type": "electric_scooter", "lon": -77.01410333333334, "bike_id": "0da6f53e792cee78c9740627cc5a1f98", "rental_uris": {"android": "https://dc.lft.to/lastmile_qr_scan", "ios": "https://dc.lft.to/lastmile_qr_scan"}, "name": "0da6f53e792cee78c9740627cc5a1f98", "is_reserved": 0}, {"is_disabled": 0, "fusion_lon": 0.0, "fusion_lat": 0.0, "lat": 38.89744316666667, "type": "electric_scooter", "lon": -77.02617466666666, "bike_id": "07d6092b3d3dc9fc07d6130448ec3688", "rental_uris": {"android": "https://dc.lft.to/lastmile_qr_scan", "ios": "https://dc.lft.to/lastmile_qr_scan"}, "name": "07d6092b3d3dc9fc07d6130448ec3688", "is_reserved": 0}, {"is_disabled": 0, "fusion_lon": 0.0, "fusion_lat": 0.0, "lat": 38.85807, "type": "electric_scooter", "lon": -76.98653133333333, "bike_id": "38e952d9c0cdfa6f3e0d3415269f1ecb", "rental_uris": {"android": "https://dc.lft.to/lastmile_qr_scan", "ios": "https://dc.lft.to/lastmile_qr_scan"}, "name": "38e952d9c0cdfa6f3e0d3415269f1ecb", "is_reserved": 0}, {"is_disabled": 0, "fusion_lon": 0.0, "fusion_lat": 0.0, "lat": 38.841996, "type": "electric_bike", "lon": -77.10677883333334, "bike_id": "388e5477e208fb63e533589222febeec", "rental_uris": {"android": "https://dc.lft.to/lastmile_qr_scan", "ios": "https://dc.lft.to/lastmile_qr_scan"}, "name": "388e5477e208fb63e533589222febeec", "is_reserved": 0}, {"is_disabled": 0, "fusion_lon": 0.0, "fusion_lat": 0.0, "lat": 38.8883525, "type": "electric_scooter", "lon": -77.0490685, "bike_id": "c105e971ad67651119a2f7a70e00083e", "rental_uris": {"android": "https://dc.lft.to/lastmile_qr_scan", "ios": "https://dc.lft.to/lastmile_qr_scan"}, "name": "c105e971ad67651119a2f7a70e00083e", "is_reserved": 0}, {"is_disabled": 0, "fusion_lon": 0.0, "fusion_lat": 0.0, "lat": 38.90136966666667, "type": "electric_scooter", "lon": -77.011987, "bike_id": "cb741a01ffeef5c42cdce25b2d1e0ce4", "rental_uris": {"android": "https://dc.lft.to/lastmile_qr_scan", "ios": "https://dc.lft.to/lastmile_qr_scan"}, "name": "cb741a01ffeef5c42cdce25b2d1e0ce4", "is_reserved": 0}, {"is_disabled": 0, "fusion_lon": 0.0, "fusion_lat": 0.0, "lat": 38.92326883333333, "type": "electric_scooter", "lon": -77.03585833333334, "bike_id": "597ba515a4ab2e4adc165dd173f97717", "rental_uris": {"android": "https://dc.lft.to/lastmile_qr_scan", "ios": "https://dc.lft.to/lastmile_qr_scan"}, "name": "597ba515a4ab2e4adc165dd173f97717", "is_reserved": 0}, {"is_disabled": 0, "fusion_lon": 0.0, "fusion_lat": 0.0, "lat": 38.916028833333336, "type": "electric_scooter", "lon": -77.0230465, "bike_id": "d39cd3ffecdfd32157e4092226730b52", "rental_uris": {"android": "https://dc.lft.to/lastmile_qr_scan", "ios": "https://dc.lft.to/lastmile_qr_scan"}, "name": "d39cd3ffecdfd32157e4092226730b52", "is_reserved": 0}, {"is_disabled": 0, "fusion_lon": 0.0, "fusion_lat": 0.0, "lat": 38.92273683333333, "type": "electric_scooter", "lon": -77.04467316666667, "bike_id": "67229f234ca5b0fdc2519cc77e87e6f5", "rental_uris": {"android": "https://dc.lft.to/lastmile_qr_scan", "ios": "https://dc.lft.to/lastmile_qr_scan"}, "name": "67229f234ca5b0fdc2519cc77e87e6f5", "is_reserved": 0}, {"is_disabled": 0, "fusion_lon": 0.0, "fusion_lat": 0.0, "lat": 38.9225535, "type": "electric_scooter", "lon": -77.04227966666667, "bike_id": "91bd12199d865fa7d65bdbe289c35ed6", "rental_uris": {"android": "https://dc.lft.to/lastmile_qr_scan", "ios": "https://dc.lft.to/lastmile_qr_scan"}, "name": "91bd12199d865fa7d65bdbe289c35ed6", "is_reserved": 0}, {"is_disabled": 0, "fusion_lon": 0.0, "fusion_lat": 0.0, "lat": 38.903832, "type": "electric_scooter", "lon": -77.04387366666667, "bike_id": "753029883198746700e97d72c4c510a7", "rental_uris": {"android": "https://dc.lft.to/lastmile_qr_scan", "ios": "https://dc.lft.to/lastmile_qr_scan"}, "name": "753029883198746700e97d72c4c510a7", "is_reserved": 0}, {"is_disabled": 0, "fusion_lon": 0.0, "fusion_lat": 0.0, "lat": 38.9199565, "type": "electric_scooter", "lon": -77.02535366666666, "bike_id": "29049086dd04d1d4673cd9afe6bc98b9", "rental_uris": {"android": "https://dc.lft.to/lastmile_qr_scan", "ios": "https://dc.lft.to/lastmile_qr_scan"}, "name": "29049086dd04d1d4673cd9afe6bc98b9", "is_reserved": 0}, {"is_disabled": 0, "fusion_lon": 0.0, "fusion_lat": 0.0, "lat": 38.914227, "type": "electric_scooter", "lon": -77.03196283333334, "bike_id": "cc32415204b941749e8ba2690da8ff92", "rental_uris": {"android": "https://dc.lft.to/lastmile_qr_scan", "ios": "https://dc.lft.to/lastmile_qr_scan"}, "name": "cc32415204b941749e8ba2690da8ff92", "is_reserved": 0}, {"is_disabled": 0, "fusion_lon": 0.0, "fusion_lat": 0.0, "lat": 38.82783583333333, "type": "electric_bike", "lon": -77.1108195, "bike_id": "77d376cae33ad4278eac3c932b37da0e", "rental_uris": {"android": "https://dc.lft.to/lastmile_qr_scan", "ios": "https://dc.lft.to/lastmile_qr_scan"}, "name": "77d376cae33ad4278eac3c932b37da0e", "is_reserved": 0}, {"is_disabled": 0, "fusion_lon": 0.0, "fusion_lat": 0.0, "lat": 38.905131833333336, "type": "electric_scooter", "lon": -77.06520416666666, "bike_id": "4a4112f0df926bec234882407a52826c", "rental_uris": {"android": "https://dc.lft.to/lastmile_qr_scan", "ios": "https://dc.lft.to/lastmile_qr_scan"}, "name": "4a4112f0df926bec234882407a52826c", "is_reserved": 0}, {"is_disabled": 0, "fusion_lon": 0.0, "fusion_lat": 0.0, "lat": 38.89965983333333, "type": "electric_scooter", "lon": -76.93983083333333, "bike_id": "7533cb366466301278399233a3bceb50", "rental_uris": {"android": "https://dc.lft.to/lastmile_qr_scan", "ios": "https://dc.lft.to/lastmile_qr_scan"}, "name": "7533cb366466301278399233a3bceb50", "is_reserved": 0}, {"is_disabled": 0, "fusion_lon": 0.0, "fusion_lat": 0.0, "lat": 38.9626455, "type": "electric_scooter", "lon": -77.0289885, "bike_id": "513978cc7e3d57c94acb32c9230d241b", "rental_uris": {"android": "https://dc.lft.to/lastmile_qr_scan", "ios": "https://dc.lft.to/lastmile_qr_scan"}, "name": "513978cc7e3d57c94acb32c9230d241b", "is_reserved": 0}, {"is_disabled": 0, "fusion_lon": 0.0, "fusion_lat": 0.0, "lat": 38.943024, "type": "electric_scooter", "lon": -77.02764116666667, "bike_id": "9b53e4bcd2970ef4a241929724765b7a", "rental_uris": {"android": "https://dc.lft.to/lastmile_qr_scan", "ios": "https://dc.lft.to/lastmile_qr_scan"}, "name": "9b53e4bcd2970ef4a241929724765b7a", "is_reserved": 0}, {"is_disabled": 0, "fusion_lon": 0.0, "fusion_lat": 0.0, "lat": 38.908884, "type": "electric_scooter", "lon": -77.04580166666666, "bike_id": "aef52bd80cd9e7f23ceb4bf1a8a97812", "rental_uris": {"android": "https://dc.lft.to/lastmile_qr_scan", "ios": "https://dc.lft.to/lastmile_qr_scan"}, "name": "aef52bd80cd9e7f23ceb4bf1a8a97812", "is_reserved": 0}, {"is_disabled": 0, "fusion_lon": 0.0, "fusion_lat": 0.0, "lat": 38.90015266666666, "type": "electric_scooter", "lon": -77.0335105, "bike_id": "f72138ed8e68a3a03a9aaad77ab4e5d4", "rental_uris": {"android": "https://dc.lft.to/lastmile_qr_scan", "ios": "https://dc.lft.to/lastmile_qr_scan"}, "name": "f72138ed8e68a3a03a9aaad77ab4e5d4", "is_reserved": 0}, {"is_disabled": 0, "fusion_lon": 0.0, "fusion_lat": 0.0, "lat": 38.9049505, "type": "electric_scooter", "lon": -77.05138933333333, "bike_id": "4814f30bbf76e5151b17675c5b474916", "rental_uris": {"android": "https://dc.lft.to/lastmile_qr_scan", "ios": "https://dc.lft.to/lastmile_qr_scan"}, "name": "4814f30bbf76e5151b17675c5b474916", "is_reserved": 0}, {"is_disabled": 0, "fusion_lon": 0.0, "fusion_lat": 0.0, "lat": 38.923366666666666, "type": "electric_scooter", "lon": -77.04188633333334, "bike_id": "35be3e4d59f3b5d4bb5808d824889949", "rental_uris": {"android": "https://dc.lft.to/lastmile_qr_scan", "ios": "https://dc.lft.to/lastmile_qr_scan"}, "name": "35be3e4d59f3b5d4bb5808d824889949", "is_reserved": 0}, {"is_disabled": 0, "fusion_lon": 0.0, "fusion_lat": 0.0, "lat": 38.9193285, "type": "electric_bike", "lon": -76.97502083333333, "bike_id": "2e045c2f0a721a93cc2dfbad0d026e6b", "rental_uris": {"android": "https://dc.lft.to/lastmile_qr_scan", "ios": "https://dc.lft.to/lastmile_qr_scan"}, "name": "2e045c2f0a721a93cc2dfbad0d026e6b", "is_reserved": 0}, {"is_disabled": 0, "fusion_lon": 0.0, "fusion_lat": 0.0, "lat": 38.911003666666666, "type": "electric_scooter", "lon": -77.02968083333333, "bike_id": "2cdb94167e33f28561e843638c3560a6", "rental_uris": {"android": "https://dc.lft.to/lastmile_qr_scan", "ios": "https://dc.lft.to/lastmile_qr_scan"}, "name": "2cdb94167e33f28561e843638c3560a6", "is_reserved": 0}, {"is_disabled": 0, "fusion_lon": 0.0, "fusion_lat": 0.0, "lat": 38.902328833333335, "type": "electric_scooter", "lon": -77.05998533333333, "bike_id": "f4d6793ed2a6ab8c17818dcc69bfc265", "rental_uris": {"android": "https://dc.lft.to/lastmile_qr_scan", "ios": "https://dc.lft.to/lastmile_qr_scan"}, "name": "f4d6793ed2a6ab8c17818dcc69bfc265", "is_reserved": 0}, {"is_disabled": 0, "fusion_lon": 0.0, "fusion_lat": 0.0, "lat": 38.810254, "type": "electric_bike", "lon": -77.08435716666666, "bike_id": "1d3965bd80089c134df1cd9d0bf36781", "rental_uris": {"android": "https://dc.lft.to/lastmile_qr_scan", "ios": "https://dc.lft.to/lastmile_qr_scan"}, "name": "1d3965bd80089c134df1cd9d0bf36781", "is_reserved": 0}, {"is_disabled": 0, "fusion_lon": 0.0, "fusion_lat": 0.0, "lat": 38.904722666666665, "type": "electric_scooter", "lon": -77.03218233333334, "bike_id": "9234e9448dd535c5fc07134196a3cabb", "rental_uris": {"android": "https://dc.lft.to/lastmile_qr_scan", "ios": "https://dc.lft.to/lastmile_qr_scan"}, "name": "9234e9448dd535c5fc07134196a3cabb", "is_reserved": 0}, {"is_disabled": 0, "fusion_lon": 0.0, "fusion_lat": 0.0, "lat": 38.92969133333333, "type": "electric_scooter", "lon": -77.0207085, "bike_id": "deea1238e8f42a026819afdf804f77ab", "rental_uris": {"android": "https://dc.lft.to/lastmile_qr_scan", "ios": "https://dc.lft.to/lastmile_qr_scan"}, "name": "deea1238e8f42a026819afdf804f77ab", "is_reserved": 0}, {"is_disabled": 0, "fusion_lon": 0.0, "fusion_lat": 0.0, "lat": 38.964220166666664, "type": "electric_scooter", "lon": -77.07529616666666, "bike_id": "9e2b0f0e49d9420c46866450c0ebed87", "rental_uris": {"android": "https://dc.lft.to/lastmile_qr_scan", "ios": "https://dc.lft.to/lastmile_qr_scan"}, "name": "9e2b0f0e49d9420c46866450c0ebed87", "is_reserved": 0}, {"is_disabled": 0, "fusion_lon": 0.0, "fusion_lat": 0.0, "lat": 38.942031666666665, "type": "electric_scooter", "lon": -77.02589266666666, "bike_id": "661ce00b6c678e69cbeca46185cd7587", "rental_uris": {"android": "https://dc.lft.to/lastmile_qr_scan", "ios": "https://dc.lft.to/lastmile_qr_scan"}, "name": "661ce00b6c678e69cbeca46185cd7587", "is_reserved": 0}, {"is_disabled": 0, "fusion_lon": 0.0, "fusion_lat": 0.0, "lat": 38.90413483333333, "type": "electric_scooter", "lon": -77.05336466666667, "bike_id": "dcba77546d42480dc946378b70130b74", "rental_uris": {"android": "https://dc.lft.to/lastmile_qr_scan", "ios": "https://dc.lft.to/lastmile_qr_scan"}, "name": "dcba77546d42480dc946378b70130b74", "is_reserved": 0}, {"is_disabled": 0, "fusion_lon": 0.0, "fusion_lat": 0.0, "lat": 38.934037000000004, "type": "electric_scooter", "lon": -77.032581, "bike_id": "4ad1ddc8312d7627d01b265a993ba6dd", "rental_uris": {"android": "https://dc.lft.to/lastmile_qr_scan", "ios": "https://dc.lft.to/lastmile_qr_scan"}, "name": "4ad1ddc8312d7627d01b265a993ba6dd", "is_reserved": 0}, {"is_disabled": 0, "fusion_lon": 0.0, "fusion_lat": 0.0, "lat": 38.9041405, "type": "electric_scooter", "lon": -77.00588483333334, "bike_id": "d44a9f09020d1d1bdc3322abf56bdaaa", "rental_uris": {"android": "https://dc.lft.to/lastmile_qr_scan", "ios": "https://dc.lft.to/lastmile_qr_scan"}, "name": "d44a9f09020d1d1bdc3322abf56bdaaa", "is_reserved": 0}, {"is_disabled": 0, "fusion_lon": 0.0, "fusion_lat": 0.0, "lat": 38.91035766666667, "type": "electric_scooter", "lon": -77.04009266666667, "bike_id": "840de9f780a83c75d0fd38b6f44e140e", "rental_uris": {"android": "https://dc.lft.to/lastmile_qr_scan", "ios": "https://dc.lft.to/lastmile_qr_scan"}, "name": "840de9f780a83c75d0fd38b6f44e140e", "is_reserved": 0}, {"is_disabled": 0, "fusion_lon": 0.0, "fusion_lat": 0.0, "lat": 38.92348416666667, "type": "electric_scooter", "lon": -77.03393683333333, "bike_id": "8c96c12e4571f4b84a6f044172ba5d8b", "rental_uris": {"android": "https://dc.lft.to/lastmile_qr_scan", "ios": "https://dc.lft.to/lastmile_qr_scan"}, "name": "8c96c12e4571f4b84a6f044172ba5d8b", "is_reserved": 0}, {"is_disabled": 0, "fusion_lon": 0.0, "fusion_lat": 0.0, "lat": 38.858078666666664, "type": "electric_scooter", "lon": -76.98652366666667, "bike_id": "72184b055c51ccdef018e34b2e1e3ebe", "rental_uris": {"android": "https://dc.lft.to/lastmile_qr_scan", "ios": "https://dc.lft.to/lastmile_qr_scan"}, "name": "72184b055c51ccdef018e34b2e1e3ebe", "is_reserved": 0}, {"is_disabled": 0, "fusion_lon": 0.0, "fusion_lat": 0.0, "lat": 38.906811166666664, "type": "electric_scooter", "lon": -76.97997533333333, "bike_id": "f55b3cef546d2bf416b94686140adc92", "rental_uris": {"android": "https://dc.lft.to/lastmile_qr_scan", "ios": "https://dc.lft.to/lastmile_qr_scan"}, "name": "f55b3cef546d2bf416b94686140adc92", "is_reserved": 0}, {"is_disabled": 0, "fusion_lon": 0.0, "fusion_lat": 0.0, "lat": 38.865256333333335, "type": "electric_scooter", "lon": -76.9896685, "bike_id": "cdceb13eba82f9aa1a83f07c1ee39ef1", "rental_uris": {"android": "https://dc.lft.to/lastmile_qr_scan", "ios": "https://dc.lft.to/lastmile_qr_scan"}, "name": "cdceb13eba82f9aa1a83f07c1ee39ef1", "is_reserved": 0}, {"is_disabled": 0, "fusion_lon": 0.0, "fusion_lat": 0.0, "lat": 38.927486, "type": "electric_scooter", "lon": -77.01615733333334, "bike_id": "15c7771c76401f356004922258c4f2af", "rental_uris": {"android": "https://dc.lft.to/lastmile_qr_scan", "ios": "https://dc.lft.to/lastmile_qr_scan"}, "name": "15c7771c76401f356004922258c4f2af", "is_reserved": 0}, {"is_disabled": 0, "fusion_lon": 0.0, "fusion_lat": 0.0, "lat": 38.90883616666667, "type": "electric_scooter", "lon": -77.03538316666666, "bike_id": "d532b055e67242c34931ab76dcdfc7b1", "rental_uris": {"android": "https://dc.lft.to/lastmile_qr_scan", "ios": "https://dc.lft.to/lastmile_qr_scan"}, "name": "d532b055e67242c34931ab76dcdfc7b1", "is_reserved": 0}, {"is_disabled": 0, "fusion_lon": 0.0, "fusion_lat": 0.0, "lat": 38.9219825, "type": "electric_scooter", "lon": -76.997047, "bike_id": "5a096b3ad4e7aa07f5629ba11d94ad77", "rental_uris": {"android": "https://dc.lft.to/lastmile_qr_scan", "ios": "https://dc.lft.to/lastmile_qr_scan"}, "name": "5a096b3ad4e7aa07f5629ba11d94ad77", "is_reserved": 0}, {"is_disabled": 0, "fusion_lon": 0.0, "fusion_lat": 0.0, "lat": 38.91182933333333, "type": "electric_scooter", "lon": -77.03501416666667, "bike_id": "9c57d65c90d411edc37db4910a3ef828", "rental_uris": {"android": "https://dc.lft.to/lastmile_qr_scan", "ios": "https://dc.lft.to/lastmile_qr_scan"}, "name": "9c57d65c90d411edc37db4910a3ef828", "is_reserved": 0}, {"is_disabled": 0, "fusion_lon": 0.0, "fusion_lat": 0.0, "lat": 38.90083033333333, "type": "electric_scooter", "lon": -77.01821333333334, "bike_id": "f5af2c6e89919575554f7c3bfa8ad3d8", "rental_uris": {"android": "https://dc.lft.to/lastmile_qr_scan", "ios": "https://dc.lft.to/lastmile_qr_scan"}, "name": "f5af2c6e89919575554f7c3bfa8ad3d8", "is_reserved": 0}, {"is_disabled": 0, "fusion_lon": 0.0, "fusion_lat": 0.0, "lat": 38.90593116666667, "type": "electric_scooter", "lon": -77.04361566666667, "bike_id": "f87a125ee61cc7b31817dd6bc91e09df", "rental_uris": {"android": "https://dc.lft.to/lastmile_qr_scan", "ios": "https://dc.lft.to/lastmile_qr_scan"}, "name": "f87a125ee61cc7b31817dd6bc91e09df", "is_reserved": 0}, {"is_disabled": 0, "fusion_lon": 0.0, "fusion_lat": 0.0, "lat": 38.911847, "type": "electric_scooter", "lon": -77.04157116666667, "bike_id": "78eb8deb8fcb057e6a4a3e1f9e8c3572", "rental_uris": {"android": "https://dc.lft.to/lastmile_qr_scan", "ios": "https://dc.lft.to/lastmile_qr_scan"}, "name": "78eb8deb8fcb057e6a4a3e1f9e8c3572", "is_reserved": 0}, {"is_disabled": 0, "fusion_lon": 0.0, "fusion_lat": 0.0, "lat": 38.908816, "type": "electric_scooter", "lon": -77.04134683333334, "bike_id": "ae30723ddb193f5cda5960409b80b20d", "rental_uris": {"android": "https://dc.lft.to/lastmile_qr_scan", "ios": "https://dc.lft.to/lastmile_qr_scan"}, "name": "ae30723ddb193f5cda5960409b80b20d", "is_reserved": 0}, {"is_disabled": 0, "fusion_lon": 0.0, "fusion_lat": 0.0, "lat": 38.893939, "type": "electric_scooter", "lon": -76.94990583333333, "bike_id": "24603e7e1814a70bbb34c46763b9e04b", "rental_uris": {"android": "https://dc.lft.to/lastmile_qr_scan", "ios": "https://dc.lft.to/lastmile_qr_scan"}, "name": "24603e7e1814a70bbb34c46763b9e04b", "is_reserved": 0}, {"is_disabled": 0, "fusion_lon": 0.0, "fusion_lat": 0.0, "lat": 38.915609, "type": "electric_scooter", "lon": -77.03248516666666, "bike_id": "3a1409349ddda42d42be396f7cb31269", "rental_uris": {"android": "https://dc.lft.to/lastmile_qr_scan", "ios": "https://dc.lft.to/lastmile_qr_scan"}, "name": "3a1409349ddda42d42be396f7cb31269", "is_reserved": 0}, {"is_disabled": 0, "fusion_lon": 0.0, "fusion_lat": 0.0, "lat": 38.91264783333333, "type": "electric_scooter", "lon": -77.03761733333333, "bike_id": "65689ec6a7d753c7f4b87a3590bb82b0", "rental_uris": {"android": "https://dc.lft.to/lastmile_qr_scan", "ios": "https://dc.lft.to/lastmile_qr_scan"}, "name": "65689ec6a7d753c7f4b87a3590bb82b0", "is_reserved": 0}, {"is_disabled": 0, "fusion_lon": 0.0, "fusion_lat": 0.0, "lat": 38.911213000000004, "type": "electric_scooter", "lon": -77.0440245, "bike_id": "e80978ca852fe4060e34fe20bf4c0d2d", "rental_uris": {"android": "https://dc.lft.to/lastmile_qr_scan", "ios": "https://dc.lft.to/lastmile_qr_scan"}, "name": "e80978ca852fe4060e34fe20bf4c0d2d", "is_reserved": 0}, {"is_disabled": 0, "fusion_lon": 0.0, "fusion_lat": 0.0, "lat": 38.9193725, "type": "electric_scooter", "lon": -77.04169983333334, "bike_id": "9f25679235fb6f3de6609aa032492051", "rental_uris": {"android": "https://dc.lft.to/lastmile_qr_scan", "ios": "https://dc.lft.to/lastmile_qr_scan"}, "name": "9f25679235fb6f3de6609aa032492051", "is_reserved": 0}, {"is_disabled": 0, "fusion_lon": 0.0, "fusion_lat": 0.0, "lat": 38.895380333333335, "type": "electric_scooter", "lon": -77.02165233333334, "bike_id": "61a1001a06134e08d834923f83d07d66", "rental_uris": {"android": "https://dc.lft.to/lastmile_qr_scan", "ios": "https://dc.lft.to/lastmile_qr_scan"}, "name": "61a1001a06134e08d834923f83d07d66", "is_reserved": 0}, {"is_disabled": 0, "fusion_lon": 0.0, "fusion_lat": 0.0, "lat": 38.909599166666666, "type": "electric_scooter", "lon": -77.03953466666667, "bike_id": "a9d71f6684af9fd3b557d03752952f72", "rental_uris": {"android": "https://dc.lft.to/lastmile_qr_scan", "ios": "https://dc.lft.to/lastmile_qr_scan"}, "name": "a9d71f6684af9fd3b557d03752952f72", "is_reserved": 0}, {"is_disabled": 0, "fusion_lon": 0.0, "fusion_lat": 0.0, "lat": 38.917029666666664, "type": "electric_scooter", "lon": -77.0011075, "bike_id": "8c0d6e8eb3d3d7f8b16a1a5ae82df9a7", "rental_uris": {"android": "https://dc.lft.to/lastmile_qr_scan", "ios": "https://dc.lft.to/lastmile_qr_scan"}, "name": "8c0d6e8eb3d3d7f8b16a1a5ae82df9a7", "is_reserved": 0}, {"is_disabled": 0, "fusion_lon": 0.0, "fusion_lat": 0.0, "lat": 38.9223025, "type": "electric_scooter", "lon": -77.04344633333334, "bike_id": "5e3aeb6bd1f5d03ee18ecc4fb157f0df", "rental_uris": {"android": "https://dc.lft.to/lastmile_qr_scan", "ios": "https://dc.lft.to/lastmile_qr_scan"}, "name": "5e3aeb6bd1f5d03ee18ecc4fb157f0df", "is_reserved": 0}, {"is_disabled": 0, "fusion_lon": 0.0, "fusion_lat": 0.0, "lat": 38.91702516666667, "type": "electric_bike", "lon": -77.09560816666666, "bike_id": "00b6068e4ac812c0980de4c08d145e57", "rental_uris": {"android": "https://dc.lft.to/lastmile_qr_scan", "ios": "https://dc.lft.to/lastmile_qr_scan"}, "name": "00b6068e4ac812c0980de4c08d145e57", "is_reserved": 0}, {"is_disabled": 0, "fusion_lon": 0.0, "fusion_lat": 0.0, "lat": 38.92316183333333, "type": "electric_scooter", "lon": -77.03803566666667, "bike_id": "6471e993db19a155d88010e1b1a8a16a", "rental_uris": {"android": "https://dc.lft.to/lastmile_qr_scan", "ios": "https://dc.lft.to/lastmile_qr_scan"}, "name": "6471e993db19a155d88010e1b1a8a16a", "is_reserved": 0}, {"is_disabled": 0, "fusion_lon": 0.0, "fusion_lat": 0.0, "lat": 38.91639166666667, "type": "electric_scooter", "lon": -77.02280783333333, "bike_id": "ea2980ae9989e942906cd1b3ec38d032", "rental_uris": {"android": "https://dc.lft.to/lastmile_qr_scan", "ios": "https://dc.lft.to/lastmile_qr_scan"}, "name": "ea2980ae9989e942906cd1b3ec38d032", "is_reserved": 0}, {"is_disabled": 0, "fusion_lon": 0.0, "fusion_lat": 0.0, "lat": 39.052638, "type": "electric_bike", "lon": -77.0437885, "bike_id": "bb7500dc8fb23632e237277e5a2e210e", "rental_uris": {"android": "https://dc.lft.to/lastmile_qr_scan", "ios": "https://dc.lft.to/lastmile_qr_scan"}, "name": "bb7500dc8fb23632e237277e5a2e210e", "is_reserved": 0}, {"is_disabled": 0, "fusion_lon": 0.0, "fusion_lat": 0.0, "lat": 38.94901216666667, "type": "electric_bike", "lon": -76.96372616666666, "bike_id": "0e0aee1a2379b63c6ada7c8b5334968e", "rental_uris": {"android": "https://dc.lft.to/lastmile_qr_scan", "ios": "https://dc.lft.to/lastmile_qr_scan"}, "name": "0e0aee1a2379b63c6ada7c8b5334968e", "is_reserved": 0}, {"is_disabled": 0, "fusion_lon": 0.0, "fusion_lat": 0.0, "lat": 38.8950445, "type": "electric_scooter", "lon": -76.94876366666666, "bike_id": "631a47c84ea8d4f201c0fe6378a41354", "rental_uris": {"android": "https://dc.lft.to/lastmile_qr_scan", "ios": "https://dc.lft.to/lastmile_qr_scan"}, "name": "631a47c84ea8d4f201c0fe6378a41354", "is_reserved": 0}, {"is_disabled": 0, "fusion_lon": 0.0, "fusion_lat": 0.0, "lat": 38.92067333333333, "type": "electric_scooter", "lon": -77.041984, "bike_id": "1c6352bc97ad7769f54c28fecf91e760", "rental_uris": {"android": "https://dc.lft.to/lastmile_qr_scan", "ios": "https://dc.lft.to/lastmile_qr_scan"}, "name": "1c6352bc97ad7769f54c28fecf91e760", "is_reserved": 0}, {"is_disabled": 0, "fusion_lon": 0.0, "fusion_lat": 0.0, "lat": 38.94202333333333, "type": "electric_scooter", "lon": -77.0183065, "bike_id": "a96a1a851b5ecdc51f40666b9d9d2a3a", "rental_uris": {"android": "https://dc.lft.to/lastmile_qr_scan", "ios": "https://dc.lft.to/lastmile_qr_scan"}, "name": "a96a1a851b5ecdc51f40666b9d9d2a3a", "is_reserved": 0}, {"is_disabled": 0, "fusion_lon": 0.0, "fusion_lat": 0.0, "lat": 38.90943016666667, "type": "electric_scooter", "lon": -77.0320975, "bike_id": "3f8009e7b1240efd8a099d4a0831bd1b", "rental_uris": {"android": "https://dc.lft.to/lastmile_qr_scan", "ios": "https://dc.lft.to/lastmile_qr_scan"}, "name": "3f8009e7b1240efd8a099d4a0831bd1b", "is_reserved": 0}, {"is_disabled": 0, "fusion_lon": 0.0, "fusion_lat": 0.0, "lat": 38.90277866666667, "type": "electric_scooter", "lon": -77.02724166666667, "bike_id": "5e01c5aec5a16577f87b86be5c614a5e", "rental_uris": {"android": "https://dc.lft.to/lastmile_qr_scan", "ios": "https://dc.lft.to/lastmile_qr_scan"}, "name": "5e01c5aec5a16577f87b86be5c614a5e", "is_reserved": 0}, {"is_disabled": 0, "fusion_lon": 0.0, "fusion_lat": 0.0, "lat": 38.911707666666665, "type": "electric_scooter", "lon": -77.0269545, "bike_id": "18b823c0580972bf044a1b9656a4a3f6", "rental_uris": {"android": "https://dc.lft.to/lastmile_qr_scan", "ios": "https://dc.lft.to/lastmile_qr_scan"}, "name": "18b823c0580972bf044a1b9656a4a3f6", "is_reserved": 0}, {"is_disabled": 0, "fusion_lon": 0.0, "fusion_lat": 0.0, "lat": 38.89220616666667, "type": "electric_scooter", "lon": -77.04795983333334, "bike_id": "f4c31be37cd39092a8053941cda041fb", "rental_uris": {"android": "https://dc.lft.to/lastmile_qr_scan", "ios": "https://dc.lft.to/lastmile_qr_scan"}, "name": "f4c31be37cd39092a8053941cda041fb", "is_reserved": 0}, {"is_disabled": 0, "fusion_lon": 0.0, "fusion_lat": 0.0, "lat": 38.91425866666667, "type": "electric_scooter", "lon": -77.03181583333334, "bike_id": "4caeee635c5a30786ff2ce76a50ad517", "rental_uris": {"android": "https://dc.lft.to/lastmile_qr_scan", "ios": "https://dc.lft.to/lastmile_qr_scan"}, "name": "4caeee635c5a30786ff2ce76a50ad517", "is_reserved": 0}, {"is_disabled": 0, "fusion_lon": 0.0, "fusion_lat": 0.0, "lat": 38.91644933333333, "type": "electric_scooter", "lon": -77.02234016666667, "bike_id": "c62dad1a0ef2e8090b9e952391e2c61d", "rental_uris": {"android": "https://dc.lft.to/lastmile_qr_scan", "ios": "https://dc.lft.to/lastmile_qr_scan"}, "name": "c62dad1a0ef2e8090b9e952391e2c61d", "is_reserved": 0}, {"is_disabled": 0, "fusion_lon": 0.0, "fusion_lat": 0.0, "lat": 38.9119445, "type": "electric_scooter", "lon": -77.036366, "bike_id": "00a3fda2ac66cf8e07dd52307558497f", "rental_uris": {"android": "https://dc.lft.to/lastmile_qr_scan", "ios": "https://dc.lft.to/lastmile_qr_scan"}, "name": "00a3fda2ac66cf8e07dd52307558497f", "is_reserved": 0}, {"is_disabled": 0, "fusion_lon": 0.0, "fusion_lat": 0.0, "lat": 38.92054483333333, "type": "electric_scooter", "lon": -77.04190116666666, "bike_id": "425c47524c392a53f7a648d7ec6e700b", "rental_uris": {"android": "https://dc.lft.to/lastmile_qr_scan", "ios": "https://dc.lft.to/lastmile_qr_scan"}, "name": "425c47524c392a53f7a648d7ec6e700b", "is_reserved": 0}, {"is_disabled": 0, "fusion_lon": 0.0, "fusion_lat": 0.0, "lat": 38.93520266666667, "type": "electric_scooter", "lon": -77.0662985, "bike_id": "80abced28a235951dd22a08f9e45de61", "rental_uris": {"android": "https://dc.lft.to/lastmile_qr_scan", "ios": "https://dc.lft.to/lastmile_qr_scan"}, "name": "80abced28a235951dd22a08f9e45de61", "is_reserved": 0}, {"is_disabled": 0, "fusion_lon": 0.0, "fusion_lat": 0.0, "lat": 38.930803166666664, "type": "electric_scooter", "lon": -77.03630033333333, "bike_id": "9784191c88c3c079943ccb972df4f39c", "rental_uris": {"android": "https://dc.lft.to/lastmile_qr_scan", "ios": "https://dc.lft.to/lastmile_qr_scan"}, "name": "9784191c88c3c079943ccb972df4f39c", "is_reserved": 0}, {"is_disabled": 0, "fusion_lon": 0.0, "fusion_lat": 0.0, "lat": 38.866068, "type": "electric_scooter", "lon": -77.01075916666667, "bike_id": "6428b72e3f4608e6bae4568d99d9ea00", "rental_uris": {"android": "https://dc.lft.to/lastmile_qr_scan", "ios": "https://dc.lft.to/lastmile_qr_scan"}, "name": "6428b72e3f4608e6bae4568d99d9ea00", "is_reserved": 0}, {"is_disabled": 0, "fusion_lon": 0.0, "fusion_lat": 0.0, "lat": 38.9085115, "type": "electric_scooter", "lon": -77.0607915, "bike_id": "f8051a6c30cce924277211d898cabfd6", "rental_uris": {"android": "https://dc.lft.to/lastmile_qr_scan", "ios": "https://dc.lft.to/lastmile_qr_scan"}, "name": "f8051a6c30cce924277211d898cabfd6", "is_reserved": 0}, {"is_disabled": 0, "fusion_lon": 0.0, "fusion_lat": 0.0, "lat": 38.92166483333333, "type": "electric_bike", "lon": -77.03530866666667, "bike_id": "020c4440cb494f87841d4f39802242de", "rental_uris": {"android": "https://dc.lft.to/lastmile_qr_scan", "ios": "https://dc.lft.to/lastmile_qr_scan"}, "name": "020c4440cb494f87841d4f39802242de", "is_reserved": 0}, {"is_disabled": 0, "fusion_lon": 0.0, "fusion_lat": 0.0, "lat": 38.910953166666665, "type": "electric_scooter", "lon": -77.029722, "bike_id": "24d6b70bc8fa2d33ec4b385e17f34521", "rental_uris": {"android": "https://dc.lft.to/lastmile_qr_scan", "ios": "https://dc.lft.to/lastmile_qr_scan"}, "name": "24d6b70bc8fa2d33ec4b385e17f34521", "is_reserved": 0}, {"is_disabled": 0, "fusion_lon": 0.0, "fusion_lat": 0.0, "lat": 38.89652233333333, "type": "electric_scooter", "lon": -77.02707783333334, "bike_id": "3bfda385bb94b5d2c0929ec637fc110c", "rental_uris": {"android": "https://dc.lft.to/lastmile_qr_scan", "ios": "https://dc.lft.to/lastmile_qr_scan"}, "name": "3bfda385bb94b5d2c0929ec637fc110c", "is_reserved": 0}, {"is_disabled": 0, "fusion_lon": 0.0, "fusion_lat": 0.0, "lat": 38.90481533333333, "type": "electric_scooter", "lon": -77.06218083333333, "bike_id": "3d5c7f976d334feb3b5649f2de803b32", "rental_uris": {"android": "https://dc.lft.to/lastmile_qr_scan", "ios": "https://dc.lft.to/lastmile_qr_scan"}, "name": "3d5c7f976d334feb3b5649f2de803b32", "is_reserved": 0}, {"is_disabled": 0, "fusion_lon": 0.0, "fusion_lat": 0.0, "lat": 38.93632183333333, "type": "electric_scooter", "lon": -77.02698133333334, "bike_id": "7acf6d6c37566deb716fbcaffc6132d8", "rental_uris": {"android": "https://dc.lft.to/lastmile_qr_scan", "ios": "https://dc.lft.to/lastmile_qr_scan"}, "name": "7acf6d6c37566deb716fbcaffc6132d8", "is_reserved": 0}, {"is_disabled": 0, "fusion_lon": 0.0, "fusion_lat": 0.0, "lat": 38.892185833333336, "type": "electric_scooter", "lon": -77.03183116666666, "bike_id": "d048c2e195768147e4d185bc58fc1f96", "rental_uris": {"android": "https://dc.lft.to/lastmile_qr_scan", "ios": "https://dc.lft.to/lastmile_qr_scan"}, "name": "d048c2e195768147e4d185bc58fc1f96", "is_reserved": 0}, {"is_disabled": 0, "fusion_lon": 0.0, "fusion_lat": 0.0, "lat": 38.89230966666667, "type": "electric_scooter", "lon": -77.02590083333334, "bike_id": "4ac478d46eba167e8df03f283018343e", "rental_uris": {"android": "https://dc.lft.to/lastmile_qr_scan", "ios": "https://dc.lft.to/lastmile_qr_scan"}, "name": "4ac478d46eba167e8df03f283018343e", "is_reserved": 0}, {"is_disabled": 0, "fusion_lon": 0.0, "fusion_lat": 0.0, "lat": 38.8651575, "type": "electric_scooter", "lon": -76.97322066666666, "bike_id": "0cb8c215474a9e4e81a8877c6c02610b", "rental_uris": {"android": "https://dc.lft.to/lastmile_qr_scan", "ios": "https://dc.lft.to/lastmile_qr_scan"}, "name": "0cb8c215474a9e4e81a8877c6c02610b", "is_reserved": 0}, {"is_disabled": 0, "fusion_lon": 0.0, "fusion_lat": 0.0, "lat": 38.94280283333333, "type": "electric_scooter", "lon": -77.036266, "bike_id": "4269c6091a132a1bde5ea6ac6b43ed8b", "rental_uris": {"android": "https://dc.lft.to/lastmile_qr_scan", "ios": "https://dc.lft.to/lastmile_qr_scan"}, "name": "4269c6091a132a1bde5ea6ac6b43ed8b", "is_reserved": 0}, {"is_disabled": 0, "fusion_lon": 0.0, "fusion_lat": 0.0, "lat": 38.956155, "type": "electric_scooter", "lon": -77.02759816666666, "bike_id": "f94698cb179afa836c28659a4eb22ba2", "rental_uris": {"android": "https://dc.lft.to/lastmile_qr_scan", "ios": "https://dc.lft.to/lastmile_qr_scan"}, "name": "f94698cb179afa836c28659a4eb22ba2", "is_reserved": 0}, {"is_disabled": 0, "fusion_lon": 0.0, "fusion_lat": 0.0, "lat": 38.89485833333333, "type": "electric_scooter", "lon": -76.99522983333334, "bike_id": "11277f3abbcc9c5692027fc845f05a1c", "rental_uris": {"android": "https://dc.lft.to/lastmile_qr_scan", "ios": "https://dc.lft.to/lastmile_qr_scan"}, "name": "11277f3abbcc9c5692027fc845f05a1c", "is_reserved": 0}, {"is_disabled": 0, "fusion_lon": 0.0, "fusion_lat": 0.0, "lat": 38.9169385, "type": "electric_scooter", "lon": -77.02852466666667, "bike_id": "5b5293d18ad8897a843761840d1de9be", "rental_uris": {"android": "https://dc.lft.to/lastmile_qr_scan", "ios": "https://dc.lft.to/lastmile_qr_scan"}, "name": "5b5293d18ad8897a843761840d1de9be", "is_reserved": 0}, {"is_disabled": 0, "fusion_lon": 0.0, "fusion_lat": 0.0, "lat": 38.921245, "type": "electric_scooter", "lon": -77.02525666666666, "bike_id": "466739a6d5d22793a05484b5f1bb4a29", "rental_uris": {"android": "https://dc.lft.to/lastmile_qr_scan", "ios": "https://dc.lft.to/lastmile_qr_scan"}, "name": "466739a6d5d22793a05484b5f1bb4a29", "is_reserved": 0}, {"is_disabled": 0, "fusion_lon": 0.0, "fusion_lat": 0.0, "lat": 38.91484616666666, "type": "electric_scooter", "lon": -77.0198235, "bike_id": "51cf222cbdae247f3a3585fe245629f3", "rental_uris": {"android": "https://dc.lft.to/lastmile_qr_scan", "ios": "https://dc.lft.to/lastmile_qr_scan"}, "name": "51cf222cbdae247f3a3585fe245629f3", "is_reserved": 0}, {"is_disabled": 0, "fusion_lon": 0.0, "fusion_lat": 0.0, "lat": 38.96214883333333, "type": "electric_scooter", "lon": -77.028049, "bike_id": "02aba48a6af5d0aa3aa8694f2f90f237", "rental_uris": {"android": "https://dc.lft.to/lastmile_qr_scan", "ios": "https://dc.lft.to/lastmile_qr_scan"}, "name": "02aba48a6af5d0aa3aa8694f2f90f237", "is_reserved": 0}, {"is_disabled": 0, "fusion_lon": 0.0, "fusion_lat": 0.0, "lat": 38.8874445, "type": "electric_scooter", "lon": -77.01735833333333, "bike_id": "861437b5f437ecb4df1762110f5fd684", "rental_uris": {"android": "https://dc.lft.to/lastmile_qr_scan", "ios": "https://dc.lft.to/lastmile_qr_scan"}, "name": "861437b5f437ecb4df1762110f5fd684", "is_reserved": 0}, {"is_disabled": 0, "fusion_lon": 0.0, "fusion_lat": 0.0, "lat": 38.92102, "type": "electric_scooter", "lon": -77.01771866666667, "bike_id": "5b4cabe842ff7191421665514ddf44a8", "rental_uris": {"android": "https://dc.lft.to/lastmile_qr_scan", "ios": "https://dc.lft.to/lastmile_qr_scan"}, "name": "5b4cabe842ff7191421665514ddf44a8", "is_reserved": 0}, {"is_disabled": 0, "fusion_lon": 0.0, "fusion_lat": 0.0, "lat": 38.893224000000004, "type": "electric_scooter", "lon": -77.02115466666666, "bike_id": "380f61fae0195523800e2cff34295351", "rental_uris": {"android": "https://dc.lft.to/lastmile_qr_scan", "ios": "https://dc.lft.to/lastmile_qr_scan"}, "name": "380f61fae0195523800e2cff34295351", "is_reserved": 0}, {"is_disabled": 0, "fusion_lon": 0.0, "fusion_lat": 0.0, "lat": 38.858106, "type": "electric_scooter", "lon": -76.98962983333334, "bike_id": "b7ab07bca51f573c59fcc5d5149aa18f", "rental_uris": {"android": "https://dc.lft.to/lastmile_qr_scan", "ios": "https://dc.lft.to/lastmile_qr_scan"}, "name": "b7ab07bca51f573c59fcc5d5149aa18f", "is_reserved": 0}, {"is_disabled": 0, "fusion_lon": 0.0, "fusion_lat": 0.0, "lat": 38.949818666666665, "type": "electric_scooter", "lon": -77.02704, "bike_id": "843218d5d7381f08564f5847f1201a76", "rental_uris": {"android": "https://dc.lft.to/lastmile_qr_scan", "ios": "https://dc.lft.to/lastmile_qr_scan"}, "name": "843218d5d7381f08564f5847f1201a76", "is_reserved": 0}, {"is_disabled": 0, "fusion_lon": 0.0, "fusion_lat": 0.0, "lat": 38.98503483333333, "type": "electric_bike", "lon": -76.982084, "bike_id": "07943503f56b37fc48c0bc5e22c8419b", "rental_uris": {"android": "https://dc.lft.to/lastmile_qr_scan", "ios": "https://dc.lft.to/lastmile_qr_scan"}, "name": "07943503f56b37fc48c0bc5e22c8419b", "is_reserved": 0}, {"is_disabled": 0, "fusion_lon": 0.0, "fusion_lat": 0.0, "lat": 38.915593666666666, "type": "electric_scooter", "lon": -77.01025016666667, "bike_id": "bb179950dc383dbeb17d4a5d47fecc64", "rental_uris": {"android": "https://dc.lft.to/lastmile_qr_scan", "ios": "https://dc.lft.to/lastmile_qr_scan"}, "name": "bb179950dc383dbeb17d4a5d47fecc64", "is_reserved": 0}, {"is_disabled": 0, "fusion_lon": 0.0, "fusion_lat": 0.0, "lat": 38.905594, "type": "electric_scooter", "lon": -77.03249433333333, "bike_id": "c7ceb64ae2a92f0460d9919fea8770b8", "rental_uris": {"android": "https://dc.lft.to/lastmile_qr_scan", "ios": "https://dc.lft.to/lastmile_qr_scan"}, "name": "c7ceb64ae2a92f0460d9919fea8770b8", "is_reserved": 0}, {"is_disabled": 0, "fusion_lon": 0.0, "fusion_lat": 0.0, "lat": 38.9001185, "type": "electric_scooter", "lon": -77.01194116666667, "bike_id": "3eec193c7fea3014ef45acfe1165304e", "rental_uris": {"android": "https://dc.lft.to/lastmile_qr_scan", "ios": "https://dc.lft.to/lastmile_qr_scan"}, "name": "3eec193c7fea3014ef45acfe1165304e", "is_reserved": 0}, {"is_disabled": 0, "fusion_lon": 0.0, "fusion_lat": 0.0, "lat": 38.917095833333335, "type": "electric_scooter", "lon": -77.0412105, "bike_id": "6889460f985668d9f7983e76ccf78fda", "rental_uris": {"android": "https://dc.lft.to/lastmile_qr_scan", "ios": "https://dc.lft.to/lastmile_qr_scan"}, "name": "6889460f985668d9f7983e76ccf78fda", "is_reserved": 0}, {"is_disabled": 0, "fusion_lon": 0.0, "fusion_lat": 0.0, "lat": 38.909143, "type": "electric_scooter", "lon": -77.02297133333333, "bike_id": "16c5367b0370359089a1c66dfe78bc70", "rental_uris": {"android": "https://dc.lft.to/lastmile_qr_scan", "ios": "https://dc.lft.to/lastmile_qr_scan"}, "name": "16c5367b0370359089a1c66dfe78bc70", "is_reserved": 0}, {"is_disabled": 0, "fusion_lon": 0.0, "fusion_lat": 0.0, "lat": 38.90509483333334, "type": "electric_scooter", "lon": -77.02519866666667, "bike_id": "2a0658751a2d4f3b19d2208d4ff5939d", "rental_uris": {"android": "https://dc.lft.to/lastmile_qr_scan", "ios": "https://dc.lft.to/lastmile_qr_scan"}, "name": "2a0658751a2d4f3b19d2208d4ff5939d", "is_reserved": 0}, {"is_disabled": 0, "fusion_lon": 0.0, "fusion_lat": 0.0, "lat": 38.90471866666667, "type": "electric_scooter", "lon": -77.03827683333333, "bike_id": "2088f4e5d02e440f5444f7347359e739", "rental_uris": {"android": "https://dc.lft.to/lastmile_qr_scan", "ios": "https://dc.lft.to/lastmile_qr_scan"}, "name": "2088f4e5d02e440f5444f7347359e739", "is_reserved": 0}, {"is_disabled": 0, "fusion_lon": 0.0, "fusion_lat": 0.0, "lat": 38.9186305, "type": "electric_bike", "lon": -76.96090333333333, "bike_id": "80be71b262f4992133fc124705c3233e", "rental_uris": {"android": "https://dc.lft.to/lastmile_qr_scan", "ios": "https://dc.lft.to/lastmile_qr_scan"}, "name": "80be71b262f4992133fc124705c3233e", "is_reserved": 0}, {"is_disabled": 0, "fusion_lon": 0.0, "fusion_lat": 0.0, "lat": 38.86848766666667, "type": "electric_bike", "lon": -77.09724366666667, "bike_id": "9565edcb3480a3066c78136f6a722f73", "rental_uris": {"android": "https://dc.lft.to/lastmile_qr_scan", "ios": "https://dc.lft.to/lastmile_qr_scan"}, "name": "9565edcb3480a3066c78136f6a722f73", "is_reserved": 0}, {"is_disabled": 0, "fusion_lon": 0.0, "fusion_lat": 0.0, "lat": 38.96310016666666, "type": "electric_bike", "lon": -77.0576025, "bike_id": "24a89fe9e83bdecc8a96178813afa8dc", "rental_uris": {"android": "https://dc.lft.to/lastmile_qr_scan", "ios": "https://dc.lft.to/lastmile_qr_scan"}, "name": "24a89fe9e83bdecc8a96178813afa8dc", "is_reserved": 0}, {"is_disabled": 0, "fusion_lon": 0.0, "fusion_lat": 0.0, "lat": 38.9013585, "type": "electric_scooter", "lon": -77.0304775, "bike_id": "92100dc7e3e0dc29988b2fffbe524f31", "rental_uris": {"android": "https://dc.lft.to/lastmile_qr_scan", "ios": "https://dc.lft.to/lastmile_qr_scan"}, "name": "92100dc7e3e0dc29988b2fffbe524f31", "is_reserved": 0}, {"is_disabled": 0, "fusion_lon": 0.0, "fusion_lat": 0.0, "lat": 38.87847516666667, "type": "electric_scooter", "lon": -77.0019275, "bike_id": "70826d98985f5162c71cfc8b0cd61018", "rental_uris": {"android": "https://dc.lft.to/lastmile_qr_scan", "ios": "https://dc.lft.to/lastmile_qr_scan"}, "name": "70826d98985f5162c71cfc8b0cd61018", "is_reserved": 0}, {"is_disabled": 0, "fusion_lon": 0.0, "fusion_lat": 0.0, "lat": 38.882507, "type": "electric_scooter", "lon": -77.00340783333333, "bike_id": "09ab5f5f6a13b56b93aedd0493a5100a", "rental_uris": {"android": "https://dc.lft.to/lastmile_qr_scan", "ios": "https://dc.lft.to/lastmile_qr_scan"}, "name": "09ab5f5f6a13b56b93aedd0493a5100a", "is_reserved": 0}, {"is_disabled": 0, "fusion_lon": 0.0, "fusion_lat": 0.0, "lat": 38.92247016666666, "type": "electric_scooter", "lon": -77.03078416666666, "bike_id": "2655ca575c1f30d77148c66c5ce21e9c", "rental_uris": {"android": "https://dc.lft.to/lastmile_qr_scan", "ios": "https://dc.lft.to/lastmile_qr_scan"}, "name": "2655ca575c1f30d77148c66c5ce21e9c", "is_reserved": 0}, {"is_disabled": 0, "fusion_lon": 0.0, "fusion_lat": 0.0, "lat": 38.94551383333334, "type": "electric_scooter", "lon": -77.042376, "bike_id": "d1029f166d9df3d27ada4193b56301d4", "rental_uris": {"android": "https://dc.lft.to/lastmile_qr_scan", "ios": "https://dc.lft.to/lastmile_qr_scan"}, "name": "d1029f166d9df3d27ada4193b56301d4", "is_reserved": 0}, {"is_disabled": 0, "fusion_lon": 0.0, "fusion_lat": 0.0, "lat": 38.833471, "type": "electric_bike", "lon": -76.965534, "bike_id": "b83aea716e066da7349b969039cae532", "rental_uris": {"android": "https://dc.lft.to/lastmile_qr_scan", "ios": "https://dc.lft.to/lastmile_qr_scan"}, "name": "b83aea716e066da7349b969039cae532", "is_reserved": 0}, {"is_disabled": 0, "fusion_lon": 0.0, "fusion_lat": 0.0, "lat": 38.90197466666667, "type": "electric_scooter", "lon": -77.03956966666667, "bike_id": "8f00c089c85540e484e9785c6b66199b", "rental_uris": {"android": "https://dc.lft.to/lastmile_qr_scan", "ios": "https://dc.lft.to/lastmile_qr_scan"}, "name": "8f00c089c85540e484e9785c6b66199b", "is_reserved": 0}, {"is_disabled": 0, "fusion_lon": 0.0, "fusion_lat": 0.0, "lat": 38.910936666666665, "type": "electric_scooter", "lon": -77.03184633333333, "bike_id": "f12902d7fcfefb837d04bf7c8791bc07", "rental_uris": {"android": "https://dc.lft.to/lastmile_qr_scan", "ios": "https://dc.lft.to/lastmile_qr_scan"}, "name": "f12902d7fcfefb837d04bf7c8791bc07", "is_reserved": 0}, {"is_disabled": 0, "fusion_lon": 0.0, "fusion_lat": 0.0, "lat": 38.9083955, "type": "electric_scooter", "lon": -76.99699583333333, "bike_id": "d61d698be0018fd96201b2c25d14a450", "rental_uris": {"android": "https://dc.lft.to/lastmile_qr_scan", "ios": "https://dc.lft.to/lastmile_qr_scan"}, "name": "d61d698be0018fd96201b2c25d14a450", "is_reserved": 0}, {"is_disabled": 0, "fusion_lon": 0.0, "fusion_lat": 0.0, "lat": 38.9167665, "type": "electric_scooter", "lon": -77.02707833333334, "bike_id": "236f6829fc2881947894e38a4450a6dc", "rental_uris": {"android": "https://dc.lft.to/lastmile_qr_scan", "ios": "https://dc.lft.to/lastmile_qr_scan"}, "name": "236f6829fc2881947894e38a4450a6dc", "is_reserved": 0}, {"is_disabled": 0, "fusion_lon": 0.0, "fusion_lat": 0.0, "lat": 38.906815, "type": "electric_scooter", "lon": -77.02687516666667, "bike_id": "5ece474e4c32553b04a0a60335be78cb", "rental_uris": {"android": "https://dc.lft.to/lastmile_qr_scan", "ios": "https://dc.lft.to/lastmile_qr_scan"}, "name": "5ece474e4c32553b04a0a60335be78cb", "is_reserved": 0}, {"is_disabled": 0, "fusion_lon": 0.0, "fusion_lat": 0.0, "lat": 38.9185915, "type": "electric_scooter", "lon": -77.04175, "bike_id": "5dde0f775952f6b4352ce20babd02774", "rental_uris": {"android": "https://dc.lft.to/lastmile_qr_scan", "ios": "https://dc.lft.to/lastmile_qr_scan"}, "name": "5dde0f775952f6b4352ce20babd02774", "is_reserved": 0}, {"is_disabled": 0, "fusion_lon": 0.0, "fusion_lat": 0.0, "lat": 38.84515366666667, "type": "electric_bike", "lon": -77.07794666666666, "bike_id": "254bfd3500bd77a3343f72efae7212f1", "rental_uris": {"android": "https://dc.lft.to/lastmile_qr_scan", "ios": "https://dc.lft.to/lastmile_qr_scan"}, "name": "254bfd3500bd77a3343f72efae7212f1", "is_reserved": 0}, {"is_disabled": 0, "fusion_lon": 0.0, "fusion_lat": 0.0, "lat": 38.920533166666665, "type": "electric_scooter", "lon": -77.02616466666667, "bike_id": "6e6e619026376ea17c05e30a08c493a9", "rental_uris": {"android": "https://dc.lft.to/lastmile_qr_scan", "ios": "https://dc.lft.to/lastmile_qr_scan"}, "name": "6e6e619026376ea17c05e30a08c493a9", "is_reserved": 0}, {"is_disabled": 0, "fusion_lon": 0.0, "fusion_lat": 0.0, "lat": 38.892235166666666, "type": "electric_scooter", "lon": -77.03340633333333, "bike_id": "35cc2b237964d06a4ee4ab53f7ede97d", "rental_uris": {"android": "https://dc.lft.to/lastmile_qr_scan", "ios": "https://dc.lft.to/lastmile_qr_scan"}, "name": "35cc2b237964d06a4ee4ab53f7ede97d", "is_reserved": 0}, {"is_disabled": 0, "fusion_lon": 0.0, "fusion_lat": 0.0, "lat": 38.9056675, "type": "electric_scooter", "lon": -77.03355566666667, "bike_id": "8788032b4afe53fd601b51e1d2fb8e4f", "rental_uris": {"android": "https://dc.lft.to/lastmile_qr_scan", "ios": "https://dc.lft.to/lastmile_qr_scan"}, "name": "8788032b4afe53fd601b51e1d2fb8e4f", "is_reserved": 0}, {"is_disabled": 0, "fusion_lon": 0.0, "fusion_lat": 0.0, "lat": 38.905192666666665, "type": "electric_scooter", "lon": -77.0498815, "bike_id": "e7053973b9155a0cb97efe36f4f6597d", "rental_uris": {"android": "https://dc.lft.to/lastmile_qr_scan", "ios": "https://dc.lft.to/lastmile_qr_scan"}, "name": "e7053973b9155a0cb97efe36f4f6597d", "is_reserved": 0}, {"is_disabled": 0, "fusion_lon": 0.0, "fusion_lat": 0.0, "lat": 38.93203, "type": "electric_scooter", "lon": -77.02347783333333, "bike_id": "a0ab06c6e8c94f5fb1005fb5ae5f17c0", "rental_uris": {"android": "https://dc.lft.to/lastmile_qr_scan", "ios": "https://dc.lft.to/lastmile_qr_scan"}, "name": "a0ab06c6e8c94f5fb1005fb5ae5f17c0", "is_reserved": 0}, {"is_disabled": 0, "fusion_lon": 0.0, "fusion_lat": 0.0, "lat": 38.86972566666667, "type": "electric_scooter", "lon": -77.012157, "bike_id": "9b0983fe14f6fdd3b5ea0b400abf3e3d", "rental_uris": {"android": "https://dc.lft.to/lastmile_qr_scan", "ios": "https://dc.lft.to/lastmile_qr_scan"}, "name": "9b0983fe14f6fdd3b5ea0b400abf3e3d", "is_reserved": 0}, {"is_disabled": 0, "fusion_lon": 0.0, "fusion_lat": 0.0, "lat": 38.93280466666667, "type": "electric_scooter", "lon": -76.97421883333334, "bike_id": "44afd4c99c2745fff9f243282c5d3a67", "rental_uris": {"android": "https://dc.lft.to/lastmile_qr_scan", "ios": "https://dc.lft.to/lastmile_qr_scan"}, "name": "44afd4c99c2745fff9f243282c5d3a67", "is_reserved": 0}, {"is_disabled": 0, "fusion_lon": 0.0, "fusion_lat": 0.0, "lat": 38.92290833333333, "type": "electric_scooter", "lon": -77.04031966666666, "bike_id": "cd17da9430c122d535609227b6f03ffc", "rental_uris": {"android": "https://dc.lft.to/lastmile_qr_scan", "ios": "https://dc.lft.to/lastmile_qr_scan"}, "name": "cd17da9430c122d535609227b6f03ffc", "is_reserved": 0}, {"is_disabled": 0, "fusion_lon": 0.0, "fusion_lat": 0.0, "lat": 38.90476016666667, "type": "electric_scooter", "lon": -77.0485725, "bike_id": "389ec5153ae1d6b0f60da87f2cf881d3", "rental_uris": {"android": "https://dc.lft.to/lastmile_qr_scan", "ios": "https://dc.lft.to/lastmile_qr_scan"}, "name": "389ec5153ae1d6b0f60da87f2cf881d3", "is_reserved": 0}, {"is_disabled": 0, "fusion_lon": 0.0, "fusion_lat": 0.0, "lat": 38.87669916666667, "type": "electric_bike", "lon": -77.01449983333333, "bike_id": "1a6bec049e0dd51816fdf5433d10a295", "rental_uris": {"android": "https://dc.lft.to/lastmile_qr_scan", "ios": "https://dc.lft.to/lastmile_qr_scan"}, "name": "1a6bec049e0dd51816fdf5433d10a295", "is_reserved": 0}, {"is_disabled": 0, "fusion_lon": 0.0, "fusion_lat": 0.0, "lat": 38.9039405, "type": "electric_scooter", "lon": -77.007727, "bike_id": "ed7af79b6d23c2c42bab2333ec390746", "rental_uris": {"android": "https://dc.lft.to/lastmile_qr_scan", "ios": "https://dc.lft.to/lastmile_qr_scan"}, "name": "ed7af79b6d23c2c42bab2333ec390746", "is_reserved": 0}, {"is_disabled": 0, "fusion_lon": 0.0, "fusion_lat": 0.0, "lat": 39.058128333333336, "type": "electric_bike", "lon": -77.12625783333333, "bike_id": "faa13de4d27183eaa35fb41689e780f1", "rental_uris": {"android": "https://dc.lft.to/lastmile_qr_scan", "ios": "https://dc.lft.to/lastmile_qr_scan"}, "name": "faa13de4d27183eaa35fb41689e780f1", "is_reserved": 0}, {"is_disabled": 0, "fusion_lon": 0.0, "fusion_lat": 0.0, "lat": 38.89834283333333, "type": "electric_scooter", "lon": -77.02914983333334, "bike_id": "4d267c6f642ab1ddd1efbfacf640d64d", "rental_uris": {"android": "https://dc.lft.to/lastmile_qr_scan", "ios": "https://dc.lft.to/lastmile_qr_scan"}, "name": "4d267c6f642ab1ddd1efbfacf640d64d", "is_reserved": 0}, {"is_disabled": 0, "fusion_lon": 0.0, "fusion_lat": 0.0, "lat": 38.92963116666667, "type": "electric_scooter", "lon": -77.00541833333334, "bike_id": "726906939fcd460dc40f1e91fd39e47e", "rental_uris": {"android": "https://dc.lft.to/lastmile_qr_scan", "ios": "https://dc.lft.to/lastmile_qr_scan"}, "name": "726906939fcd460dc40f1e91fd39e47e", "is_reserved": 0}, {"is_disabled": 0, "fusion_lon": 0.0, "fusion_lat": 0.0, "lat": 38.903636166666665, "type": "electric_scooter", "lon": -77.0021535, "bike_id": "2bab6d34b1cc233f184f3afa6bfd7cd6", "rental_uris": {"android": "https://dc.lft.to/lastmile_qr_scan", "ios": "https://dc.lft.to/lastmile_qr_scan"}, "name": "2bab6d34b1cc233f184f3afa6bfd7cd6", "is_reserved": 0}, {"is_disabled": 0, "fusion_lon": 0.0, "fusion_lat": 0.0, "lat": 38.907558, "type": "electric_scooter", "lon": -77.035843, "bike_id": "0e03eb3938ed193b81d91085dd06e739", "rental_uris": {"android": "https://dc.lft.to/lastmile_qr_scan", "ios": "https://dc.lft.to/lastmile_qr_scan"}, "name": "0e03eb3938ed193b81d91085dd06e739", "is_reserved": 0}, {"is_disabled": 0, "fusion_lon": 0.0, "fusion_lat": 0.0, "lat": 38.91095983333334, "type": "electric_scooter", "lon": -77.03190416666666, "bike_id": "415e2acd61bc662f1e4392420be4f794", "rental_uris": {"android": "https://dc.lft.to/lastmile_qr_scan", "ios": "https://dc.lft.to/lastmile_qr_scan"}, "name": "415e2acd61bc662f1e4392420be4f794", "is_reserved": 0}, {"is_disabled": 0, "fusion_lon": 0.0, "fusion_lat": 0.0, "lat": 38.94149733333333, "type": "electric_bike", "lon": -77.001963, "bike_id": "03ce1969eba0badcaeba733f8ba2cbb2", "rental_uris": {"android": "https://dc.lft.to/lastmile_qr_scan", "ios": "https://dc.lft.to/lastmile_qr_scan"}, "name": "03ce1969eba0badcaeba733f8ba2cbb2", "is_reserved": 0}, {"is_disabled": 0, "fusion_lon": 0.0, "fusion_lat": 0.0, "lat": 38.92871233333334, "type": "electric_scooter", "lon": -77.01430483333333, "bike_id": "f12c57cfd2f5492f312666b06e6823d9", "rental_uris": {"android": "https://dc.lft.to/lastmile_qr_scan", "ios": "https://dc.lft.to/lastmile_qr_scan"}, "name": "f12c57cfd2f5492f312666b06e6823d9", "is_reserved": 0}, {"is_disabled": 0, "fusion_lon": 0.0, "fusion_lat": 0.0, "lat": 38.92534833333333, "type": "electric_scooter", "lon": -77.07655533333333, "bike_id": "9e253e0052ba77b4becb687cd290951d", "rental_uris": {"android": "https://dc.lft.to/lastmile_qr_scan", "ios": "https://dc.lft.to/lastmile_qr_scan"}, "name": "9e253e0052ba77b4becb687cd290951d", "is_reserved": 0}, {"is_disabled": 0, "fusion_lon": 0.0, "fusion_lat": 0.0, "lat": 38.9060285, "type": "electric_scooter", "lon": -77.05712816666667, "bike_id": "5ed61fab08f2c779d2d6bb202ea798ab", "rental_uris": {"android": "https://dc.lft.to/lastmile_qr_scan", "ios": "https://dc.lft.to/lastmile_qr_scan"}, "name": "5ed61fab08f2c779d2d6bb202ea798ab", "is_reserved": 0}, {"is_disabled": 0, "fusion_lon": 0.0, "fusion_lat": 0.0, "lat": 38.93065, "type": "electric_scooter", "lon": -77.03807166666667, "bike_id": "43ab193d33f6ca980539867da9ccb8b1", "rental_uris": {"android": "https://dc.lft.to/lastmile_qr_scan", "ios": "https://dc.lft.to/lastmile_qr_scan"}, "name": "43ab193d33f6ca980539867da9ccb8b1", "is_reserved": 0}, {"is_disabled": 0, "fusion_lon": 0.0, "fusion_lat": 0.0, "lat": 38.8946885, "type": "electric_scooter", "lon": -76.99413066666666, "bike_id": "51f2ba797373d4e8f72b552196eda035", "rental_uris": {"android": "https://dc.lft.to/lastmile_qr_scan", "ios": "https://dc.lft.to/lastmile_qr_scan"}, "name": "51f2ba797373d4e8f72b552196eda035", "is_reserved": 0}, {"is_disabled": 0, "fusion_lon": 0.0, "fusion_lat": 0.0, "lat": 38.899564, "type": "electric_scooter", "lon": -77.04788083333334, "bike_id": "2e9a80f6a0ff4b525e11042de8eaaf6a", "rental_uris": {"android": "https://dc.lft.to/lastmile_qr_scan", "ios": "https://dc.lft.to/lastmile_qr_scan"}, "name": "2e9a80f6a0ff4b525e11042de8eaaf6a", "is_reserved": 0}, {"is_disabled": 0, "fusion_lon": 0.0, "fusion_lat": 0.0, "lat": 38.90701816666667, "type": "electric_scooter", "lon": -76.9869155, "bike_id": "21bee3d40b7fe7cf25d7b0fb173c500a", "rental_uris": {"android": "https://dc.lft.to/lastmile_qr_scan", "ios": "https://dc.lft.to/lastmile_qr_scan"}, "name": "21bee3d40b7fe7cf25d7b0fb173c500a", "is_reserved": 0}, {"is_disabled": 0, "fusion_lon": 0.0, "fusion_lat": 0.0, "lat": 38.916589333333334, "type": "electric_scooter", "lon": -77.0438635, "bike_id": "ebe1b136496244bf452de430b5fa59f0", "rental_uris": {"android": "https://dc.lft.to/lastmile_qr_scan", "ios": "https://dc.lft.to/lastmile_qr_scan"}, "name": "ebe1b136496244bf452de430b5fa59f0", "is_reserved": 0}, {"is_disabled": 0, "fusion_lon": 0.0, "fusion_lat": 0.0, "lat": 38.9333285, "type": "electric_bike", "lon": -77.04208266666667, "bike_id": "202062e995d290c8edd9298609a76ca2", "rental_uris": {"android": "https://dc.lft.to/lastmile_qr_scan", "ios": "https://dc.lft.to/lastmile_qr_scan"}, "name": "202062e995d290c8edd9298609a76ca2", "is_reserved": 0}, {"is_disabled": 0, "fusion_lon": 0.0, "fusion_lat": 0.0, "lat": 38.946195833333334, "type": "electric_scooter", "lon": -77.036284, "bike_id": "c18ed7b704e4a4b4f4098dd002686ef2", "rental_uris": {"android": "https://dc.lft.to/lastmile_qr_scan", "ios": "https://dc.lft.to/lastmile_qr_scan"}, "name": "c18ed7b704e4a4b4f4098dd002686ef2", "is_reserved": 0}, {"is_disabled": 0, "fusion_lon": 0.0, "fusion_lat": 0.0, "lat": 38.92027616666667, "type": "electric_scooter", "lon": -77.031429, "bike_id": "878b35f3ed8309d1f2b5a34c2ee1c5dd", "rental_uris": {"android": "https://dc.lft.to/lastmile_qr_scan", "ios": "https://dc.lft.to/lastmile_qr_scan"}, "name": "878b35f3ed8309d1f2b5a34c2ee1c5dd", "is_reserved": 0}, {"is_disabled": 0, "fusion_lon": 0.0, "fusion_lat": 0.0, "lat": 38.91275666666667, "type": "electric_scooter", "lon": -77.03367883333334, "bike_id": "cb9d92c084c7a89e451967adbaaca162", "rental_uris": {"android": "https://dc.lft.to/lastmile_qr_scan", "ios": "https://dc.lft.to/lastmile_qr_scan"}, "name": "cb9d92c084c7a89e451967adbaaca162", "is_reserved": 0}, {"is_disabled": 0, "fusion_lon": 0.0, "fusion_lat": 0.0, "lat": 38.92976483333333, "type": "electric_scooter", "lon": -77.04206466666666, "bike_id": "36a97e18e12077a289398e50cecfade0", "rental_uris": {"android": "https://dc.lft.to/lastmile_qr_scan", "ios": "https://dc.lft.to/lastmile_qr_scan"}, "name": "36a97e18e12077a289398e50cecfade0", "is_reserved": 0}, {"is_disabled": 0, "fusion_lon": 0.0, "fusion_lat": 0.0, "lat": 38.776209333333334, "type": "electric_bike", "lon": -77.08348416666666, "bike_id": "cabe190602a21d7a7bbb62b09d912cf1", "rental_uris": {"android": "https://dc.lft.to/lastmile_qr_scan", "ios": "https://dc.lft.to/lastmile_qr_scan"}, "name": "cabe190602a21d7a7bbb62b09d912cf1", "is_reserved": 0}, {"is_disabled": 0, "fusion_lon": 0.0, "fusion_lat": 0.0, "lat": 38.908523333333335, "type": "electric_scooter", "lon": -77.05503233333333, "bike_id": "bb453257fd7015018eef5a902dbc254a", "rental_uris": {"android": "https://dc.lft.to/lastmile_qr_scan", "ios": "https://dc.lft.to/lastmile_qr_scan"}, "name": "bb453257fd7015018eef5a902dbc254a", "is_reserved": 0}, {"is_disabled": 0, "fusion_lon": 0.0, "fusion_lat": 0.0, "lat": 38.885218333333334, "type": "electric_scooter", "lon": -77.02095233333333, "bike_id": "b6eceedd81bcd2772c058bddaea8ebda", "rental_uris": {"android": "https://dc.lft.to/lastmile_qr_scan", "ios": "https://dc.lft.to/lastmile_qr_scan"}, "name": "b6eceedd81bcd2772c058bddaea8ebda", "is_reserved": 0}, {"is_disabled": 0, "fusion_lon": 0.0, "fusion_lat": 0.0, "lat": 38.9050865, "type": "electric_scooter", "lon": -76.98236066666666, "bike_id": "da558ba3820e1aed77cfc837bb264b7c", "rental_uris": {"android": "https://dc.lft.to/lastmile_qr_scan", "ios": "https://dc.lft.to/lastmile_qr_scan"}, "name": "da558ba3820e1aed77cfc837bb264b7c", "is_reserved": 0}, {"is_disabled": 0, "fusion_lon": 0.0, "fusion_lat": 0.0, "lat": 38.887457166666664, "type": "electric_scooter", "lon": -77.01431316666667, "bike_id": "3a5bb9a9b0c12ad1d36a519687532fc7", "rental_uris": {"android": "https://dc.lft.to/lastmile_qr_scan", "ios": "https://dc.lft.to/lastmile_qr_scan"}, "name": "3a5bb9a9b0c12ad1d36a519687532fc7", "is_reserved": 0}, {"is_disabled": 0, "fusion_lon": 0.0, "fusion_lat": 0.0, "lat": 38.89390983333333, "type": "electric_scooter", "lon": -76.94991683333333, "bike_id": "22229f521c61030ccfa0819b85e7d96f", "rental_uris": {"android": "https://dc.lft.to/lastmile_qr_scan", "ios": "https://dc.lft.to/lastmile_qr_scan"}, "name": "22229f521c61030ccfa0819b85e7d96f", "is_reserved": 0}, {"is_disabled": 0, "fusion_lon": 0.0, "fusion_lat": 0.0, "lat": 38.88955166666667, "type": "electric_scooter", "lon": -76.9913615, "bike_id": "0ad628eb5f727b5d26a213ac2119feb4", "rental_uris": {"android": "https://dc.lft.to/lastmile_qr_scan", "ios": "https://dc.lft.to/lastmile_qr_scan"}, "name": "0ad628eb5f727b5d26a213ac2119feb4", "is_reserved": 0}, {"is_disabled": 0, "fusion_lon": 0.0, "fusion_lat": 0.0, "lat": 38.90580283333333, "type": "electric_scooter", "lon": -77.00273766666666, "bike_id": "dbefcefc9f066d3b9d964a9ff4bdfe64", "rental_uris": {"android": "https://dc.lft.to/lastmile_qr_scan", "ios": "https://dc.lft.to/lastmile_qr_scan"}, "name": "dbefcefc9f066d3b9d964a9ff4bdfe64", "is_reserved": 0}, {"is_disabled": 0, "fusion_lon": 0.0, "fusion_lat": 0.0, "lat": 38.888518833333336, "type": "electric_bike", "lon": -76.97701966666666, "bike_id": "fd706ed52493cf832198fd4cd6489813", "rental_uris": {"android": "https://dc.lft.to/lastmile_qr_scan", "ios": "https://dc.lft.to/lastmile_qr_scan"}, "name": "fd706ed52493cf832198fd4cd6489813", "is_reserved": 0}, {"is_disabled": 0, "fusion_lon": 0.0, "fusion_lat": 0.0, "lat": 38.9103645, "type": "electric_scooter", "lon": -77.037991, "bike_id": "1b037182c612e7f4740049472265cb3f", "rental_uris": {"android": "https://dc.lft.to/lastmile_qr_scan", "ios": "https://dc.lft.to/lastmile_qr_scan"}, "name": "1b037182c612e7f4740049472265cb3f", "is_reserved": 0}, {"is_disabled": 0, "fusion_lon": 0.0, "fusion_lat": 0.0, "lat": 38.9283405, "type": "electric_scooter", "lon": -77.05536966666666, "bike_id": "8be2f8f4a0dd4b2285e22f60f79f0641", "rental_uris": {"android": "https://dc.lft.to/lastmile_qr_scan", "ios": "https://dc.lft.to/lastmile_qr_scan"}, "name": "8be2f8f4a0dd4b2285e22f60f79f0641", "is_reserved": 0}, {"is_disabled": 0, "fusion_lon": 0.0, "fusion_lat": 0.0, "lat": 39.054571833333334, "type": "electric_bike", "lon": -77.14319166666667, "bike_id": "952ce5dc88eb3e8216f9ed0b36ea24bf", "rental_uris": {"android": "https://dc.lft.to/lastmile_qr_scan", "ios": "https://dc.lft.to/lastmile_qr_scan"}, "name": "952ce5dc88eb3e8216f9ed0b36ea24bf", "is_reserved": 0}, {"is_disabled": 0, "fusion_lon": 0.0, "fusion_lat": 0.0, "lat": 38.939585, "type": "electric_scooter", "lon": -77.03257983333333, "bike_id": "4b34e2a8a8938c6d3692878a0d918e8c", "rental_uris": {"android": "https://dc.lft.to/lastmile_qr_scan", "ios": "https://dc.lft.to/lastmile_qr_scan"}, "name": "4b34e2a8a8938c6d3692878a0d918e8c", "is_reserved": 0}, {"is_disabled": 0, "fusion_lon": 0.0, "fusion_lat": 0.0, "lat": 39.00783766666667, "type": "electric_bike", "lon": -76.9957065, "bike_id": "ef53ab8eee558fdb7455e72953f773a6", "rental_uris": {"android": "https://dc.lft.to/lastmile_qr_scan", "ios": "https://dc.lft.to/lastmile_qr_scan"}, "name": "ef53ab8eee558fdb7455e72953f773a6", "is_reserved": 0}, {"is_disabled": 0, "fusion_lon": 0.0, "fusion_lat": 0.0, "lat": 38.914593833333335, "type": "electric_scooter", "lon": -77.02287066666666, "bike_id": "887b764cfe4ff0c41a871b1a49090164", "rental_uris": {"android": "https://dc.lft.to/lastmile_qr_scan", "ios": "https://dc.lft.to/lastmile_qr_scan"}, "name": "887b764cfe4ff0c41a871b1a49090164", "is_reserved": 0}, {"is_disabled": 0, "fusion_lon": 0.0, "fusion_lat": 0.0, "lat": 38.906545666666666, "type": "electric_scooter", "lon": -77.04529966666666, "bike_id": "a2777d527d90d24885d2e1269b2c9bc2", "rental_uris": {"android": "https://dc.lft.to/lastmile_qr_scan", "ios": "https://dc.lft.to/lastmile_qr_scan"}, "name": "a2777d527d90d24885d2e1269b2c9bc2", "is_reserved": 0}, {"is_disabled": 0, "fusion_lon": 0.0, "fusion_lat": 0.0, "lat": 38.91476983333333, "type": "electric_scooter", "lon": -77.01463883333334, "bike_id": "012420f503383170660e9f67a40bccc3", "rental_uris": {"android": "https://dc.lft.to/lastmile_qr_scan", "ios": "https://dc.lft.to/lastmile_qr_scan"}, "name": "012420f503383170660e9f67a40bccc3", "is_reserved": 0}, {"is_disabled": 0, "fusion_lon": 0.0, "fusion_lat": 0.0, "lat": 38.896124666666665, "type": "electric_scooter", "lon": -77.02676866666667, "bike_id": "1aee8f818b4d8f8a86d93287d5357453", "rental_uris": {"android": "https://dc.lft.to/lastmile_qr_scan", "ios": "https://dc.lft.to/lastmile_qr_scan"}, "name": "1aee8f818b4d8f8a86d93287d5357453", "is_reserved": 0}, {"is_disabled": 0, "fusion_lon": 0.0, "fusion_lat": 0.0, "lat": 38.942882833333336, "type": "electric_bike", "lon": -77.06919483333333, "bike_id": "e79643adbb220a672ae2012863816d0d", "rental_uris": {"android": "https://dc.lft.to/lastmile_qr_scan", "ios": "https://dc.lft.to/lastmile_qr_scan"}, "name": "e79643adbb220a672ae2012863816d0d", "is_reserved": 0}, {"is_disabled": 0, "fusion_lon": 0.0, "fusion_lat": 0.0, "lat": 38.89527833333333, "type": "electric_scooter", "lon": -76.97721483333333, "bike_id": "abb06114a7f26458a43166b59879174c", "rental_uris": {"android": "https://dc.lft.to/lastmile_qr_scan", "ios": "https://dc.lft.to/lastmile_qr_scan"}, "name": "abb06114a7f26458a43166b59879174c", "is_reserved": 0}, {"is_disabled": 0, "fusion_lon": 0.0, "fusion_lat": 0.0, "lat": 38.915839, "type": "electric_scooter", "lon": -77.0671895, "bike_id": "de0e2103a01746e1321a44dd9d71b323", "rental_uris": {"android": "https://dc.lft.to/lastmile_qr_scan", "ios": "https://dc.lft.to/lastmile_qr_scan"}, "name": "de0e2103a01746e1321a44dd9d71b323", "is_reserved": 0}, {"is_disabled": 0, "fusion_lon": 0.0, "fusion_lat": 0.0, "lat": 38.93368566666667, "type": "electric_scooter", "lon": -77.02390316666667, "bike_id": "b45266da0807d5f17a77629825ade348", "rental_uris": {"android": "https://dc.lft.to/lastmile_qr_scan", "ios": "https://dc.lft.to/lastmile_qr_scan"}, "name": "b45266da0807d5f17a77629825ade348", "is_reserved": 0}, {"is_disabled": 0, "fusion_lon": 0.0, "fusion_lat": 0.0, "lat": 38.904437, "type": "electric_scooter", "lon": -77.02274766666666, "bike_id": "07bda4fc78bc525e6f9ddc4088deb678", "rental_uris": {"android": "https://dc.lft.to/lastmile_qr_scan", "ios": "https://dc.lft.to/lastmile_qr_scan"}, "name": "07bda4fc78bc525e6f9ddc4088deb678", "is_reserved": 0}, {"is_disabled": 0, "fusion_lon": 0.0, "fusion_lat": 0.0, "lat": 38.8984585, "type": "electric_scooter", "lon": -77.03200983333333, "bike_id": "0c7521c3b41ded74e8050346bf1b671a", "rental_uris": {"android": "https://dc.lft.to/lastmile_qr_scan", "ios": "https://dc.lft.to/lastmile_qr_scan"}, "name": "0c7521c3b41ded74e8050346bf1b671a", "is_reserved": 0}, {"is_disabled": 0, "fusion_lon": 0.0, "fusion_lat": 0.0, "lat": 38.89929933333333, "type": "electric_scooter", "lon": -77.03904383333334, "bike_id": "01647097a99a61f8df007e56e85d198f", "rental_uris": {"android": "https://dc.lft.to/lastmile_qr_scan", "ios": "https://dc.lft.to/lastmile_qr_scan"}, "name": "01647097a99a61f8df007e56e85d198f", "is_reserved": 0}, {"is_disabled": 0, "fusion_lon": 0.0, "fusion_lat": 0.0, "lat": 38.903941333333336, "type": "electric_scooter", "lon": -77.03857516666666, "bike_id": "677b05c4a6f6d62f4c44ddd2d4b5297f", "rental_uris": {"android": "https://dc.lft.to/lastmile_qr_scan", "ios": "https://dc.lft.to/lastmile_qr_scan"}, "name": "677b05c4a6f6d62f4c44ddd2d4b5297f", "is_reserved": 0}, {"is_disabled": 0, "fusion_lon": 0.0, "fusion_lat": 0.0, "lat": 38.914624833333335, "type": "electric_scooter", "lon": -76.98445783333334, "bike_id": "e1bfdd8d1d8142035f762e00761bec3a", "rental_uris": {"android": "https://dc.lft.to/lastmile_qr_scan", "ios": "https://dc.lft.to/lastmile_qr_scan"}, "name": "e1bfdd8d1d8142035f762e00761bec3a", "is_reserved": 0}, {"is_disabled": 0, "fusion_lon": 0.0, "fusion_lat": 0.0, "lat": 38.925752, "type": "electric_scooter", "lon": -77.08051133333333, "bike_id": "fcf421f649e12c727ba28c8073e7bfbc", "rental_uris": {"android": "https://dc.lft.to/lastmile_qr_scan", "ios": "https://dc.lft.to/lastmile_qr_scan"}, "name": "fcf421f649e12c727ba28c8073e7bfbc", "is_reserved": 0}, {"is_disabled": 0, "fusion_lon": 0.0, "fusion_lat": 0.0, "lat": 38.877597333333334, "type": "electric_bike", "lon": -76.9799555, "bike_id": "a807da23cf98d7305754b381681c28d4", "rental_uris": {"android": "https://dc.lft.to/lastmile_qr_scan", "ios": "https://dc.lft.to/lastmile_qr_scan"}, "name": "a807da23cf98d7305754b381681c28d4", "is_reserved": 0}, {"is_disabled": 0, "fusion_lon": 0.0, "fusion_lat": 0.0, "lat": 38.921150833333336, "type": "electric_scooter", "lon": -77.01765183333333, "bike_id": "59c80f68c5ca8842b826ab3f9317f44b", "rental_uris": {"android": "https://dc.lft.to/lastmile_qr_scan", "ios": "https://dc.lft.to/lastmile_qr_scan"}, "name": "59c80f68c5ca8842b826ab3f9317f44b", "is_reserved": 0}, {"is_disabled": 0, "fusion_lon": 0.0, "fusion_lat": 0.0, "lat": 38.895299333333334, "type": "electric_scooter", "lon": -77.04851166666667, "bike_id": "28825f8895e645d1b0b4aa9fa1c2182d", "rental_uris": {"android": "https://dc.lft.to/lastmile_qr_scan", "ios": "https://dc.lft.to/lastmile_qr_scan"}, "name": "28825f8895e645d1b0b4aa9fa1c2182d", "is_reserved": 0}, {"is_disabled": 0, "fusion_lon": 0.0, "fusion_lat": 0.0, "lat": 38.90578766666667, "type": "electric_scooter", "lon": -77.05589316666666, "bike_id": "7907fe8bb41c9994e68c4f92643d5db2", "rental_uris": {"android": "https://dc.lft.to/lastmile_qr_scan", "ios": "https://dc.lft.to/lastmile_qr_scan"}, "name": "7907fe8bb41c9994e68c4f92643d5db2", "is_reserved": 0}, {"is_disabled": 0, "fusion_lon": 0.0, "fusion_lat": 0.0, "lat": 38.93958466666667, "type": "electric_bike", "lon": -77.36086866666666, "bike_id": "12ef09240ad869deb1981e3114ba12c7", "rental_uris": {"android": "https://dc.lft.to/lastmile_qr_scan", "ios": "https://dc.lft.to/lastmile_qr_scan"}, "name": "12ef09240ad869deb1981e3114ba12c7", "is_reserved": 0}, {"is_disabled": 0, "fusion_lon": 0.0, "fusion_lat": 0.0, "lat": 38.9297345, "type": "electric_scooter", "lon": -77.02800716666667, "bike_id": "29a682f6939fc8a5a659124f2d0b1b0a", "rental_uris": {"android": "https://dc.lft.to/lastmile_qr_scan", "ios": "https://dc.lft.to/lastmile_qr_scan"}, "name": "29a682f6939fc8a5a659124f2d0b1b0a", "is_reserved": 0}, {"is_disabled": 0, "fusion_lon": 0.0, "fusion_lat": 0.0, "lat": 38.9246125, "type": "electric_scooter", "lon": -77.0786435, "bike_id": "ff4f88083fd3bfdaae733b506a0d1ced", "rental_uris": {"android": "https://dc.lft.to/lastmile_qr_scan", "ios": "https://dc.lft.to/lastmile_qr_scan"}, "name": "ff4f88083fd3bfdaae733b506a0d1ced", "is_reserved": 0}, {"is_disabled": 0, "fusion_lon": 0.0, "fusion_lat": 0.0, "lat": 38.94074783333333, "type": "electric_scooter", "lon": -77.02899016666667, "bike_id": "ac85355b0624f1b9a34ee3683bdbf7da", "rental_uris": {"android": "https://dc.lft.to/lastmile_qr_scan", "ios": "https://dc.lft.to/lastmile_qr_scan"}, "name": "ac85355b0624f1b9a34ee3683bdbf7da", "is_reserved": 0}, {"is_disabled": 0, "fusion_lon": 0.0, "fusion_lat": 0.0, "lat": 38.902001166666665, "type": "electric_scooter", "lon": -77.03960283333333, "bike_id": "4257cac31edf57807f5be208dd416251", "rental_uris": {"android": "https://dc.lft.to/lastmile_qr_scan", "ios": "https://dc.lft.to/lastmile_qr_scan"}, "name": "4257cac31edf57807f5be208dd416251", "is_reserved": 0}, {"is_disabled": 0, "fusion_lon": 0.0, "fusion_lat": 0.0, "lat": 38.970578333333336, "type": "electric_bike", "lon": -76.960553, "bike_id": "22b8b1e1097fe2bb5ff7afcc8e6cb05c", "rental_uris": {"android": "https://dc.lft.to/lastmile_qr_scan", "ios": "https://dc.lft.to/lastmile_qr_scan"}, "name": "22b8b1e1097fe2bb5ff7afcc8e6cb05c", "is_reserved": 0}, {"is_disabled": 0, "fusion_lon": 0.0, "fusion_lat": 0.0, "lat": 38.879997333333336, "type": "electric_scooter", "lon": -77.00574516666667, "bike_id": "324d3b3266affe058dab5de75af8ba3d", "rental_uris": {"android": "https://dc.lft.to/lastmile_qr_scan", "ios": "https://dc.lft.to/lastmile_qr_scan"}, "name": "324d3b3266affe058dab5de75af8ba3d", "is_reserved": 0}, {"is_disabled": 0, "fusion_lon": 0.0, "fusion_lat": 0.0, "lat": 38.88571616666667, "type": "electric_scooter", "lon": -77.0006495, "bike_id": "44171a137253d63adb13c3dfcd47ea32", "rental_uris": {"android": "https://dc.lft.to/lastmile_qr_scan", "ios": "https://dc.lft.to/lastmile_qr_scan"}, "name": "44171a137253d63adb13c3dfcd47ea32", "is_reserved": 0}, {"is_disabled": 0, "fusion_lon": 0.0, "fusion_lat": 0.0, "lat": 38.901745, "type": "electric_scooter", "lon": -76.9938595, "bike_id": "3a4241081ed528a732eeb0f1b9b9ba68", "rental_uris": {"android": "https://dc.lft.to/lastmile_qr_scan", "ios": "https://dc.lft.to/lastmile_qr_scan"}, "name": "3a4241081ed528a732eeb0f1b9b9ba68", "is_reserved": 0}, {"is_disabled": 0, "fusion_lon": 0.0, "fusion_lat": 0.0, "lat": 38.94804883333333, "type": "electric_bike", "lon": -76.97211233333333, "bike_id": "7a9b3bfcfc7487884921f123c315e397", "rental_uris": {"android": "https://dc.lft.to/lastmile_qr_scan", "ios": "https://dc.lft.to/lastmile_qr_scan"}, "name": "7a9b3bfcfc7487884921f123c315e397", "is_reserved": 0}, {"is_disabled": 0, "fusion_lon": 0.0, "fusion_lat": 0.0, "lat": 38.91732733333333, "type": "electric_scooter", "lon": -76.991783, "bike_id": "9f5c46b876da74048b4cad5c9f3ca1cc", "rental_uris": {"android": "https://dc.lft.to/lastmile_qr_scan", "ios": "https://dc.lft.to/lastmile_qr_scan"}, "name": "9f5c46b876da74048b4cad5c9f3ca1cc", "is_reserved": 0}, {"is_disabled": 0, "fusion_lon": 0.0, "fusion_lat": 0.0, "lat": 38.911961833333336, "type": "electric_scooter", "lon": -76.98484016666667, "bike_id": "04a1f799d00db26f3b55e1ff540c159d", "rental_uris": {"android": "https://dc.lft.to/lastmile_qr_scan", "ios": "https://dc.lft.to/lastmile_qr_scan"}, "name": "04a1f799d00db26f3b55e1ff540c159d", "is_reserved": 0}, {"is_disabled": 0, "fusion_lon": 0.0, "fusion_lat": 0.0, "lat": 38.887546, "type": "electric_scooter", "lon": -77.00227816666667, "bike_id": "0b60d67cec13e1c1e345bb9816e19a22", "rental_uris": {"android": "https://dc.lft.to/lastmile_qr_scan", "ios": "https://dc.lft.to/lastmile_qr_scan"}, "name": "0b60d67cec13e1c1e345bb9816e19a22", "is_reserved": 0}, {"is_disabled": 0, "fusion_lon": 0.0, "fusion_lat": 0.0, "lat": 38.9371295, "type": "electric_scooter", "lon": -77.0245835, "bike_id": "3ec35f19b4e6a72e32bb6e138e357a38", "rental_uris": {"android": "https://dc.lft.to/lastmile_qr_scan", "ios": "https://dc.lft.to/lastmile_qr_scan"}, "name": "3ec35f19b4e6a72e32bb6e138e357a38", "is_reserved": 0}, {"is_disabled": 0, "fusion_lon": 0.0, "fusion_lat": 0.0, "lat": 38.9292955, "type": "electric_scooter", "lon": -77.032798, "bike_id": "ad711315efc18ff4d20476d194984145", "rental_uris": {"android": "https://dc.lft.to/lastmile_qr_scan", "ios": "https://dc.lft.to/lastmile_qr_scan"}, "name": "ad711315efc18ff4d20476d194984145", "is_reserved": 0}, {"is_disabled": 0, "fusion_lon": 0.0, "fusion_lat": 0.0, "lat": 38.92626966666667, "type": "electric_scooter", "lon": -77.0419335, "bike_id": "1f77f32c6e2d1aaa9ec523e6bad2d4bd", "rental_uris": {"android": "https://dc.lft.to/lastmile_qr_scan", "ios": "https://dc.lft.to/lastmile_qr_scan"}, "name": "1f77f32c6e2d1aaa9ec523e6bad2d4bd", "is_reserved": 0}, {"is_disabled": 0, "fusion_lon": 0.0, "fusion_lat": 0.0, "lat": 38.9288415, "type": "electric_scooter", "lon": -77.03339366666667, "bike_id": "5f063db580250c36cb12a616cccb48a7", "rental_uris": {"android": "https://dc.lft.to/lastmile_qr_scan", "ios": "https://dc.lft.to/lastmile_qr_scan"}, "name": "5f063db580250c36cb12a616cccb48a7", "is_reserved": 0}, {"is_disabled": 0, "fusion_lon": 0.0, "fusion_lat": 0.0, "lat": 38.90201533333333, "type": "electric_scooter", "lon": -77.0480805, "bike_id": "e442dc03045d3c56dd9fadc80d922134", "rental_uris": {"android": "https://dc.lft.to/lastmile_qr_scan", "ios": "https://dc.lft.to/lastmile_qr_scan"}, "name": "e442dc03045d3c56dd9fadc80d922134", "is_reserved": 0}, {"is_disabled": 0, "fusion_lon": 0.0, "fusion_lat": 0.0, "lat": 38.9265385, "type": "electric_scooter", "lon": -77.02280666666667, "bike_id": "c032f839af4aa7512b3f82a5b9f025bb", "rental_uris": {"android": "https://dc.lft.to/lastmile_qr_scan", "ios": "https://dc.lft.to/lastmile_qr_scan"}, "name": "c032f839af4aa7512b3f82a5b9f025bb", "is_reserved": 0}, {"is_disabled": 0, "fusion_lon": 0.0, "fusion_lat": 0.0, "lat": 38.875695, "type": "electric_scooter", "lon": -77.02082666666666, "bike_id": "728ff6ed803b340337ab4fbb9483fda4", "rental_uris": {"android": "https://dc.lft.to/lastmile_qr_scan", "ios": "https://dc.lft.to/lastmile_qr_scan"}, "name": "728ff6ed803b340337ab4fbb9483fda4", "is_reserved": 0}, {"is_disabled": 0, "fusion_lon": 0.0, "fusion_lat": 0.0, "lat": 38.933529, "type": "electric_scooter", "lon": -77.07374483333334, "bike_id": "4305e2e7bc23d4399417e96bac74eae3", "rental_uris": {"android": "https://dc.lft.to/lastmile_qr_scan", "ios": "https://dc.lft.to/lastmile_qr_scan"}, "name": "4305e2e7bc23d4399417e96bac74eae3", "is_reserved": 0}, {"is_disabled": 0, "fusion_lon": 0.0, "fusion_lat": 0.0, "lat": 38.903580166666664, "type": "electric_scooter", "lon": -77.01110866666667, "bike_id": "e6357d9960fe2ea77ffeb09facaee46a", "rental_uris": {"android": "https://dc.lft.to/lastmile_qr_scan", "ios": "https://dc.lft.to/lastmile_qr_scan"}, "name": "e6357d9960fe2ea77ffeb09facaee46a", "is_reserved": 0}, {"is_disabled": 0, "fusion_lon": 0.0, "fusion_lat": 0.0, "lat": 38.91570733333333, "type": "electric_scooter", "lon": -77.0207945, "bike_id": "1e2de2a9512b77dd22445be4c2e204f1", "rental_uris": {"android": "https://dc.lft.to/lastmile_qr_scan", "ios": "https://dc.lft.to/lastmile_qr_scan"}, "name": "1e2de2a9512b77dd22445be4c2e204f1", "is_reserved": 0}, {"is_disabled": 0, "fusion_lon": 0.0, "fusion_lat": 0.0, "lat": 38.99672416666667, "type": "electric_bike", "lon": -76.9914115, "bike_id": "dc88c29a6524d65fe8074cfeea3f2c19", "rental_uris": {"android": "https://dc.lft.to/lastmile_qr_scan", "ios": "https://dc.lft.to/lastmile_qr_scan"}, "name": "dc88c29a6524d65fe8074cfeea3f2c19", "is_reserved": 0}, {"is_disabled": 0, "fusion_lon": 0.0, "fusion_lat": 0.0, "lat": 38.94461166666667, "type": "electric_scooter", "lon": -77.0602725, "bike_id": "97ddc4350e1d7c40a727b156ac5e0121", "rental_uris": {"android": "https://dc.lft.to/lastmile_qr_scan", "ios": "https://dc.lft.to/lastmile_qr_scan"}, "name": "97ddc4350e1d7c40a727b156ac5e0121", "is_reserved": 0}, {"is_disabled": 0, "fusion_lon": 0.0, "fusion_lat": 0.0, "lat": 38.921201333333336, "type": "electric_scooter", "lon": -77.03053966666667, "bike_id": "3725b57258621732b89f4ee000f8720a", "rental_uris": {"android": "https://dc.lft.to/lastmile_qr_scan", "ios": "https://dc.lft.to/lastmile_qr_scan"}, "name": "3725b57258621732b89f4ee000f8720a", "is_reserved": 0}, {"is_disabled": 0, "fusion_lon": 0.0, "fusion_lat": 0.0, "lat": 38.908253333333334, "type": "electric_scooter", "lon": -77.04163333333334, "bike_id": "24c0b14d073e0a2cff6e55fda0833253", "rental_uris": {"android": "https://dc.lft.to/lastmile_qr_scan", "ios": "https://dc.lft.to/lastmile_qr_scan"}, "name": "24c0b14d073e0a2cff6e55fda0833253", "is_reserved": 0}, {"is_disabled": 0, "fusion_lon": 0.0, "fusion_lat": 0.0, "lat": 38.876638666666665, "type": "electric_scooter", "lon": -77.0157045, "bike_id": "fcc10245e54f2bd3e4f5f5096c77f5aa", "rental_uris": {"android": "https://dc.lft.to/lastmile_qr_scan", "ios": "https://dc.lft.to/lastmile_qr_scan"}, "name": "fcc10245e54f2bd3e4f5f5096c77f5aa", "is_reserved": 0}, {"is_disabled": 0, "fusion_lon": 0.0, "fusion_lat": 0.0, "lat": 38.93150983333334, "type": "electric_scooter", "lon": -77.03451066666666, "bike_id": "fc664e154d23ea68402c9118d865cc71", "rental_uris": {"android": "https://dc.lft.to/lastmile_qr_scan", "ios": "https://dc.lft.to/lastmile_qr_scan"}, "name": "fc664e154d23ea68402c9118d865cc71", "is_reserved": 0}, {"is_disabled": 0, "fusion_lon": 0.0, "fusion_lat": 0.0, "lat": 38.88226233333334, "type": "electric_bike", "lon": -77.112747, "bike_id": "b1318affa9f5843e1c10c09c1820ce7c", "rental_uris": {"android": "https://dc.lft.to/lastmile_qr_scan", "ios": "https://dc.lft.to/lastmile_qr_scan"}, "name": "b1318affa9f5843e1c10c09c1820ce7c", "is_reserved": 0}, {"is_disabled": 0, "fusion_lon": 0.0, "fusion_lat": 0.0, "lat": 38.909681166666665, "type": "electric_scooter", "lon": -77.08071283333334, "bike_id": "5ccde0e014d7512096c5f6108e9467c2", "rental_uris": {"android": "https://dc.lft.to/lastmile_qr_scan", "ios": "https://dc.lft.to/lastmile_qr_scan"}, "name": "5ccde0e014d7512096c5f6108e9467c2", "is_reserved": 0}, {"is_disabled": 0, "fusion_lon": 0.0, "fusion_lat": 0.0, "lat": 38.90439166666667, "type": "electric_scooter", "lon": -77.02898233333333, "bike_id": "4069598431e41b47e5878deda9b10913", "rental_uris": {"android": "https://dc.lft.to/lastmile_qr_scan", "ios": "https://dc.lft.to/lastmile_qr_scan"}, "name": "4069598431e41b47e5878deda9b10913", "is_reserved": 0}, {"is_disabled": 0, "fusion_lon": 0.0, "fusion_lat": 0.0, "lat": 38.898242833333335, "type": "electric_scooter", "lon": -76.94652733333334, "bike_id": "b9dafc33a528872cbbead1e725538d24", "rental_uris": {"android": "https://dc.lft.to/lastmile_qr_scan", "ios": "https://dc.lft.to/lastmile_qr_scan"}, "name": "b9dafc33a528872cbbead1e725538d24", "is_reserved": 0}, {"is_disabled": 0, "fusion_lon": 0.0, "fusion_lat": 0.0, "lat": 38.910956, "type": "electric_scooter", "lon": -77.03843866666666, "bike_id": "fae36c1239a2d355c2366e45b62593f6", "rental_uris": {"android": "https://dc.lft.to/lastmile_qr_scan", "ios": "https://dc.lft.to/lastmile_qr_scan"}, "name": "fae36c1239a2d355c2366e45b62593f6", "is_reserved": 0}, {"is_disabled": 0, "fusion_lon": 0.0, "fusion_lat": 0.0, "lat": 38.88654666666667, "type": "electric_scooter", "lon": -77.02819866666667, "bike_id": "a54430c67dcd914a0476112fe9ab9563", "rental_uris": {"android": "https://dc.lft.to/lastmile_qr_scan", "ios": "https://dc.lft.to/lastmile_qr_scan"}, "name": "a54430c67dcd914a0476112fe9ab9563", "is_reserved": 0}, {"is_disabled": 0, "fusion_lon": 0.0, "fusion_lat": 0.0, "lat": 38.931019166666665, "type": "electric_scooter", "lon": -77.038323, "bike_id": "2f250739c2e883181499850e90387227", "rental_uris": {"android": "https://dc.lft.to/lastmile_qr_scan", "ios": "https://dc.lft.to/lastmile_qr_scan"}, "name": "2f250739c2e883181499850e90387227", "is_reserved": 0}, {"is_disabled": 0, "fusion_lon": 0.0, "fusion_lat": 0.0, "lat": 38.90049533333333, "type": "electric_scooter", "lon": -77.00063016666667, "bike_id": "7707ddaf039307e27fb8eea5b35ddcda", "rental_uris": {"android": "https://dc.lft.to/lastmile_qr_scan", "ios": "https://dc.lft.to/lastmile_qr_scan"}, "name": "7707ddaf039307e27fb8eea5b35ddcda", "is_reserved": 0}, {"is_disabled": 0, "fusion_lon": 0.0, "fusion_lat": 0.0, "lat": 38.953126833333336, "type": "electric_scooter", "lon": -77.0359475, "bike_id": "c62882b53426a3c16a29046ebef9ff39", "rental_uris": {"android": "https://dc.lft.to/lastmile_qr_scan", "ios": "https://dc.lft.to/lastmile_qr_scan"}, "name": "c62882b53426a3c16a29046ebef9ff39", "is_reserved": 0}, {"is_disabled": 0, "fusion_lon": 0.0, "fusion_lat": 0.0, "lat": 38.90313283333333, "type": "electric_scooter", "lon": -77.01895, "bike_id": "7dda7f11ae00c1a8b2e3805b95d9701b", "rental_uris": {"android": "https://dc.lft.to/lastmile_qr_scan", "ios": "https://dc.lft.to/lastmile_qr_scan"}, "name": "7dda7f11ae00c1a8b2e3805b95d9701b", "is_reserved": 0}, {"is_disabled": 0, "fusion_lon": 0.0, "fusion_lat": 0.0, "lat": 38.9419995, "type": "electric_scooter", "lon": -77.02575216666666, "bike_id": "abf20276a7abf3791419676983d0b24c", "rental_uris": {"android": "https://dc.lft.to/lastmile_qr_scan", "ios": "https://dc.lft.to/lastmile_qr_scan"}, "name": "abf20276a7abf3791419676983d0b24c", "is_reserved": 0}, {"is_disabled": 0, "fusion_lon": 0.0, "fusion_lat": 0.0, "lat": 38.949776166666666, "type": "electric_scooter", "lon": -77.0676215, "bike_id": "897f8069f97cacccb6f5bb346bf20b03", "rental_uris": {"android": "https://dc.lft.to/lastmile_qr_scan", "ios": "https://dc.lft.to/lastmile_qr_scan"}, "name": "897f8069f97cacccb6f5bb346bf20b03", "is_reserved": 0}, {"is_disabled": 0, "fusion_lon": 0.0, "fusion_lat": 0.0, "lat": 39.00003016666667, "type": "electric_bike", "lon": -76.91803816666666, "bike_id": "ee09c069c1596138f25fc593a9825842", "rental_uris": {"android": "https://dc.lft.to/lastmile_qr_scan", "ios": "https://dc.lft.to/lastmile_qr_scan"}, "name": "ee09c069c1596138f25fc593a9825842", "is_reserved": 0}, {"is_disabled": 0, "fusion_lon": 0.0, "fusion_lat": 0.0, "lat": 38.9198435, "type": "electric_scooter", "lon": -76.97312933333333, "bike_id": "3f314408e9621b986204387c500cc2a2", "rental_uris": {"android": "https://dc.lft.to/lastmile_qr_scan", "ios": "https://dc.lft.to/lastmile_qr_scan"}, "name": "3f314408e9621b986204387c500cc2a2", "is_reserved": 0}, {"is_disabled": 0, "fusion_lon": 0.0, "fusion_lat": 0.0, "lat": 38.9353555, "type": "electric_scooter", "lon": -77.02071333333333, "bike_id": "e79dfbb987867ff481cb121baa67b17a", "rental_uris": {"android": "https://dc.lft.to/lastmile_qr_scan", "ios": "https://dc.lft.to/lastmile_qr_scan"}, "name": "e79dfbb987867ff481cb121baa67b17a", "is_reserved": 0}, {"is_disabled": 0, "fusion_lon": 0.0, "fusion_lat": 0.0, "lat": 38.90537533333333, "type": "electric_scooter", "lon": -77.049079, "bike_id": "bef3199abbde69da920f54608b9ffcd7", "rental_uris": {"android": "https://dc.lft.to/lastmile_qr_scan", "ios": "https://dc.lft.to/lastmile_qr_scan"}, "name": "bef3199abbde69da920f54608b9ffcd7", "is_reserved": 0},