{"data": {"bikes": [{"lat": 38.91688666666667, "is_disabled": 0, "type": "electric_scooter", "lon": -77.03195866666667, "bike_id": "7672397bcc8c25e2343ff36a86e9a820", "fusion_lat": 0.0, "name": "7672397bcc8c25e2343ff36a86e9a820", "is_reserved": 0, "rental_uris": {"android": "https://dc.lft.to/lastmile_qr_scan", "ios": "https://dc.lft.to/lastmile_qr_scan"}, "fusion_lon": 0.0}, {"lat": 38.880166833333334, "is_disabled": 0, "type": "electric_scooter", "lon": -76.96010083333333, "bike_id": "61231e452f535a4b6156fce19444e31b", "fusion_lat": 0.0, "name": "61231e452f535a4b6156fce19444e31b", "is_reserved": 0, "rental_uris": {"android": "https://dc.lft.to/lastmile_qr_scan", "ios": "https://dc.lft.to/lastmile_qr_scan"}, "fusion_lon": 0.0}, {"lat": 38.9529495, "is_disabled": 0, "type": "electric_scooter", "lon": -77.08151716666667, "bike_id": "b67e1b8e2e309529da50b3bebe428621", "fusion_lat": 0.0, "name": "b67e1b8e2e309529da50b3bebe428621", "is_reserved": 0, "rental_uris": {"android": "https://dc.lft.to/lastmile_qr_scan", "ios": "https://dc.lft.to/lastmile_qr_scan"}, "fusion_lon": 0.0}, {"lat": 38.86654633333333, "is_disabled": 0, "type": "electric_scooter", "lon": -76.98886983333334, "bike_id": "e0601d07cf93c8354be88159efded4b9", "fusion_lat": 0.0, "name": "e0601d07cf93c8354be88159efded4b9", "is_reserved": 0, "rental_uris": {"android": "https://dc.lft.to/lastmile_qr_scan", "ios": "https://dc.lft.to/lastmile_qr_scan"}, "fusion_lon": 0.0}, {"lat": 38.938721666666666, "is_disabled": 0, "type": "electric_scooter", "lon": -77.03126566666667, "bike_id": "fbb26e50dba3989f036cace3d8c8f681", "fusion_lat": 0.0, "name": "fbb26e50dba3989f036cace3d8c8f681", "is_reserved": 0, "rental_uris": {"android": "https://dc.lft.to/lastmile_qr_scan", "ios": "https://dc.lft.to/lastmile_qr_scan"}, "fusion_lon": 0.0}, {"lat": 38.897840333333335, "is_disabled": 0, "type": "electric_scooter", "lon": -77.00921733333334, "bike_id": "140d33a7d496ba04f47287011f7cf7eb", "fusion_lat": 0.0, "name": "140d33a7d496ba04f47287011f7cf7eb", "is_reserved": 0, "rental_uris": {"android": "https://dc.lft.to/lastmile_qr_scan", "ios": "https://dc.lft.to/lastmile_qr_scan"}, "fusion_lon": 0.0}, {"lat": 38.90672266666667, "is_disabled": 0, "type": "electric_scooter", "lon": -77.02707633333333, "bike_id": "9614ee8bc100aedcfdcc76590af06999", "fusion_lat": 0.0, "name": "9614ee8bc100aedcfdcc76590af06999", "is_reserved": 0, "rental_uris": {"android": "https://dc.lft.to/lastmile_qr_scan", "ios": "https://dc.lft.to/lastmile_qr_scan"}, "fusion_lon": 0.0}, {"lat": 38.92063, "is_disabled": 0, "type": "electric_scooter", "lon": -77.04378183333333, "bike_id": "78bf006fb0c7b7b74f0192d1d71f7b53", "fusion_lat": 0.0, "name": "78bf006fb0c7b7b74f0192d1d71f7b53", "is_reserved": 0, "rental_uris": {"android": "https://dc.lft.to/lastmile_qr_scan", "ios": "https://dc.lft.to/lastmile_qr_scan"}, "fusion_lon": 0.0}, {"lat": 38.88501316666667, "is_disabled": 0, "type": "electric_bike", "lon": -77.01584466666667, "bike_id": "71995d10feae51b46fcfb2120f55734a", "fusion_lat": 0.0, "name": "71995d10feae51b46fcfb2120f55734a", "is_reserved": 0, "rental_uris": {"android": "https://dc.lft.to/lastmile_qr_scan", "ios": "https://dc.lft.to/lastmile_qr_scan"}, "fusion_lon": 0.0}, {"lat": 38.9385995, "is_disabled": 0, "type": "electric_scooter", "lon": -77.03086916666666, "bike_id": "63b1f55ea6dbd26c01b5b3e2e3be8628", "fusion_lat": 0.0, "name": "63b1f55ea6dbd26c01b5b3e2e3be8628", "is_reserved": 0, "rental_uris": {"android": "https://dc.lft.to/lastmile_qr_scan", "ios": "https://dc.lft.to/lastmile_qr_scan"}, "fusion_lon": 0.0}, {"lat": 38.92090366666667, "is_disabled": 0, "type": "electric_scooter", "lon": -77.04211866666667, "bike_id": "204703206b2cc4637a38317092da7ada", "fusion_lat": 0.0, "name": "204703206b2cc4637a38317092da7ada", "is_reserved": 0, "rental_uris": {"android": "https://dc.lft.to/lastmile_qr_scan", "ios": "https://dc.lft.to/lastmile_qr_scan"}, "fusion_lon": 0.0}, {"lat": 38.905518, "is_disabled": 0, "type": "electric_scooter", "lon": -77.05712183333333, "bike_id": "0ecacba6253168620de107e736ae3cda", "fusion_lat": 0.0, "name": "0ecacba6253168620de107e736ae3cda", "is_reserved": 0, "rental_uris": {"android": "https://dc.lft.to/lastmile_qr_scan", "ios": "https://dc.lft.to/lastmile_qr_scan"}, "fusion_lon": 0.0}, {"lat": 38.903732, "is_disabled": 0, "type": "electric_scooter", "lon": -77.04355433333333, "bike_id": "226012c3ce2721f1df86e85fc19567ba", "fusion_lat": 0.0, "name": "226012c3ce2721f1df86e85fc19567ba", "is_reserved": 0, "rental_uris": {"android": "https://dc.lft.to/lastmile_qr_scan", "ios": "https://dc.lft.to/lastmile_qr_scan"}, "fusion_lon": 0.0}, {"lat": 38.89041616666667, "is_disabled": 0, "type": "electric_scooter", "lon": -76.9514105, "bike_id": "43faed489bb18efb13497e57bf7caa97", "fusion_lat": 0.0, "name": "43faed489bb18efb13497e57bf7caa97", "is_reserved": 0, "rental_uris": {"android": "https://dc.lft.to/lastmile_qr_scan", "ios": "https://dc.lft.to/lastmile_qr_scan"}, "fusion_lon": 0.0}, {"lat": 38.916076333333336, "is_disabled": 0, "type": "electric_scooter", "lon": -77.02128566666667, "bike_id": "2e1b29242431bea807144976e219f4ba", "fusion_lat": 0.0, "name": "2e1b29242431bea807144976e219f4ba", "is_reserved": 0, "rental_uris": {"android": "https://dc.lft.to/lastmile_qr_scan", "ios": "https://dc.lft.to/lastmile_qr_scan"}, "fusion_lon": 0.0}, {"lat": 38.906531666666666, "is_disabled": 0, "type": "electric_scooter", "lon": -77.02596666666666, "bike_id": "cf079e58c8c0f31f6c5c4134d6f572ae", "fusion_lat": 0.0, "name": "cf079e58c8c0f31f6c5c4134d6f572ae", "is_reserved": 0, "rental_uris": {"android": "https://dc.lft.to/lastmile_qr_scan", "ios": "https://dc.lft.to/lastmile_qr_scan"}, "fusion_lon": 0.0}, {"lat": 38.95572583333333, "is_disabled": 0, "type": "electric_scooter", "lon": -77.07007483333334, "bike_id": "20bce2d540c08a38e67da37963cd6d58", "fusion_lat": 0.0, "name": "20bce2d540c08a38e67da37963cd6d58", "is_reserved": 0, "rental_uris": {"android": "https://dc.lft.to/lastmile_qr_scan", "ios": "https://dc.lft.to/lastmile_qr_scan"}, "fusion_lon": 0.0}, {"lat": 38.897168, "is_disabled": 0, "type": "electric_scooter", "lon": -77.00798866666666, "bike_id": "dde9972601d41b13736bf460b11d82c8", "fusion_lat": 0.0, "name": "dde9972601d41b13736bf460b11d82c8", "is_reserved": 0, "rental_uris": {"android": "https://dc.lft.to/lastmile_qr_scan", "ios": "https://dc.lft.to/lastmile_qr_scan"}, "fusion_lon": 0.0}, {"lat": 38.86905516666667, "is_disabled": 0, "type": "electric_bike", "lon": -77.13182166666667, "bike_id": "632ee289cecb186914ada18bfc301700", "fusion_lat": 0.0, "name": "632ee289cecb186914ada18bfc301700", "is_reserved": 0, "rental_uris": {"android": "https://dc.lft.to/lastmile_qr_scan", "ios": "https://dc.lft.to/lastmile_qr_scan"}, "fusion_lon": 0.0}, {"lat": 38.9221025, "is_disabled": 0, "type": "electric_scooter", "lon": -77.0400225, "bike_id": "a45a8cadf867c94edde2b0bc7bf1cb14", "fusion_lat": 0.0, "name": "a45a8cadf867c94edde2b0bc7bf1cb14", "is_reserved": 0, "rental_uris": {"android": "https://dc.lft.to/lastmile_qr_scan", "ios": "https://dc.lft.to/lastmile_qr_scan"}, "fusion_lon": 0.0}, {"lat": 38.88720683333333, "is_disabled": 0, "type": "electric_scooter", "lon": -77.0238375, "bike_id": "e50666af08a5e5bd0452f8427dfb929a", "fusion_lat": 0.0, "name": "e50666af08a5e5bd0452f8427dfb929a", "is_reserved": 0, "rental_uris": {"android": "https://dc.lft.to/lastmile_qr_scan", "ios": "https://dc.lft.to/lastmile_qr_scan"}, "fusion_lon": 0.0}, {"lat": 38.907798166666666, "is_disabled": 0, "type": "electric_scooter", "lon": -77.0422945, "bike_id": "5ee8e2ab515981bb0c0ff0aaebd38327", "fusion_lat": 0.0, "name": "5ee8e2ab515981bb0c0ff0aaebd38327", "is_reserved": 0, "rental_uris": {"android": "https://dc.lft.to/lastmile_qr_scan", "ios": "https://dc.lft.to/lastmile_qr_scan"}, "fusion_lon": 0.0}, {"lat": 38.90584166666667, "is_disabled": 0, "type": "electric_scooter", "lon": -77.02952433333333, "bike_id": "fc31515984eecb99b420902d80df1d89", "fusion_lat": 0.0, "name": "fc31515984eecb99b420902d80df1d89", "is_reserved": 0, "rental_uris": {"android": "https://dc.lft.to/lastmile_qr_scan", "ios": "https://dc.lft.to/lastmile_qr_scan"}, "fusion_lon": 0.0}, {"lat": 38.907244666666664, "is_disabled": 0, "type": "electric_scooter", "lon": -77.0434375, "bike_id": "bee1657393f416c9d4510d0e1df26a89", "fusion_lat": 0.0, "name": "bee1657393f416c9d4510d0e1df26a89", "is_reserved": 0, "rental_uris": {"android": "https://dc.lft.to/lastmile_qr_scan", "ios": "https://dc.lft.to/lastmile_qr_scan"}, "fusion_lon": 0.0}, {"lat": 38.9200555, "is_disabled": 0, "type": "electric_scooter", "lon": -77.020546, "bike_id": "72c752bd8018aee5cddee8026f8e61c6", "fusion_lat": 0.0, "name": "72c752bd8018aee5cddee8026f8e61c6", "is_reserved": 0, "rental_uris": {"android": "https://dc.lft.to/lastmile_qr_scan", "ios": "https://dc.lft.to/lastmile_qr_scan"}, "fusion_lon": 0.0}, {"lat": 38.91048716666667, "is_disabled": 0, "type": "electric_scooter", "lon": -77.01510616666667, "bike_id": "821ed04c0eacfcbae027da6d4246ab15", "fusion_lat": 0.0, "name": "821ed04c0eacfcbae027da6d4246ab15", "is_reserved": 0, "rental_uris": {"android": "https://dc.lft.to/lastmile_qr_scan", "ios": "https://dc.lft.to/lastmile_qr_scan"}, "fusion_lon": 0.0}, {"lat": 38.897364, "is_disabled": 0, "type": "electric_scooter", "lon": -77.00751633333333, "bike_id": "c0f2bea0aff078a23c2808c491d1ebe9", "fusion_lat": 0.0, "name": "c0f2bea0aff078a23c2808c491d1ebe9", "is_reserved": 0, "rental_uris": {"android": "https://dc.lft.to/lastmile_qr_scan", "ios": "https://dc.lft.to/lastmile_qr_scan"}, "fusion_lon": 0.0}, {"lat": 38.95403016666667, "is_disabled": 0, "type": "electric_scooter", "lon": -77.03630916666667, "bike_id": "260c9fd2d19ff110f1981279eaef0611", "fusion_lat": 0.0, "name": "260c9fd2d19ff110f1981279eaef0611", "is_reserved": 0, "rental_uris": {"android": "https://dc.lft.to/lastmile_qr_scan", "ios": "https://dc.lft.to/lastmile_qr_scan"}, "fusion_lon": 0.0}, {"lat": 38.96608883333333, "is_disabled": 0, "type": "electric_scooter", "lon": -77.02055983333334, "bike_id": "702b90c8e277c19d5ab786effec2931e", "fusion_lat": 0.0, "name": "702b90c8e277c19d5ab786effec2931e", "is_reserved": 0, "rental_uris": {"android": "https://dc.lft.to/lastmile_qr_scan", "ios": "https://dc.lft.to/lastmile_qr_scan"}, "fusion_lon": 0.0}, {"lat": 38.90143183333333, "is_disabled": 0, "type": "electric_scooter", "lon": -77.03270666666667, "bike_id": "d2be692517c334824bc2d5c53671ad5f", "fusion_lat": 0.0, "name": "d2be692517c334824bc2d5c53671ad5f", "is_reserved": 0, "rental_uris": {"android": "https://dc.lft.to/lastmile_qr_scan", "ios": "https://dc.lft.to/lastmile_qr_scan"}, "fusion_lon": 0.0}, {"lat": 38.85808216666667, "is_disabled": 0, "type": "electric_scooter", "lon": -76.98651683333334, "bike_id": "f52f19d0f6b21bc1d3fc2965658c8390", "fusion_lat": 0.0, "name": "f52f19d0f6b21bc1d3fc2965658c8390", "is_reserved": 0, "rental_uris": {"android": "https://dc.lft.to/lastmile_qr_scan", "ios": "https://dc.lft.to/lastmile_qr_scan"}, "fusion_lon": 0.0}, {"lat": 38.907338, "is_disabled": 0, "type": "electric_bike", "lon": -77.01068083333334, "bike_id": "3062165313c71c20498cb32ab2bff149", "fusion_lat": 0.0, "name": "3062165313c71c20498cb32ab2bff149", "is_reserved": 0, "rental_uris": {"android": "https://dc.lft.to/lastmile_qr_scan", "ios": "https://dc.lft.to/lastmile_qr_scan"}, "fusion_lon": 0.0}, {"lat": 38.91270033333333, "is_disabled": 0, "type": "electric_scooter", "lon": -77.02252433333334, "bike_id": "59b98049bc3f7986149063cccd82cd4e", "fusion_lat": 0.0, "name": "59b98049bc3f7986149063cccd82cd4e", "is_reserved": 0, "rental_uris": {"android": "https://dc.lft.to/lastmile_qr_scan", "ios": "https://dc.lft.to/lastmile_qr_scan"}, "fusion_lon": 0.0}, {"lat": 38.91474183333333, "is_disabled": 0, "type": "electric_scooter", "lon": -77.03221016666667, "bike_id": "d38e2219834a35198edde0e10ff48aa0", "fusion_lat": 0.0, "name": "d38e2219834a35198edde0e10ff48aa0", "is_reserved": 0, "rental_uris": {"android": "https://dc.lft.to/lastmile_qr_scan", "ios": "https://dc.lft.to/lastmile_qr_scan"}, "fusion_lon": 0.0}, {"lat": 38.931047166666666, "is_disabled": 0, "type": "electric_scooter", "lon": -77.03509916666667, "bike_id": "106974b868b61517016dbe429f0ea8a2", "fusion_lat": 0.0, "name": "106974b868b61517016dbe429f0ea8a2", "is_reserved": 0, "rental_uris": {"android": "https://dc.lft.to/lastmile_qr_scan", "ios": "https://dc.lft.to/lastmile_qr_scan"}, "fusion_lon": 0.0}, {"lat": 38.914772166666665, "is_disabled": 0, "type": "electric_scooter", "lon": -76.98358866666666, "bike_id": "bfc3727a16127d648f6994aaea8f9089", "fusion_lat": 0.0, "name": "bfc3727a16127d648f6994aaea8f9089", "is_reserved": 0, "rental_uris": {"android": "https://dc.lft.to/lastmile_qr_scan", "ios": "https://dc.lft.to/lastmile_qr_scan"}, "fusion_lon": 0.0}, {"lat": 38.94070333333333, "is_disabled": 0, "type": "electric_scooter", "lon": -77.061386, "bike_id": "3a217de7c881273eb3ad0a4e6dd469b3", "fusion_lat": 0.0, "name": "3a217de7c881273eb3ad0a4e6dd469b3", "is_reserved": 0, "rental_uris": {"android": "https://dc.lft.to/lastmile_qr_scan", "ios": "https://dc.lft.to/lastmile_qr_scan"}, "fusion_lon": 0.0}, {"lat": 38.922707833333334, "is_disabled": 0, "type": "electric_scooter", "lon": -77.04256416666666, "bike_id": "216a4cf1d925956ab59e5a06d84bc3e2", "fusion_lat": 0.0, "name": "216a4cf1d925956ab59e5a06d84bc3e2", "is_reserved": 0, "rental_uris": {"android": "https://dc.lft.to/lastmile_qr_scan", "ios": "https://dc.lft.to/lastmile_qr_scan"}, "fusion_lon": 0.0}, {"lat": 38.87626916666667, "is_disabled": 0, "type": "electric_scooter", "lon": -76.96526966666667, "bike_id": "49af1eee526ed31075770e9d9c255543", "fusion_lat": 0.0, "name": "49af1eee526ed31075770e9d9c255543", "is_reserved": 0, "rental_uris": {"android": "https://dc.lft.to/lastmile_qr_scan", "ios": "https://dc.lft.to/lastmile_qr_scan"}, "fusion_lon": 0.0}, {"lat": 38.93197766666667, "is_disabled": 0, "type": "electric_scooter", "lon": -77.04426616666667, "bike_id": "8bf12004b1be7c9b8dbd48d3e75cc24a", "fusion_lat": 0.0, "name": "8bf12004b1be7c9b8dbd48d3e75cc24a", "is_reserved": 0, "rental_uris": {"android": "https://dc.lft.to/lastmile_qr_scan", "ios": "https://dc.lft.to/lastmile_qr_scan"}, "fusion_lon": 0.0}, {"lat": 38.897572833333335, "is_disabled": 0, "type": "electric_scooter", "lon": -77.05492816666667, "bike_id": "806ba8e71d1d188afb4c59ce084628b2", "fusion_lat": 0.0, "name": "806ba8e71d1d188afb4c59ce084628b2", "is_reserved": 0, "rental_uris": {"android": "https://dc.lft.to/lastmile_qr_scan", "ios": "https://dc.lft.to/lastmile_qr_scan"}, "fusion_lon": 0.0}, {"lat": 38.893403, "is_disabled": 0, "type": "electric_scooter", "lon": -77.012301, "bike_id": "426f15a89536cb54b2bdef226124ae41", "fusion_lat": 0.0, "name": "426f15a89536cb54b2bdef226124ae41", "is_reserved": 0, "rental_uris": {"android": "https://dc.lft.to/lastmile_qr_scan", "ios": "https://dc.lft.to/lastmile_qr_scan"}, "fusion_lon": 0.0}, {"lat": 38.9032175, "is_disabled": 0, "type": "electric_scooter", "lon": -77.02892966666667, "bike_id": "a31e75162d74898c2ad076ed72f0a80e", "fusion_lat": 0.0, "name": "a31e75162d74898c2ad076ed72f0a80e", "is_reserved": 0, "rental_uris": {"android": "https://dc.lft.to/lastmile_qr_scan", "ios": "https://dc.lft.to/lastmile_qr_scan"}, "fusion_lon": 0.0}, {"lat": 38.84273116666667, "is_disabled": 0, "type": "electric_bike", "lon": -76.98842883333333, "bike_id": "f6a2937b392e287c6b8c5053bf4b5efd", "fusion_lat": 0.0, "name": "f6a2937b392e287c6b8c5053bf4b5efd", "is_reserved": 0, "rental_uris": {"android": "https://dc.lft.to/lastmile_qr_scan", "ios": "https://dc.lft.to/lastmile_qr_scan"}, "fusion_lon": 0.0}, {"lat": 38.83728083333333, "is_disabled": 0, "type": "electric_bike", "lon": -76.99762516666667, "bike_id": "2cb986166cc024f9edc2c82034b3e7eb", "fusion_lat": 0.0, "name": "2cb986166cc024f9edc2c82034b3e7eb", "is_reserved": 0, "rental_uris": {"android": "https://dc.lft.to/lastmile_qr_scan", "ios": "https://dc.lft.to/lastmile_qr_scan"}, "fusion_lon": 0.0}, {"lat": 38.97323433333333, "is_disabled": 0, "type": "electric_bike", "lon": -77.022911, "bike_id": "7d70872686d62ad032ac0cab53b8105b", "fusion_lat": 0.0, "name": "7d70872686d62ad032ac0cab53b8105b", "is_reserved": 0, "rental_uris": {"android": "https://dc.lft.to/lastmile_qr_scan", "ios": "https://dc.lft.to/lastmile_qr_scan"}, "fusion_lon": 0.0}, {"lat": 38.91821783333333, "is_disabled": 0, "type": "electric_scooter", "lon": -77.03165933333334, "bike_id": "9871f7847cbe118446206dec3d5d9f88", "fusion_lat": 0.0, "name": "9871f7847cbe118446206dec3d5d9f88", "is_reserved": 0, "rental_uris": {"android": "https://dc.lft.to/lastmile_qr_scan", "ios": "https://dc.lft.to/lastmile_qr_scan"}, "fusion_lon": 0.0}, {"lat": 38.93407533333333, "is_disabled": 0, "type": "electric_scooter", "lon": -77.02465133333334, "bike_id": "8ea0ecaee03312c03306b78bb315d4d9", "fusion_lat": 0.0, "name": "8ea0ecaee03312c03306b78bb315d4d9", "is_reserved": 0, "rental_uris": {"android": "https://dc.lft.to/lastmile_qr_scan", "ios": "https://dc.lft.to/lastmile_qr_scan"}, "fusion_lon": 0.0}, {"lat": 38.895494166666666, "is_disabled": 0, "type": "electric_scooter", "lon": -77.00437633333334, "bike_id": "1b011553a1df7be84020815be56e4a40", "fusion_lat": 0.0, "name": "1b011553a1df7be84020815be56e4a40", "is_reserved": 0, "rental_uris": {"android": "https://dc.lft.to/lastmile_qr_scan", "ios": "https://dc.lft.to/lastmile_qr_scan"}, "fusion_lon": 0.0}, {"lat": 38.856792, "is_disabled": 0, "type": "electric_scooter", "lon": -76.981782, "bike_id": "73574ca447133ecf3275d6f6d156e35c", "fusion_lat": 0.0, "name": "73574ca447133ecf3275d6f6d156e35c", "is_reserved": 0, "rental_uris": {"android": "https://dc.lft.to/lastmile_qr_scan", "ios": "https://dc.lft.to/lastmile_qr_scan"}, "fusion_lon": 0.0}, {"lat": 38.90144266666667, "is_disabled": 0, "type": "electric_scooter", "lon": -77.0293755, "bike_id": "7cd13e88e769bb0053e351a2c472b07d", "fusion_lat": 0.0, "name": "7cd13e88e769bb0053e351a2c472b07d", "is_reserved": 0, "rental_uris": {"android": "https://dc.lft.to/lastmile_qr_scan", "ios": "https://dc.lft.to/lastmile_qr_scan"}, "fusion_lon": 0.0}, {"lat": 38.920331, "is_disabled": 0, "type": "electric_scooter", "lon": -76.99340266666667, "bike_id": "399e9ddfe100ba6f1b335661fdf5c6ec", "fusion_lat": 0.0, "name": "399e9ddfe100ba6f1b335661fdf5c6ec", "is_reserved": 0, "rental_uris": {"android": "https://dc.lft.to/lastmile_qr_scan", "ios": "https://dc.lft.to/lastmile_qr_scan"}, "fusion_lon": 0.0}, {"lat": 38.91777783333333, "is_disabled": 0, "type": "electric_scooter", "lon": -77.02309033333333, "bike_id": "ddb350f2094edb35dd773b155f7e53cf", "fusion_lat": 0.0, "name": "ddb350f2094edb35dd773b155f7e53cf", "is_reserved": 0, "rental_uris": {"android": "https://dc.lft.to/lastmile_qr_scan", "ios": "https://dc.lft.to/lastmile_qr_scan"}, "fusion_lon": 0.0}, {"lat": 38.865078833333335, "is_disabled": 0, "type": "electric_scooter", "lon": -76.99005033333333, "bike_id": "1cf5c9fe38457b54695d6c98916634c6", "fusion_lat": 0.0, "name": "1cf5c9fe38457b54695d6c98916634c6", "is_reserved": 0, "rental_uris": {"android": "https://dc.lft.to/lastmile_qr_scan", "ios": "https://dc.lft.to/lastmile_qr_scan"}, "fusion_lon": 0.0}, {"lat": 38.8803375, "is_disabled": 0, "type": "electric_scooter", "lon": -77.0251635, "bike_id": "9d38bc69b7959e759e3e21ef8eb01ea7", "fusion_lat": 0.0, "name": "9d38bc69b7959e759e3e21ef8eb01ea7", "is_reserved": 0, "rental_uris": {"android": "https://dc.lft.to/lastmile_qr_scan", "ios": "https://dc.lft.to/lastmile_qr_scan"}, "fusion_lon": 0.0}, {"lat": 38.932668166666666, "is_disabled": 0, "type": "electric_bike", "lon": -76.99495916666666, "bike_id": "7c61c11fc0ac9482d294b7e4ef57e33a", "fusion_lat": 0.0, "name": "7c61c11fc0ac9482d294b7e4ef57e33a", "is_reserved": 0, "rental_uris": {"android": "https://dc.lft.to/lastmile_qr_scan", "ios": "https://dc.lft.to/lastmile_qr_scan"}, "fusion_lon": 0.0}, {"lat": 38.939559833333334, "is_disabled": 0, "type": "electric_bike", "lon": -77.3609245, "bike_id": "6cc3fa25dd889a1545bdd32836723d7f", "fusion_lat": 0.0, "name": "6cc3fa25dd889a1545bdd32836723d7f", "is_reserved": 0, "rental_uris": {"android": "https://dc.lft.to/lastmile_qr_scan", "ios": "https://dc.lft.to/lastmile_qr_scan"}, "fusion_lon": 0.0}, {"lat": 38.935965833333334, "is_disabled": 0, "type": "electric_scooter", "lon": -77.03746666666666, "bike_id": "c39ec9eaa48445c23e53b42ecc2cbf5b", "fusion_lat": 0.0, "name": "c39ec9eaa48445c23e53b42ecc2cbf5b", "is_reserved": 0, "rental_uris": {"android": "https://dc.lft.to/lastmile_qr_scan", "ios": "https://dc.lft.to/lastmile_qr_scan"}, "fusion_lon": 0.0}, {"lat": 38.91135766666667, "is_disabled": 0, "type": "electric_bike", "lon": -77.008816, "bike_id": "dff1126b3cc4f45b39be5f8a7ae88507", "fusion_lat": 0.0, "name": "dff1126b3cc4f45b39be5f8a7ae88507", "is_reserved": 0, "rental_uris": {"android": "https://dc.lft.to/lastmile_qr_scan", "ios": "https://dc.lft.to/lastmile_qr_scan"}, "fusion_lon": 0.0}, {"lat": 38.92822683333333, "is_disabled": 0, "type": "electric_scooter", "lon": -77.026204, "bike_id": "d0b1a386884e20a7250fafb983cfbfe7", "fusion_lat": 0.0, "name": "d0b1a386884e20a7250fafb983cfbfe7", "is_reserved": 0, "rental_uris": {"android": "https://dc.lft.to/lastmile_qr_scan", "ios": "https://dc.lft.to/lastmile_qr_scan"}, "fusion_lon": 0.0}, {"lat": 38.97827616666667, "is_disabled": 0, "type": "electric_bike", "lon": -76.92889133333334, "bike_id": "f45b7db561e7bc482c8d26dadea5c959", "fusion_lat": 0.0, "name": "f45b7db561e7bc482c8d26dadea5c959", "is_reserved": 0, "rental_uris": {"android": "https://dc.lft.to/lastmile_qr_scan", "ios": "https://dc.lft.to/lastmile_qr_scan"}, "fusion_lon": 0.0}, {"lat": 38.902920333333334, "is_disabled": 0, "type": "electric_scooter", "lon": -77.03862666666667, "bike_id": "649e19bc6f1ea7848435155725b96506", "fusion_lat": 0.0, "name": "649e19bc6f1ea7848435155725b96506", "is_reserved": 0, "rental_uris": {"android": "https://dc.lft.to/lastmile_qr_scan", "ios": "https://dc.lft.to/lastmile_qr_scan"}, "fusion_lon": 0.0}, {"lat": 38.921001333333336, "is_disabled": 0, "type": "electric_scooter", "lon": -77.025562, "bike_id": "8475dda09d1e3b6663a9925cd6fdb936", "fusion_lat": 0.0, "name": "8475dda09d1e3b6663a9925cd6fdb936", "is_reserved": 0, "rental_uris": {"android": "https://dc.lft.to/lastmile_qr_scan", "ios": "https://dc.lft.to/lastmile_qr_scan"}, "fusion_lon": 0.0}, {"lat": 38.95281766666667, "is_disabled": 0, "type": "electric_bike", "lon": -76.94599316666667, "bike_id": "2b7fe51ae3aeb86e04adfdffe3ac7939", "fusion_lat": 0.0, "name": "2b7fe51ae3aeb86e04adfdffe3ac7939", "is_reserved": 0, "rental_uris": {"android": "https://dc.lft.to/lastmile_qr_scan", "ios": "https://dc.lft.to/lastmile_qr_scan"}, "fusion_lon": 0.0}, {"lat": 38.90362483333333, "is_disabled": 0, "type": "electric_scooter", "lon": -77.04472333333334, "bike_id": "0b868ac36da5e30fd26756cebe43f241", "fusion_lat": 0.0, "name": "0b868ac36da5e30fd26756cebe43f241", "is_reserved": 0, "rental_uris": {"android": "https://dc.lft.to/lastmile_qr_scan", "ios": "https://dc.lft.to/lastmile_qr_scan"}, "fusion_lon": 0.0}, {"lat": 38.911428666666666, "is_disabled": 0, "type": "electric_scooter", "lon": -77.04424016666667, "bike_id": "fab615f3687b48b8a7d9a54275ae676c", "fusion_lat": 0.0, "name": "fab615f3687b48b8a7d9a54275ae676c", "is_reserved": 0, "rental_uris": {"android": "https://dc.lft.to/lastmile_qr_scan", "ios": "https://dc.lft.to/lastmile_qr_scan"}, "fusion_lon": 0.0}, {"lat": 38.990026, "is_disabled": 0, "type": "electric_bike", "lon": -77.00440033333334, "bike_id": "a2333f394c8d5f682aa72a3b5578d46c", "fusion_lat": 0.0, "name": "a2333f394c8d5f682aa72a3b5578d46c", "is_reserved": 0, "rental_uris": {"android": "https://dc.lft.to/lastmile_qr_scan", "ios": "https://dc.lft.to/lastmile_qr_scan"}, "fusion_lon": 0.0}, {"lat": 38.905486833333335, "is_disabled": 0, "type": "electric_scooter", "lon": -77.00308616666666, "bike_id": "fb8f5c61bb20f05aead794c7ecb31690", "fusion_lat": 0.0, "name": "fb8f5c61bb20f05aead794c7ecb31690", "is_reserved": 0, "rental_uris": {"android": "https://dc.lft.to/lastmile_qr_scan", "ios": "https://dc.lft.to/lastmile_qr_scan"}, "fusion_lon": 0.0}, {"lat": 38.895591, "is_disabled": 0, "type": "electric_scooter", "lon": -76.9308185, "bike_id": "404c56502ed3de96dab0e8bb42e66bf1", "fusion_lat": 0.0, "name": "404c56502ed3de96dab0e8bb42e66bf1", "is_reserved": 0, "rental_uris": {"android": "https://dc.lft.to/lastmile_qr_scan", "ios": "https://dc.lft.to/lastmile_qr_scan"}, "fusion_lon": 0.0}, {"lat": 38.926823666666664, "is_disabled": 0, "type": "electric_scooter", "lon": -77.01572866666666, "bike_id": "1be30e09d9bf59a72446ce604d31103f", "fusion_lat": 0.0, "name": "1be30e09d9bf59a72446ce604d31103f", "is_reserved": 0, "rental_uris": {"android": "https://dc.lft.to/lastmile_qr_scan", "ios": "https://dc.lft.to/lastmile_qr_scan"}, "fusion_lon": 0.0}, {"lat": 38.88333683333333, "is_disabled": 0, "type": "electric_scooter", "lon": -77.00933066666667, "bike_id": "4efab4c523bce924353c1ac07db1eb7e", "fusion_lat": 0.0, "name": "4efab4c523bce924353c1ac07db1eb7e", "is_reserved": 0, "rental_uris": {"android": "https://dc.lft.to/lastmile_qr_scan", "ios": "https://dc.lft.to/lastmile_qr_scan"}, "fusion_lon": 0.0}, {"lat": 38.939779333333334, "is_disabled": 0, "type": "electric_scooter", "lon": -77.028865, "bike_id": "00e827e3e7388cbac604fea1e91d69cd", "fusion_lat": 0.0, "name": "00e827e3e7388cbac604fea1e91d69cd", "is_reserved": 0, "rental_uris": {"android": "https://dc.lft.to/lastmile_qr_scan", "ios": "https://dc.lft.to/lastmile_qr_scan"}, "fusion_lon": 0.0}, {"lat": 38.949001833333334, "is_disabled": 0, "type": "electric_bike", "lon": -76.9723755, "bike_id": "319dc71690de30f8254a19fce42f0074", "fusion_lat": 0.0, "name": "319dc71690de30f8254a19fce42f0074", "is_reserved": 0, "rental_uris": {"android": "https://dc.lft.to/lastmile_qr_scan", "ios": "https://dc.lft.to/lastmile_qr_scan"}, "fusion_lon": 0.0}, {"lat": 38.89802816666667, "is_disabled": 0, "type": "electric_scooter", "lon": -77.05022833333334, "bike_id": "ad714dce0aa499311f0a239c662a5060", "fusion_lat": 0.0, "name": "ad714dce0aa499311f0a239c662a5060", "is_reserved": 0, "rental_uris": {"android": "https://dc.lft.to/lastmile_qr_scan", "ios": "https://dc.lft.to/lastmile_qr_scan"}, "fusion_lon": 0.0}, {"lat": 38.79328433333333, "is_disabled": 0, "type": "electric_bike", "lon": -77.040153, "bike_id": "d8e9ab7d7bdc89d4b6c66337bdacb5fe", "fusion_lat": 0.0, "name": "d8e9ab7d7bdc89d4b6c66337bdacb5fe", "is_reserved": 0, "rental_uris": {"android": "https://dc.lft.to/lastmile_qr_scan", "ios": "https://dc.lft.to/lastmile_qr_scan"}, "fusion_lon": 0.0}, {"lat": 38.911988666666666, "is_disabled": 0, "type": "electric_scooter", "lon": -77.01181183333334, "bike_id": "d515bcb7e55b36f2130933d59cfc41d0", "fusion_lat": 0.0, "name": "d515bcb7e55b36f2130933d59cfc41d0", "is_reserved": 0, "rental_uris": {"android": "https://dc.lft.to/lastmile_qr_scan", "ios": "https://dc.lft.to/lastmile_qr_scan"}, "fusion_lon": 0.0}, {"lat": 38.90606583333334, "is_disabled": 0, "type": "electric_scooter", "lon": -77.034024, "bike_id": "6757b94cc112687403b553e3f7f175b8", "fusion_lat": 0.0, "name": "6757b94cc112687403b553e3f7f175b8", "is_reserved": 0, "rental_uris": {"android": "https://dc.lft.to/lastmile_qr_scan", "ios": "https://dc.lft.to/lastmile_qr_scan"}, "fusion_lon": 0.0}, {"lat": 38.944401666666664, "is_disabled": 0, "type": "electric_scooter", "lon": -77.01506666666667, "bike_id": "e4b2bd805fccdabdaf34bf68f0651fae", "fusion_lat": 0.0, "name": "e4b2bd805fccdabdaf34bf68f0651fae", "is_reserved": 0, "rental_uris": {"android": "https://dc.lft.to/lastmile_qr_scan", "ios": "https://dc.lft.to/lastmile_qr_scan"}, "fusion_lon": 0.0}, {"lat": 38.943936, "is_disabled": 0, "type": "electric_scooter", "lon": -77.01982933333333, "bike_id": "5c513005c29c2cc2852abc4d25faa84a", "fusion_lat": 0.0, "name": "5c513005c29c2cc2852abc4d25faa84a", "is_reserved": 0, "rental_uris": {"android": "https://dc.lft.to/lastmile_qr_scan", "ios": "https://dc.lft.to/lastmile_qr_scan"}, "fusion_lon": 0.0}, {"lat": 38.8551985, "is_disabled": 0, "type": "electric_bike", "lon": -77.120277, "bike_id": "1a2a34965b1cf1dbe82a0680148f8523", "fusion_lat": 0.0, "name": "1a2a34965b1cf1dbe82a0680148f8523", "is_reserved": 0, "rental_uris": {"android": "https://dc.lft.to/lastmile_qr_scan", "ios": "https://dc.lft.to/lastmile_qr_scan"}, "fusion_lon": 0.0}, {"lat": 38.8518925, "is_disabled": 0, "type": "electric_bike", "lon": -76.96112716666667, "bike_id": "ae822f1eb10044675d9466a9a658d213", "fusion_lat": 0.0, "name": "ae822f1eb10044675d9466a9a658d213", "is_reserved": 0, "rental_uris": {"android": "https://dc.lft.to/lastmile_qr_scan", "ios": "https://dc.lft.to/lastmile_qr_scan"}, "fusion_lon": 0.0}, {"lat": 38.91113416666666, "is_disabled": 0, "type": "electric_scooter", "lon": -77.03827083333333, "bike_id": "85a81a06650ca41399e654b54e5d2386", "fusion_lat": 0.0, "name": "85a81a06650ca41399e654b54e5d2386", "is_reserved": 0, "rental_uris": {"android": "https://dc.lft.to/lastmile_qr_scan", "ios": "https://dc.lft.to/lastmile_qr_scan"}, "fusion_lon": 0.0}, {"lat": 38.900721833333336, "is_disabled": 0, "type": "electric_scooter", "lon": -77.00199283333333, "bike_id": "9c40a75d82d2e7d8a57a353efb9bf7e3", "fusion_lat": 0.0, "name": "9c40a75d82d2e7d8a57a353efb9bf7e3", "is_reserved": 0, "rental_uris": {"android": "https://dc.lft.to/lastmile_qr_scan", "ios": "https://dc.lft.to/lastmile_qr_scan"}, "fusion_lon": 0.0}, {"lat": 38.922507833333334, "is_disabled": 0, "type": "electric_scooter", "lon": -77.03390266666666, "bike_id": "39083897129f953e851b91d689a7bcbc", "fusion_lat": 0.0, "name": "39083897129f953e851b91d689a7bcbc", "is_reserved": 0, "rental_uris": {"android": "https://dc.lft.to/lastmile_qr_scan", "ios": "https://dc.lft.to/lastmile_qr_scan"}, "fusion_lon": 0.0}, {"lat": 38.90098483333333, "is_disabled": 0, "type": "electric_scooter", "lon": -77.03159016666666, "bike_id": "4be0d0b4f409bfba0d8435d027cde2ab", "fusion_lat": 0.0, "name": "4be0d0b4f409bfba0d8435d027cde2ab", "is_reserved": 0, "rental_uris": {"android": "https://dc.lft.to/lastmile_qr_scan", "ios": "https://dc.lft.to/lastmile_qr_scan"}, "fusion_lon": 0.0}, {"lat": 38.90107966666667, "is_disabled": 0, "type": "electric_scooter", "lon": -77.0250845, "bike_id": "844648677f08979225e202b6eea43e44", "fusion_lat": 0.0, "name": "844648677f08979225e202b6eea43e44", "is_reserved": 0, "rental_uris": {"android": "https://dc.lft.to/lastmile_qr_scan", "ios": "https://dc.lft.to/lastmile_qr_scan"}, "fusion_lon": 0.0}, {"lat": 38.922851666666666, "is_disabled": 0, "type": "electric_scooter", "lon": -77.02246466666666, "bike_id": "be8c5e2f77e1827178e787c4ec0bba53", "fusion_lat": 0.0, "name": "be8c5e2f77e1827178e787c4ec0bba53", "is_reserved": 0, "rental_uris": {"android": "https://dc.lft.to/lastmile_qr_scan", "ios": "https://dc.lft.to/lastmile_qr_scan"}, "fusion_lon": 0.0}, {"lat": 38.93064283333333, "is_disabled": 0, "type": "electric_scooter", "lon": -77.03190133333334, "bike_id": "d1f80f0e78f0658e1bda8a32e45303ab", "fusion_lat": 0.0, "name": "d1f80f0e78f0658e1bda8a32e45303ab", "is_reserved": 0, "rental_uris": {"android": "https://dc.lft.to/lastmile_qr_scan", "ios": "https://dc.lft.to/lastmile_qr_scan"}, "fusion_lon": 0.0}, {"lat": 38.91561183333334, "is_disabled": 0, "type": "electric_scooter", "lon": -77.03221383333333, "bike_id": "c259190001f3c2ebd757902b6afbf779", "fusion_lat": 0.0, "name": "c259190001f3c2ebd757902b6afbf779", "is_reserved": 0, "rental_uris": {"android": "https://dc.lft.to/lastmile_qr_scan", "ios": "https://dc.lft.to/lastmile_qr_scan"}, "fusion_lon": 0.0}, {"lat": 38.91526783333333, "is_disabled": 0, "type": "electric_scooter", "lon": -77.03204, "bike_id": "d5b8e1f183d3a36a2c6b69cdbfa8e82b", "fusion_lat": 0.0, "name": "d5b8e1f183d3a36a2c6b69cdbfa8e82b", "is_reserved": 0, "rental_uris": {"android": "https://dc.lft.to/lastmile_qr_scan", "ios": "https://dc.lft.to/lastmile_qr_scan"}, "fusion_lon": 0.0}, {"lat": 38.935717, "is_disabled": 0, "type": "electric_scooter", "lon": -77.032621, "bike_id": "9c6559efaca6fd644e6b69d81fe022bc", "fusion_lat": 0.0, "name": "9c6559efaca6fd644e6b69d81fe022bc", "is_reserved": 0, "rental_uris": {"android": "https://dc.lft.to/lastmile_qr_scan", "ios": "https://dc.lft.to/lastmile_qr_scan"}, "fusion_lon": 0.0}, {"lat": 38.933845166666664, "is_disabled": 0, "type": "electric_scooter", "lon": -76.99511483333333, "bike_id": "6507dc2533c509cce6ee266debfe0440", "fusion_lat": 0.0, "name": "6507dc2533c509cce6ee266debfe0440", "is_reserved": 0, "rental_uris": {"android": "https://dc.lft.to/lastmile_qr_scan", "ios": "https://dc.lft.to/lastmile_qr_scan"}, "fusion_lon": 0.0}, {"lat": 38.903599166666666, "is_disabled": 0, "type": "electric_scooter", "lon": -77.04470666666667, "bike_id": "407bfa2dbceba31eea94f688961fe431", "fusion_lat": 0.0, "name": "407bfa2dbceba31eea94f688961fe431", "is_reserved": 0, "rental_uris": {"android": "https://dc.lft.to/lastmile_qr_scan", "ios": "https://dc.lft.to/lastmile_qr_scan"}, "fusion_lon": 0.0}, {"lat": 38.89705516666667, "is_disabled": 0, "type": "electric_scooter", "lon": -77.00844233333333, "bike_id": "2f83347f9e53cd02fd2ab213bf4030b4", "fusion_lat": 0.0, "name": "2f83347f9e53cd02fd2ab213bf4030b4", "is_reserved": 0, "rental_uris": {"android": "https://dc.lft.to/lastmile_qr_scan", "ios": "https://dc.lft.to/lastmile_qr_scan"}, "fusion_lon": 0.0}, {"lat": 38.932541666666665, "is_disabled": 0, "type": "electric_scooter", "lon": -77.03464616666666, "bike_id": "260930babc4cca4719f8bac2d403bad6", "fusion_lat": 0.0, "name": "260930babc4cca4719f8bac2d403bad6", "is_reserved": 0, "rental_uris": {"android": "https://dc.lft.to/lastmile_qr_scan", "ios": "https://dc.lft.to/lastmile_qr_scan"}, "fusion_lon": 0.0}, {"lat": 38.9311025, "is_disabled": 0, "type": "electric_scooter", "lon": -77.03022966666667, "bike_id": "d51b0787f64efadaf8d9af3905c2095f", "fusion_lat": 0.0, "name": "d51b0787f64efadaf8d9af3905c2095f", "is_reserved": 0, "rental_uris": {"android": "https://dc.lft.to/lastmile_qr_scan", "ios": "https://dc.lft.to/lastmile_qr_scan"}, "fusion_lon": 0.0}, {"lat": 38.93021516666667, "is_disabled": 0, "type": "electric_scooter", "lon": -77.04451033333333, "bike_id": "d02789f0b9f5d0e87067cd722a0a4a69", "fusion_lat": 0.0, "name": "d02789f0b9f5d0e87067cd722a0a4a69", "is_reserved": 0, "rental_uris": {"android": "https://dc.lft.to/lastmile_qr_scan", "ios": "https://dc.lft.to/lastmile_qr_scan"}, "fusion_lon": 0.0}, {"lat": 38.91504833333333, "is_disabled": 0, "type": "electric_bike", "lon": -77.0188045, "bike_id": "d84d8a910942fa7d5f4ae3a4bba13914", "fusion_lat": 0.0, "name": "d84d8a910942fa7d5f4ae3a4bba13914", "is_reserved": 0, "rental_uris": {"android": "https://dc.lft.to/lastmile_qr_scan", "ios": "https://dc.lft.to/lastmile_qr_scan"}, "fusion_lon": 0.0}, {"lat": 38.91113566666667, "is_disabled": 0, "type": "electric_scooter", "lon": -77.0372115, "bike_id": "73539adc4bc57135a1f338b457c5abaa", "fusion_lat": 0.0, "name": "73539adc4bc57135a1f338b457c5abaa", "is_reserved": 0, "rental_uris": {"android": "https://dc.lft.to/lastmile_qr_scan", "ios": "https://dc.lft.to/lastmile_qr_scan"}, "fusion_lon": 0.0}, {"lat": 38.914033833333335, "is_disabled": 0, "type": "electric_scooter", "lon": -77.031591, "bike_id": "8fec612aab810136031b736f7aeff484", "fusion_lat": 0.0, "name": "8fec612aab810136031b736f7aeff484", "is_reserved": 0, "rental_uris": {"android": "https://dc.lft.to/lastmile_qr_scan", "ios": "https://dc.lft.to/lastmile_qr_scan"}, "fusion_lon": 0.0}, {"lat": 38.9063145, "is_disabled": 0, "type": "electric_scooter", "lon": -77.03142216666667, "bike_id": "452a0cb589827c6e644c1757dd63cee9", "fusion_lat": 0.0, "name": "452a0cb589827c6e644c1757dd63cee9", "is_reserved": 0, "rental_uris": {"android": "https://dc.lft.to/lastmile_qr_scan", "ios": "https://dc.lft.to/lastmile_qr_scan"}, "fusion_lon": 0.0}, {"lat": 38.903242166666665, "is_disabled": 0, "type": "electric_scooter", "lon": -77.028958, "bike_id": "84f28eec10a41ce4fb3d6e3e4ba534e8", "fusion_lat": 0.0, "name": "84f28eec10a41ce4fb3d6e3e4ba534e8", "is_reserved": 0, "rental_uris": {"android": "https://dc.lft.to/lastmile_qr_scan", "ios": "https://dc.lft.to/lastmile_qr_scan"}, "fusion_lon": 0.0}, {"lat": 38.91763683333333, "is_disabled": 0, "type": "electric_scooter", "lon": -77.04770266666667, "bike_id": "674280fbad16570f142f8b3231f6c02a", "fusion_lat": 0.0, "name": "674280fbad16570f142f8b3231f6c02a", "is_reserved": 0, "rental_uris": {"android": "https://dc.lft.to/lastmile_qr_scan", "ios": "https://dc.lft.to/lastmile_qr_scan"}, "fusion_lon": 0.0}, {"lat": 38.9153185, "is_disabled": 0, "type": "electric_scooter", "lon": -77.03195966666667, "bike_id": "12dcd359d43949f187292862fb7fab24", "fusion_lat": 0.0, "name": "12dcd359d43949f187292862fb7fab24", "is_reserved": 0, "rental_uris": {"android": "https://dc.lft.to/lastmile_qr_scan", "ios": "https://dc.lft.to/lastmile_qr_scan"}, "fusion_lon": 0.0}, {"lat": 38.91781866666667, "is_disabled": 0, "type": "electric_scooter", "lon": -77.02892016666667, "bike_id": "c6d3265f0ca6562cbcd3fb78ced2f84a", "fusion_lat": 0.0, "name": "c6d3265f0ca6562cbcd3fb78ced2f84a", "is_reserved": 0, "rental_uris": {"android": "https://dc.lft.to/lastmile_qr_scan", "ios": "https://dc.lft.to/lastmile_qr_scan"}, "fusion_lon": 0.0}, {"lat": 38.92203283333333, "is_disabled": 0, "type": "electric_scooter", "lon": -76.95659033333334, "bike_id": "d01b1e0bb190fe67b110bbfaaa5a0e63", "fusion_lat": 0.0, "name": "d01b1e0bb190fe67b110bbfaaa5a0e63", "is_reserved": 0, "rental_uris": {"android": "https://dc.lft.to/lastmile_qr_scan", "ios": "https://dc.lft.to/lastmile_qr_scan"}, "fusion_lon": 0.0}, {"lat": 39.088586666666664, "is_disabled": 0, "type": "electric_bike", "lon": -77.17840016666666, "bike_id": "9345272fa13d5b5afdb3fe6137c9d2a3", "fusion_lat": 0.0, "name": "9345272fa13d5b5afdb3fe6137c9d2a3", "is_reserved": 0, "rental_uris": {"android": "https://dc.lft.to/lastmile_qr_scan", "ios": "https://dc.lft.to/lastmile_qr_scan"}, "fusion_lon": 0.0}, {"lat": 38.928516, "is_disabled": 0, "type": "electric_bike", "lon": -77.222282, "bike_id": "c26d811088c17891aef809db3f1dfab6", "fusion_lat": 0.0, "name": "c26d811088c17891aef809db3f1dfab6", "is_reserved": 0, "rental_uris": {"android": "https://dc.lft.to/lastmile_qr_scan", "ios": "https://dc.lft.to/lastmile_qr_scan"}, "fusion_lon": 0.0}, {"lat": 38.90648566666667, "is_disabled": 0, "type": "electric_bike", "lon": -77.041848, "bike_id": "489ddcba9306fa1e382073381a42de16", "fusion_lat": 0.0, "name": "489ddcba9306fa1e382073381a42de16", "is_reserved": 0, "rental_uris": {"android": "https://dc.lft.to/lastmile_qr_scan", "ios": "https://dc.lft.to/lastmile_qr_scan"}, "fusion_lon": 0.0}, {"lat": 38.90170466666667, "is_disabled": 0, "type": "electric_scooter", "lon": -77.05000333333334, "bike_id": "430ac85da9f657494f70dd7313ff73c3", "fusion_lat": 0.0, "name": "430ac85da9f657494f70dd7313ff73c3", "is_reserved": 0, "rental_uris": {"android": "https://dc.lft.to/lastmile_qr_scan", "ios": "https://dc.lft.to/lastmile_qr_scan"}, "fusion_lon": 0.0}, {"lat": 38.87092716666667, "is_disabled": 0, "type": "electric_bike", "lon": -77.01200883333334, "bike_id": "0e2dd9278998197649f85062698d06ac", "fusion_lat": 0.0, "name": "0e2dd9278998197649f85062698d06ac", "is_reserved": 0, "rental_uris": {"android": "https://dc.lft.to/lastmile_qr_scan", "ios": "https://dc.lft.to/lastmile_qr_scan"}, "fusion_lon": 0.0}, {"lat": 38.923357833333334, "is_disabled": 0, "type": "electric_scooter", "lon": -77.0269725, "bike_id": "c2306dc6f64f4559abee647935bd79cf", "fusion_lat": 0.0, "name": "c2306dc6f64f4559abee647935bd79cf", "is_reserved": 0, "rental_uris": {"android": "https://dc.lft.to/lastmile_qr_scan", "ios": "https://dc.lft.to/lastmile_qr_scan"}, "fusion_lon": 0.0}, {"lat": 38.898137166666665, "is_disabled": 0, "type": "electric_scooter", "lon": -77.03234166666667, "bike_id": "079a1b6b07a7dd465fbdc496ad5e64e1", "fusion_lat": 0.0, "name": "079a1b6b07a7dd465fbdc496ad5e64e1", "is_reserved": 0, "rental_uris": {"android": "https://dc.lft.to/lastmile_qr_scan", "ios": "https://dc.lft.to/lastmile_qr_scan"}, "fusion_lon": 0.0}, {"lat": 38.906552, "is_disabled": 0, "type": "electric_scooter", "lon": -77.02970266666667, "bike_id": "f3fedc76dedf58eec5ab3c56a72bda56", "fusion_lat": 0.0, "name": "f3fedc76dedf58eec5ab3c56a72bda56", "is_reserved": 0, "rental_uris": {"android": "https://dc.lft.to/lastmile_qr_scan", "ios": "https://dc.lft.to/lastmile_qr_scan"}, "fusion_lon": 0.0}, {"lat": 38.90280583333333, "is_disabled": 0, "type": "electric_scooter", "lon": -77.03838516666667, "bike_id": "b57c01e4e4ddbc94f357cf884a90c0c8", "fusion_lat": 0.0, "name": "b57c01e4e4ddbc94f357cf884a90c0c8", "is_reserved": 0, "rental_uris": {"android": "https://dc.lft.to/lastmile_qr_scan", "ios": "https://dc.lft.to/lastmile_qr_scan"}, "fusion_lon": 0.0}, {"lat": 39.0520275, "is_disabled": 0, "type": "electric_bike", "lon": -77.10914483333333, "bike_id": "3e1fc22c7fb8883566f26b7e3268cee9", "fusion_lat": 0.0, "name": "3e1fc22c7fb8883566f26b7e3268cee9", "is_reserved": 0, "rental_uris": {"android": "https://dc.lft.to/lastmile_qr_scan", "ios": "https://dc.lft.to/lastmile_qr_scan"}, "fusion_lon": 0.0}, {"lat": 38.89969766666667, "is_disabled": 0, "type": "electric_scooter", "lon": -76.92660466666666, "bike_id": "b92e9d1e3a06126d5ea90c08abb1a1aa", "fusion_lat": 0.0, "name": "b92e9d1e3a06126d5ea90c08abb1a1aa", "is_reserved": 0, "rental_uris": {"android": "https://dc.lft.to/lastmile_qr_scan", "ios": "https://dc.lft.to/lastmile_qr_scan"}, "fusion_lon": 0.0}, {"lat": 38.90095216666667, "is_disabled": 0, "type": "electric_scooter", "lon": -77.01219816666666, "bike_id": "9407247d7c183c83a4070503acf589d5", "fusion_lat": 0.0, "name": "9407247d7c183c83a4070503acf589d5", "is_reserved": 0, "rental_uris": {"android": "https://dc.lft.to/lastmile_qr_scan", "ios": "https://dc.lft.to/lastmile_qr_scan"}, "fusion_lon": 0.0}, {"lat": 38.902083833333336, "is_disabled": 0, "type": "electric_scooter", "lon": -77.0237925, "bike_id": "69266f9a0de7647dcf143c91b37fa174", "fusion_lat": 0.0, "name": "69266f9a0de7647dcf143c91b37fa174", "is_reserved": 0, "rental_uris": {"android": "https://dc.lft.to/lastmile_qr_scan", "ios": "https://dc.lft.to/lastmile_qr_scan"}, "fusion_lon": 0.0}, {"lat": 38.887323333333335, "is_disabled": 0, "type": "electric_scooter", "lon": -77.03220866666666, "bike_id": "58cb1e15cff7ff29a667dd92d42284e6", "fusion_lat": 0.0, "name": "58cb1e15cff7ff29a667dd92d42284e6", "is_reserved": 0, "rental_uris": {"android": "https://dc.lft.to/lastmile_qr_scan", "ios": "https://dc.lft.to/lastmile_qr_scan"}, "fusion_lon": 0.0}, {"lat": 38.9005695, "is_disabled": 0, "type": "electric_scooter", "lon": -77.002105, "bike_id": "4d76c1df0bd7f7d79b1da552b77c9ad2", "fusion_lat": 0.0, "name": "4d76c1df0bd7f7d79b1da552b77c9ad2", "is_reserved": 0, "rental_uris": {"android": "https://dc.lft.to/lastmile_qr_scan", "ios": "https://dc.lft.to/lastmile_qr_scan"}, "fusion_lon": 0.0}, {"lat": 38.91774133333333, "is_disabled": 0, "type": "electric_scooter", "lon": -77.03856083333334, "bike_id": "7356a922d81b2bb920fc0067f0428e53", "fusion_lat": 0.0, "name": "7356a922d81b2bb920fc0067f0428e53", "is_reserved": 0, "rental_uris": {"android": "https://dc.lft.to/lastmile_qr_scan", "ios": "https://dc.lft.to/lastmile_qr_scan"}, "fusion_lon": 0.0}, {"lat": 38.91214016666667, "is_disabled": 0, "type": "electric_scooter", "lon": -77.04510583333334, "bike_id": "df60fea555a44d24ce4cfb95c7ab34de", "fusion_lat": 0.0, "name": "df60fea555a44d24ce4cfb95c7ab34de", "is_reserved": 0, "rental_uris": {"android": "https://dc.lft.to/lastmile_qr_scan", "ios": "https://dc.lft.to/lastmile_qr_scan"}, "fusion_lon": 0.0}, {"lat": 38.922464833333336, "is_disabled": 0, "type": "electric_scooter", "lon": -77.04259033333334, "bike_id": "5f0ad68a9d7f9cac685aad136b6966ac", "fusion_lat": 0.0, "name": "5f0ad68a9d7f9cac685aad136b6966ac", "is_reserved": 0, "rental_uris": {"android": "https://dc.lft.to/lastmile_qr_scan", "ios": "https://dc.lft.to/lastmile_qr_scan"}, "fusion_lon": 0.0}, {"lat": 38.91103783333333, "is_disabled": 0, "type": "electric_scooter", "lon": -77.0321455, "bike_id": "ec853226065aeeea063867e08e3f405f", "fusion_lat": 0.0, "name": "ec853226065aeeea063867e08e3f405f", "is_reserved": 0, "rental_uris": {"android": "https://dc.lft.to/lastmile_qr_scan", "ios": "https://dc.lft.to/lastmile_qr_scan"}, "fusion_lon": 0.0}, {"lat": 38.9239175, "is_disabled": 0, "type": "electric_scooter", "lon": -77.0006705, "bike_id": "505e60c095758a07cbd58d26243ab283", "fusion_lat": 0.0, "name": "505e60c095758a07cbd58d26243ab283", "is_reserved": 0, "rental_uris": {"android": "https://dc.lft.to/lastmile_qr_scan", "ios": "https://dc.lft.to/lastmile_qr_scan"}, "fusion_lon": 0.0}, {"lat": 38.9180385, "is_disabled": 0, "type": "electric_scooter", "lon": -77.027006, "bike_id": "79d7b7eb0bf42b4d77e62d2c32e1fb20", "fusion_lat": 0.0, "name": "79d7b7eb0bf42b4d77e62d2c32e1fb20", "is_reserved": 0, "rental_uris": {"android": "https://dc.lft.to/lastmile_qr_scan", "ios": "https://dc.lft.to/lastmile_qr_scan"}, "fusion_lon": 0.0}, {"lat": 38.918048666666664, "is_disabled": 0, "type": "electric_scooter", "lon": -77.034362, "bike_id": "81a047bab9f669cc1b0395179249e2b4", "fusion_lat": 0.0, "name": "81a047bab9f669cc1b0395179249e2b4", "is_reserved": 0, "rental_uris": {"android": "https://dc.lft.to/lastmile_qr_scan", "ios": "https://dc.lft.to/lastmile_qr_scan"}, "fusion_lon": 0.0}, {"lat": 38.91874033333333, "is_disabled": 0, "type": "electric_scooter", "lon": -77.040297, "bike_id": "273cfc7d1ffaac6c142914218116ae83", "fusion_lat": 0.0, "name": "273cfc7d1ffaac6c142914218116ae83", "is_reserved": 0, "rental_uris": {"android": "https://dc.lft.to/lastmile_qr_scan", "ios": "https://dc.lft.to/lastmile_qr_scan"}, "fusion_lon": 0.0}, {"lat": 38.91425666666667, "is_disabled": 0, "type": "electric_scooter", "lon": -77.03180633333334, "bike_id": "1b838d76bd488d079351b1d64896c23a", "fusion_lat": 0.0, "name": "1b838d76bd488d079351b1d64896c23a", "is_reserved": 0, "rental_uris": {"android": "https://dc.lft.to/lastmile_qr_scan", "ios": "https://dc.lft.to/lastmile_qr_scan"}, "fusion_lon": 0.0}, {"lat": 38.907001666666666, "is_disabled": 0, "type": "electric_scooter", "lon": -77.06302466666666, "bike_id": "600052157d782b82ebf759a45a4305c8", "fusion_lat": 0.0, "name": "600052157d782b82ebf759a45a4305c8", "is_reserved": 0, "rental_uris": {"android": "https://dc.lft.to/lastmile_qr_scan", "ios": "https://dc.lft.to/lastmile_qr_scan"}, "fusion_lon": 0.0}, {"lat": 38.85802116666667, "is_disabled": 0, "type": "electric_scooter", "lon": -76.98718866666667, "bike_id": "07e9406b47d68892417b58604b4919f0", "fusion_lat": 0.0, "name": "07e9406b47d68892417b58604b4919f0", "is_reserved": 0, "rental_uris": {"android": "https://dc.lft.to/lastmile_qr_scan", "ios": "https://dc.lft.to/lastmile_qr_scan"}, "fusion_lon": 0.0}, {"lat": 38.879301166666664, "is_disabled": 0, "type": "electric_scooter", "lon": -77.004067, "bike_id": "9b9a36afb20f9fb0db689e7e7273f12f", "fusion_lat": 0.0, "name": "9b9a36afb20f9fb0db689e7e7273f12f", "is_reserved": 0, "rental_uris": {"android": "https://dc.lft.to/lastmile_qr_scan", "ios": "https://dc.lft.to/lastmile_qr_scan"}, "fusion_lon": 0.0}, {"lat": 38.88335033333333, "is_disabled": 0, "type": "electric_scooter", "lon": -77.03147466666667, "bike_id": "9764d576f7f21eea327fc7b119051f43", "fusion_lat": 0.0, "name": "9764d576f7f21eea327fc7b119051f43", "is_reserved": 0, "rental_uris": {"android": "https://dc.lft.to/lastmile_qr_scan", "ios": "https://dc.lft.to/lastmile_qr_scan"}, "fusion_lon": 0.0}, {"lat": 38.9072435, "is_disabled": 0, "type": "electric_scooter", "lon": -77.043357, "bike_id": "0ff48a5024ae80bbc50814e455e442cc", "fusion_lat": 0.0, "name": "0ff48a5024ae80bbc50814e455e442cc", "is_reserved": 0, "rental_uris": {"android": "https://dc.lft.to/lastmile_qr_scan", "ios": "https://dc.lft.to/lastmile_qr_scan"}, "fusion_lon": 0.0}, {"lat": 38.90278433333334, "is_disabled": 0, "type": "electric_scooter", "lon": -77.038593, "bike_id": "115b01b92251b64ea3f162369a6916ed", "fusion_lat": 0.0, "name": "115b01b92251b64ea3f162369a6916ed", "is_reserved": 0, "rental_uris": {"android": "https://dc.lft.to/lastmile_qr_scan", "ios": "https://dc.lft.to/lastmile_qr_scan"}, "fusion_lon": 0.0}, {"lat": 38.879155, "is_disabled": 0, "type": "electric_scooter", "lon": -77.03095733333333, "bike_id": "14501a79568bfc3ed489761a35f7aa26", "fusion_lat": 0.0, "name": "14501a79568bfc3ed489761a35f7aa26", "is_reserved": 0, "rental_uris": {"android": "https://dc.lft.to/lastmile_qr_scan", "ios": "https://dc.lft.to/lastmile_qr_scan"}, "fusion_lon": 0.0}, {"lat": 38.84103266666666, "is_disabled": 0, "type": "electric_bike", "lon": -77.0894225, "bike_id": "ec3237fb2aba35b93b70cd6238659b5c", "fusion_lat": 0.0, "name": "ec3237fb2aba35b93b70cd6238659b5c", "is_reserved": 0, "rental_uris": {"android": "https://dc.lft.to/lastmile_qr_scan", "ios": "https://dc.lft.to/lastmile_qr_scan"}, "fusion_lon": 0.0}, {"lat": 38.9261265, "is_disabled": 0, "type": "electric_scooter", "lon": -77.021641, "bike_id": "d24e28de94801e701e1c5f64c6360ce4", "fusion_lat": 0.0, "name": "d24e28de94801e701e1c5f64c6360ce4", "is_reserved": 0, "rental_uris": {"android": "https://dc.lft.to/lastmile_qr_scan", "ios": "https://dc.lft.to/lastmile_qr_scan"}, "fusion_lon": 0.0}, {"lat": 38.9144785, "is_disabled": 0, "type": "electric_scooter", "lon": -77.0415975, "bike_id": "44f8938c8011c67f5f6d091a9988f8ce", "fusion_lat": 0.0, "name": "44f8938c8011c67f5f6d091a9988f8ce", "is_reserved": 0, "rental_uris": {"android": "https://dc.lft.to/lastmile_qr_scan", "ios": "https://dc.lft.to/lastmile_qr_scan"}, "fusion_lon": 0.0}, {"lat": 38.97090516666667, "is_disabled": 0, "type": "electric_bike", "lon": -77.06964533333333, "bike_id": "c53622a03bbd2e84e7ccd119ee6ef99c", "fusion_lat": 0.0, "name": "c53622a03bbd2e84e7ccd119ee6ef99c", "is_reserved": 0, "rental_uris": {"android": "https://dc.lft.to/lastmile_qr_scan", "ios": "https://dc.lft.to/lastmile_qr_scan"}, "fusion_lon": 0.0}, {"lat": 38.9052325, "is_disabled": 0, "type": "electric_scooter", "lon": -77.0347675, "bike_id": "be8fe73bba925fd7501017f1413f59ed", "fusion_lat": 0.0, "name": "be8fe73bba925fd7501017f1413f59ed", "is_reserved": 0, "rental_uris": {"android": "https://dc.lft.to/lastmile_qr_scan", "ios": "https://dc.lft.to/lastmile_qr_scan"}, "fusion_lon": 0.0}, {"lat": 38.9110665, "is_disabled": 0, "type": "electric_scooter", "lon": -77.021331, "bike_id": "4d6376bf0d5997d6cb35f2685632d79c", "fusion_lat": 0.0, "name": "4d6376bf0d5997d6cb35f2685632d79c", "is_reserved": 0, "rental_uris": {"android": "https://dc.lft.to/lastmile_qr_scan", "ios": "https://dc.lft.to/lastmile_qr_scan"}, "fusion_lon": 0.0}, {"lat": 38.877311, "is_disabled": 0, "type": "electric_bike", "lon": -77.11853016666667, "bike_id": "265ac66229053a187e883a8c628f0212", "fusion_lat": 0.0, "name": "265ac66229053a187e883a8c628f0212", "is_reserved": 0, "rental_uris": {"android": "https://dc.lft.to/lastmile_qr_scan", "ios": "https://dc.lft.to/lastmile_qr_scan"}, "fusion_lon": 0.0}, {"lat": 38.94627583333333, "is_disabled": 0, "type": "electric_scooter", "lon": -77.018475, "bike_id": "aa9796f9f33ef332d463a78dbc28db99", "fusion_lat": 0.0, "name": "aa9796f9f33ef332d463a78dbc28db99", "is_reserved": 0, "rental_uris": {"android": "https://dc.lft.to/lastmile_qr_scan", "ios": "https://dc.lft.to/lastmile_qr_scan"}, "fusion_lon": 0.0}, {"lat": 38.8674515, "is_disabled": 0, "type": "electric_scooter", "lon": -76.9766605, "bike_id": "23e8a3d04ac476a6098b88ef141c10e5", "fusion_lat": 0.0, "name": "23e8a3d04ac476a6098b88ef141c10e5", "is_reserved": 0, "rental_uris": {"android": "https://dc.lft.to/lastmile_qr_scan", "ios": "https://dc.lft.to/lastmile_qr_scan"}, "fusion_lon": 0.0}, {"lat": 38.95183866666667, "is_disabled": 0, "type": "electric_bike", "lon": -76.935467, "bike_id": "d8679d01a029197ac930bc3a063e988d", "fusion_lat": 0.0, "name": "d8679d01a029197ac930bc3a063e988d", "is_reserved": 0, "rental_uris": {"android": "https://dc.lft.to/lastmile_qr_scan", "ios": "https://dc.lft.to/lastmile_qr_scan"}, "fusion_lon": 0.0}, {"lat": 38.91940266666667, "is_disabled": 0, "type": "electric_scooter", "lon": -77.03196533333333, "bike_id": "85abcaa5aeb8539abc49b0d68ce52ae0", "fusion_lat": 0.0, "name": "85abcaa5aeb8539abc49b0d68ce52ae0", "is_reserved": 0, "rental_uris": {"android": "https://dc.lft.to/lastmile_qr_scan", "ios": "https://dc.lft.to/lastmile_qr_scan"}, "fusion_lon": 0.0}, {"lat": 38.893010333333336, "is_disabled": 0, "type": "electric_scooter", "lon": -77.02017933333333, "bike_id": "118a2cc41c498b9fc16b064cc6b4bc7e", "fusion_lat": 0.0, "name": "118a2cc41c498b9fc16b064cc6b4bc7e", "is_reserved": 0, "rental_uris": {"android": "https://dc.lft.to/lastmile_qr_scan", "ios": "https://dc.lft.to/lastmile_qr_scan"}, "fusion_lon": 0.0}, {"lat": 38.95564916666667, "is_disabled": 0, "type": "electric_scooter", "lon": -77.02234433333334, "bike_id": "5a384c99a907b8d2676e52d68bd5ce73", "fusion_lat": 0.0, "name": "5a384c99a907b8d2676e52d68bd5ce73", "is_reserved": 0, "rental_uris": {"android": "https://dc.lft.to/lastmile_qr_scan", "ios": "https://dc.lft.to/lastmile_qr_scan"}, "fusion_lon": 0.0}, {"lat": 38.909155, "is_disabled": 0, "type": "electric_scooter", "lon": -77.03643416666667, "bike_id": "e0c4a6b916eaf67cfcbf014b87935570", "fusion_lat": 0.0, "name": "e0c4a6b916eaf67cfcbf014b87935570", "is_reserved": 0, "rental_uris": {"android": "https://dc.lft.to/lastmile_qr_scan", "ios": "https://dc.lft.to/lastmile_qr_scan"}, "fusion_lon": 0.0}, {"lat": 38.865593833333335, "is_disabled": 0, "type": "electric_scooter", "lon": -76.9894935, "bike_id": "60c6db5a5fbfea3d03abbb6d956ab574", "fusion_lat": 0.0, "name": "60c6db5a5fbfea3d03abbb6d956ab574", "is_reserved": 0, "rental_uris": {"android": "https://dc.lft.to/lastmile_qr_scan", "ios": "https://dc.lft.to/lastmile_qr_scan"}, "fusion_lon": 0.0}, {"lat": 38.918359, "is_disabled": 0, "type": "electric_scooter", "lon": -77.02604733333334, "bike_id": "9441cce77aa05a9efc8e748cf27555d0", "fusion_lat": 0.0, "name": "9441cce77aa05a9efc8e748cf27555d0", "is_reserved": 0, "rental_uris": {"android": "https://dc.lft.to/lastmile_qr_scan", "ios": "https://dc.lft.to/lastmile_qr_scan"}, "fusion_lon": 0.0}, {"lat": 38.90767233333333, "is_disabled": 0, "type": "electric_scooter", "lon": -76.98308266666666, "bike_id": "7413a3520c4de8931b0647ecf46a23ab", "fusion_lat": 0.0, "name": "7413a3520c4de8931b0647ecf46a23ab", "is_reserved": 0, "rental_uris": {"android": "https://dc.lft.to/lastmile_qr_scan", "ios": "https://dc.lft.to/lastmile_qr_scan"}, "fusion_lon": 0.0}, {"lat": 38.920887, "is_disabled": 0, "type": "electric_scooter", "lon": -77.04201466666666, "bike_id": "5fd4466258e9dbbe92c3b42214c6f304", "fusion_lat": 0.0, "name": "5fd4466258e9dbbe92c3b42214c6f304", "is_reserved": 0, "rental_uris": {"android": "https://dc.lft.to/lastmile_qr_scan", "ios": "https://dc.lft.to/lastmile_qr_scan"}, "fusion_lon": 0.0}, {"lat": 38.937416999999996, "is_disabled": 0, "type": "electric_scooter", "lon": -77.03477483333333, "bike_id": "99f5b03cb11614f755de828458a22c72", "fusion_lat": 0.0, "name": "99f5b03cb11614f755de828458a22c72", "is_reserved": 0, "rental_uris": {"android": "https://dc.lft.to/lastmile_qr_scan", "ios": "https://dc.lft.to/lastmile_qr_scan"}, "fusion_lon": 0.0}, {"lat": 38.884317833333334, "is_disabled": 0, "type": "electric_bike", "lon": -77.00088116666667, "bike_id": "c568afceef5ac86f4d13cf837251859f", "fusion_lat": 0.0, "name": "c568afceef5ac86f4d13cf837251859f", "is_reserved": 0, "rental_uris": {"android": "https://dc.lft.to/lastmile_qr_scan", "ios": "https://dc.lft.to/lastmile_qr_scan"}, "fusion_lon": 0.0}, {"lat": 38.922524833333334, "is_disabled": 0, "type": "electric_scooter", "lon": -77.02975716666667, "bike_id": "78672b4ac941f4c67e2840f483913905", "fusion_lat": 0.0, "name": "78672b4ac941f4c67e2840f483913905", "is_reserved": 0, "rental_uris": {"android": "https://dc.lft.to/lastmile_qr_scan", "ios": "https://dc.lft.to/lastmile_qr_scan"}, "fusion_lon": 0.0}, {"lat": 38.88575133333333, "is_disabled": 0, "type": "electric_scooter", "lon": -76.91912683333334, "bike_id": "85bb20566adc515a7b5d344e1406b09a", "fusion_lat": 0.0, "name": "85bb20566adc515a7b5d344e1406b09a", "is_reserved": 0, "rental_uris": {"android": "https://dc.lft.to/lastmile_qr_scan", "ios": "https://dc.lft.to/lastmile_qr_scan"}, "fusion_lon": 0.0}, {"lat": 38.9274235, "is_disabled": 0, "type": "electric_scooter", "lon": -77.02416833333334, "bike_id": "7e24b0c8cc45f03682533d0ad20dffad", "fusion_lat": 0.0, "name": "7e24b0c8cc45f03682533d0ad20dffad", "is_reserved": 0, "rental_uris": {"android": "https://dc.lft.to/lastmile_qr_scan", "ios": "https://dc.lft.to/lastmile_qr_scan"}, "fusion_lon": 0.0}, {"lat": 38.9260415, "is_disabled": 0, "type": "electric_scooter", "lon": -77.0568755, "bike_id": "5e5fe59b0b6efac607bc8623257aae9f", "fusion_lat": 0.0, "name": "5e5fe59b0b6efac607bc8623257aae9f", "is_reserved": 0, "rental_uris": {"android": "https://dc.lft.to/lastmile_qr_scan", "ios": "https://dc.lft.to/lastmile_qr_scan"}, "fusion_lon": 0.0}, {"lat": 38.954008333333334, "is_disabled": 0, "type": "electric_scooter", "lon": -77.0274645, "bike_id": "1d976bd32d32bc3841344dd6505e247c", "fusion_lat": 0.0, "name": "1d976bd32d32bc3841344dd6505e247c", "is_reserved": 0, "rental_uris": {"android": "https://dc.lft.to/lastmile_qr_scan", "ios": "https://dc.lft.to/lastmile_qr_scan"}, "fusion_lon": 0.0}, {"lat": 38.92180283333333, "is_disabled": 0, "type": "electric_scooter", "lon": -77.04703016666667, "bike_id": "7970789c33864bad59c5f53bae3bb60d", "fusion_lat": 0.0, "name": "7970789c33864bad59c5f53bae3bb60d", "is_reserved": 0, "rental_uris": {"android": "https://dc.lft.to/lastmile_qr_scan", "ios": "https://dc.lft.to/lastmile_qr_scan"}, "fusion_lon": 0.0}, {"lat": 38.91415333333333, "is_disabled": 0, "type": "electric_scooter", "lon": -77.01330633333333, "bike_id": "309cc28bc4fcb23b8daa85a694f2a5db", "fusion_lat": 0.0, "name": "309cc28bc4fcb23b8daa85a694f2a5db", "is_reserved": 0, "rental_uris": {"android": "https://dc.lft.to/lastmile_qr_scan", "ios": "https://dc.lft.to/lastmile_qr_scan"}, "fusion_lon": 0.0}, {"lat": 38.857176333333335, "is_disabled": 0, "type": "electric_bike", "lon": -76.97140916666666, "bike_id": "4fb2c732eab8293e62105084052a25a1", "fusion_lat": 0.0, "name": "4fb2c732eab8293e62105084052a25a1", "is_reserved": 0, "rental_uris": {"android": "https://dc.lft.to/lastmile_qr_scan", "ios": "https://dc.lft.to/lastmile_qr_scan"}, "fusion_lon": 0.0}, {"lat": 38.871448666666666, "is_disabled": 0, "type": "electric_bike", "lon": -76.937007, "bike_id": "c1f856ba9f027a1a137706801c473c21", "fusion_lat": 0.0, "name": "c1f856ba9f027a1a137706801c473c21", "is_reserved": 0, "rental_uris": {"android": "https://dc.lft.to/lastmile_qr_scan", "ios": "https://dc.lft.to/lastmile_qr_scan"}, "fusion_lon": 0.0}, {"lat": 38.88773833333333, "is_disabled": 0, "type": "electric_scooter", "lon": -77.03324, "bike_id": "234e35e3d0fd019f1b91e04b2862897a", "fusion_lat": 0.0, "name": "234e35e3d0fd019f1b91e04b2862897a", "is_reserved": 0, "rental_uris": {"android": "https://dc.lft.to/lastmile_qr_scan", "ios": "https://dc.lft.to/lastmile_qr_scan"}, "fusion_lon": 0.0}, {"lat": 38.9613645, "is_disabled": 0, "type": "electric_scooter", "lon": -77.02232516666666, "bike_id": "5703d824c02e298e5b0bc44933b15748", "fusion_lat": 0.0, "name": "5703d824c02e298e5b0bc44933b15748", "is_reserved": 0, "rental_uris": {"android": "https://dc.lft.to/lastmile_qr_scan", "ios": "https://dc.lft.to/lastmile_qr_scan"}, "fusion_lon": 0.0}, {"lat": 38.91620066666667, "is_disabled": 0, "type": "electric_scooter", "lon": -77.022962, "bike_id": "8baddea1b630f0e3823285b8ee56e93b", "fusion_lat": 0.0, "name": "8baddea1b630f0e3823285b8ee56e93b", "is_reserved": 0, "rental_uris": {"android": "https://dc.lft.to/lastmile_qr_scan", "ios": "https://dc.lft.to/lastmile_qr_scan"}, "fusion_lon": 0.0}, {"lat": 38.9227225, "is_disabled": 0, "type": "electric_scooter", "lon": -77.02241383333333, "bike_id": "33db83cad5b86476ab758e64de49be36", "fusion_lat": 0.0, "name": "33db83cad5b86476ab758e64de49be36", "is_reserved": 0, "rental_uris": {"android": "https://dc.lft.to/lastmile_qr_scan", "ios": "https://dc.lft.to/lastmile_qr_scan"}, "fusion_lon": 0.0}, {"lat": 38.929743333333334, "is_disabled": 0, "type": "electric_scooter", "lon": -77.013013, "bike_id": "9aee66531ffadeeabdb36fba0dd73d31", "fusion_lat": 0.0, "name": "9aee66531ffadeeabdb36fba0dd73d31", "is_reserved": 0, "rental_uris": {"android": "https://dc.lft.to/lastmile_qr_scan", "ios": "https://dc.lft.to/lastmile_qr_scan"}, "fusion_lon": 0.0}, {"lat": 38.906622166666665, "is_disabled": 0, "type": "electric_scooter", "lon": -77.03855716666666, "bike_id": "0bf4be8e412bc55aa04e7b8c17959a85", "fusion_lat": 0.0, "name": "0bf4be8e412bc55aa04e7b8c17959a85", "is_reserved": 0, "rental_uris": {"android": "https://dc.lft.to/lastmile_qr_scan", "ios": "https://dc.lft.to/lastmile_qr_scan"}, "fusion_lon": 0.0}, {"lat": 38.871681, "is_disabled": 0, "type": "electric_scooter", "lon": -77.01353083333333, "bike_id": "68cf0f9ac3ac3d995b2e1ad8aafed7f3", "fusion_lat": 0.0, "name": "68cf0f9ac3ac3d995b2e1ad8aafed7f3", "is_reserved": 0, "rental_uris": {"android": "https://dc.lft.to/lastmile_qr_scan", "ios": "https://dc.lft.to/lastmile_qr_scan"}, "fusion_lon": 0.0}, {"lat": 38.921262666666664, "is_disabled": 0, "type": "electric_scooter", "lon": -77.04224266666667, "bike_id": "eed8dbeb8c31781e55a55f2a6436073c", "fusion_lat": 0.0, "name": "eed8dbeb8c31781e55a55f2a6436073c", "is_reserved": 0, "rental_uris": {"android": "https://dc.lft.to/lastmile_qr_scan", "ios": "https://dc.lft.to/lastmile_qr_scan"}, "fusion_lon": 0.0}, {"lat": 38.94907666666667, "is_disabled": 0, "type": "electric_scooter", "lon": -77.06619833333333, "bike_id": "5990201c790e5c48839178087c541315", "fusion_lat": 0.0, "name": "5990201c790e5c48839178087c541315", "is_reserved": 0, "rental_uris": {"android": "https://dc.lft.to/lastmile_qr_scan", "ios": "https://dc.lft.to/lastmile_qr_scan"}, "fusion_lon": 0.0}, {"lat": 38.911189666666665, "is_disabled": 0, "type": "electric_scooter", "lon": -77.03810566666667, "bike_id": "034f85f3f5df77e177264e2c9d44b84a", "fusion_lat": 0.0, "name": "034f85f3f5df77e177264e2c9d44b84a", "is_reserved": 0, "rental_uris": {"android": "https://dc.lft.to/lastmile_qr_scan", "ios": "https://dc.lft.to/lastmile_qr_scan"}, "fusion_lon": 0.0}, {"lat": 38.92576316666667, "is_disabled": 0, "type": "electric_scooter", "lon": -77.04011283333334, "bike_id": "0670ab07ec01ec7b1ec394ec7f040e13", "fusion_lat": 0.0, "name": "0670ab07ec01ec7b1ec394ec7f040e13", "is_reserved": 0, "rental_uris": {"android": "https://dc.lft.to/lastmile_qr_scan", "ios": "https://dc.lft.to/lastmile_qr_scan"}, "fusion_lon": 0.0}, {"lat": 38.892239833333335, "is_disabled": 0, "type": "electric_scooter", "lon": -77.04861166666667, "bike_id": "c756f71d70ee5b05f289882752999ec9", "fusion_lat": 0.0, "name": "c756f71d70ee5b05f289882752999ec9", "is_reserved": 0, "rental_uris": {"android": "https://dc.lft.to/lastmile_qr_scan", "ios": "https://dc.lft.to/lastmile_qr_scan"}, "fusion_lon": 0.0}, {"lat": 38.904279833333334, "is_disabled": 0, "type": "electric_scooter", "lon": -77.002155, "bike_id": "0e50bde3f515bd5ec4aea4634d81ccdd", "fusion_lat": 0.0, "name": "0e50bde3f515bd5ec4aea4634d81ccdd", "is_reserved": 0, "rental_uris": {"android": "https://dc.lft.to/lastmile_qr_scan", "ios": "https://dc.lft.to/lastmile_qr_scan"}, "fusion_lon": 0.0}, {"lat": 38.85312316666667, "is_disabled": 0, "type": "electric_scooter", "lon": -76.98023433333333, "bike_id": "a1c22b856499e5903e8d4ef4435e2c18", "fusion_lat": 0.0, "name": "a1c22b856499e5903e8d4ef4435e2c18", "is_reserved": 0, "rental_uris": {"android": "https://dc.lft.to/lastmile_qr_scan", "ios": "https://dc.lft.to/lastmile_qr_scan"}, "fusion_lon": 0.0}, {"lat": 38.96204383333333, "is_disabled": 0, "type": "electric_bike", "lon": -77.03516966666666, "bike_id": "74595ac6e83356f0102c13b3a0b746d5", "fusion_lat": 0.0, "name": "74595ac6e83356f0102c13b3a0b746d5", "is_reserved": 0, "rental_uris": {"android": "https://dc.lft.to/lastmile_qr_scan", "ios": "https://dc.lft.to/lastmile_qr_scan"}, "fusion_lon": 0.0}, {"lat": 38.9250995, "is_disabled": 0, "type": "electric_scooter", "lon": -77.02361583333334, "bike_id": "5d4842d507bd191d8786355ab7faab76", "fusion_lat": 0.0, "name": "5d4842d507bd191d8786355ab7faab76", "is_reserved": 0, "rental_uris": {"android": "https://dc.lft.to/lastmile_qr_scan", "ios": "https://dc.lft.to/lastmile_qr_scan"}, "fusion_lon": 0.0}, {"lat": 38.9128795, "is_disabled": 0, "type": "electric_scooter", "lon": -77.0386115, "bike_id": "cf3f0475466ca65ec76593acd1551e31", "fusion_lat": 0.0, "name": "cf3f0475466ca65ec76593acd1551e31", "is_reserved": 0, "rental_uris": {"android": "https://dc.lft.to/lastmile_qr_scan", "ios": "https://dc.lft.to/lastmile_qr_scan"}, "fusion_lon": 0.0}, {"lat": 38.89612783333333, "is_disabled": 0, "type": "electric_scooter", "lon": -76.95668883333333, "bike_id": "6ff2a6d0c30f3544d410aec3851639de", "fusion_lat": 0.0, "name": "6ff2a6d0c30f3544d410aec3851639de", "is_reserved": 0, "rental_uris": {"android": "https://dc.lft.to/lastmile_qr_scan", "ios": "https://dc.lft.to/lastmile_qr_scan"}, "fusion_lon": 0.0}, {"lat": 38.81348466666667, "is_disabled": 0, "type": "electric_bike", "lon": -77.04924233333334, "bike_id": "f77e56945ffec91493f62cea57ea9444", "fusion_lat": 0.0, "name": "f77e56945ffec91493f62cea57ea9444", "is_reserved": 0, "rental_uris": {"android": "https://dc.lft.to/lastmile_qr_scan", "ios": "https://dc.lft.to/lastmile_qr_scan"}, "fusion_lon": 0.0}, {"lat": 38.89555416666666, "is_disabled": 0, "type": "electric_scooter", "lon": -77.0036885, "bike_id": "8f7c7e741145927ab9e88578722f70ea", "fusion_lat": 0.0, "name": "8f7c7e741145927ab9e88578722f70ea", "is_reserved": 0, "rental_uris": {"android": "https://dc.lft.to/lastmile_qr_scan", "ios": "https://dc.lft.to/lastmile_qr_scan"}, "fusion_lon": 0.0}, {"lat": 38.941138, "is_disabled": 0, "type": "electric_scooter", "lon": -77.00059416666667, "bike_id": "1037b48ad1f6f8394bcad1cb5dce45dd", "fusion_lat": 0.0, "name": "1037b48ad1f6f8394bcad1cb5dce45dd", "is_reserved": 0, "rental_uris": {"android": "https://dc.lft.to/lastmile_qr_scan", "ios": "https://dc.lft.to/lastmile_qr_scan"}, "fusion_lon": 0.0}, {"lat": 38.90006783333333, "is_disabled": 0, "type": "electric_scooter", "lon": -77.03326083333333, "bike_id": "cc65d8ce89c5b37aa435e0b920cb71fa", "fusion_lat": 0.0, "name": "cc65d8ce89c5b37aa435e0b920cb71fa", "is_reserved": 0, "rental_uris": {"android": "https://dc.lft.to/lastmile_qr_scan", "ios": "https://dc.lft.to/lastmile_qr_scan"}, "fusion_lon": 0.0}, {"lat": 38.9079545, "is_disabled": 0, "type": "electric_scooter", "lon": -77.01104033333333, "bike_id": "e7084155955c5db3b213f8d70fe26bc3", "fusion_lat": 0.0, "name": "e7084155955c5db3b213f8d70fe26bc3", "is_reserved": 0, "rental_uris": {"android": "https://dc.lft.to/lastmile_qr_scan", "ios": "https://dc.lft.to/lastmile_qr_scan"}, "fusion_lon": 0.0}, {"lat": 38.907181333333334, "is_disabled": 0, "type": "electric_scooter", "lon": -77.029798, "bike_id": "b580692592fd72bb22c908225ba72f8a", "fusion_lat": 0.0, "name": "b580692592fd72bb22c908225ba72f8a", "is_reserved": 0, "rental_uris": {"android": "https://dc.lft.to/lastmile_qr_scan", "ios": "https://dc.lft.to/lastmile_qr_scan"}, "fusion_lon": 0.0}, {"lat": 38.9133225, "is_disabled": 0, "type": "electric_scooter", "lon": -77.03186116666667, "bike_id": "0246ba264c6847a0e74b0866eac48495", "fusion_lat": 0.0, "name": "0246ba264c6847a0e74b0866eac48495", "is_reserved": 0, "rental_uris": {"android": "https://dc.lft.to/lastmile_qr_scan", "ios": "https://dc.lft.to/lastmile_qr_scan"}, "fusion_lon": 0.0}, {"lat": 38.91421616666667, "is_disabled": 0, "type": "electric_scooter", "lon": -77.03184666666667, "bike_id": "6ceb8f80e61d502f62548fcf83346539", "fusion_lat": 0.0, "name": "6ceb8f80e61d502f62548fcf83346539", "is_reserved": 0, "rental_uris": {"android": "https://dc.lft.to/lastmile_qr_scan", "ios": "https://dc.lft.to/lastmile_qr_scan"}, "fusion_lon": 0.0}, {"lat": 38.906432333333335, "is_disabled": 0, "type": "electric_scooter", "lon": -76.99025133333333, "bike_id": "6232f55cf0554f3b75595d11298027be", "fusion_lat": 0.0, "name": "6232f55cf0554f3b75595d11298027be", "is_reserved": 0, "rental_uris": {"android": "https://dc.lft.to/lastmile_qr_scan", "ios": "https://dc.lft.to/lastmile_qr_scan"}, "fusion_lon": 0.0}, {"lat": 38.915358166666664, "is_disabled": 0, "type": "electric_scooter", "lon": -77.03211866666666, "bike_id": "28c1fab358187652baacbd9fe93ee262", "fusion_lat": 0.0, "name": "28c1fab358187652baacbd9fe93ee262", "is_reserved": 0, "rental_uris": {"android": "https://dc.lft.to/lastmile_qr_scan", "ios": "https://dc.lft.to/lastmile_qr_scan"}, "fusion_lon": 0.0}, {"lat": 38.95608683333333, "is_disabled": 0, "type": "electric_scooter", "lon": -77.01022316666666, "bike_id": "dd6e025772377234f574fb7116c462aa", "fusion_lat": 0.0, "name": "dd6e025772377234f574fb7116c462aa", "is_reserved": 0, "rental_uris": {"android": "https://dc.lft.to/lastmile_qr_scan", "ios": "https://dc.lft.to/lastmile_qr_scan"}, "fusion_lon": 0.0}, {"lat": 38.844226166666665, "is_disabled": 0, "type": "electric_scooter", "lon": -76.99779866666667, "bike_id": "653ca6776e28c91e37eca564db32d568", "fusion_lat": 0.0, "name": "653ca6776e28c91e37eca564db32d568", "is_reserved": 0, "rental_uris": {"android": "https://dc.lft.to/lastmile_qr_scan", "ios": "https://dc.lft.to/lastmile_qr_scan"}, "fusion_lon": 0.0}, {"lat": 38.804964, "is_disabled": 0, "type": "electric_bike", "lon": -77.04132733333333, "bike_id": "22a31348f529c6dc9eee14ebe528e713", "fusion_lat": 0.0, "name": "22a31348f529c6dc9eee14ebe528e713", "is_reserved": 0, "rental_uris": {"android": "https://dc.lft.to/lastmile_qr_scan", "ios": "https://dc.lft.to/lastmile_qr_scan"}, "fusion_lon": 0.0}, {"lat": 38.90797666666667, "is_disabled": 0, "type": "electric_scooter", "lon": -77.00184866666666, "bike_id": "9375107658e8173514f09512c1e01697", "fusion_lat": 0.0, "name": "9375107658e8173514f09512c1e01697", "is_reserved": 0, "rental_uris": {"android": "https://dc.lft.to/lastmile_qr_scan", "ios": "https://dc.lft.to/lastmile_qr_scan"}, "fusion_lon": 0.0}, {"lat": 38.898226, "is_disabled": 0, "type": "electric_scooter", "lon": -77.02415416666666, "bike_id": "e382fcbc28f12d2b3515bd618ed8903a", "fusion_lat": 0.0, "name": "e382fcbc28f12d2b3515bd618ed8903a", "is_reserved": 0, "rental_uris": {"android": "https://dc.lft.to/lastmile_qr_scan", "ios": "https://dc.lft.to/lastmile_qr_scan"}, "fusion_lon": 0.0}, {"lat": 38.938157, "is_disabled": 0, "type": "electric_bike", "lon": -76.99043483333334, "bike_id": "d0add0f497b6459fe91784d00b9c59d8", "fusion_lat": 0.0, "name": "d0add0f497b6459fe91784d00b9c59d8", "is_reserved": 0, "rental_uris": {"android": "https://dc.lft.to/lastmile_qr_scan", "ios": "https://dc.lft.to/lastmile_qr_scan"}, "fusion_lon": 0.0}, {"lat": 38.8454745, "is_disabled": 0, "type": "electric_bike", "lon": -76.99064333333334, "bike_id": "48b888dab89b11f8af1ce26de4c50603", "fusion_lat": 0.0, "name": "48b888dab89b11f8af1ce26de4c50603", "is_reserved": 0, "rental_uris": {"android": "https://dc.lft.to/lastmile_qr_scan", "ios": "https://dc.lft.to/lastmile_qr_scan"}, "fusion_lon": 0.0}, {"lat": 38.9334085, "is_disabled": 0, "type": "electric_scooter", "lon": -76.9931185, "bike_id": "a22ceb757fb45efe3a869f18d748a094", "fusion_lat": 0.0, "name": "a22ceb757fb45efe3a869f18d748a094", "is_reserved": 0, "rental_uris": {"android": "https://dc.lft.to/lastmile_qr_scan", "ios": "https://dc.lft.to/lastmile_qr_scan"}, "fusion_lon": 0.0}, {"lat": 38.866172666666664, "is_disabled": 0, "type": "electric_scooter", "lon": -76.9864415, "bike_id": "dcc7cbad65f7edb80ec63d7c86251a1f", "fusion_lat": 0.0, "name": "dcc7cbad65f7edb80ec63d7c86251a1f", "is_reserved": 0, "rental_uris": {"android": "https://dc.lft.to/lastmile_qr_scan", "ios": "https://dc.lft.to/lastmile_qr_scan"}, "fusion_lon": 0.0}, {"lat": 38.918310166666664, "is_disabled": 0, "type": "electric_scooter", "lon": -77.02305033333333, "bike_id": "634fdb9368c00e2f6b6ac3a31e437def", "fusion_lat": 0.0, "name": "634fdb9368c00e2f6b6ac3a31e437def", "is_reserved": 0, "rental_uris": {"android": "https://dc.lft.to/lastmile_qr_scan", "ios": "https://dc.lft.to/lastmile_qr_scan"}, "fusion_lon": 0.0}, {"lat": 38.91291, "is_disabled": 0, "type": "electric_scooter", "lon": -77.03855566666667, "bike_id": "0682995b93690248fedcee18052c76ce", "fusion_lat": 0.0, "name": "0682995b93690248fedcee18052c76ce", "is_reserved": 0, "rental_uris": {"android": "https://dc.lft.to/lastmile_qr_scan", "ios": "https://dc.lft.to/lastmile_qr_scan"}, "fusion_lon": 0.0}, {"lat": 38.921194166666666, "is_disabled": 0, "type": "electric_scooter", "lon": -77.04125183333333, "bike_id": "062f092eba1dbdc6b3c0836c615c0b9f", "fusion_lat": 0.0, "name": "062f092eba1dbdc6b3c0836c615c0b9f", "is_reserved": 0, "rental_uris": {"android": "https://dc.lft.to/lastmile_qr_scan", "ios": "https://dc.lft.to/lastmile_qr_scan"}, "fusion_lon": 0.0}, {"lat": 38.89758916666667, "is_disabled": 0, "type": "electric_scooter", "lon": -77.05502183333333, "bike_id": "5623fbd37bbd599498013a7446d72f9d", "fusion_lat": 0.0, "name": "5623fbd37bbd599498013a7446d72f9d", "is_reserved": 0, "rental_uris": {"android": "https://dc.lft.to/lastmile_qr_scan", "ios": "https://dc.lft.to/lastmile_qr_scan"}, "fusion_lon": 0.0}, {"lat": 38.937486666666665, "is_disabled": 0, "type": "electric_scooter", "lon": -77.034529, "bike_id": "f7b216e37a60fbd6730e73b4e806a4b1", "fusion_lat": 0.0, "name": "f7b216e37a60fbd6730e73b4e806a4b1", "is_reserved": 0, "rental_uris": {"android": "https://dc.lft.to/lastmile_qr_scan", "ios": "https://dc.lft.to/lastmile_qr_scan"}, "fusion_lon": 0.0}, {"lat": 38.89520783333333, "is_disabled": 0, "type": "electric_scooter", "lon": -77.00212, "bike_id": "fb1a65894a5bc104ce092140abe7bbb9", "fusion_lat": 0.0, "name": "fb1a65894a5bc104ce092140abe7bbb9", "is_reserved": 0, "rental_uris": {"android": "https://dc.lft.to/lastmile_qr_scan", "ios": "https://dc.lft.to/lastmile_qr_scan"}, "fusion_lon": 0.0}, {"lat": 38.92496833333333, "is_disabled": 0, "type": "electric_scooter", "lon": -77.0215555, "bike_id": "381483b929ce8f41d0893270a06b0c34", "fusion_lat": 0.0, "name": "381483b929ce8f41d0893270a06b0c34", "is_reserved": 0, "rental_uris": {"android": "https://dc.lft.to/lastmile_qr_scan", "ios": "https://dc.lft.to/lastmile_qr_scan"}, "fusion_lon": 0.0}, {"lat": 38.907302333333334, "is_disabled": 0, "type": "electric_scooter", "lon": -77.03717683333333, "bike_id": "d7b0ccb91a909bffb90581a69ca6a7dc", "fusion_lat": 0.0, "name": "d7b0ccb91a909bffb90581a69ca6a7dc", "is_reserved": 0, "rental_uris": {"android": "https://dc.lft.to/lastmile_qr_scan", "ios": "https://dc.lft.to/lastmile_qr_scan"}, "fusion_lon": 0.0}, {"lat": 38.942862166666664, "is_disabled": 0, "type": "electric_scooter", "lon": -77.02170966666667, "bike_id": "235489472e07fc0b0718a726adf47e9a", "fusion_lat": 0.0, "name": "235489472e07fc0b0718a726adf47e9a", "is_reserved": 0, "rental_uris": {"android": "https://dc.lft.to/lastmile_qr_scan", "ios": "https://dc.lft.to/lastmile_qr_scan"}, "fusion_lon": 0.0}, {"lat": 38.86626033333334, "is_disabled": 0, "type": "electric_scooter", "lon": -76.98698616666667, "bike_id": "b18d1b8162e24184e97eb1dc66b0dfbd", "fusion_lat": 0.0, "name": "b18d1b8162e24184e97eb1dc66b0dfbd", "is_reserved": 0, "rental_uris": {"android": "https://dc.lft.to/lastmile_qr_scan", "ios": "https://dc.lft.to/lastmile_qr_scan"}, "fusion_lon": 0.0}, {"lat": 38.87579483333333, "is_disabled": 0, "type": "electric_bike", "lon": -77.10568533333333, "bike_id": "e9765f855feaeec4bbab5923c110ac77", "fusion_lat": 0.0, "name": "e9765f855feaeec4bbab5923c110ac77", "is_reserved": 0, "rental_uris": {"android": "https://dc.lft.to/lastmile_qr_scan", "ios": "https://dc.lft.to/lastmile_qr_scan"}, "fusion_lon": 0.0}, {"lat": 38.93230166666667, "is_disabled": 0, "type": "electric_scooter", "lon": -76.99603566666667, "bike_id": "a916c55992963625e7e479e0ec9981c2", "fusion_lat": 0.0, "name": "a916c55992963625e7e479e0ec9981c2", "is_reserved": 0, "rental_uris": {"android": "https://dc.lft.to/lastmile_qr_scan", "ios": "https://dc.lft.to/lastmile_qr_scan"}, "fusion_lon": 0.0}, {"lat": 38.903792833333334, "is_disabled": 0, "type": "electric_scooter", "lon": -77.02817083333333, "bike_id": "fb31d9a2db4069d576bd2f2de9493c7c", "fusion_lat": 0.0, "name": "fb31d9a2db4069d576bd2f2de9493c7c", "is_reserved": 0, "rental_uris": {"android": "https://dc.lft.to/lastmile_qr_scan", "ios": "https://dc.lft.to/lastmile_qr_scan"}, "fusion_lon": 0.0}, {"lat": 38.893585333333334, "is_disabled": 0, "type": "electric_scooter", "lon": -76.94841716666667, "bike_id": "a0c3db94336874c03a56e0015f6156c1", "fusion_lat": 0.0, "name": "a0c3db94336874c03a56e0015f6156c1", "is_reserved": 0, "rental_uris": {"android": "https://dc.lft.to/lastmile_qr_scan", "ios": "https://dc.lft.to/lastmile_qr_scan"}, "fusion_lon": 0.0}, {"lat": 38.916390666666665, "is_disabled": 0, "type": "electric_scooter", "lon": -77.02083466666667, "bike_id": "f819c0207d5936c67bbffd225862d5fd", "fusion_lat": 0.0, "name": "f819c0207d5936c67bbffd225862d5fd", "is_reserved": 0, "rental_uris": {"android": "https://dc.lft.to/lastmile_qr_scan", "ios": "https://dc.lft.to/lastmile_qr_scan"}, "fusion_lon": 0.0}, {"lat": 38.84269466666667, "is_disabled": 0, "type": "electric_bike", "lon": -76.98838383333333, "bike_id": "46daa2d2c6886ce07ecc91f6c26119b9", "fusion_lat": 0.0, "name": "46daa2d2c6886ce07ecc91f6c26119b9", "is_reserved": 0, "rental_uris": {"android": "https://dc.lft.to/lastmile_qr_scan", "ios": "https://dc.lft.to/lastmile_qr_scan"}, "fusion_lon": 0.0}, {"lat": 38.88487033333333, "is_disabled": 0, "type": "electric_scooter", "lon": -77.0071015, "bike_id": "fe1db67eec094023189b00de4e189f51", "fusion_lat": 0.0, "name": "fe1db67eec094023189b00de4e189f51", "is_reserved": 0, "rental_uris": {"android": "https://dc.lft.to/lastmile_qr_scan", "ios": "https://dc.lft.to/lastmile_qr_scan"}, "fusion_lon": 0.0}, {"lat": 38.925736666666666, "is_disabled": 0, "type": "electric_scooter", "lon": -77.05749266666666, "bike_id": "6b6de2a3cddf510e1eb109703b7db43a", "fusion_lat": 0.0, "name": "6b6de2a3cddf510e1eb109703b7db43a", "is_reserved": 0, "rental_uris": {"android": "https://dc.lft.to/lastmile_qr_scan", "ios": "https://dc.lft.to/lastmile_qr_scan"}, "fusion_lon": 0.0}, {"lat": 38.89802383333333, "is_disabled": 0, "type": "electric_scooter", "lon": -77.000583, "bike_id": "7c2bf7070a0372528ff66fb141549027", "fusion_lat": 0.0, "name": "7c2bf7070a0372528ff66fb141549027", "is_reserved": 0, "rental_uris": {"android": "https://dc.lft.to/lastmile_qr_scan", "ios": "https://dc.lft.to/lastmile_qr_scan"}, "fusion_lon": 0.0}, {"lat": 38.926723, "is_disabled": 0, "type": "electric_scooter", "lon": -76.995398, "bike_id": "d83c50a09abd86bbd6c3dfd604b9c1ac", "fusion_lat": 0.0, "name": "d83c50a09abd86bbd6c3dfd604b9c1ac", "is_reserved": 0, "rental_uris": {"android": "https://dc.lft.to/lastmile_qr_scan", "ios": "https://dc.lft.to/lastmile_qr_scan"}, "fusion_lon": 0.0}, {"lat": 38.897676, "is_disabled": 0, "type": "electric_bike", "lon": -76.904419, "bike_id": "1491e6b80090477280683991f6be62b3", "fusion_lat": 0.0, "name": "1491e6b80090477280683991f6be62b3", "is_reserved": 0, "rental_uris": {"android": "https://dc.lft.to/lastmile_qr_scan", "ios": "https://dc.lft.to/lastmile_qr_scan"}, "fusion_lon": 0.0}, {"lat": 38.8809035, "is_disabled": 0, "type": "electric_scooter", "lon": -76.9985295, "bike_id": "cb7caf98e20a32829f9f93b042190f74", "fusion_lat": 0.0, "name": "cb7caf98e20a32829f9f93b042190f74", "is_reserved": 0, "rental_uris": {"android": "https://dc.lft.to/lastmile_qr_scan", "ios": "https://dc.lft.to/lastmile_qr_scan"}, "fusion_lon": 0.0}, {"lat": 38.90091916666667, "is_disabled": 0, "type": "electric_scooter", "lon": -77.04949233333333, "bike_id": "0e61c52e38a10166754f3ced5bb16cb9", "fusion_lat": 0.0, "name": "0e61c52e38a10166754f3ced5bb16cb9", "is_reserved": 0, "rental_uris": {"android": "https://dc.lft.to/lastmile_qr_scan", "ios": "https://dc.lft.to/lastmile_qr_scan"}, "fusion_lon": 0.0}, {"lat": 38.95626033333333, "is_disabled": 0, "type": "electric_bike", "lon": -76.93885483333334, "bike_id": "9323bd1bd13f7a9c76d34db1c9f60d30", "fusion_lat": 0.0, "name": "9323bd1bd13f7a9c76d34db1c9f60d30", "is_reserved": 0, "rental_uris": {"android": "https://dc.lft.to/lastmile_qr_scan", "ios": "https://dc.lft.to/lastmile_qr_scan"}, "fusion_lon": 0.0}, {"lat": 38.842748666666665, "is_disabled": 0, "type": "electric_bike", "lon": -76.98844883333334, "bike_id": "d031ec4ef73bae04aaf74b6e1b812af1", "fusion_lat": 0.0, "name": "d031ec4ef73bae04aaf74b6e1b812af1", "is_reserved": 0, "rental_uris": {"android": "https://dc.lft.to/lastmile_qr_scan", "ios": "https://dc.lft.to/lastmile_qr_scan"}, "fusion_lon": 0.0}, {"lat": 38.9144205, "is_disabled": 0, "type": "electric_scooter", "lon": -77.0121365, "bike_id": "6f1879d42645981e6859b8738c99f5bb", "fusion_lat": 0.0, "name": "6f1879d42645981e6859b8738c99f5bb", "is_reserved": 0, "rental_uris": {"android": "https://dc.lft.to/lastmile_qr_scan", "ios": "https://dc.lft.to/lastmile_qr_scan"}, "fusion_lon": 0.0}, {"lat": 38.907293333333335, "is_disabled": 0, "type": "electric_scooter", "lon": -77.03716516666667, "bike_id": "3f412e35ca63aeeffb2fa4943fc74fe9", "fusion_lat": 0.0, "name": "3f412e35ca63aeeffb2fa4943fc74fe9", "is_reserved": 0, "rental_uris": {"android": "https://dc.lft.to/lastmile_qr_scan", "ios": "https://dc.lft.to/lastmile_qr_scan"}, "fusion_lon": 0.0}, {"lat": 38.91972833333333, "is_disabled": 0, "type": "electric_scooter", "lon": -77.01212066666666, "bike_id": "7bfefee131272bba36a772b4063cedef", "fusion_lat": 0.0, "name": "7bfefee131272bba36a772b4063cedef", "is_reserved": 0, "rental_uris": {"android": "https://dc.lft.to/lastmile_qr_scan", "ios": "https://dc.lft.to/lastmile_qr_scan"}, "fusion_lon": 0.0}, {"lat": 38.914026166666666, "is_disabled": 0, "type": "electric_scooter", "lon": -77.045038, "bike_id": "4b8224b89a0155207da6426a941c27b1", "fusion_lat": 0.0, "name": "4b8224b89a0155207da6426a941c27b1", "is_reserved": 0, "rental_uris": {"android": "https://dc.lft.to/lastmile_qr_scan", "ios": "https://dc.lft.to/lastmile_qr_scan"}, "fusion_lon": 0.0}, {"lat": 38.89085733333334, "is_disabled": 0, "type": "electric_scooter", "lon": -76.95268233333333, "bike_id": "8f424e0753d8bcdbad8ce376fc99f860", "fusion_lat": 0.0, "name": "8f424e0753d8bcdbad8ce376fc99f860", "is_reserved": 0, "rental_uris": {"android": "https://dc.lft.to/lastmile_qr_scan", "ios": "https://dc.lft.to/lastmile_qr_scan"}, "fusion_lon": 0.0}, {"lat": 38.95215133333333, "is_disabled": 0, "type": "electric_scooter", "lon": -77.08600216666666, "bike_id": "555dd7a626f70f576bf3d6a999033d1e", "fusion_lat": 0.0, "name": "555dd7a626f70f576bf3d6a999033d1e", "is_reserved": 0, "rental_uris": {"android": "https://dc.lft.to/lastmile_qr_scan", "ios": "https://dc.lft.to/lastmile_qr_scan"}, "fusion_lon": 0.0}, {"lat": 38.915392833333335, "is_disabled": 0, "type": "electric_scooter", "lon": -77.0321365, "bike_id": "0b46730276fbc0d64828e75297103068", "fusion_lat": 0.0, "name": "0b46730276fbc0d64828e75297103068", "is_reserved": 0, "rental_uris": {"android": "https://dc.lft.to/lastmile_qr_scan", "ios": "https://dc.lft.to/lastmile_qr_scan"}, "fusion_lon": 0.0}, {"lat": 38.99993833333333, "is_disabled": 0, "type": "electric_bike", "lon": -76.924961, "bike_id": "eb48e52da88cee6621b131eb5eb0a342", "fusion_lat": 0.0, "name": "eb48e52da88cee6621b131eb5eb0a342", "is_reserved": 0, "rental_uris": {"android": "https://dc.lft.to/lastmile_qr_scan", "ios": "https://dc.lft.to/lastmile_qr_scan"}, "fusion_lon": 0.0}, {"lat": 38.897308, "is_disabled": 0, "type": "electric_scooter", "lon": -77.05475283333334, "bike_id": "40e3480e0d2a24c53b0b10d12615cb86", "fusion_lat": 0.0, "name": "40e3480e0d2a24c53b0b10d12615cb86", "is_reserved": 0, "rental_uris": {"android": "https://dc.lft.to/lastmile_qr_scan", "ios": "https://dc.lft.to/lastmile_qr_scan"}, "fusion_lon": 0.0}, {"lat": 38.91640116666667, "is_disabled": 0, "type": "electric_scooter", "lon": -77.02240433333333, "bike_id": "0a7469296126554acb387f2717e56042", "fusion_lat": 0.0, "name": "0a7469296126554acb387f2717e56042", "is_reserved": 0, "rental_uris": {"android": "https://dc.lft.to/lastmile_qr_scan", "ios": "https://dc.lft.to/lastmile_qr_scan"}, "fusion_lon": 0.0}, {"lat": 38.913067, "is_disabled": 0, "type": "electric_scooter", "lon": -77.0319275, "bike_id": "d8dad327e0ca911131145a61eb28d22e", "fusion_lat": 0.0, "name": "d8dad327e0ca911131145a61eb28d22e", "is_reserved": 0, "rental_uris": {"android": "https://dc.lft.to/lastmile_qr_scan", "ios": "https://dc.lft.to/lastmile_qr_scan"}, "fusion_lon": 0.0}, {"lat": 38.90394116666667, "is_disabled": 0, "type": "electric_scooter", "lon": -76.9900525, "bike_id": "dc91b014923414f6e41c75c0320bdce2", "fusion_lat": 0.0, "name": "dc91b014923414f6e41c75c0320bdce2", "is_reserved": 0, "rental_uris": {"android": "https://dc.lft.to/lastmile_qr_scan", "ios": "https://dc.lft.to/lastmile_qr_scan"}, "fusion_lon": 0.0}, {"lat": 38.88602566666667, "is_disabled": 0, "type": "electric_scooter", "lon": -77.01897016666666, "bike_id": "ee1645958e6620a6575fae0834f54cc0", "fusion_lat": 0.0, "name": "ee1645958e6620a6575fae0834f54cc0", "is_reserved": 0, "rental_uris": {"android": "https://dc.lft.to/lastmile_qr_scan", "ios": "https://dc.lft.to/lastmile_qr_scan"}, "fusion_lon": 0.0}, {"lat": 38.885468833333334, "is_disabled": 0, "type": "electric_bike", "lon": -77.1178685, "bike_id": "dbad28af4c0b669be8e18d4fec6f1771", "fusion_lat": 0.0, "name": "dbad28af4c0b669be8e18d4fec6f1771", "is_reserved": 0, "rental_uris": {"android": "https://dc.lft.to/lastmile_qr_scan", "ios": "https://dc.lft.to/lastmile_qr_scan"}, "fusion_lon": 0.0}, {"lat": 38.9571215, "is_disabled": 0, "type": "electric_scooter", "lon": -77.02401333333333, "bike_id": "2c98cc8d9a038fe1fbfe6378a29cd2cb", "fusion_lat": 0.0, "name": "2c98cc8d9a038fe1fbfe6378a29cd2cb", "is_reserved": 0, "rental_uris": {"android": "https://dc.lft.to/lastmile_qr_scan", "ios": "https://dc.lft.to/lastmile_qr_scan"}, "fusion_lon": 0.0}, {"lat": 38.948249, "is_disabled": 0, "type": "electric_scooter", "lon": -76.99907266666666, "bike_id": "3de19227e9786a06a970cfadd5e6ecef", "fusion_lat": 0.0, "name": "3de19227e9786a06a970cfadd5e6ecef", "is_reserved": 0, "rental_uris": {"android": "https://dc.lft.to/lastmile_qr_scan", "ios": "https://dc.lft.to/lastmile_qr_scan"}, "fusion_lon": 0.0}, {"lat": 38.9064535, "is_disabled": 0, "type": "electric_scooter", "lon": -77.00829116666667, "bike_id": "3a42a0a30bfd2162102f4f9c1fe66b3a", "fusion_lat": 0.0, "name": "3a42a0a30bfd2162102f4f9c1fe66b3a", "is_reserved": 0, "rental_uris": {"android": "https://dc.lft.to/lastmile_qr_scan", "ios": "https://dc.lft.to/lastmile_qr_scan"}, "fusion_lon": 0.0}, {"lat": 38.9040815, "is_disabled": 0, "type": "electric_scooter", "lon": -77.05060683333333, "bike_id": "6bbf2e231407d59bb8ab96c8aa9df4cf", "fusion_lat": 0.0, "name": "6bbf2e231407d59bb8ab96c8aa9df4cf", "is_reserved": 0, "rental_uris": {"android": "https://dc.lft.to/lastmile_qr_scan", "ios": "https://dc.lft.to/lastmile_qr_scan"}, "fusion_lon": 0.0}, {"lat": 38.886791833333334, "is_disabled": 0, "type": "electric_bike", "lon": -77.16246116666667, "bike_id": "5a969d5f2e1091ddba64bc25c6e5db5c", "fusion_lat": 0.0, "name": "5a969d5f2e1091ddba64bc25c6e5db5c", "is_reserved": 0, "rental_uris": {"android": "https://dc.lft.to/lastmile_qr_scan", "ios": "https://dc.lft.to/lastmile_qr_scan"}, "fusion_lon": 0.0}, {"lat": 38.908227, "is_disabled": 0, "type": "electric_scooter", "lon": -77.02013716666667, "bike_id": "5ca7022a5b4ac44591dc098d7aad99f8", "fusion_lat": 0.0, "name": "5ca7022a5b4ac44591dc098d7aad99f8", "is_reserved": 0, "rental_uris": {"android": "https://dc.lft.to/lastmile_qr_scan", "ios": "https://dc.lft.to/lastmile_qr_scan"}, "fusion_lon": 0.0}, {"lat": 38.9052415, "is_disabled": 0, "type": "electric_bike", "lon": -77.06602533333333, "bike_id": "873ce4021a197a51bdebb3b866d695d0", "fusion_lat": 0.0, "name": "873ce4021a197a51bdebb3b866d695d0", "is_reserved": 0, "rental_uris": {"android": "https://dc.lft.to/lastmile_qr_scan", "ios": "https://dc.lft.to/lastmile_qr_scan"}, "fusion_lon": 0.0}, {"lat": 38.93376516666667, "is_disabled": 0, "type": "electric_scooter", "lon": -77.03559216666666, "bike_id": "7dba0488c717089a8a344102ad809d5c", "fusion_lat": 0.0, "name": "7dba0488c717089a8a344102ad809d5c", "is_reserved": 0, "rental_uris": {"android": "https://dc.lft.to/lastmile_qr_scan", "ios": "https://dc.lft.to/lastmile_qr_scan"}, "fusion_lon": 0.0}, {"lat": 38.928944, "is_disabled": 0, "type": "electric_scooter", "lon": -77.01662283333333, "bike_id": "96437314c05a7fc5a252eb94648419c8", "fusion_lat": 0.0, "name": "96437314c05a7fc5a252eb94648419c8", "is_reserved": 0, "rental_uris": {"android": "https://dc.lft.to/lastmile_qr_scan", "ios": "https://dc.lft.to/lastmile_qr_scan"}, "fusion_lon": 0.0}, {"lat": 38.909618, "is_disabled": 0, "type": "electric_scooter", "lon": -77.034254, "bike_id": "013f32dce2485ec21282735b7a92ea28", "fusion_lat": 0.0, "name": "013f32dce2485ec21282735b7a92ea28", "is_reserved": 0, "rental_uris": {"android": "https://dc.lft.to/lastmile_qr_scan", "ios": "https://dc.lft.to/lastmile_qr_scan"}, "fusion_lon": 0.0}, {"lat": 38.85731, "is_disabled": 0, "type": "electric_scooter", "lon": -76.99434533333333, "bike_id": "22748c5e16c43cac82466c576c28112c", "fusion_lat": 0.0, "name": "22748c5e16c43cac82466c576c28112c", "is_reserved": 0, "rental_uris": {"android": "https://dc.lft.to/lastmile_qr_scan", "ios": "https://dc.lft.to/lastmile_qr_scan"}, "fusion_lon": 0.0}, {"lat": 38.92065066666667, "is_disabled": 0, "type": "electric_scooter", "lon": -77.04230533333333, "bike_id": "ce10b8cebb817dc38be83649a5d83e43", "fusion_lat": 0.0, "name": "ce10b8cebb817dc38be83649a5d83e43", "is_reserved": 0, "rental_uris": {"android": "https://dc.lft.to/lastmile_qr_scan", "ios": "https://dc.lft.to/lastmile_qr_scan"}, "fusion_lon": 0.0}, {"lat": 38.936654833333336, "is_disabled": 0, "type": "electric_scooter", "lon": -77.03637983333333, "bike_id": "f610cb4fbae21857be1ea26625fbd99a", "fusion_lat": 0.0, "name": "f610cb4fbae21857be1ea26625fbd99a", "is_reserved": 0, "rental_uris": {"android": "https://dc.lft.to/lastmile_qr_scan", "ios": "https://dc.lft.to/lastmile_qr_scan"}, "fusion_lon": 0.0}, {"lat": 38.901856333333335, "is_disabled": 0, "type": "electric_scooter", "lon": -77.021823, "bike_id": "ee8bb8635cc7de55e2e5bd7c9b2886ba", "fusion_lat": 0.0, "name": "ee8bb8635cc7de55e2e5bd7c9b2886ba", "is_reserved": 0, "rental_uris": {"android": "https://dc.lft.to/lastmile_qr_scan", "ios": "https://dc.lft.to/lastmile_qr_scan"}, "fusion_lon": 0.0}, {"lat": 38.9126595, "is_disabled": 0, "type": "electric_scooter", "lon": -77.01767633333333, "bike_id": "0ccf8be338eff2d7993ecbb07cc7044b", "fusion_lat": 0.0, "name": "0ccf8be338eff2d7993ecbb07cc7044b", "is_reserved": 0, "rental_uris": {"android": "https://dc.lft.to/lastmile_qr_scan", "ios": "https://dc.lft.to/lastmile_qr_scan"}, "fusion_lon": 0.0}, {"lat": 38.9191335, "is_disabled": 0, "type": "electric_bike", "lon": -77.1017025, "bike_id": "fbd8953baf93cacabdd215a892108078", "fusion_lat": 0.0, "name": "fbd8953baf93cacabdd215a892108078", "is_reserved": 0, "rental_uris": {"android": "https://dc.lft.to/lastmile_qr_scan", "ios": "https://dc.lft.to/lastmile_qr_scan"}, "fusion_lon": 0.0}, {"lat": 38.94439416666667, "is_disabled": 0, "type": "electric_scooter", "lon": -77.0233525, "bike_id": "21415b9274f37766598a3c6499ff4f00", "fusion_lat": 0.0, "name": "21415b9274f37766598a3c6499ff4f00", "is_reserved": 0, "rental_uris": {"android": "https://dc.lft.to/lastmile_qr_scan", "ios": "https://dc.lft.to/lastmile_qr_scan"}, "fusion_lon": 0.0}, {"lat": 38.90686816666667, "is_disabled": 0, "type": "electric_scooter", "lon": -77.058284, "bike_id": "8cd0cd08dd477ad5a545a4e30a7166b2", "fusion_lat": 0.0, "name": "8cd0cd08dd477ad5a545a4e30a7166b2", "is_reserved": 0, "rental_uris": {"android": "https://dc.lft.to/lastmile_qr_scan", "ios": "https://dc.lft.to/lastmile_qr_scan"}, "fusion_lon": 0.0}, {"lat": 38.969280166666664, "is_disabled": 0, "type": "electric_bike", "lon": -77.02616183333333, "bike_id": "d479de8d5f1e99b31c6839dd1c87eeb5", "fusion_lat": 0.0, "name": "d479de8d5f1e99b31c6839dd1c87eeb5", "is_reserved": 0, "rental_uris": {"android": "https://dc.lft.to/lastmile_qr_scan", "ios": "https://dc.lft.to/lastmile_qr_scan"}, "fusion_lon": 0.0}, {"lat": 38.903146666666665, "is_disabled": 0, "type": "electric_scooter", "lon": -76.99002266666666, "bike_id": "0bfc0f3b37b557cd702c2391993fc602", "fusion_lat": 0.0, "name": "0bfc0f3b37b557cd702c2391993fc602", "is_reserved": 0, "rental_uris": {"android": "https://dc.lft.to/lastmile_qr_scan", "ios": "https://dc.lft.to/lastmile_qr_scan"}, "fusion_lon": 0.0}, {"lat": 38.90863016666667, "is_disabled": 0, "type": "electric_bike", "lon": -76.93160816666666, "bike_id": "86ecd06117f95e3608c004414e4ae0d8", "fusion_lat": 0.0, "name": "86ecd06117f95e3608c004414e4ae0d8", "is_reserved": 0, "rental_uris": {"android": "https://dc.lft.to/lastmile_qr_scan", "ios": "https://dc.lft.to/lastmile_qr_scan"}, "fusion_lon": 0.0}, {"lat": 38.90452466666667, "is_disabled": 0, "type": "electric_scooter", "lon": -76.99460883333333, "bike_id": "14263099a529e60bde4ebccd48300009", "fusion_lat": 0.0, "name": "14263099a529e60bde4ebccd48300009", "is_reserved": 0, "rental_uris": {"android": "https://dc.lft.to/lastmile_qr_scan", "ios": "https://dc.lft.to/lastmile_qr_scan"}, "fusion_lon": 0.0}, {"lat": 38.90607766666667, "is_disabled": 0, "type": "electric_scooter", "lon": -77.06355616666667, "bike_id": "869270e086328af85b9d320023121bca", "fusion_lat": 0.0, "name": "869270e086328af85b9d320023121bca", "is_reserved": 0, "rental_uris": {"android": "https://dc.lft.to/lastmile_qr_scan", "ios": "https://dc.lft.to/lastmile_qr_scan"}, "fusion_lon": 0.0}, {"lat": 38.905739833333335, "is_disabled": 0, "type": "electric_scooter", "lon": -77.034256, "bike_id": "a0eaddbea53d52bd9fd2384b20377878", "fusion_lat": 0.0, "name": "a0eaddbea53d52bd9fd2384b20377878", "is_reserved": 0, "rental_uris": {"android": "https://dc.lft.to/lastmile_qr_scan", "ios": "https://dc.lft.to/lastmile_qr_scan"}, "fusion_lon": 0.0}, {"lat": 38.93359266666667, "is_disabled": 0, "type": "electric_scooter", "lon": -77.057516, "bike_id": "51b2ca0032640fbcdef3912bb334efbf", "fusion_lat": 0.0, "name": "51b2ca0032640fbcdef3912bb334efbf", "is_reserved": 0, "rental_uris": {"android": "https://dc.lft.to/lastmile_qr_scan", "ios": "https://dc.lft.to/lastmile_qr_scan"}, "fusion_lon": 0.0}, {"lat": 38.930943, "is_disabled": 0, "type": "electric_scooter", "lon": -77.02553416666667, "bike_id": "167f7ecf122aeaa024bc6574b3c99014", "fusion_lat": 0.0, "name": "167f7ecf122aeaa024bc6574b3c99014", "is_reserved": 0, "rental_uris": {"android": "https://dc.lft.to/lastmile_qr_scan", "ios": "https://dc.lft.to/lastmile_qr_scan"}, "fusion_lon": 0.0}, {"lat": 38.9208105, "is_disabled": 0, "type": "electric_bike", "lon": -76.9918685, "bike_id": "8156bcdde5c5c5df7a6b33439409e5d7", "fusion_lat": 0.0, "name": "8156bcdde5c5c5df7a6b33439409e5d7", "is_reserved": 0, "rental_uris": {"android": "https://dc.lft.to/lastmile_qr_scan", "ios": "https://dc.lft.to/lastmile_qr_scan"}, "fusion_lon": 0.0}, {"lat": 38.892518333333335, "is_disabled": 0, "type": "electric_scooter", "lon": -77.04894733333333, "bike_id": "3c90057932663c726b7770d831e46311", "fusion_lat": 0.0, "name": "3c90057932663c726b7770d831e46311", "is_reserved": 0, "rental_uris": {"android": "https://dc.lft.to/lastmile_qr_scan", "ios": "https://dc.lft.to/lastmile_qr_scan"}, "fusion_lon": 0.0}, {"lat": 38.8766545, "is_disabled": 0, "type": "electric_scooter", "lon": -77.00894183333334, "bike_id": "d7fc8e143b1bfde5ed1113e72ce47989", "fusion_lat": 0.0, "name": "d7fc8e143b1bfde5ed1113e72ce47989", "is_reserved": 0, "rental_uris": {"android": "https://dc.lft.to/lastmile_qr_scan", "ios": "https://dc.lft.to/lastmile_qr_scan"}, "fusion_lon": 0.0}, {"lat": 38.898317, "is_disabled": 0, "type": "electric_scooter", "lon": -76.93103366666666, "bike_id": "998e9924202e8835dd375af1dec768d5", "fusion_lat": 0.0, "name": "998e9924202e8835dd375af1dec768d5", "is_reserved": 0, "rental_uris": {"android": "https://dc.lft.to/lastmile_qr_scan", "ios": "https://dc.lft.to/lastmile_qr_scan"}, "fusion_lon": 0.0}, {"lat": 38.9058235, "is_disabled": 0, "type": "electric_scooter", "lon": -77.02394116666666, "bike_id": "9d2107c1901dd192858eef625c863808", "fusion_lat": 0.0, "name": "9d2107c1901dd192858eef625c863808", "is_reserved": 0, "rental_uris": {"android": "https://dc.lft.to/lastmile_qr_scan", "ios": "https://dc.lft.to/lastmile_qr_scan"}, "fusion_lon": 0.0}, {"lat": 38.90027216666667, "is_disabled": 0, "type": "electric_scooter", "lon": -76.98378916666667, "bike_id": "afc428640d88be24407edcff433fd937", "fusion_lat": 0.0, "name": "afc428640d88be24407edcff433fd937", "is_reserved": 0, "rental_uris": {"android": "https://dc.lft.to/lastmile_qr_scan", "ios": "https://dc.lft.to/lastmile_qr_scan"}, "fusion_lon": 0.0}, {"lat": 38.8652755, "is_disabled": 0, "type": "electric_scooter", "lon": -76.9902425, "bike_id": "939ceaaada47e3e9e54ac8d3cb7298cf", "fusion_lat": 0.0, "name": "939ceaaada47e3e9e54ac8d3cb7298cf", "is_reserved": 0, "rental_uris": {"android": "https://dc.lft.to/lastmile_qr_scan", "ios": "https://dc.lft.to/lastmile_qr_scan"}, "fusion_lon": 0.0}, {"lat": 38.9344865, "is_disabled": 0, "type": "electric_scooter", "lon": -77.03091283333333, "bike_id": "7f1ab48f349ac5f90e52607f35645143", "fusion_lat": 0.0, "name": "7f1ab48f349ac5f90e52607f35645143", "is_reserved": 0, "rental_uris": {"android": "https://dc.lft.to/lastmile_qr_scan", "ios": "https://dc.lft.to/lastmile_qr_scan"}, "fusion_lon": 0.0}, {"lat": 38.90349466666667, "is_disabled": 0, "type": "electric_scooter", "lon": -77.0421805, "bike_id": "4b0a7ea509dba0282e4f925ddd0d0953", "fusion_lat": 0.0, "name": "4b0a7ea509dba0282e4f925ddd0d0953", "is_reserved": 0, "rental_uris": {"android": "https://dc.lft.to/lastmile_qr_scan", "ios": "https://dc.lft.to/lastmile_qr_scan"}, "fusion_lon": 0.0}, {"lat": 38.90967583333333, "is_disabled": 0, "type": "electric_scooter", "lon": -77.04825116666666, "bike_id": "7860ba284b7c9bf3b28305bf94c0760b", "fusion_lat": 0.0, "name": "7860ba284b7c9bf3b28305bf94c0760b", "is_reserved": 0, "rental_uris": {"android": "https://dc.lft.to/lastmile_qr_scan", "ios": "https://dc.lft.to/lastmile_qr_scan"}, "fusion_lon": 0.0}, {"lat": 38.869960166666665, "is_disabled": 0, "type": "electric_bike", "lon": -77.06570033333334, "bike_id": "3b72fa0af4ad704a019d30bfb4bc3294", "fusion_lat": 0.0, "name": "3b72fa0af4ad704a019d30bfb4bc3294", "is_reserved": 0, "rental_uris": {"android": "https://dc.lft.to/lastmile_qr_scan", "ios": "https://dc.lft.to/lastmile_qr_scan"}, "fusion_lon": 0.0}, {"lat": 38.92405866666667, "is_disabled": 0, "type": "electric_scooter", "lon": -77.027454, "bike_id": "829d9cd4da1248a05dd04cd97b45c3c4", "fusion_lat": 0.0, "name": "829d9cd4da1248a05dd04cd97b45c3c4", "is_reserved": 0, "rental_uris": {"android": "https://dc.lft.to/lastmile_qr_scan", "ios": "https://dc.lft.to/lastmile_qr_scan"}, "fusion_lon": 0.0}, {"lat": 38.90105166666667, "is_disabled": 0, "type": "electric_scooter", "lon": -77.03166066666667, "bike_id": "be7484e8b14f1491165918ab0d9b4f43", "fusion_lat": 0.0, "name": "be7484e8b14f1491165918ab0d9b4f43", "is_reserved": 0, "rental_uris": {"android": "https://dc.lft.to/lastmile_qr_scan", "ios": "https://dc.lft.to/lastmile_qr_scan"}, "fusion_lon": 0.0}, {"lat": 38.905263166666664, "is_disabled": 0, "type": "electric_scooter", "lon": -77.0624335, "bike_id": "68a7301434907fb52aa067cf0b5b92d4", "fusion_lat": 0.0, "name": "68a7301434907fb52aa067cf0b5b92d4", "is_reserved": 0, "rental_uris": {"android": "https://dc.lft.to/lastmile_qr_scan", "ios": "https://dc.lft.to/lastmile_qr_scan"}, "fusion_lon": 0.0},