{"data": {"bikes": [{"rental_uris": {"ios": "https://dc.lft.to/lastmile_qr_scan", "android": "https://dc.lft.to/lastmile_qr_scan"}, "type": "electric_scooter", "name": "19ffbf0091d54bef774731a25c351a27", "is_reserved": 0, "lon": -77.012164, "is_disabled": 0, "fusion_lat": 0.0, "lat": 38.90164266666667, "bike_id": "19ffbf0091d54bef774731a25c351a27", "fusion_lon": 0.0}, {"rental_uris": {"ios": "https://dc.lft.to/lastmile_qr_scan", "android": "https://dc.lft.to/lastmile_qr_scan"}, "type": "electric_scooter", "name": "7b82a168f53737606521d8e2dca35ff9", "is_reserved": 0, "lon": -77.0006225, "is_disabled": 0, "fusion_lat": 0.0, "lat": 38.873669666666665, "bike_id": "7b82a168f53737606521d8e2dca35ff9", "fusion_lon": 0.0}, {"rental_uris": {"ios": "https://dc.lft.to/lastmile_qr_scan", "android": "https://dc.lft.to/lastmile_qr_scan"}, "type": "electric_scooter", "name": "dc453363b83ce3ab92e6b2cf936de6d8", "is_reserved": 0, "lon": -77.04362233333333, "is_disabled": 0, "fusion_lat": 0.0, "lat": 38.908368833333334, "bike_id": "dc453363b83ce3ab92e6b2cf936de6d8", "fusion_lon": 0.0}, {"rental_uris": {"ios": "https://dc.lft.to/lastmile_qr_scan", "android": "https://dc.lft.to/lastmile_qr_scan"}, "type": "electric_scooter", "name": "a1ed9de9bd0bec2773142c150ede988f", "is_reserved": 0, "lon": -77.0123175, "is_disabled": 0, "fusion_lat": 0.0, "lat": 38.86974433333334, "bike_id": "a1ed9de9bd0bec2773142c150ede988f", "fusion_lon": 0.0}, {"rental_uris": {"ios": "https://dc.lft.to/lastmile_qr_scan", "android": "https://dc.lft.to/lastmile_qr_scan"}, "type": "electric_scooter", "name": "0eace53709f391e31912fd39e5d05e09", "is_reserved": 0, "lon": -77.04470033333334, "is_disabled": 0, "fusion_lat": 0.0, "lat": 38.90378033333333, "bike_id": "0eace53709f391e31912fd39e5d05e09", "fusion_lon": 0.0}, {"rental_uris": {"ios": "https://dc.lft.to/lastmile_qr_scan", "android": "https://dc.lft.to/lastmile_qr_scan"}, "type": "electric_scooter", "name": "7afd123b94e7cf47c742f33dc3a2fc2e", "is_reserved": 0, "lon": -77.02718033333333, "is_disabled": 0, "fusion_lat": 0.0, "lat": 38.9101555, "bike_id": "7afd123b94e7cf47c742f33dc3a2fc2e", "fusion_lon": 0.0}, {"rental_uris": {"ios": "https://dc.lft.to/lastmile_qr_scan", "android": "https://dc.lft.to/lastmile_qr_scan"}, "type": "electric_scooter", "name": "e01c28162fb4f7be87aef4f5f9e27d4c", "is_reserved": 0, "lon": -76.973615, "is_disabled": 0, "fusion_lat": 0.0, "lat": 38.850214, "bike_id": "e01c28162fb4f7be87aef4f5f9e27d4c", "fusion_lon": 0.0}, {"rental_uris": {"ios": "https://dc.lft.to/lastmile_qr_scan", "android": "https://dc.lft.to/lastmile_qr_scan"}, "type": "electric_scooter", "name": "5c53d3dac3829b29aedd36011b8f8674", "is_reserved": 0, "lon": -77.08185016666667, "is_disabled": 0, "fusion_lat": 0.0, "lat": 38.9333595, "bike_id": "5c53d3dac3829b29aedd36011b8f8674", "fusion_lon": 0.0}, {"rental_uris": {"ios": "https://dc.lft.to/lastmile_qr_scan", "android": "https://dc.lft.to/lastmile_qr_scan"}, "type": "electric_scooter", "name": "a294ddd1075175dc1726f58a4ac4806a", "is_reserved": 0, "lon": -77.03539933333333, "is_disabled": 0, "fusion_lat": 0.0, "lat": 38.923381166666665, "bike_id": "a294ddd1075175dc1726f58a4ac4806a", "fusion_lon": 0.0}, {"rental_uris": {"ios": "https://dc.lft.to/lastmile_qr_scan", "android": "https://dc.lft.to/lastmile_qr_scan"}, "type": "electric_scooter", "name": "53601a685d2b6e7f963f23caa4a3fd11", "is_reserved": 0, "lon": -76.9853555, "is_disabled": 0, "fusion_lat": 0.0, "lat": 38.8807985, "bike_id": "53601a685d2b6e7f963f23caa4a3fd11", "fusion_lon": 0.0}, {"rental_uris": {"ios": "https://dc.lft.to/lastmile_qr_scan", "android": "https://dc.lft.to/lastmile_qr_scan"}, "type": "electric_scooter", "name": "c296fe981b855d408d985815671cf34a", "is_reserved": 0, "lon": -77.01235516666667, "is_disabled": 0, "fusion_lat": 0.0, "lat": 38.915758833333335, "bike_id": "c296fe981b855d408d985815671cf34a", "fusion_lon": 0.0}, {"rental_uris": {"ios": "https://dc.lft.to/lastmile_qr_scan", "android": "https://dc.lft.to/lastmile_qr_scan"}, "type": "electric_scooter", "name": "09354085d0aca42e0aee5b5b283a0953", "is_reserved": 0, "lon": -76.98702583333333, "is_disabled": 0, "fusion_lat": 0.0, "lat": 38.8596535, "bike_id": "09354085d0aca42e0aee5b5b283a0953", "fusion_lon": 0.0}, {"rental_uris": {"ios": "https://dc.lft.to/lastmile_qr_scan", "android": "https://dc.lft.to/lastmile_qr_scan"}, "type": "electric_scooter", "name": "2d0c89dc52357e7cbcb9e2efd0ecf02c", "is_reserved": 0, "lon": -76.99515, "is_disabled": 0, "fusion_lat": 0.0, "lat": 38.88988783333333, "bike_id": "2d0c89dc52357e7cbcb9e2efd0ecf02c", "fusion_lon": 0.0}, {"rental_uris": {"ios": "https://dc.lft.to/lastmile_qr_scan", "android": "https://dc.lft.to/lastmile_qr_scan"}, "type": "electric_scooter", "name": "14d9a15cbc6db96ca96b6377c84d3304", "is_reserved": 0, "lon": -77.03479316666666, "is_disabled": 0, "fusion_lat": 0.0, "lat": 38.91717283333333, "bike_id": "14d9a15cbc6db96ca96b6377c84d3304", "fusion_lon": 0.0}, {"rental_uris": {"ios": "https://dc.lft.to/lastmile_qr_scan", "android": "https://dc.lft.to/lastmile_qr_scan"}, "type": "electric_scooter", "name": "5e887ba9da4d4bc76afa284713ab40ac", "is_reserved": 0, "lon": -77.02132166666667, "is_disabled": 0, "fusion_lat": 0.0, "lat": 38.9269185, "bike_id": "5e887ba9da4d4bc76afa284713ab40ac", "fusion_lon": 0.0}, {"rental_uris": {"ios": "https://dc.lft.to/lastmile_qr_scan", "android": "https://dc.lft.to/lastmile_qr_scan"}, "type": "electric_scooter", "name": "5f99f9e014a41397ee6a7d603f3dc948", "is_reserved": 0, "lon": -77.02336516666666, "is_disabled": 0, "fusion_lat": 0.0, "lat": 38.92303166666667, "bike_id": "5f99f9e014a41397ee6a7d603f3dc948", "fusion_lon": 0.0}, {"rental_uris": {"ios": "https://dc.lft.to/lastmile_qr_scan", "android": "https://dc.lft.to/lastmile_qr_scan"}, "type": "electric_scooter", "name": "570226c9e6999bab3e4170038cae7cb9", "is_reserved": 0, "lon": -76.9835795, "is_disabled": 0, "fusion_lat": 0.0, "lat": 38.8874095, "bike_id": "570226c9e6999bab3e4170038cae7cb9", "fusion_lon": 0.0}, {"rental_uris": {"ios": "https://dc.lft.to/lastmile_qr_scan", "android": "https://dc.lft.to/lastmile_qr_scan"}, "type": "electric_scooter", "name": "d886dbc62433155f5562d80640c2ea70", "is_reserved": 0, "lon": -76.98261766666667, "is_disabled": 0, "fusion_lat": 0.0, "lat": 38.866311, "bike_id": "d886dbc62433155f5562d80640c2ea70", "fusion_lon": 0.0}, {"rental_uris": {"ios": "https://dc.lft.to/lastmile_qr_scan", "android": "https://dc.lft.to/lastmile_qr_scan"}, "type": "electric_scooter", "name": "ebf724ab870304b1f895c874ae427c69", "is_reserved": 0, "lon": -77.06553783333334, "is_disabled": 0, "fusion_lat": 0.0, "lat": 38.911776333333336, "bike_id": "ebf724ab870304b1f895c874ae427c69", "fusion_lon": 0.0}, {"rental_uris": {"ios": "https://dc.lft.to/lastmile_qr_scan", "android": "https://dc.lft.to/lastmile_qr_scan"}, "type": "electric_bike", "name": "409f4ae597aaaea4d61042b9861de376", "is_reserved": 0, "lon": -77.02004366666667, "is_disabled": 0, "fusion_lat": 0.0, "lat": 38.964437333333336, "bike_id": "409f4ae597aaaea4d61042b9861de376", "fusion_lon": 0.0}, {"rental_uris": {"ios": "https://dc.lft.to/lastmile_qr_scan", "android": "https://dc.lft.to/lastmile_qr_scan"}, "type": "electric_scooter", "name": "c675c8dbcf802569a87b0b06f1d31896", "is_reserved": 0, "lon": -77.02870933333334, "is_disabled": 0, "fusion_lat": 0.0, "lat": 38.932805, "bike_id": "c675c8dbcf802569a87b0b06f1d31896", "fusion_lon": 0.0}, {"rental_uris": {"ios": "https://dc.lft.to/lastmile_qr_scan", "android": "https://dc.lft.to/lastmile_qr_scan"}, "type": "electric_scooter", "name": "8ed47eb2ea0060c65218cfa8c8d09177", "is_reserved": 0, "lon": -77.05270033333333, "is_disabled": 0, "fusion_lat": 0.0, "lat": 38.924216, "bike_id": "8ed47eb2ea0060c65218cfa8c8d09177", "fusion_lon": 0.0}, {"rental_uris": {"ios": "https://dc.lft.to/lastmile_qr_scan", "android": "https://dc.lft.to/lastmile_qr_scan"}, "type": "electric_scooter", "name": "4dafa298370e98e2798e9cd4feab38eb", "is_reserved": 0, "lon": -76.957389, "is_disabled": 0, "fusion_lat": 0.0, "lat": 38.88392266666666, "bike_id": "4dafa298370e98e2798e9cd4feab38eb", "fusion_lon": 0.0}, {"rental_uris": {"ios": "https://dc.lft.to/lastmile_qr_scan", "android": "https://dc.lft.to/lastmile_qr_scan"}, "type": "electric_scooter", "name": "be3cafaf53bb0d3d3921906355e24d8c", "is_reserved": 0, "lon": -77.034529, "is_disabled": 0, "fusion_lat": 0.0, "lat": 38.905549, "bike_id": "be3cafaf53bb0d3d3921906355e24d8c", "fusion_lon": 0.0}, {"rental_uris": {"ios": "https://dc.lft.to/lastmile_qr_scan", "android": "https://dc.lft.to/lastmile_qr_scan"}, "type": "electric_scooter", "name": "de57664e0f6d9ef94e272b44a8c97d50", "is_reserved": 0, "lon": -77.01767483333333, "is_disabled": 0, "fusion_lat": 0.0, "lat": 38.92042683333333, "bike_id": "de57664e0f6d9ef94e272b44a8c97d50", "fusion_lon": 0.0}, {"rental_uris": {"ios": "https://dc.lft.to/lastmile_qr_scan", "android": "https://dc.lft.to/lastmile_qr_scan"}, "type": "electric_scooter", "name": "7a00f42fbdff0d73ede58d109763b84d", "is_reserved": 0, "lon": -77.02666233333333, "is_disabled": 0, "fusion_lat": 0.0, "lat": 38.92490566666667, "bike_id": "7a00f42fbdff0d73ede58d109763b84d", "fusion_lon": 0.0}, {"rental_uris": {"ios": "https://dc.lft.to/lastmile_qr_scan", "android": "https://dc.lft.to/lastmile_qr_scan"}, "type": "electric_scooter", "name": "e69826702100d4b3d8db58a85b492bd7", "is_reserved": 0, "lon": -77.02679866666666, "is_disabled": 0, "fusion_lat": 0.0, "lat": 38.924771666666665, "bike_id": "e69826702100d4b3d8db58a85b492bd7", "fusion_lon": 0.0}, {"rental_uris": {"ios": "https://dc.lft.to/lastmile_qr_scan", "android": "https://dc.lft.to/lastmile_qr_scan"}, "type": "electric_scooter", "name": "243c8e1a4cd949a960a52e3ef45fdcd1", "is_reserved": 0, "lon": -77.05432883333333, "is_disabled": 0, "fusion_lat": 0.0, "lat": 38.92849533333333, "bike_id": "243c8e1a4cd949a960a52e3ef45fdcd1", "fusion_lon": 0.0}, {"rental_uris": {"ios": "https://dc.lft.to/lastmile_qr_scan", "android": "https://dc.lft.to/lastmile_qr_scan"}, "type": "electric_scooter", "name": "caa451ddf286fc1de3b118b9c2d01d20", "is_reserved": 0, "lon": -77.04147166666667, "is_disabled": 0, "fusion_lat": 0.0, "lat": 38.90576033333333, "bike_id": "caa451ddf286fc1de3b118b9c2d01d20", "fusion_lon": 0.0}, {"rental_uris": {"ios": "https://dc.lft.to/lastmile_qr_scan", "android": "https://dc.lft.to/lastmile_qr_scan"}, "type": "electric_scooter", "name": "f8f0c6fcdfc0da9f88b90fd74fd6989a", "is_reserved": 0, "lon": -77.029498, "is_disabled": 0, "fusion_lat": 0.0, "lat": 38.91705016666667, "bike_id": "f8f0c6fcdfc0da9f88b90fd74fd6989a", "fusion_lon": 0.0}, {"rental_uris": {"ios": "https://dc.lft.to/lastmile_qr_scan", "android": "https://dc.lft.to/lastmile_qr_scan"}, "type": "electric_scooter", "name": "447f4378bd28e78ef668ae3c3ce83bf9", "is_reserved": 0, "lon": -77.04899683333333, "is_disabled": 0, "fusion_lat": 0.0, "lat": 38.91938833333333, "bike_id": "447f4378bd28e78ef668ae3c3ce83bf9", "fusion_lon": 0.0}, {"rental_uris": {"ios": "https://dc.lft.to/lastmile_qr_scan", "android": "https://dc.lft.to/lastmile_qr_scan"}, "type": "electric_scooter", "name": "dd750085eda7b0205078e7b7fc90b5e0", "is_reserved": 0, "lon": -76.9489915, "is_disabled": 0, "fusion_lat": 0.0, "lat": 38.89523883333333, "bike_id": "dd750085eda7b0205078e7b7fc90b5e0", "fusion_lon": 0.0}, {"rental_uris": {"ios": "https://dc.lft.to/lastmile_qr_scan", "android": "https://dc.lft.to/lastmile_qr_scan"}, "type": "electric_scooter", "name": "e6c68a36acfb38b4246e61012c0f162d", "is_reserved": 0, "lon": -77.040506, "is_disabled": 0, "fusion_lat": 0.0, "lat": 38.930165333333335, "bike_id": "e6c68a36acfb38b4246e61012c0f162d", "fusion_lon": 0.0}, {"rental_uris": {"ios": "https://dc.lft.to/lastmile_qr_scan", "android": "https://dc.lft.to/lastmile_qr_scan"}, "type": "electric_scooter", "name": "e6591f30bda7a93e5c104047d70af8a8", "is_reserved": 0, "lon": -77.07166066666667, "is_disabled": 0, "fusion_lat": 0.0, "lat": 38.907769, "bike_id": "e6591f30bda7a93e5c104047d70af8a8", "fusion_lon": 0.0}, {"rental_uris": {"ios": "https://dc.lft.to/lastmile_qr_scan", "android": "https://dc.lft.to/lastmile_qr_scan"}, "type": "electric_scooter", "name": "9ccc1540a8deb2ad6d6791b0dec3b829", "is_reserved": 0, "lon": -77.02319166666666, "is_disabled": 0, "fusion_lat": 0.0, "lat": 38.92074216666666, "bike_id": "9ccc1540a8deb2ad6d6791b0dec3b829", "fusion_lon": 0.0}, {"rental_uris": {"ios": "https://dc.lft.to/lastmile_qr_scan", "android": "https://dc.lft.to/lastmile_qr_scan"}, "type": "electric_scooter", "name": "f36961298792380a1b7f88f1e5ee5efb", "is_reserved": 0, "lon": -77.03832633333333, "is_disabled": 0, "fusion_lat": 0.0, "lat": 38.912588666666664, "bike_id": "f36961298792380a1b7f88f1e5ee5efb", "fusion_lon": 0.0}, {"rental_uris": {"ios": "https://dc.lft.to/lastmile_qr_scan", "android": "https://dc.lft.to/lastmile_qr_scan"}, "type": "electric_scooter", "name": "2e39c14d2aebd73e96a49a2bf737342c", "is_reserved": 0, "lon": -77.0503995, "is_disabled": 0, "fusion_lat": 0.0, "lat": 38.907256, "bike_id": "2e39c14d2aebd73e96a49a2bf737342c", "fusion_lon": 0.0}, {"rental_uris": {"ios": "https://dc.lft.to/lastmile_qr_scan", "android": "https://dc.lft.to/lastmile_qr_scan"}, "type": "electric_scooter", "name": "30ac6cc953bbae8105dc895e7def968f", "is_reserved": 0, "lon": -77.01995683333334, "is_disabled": 0, "fusion_lat": 0.0, "lat": 38.87608066666667, "bike_id": "30ac6cc953bbae8105dc895e7def968f", "fusion_lon": 0.0}, {"rental_uris": {"ios": "https://dc.lft.to/lastmile_qr_scan", "android": "https://dc.lft.to/lastmile_qr_scan"}, "type": "electric_scooter", "name": "05a8b8262c3495198e67ebfd16c7afd8", "is_reserved": 0, "lon": -77.03653716666666, "is_disabled": 0, "fusion_lat": 0.0, "lat": 38.954624, "bike_id": "05a8b8262c3495198e67ebfd16c7afd8", "fusion_lon": 0.0}, {"rental_uris": {"ios": "https://dc.lft.to/lastmile_qr_scan", "android": "https://dc.lft.to/lastmile_qr_scan"}, "type": "electric_scooter", "name": "d06710411259571750b1488341f8ed55", "is_reserved": 0, "lon": -76.97133766666667, "is_disabled": 0, "fusion_lat": 0.0, "lat": 38.878631, "bike_id": "d06710411259571750b1488341f8ed55", "fusion_lon": 0.0}, {"rental_uris": {"ios": "https://dc.lft.to/lastmile_qr_scan", "android": "https://dc.lft.to/lastmile_qr_scan"}, "type": "electric_scooter", "name": "96f53e3902902618cd2ebcb39fd0230b", "is_reserved": 0, "lon": -76.99561916666667, "is_disabled": 0, "fusion_lat": 0.0, "lat": 38.92683516666666, "bike_id": "96f53e3902902618cd2ebcb39fd0230b", "fusion_lon": 0.0}, {"rental_uris": {"ios": "https://dc.lft.to/lastmile_qr_scan", "android": "https://dc.lft.to/lastmile_qr_scan"}, "type": "electric_scooter", "name": "cf0a5893e470433492a72abde6b97f19", "is_reserved": 0, "lon": -76.9872715, "is_disabled": 0, "fusion_lat": 0.0, "lat": 38.842173833333334, "bike_id": "cf0a5893e470433492a72abde6b97f19", "fusion_lon": 0.0}, {"rental_uris": {"ios": "https://dc.lft.to/lastmile_qr_scan", "android": "https://dc.lft.to/lastmile_qr_scan"}, "type": "electric_scooter", "name": "fbe9f21de29af8c214a48a50d27b6bd8", "is_reserved": 0, "lon": -77.03948116666666, "is_disabled": 0, "fusion_lat": 0.0, "lat": 38.89823833333333, "bike_id": "fbe9f21de29af8c214a48a50d27b6bd8", "fusion_lon": 0.0}, {"rental_uris": {"ios": "https://dc.lft.to/lastmile_qr_scan", "android": "https://dc.lft.to/lastmile_qr_scan"}, "type": "electric_scooter", "name": "06a54e392c90af2b0150179d1152b17d", "is_reserved": 0, "lon": -77.02442583333334, "is_disabled": 0, "fusion_lat": 0.0, "lat": 38.95639083333333, "bike_id": "06a54e392c90af2b0150179d1152b17d", "fusion_lon": 0.0}, {"rental_uris": {"ios": "https://dc.lft.to/lastmile_qr_scan", "android": "https://dc.lft.to/lastmile_qr_scan"}, "type": "electric_scooter", "name": "df280bc03f8ad7ea704290c78f523cdc", "is_reserved": 0, "lon": -77.04676816666667, "is_disabled": 0, "fusion_lat": 0.0, "lat": 38.89225833333333, "bike_id": "df280bc03f8ad7ea704290c78f523cdc", "fusion_lon": 0.0}, {"rental_uris": {"ios": "https://dc.lft.to/lastmile_qr_scan", "android": "https://dc.lft.to/lastmile_qr_scan"}, "type": "electric_scooter", "name": "b4bb4c86f51cec2d0145a58cf95d7e13", "is_reserved": 0, "lon": -77.07290783333333, "is_disabled": 0, "fusion_lat": 0.0, "lat": 38.91439916666667, "bike_id": "b4bb4c86f51cec2d0145a58cf95d7e13", "fusion_lon": 0.0}, {"rental_uris": {"ios": "https://dc.lft.to/lastmile_qr_scan", "android": "https://dc.lft.to/lastmile_qr_scan"}, "type": "electric_scooter", "name": "ec1708791f091030abcebd631ef3efb7", "is_reserved": 0, "lon": -77.03363183333333, "is_disabled": 0, "fusion_lat": 0.0, "lat": 38.9286385, "bike_id": "ec1708791f091030abcebd631ef3efb7", "fusion_lon": 0.0}, {"rental_uris": {"ios": "https://dc.lft.to/lastmile_qr_scan", "android": "https://dc.lft.to/lastmile_qr_scan"}, "type": "electric_scooter", "name": "ca29ec4bff6776b90ef96ea2da551fd1", "is_reserved": 0, "lon": -76.99148916666667, "is_disabled": 0, "fusion_lat": 0.0, "lat": 38.901258, "bike_id": "ca29ec4bff6776b90ef96ea2da551fd1", "fusion_lon": 0.0}, {"rental_uris": {"ios": "https://dc.lft.to/lastmile_qr_scan", "android": "https://dc.lft.to/lastmile_qr_scan"}, "type": "electric_scooter", "name": "3e4de8c577b25e69a24d4459ae90f83a", "is_reserved": 0, "lon": -77.05303033333334, "is_disabled": 0, "fusion_lat": 0.0, "lat": 38.902679666666664, "bike_id": "3e4de8c577b25e69a24d4459ae90f83a", "fusion_lon": 0.0}, {"rental_uris": {"ios": "https://dc.lft.to/lastmile_qr_scan", "android": "https://dc.lft.to/lastmile_qr_scan"}, "type": "electric_scooter", "name": "c699f15f0f418bef85cb90a8c140c819", "is_reserved": 0, "lon": -76.929235, "is_disabled": 0, "fusion_lat": 0.0, "lat": 38.886572666666666, "bike_id": "c699f15f0f418bef85cb90a8c140c819", "fusion_lon": 0.0}, {"rental_uris": {"ios": "https://dc.lft.to/lastmile_qr_scan", "android": "https://dc.lft.to/lastmile_qr_scan"}, "type": "electric_scooter", "name": "a578d8f9cedc3b21fb01a296ca459346", "is_reserved": 0, "lon": -77.01990283333333, "is_disabled": 0, "fusion_lat": 0.0, "lat": 38.930790333333334, "bike_id": "a578d8f9cedc3b21fb01a296ca459346", "fusion_lon": 0.0}, {"rental_uris": {"ios": "https://dc.lft.to/lastmile_qr_scan", "android": "https://dc.lft.to/lastmile_qr_scan"}, "type": "electric_scooter", "name": "f0670ecd725e77d6b1b892387768464b", "is_reserved": 0, "lon": -77.05522066666667, "is_disabled": 0, "fusion_lat": 0.0, "lat": 38.9077345, "bike_id": "f0670ecd725e77d6b1b892387768464b", "fusion_lon": 0.0}, {"rental_uris": {"ios": "https://dc.lft.to/lastmile_qr_scan", "android": "https://dc.lft.to/lastmile_qr_scan"}, "type": "electric_scooter", "name": "8f92a590cc3f1b4e9b8e22c1e7ba8e26", "is_reserved": 0, "lon": -77.07091283333334, "is_disabled": 0, "fusion_lat": 0.0, "lat": 38.9532505, "bike_id": "8f92a590cc3f1b4e9b8e22c1e7ba8e26", "fusion_lon": 0.0}, {"rental_uris": {"ios": "https://dc.lft.to/lastmile_qr_scan", "android": "https://dc.lft.to/lastmile_qr_scan"}, "type": "electric_scooter", "name": "d43619bb82e013e2281e5ecf4f729e04", "is_reserved": 0, "lon": -77.0434285, "is_disabled": 0, "fusion_lat": 0.0, "lat": 38.922403, "bike_id": "d43619bb82e013e2281e5ecf4f729e04", "fusion_lon": 0.0}, {"rental_uris": {"ios": "https://dc.lft.to/lastmile_qr_scan", "android": "https://dc.lft.to/lastmile_qr_scan"}, "type": "electric_scooter", "name": "224002145fb618043dfa756a6e1cd75e", "is_reserved": 0, "lon": -77.028346, "is_disabled": 0, "fusion_lat": 0.0, "lat": 38.902537, "bike_id": "224002145fb618043dfa756a6e1cd75e", "fusion_lon": 0.0}, {"rental_uris": {"ios": "https://dc.lft.to/lastmile_qr_scan", "android": "https://dc.lft.to/lastmile_qr_scan"}, "type": "electric_scooter", "name": "2546594a0588cb8af56dbbae67b7fee1", "is_reserved": 0, "lon": -76.98577116666667, "is_disabled": 0, "fusion_lat": 0.0, "lat": 38.85448383333333, "bike_id": "2546594a0588cb8af56dbbae67b7fee1", "fusion_lon": 0.0}, {"rental_uris": {"ios": "https://dc.lft.to/lastmile_qr_scan", "android": "https://dc.lft.to/lastmile_qr_scan"}, "type": "electric_scooter", "name": "8566075c55e2a919ce144e44317ad825", "is_reserved": 0, "lon": -77.03030116666666, "is_disabled": 0, "fusion_lat": 0.0, "lat": 38.92243916666666, "bike_id": "8566075c55e2a919ce144e44317ad825", "fusion_lon": 0.0}, {"rental_uris": {"ios": "https://dc.lft.to/lastmile_qr_scan", "android": "https://dc.lft.to/lastmile_qr_scan"}, "type": "electric_scooter", "name": "1dd0eb268f97370b687b7b40df728433", "is_reserved": 0, "lon": -77.0179075, "is_disabled": 0, "fusion_lat": 0.0, "lat": 38.90259016666667, "bike_id": "1dd0eb268f97370b687b7b40df728433", "fusion_lon": 0.0}, {"rental_uris": {"ios": "https://dc.lft.to/lastmile_qr_scan", "android": "https://dc.lft.to/lastmile_qr_scan"}, "type": "electric_scooter", "name": "72d338d29b56d86fa47e3aac4dacfcb4", "is_reserved": 0, "lon": -77.03194733333333, "is_disabled": 0, "fusion_lat": 0.0, "lat": 38.89976933333333, "bike_id": "72d338d29b56d86fa47e3aac4dacfcb4", "fusion_lon": 0.0}, {"rental_uris": {"ios": "https://dc.lft.to/lastmile_qr_scan", "android": "https://dc.lft.to/lastmile_qr_scan"}, "type": "electric_scooter", "name": "07f2183163d7a62ebd85409a0dc3b7f3", "is_reserved": 0, "lon": -77.02356733333333, "is_disabled": 0, "fusion_lat": 0.0, "lat": 38.945252833333335, "bike_id": "07f2183163d7a62ebd85409a0dc3b7f3", "fusion_lon": 0.0}, {"rental_uris": {"ios": "https://dc.lft.to/lastmile_qr_scan", "android": "https://dc.lft.to/lastmile_qr_scan"}, "type": "electric_scooter", "name": "2d9390ef53ce914434fdee56f1ea2771", "is_reserved": 0, "lon": -77.04119283333333, "is_disabled": 0, "fusion_lat": 0.0, "lat": 38.9310575, "bike_id": "2d9390ef53ce914434fdee56f1ea2771", "fusion_lon": 0.0}, {"rental_uris": {"ios": "https://dc.lft.to/lastmile_qr_scan", "android": "https://dc.lft.to/lastmile_qr_scan"}, "type": "electric_scooter", "name": "e8ef9cab89deed00b9487e9ff1b20845", "is_reserved": 0, "lon": -77.045065, "is_disabled": 0, "fusion_lat": 0.0, "lat": 38.89220616666667, "bike_id": "e8ef9cab89deed00b9487e9ff1b20845", "fusion_lon": 0.0}, {"rental_uris": {"ios": "https://dc.lft.to/lastmile_qr_scan", "android": "https://dc.lft.to/lastmile_qr_scan"}, "type": "electric_scooter", "name": "dc31bcf5bf4515247acdde39ca83e372", "is_reserved": 0, "lon": -77.038713, "is_disabled": 0, "fusion_lat": 0.0, "lat": 38.921503, "bike_id": "dc31bcf5bf4515247acdde39ca83e372", "fusion_lon": 0.0}, {"rental_uris": {"ios": "https://dc.lft.to/lastmile_qr_scan", "android": "https://dc.lft.to/lastmile_qr_scan"}, "type": "electric_bike", "name": "6a828052d82d51b7281da11338f907aa", "is_reserved": 0, "lon": -77.012294, "is_disabled": 0, "fusion_lat": 0.0, "lat": 38.95083533333333, "bike_id": "6a828052d82d51b7281da11338f907aa", "fusion_lon": 0.0}, {"rental_uris": {"ios": "https://dc.lft.to/lastmile_qr_scan", "android": "https://dc.lft.to/lastmile_qr_scan"}, "type": "electric_scooter", "name": "d9dc237c217bb980eb2f27e8fa33353e", "is_reserved": 0, "lon": -77.02709866666666, "is_disabled": 0, "fusion_lat": 0.0, "lat": 38.90599133333333, "bike_id": "d9dc237c217bb980eb2f27e8fa33353e", "fusion_lon": 0.0}, {"rental_uris": {"ios": "https://dc.lft.to/lastmile_qr_scan", "android": "https://dc.lft.to/lastmile_qr_scan"}, "type": "electric_scooter", "name": "3ae21ba1760393b78c78460dab2e4e67", "is_reserved": 0, "lon": -76.99871466666667, "is_disabled": 0, "fusion_lat": 0.0, "lat": 38.90032683333333, "bike_id": "3ae21ba1760393b78c78460dab2e4e67", "fusion_lon": 0.0}, {"rental_uris": {"ios": "https://dc.lft.to/lastmile_qr_scan", "android": "https://dc.lft.to/lastmile_qr_scan"}, "type": "electric_scooter", "name": "6bd1976efed76ba9e4f22ad13090763b", "is_reserved": 0, "lon": -77.0230455, "is_disabled": 0, "fusion_lat": 0.0, "lat": 38.9020255, "bike_id": "6bd1976efed76ba9e4f22ad13090763b", "fusion_lon": 0.0}, {"rental_uris": {"ios": "https://dc.lft.to/lastmile_qr_scan", "android": "https://dc.lft.to/lastmile_qr_scan"}, "type": "electric_scooter", "name": "532efb38804eb5ae968a57b0a2c1d46c", "is_reserved": 0, "lon": -77.02284866666666, "is_disabled": 0, "fusion_lat": 0.0, "lat": 38.892191, "bike_id": "532efb38804eb5ae968a57b0a2c1d46c", "fusion_lon": 0.0}, {"rental_uris": {"ios": "https://dc.lft.to/lastmile_qr_scan", "android": "https://dc.lft.to/lastmile_qr_scan"}, "type": "electric_scooter", "name": "d9be9e28f97520a4f9450fc79584c843", "is_reserved": 0, "lon": -77.07401816666666, "is_disabled": 0, "fusion_lat": 0.0, "lat": 38.93749416666667, "bike_id": "d9be9e28f97520a4f9450fc79584c843", "fusion_lon": 0.0}, {"rental_uris": {"ios": "https://dc.lft.to/lastmile_qr_scan", "android": "https://dc.lft.to/lastmile_qr_scan"}, "type": "electric_scooter", "name": "f398474a1cfac98e92db95d148ef147e", "is_reserved": 0, "lon": -77.02400816666666, "is_disabled": 0, "fusion_lat": 0.0, "lat": 38.917091, "bike_id": "f398474a1cfac98e92db95d148ef147e", "fusion_lon": 0.0}, {"rental_uris": {"ios": "https://dc.lft.to/lastmile_qr_scan", "android": "https://dc.lft.to/lastmile_qr_scan"}, "type": "electric_scooter", "name": "513cda44df3da28f009e40f75e3b550a", "is_reserved": 0, "lon": -77.02356433333334, "is_disabled": 0, "fusion_lat": 0.0, "lat": 38.945214166666666, "bike_id": "513cda44df3da28f009e40f75e3b550a", "fusion_lon": 0.0}, {"rental_uris": {"ios": "https://dc.lft.to/lastmile_qr_scan", "android": "https://dc.lft.to/lastmile_qr_scan"}, "type": "electric_scooter", "name": "bc20d4c0e927d67116bb68cd47340831", "is_reserved": 0, "lon": -77.03132466666666, "is_disabled": 0, "fusion_lat": 0.0, "lat": 38.923838, "bike_id": "bc20d4c0e927d67116bb68cd47340831", "fusion_lon": 0.0}, {"rental_uris": {"ios": "https://dc.lft.to/lastmile_qr_scan", "android": "https://dc.lft.to/lastmile_qr_scan"}, "type": "electric_scooter", "name": "c2f6861591022fc88eb61f029f7a836c", "is_reserved": 0, "lon": -76.99389666666667, "is_disabled": 0, "fusion_lat": 0.0, "lat": 38.9101625, "bike_id": "c2f6861591022fc88eb61f029f7a836c", "fusion_lon": 0.0}, {"rental_uris": {"ios": "https://dc.lft.to/lastmile_qr_scan", "android": "https://dc.lft.to/lastmile_qr_scan"}, "type": "electric_scooter", "name": "0ae1fd38f74b0f28cac6a41281f1c7d6", "is_reserved": 0, "lon": -77.032615, "is_disabled": 0, "fusion_lat": 0.0, "lat": 38.938761666666664, "bike_id": "0ae1fd38f74b0f28cac6a41281f1c7d6", "fusion_lon": 0.0}, {"rental_uris": {"ios": "https://dc.lft.to/lastmile_qr_scan", "android": "https://dc.lft.to/lastmile_qr_scan"}, "type": "electric_bike", "name": "fde47979cc744998753d18c8f1710c00", "is_reserved": 0, "lon": -76.95061066666666, "is_disabled": 0, "fusion_lat": 0.0, "lat": 39.08511283333333, "bike_id": "fde47979cc744998753d18c8f1710c00", "fusion_lon": 0.0}, {"rental_uris": {"ios": "https://dc.lft.to/lastmile_qr_scan", "android": "https://dc.lft.to/lastmile_qr_scan"}, "type": "electric_scooter", "name": "b8ff51442a8b207d494b9ce5ab38d729", "is_reserved": 0, "lon": -76.9818375, "is_disabled": 0, "fusion_lat": 0.0, "lat": 38.905804833333335, "bike_id": "b8ff51442a8b207d494b9ce5ab38d729", "fusion_lon": 0.0}, {"rental_uris": {"ios": "https://dc.lft.to/lastmile_qr_scan", "android": "https://dc.lft.to/lastmile_qr_scan"}, "type": "electric_scooter", "name": "5e41294c97fcd4080b11673422986aa8", "is_reserved": 0, "lon": -77.0240025, "is_disabled": 0, "fusion_lat": 0.0, "lat": 38.927533833333335, "bike_id": "5e41294c97fcd4080b11673422986aa8", "fusion_lon": 0.0}, {"rental_uris": {"ios": "https://dc.lft.to/lastmile_qr_scan", "android": "https://dc.lft.to/lastmile_qr_scan"}, "type": "electric_scooter", "name": "103620652ae416994779fd89bf61e5b2", "is_reserved": 0, "lon": -77.01998983333333, "is_disabled": 0, "fusion_lat": 0.0, "lat": 38.93053716666667, "bike_id": "103620652ae416994779fd89bf61e5b2", "fusion_lon": 0.0}, {"rental_uris": {"ios": "https://dc.lft.to/lastmile_qr_scan", "android": "https://dc.lft.to/lastmile_qr_scan"}, "type": "electric_scooter", "name": "09b7dd561e0f3d853f17c4f2c86308fd", "is_reserved": 0, "lon": -77.039978, "is_disabled": 0, "fusion_lat": 0.0, "lat": 38.914145166666664, "bike_id": "09b7dd561e0f3d853f17c4f2c86308fd", "fusion_lon": 0.0}, {"rental_uris": {"ios": "https://dc.lft.to/lastmile_qr_scan", "android": "https://dc.lft.to/lastmile_qr_scan"}, "type": "electric_scooter", "name": "1fbbd47ddcd62e6d6a89b86d907aa395", "is_reserved": 0, "lon": -77.02961516666667, "is_disabled": 0, "fusion_lat": 0.0, "lat": 38.905053, "bike_id": "1fbbd47ddcd62e6d6a89b86d907aa395", "fusion_lon": 0.0}, {"rental_uris": {"ios": "https://dc.lft.to/lastmile_qr_scan", "android": "https://dc.lft.to/lastmile_qr_scan"}, "type": "electric_bike", "name": "5fb2defd37b964cb380629b623f546a4", "is_reserved": 0, "lon": -76.96157966666667, "is_disabled": 0, "fusion_lat": 0.0, "lat": 38.856156666666664, "bike_id": "5fb2defd37b964cb380629b623f546a4", "fusion_lon": 0.0}, {"rental_uris": {"ios": "https://dc.lft.to/lastmile_qr_scan", "android": "https://dc.lft.to/lastmile_qr_scan"}, "type": "electric_scooter", "name": "fca47c2e6013615d9a3675f4decb9086", "is_reserved": 0, "lon": -77.040956, "is_disabled": 0, "fusion_lat": 0.0, "lat": 38.917242333333334, "bike_id": "fca47c2e6013615d9a3675f4decb9086", "fusion_lon": 0.0}, {"rental_uris": {"ios": "https://dc.lft.to/lastmile_qr_scan", "android": "https://dc.lft.to/lastmile_qr_scan"}, "type": "electric_scooter", "name": "a4b26a4d1b7f205a181ed4ad8c12cff2", "is_reserved": 0, "lon": -77.04343233333333, "is_disabled": 0, "fusion_lat": 0.0, "lat": 38.907302333333334, "bike_id": "a4b26a4d1b7f205a181ed4ad8c12cff2", "fusion_lon": 0.0}, {"rental_uris": {"ios": "https://dc.lft.to/lastmile_qr_scan", "android": "https://dc.lft.to/lastmile_qr_scan"}, "type": "electric_scooter", "name": "f3784ca3fb4cc63404129be63c6b978c", "is_reserved": 0, "lon": -77.04058733333333, "is_disabled": 0, "fusion_lat": 0.0, "lat": 38.917677, "bike_id": "f3784ca3fb4cc63404129be63c6b978c", "fusion_lon": 0.0}, {"rental_uris": {"ios": "https://dc.lft.to/lastmile_qr_scan", "android": "https://dc.lft.to/lastmile_qr_scan"}, "type": "electric_scooter", "name": "0f9dadb4fc590b9559d6aef1ef86f5ba", "is_reserved": 0, "lon": -77.02634366666666, "is_disabled": 0, "fusion_lat": 0.0, "lat": 38.907213, "bike_id": "0f9dadb4fc590b9559d6aef1ef86f5ba", "fusion_lon": 0.0}, {"rental_uris": {"ios": "https://dc.lft.to/lastmile_qr_scan", "android": "https://dc.lft.to/lastmile_qr_scan"}, "type": "electric_scooter", "name": "928e01ea095f56c20910f682628101e9", "is_reserved": 0, "lon": -77.0616395, "is_disabled": 0, "fusion_lat": 0.0, "lat": 38.9027005, "bike_id": "928e01ea095f56c20910f682628101e9", "fusion_lon": 0.0}, {"rental_uris": {"ios": "https://dc.lft.to/lastmile_qr_scan", "android": "https://dc.lft.to/lastmile_qr_scan"}, "type": "electric_scooter", "name": "1006f241864ecc101e5bdc14fa9297e3", "is_reserved": 0, "lon": -76.9772515, "is_disabled": 0, "fusion_lat": 0.0, "lat": 38.888240833333334, "bike_id": "1006f241864ecc101e5bdc14fa9297e3", "fusion_lon": 0.0}, {"rental_uris": {"ios": "https://dc.lft.to/lastmile_qr_scan", "android": "https://dc.lft.to/lastmile_qr_scan"}, "type": "electric_bike", "name": "9b01d537ae39ccc087dc29c31eae574a", "is_reserved": 0, "lon": -76.96262783333333, "is_disabled": 0, "fusion_lat": 0.0, "lat": 38.88247966666667, "bike_id": "9b01d537ae39ccc087dc29c31eae574a", "fusion_lon": 0.0}, {"rental_uris": {"ios": "https://dc.lft.to/lastmile_qr_scan", "android": "https://dc.lft.to/lastmile_qr_scan"}, "type": "electric_scooter", "name": "92e4f41bfad799ed6fe91e821d7d3bd7", "is_reserved": 0, "lon": -77.02815616666666, "is_disabled": 0, "fusion_lat": 0.0, "lat": 38.909187333333335, "bike_id": "92e4f41bfad799ed6fe91e821d7d3bd7", "fusion_lon": 0.0}, {"rental_uris": {"ios": "https://dc.lft.to/lastmile_qr_scan", "android": "https://dc.lft.to/lastmile_qr_scan"}, "type": "electric_scooter", "name": "5f6abd04bc6b905e8d1a424768278e32", "is_reserved": 0, "lon": -77.038724, "is_disabled": 0, "fusion_lat": 0.0, "lat": 38.915623, "bike_id": "5f6abd04bc6b905e8d1a424768278e32", "fusion_lon": 0.0}, {"rental_uris": {"ios": "https://dc.lft.to/lastmile_qr_scan", "android": "https://dc.lft.to/lastmile_qr_scan"}, "type": "electric_scooter", "name": "9a4dfdbac44f124735294648d212a0b0", "is_reserved": 0, "lon": -77.03477366666667, "is_disabled": 0, "fusion_lat": 0.0, "lat": 38.902844, "bike_id": "9a4dfdbac44f124735294648d212a0b0", "fusion_lon": 0.0}, {"rental_uris": {"ios": "https://dc.lft.to/lastmile_qr_scan", "android": "https://dc.lft.to/lastmile_qr_scan"}, "type": "electric_scooter", "name": "6562ffdddc344b8a774a818e31149506", "is_reserved": 0, "lon": -76.9974695, "is_disabled": 0, "fusion_lat": 0.0, "lat": 38.885042, "bike_id": "6562ffdddc344b8a774a818e31149506", "fusion_lon": 0.0}, {"rental_uris": {"ios": "https://dc.lft.to/lastmile_qr_scan", "android": "https://dc.lft.to/lastmile_qr_scan"}, "type": "electric_scooter", "name": "fc9adbe8fe3a58405c4dd931081565a3", "is_reserved": 0, "lon": -77.06526233333334, "is_disabled": 0, "fusion_lat": 0.0, "lat": 38.911111, "bike_id": "fc9adbe8fe3a58405c4dd931081565a3", "fusion_lon": 0.0}, {"rental_uris": {"ios": "https://dc.lft.to/lastmile_qr_scan", "android": "https://dc.lft.to/lastmile_qr_scan"}, "type": "electric_scooter", "name": "92db6b980c3cbd87b574ac451c3a220f", "is_reserved": 0, "lon": -77.03893833333333, "is_disabled": 0, "fusion_lat": 0.0, "lat": 38.923221833333336, "bike_id": "92db6b980c3cbd87b574ac451c3a220f", "fusion_lon": 0.0}, {"rental_uris": {"ios": "https://dc.lft.to/lastmile_qr_scan", "android": "https://dc.lft.to/lastmile_qr_scan"}, "type": "electric_scooter", "name": "ed0718d5a4c090228404648f68b19ba7", "is_reserved": 0, "lon": -77.04097216666666, "is_disabled": 0, "fusion_lat": 0.0, "lat": 38.925294, "bike_id": "ed0718d5a4c090228404648f68b19ba7", "fusion_lon": 0.0}, {"rental_uris": {"ios": "https://dc.lft.to/lastmile_qr_scan", "android": "https://dc.lft.to/lastmile_qr_scan"}, "type": "electric_scooter", "name": "1df2d86f2c827cc7ae8e0e38bc36cd5e", "is_reserved": 0, "lon": -77.01422466666666, "is_disabled": 0, "fusion_lat": 0.0, "lat": 38.92872783333333, "bike_id": "1df2d86f2c827cc7ae8e0e38bc36cd5e", "fusion_lon": 0.0}, {"rental_uris": {"ios": "https://dc.lft.to/lastmile_qr_scan", "android": "https://dc.lft.to/lastmile_qr_scan"}, "type": "electric_scooter", "name": "85e351092c9d39df84624d28391c61a5", "is_reserved": 0, "lon": -76.96540633333333, "is_disabled": 0, "fusion_lat": 0.0, "lat": 38.9184765, "bike_id": "85e351092c9d39df84624d28391c61a5", "fusion_lon": 0.0}, {"rental_uris": {"ios": "https://dc.lft.to/lastmile_qr_scan", "android": "https://dc.lft.to/lastmile_qr_scan"}, "type": "electric_scooter", "name": "229b72be6d30562f42e7adf243b0c35b", "is_reserved": 0, "lon": -77.03794416666666, "is_disabled": 0, "fusion_lat": 0.0, "lat": 38.92510216666667, "bike_id": "229b72be6d30562f42e7adf243b0c35b", "fusion_lon": 0.0}, {"rental_uris": {"ios": "https://dc.lft.to/lastmile_qr_scan", "android": "https://dc.lft.to/lastmile_qr_scan"}, "type": "electric_scooter", "name": "c684aecbec5cf1908db3b1eeadc9e8bb", "is_reserved": 0, "lon": -77.035423, "is_disabled": 0, "fusion_lat": 0.0, "lat": 38.923789666666664, "bike_id": "c684aecbec5cf1908db3b1eeadc9e8bb", "fusion_lon": 0.0}, {"rental_uris": {"ios": "https://dc.lft.to/lastmile_qr_scan", "android": "https://dc.lft.to/lastmile_qr_scan"}, "type": "electric_scooter", "name": "3282dd9deac670b2ff4e16cc32f8dba6", "is_reserved": 0, "lon": -77.03706816666667, "is_disabled": 0, "fusion_lat": 0.0, "lat": 38.928360166666664, "bike_id": "3282dd9deac670b2ff4e16cc32f8dba6", "fusion_lon": 0.0}, {"rental_uris": {"ios": "https://dc.lft.to/lastmile_qr_scan", "android": "https://dc.lft.to/lastmile_qr_scan"}, "type": "electric_scooter", "name": "2dc736950edea48622071f1cb6bc885c", "is_reserved": 0, "lon": -77.02150583333334, "is_disabled": 0, "fusion_lat": 0.0, "lat": 38.9132665, "bike_id": "2dc736950edea48622071f1cb6bc885c", "fusion_lon": 0.0}, {"rental_uris": {"ios": "https://dc.lft.to/lastmile_qr_scan", "android": "https://dc.lft.to/lastmile_qr_scan"}, "type": "electric_scooter", "name": "cc6db5c06f49807df55e66905de06f25", "is_reserved": 0, "lon": -77.02301216666666, "is_disabled": 0, "fusion_lat": 0.0, "lat": 38.898596166666664, "bike_id": "cc6db5c06f49807df55e66905de06f25", "fusion_lon": 0.0}, {"rental_uris": {"ios": "https://dc.lft.to/lastmile_qr_scan", "android": "https://dc.lft.to/lastmile_qr_scan"}, "type": "electric_scooter", "name": "ed43c22af96cf268339e110b449ce25d", "is_reserved": 0, "lon": -77.03291466666667, "is_disabled": 0, "fusion_lat": 0.0, "lat": 38.924577, "bike_id": "ed43c22af96cf268339e110b449ce25d", "fusion_lon": 0.0}, {"rental_uris": {"ios": "https://dc.lft.to/lastmile_qr_scan", "android": "https://dc.lft.to/lastmile_qr_scan"}, "type": "electric_scooter", "name": "05258fdef26b7ca90807c528fb62ee6e", "is_reserved": 0, "lon": -76.99131866666667, "is_disabled": 0, "fusion_lat": 0.0, "lat": 38.9000885, "bike_id": "05258fdef26b7ca90807c528fb62ee6e", "fusion_lon": 0.0}, {"rental_uris": {"ios": "https://dc.lft.to/lastmile_qr_scan", "android": "https://dc.lft.to/lastmile_qr_scan"}, "type": "electric_scooter", "name": "1186784cf81bdde7b5339ad5857b0eb2", "is_reserved": 0, "lon": -77.03552133333334, "is_disabled": 0, "fusion_lat": 0.0, "lat": 38.917108666666664, "bike_id": "1186784cf81bdde7b5339ad5857b0eb2", "fusion_lon": 0.0}, {"rental_uris": {"ios": "https://dc.lft.to/lastmile_qr_scan", "android": "https://dc.lft.to/lastmile_qr_scan"}, "type": "electric_scooter", "name": "a09628aa369c31d0a91112f1690efbac", "is_reserved": 0, "lon": -77.02694716666667, "is_disabled": 0, "fusion_lat": 0.0, "lat": 38.91150366666667, "bike_id": "a09628aa369c31d0a91112f1690efbac", "fusion_lon": 0.0}, {"rental_uris": {"ios": "https://dc.lft.to/lastmile_qr_scan", "android": "https://dc.lft.to/lastmile_qr_scan"}, "type": "electric_scooter", "name": "28be81961363b8f78e6ab88b4e0504cf", "is_reserved": 0, "lon": -77.0559965, "is_disabled": 0, "fusion_lat": 0.0, "lat": 38.894229333333335, "bike_id": "28be81961363b8f78e6ab88b4e0504cf", "fusion_lon": 0.0}, {"rental_uris": {"ios": "https://dc.lft.to/lastmile_qr_scan", "android": "https://dc.lft.to/lastmile_qr_scan"}, "type": "electric_bike", "name": "da8349261e32f2e488045c227e78115f", "is_reserved": 0, "lon": -77.0426645, "is_disabled": 0, "fusion_lat": 0.0, "lat": 38.849052, "bike_id": "da8349261e32f2e488045c227e78115f", "fusion_lon": 0.0}, {"rental_uris": {"ios": "https://dc.lft.to/lastmile_qr_scan", "android": "https://dc.lft.to/lastmile_qr_scan"}, "type": "electric_scooter", "name": "9cafdf4a402ab1871a5ba88ed747f102", "is_reserved": 0, "lon": -77.021966, "is_disabled": 0, "fusion_lat": 0.0, "lat": 38.905555666666665, "bike_id": "9cafdf4a402ab1871a5ba88ed747f102", "fusion_lon": 0.0}, {"rental_uris": {"ios": "https://dc.lft.to/lastmile_qr_scan", "android": "https://dc.lft.to/lastmile_qr_scan"}, "type": "electric_scooter", "name": "09280104eec2967593c8cc9a875285bd", "is_reserved": 0, "lon": -77.07116216666667, "is_disabled": 0, "fusion_lat": 0.0, "lat": 38.90583216666667, "bike_id": "09280104eec2967593c8cc9a875285bd", "fusion_lon": 0.0}, {"rental_uris": {"ios": "https://dc.lft.to/lastmile_qr_scan", "android": "https://dc.lft.to/lastmile_qr_scan"}, "type": "electric_scooter", "name": "237f6c744fcc5e0f77ba2be1d653f9f1", "is_reserved": 0, "lon": -76.99478466666666, "is_disabled": 0, "fusion_lat": 0.0, "lat": 38.86213866666667, "bike_id": "237f6c744fcc5e0f77ba2be1d653f9f1", "fusion_lon": 0.0}, {"rental_uris": {"ios": "https://dc.lft.to/lastmile_qr_scan", "android": "https://dc.lft.to/lastmile_qr_scan"}, "type": "electric_scooter", "name": "2bbb1eb42d0b8a6be5aba0279555cb82", "is_reserved": 0, "lon": -77.04506133333334, "is_disabled": 0, "fusion_lat": 0.0, "lat": 38.892168166666664, "bike_id": "2bbb1eb42d0b8a6be5aba0279555cb82", "fusion_lon": 0.0}, {"rental_uris": {"ios": "https://dc.lft.to/lastmile_qr_scan", "android": "https://dc.lft.to/lastmile_qr_scan"}, "type": "electric_scooter", "name": "56eb2847c09bb5d1baf4b8e315d6d358", "is_reserved": 0, "lon": -76.9910205, "is_disabled": 0, "fusion_lat": 0.0, "lat": 38.857303333333334, "bike_id": "56eb2847c09bb5d1baf4b8e315d6d358", "fusion_lon": 0.0}, {"rental_uris": {"ios": "https://dc.lft.to/lastmile_qr_scan", "android": "https://dc.lft.to/lastmile_qr_scan"}, "type": "electric_scooter", "name": "b760a26c68cfa50f15189ccc6e05a99d", "is_reserved": 0, "lon": -77.04343266666666, "is_disabled": 0, "fusion_lat": 0.0, "lat": 38.921744833333335, "bike_id": "b760a26c68cfa50f15189ccc6e05a99d", "fusion_lon": 0.0}, {"rental_uris": {"ios": "https://dc.lft.to/lastmile_qr_scan", "android": "https://dc.lft.to/lastmile_qr_scan"}, "type": "electric_scooter", "name": "c6abdc8680eb77f169f768e11cfada19", "is_reserved": 0, "lon": -77.04301516666666, "is_disabled": 0, "fusion_lat": 0.0, "lat": 38.91106766666667, "bike_id": "c6abdc8680eb77f169f768e11cfada19", "fusion_lon": 0.0}, {"rental_uris": {"ios": "https://dc.lft.to/lastmile_qr_scan", "android": "https://dc.lft.to/lastmile_qr_scan"}, "type": "electric_scooter", "name": "28384cc8d11490c2d3d676626fa150da", "is_reserved": 0, "lon": -77.04341383333333, "is_disabled": 0, "fusion_lat": 0.0, "lat": 38.90884333333333, "bike_id": "28384cc8d11490c2d3d676626fa150da", "fusion_lon": 0.0}, {"rental_uris": {"ios": "https://dc.lft.to/lastmile_qr_scan", "android": "https://dc.lft.to/lastmile_qr_scan"}, "type": "electric_scooter", "name": "867334ee52df7bb89e117f96cd068283", "is_reserved": 0, "lon": -77.04967433333333, "is_disabled": 0, "fusion_lat": 0.0, "lat": 38.9006535, "bike_id": "867334ee52df7bb89e117f96cd068283", "fusion_lon": 0.0}, {"rental_uris": {"ios": "https://dc.lft.to/lastmile_qr_scan", "android": "https://dc.lft.to/lastmile_qr_scan"}, "type": "electric_scooter", "name": "c30bceb93b71b16a61b6b4bcf5ae9950", "is_reserved": 0, "lon": -77.0334135, "is_disabled": 0, "fusion_lat": 0.0, "lat": 38.9141725, "bike_id": "c30bceb93b71b16a61b6b4bcf5ae9950", "fusion_lon": 0.0}, {"rental_uris": {"ios": "https://dc.lft.to/lastmile_qr_scan", "android": "https://dc.lft.to/lastmile_qr_scan"}, "type": "electric_scooter", "name": "8e1b0d8091119fba298908dad079dc0c", "is_reserved": 0, "lon": -77.02201466666666, "is_disabled": 0, "fusion_lat": 0.0, "lat": 38.91128583333333, "bike_id": "8e1b0d8091119fba298908dad079dc0c", "fusion_lon": 0.0}, {"rental_uris": {"ios": "https://dc.lft.to/lastmile_qr_scan", "android": "https://dc.lft.to/lastmile_qr_scan"}, "type": "electric_scooter", "name": "760656b8ffe48a0a4cae89fe99cd14ba", "is_reserved": 0, "lon": -77.0448045, "is_disabled": 0, "fusion_lat": 0.0, "lat": 38.892167666666666, "bike_id": "760656b8ffe48a0a4cae89fe99cd14ba", "fusion_lon": 0.0}, {"rental_uris": {"ios": "https://dc.lft.to/lastmile_qr_scan", "android": "https://dc.lft.to/lastmile_qr_scan"}, "type": "electric_bike", "name": "b2003ff1839ac757e57ffb9cf7fbcb15", "is_reserved": 0, "lon": -77.08530766666667, "is_disabled": 0, "fusion_lat": 0.0, "lat": 38.856455, "bike_id": "b2003ff1839ac757e57ffb9cf7fbcb15", "fusion_lon": 0.0}, {"rental_uris": {"ios": "https://dc.lft.to/lastmile_qr_scan", "android": "https://dc.lft.to/lastmile_qr_scan"}, "type": "electric_scooter", "name": "325a2ef7f431601d8e7d106d9ee0649f", "is_reserved": 0, "lon": -76.985093, "is_disabled": 0, "fusion_lat": 0.0, "lat": 38.879887333333336, "bike_id": "325a2ef7f431601d8e7d106d9ee0649f", "fusion_lon": 0.0}, {"rental_uris": {"ios": "https://dc.lft.to/lastmile_qr_scan", "android": "https://dc.lft.to/lastmile_qr_scan"}, "type": "electric_scooter", "name": "0d03c0ef0c6db254fc64c0d02afab077", "is_reserved": 0, "lon": -77.05920283333333, "is_disabled": 0, "fusion_lat": 0.0, "lat": 38.902772166666665, "bike_id": "0d03c0ef0c6db254fc64c0d02afab077", "fusion_lon": 0.0}, {"rental_uris": {"ios": "https://dc.lft.to/lastmile_qr_scan", "android": "https://dc.lft.to/lastmile_qr_scan"}, "type": "electric_scooter", "name": "55cb27c3fe70743cdcd6d79e739c9557", "is_reserved": 0, "lon": -77.02507066666666, "is_disabled": 0, "fusion_lat": 0.0, "lat": 38.93550783333333, "bike_id": "55cb27c3fe70743cdcd6d79e739c9557", "fusion_lon": 0.0}, {"rental_uris": {"ios": "https://dc.lft.to/lastmile_qr_scan", "android": "https://dc.lft.to/lastmile_qr_scan"}, "type": "electric_scooter", "name": "28714a9da9724982e1ff5ea037cdee25", "is_reserved": 0, "lon": -77.03420116666666, "is_disabled": 0, "fusion_lat": 0.0, "lat": 38.922033166666665, "bike_id": "28714a9da9724982e1ff5ea037cdee25", "fusion_lon": 0.0}, {"rental_uris": {"ios": "https://dc.lft.to/lastmile_qr_scan", "android": "https://dc.lft.to/lastmile_qr_scan"}, "type": "electric_scooter", "name": "9051a4d380cc3b6d870ac22d4e9416c0", "is_reserved": 0, "lon": -77.06632316666666, "is_disabled": 0, "fusion_lat": 0.0, "lat": 38.90521183333333, "bike_id": "9051a4d380cc3b6d870ac22d4e9416c0", "fusion_lon": 0.0}, {"rental_uris": {"ios": "https://dc.lft.to/lastmile_qr_scan", "android": "https://dc.lft.to/lastmile_qr_scan"}, "type": "electric_scooter", "name": "26aa90076ee9a70f571306c9f73d7fe7", "is_reserved": 0, "lon": -77.0054855, "is_disabled": 0, "fusion_lat": 0.0, "lat": 38.8764205, "bike_id": "26aa90076ee9a70f571306c9f73d7fe7", "fusion_lon": 0.0}, {"rental_uris": {"ios": "https://dc.lft.to/lastmile_qr_scan", "android": "https://dc.lft.to/lastmile_qr_scan"}, "type": "electric_bike", "name": "694d8b6d727eb80afda84145f253b0a7", "is_reserved": 0, "lon": -77.12654533333334, "is_disabled": 0, "fusion_lat": 0.0, "lat": 38.819097666666664, "bike_id": "694d8b6d727eb80afda84145f253b0a7", "fusion_lon": 0.0}, {"rental_uris": {"ios": "https://dc.lft.to/lastmile_qr_scan", "android": "https://dc.lft.to/lastmile_qr_scan"}, "type": "electric_scooter", "name": "20d1a352c87f083c764aac8ae1a208d9", "is_reserved": 0, "lon": -77.064777, "is_disabled": 0, "fusion_lat": 0.0, "lat": 38.92702766666667, "bike_id": "20d1a352c87f083c764aac8ae1a208d9", "fusion_lon": 0.0}, {"rental_uris": {"ios": "https://dc.lft.to/lastmile_qr_scan", "android": "https://dc.lft.to/lastmile_qr_scan"}, "type": "electric_scooter", "name": "33bfe01e9715034fe400a620ada675af", "is_reserved": 0, "lon": -76.99383383333333, "is_disabled": 0, "fusion_lat": 0.0, "lat": 38.893383166666666, "bike_id": "33bfe01e9715034fe400a620ada675af", "fusion_lon": 0.0}, {"rental_uris": {"ios": "https://dc.lft.to/lastmile_qr_scan", "android": "https://dc.lft.to/lastmile_qr_scan"}, "type": "electric_scooter", "name": "ab7ae4ef14be3a4519c4222d93da6b7b", "is_reserved": 0, "lon": -76.98450433333333, "is_disabled": 0, "fusion_lat": 0.0, "lat": 38.90021483333334, "bike_id": "ab7ae4ef14be3a4519c4222d93da6b7b", "fusion_lon": 0.0}, {"rental_uris": {"ios": "https://dc.lft.to/lastmile_qr_scan", "android": "https://dc.lft.to/lastmile_qr_scan"}, "type": "electric_scooter", "name": "a34462e63e708b3ed0e0589167ae8fdb", "is_reserved": 0, "lon": -77.04518233333333, "is_disabled": 0, "fusion_lat": 0.0, "lat": 38.91111033333333, "bike_id": "a34462e63e708b3ed0e0589167ae8fdb", "fusion_lon": 0.0}, {"rental_uris": {"ios": "https://dc.lft.to/lastmile_qr_scan", "android": "https://dc.lft.to/lastmile_qr_scan"}, "type": "electric_scooter", "name": "41ef41b7fd25fce23dffeded456901f5", "is_reserved": 0, "lon": -77.02474616666667, "is_disabled": 0, "fusion_lat": 0.0, "lat": 38.91818216666667, "bike_id": "41ef41b7fd25fce23dffeded456901f5", "fusion_lon": 0.0}, {"rental_uris": {"ios": "https://dc.lft.to/lastmile_qr_scan", "android": "https://dc.lft.to/lastmile_qr_scan"}, "type": "electric_scooter", "name": "1dde1bf6ae7d86c596a0974a2930f02e", "is_reserved": 0, "lon": -76.99158383333334, "is_disabled": 0, "fusion_lat": 0.0, "lat": 38.8881765, "bike_id": "1dde1bf6ae7d86c596a0974a2930f02e", "fusion_lon": 0.0}, {"rental_uris": {"ios": "https://dc.lft.to/lastmile_qr_scan", "android": "https://dc.lft.to/lastmile_qr_scan"}, "type": "electric_scooter", "name": "96760987c53555e52dbbbc47e8c4a7f1", "is_reserved": 0, "lon": -77.01973016666666, "is_disabled": 0, "fusion_lat": 0.0, "lat": 38.92249866666667, "bike_id": "96760987c53555e52dbbbc47e8c4a7f1", "fusion_lon": 0.0}, {"rental_uris": {"ios": "https://dc.lft.to/lastmile_qr_scan", "android": "https://dc.lft.to/lastmile_qr_scan"}, "type": "electric_scooter", "name": "81a2490c732906eb0ee182c30b63254f", "is_reserved": 0, "lon": -77.04233333333333, "is_disabled": 0, "fusion_lat": 0.0, "lat": 38.911046166666665, "bike_id": "81a2490c732906eb0ee182c30b63254f", "fusion_lon": 0.0}, {"rental_uris": {"ios": "https://dc.lft.to/lastmile_qr_scan", "android": "https://dc.lft.to/lastmile_qr_scan"}, "type": "electric_scooter", "name": "e5724d55f2d6abef77ef03e2f9b9076c", "is_reserved": 0, "lon": -77.0007575, "is_disabled": 0, "fusion_lat": 0.0, "lat": 38.87429366666667, "bike_id": "e5724d55f2d6abef77ef03e2f9b9076c", "fusion_lon": 0.0}, {"rental_uris": {"ios": "https://dc.lft.to/lastmile_qr_scan", "android": "https://dc.lft.to/lastmile_qr_scan"}, "type": "electric_scooter", "name": "7da9421d954b52b9e160687eaf4db5c0", "is_reserved": 0, "lon": -77.0284205, "is_disabled": 0, "fusion_lat": 0.0, "lat": 38.90448083333333, "bike_id": "7da9421d954b52b9e160687eaf4db5c0", "fusion_lon": 0.0}, {"rental_uris": {"ios": "https://dc.lft.to/lastmile_qr_scan", "android": "https://dc.lft.to/lastmile_qr_scan"}, "type": "electric_scooter", "name": "110f5ff79e193feb4c9cd3c7e3f5ebde", "is_reserved": 0, "lon": -76.99857116666666, "is_disabled": 0, "fusion_lat": 0.0, "lat": 38.900265, "bike_id": "110f5ff79e193feb4c9cd3c7e3f5ebde", "fusion_lon": 0.0}, {"rental_uris": {"ios": "https://dc.lft.to/lastmile_qr_scan", "android": "https://dc.lft.to/lastmile_qr_scan"}, "type": "electric_scooter", "name": "02cd1b28f7aa9bba13d58f2da15492cc", "is_reserved": 0, "lon": -77.024114, "is_disabled": 0, "fusion_lat": 0.0, "lat": 38.93816416666667, "bike_id": "02cd1b28f7aa9bba13d58f2da15492cc", "fusion_lon": 0.0}, {"rental_uris": {"ios": "https://dc.lft.to/lastmile_qr_scan", "android": "https://dc.lft.to/lastmile_qr_scan"}, "type": "electric_scooter", "name": "3a0bcf74f56bf64c790f5034cfdd83e8", "is_reserved": 0, "lon": -77.0418655, "is_disabled": 0, "fusion_lat": 0.0, "lat": 38.9205165, "bike_id": "3a0bcf74f56bf64c790f5034cfdd83e8", "fusion_lon": 0.0}, {"rental_uris": {"ios": "https://dc.lft.to/lastmile_qr_scan", "android": "https://dc.lft.to/lastmile_qr_scan"}, "type": "electric_scooter", "name": "2765d40320a36c40786f86c6831e0b70", "is_reserved": 0, "lon": -77.02062483333333, "is_disabled": 0, "fusion_lat": 0.0, "lat": 38.908507666666665, "bike_id": "2765d40320a36c40786f86c6831e0b70", "fusion_lon": 0.0}, {"rental_uris": {"ios": "https://dc.lft.to/lastmile_qr_scan", "android": "https://dc.lft.to/lastmile_qr_scan"}, "type": "electric_scooter", "name": "4a933dfa12f123c2bcf45eed072658d9", "is_reserved": 0, "lon": -77.01872983333334, "is_disabled": 0, "fusion_lat": 0.0, "lat": 38.93054333333333, "bike_id": "4a933dfa12f123c2bcf45eed072658d9", "fusion_lon": 0.0}, {"rental_uris": {"ios": "https://dc.lft.to/lastmile_qr_scan", "android": "https://dc.lft.to/lastmile_qr_scan"}, "type": "electric_scooter", "name": "cc934b42934ba01f4a0dabc35bb78606", "is_reserved": 0, "lon": -77.02908466666666, "is_disabled": 0, "fusion_lat": 0.0, "lat": 38.94037516666667, "bike_id": "cc934b42934ba01f4a0dabc35bb78606", "fusion_lon": 0.0}, {"rental_uris": {"ios": "https://dc.lft.to/lastmile_qr_scan", "android": "https://dc.lft.to/lastmile_qr_scan"}, "type": "electric_scooter", "name": "866b7cd0850de3d1844bf30b725e79ee", "is_reserved": 0, "lon": -77.02194366666667, "is_disabled": 0, "fusion_lat": 0.0, "lat": 38.911272333333336, "bike_id": "866b7cd0850de3d1844bf30b725e79ee", "fusion_lon": 0.0}, {"rental_uris": {"ios": "https://dc.lft.to/lastmile_qr_scan", "android": "https://dc.lft.to/lastmile_qr_scan"}, "type": "electric_scooter", "name": "dc48427bdb4bcec7d55f8b6160ee9fc8", "is_reserved": 0, "lon": -76.9374195, "is_disabled": 0, "fusion_lat": 0.0, "lat": 38.89009683333333, "bike_id": "dc48427bdb4bcec7d55f8b6160ee9fc8", "fusion_lon": 0.0}, {"rental_uris": {"ios": "https://dc.lft.to/lastmile_qr_scan", "android": "https://dc.lft.to/lastmile_qr_scan"}, "type": "electric_bike", "name": "e26080a11380cf8afc359127010f8ce3", "is_reserved": 0, "lon": -77.05166766666666, "is_disabled": 0, "fusion_lat": 0.0, "lat": 38.838384, "bike_id": "e26080a11380cf8afc359127010f8ce3", "fusion_lon": 0.0}, {"rental_uris": {"ios": "https://dc.lft.to/lastmile_qr_scan", "android": "https://dc.lft.to/lastmile_qr_scan"}, "type": "electric_scooter", "name": "53eebcbd3270300173e261d8f86325fd", "is_reserved": 0, "lon": -76.97038016666667, "is_disabled": 0, "fusion_lat": 0.0, "lat": 38.87317083333333, "bike_id": "53eebcbd3270300173e261d8f86325fd", "fusion_lon": 0.0}, {"rental_uris": {"ios": "https://dc.lft.to/lastmile_qr_scan", "android": "https://dc.lft.to/lastmile_qr_scan"}, "type": "electric_scooter", "name": "b4927ac2209a350a9d03ac3f13608ecd", "is_reserved": 0, "lon": -77.04172933333334, "is_disabled": 0, "fusion_lat": 0.0, "lat": 38.90379016666667, "bike_id": "b4927ac2209a350a9d03ac3f13608ecd", "fusion_lon": 0.0}, {"rental_uris": {"ios": "https://dc.lft.to/lastmile_qr_scan", "android": "https://dc.lft.to/lastmile_qr_scan"}, "type": "electric_scooter", "name": "0ad2020f6ba1cf8794adada41d2c770f", "is_reserved": 0, "lon": -77.03187416666667, "is_disabled": 0, "fusion_lat": 0.0, "lat": 38.915682833333335, "bike_id": "0ad2020f6ba1cf8794adada41d2c770f", "fusion_lon": 0.0}, {"rental_uris": {"ios": "https://dc.lft.to/lastmile_qr_scan", "android": "https://dc.lft.to/lastmile_qr_scan"}, "type": "electric_scooter", "name": "0e13d92eeab01c2e4e40d2c2980761e5", "is_reserved": 0, "lon": -77.00801516666667, "is_disabled": 0, "fusion_lat": 0.0, "lat": 38.87832383333333, "bike_id": "0e13d92eeab01c2e4e40d2c2980761e5", "fusion_lon": 0.0}, {"rental_uris": {"ios": "https://dc.lft.to/lastmile_qr_scan", "android": "https://dc.lft.to/lastmile_qr_scan"}, "type": "electric_scooter", "name": "fc14b7988ee6710077c6b96ac94b7333", "is_reserved": 0, "lon": -77.00594966666667, "is_disabled": 0, "fusion_lat": 0.0, "lat": 38.906445166666664, "bike_id": "fc14b7988ee6710077c6b96ac94b7333", "fusion_lon": 0.0}, {"rental_uris": {"ios": "https://dc.lft.to/lastmile_qr_scan", "android": "https://dc.lft.to/lastmile_qr_scan"}, "type": "electric_bike", "name": "111928f825e549a478046b79ea7a11c4", "is_reserved": 0, "lon": -77.06698766666666, "is_disabled": 0, "fusion_lat": 0.0, "lat": 38.831705, "bike_id": "111928f825e549a478046b79ea7a11c4", "fusion_lon": 0.0}, {"rental_uris": {"ios": "https://dc.lft.to/lastmile_qr_scan", "android": "https://dc.lft.to/lastmile_qr_scan"}, "type": "electric_scooter", "name": "f48bc9a46a591c65f2dff388b9db18dc", "is_reserved": 0, "lon": -77.02169866666667, "is_disabled": 0, "fusion_lat": 0.0, "lat": 38.894987666666665, "bike_id": "f48bc9a46a591c65f2dff388b9db18dc", "fusion_lon": 0.0}, {"rental_uris": {"ios": "https://dc.lft.to/lastmile_qr_scan", "android": "https://dc.lft.to/lastmile_qr_scan"}, "type": "electric_scooter", "name": "e1e57782062bc14f970482434daf7f5a", "is_reserved": 0, "lon": -77.01753166666667, "is_disabled": 0, "fusion_lat": 0.0, "lat": 38.87692416666667, "bike_id": "e1e57782062bc14f970482434daf7f5a", "fusion_lon": 0.0}, {"rental_uris": {"ios": "https://dc.lft.to/lastmile_qr_scan", "android": "https://dc.lft.to/lastmile_qr_scan"}, "type": "electric_scooter", "name": "3de32ead072f9fe1a357ecc53914377e", "is_reserved": 0, "lon": -77.03657383333334, "is_disabled": 0, "fusion_lat": 0.0, "lat": 38.922819, "bike_id": "3de32ead072f9fe1a357ecc53914377e", "fusion_lon": 0.0}, {"rental_uris": {"ios": "https://dc.lft.to/lastmile_qr_scan", "android": "https://dc.lft.to/lastmile_qr_scan"}, "type": "electric_scooter", "name": "719826ac42291e130c22a0bf9cad7bf6", "is_reserved": 0, "lon": -77.02792633333334, "is_disabled": 0, "fusion_lat": 0.0, "lat": 38.9560915, "bike_id": "719826ac42291e130c22a0bf9cad7bf6", "fusion_lon": 0.0}, {"rental_uris": {"ios": "https://dc.lft.to/lastmile_qr_scan", "android": "https://dc.lft.to/lastmile_qr_scan"}, "type": "electric_bike", "name": "4a57a9ab9319800f146e58e808f197ae", "is_reserved": 0, "lon": -77.04495216666666, "is_disabled": 0, "fusion_lat": 0.0, "lat": 38.91708333333333, "bike_id": "4a57a9ab9319800f146e58e808f197ae", "fusion_lon": 0.0}, {"rental_uris": {"ios": "https://dc.lft.to/lastmile_qr_scan", "android": "https://dc.lft.to/lastmile_qr_scan"}, "type": "electric_scooter", "name": "17f13bb2a2baedf288355a5a82cd96e9", "is_reserved": 0, "lon": -77.0579505, "is_disabled": 0, "fusion_lat": 0.0, "lat": 38.905115333333335, "bike_id": "17f13bb2a2baedf288355a5a82cd96e9", "fusion_lon": 0.0}, {"rental_uris": {"ios": "https://dc.lft.to/lastmile_qr_scan", "android": "https://dc.lft.to/lastmile_qr_scan"}, "type": "electric_scooter", "name": "9cca994e5bbcdad5d651115c0b3656a2", "is_reserved": 0, "lon": -77.048898, "is_disabled": 0, "fusion_lat": 0.0, "lat": 38.9007655, "bike_id": "9cca994e5bbcdad5d651115c0b3656a2", "fusion_lon": 0.0}, {"rental_uris": {"ios": "https://dc.lft.to/lastmile_qr_scan", "android": "https://dc.lft.to/lastmile_qr_scan"}, "type": "electric_scooter", "name": "db5ee3087269edd5ac411d735a09c0a0", "is_reserved": 0, "lon": -77.03298116666667, "is_disabled": 0, "fusion_lat": 0.0, "lat": 38.9286775, "bike_id": "db5ee3087269edd5ac411d735a09c0a0", "fusion_lon": 0.0}, {"rental_uris": {"ios": "https://dc.lft.to/lastmile_qr_scan", "android": "https://dc.lft.to/lastmile_qr_scan"}, "type": "electric_scooter", "name": "5a3660099aeee7ae5426d95c73348986", "is_reserved": 0, "lon": -77.0215575, "is_disabled": 0, "fusion_lat": 0.0, "lat": 38.887481, "bike_id": "5a3660099aeee7ae5426d95c73348986", "fusion_lon": 0.0}, {"rental_uris": {"ios": "https://dc.lft.to/lastmile_qr_scan", "android": "https://dc.lft.to/lastmile_qr_scan"}, "type": "electric_scooter", "name": "83f568eb2fe4f66b187c1baf191f0de4", "is_reserved": 0, "lon": -77.04691333333334, "is_disabled": 0, "fusion_lat": 0.0, "lat": 38.897429, "bike_id": "83f568eb2fe4f66b187c1baf191f0de4", "fusion_lon": 0.0}, {"rental_uris": {"ios": "https://dc.lft.to/lastmile_qr_scan", "android": "https://dc.lft.to/lastmile_qr_scan"}, "type": "electric_scooter", "name": "2e9cdc487efc2721e0b8292fa3dbc92f", "is_reserved": 0, "lon": -76.99638766666666, "is_disabled": 0, "fusion_lat": 0.0, "lat": 38.88767933333333, "bike_id": "2e9cdc487efc2721e0b8292fa3dbc92f", "fusion_lon": 0.0}, {"rental_uris": {"ios": "https://dc.lft.to/lastmile_qr_scan", "android": "https://dc.lft.to/lastmile_qr_scan"}, "type": "electric_scooter", "name": "a1470da23213b8ad6782cd5fab2c9268", "is_reserved": 0, "lon": -76.97938966666666, "is_disabled": 0, "fusion_lat": 0.0, "lat": 38.9066085, "bike_id": "a1470da23213b8ad6782cd5fab2c9268", "fusion_lon": 0.0}, {"rental_uris": {"ios": "https://dc.lft.to/lastmile_qr_scan", "android": "https://dc.lft.to/lastmile_qr_scan"}, "type": "electric_scooter", "name": "151dac444f1441eaf16c31c8d09068b0", "is_reserved": 0, "lon": -77.009429, "is_disabled": 0, "fusion_lat": 0.0, "lat": 38.89877166666667, "bike_id": "151dac444f1441eaf16c31c8d09068b0", "fusion_lon": 0.0}, {"rental_uris": {"ios": "https://dc.lft.to/lastmile_qr_scan", "android": "https://dc.lft.to/lastmile_qr_scan"}, "type": "electric_scooter", "name": "ad9f7a59f5349fc369d057c15402dd7f", "is_reserved": 0, "lon": -77.03327333333333, "is_disabled": 0, "fusion_lat": 0.0, "lat": 38.9191805, "bike_id": "ad9f7a59f5349fc369d057c15402dd7f", "fusion_lon": 0.0}, {"rental_uris": {"ios": "https://dc.lft.to/lastmile_qr_scan", "android": "https://dc.lft.to/lastmile_qr_scan"}, "type": "electric_bike", "name": "d5c0212de36e397f9ae675e712a73ac8", "is_reserved": 0, "lon": -77.0025285, "is_disabled": 0, "fusion_lat": 0.0, "lat": 38.821789333333335, "bike_id": "d5c0212de36e397f9ae675e712a73ac8", "fusion_lon": 0.0}, {"rental_uris": {"ios": "https://dc.lft.to/lastmile_qr_scan", "android": "https://dc.lft.to/lastmile_qr_scan"}, "type": "electric_scooter", "name": "14d38011eead0caea86e4a1c7abb1c3f", "is_reserved": 0, "lon": -77.035041, "is_disabled": 0, "fusion_lat": 0.0, "lat": 38.9214925, "bike_id": "14d38011eead0caea86e4a1c7abb1c3f", "fusion_lon": 0.0}, {"rental_uris": {"ios": "https://dc.lft.to/lastmile_qr_scan", "android": "https://dc.lft.to/lastmile_qr_scan"}, "type": "electric_bike", "name": "d4985ff62a86e1f45bb9d9908895daba", "is_reserved": 0, "lon": -76.98096433333333, "is_disabled": 0, "fusion_lat": 0.0, "lat": 38.953561, "bike_id": "d4985ff62a86e1f45bb9d9908895daba", "fusion_lon": 0.0}, {"rental_uris": {"ios": "https://dc.lft.to/lastmile_qr_scan", "android": "https://dc.lft.to/lastmile_qr_scan"}, "type": "electric_scooter", "name": "927e0a4d4553bb71c89f9f6cb3549355", "is_reserved": 0, "lon": -77.02408416666667, "is_disabled": 0, "fusion_lat": 0.0, "lat": 38.9338085, "bike_id": "927e0a4d4553bb71c89f9f6cb3549355", "fusion_lon": 0.0}, {"rental_uris": {"ios": "https://dc.lft.to/lastmile_qr_scan", "android": "https://dc.lft.to/lastmile_qr_scan"}, "type": "electric_bike", "name": "fd5a700fea5d34a3a93e27fd3d3a6a55", "is_reserved": 0, "lon": -76.98689566666667, "is_disabled": 0, "fusion_lat": 0.0, "lat": 38.94479183333333, "bike_id": "fd5a700fea5d34a3a93e27fd3d3a6a55", "fusion_lon": 0.0}, {"rental_uris": {"ios": "https://dc.lft.to/lastmile_qr_scan", "android": "https://dc.lft.to/lastmile_qr_scan"}, "type": "electric_scooter", "name": "8188bc720c6c6d235fcf4db26b65c005", "is_reserved": 0, "lon": -77.03852066666667, "is_disabled": 0, "fusion_lat": 0.0, "lat": 38.91174066666667, "bike_id": "8188bc720c6c6d235fcf4db26b65c005", "fusion_lon": 0.0}, {"rental_uris": {"ios": "https://dc.lft.to/lastmile_qr_scan", "android": "https://dc.lft.to/lastmile_qr_scan"}, "type": "electric_scooter", "name": "9cf45cef56fe22d6dcef93a516eeee76", "is_reserved": 0, "lon": -77.01302183333334, "is_disabled": 0, "fusion_lat": 0.0, "lat": 38.9018965, "bike_id": "9cf45cef56fe22d6dcef93a516eeee76", "fusion_lon": 0.0}, {"rental_uris": {"ios": "https://dc.lft.to/lastmile_qr_scan", "android": "https://dc.lft.to/lastmile_qr_scan"}, "type": "electric_scooter", "name": "dceea9129ae926435a0e4a62387d01ac", "is_reserved": 0, "lon": -76.99909783333334, "is_disabled": 0, "fusion_lat": 0.0, "lat": 38.93753, "bike_id": "dceea9129ae926435a0e4a62387d01ac", "fusion_lon": 0.0}, {"rental_uris": {"ios": "https://dc.lft.to/lastmile_qr_scan", "android": "https://dc.lft.to/lastmile_qr_scan"}, "type": "electric_scooter", "name": "70ef5d7d04fd81359e3b44f8227afabd", "is_reserved": 0, "lon": -77.02352716666667, "is_disabled": 0, "fusion_lat": 0.0, "lat": 38.930488, "bike_id": "70ef5d7d04fd81359e3b44f8227afabd", "fusion_lon": 0.0}, {"rental_uris": {"ios": "https://dc.lft.to/lastmile_qr_scan", "android": "https://dc.lft.to/lastmile_qr_scan"}, "type": "electric_scooter", "name": "5cc5d56fb57b97d2aa957465e59f43a7", "is_reserved": 0, "lon": -77.038476, "is_disabled": 0, "fusion_lat": 0.0, "lat": 38.9098805, "bike_id": "5cc5d56fb57b97d2aa957465e59f43a7", "fusion_lon": 0.0}, {"rental_uris": {"ios": "https://dc.lft.to/lastmile_qr_scan", "android": "https://dc.lft.to/lastmile_qr_scan"}, "type": "electric_scooter", "name": "1bc00318f7af6d88cf2c6d3a9c8ca458", "is_reserved": 0, "lon": -77.0316505, "is_disabled": 0, "fusion_lat": 0.0, "lat": 38.90611033333333, "bike_id": "1bc00318f7af6d88cf2c6d3a9c8ca458", "fusion_lon": 0.0}, {"rental_uris": {"ios": "https://dc.lft.to/lastmile_qr_scan", "android": "https://dc.lft.to/lastmile_qr_scan"}, "type": "electric_scooter", "name": "06bda2b188fc842e7ccae97d48b168f5", "is_reserved": 0, "lon": -76.99609633333333, "is_disabled": 0, "fusion_lat": 0.0, "lat": 38.886219, "bike_id": "06bda2b188fc842e7ccae97d48b168f5", "fusion_lon": 0.0}, {"rental_uris": {"ios": "https://dc.lft.to/lastmile_qr_scan", "android": "https://dc.lft.to/lastmile_qr_scan"}, "type": "electric_scooter", "name": "08b86d889713f9befb790c658eda2ee6", "is_reserved": 0, "lon": -77.00354066666667, "is_disabled": 0, "fusion_lat": 0.0, "lat": 38.8993445, "bike_id": "08b86d889713f9befb790c658eda2ee6", "fusion_lon": 0.0}, {"rental_uris": {"ios": "https://dc.lft.to/lastmile_qr_scan", "android": "https://dc.lft.to/lastmile_qr_scan"}, "type": "electric_scooter", "name": "af46819a3cb28bd10b50259e465f401c", "is_reserved": 0, "lon": -77.04169016666667, "is_disabled": 0, "fusion_lat": 0.0, "lat": 38.918290999999996, "bike_id": "af46819a3cb28bd10b50259e465f401c", "fusion_lon": 0.0}, {"rental_uris": {"ios": "https://dc.lft.to/lastmile_qr_scan", "android": "https://dc.lft.to/lastmile_qr_scan"}, "type": "electric_bike", "name": "f5c8b1137ef919ca8cb4f0444aa8a557", "is_reserved": 0, "lon": -77.2218835, "is_disabled": 0, "fusion_lat": 0.0, "lat": 38.87175383333334, "bike_id": "f5c8b1137ef919ca8cb4f0444aa8a557", "fusion_lon": 0.0}, {"rental_uris": {"ios": "https://dc.lft.to/lastmile_qr_scan", "android": "https://dc.lft.to/lastmile_qr_scan"}, "type": "electric_scooter", "name": "33731b735b5eee375213a686c117e204", "is_reserved": 0, "lon": -77.025616, "is_disabled": 0, "fusion_lat": 0.0, "lat": 38.920351333333336, "bike_id": "33731b735b5eee375213a686c117e204", "fusion_lon": 0.0}, {"rental_uris": {"ios": "https://dc.lft.to/lastmile_qr_scan", "android": "https://dc.lft.to/lastmile_qr_scan"}, "type": "electric_scooter", "name": "75ce36c08fca84cc5b16ed005cbd91cd", "is_reserved": 0, "lon": -77.028163, "is_disabled": 0, "fusion_lat": 0.0, "lat": 38.91117883333333, "bike_id": "75ce36c08fca84cc5b16ed005cbd91cd", "fusion_lon": 0.0}, {"rental_uris": {"ios": "https://dc.lft.to/lastmile_qr_scan", "android": "https://dc.lft.to/lastmile_qr_scan"}, "type": "electric_bike", "name": "da530184595b934fa2bbda7d8562bdee", "is_reserved": 0, "lon": -77.07653883333333, "is_disabled": 0, "fusion_lat": 0.0, "lat": 38.888576, "bike_id": "da530184595b934fa2bbda7d8562bdee", "fusion_lon": 0.0}, {"rental_uris": {"ios": "https://dc.lft.to/lastmile_qr_scan", "android": "https://dc.lft.to/lastmile_qr_scan"}, "type": "electric_scooter", "name": "2d7fba8f3a8a1ad1547469cb42750167", "is_reserved": 0, "lon": -77.03468216666667, "is_disabled": 0, "fusion_lat": 0.0, "lat": 38.91267783333333, "bike_id": "2d7fba8f3a8a1ad1547469cb42750167", "fusion_lon": 0.0}, {"rental_uris": {"ios": "https://dc.lft.to/lastmile_qr_scan", "android": "https://dc.lft.to/lastmile_qr_scan"}, "type": "electric_scooter", "name": "68fb48e4a1ab15ca14d6beb2066dfe44", "is_reserved": 0, "lon": -77.02116433333333, "is_disabled": 0, "fusion_lat": 0.0, "lat": 38.9141625, "bike_id": "68fb48e4a1ab15ca14d6beb2066dfe44", "fusion_lon": 0.0}, {"rental_uris": {"ios": "https://dc.lft.to/lastmile_qr_scan", "android": "https://dc.lft.to/lastmile_qr_scan"}, "type": "electric_scooter", "name": "1bad5651b2d94b6aafc5b7f96f7a51a0", "is_reserved": 0, "lon": -77.02983016666667, "is_disabled": 0, "fusion_lat": 0.0, "lat": 38.92420216666667, "bike_id": "1bad5651b2d94b6aafc5b7f96f7a51a0", "fusion_lon": 0.0}, {"rental_uris": {"ios": "https://dc.lft.to/lastmile_qr_scan", "android": "https://dc.lft.to/lastmile_qr_scan"}, "type": "electric_scooter", "name": "2c977e62746e712c32d45330164ff779", "is_reserved": 0, "lon": -77.01863433333334, "is_disabled": 0, "fusion_lat": 0.0, "lat": 38.95150566666667, "bike_id": "2c977e62746e712c32d45330164ff779", "fusion_lon": 0.0}, {"rental_uris": {"ios": "https://dc.lft.to/lastmile_qr_scan", "android": "https://dc.lft.to/lastmile_qr_scan"}, "type": "electric_scooter", "name": "6d738de109a2356b64342f27c02c51bc", "is_reserved": 0, "lon": -77.04129883333333, "is_disabled": 0, "fusion_lat": 0.0, "lat": 38.91405433333333, "bike_id": "6d738de109a2356b64342f27c02c51bc", "fusion_lon": 0.0}, {"rental_uris": {"ios": "https://dc.lft.to/lastmile_qr_scan", "android": "https://dc.lft.to/lastmile_qr_scan"}, "type": "electric_scooter", "name": "7de98b579c6f101965dc438193a2f8f8", "is_reserved": 0, "lon": -76.99044733333334, "is_disabled": 0, "fusion_lat": 0.0, "lat": 38.92475116666667, "bike_id": "7de98b579c6f101965dc438193a2f8f8", "fusion_lon": 0.0}, {"rental_uris": {"ios": "https://dc.lft.to/lastmile_qr_scan", "android": "https://dc.lft.to/lastmile_qr_scan"}, "type": "electric_bike", "name": "ee2fccebcb218157bf3ac2d3f8b884f2", "is_reserved": 0, "lon": -76.98927283333333, "is_disabled": 0, "fusion_lat": 0.0, "lat": 38.882026333333336, "bike_id": "ee2fccebcb218157bf3ac2d3f8b884f2", "fusion_lon": 0.0}, {"rental_uris": {"ios": "https://dc.lft.to/lastmile_qr_scan", "android": "https://dc.lft.to/lastmile_qr_scan"}, "type": "electric_scooter", "name": "562bea09b720eb798371a133e293e3c3", "is_reserved": 0, "lon": -77.032874, "is_disabled": 0, "fusion_lat": 0.0, "lat": 38.90434416666667, "bike_id": "562bea09b720eb798371a133e293e3c3", "fusion_lon": 0.0}, {"rental_uris": {"ios": "https://dc.lft.to/lastmile_qr_scan", "android": "https://dc.lft.to/lastmile_qr_scan"}, "type": "electric_scooter", "name": "511ad03a1184be5ada81889a85ec3551", "is_reserved": 0, "lon": -77.04062833333333, "is_disabled": 0, "fusion_lat": 0.0, "lat": 38.91767316666667, "bike_id": "511ad03a1184be5ada81889a85ec3551", "fusion_lon": 0.0}, {"rental_uris": {"ios": "https://dc.lft.to/lastmile_qr_scan", "android": "https://dc.lft.to/lastmile_qr_scan"}, "type": "electric_scooter", "name": "2aff0bfcd3456c4438def7f3e635410a", "is_reserved": 0, "lon": -77.01620083333333, "is_disabled": 0, "fusion_lat": 0.0, "lat": 38.89807833333333, "bike_id": "2aff0bfcd3456c4438def7f3e635410a", "fusion_lon": 0.0}, {"rental_uris": {"ios": "https://dc.lft.to/lastmile_qr_scan", "android": "https://dc.lft.to/lastmile_qr_scan"}, "type": "electric_scooter", "name": "c4278098ad6314ae2d45688a3d54b9ea", "is_reserved": 0, "lon": -77.04869333333333, "is_disabled": 0, "fusion_lat": 0.0, "lat": 38.912671333333336, "bike_id": "c4278098ad6314ae2d45688a3d54b9ea", "fusion_lon": 0.0}, {"rental_uris": {"ios": "https://dc.lft.to/lastmile_qr_scan", "android": "https://dc.lft.to/lastmile_qr_scan"}, "type": "electric_scooter", "name": "eef46c40f6d025cdcf9f75e2b0ab7527", "is_reserved": 0, "lon": -76.98380666666667, "is_disabled": 0, "fusion_lat": 0.0, "lat": 38.89137616666667, "bike_id": "eef46c40f6d025cdcf9f75e2b0ab7527", "fusion_lon": 0.0}, {"rental_uris": {"ios": "https://dc.lft.to/lastmile_qr_scan", "android": "https://dc.lft.to/lastmile_qr_scan"}, "type": "electric_scooter", "name": "e06860393ebcce936eb9314ab2767345", "is_reserved": 0, "lon": -77.02832966666666, "is_disabled": 0, "fusion_lat": 0.0, "lat": 38.957223166666665, "bike_id": "e06860393ebcce936eb9314ab2767345", "fusion_lon": 0.0}, {"rental_uris": {"ios": "https://dc.lft.to/lastmile_qr_scan", "android": "https://dc.lft.to/lastmile_qr_scan"}, "type": "electric_scooter", "name": "b01913f9fb79047124ea7d3619b08e95", "is_reserved": 0, "lon": -77.03641483333334, "is_disabled": 0, "fusion_lat": 0.0, "lat": 38.92268816666667, "bike_id": "b01913f9fb79047124ea7d3619b08e95", "fusion_lon": 0.0}, {"rental_uris": {"ios": "https://dc.lft.to/lastmile_qr_scan", "android": "https://dc.lft.to/lastmile_qr_scan"}, "type": "electric_scooter", "name": "e4f235aa2383c87c847341ae5941d2c7", "is_reserved": 0, "lon": -77.04058883333333, "is_disabled": 0, "fusion_lat": 0.0, "lat": 38.92546516666667, "bike_id": "e4f235aa2383c87c847341ae5941d2c7", "fusion_lon": 0.0}, {"rental_uris": {"ios": "https://dc.lft.to/lastmile_qr_scan", "android": "https://dc.lft.to/lastmile_qr_scan"}, "type": "electric_scooter", "name": "f37188f86bf061dcd5bc0c768c81404f", "is_reserved": 0, "lon": -77.04883216666667, "is_disabled": 0, "fusion_lat": 0.0, "lat": 38.910564, "bike_id": "f37188f86bf061dcd5bc0c768c81404f", "fusion_lon": 0.0}, {"rental_uris": {"ios": "https://dc.lft.to/lastmile_qr_scan", "android": "https://dc.lft.to/lastmile_qr_scan"}, "type": "electric_scooter", "name": "dd2ff4cc12cf4aea9d55e2e49d00dab0", "is_reserved": 0, "lon": -77.043309, "is_disabled": 0, "fusion_lat": 0.0, "lat": 38.93416283333333, "bike_id": "dd2ff4cc12cf4aea9d55e2e49d00dab0", "fusion_lon": 0.0}, {"rental_uris": {"ios": "https://dc.lft.to/lastmile_qr_scan", "android": "https://dc.lft.to/lastmile_qr_scan"}, "type": "electric_scooter", "name": "f0393a2362f48248fab710c0935c80ee", "is_reserved": 0, "lon": -76.98443983333334, "is_disabled": 0, "fusion_lat": 0.0, "lat": 38.91464916666666, "bike_id": "f0393a2362f48248fab710c0935c80ee", "fusion_lon": 0.0}, {"rental_uris": {"ios": "https://dc.lft.to/lastmile_qr_scan", "android": "https://dc.lft.to/lastmile_qr_scan"}, "type": "electric_scooter", "name": "ee74c565ae55d15934bac315178cedf9", "is_reserved": 0, "lon": -77.06838, "is_disabled": 0, "fusion_lat": 0.0, "lat": 38.917299, "bike_id": "ee74c565ae55d15934bac315178cedf9", "fusion_lon": 0.0}, {"rental_uris": {"ios": "https://dc.lft.to/lastmile_qr_scan", "android": "https://dc.lft.to/lastmile_qr_scan"}, "type": "electric_bike", "name": "e98133c80f785707ec2d050dd4ec2318", "is_reserved": 0, "lon": -77.1141765, "is_disabled": 0, "fusion_lat": 0.0, "lat": 38.8731905, "bike_id": "e98133c80f785707ec2d050dd4ec2318", "fusion_lon": 0.0}, {"rental_uris": {"ios": "https://dc.lft.to/lastmile_qr_scan", "android": "https://dc.lft.to/lastmile_qr_scan"}, "type": "electric_scooter", "name": "bc6b41533bc0c94352cb0a7b88e34df6", "is_reserved": 0, "lon": -77.0380915, "is_disabled": 0, "fusion_lat": 0.0, "lat": 38.91417033333333, "bike_id": "bc6b41533bc0c94352cb0a7b88e34df6", "fusion_lon": 0.0}, {"rental_uris": {"ios": "https://dc.lft.to/lastmile_qr_scan", "android": "https://dc.lft.to/lastmile_qr_scan"}, "type": "electric_scooter", "name": "baf87898ada108e1baa0d6317c747c47", "is_reserved": 0, "lon": -77.02954116666666, "is_disabled": 0, "fusion_lat": 0.0, "lat": 38.905068166666666, "bike_id": "baf87898ada108e1baa0d6317c747c47", "fusion_lon": 0.0}, {"rental_uris": {"ios": "https://dc.lft.to/lastmile_qr_scan", "android": "https://dc.lft.to/lastmile_qr_scan"}, "type": "electric_bike", "name": "96ddf0d2f2072f0113e7e9222afbe30a", "is_reserved": 0, "lon": -76.98251316666666, "is_disabled": 0, "fusion_lat": 0.0, "lat": 38.952423, "bike_id": "96ddf0d2f2072f0113e7e9222afbe30a", "fusion_lon": 0.0}, {"rental_uris": {"ios": "https://dc.lft.to/lastmile_qr_scan", "android": "https://dc.lft.to/lastmile_qr_scan"}, "type": "electric_scooter", "name": "937161ef28131356d912a58143604c2e", "is_reserved": 0, "lon": -77.04085, "is_disabled": 0, "fusion_lat": 0.0, "lat": 38.94786216666667, "bike_id": "937161ef28131356d912a58143604c2e", "fusion_lon": 0.0}, {"rental_uris": {"ios": "https://dc.lft.to/lastmile_qr_scan", "android": "https://dc.lft.to/lastmile_qr_scan"}, "type": "electric_bike", "name": "25029d79ca2c7f094d847865e5752926", "is_reserved": 0, "lon": -76.98019916666667, "is_disabled": 0, "fusion_lat": 0.0, "lat": 38.853148, "bike_id": "25029d79ca2c7f094d847865e5752926", "fusion_lon": 0.0}, {"rental_uris": {"ios": "https://dc.lft.to/lastmile_qr_scan", "android": "https://dc.lft.to/lastmile_qr_scan"}, "type": "electric_scooter", "name": "1b491c50792e3f9fd1fcaf075f37682a", "is_reserved": 0, "lon": -76.98153866666667, "is_disabled": 0, "fusion_lat": 0.0, "lat": 38.89937483333333, "bike_id": "1b491c50792e3f9fd1fcaf075f37682a", "fusion_lon": 0.0}, {"rental_uris": {"ios": "https://dc.lft.to/lastmile_qr_scan", "android": "https://dc.lft.to/lastmile_qr_scan"}, "type": "electric_scooter", "name": "90438cd3be3d0cfe3e9c95679ebfd6eb", "is_reserved": 0, "lon": -77.01959583333333, "is_disabled": 0, "fusion_lat": 0.0, "lat": 38.923269833333336, "bike_id": "90438cd3be3d0cfe3e9c95679ebfd6eb", "fusion_lon": 0.0}, {"rental_uris": {"ios": "https://dc.lft.to/lastmile_qr_scan", "android": "https://dc.lft.to/lastmile_qr_scan"}, "type": "electric_scooter", "name": "abd42405d94ad4ec1dcf68d0195b6cf2", "is_reserved": 0, "lon": -77.03187933333334, "is_disabled": 0, "fusion_lat": 0.0, "lat": 38.9156645, "bike_id": "abd42405d94ad4ec1dcf68d0195b6cf2", "fusion_lon": 0.0}, {"rental_uris": {"ios": "https://dc.lft.to/lastmile_qr_scan", "android": "https://dc.lft.to/lastmile_qr_scan"}, "type": "electric_scooter", "name": "f88f0998f09d53e356f73c79f19e961c", "is_reserved": 0, "lon": -77.00625866666667, "is_disabled": 0, "fusion_lat": 0.0, "lat": 38.871730166666666, "bike_id": "f88f0998f09d53e356f73c79f19e961c", "fusion_lon": 0.0}, {"rental_uris": {"ios": "https://dc.lft.to/lastmile_qr_scan", "android": "https://dc.lft.to/lastmile_qr_scan"}, "type": "electric_scooter", "name": "5bb57c348baa02c49073d80e432cd6cb", "is_reserved": 0, "lon": -77.0321195, "is_disabled": 0, "fusion_lat": 0.0, "lat": 38.92188266666667, "bike_id": "5bb57c348baa02c49073d80e432cd6cb", "fusion_lon": 0.0}, {"rental_uris": {"ios": "https://dc.lft.to/lastmile_qr_scan", "android": "https://dc.lft.to/lastmile_qr_scan"}, "type": "electric_scooter", "name": "7b14adc8cc0a64518d6bd0c0327a4392", "is_reserved": 0, "lon": -77.04566666666666, "is_disabled": 0, "fusion_lat": 0.0, "lat": 38.9206515, "bike_id": "7b14adc8cc0a64518d6bd0c0327a4392", "fusion_lon": 0.0}, {"rental_uris": {"ios": "https://dc.lft.to/lastmile_qr_scan", "android": "https://dc.lft.to/lastmile_qr_scan"}, "type": "electric_scooter", "name": "ca24ed3c2e582d3d823f33c4bffd3841", "is_reserved": 0, "lon": -77.04177683333333, "is_disabled": 0, "fusion_lat": 0.0, "lat": 38.916067, "bike_id": "ca24ed3c2e582d3d823f33c4bffd3841", "fusion_lon": 0.0}, {"rental_uris": {"ios": "https://dc.lft.to/lastmile_qr_scan", "android": "https://dc.lft.to/lastmile_qr_scan"}, "type": "electric_scooter", "name": "59838eb396f718de0e1ec1671d78c23f", "is_reserved": 0, "lon": -77.03670016666666, "is_disabled": 0, "fusion_lat": 0.0, "lat": 38.921238, "bike_id": "59838eb396f718de0e1ec1671d78c23f", "fusion_lon": 0.0}, {"rental_uris": {"ios": "https://dc.lft.to/lastmile_qr_scan", "android": "https://dc.lft.to/lastmile_qr_scan"}, "type": "electric_scooter", "name": "e14f070bcb089bded44aaa483b3dddf2", "is_reserved": 0, "lon": -77.04215816666667, "is_disabled": 0, "fusion_lat": 0.0, "lat": 38.92132933333333, "bike_id": "e14f070bcb089bded44aaa483b3dddf2", "fusion_lon": 0.0}, {"rental_uris": {"ios": "https://dc.lft.to/lastmile_qr_scan", "android": "https://dc.lft.to/lastmile_qr_scan"}, "type": "electric_scooter", "name": "da53bc0933307b45dbe62aaf2764585f", "is_reserved": 0, "lon": -77.0334155, "is_disabled": 0, "fusion_lat": 0.0, "lat": 38.930421, "bike_id": "da53bc0933307b45dbe62aaf2764585f", "fusion_lon": 0.0}, {"rental_uris": {"ios": "https://dc.lft.to/lastmile_qr_scan", "android": "https://dc.lft.to/lastmile_qr_scan"}, "type": "electric_scooter", "name": "f9ebe43de049a53c00fb57d6ae49fbe2", "is_reserved": 0, "lon": -77.00572166666667, "is_disabled": 0, "fusion_lat": 0.0, "lat": 38.878642666666664, "bike_id": "f9ebe43de049a53c00fb57d6ae49fbe2", "fusion_lon": 0.0}, {"rental_uris": {"ios": "https://dc.lft.to/lastmile_qr_scan", "android": "https://dc.lft.to/lastmile_qr_scan"}, "type": "electric_scooter", "name": "2df05a9c5f8c8ce0f06339f524b91090", "is_reserved": 0, "lon": -77.00111766666667, "is_disabled": 0, "fusion_lat": 0.0, "lat": 38.9024485, "bike_id": "2df05a9c5f8c8ce0f06339f524b91090", "fusion_lon": 0.0}, {"rental_uris": {"ios": "https://dc.lft.to/lastmile_qr_scan", "android": "https://dc.lft.to/lastmile_qr_scan"}, "type": "electric_scooter", "name": "4eb9cf7be826f62b391807e1234b0926", "is_reserved": 0, "lon": -77.038665, "is_disabled": 0, "fusion_lat": 0.0, "lat": 38.908196, "bike_id": "4eb9cf7be826f62b391807e1234b0926", "fusion_lon": 0.0}, {"rental_uris": {"ios": "https://dc.lft.to/lastmile_qr_scan", "android": "https://dc.lft.to/lastmile_qr_scan"}, "type": "electric_scooter", "name": "b86837f636eff27277b38754ad77b4ad", "is_reserved": 0, "lon": -77.0161135, "is_disabled": 0, "fusion_lat": 0.0, "lat": 38.90608133333333, "bike_id": "b86837f636eff27277b38754ad77b4ad", "fusion_lon": 0.0}, {"rental_uris": {"ios": "https://dc.lft.to/lastmile_qr_scan", "android": "https://dc.lft.to/lastmile_qr_scan"}, "type": "electric_scooter", "name": "9a3087aed251423ab0374fe3e2ce5c3d", "is_reserved": 0, "lon": -76.99009833333334, "is_disabled": 0, "fusion_lat": 0.0, "lat": 38.8642675, "bike_id": "9a3087aed251423ab0374fe3e2ce5c3d", "fusion_lon": 0.0}, {"rental_uris": {"ios": "https://dc.lft.to/lastmile_qr_scan", "android": "https://dc.lft.to/lastmile_qr_scan"}, "type": "electric_scooter", "name": "dd50f5de8fce5da613fe72db0775a8fc", "is_reserved": 0, "lon": -77.0318625, "is_disabled": 0, "fusion_lat": 0.0, "lat": 38.918251833333336, "bike_id": "dd50f5de8fce5da613fe72db0775a8fc", "fusion_lon": 0.0}, {"rental_uris": {"ios": "https://dc.lft.to/lastmile_qr_scan", "android": "https://dc.lft.to/lastmile_qr_scan"}, "type": "electric_scooter", "name": "de3d26d47babadd19d10070f3204c539", "is_reserved": 0, "lon": -76.99211716666667, "is_disabled": 0, "fusion_lat": 0.0, "lat": 38.88972166666667, "bike_id": "de3d26d47babadd19d10070f3204c539", "fusion_lon": 0.0}, {"rental_uris": {"ios": "https://dc.lft.to/lastmile_qr_scan", "android": "https://dc.lft.to/lastmile_qr_scan"}, "type": "electric_scooter", "name": "bd38ba3b3025a51799af8fba353b7e70", "is_reserved": 0, "lon": -77.03454633333334, "is_disabled": 0, "fusion_lat": 0.0, "lat": 38.90734966666667, "bike_id": "bd38ba3b3025a51799af8fba353b7e70", "fusion_lon": 0.0}, {"rental_uris": {"ios": "https://dc.lft.to/lastmile_qr_scan", "android": "https://dc.lft.to/lastmile_qr_scan"}, "type": "electric_scooter", "name": "244ae31e99a9eff69e6ca7779df16d89", "is_reserved": 0, "lon": -76.99477666666667, "is_disabled": 0, "fusion_lat": 0.0, "lat": 38.862134, "bike_id": "244ae31e99a9eff69e6ca7779df16d89", "fusion_lon": 0.0}, {"rental_uris": {"ios": "https://dc.lft.to/lastmile_qr_scan", "android": "https://dc.lft.to/lastmile_qr_scan"}, "type": "electric_scooter", "name": "77bcf114e56d680188d0feacec12ff1e", "is_reserved": 0, "lon": -77.03809216666667, "is_disabled": 0, "fusion_lat": 0.0, "lat": 38.925437, "bike_id": "77bcf114e56d680188d0feacec12ff1e", "fusion_lon": 0.0}, {"rental_uris": {"ios": "https://dc.lft.to/lastmile_qr_scan", "android": "https://dc.lft.to/lastmile_qr_scan"}, "type": "electric_scooter", "name": "8ead2ca41777bd0b6406c1ce34f8ae00", "is_reserved": 0, "lon": -77.06140416666666, "is_disabled": 0, "fusion_lat": 0.0, "lat": 38.912979166666666, "bike_id": "8ead2ca41777bd0b6406c1ce34f8ae00", "fusion_lon": 0.0}, {"rental_uris": {"ios": "https://dc.lft.to/lastmile_qr_scan", "android": "https://dc.lft.to/lastmile_qr_scan"}, "type": "electric_bike", "name": "91f307e84efb98b83e308bc9933c023d", "is_reserved": 0, "lon": -76.96265416666667, "is_disabled": 0, "fusion_lat": 0.0, "lat": 38.96783666666666, "bike_id": "91f307e84efb98b83e308bc9933c023d", "fusion_lon": 0.0}, {"rental_uris": {"ios": "https://dc.lft.to/lastmile_qr_scan", "android": "https://dc.lft.to/lastmile_qr_scan"}, "type": "electric_scooter", "name": "49183ed8da43661464caa360f84c612d", "is_reserved": 0, "lon": -77.02200533333334, "is_disabled": 0, "fusion_lat": 0.0, "lat": 38.905529666666666, "bike_id": "49183ed8da43661464caa360f84c612d", "fusion_lon": 0.0}, {"rental_uris": {"ios": "https://dc.lft.to/lastmile_qr_scan", "android": "https://dc.lft.to/lastmile_qr_scan"}, "type": "electric_scooter", "name": "e2027fd8deb6b3c3b571c247337010cb", "is_reserved": 0, "lon": -77.02593166666666, "is_disabled": 0, "fusion_lat": 0.0, "lat": 38.95819933333333, "bike_id": "e2027fd8deb6b3c3b571c247337010cb", "fusion_lon": 0.0}, {"rental_uris": {"ios": "https://dc.lft.to/lastmile_qr_scan", "android": "https://dc.lft.to/lastmile_qr_scan"}, "type": "electric_bike", "name": "7d07e53dc0ea186ad92ae9e5661e99d7", "is_reserved": 0, "lon": -77.03628116666667, "is_disabled": 0, "fusion_lat": 0.0, "lat": 38.97298333333333, "bike_id": "7d07e53dc0ea186ad92ae9e5661e99d7", "fusion_lon": 0.0}, {"rental_uris": {"ios": "https://dc.lft.to/lastmile_qr_scan", "android": "https://dc.lft.to/lastmile_qr_scan"}, "type": "electric_scooter", "name": "d91897ed8e17fb1ea3a5165b3eac3244", "is_reserved": 0, "lon": -77.0435035, "is_disabled": 0, "fusion_lat": 0.0, "lat": 38.90732033333333, "bike_id": "d91897ed8e17fb1ea3a5165b3eac3244", "fusion_lon": 0.0}, {"rental_uris": {"ios": "https://dc.lft.to/lastmile_qr_scan", "android": "https://dc.lft.to/lastmile_qr_scan"}, "type": "electric_scooter", "name": "3386b70aa26be2b6e8b8eed5ae45a71c", "is_reserved": 0, "lon": -77.03180266666666, "is_disabled": 0, "fusion_lat": 0.0, "lat": 38.9134155, "bike_id": "3386b70aa26be2b6e8b8eed5ae45a71c", "fusion_lon": 0.0}, {"rental_uris": {"ios": "https://dc.lft.to/lastmile_qr_scan", "android": "https://dc.lft.to/lastmile_qr_scan"}, "type": "electric_bike", "name": "a65423c9929aa70456adbc19a7426740", "is_reserved": 0, "lon": -77.10214766666667, "is_disabled": 0, "fusion_lat": 0.0, "lat": 38.919946, "bike_id": "a65423c9929aa70456adbc19a7426740", "fusion_lon": 0.0}, {"rental_uris": {"ios": "https://dc.lft.to/lastmile_qr_scan", "android": "https://dc.lft.to/lastmile_qr_scan"}, "type": "electric_bike", "name": "88d39a93c462f0234b104dceaeed2ed8", "is_reserved": 0, "lon": -76.986848, "is_disabled": 0, "fusion_lat": 0.0, "lat": 38.94478133333333, "bike_id": "88d39a93c462f0234b104dceaeed2ed8", "fusion_lon": 0.0}, {"rental_uris": {"ios": "https://dc.lft.to/lastmile_qr_scan", "android": "https://dc.lft.to/lastmile_qr_scan"}, "type": "electric_scooter", "name": "5701b4f65cf5fca4804546f872d26f24", "is_reserved": 0, "lon": -77.02236566666667, "is_disabled": 0, "fusion_lat": 0.0, "lat": 38.892238, "bike_id": "5701b4f65cf5fca4804546f872d26f24", "fusion_lon": 0.0}, {"rental_uris": {"ios": "https://dc.lft.to/lastmile_qr_scan", "android": "https://dc.lft.to/lastmile_qr_scan"}, "type": "electric_scooter", "name": "1dea0045906e56ac839fa6d376fd42c7", "is_reserved": 0, "lon": -77.0175995, "is_disabled": 0, "fusion_lat": 0.0, "lat": 38.876872, "bike_id": "1dea0045906e56ac839fa6d376fd42c7", "fusion_lon": 0.0}, {"rental_uris": {"ios": "https://dc.lft.to/lastmile_qr_scan", "android": "https://dc.lft.to/lastmile_qr_scan"}, "type": "electric_scooter", "name": "955333aa69dfe5db4c2782bed41cbadc", "is_reserved": 0, "lon": -77.04463283333334, "is_disabled": 0, "fusion_lat": 0.0, "lat": 38.903650666666664, "bike_id": "955333aa69dfe5db4c2782bed41cbadc", "fusion_lon": 0.0}, {"rental_uris": {"ios": "https://dc.lft.to/lastmile_qr_scan", "android": "https://dc.lft.to/lastmile_qr_scan"}, "type": "electric_scooter", "name": "86cec7a9927527d32abbc9c9c4174546", "is_reserved": 0, "lon": -76.988358, "is_disabled": 0, "fusion_lat": 0.0, "lat": 38.84291983333333, "bike_id": "86cec7a9927527d32abbc9c9c4174546", "fusion_lon": 0.0}, {"rental_uris": {"ios": "https://dc.lft.to/lastmile_qr_scan", "android": "https://dc.lft.to/lastmile_qr_scan"}, "type": "electric_scooter", "name": "a02aa870e92bc8045aacc324800103c3", "is_reserved": 0, "lon": -77.0683915, "is_disabled": 0, "fusion_lat": 0.0, "lat": 38.91718316666667, "bike_id": "a02aa870e92bc8045aacc324800103c3", "fusion_lon": 0.0}, {"rental_uris": {"ios": "https://dc.lft.to/lastmile_qr_scan", "android": "https://dc.lft.to/lastmile_qr_scan"}, "type": "electric_scooter", "name": "68aebe46ea3c8c81d11868d9711e0df0", "is_reserved": 0, "lon": -76.9835625, "is_disabled": 0, "fusion_lat": 0.0, "lat": 38.914883333333336, "bike_id": "68aebe46ea3c8c81d11868d9711e0df0", "fusion_lon": 0.0}, {"rental_uris": {"ios": "https://dc.lft.to/lastmile_qr_scan", "android": "https://dc.lft.to/lastmile_qr_scan"}, "type": "electric_scooter", "name": "4b75a4dee7f7b7420fd5c83f0ea61ee7", "is_reserved": 0, "lon": -77.031029, "is_disabled": 0, "fusion_lat": 0.0, "lat": 38.924757666666665, "bike_id": "4b75a4dee7f7b7420fd5c83f0ea61ee7", "fusion_lon": 0.0}, {"rental_uris": {"ios": "https://dc.lft.to/lastmile_qr_scan", "android": "https://dc.lft.to/lastmile_qr_scan"}, "type": "electric_bike", "name": "cad6fed65d34dcaa0b09c40b2ff6f7d2", "is_reserved": 0, "lon": -77.23409533333333, "is_disabled": 0, "fusion_lat": 0.0, "lat": 38.875778833333335, "bike_id": "cad6fed65d34dcaa0b09c40b2ff6f7d2", "fusion_lon": 0.0}, {"rental_uris": {"ios": "https://dc.lft.to/lastmile_qr_scan", "android": "https://dc.lft.to/lastmile_qr_scan"}, "type": "electric_scooter", "name": "e739e6c60d5fb55e4f170e9018ff36be", "is_reserved": 0, "lon": -77.04741166666666, "is_disabled": 0, "fusion_lat": 0.0, "lat": 38.9051815, "bike_id": "e739e6c60d5fb55e4f170e9018ff36be", "fusion_lon": 0.0}, {"rental_uris": {"ios": "https://dc.lft.to/lastmile_qr_scan", "android": "https://dc.lft.to/lastmile_qr_scan"}, "type": "electric_scooter", "name": "0860c8bd0fe4270fb4e891cb57b21b45", "is_reserved": 0, "lon": -76.96530283333334, "is_disabled": 0, "fusion_lat": 0.0, "lat": 38.876271333333335, "bike_id": "0860c8bd0fe4270fb4e891cb57b21b45", "fusion_lon": 0.0}, {"rental_uris": {"ios": "https://dc.lft.to/lastmile_qr_scan", "android": "https://dc.lft.to/lastmile_qr_scan"}, "type": "electric_scooter", "name": "7fca214a29e002cee6b0326ca8088748", "is_reserved": 0, "lon": -77.07336533333333, "is_disabled": 0, "fusion_lat": 0.0, "lat": 38.96094033333333, "bike_id": "7fca214a29e002cee6b0326ca8088748", "fusion_lon": 0.0}, {"rental_uris": {"ios": "https://dc.lft.to/lastmile_qr_scan", "android": "https://dc.lft.to/lastmile_qr_scan"}, "type": "electric_scooter", "name": "138912cb5de60f2191b91d40a948797f", "is_reserved": 0, "lon": -77.0419425, "is_disabled": 0, "fusion_lat": 0.0, "lat": 38.923375166666666, "bike_id": "138912cb5de60f2191b91d40a948797f", "fusion_lon": 0.0}, {"rental_uris": {"ios": "https://dc.lft.to/lastmile_qr_scan", "android": "https://dc.lft.to/lastmile_qr_scan"}, "type": "electric_scooter", "name": "1d69cd80d1859924399d4291e9632a1d", "is_reserved": 0, "lon": -77.073477, "is_disabled": 0, "fusion_lat": 0.0, "lat": 38.94323216666667, "bike_id": "1d69cd80d1859924399d4291e9632a1d", "fusion_lon": 0.0}, {"rental_uris": {"ios": "https://dc.lft.to/lastmile_qr_scan", "android": "https://dc.lft.to/lastmile_qr_scan"}, "type": "electric_scooter", "name": "b31995bd575161930e5097102001094f", "is_reserved": 0, "lon": -76.97627433333334, "is_disabled": 0, "fusion_lat": 0.0, "lat": 38.90574383333333, "bike_id": "b31995bd575161930e5097102001094f", "fusion_lon": 0.0}, {"rental_uris": {"ios": "https://dc.lft.to/lastmile_qr_scan", "android": "https://dc.lft.to/lastmile_qr_scan"}, "type": "electric_scooter", "name": "960ef91ff5a8dc94ea823f227c3b2b5b", "is_reserved": 0, "lon": -77.02199083333333, "is_disabled": 0, "fusion_lat": 0.0, "lat": 38.91579616666667, "bike_id": "960ef91ff5a8dc94ea823f227c3b2b5b", "fusion_lon": 0.0}, {"rental_uris": {"ios": "https://dc.lft.to/lastmile_qr_scan", "android": "https://dc.lft.to/lastmile_qr_scan"}, "type": "electric_scooter", "name": "04edc8fee298a8fa796423591182bee6", "is_reserved": 0, "lon": -77.04946883333334, "is_disabled": 0, "fusion_lat": 0.0, "lat": 38.92023416666667, "bike_id": "04edc8fee298a8fa796423591182bee6", "fusion_lon": 0.0}, {"rental_uris": {"ios": "https://dc.lft.to/lastmile_qr_scan", "android": "https://dc.lft.to/lastmile_qr_scan"}, "type": "electric_scooter", "name": "cdd4499c53382048e8c373a5fc315210", "is_reserved": 0, "lon": -77.027663, "is_disabled": 0, "fusion_lat": 0.0, "lat": 38.904925, "bike_id": "cdd4499c53382048e8c373a5fc315210", "fusion_lon": 0.0}, {"rental_uris": {"ios": "https://dc.lft.to/lastmile_qr_scan", "android": "https://dc.lft.to/lastmile_qr_scan"}, "type": "electric_scooter", "name": "cce7b539fd57135a8c3022c779eff8ee", "is_reserved": 0, "lon": -77.01114666666666, "is_disabled": 0, "fusion_lat": 0.0, "lat": 38.90005283333333, "bike_id": "cce7b539fd57135a8c3022c779eff8ee", "fusion_lon": 0.0}, {"rental_uris": {"ios": "https://dc.lft.to/lastmile_qr_scan", "android": "https://dc.lft.to/lastmile_qr_scan"}, "type": "electric_scooter", "name": "124e518e2975e96efc1cbf9964fb6484", "is_reserved": 0, "lon": -77.00596016666667, "is_disabled": 0, "fusion_lat": 0.0, "lat": 38.880246, "bike_id": "124e518e2975e96efc1cbf9964fb6484", "fusion_lon": 0.0}, {"rental_uris": {"ios": "https://dc.lft.to/lastmile_qr_scan", "android": "https://dc.lft.to/lastmile_qr_scan"}, "type": "electric_scooter", "name": "a795ee3d4876ad93ba646cd271ed0b1d", "is_reserved": 0, "lon": -77.00630983333333, "is_disabled": 0, "fusion_lat": 0.0, "lat": 38.90019733333333, "bike_id": "a795ee3d4876ad93ba646cd271ed0b1d", "fusion_lon": 0.0}, {"rental_uris": {"ios": "https://dc.lft.to/lastmile_qr_scan", "android": "https://dc.lft.to/lastmile_qr_scan"}, "type": "electric_scooter", "name": "705a34c971e2db7cacea82a0722de89c", "is_reserved": 0, "lon": -77.0782565, "is_disabled": 0, "fusion_lat": 0.0, "lat": 38.922579999999996, "bike_id": "705a34c971e2db7cacea82a0722de89c", "fusion_lon": 0.0}, {"rental_uris": {"ios": "https://dc.lft.to/lastmile_qr_scan", "android": "https://dc.lft.to/lastmile_qr_scan"}, "type": "electric_scooter", "name": "9e2bec99b681ad3a9d934ca0e3609d9f", "is_reserved": 0, "lon": -77.02684416666666, "is_disabled": 0, "fusion_lat": 0.0, "lat": 38.900656833333336, "bike_id": "9e2bec99b681ad3a9d934ca0e3609d9f", "fusion_lon": 0.0}, {"rental_uris": {"ios": "https://dc.lft.to/lastmile_qr_scan", "android": "https://dc.lft.to/lastmile_qr_scan"}, "type": "electric_scooter", "name": "2eeec3203f7823bb179861a6efea153e", "is_reserved": 0, "lon": -77.01162816666667, "is_disabled": 0, "fusion_lat": 0.0, "lat": 38.911082666666665, "bike_id": "2eeec3203f7823bb179861a6efea153e", "fusion_lon": 0.0}, {"rental_uris": {"ios": "https://dc.lft.to/lastmile_qr_scan", "android": "https://dc.lft.to/lastmile_qr_scan"}, "type": "electric_scooter", "name": "8ebc3970f5bccbe9871c6a89b393c2f9", "is_reserved": 0, "lon": -77.03555233333333, "is_disabled": 0, "fusion_lat": 0.0, "lat": 38.917107333333334, "bike_id": "8ebc3970f5bccbe9871c6a89b393c2f9", "fusion_lon": 0.0}, {"rental_uris": {"ios": "https://dc.lft.to/lastmile_qr_scan", "android": "https://dc.lft.to/lastmile_qr_scan"}, "type": "electric_scooter", "name": "6c81b8e69ee73683b8510223664e3d3f", "is_reserved": 0, "lon": -77.03540433333333, "is_disabled": 0, "fusion_lat": 0.0, "lat": 38.923416833333334, "bike_id": "6c81b8e69ee73683b8510223664e3d3f", "fusion_lon": 0.0}, {"rental_uris": {"ios": "https://dc.lft.to/lastmile_qr_scan", "android": "https://dc.lft.to/lastmile_qr_scan"}, "type": "electric_scooter", "name": "9844dd30356a3767f5c27ddb9f7f329e", "is_reserved": 0, "lon": -77.02016766666667, "is_disabled": 0, "fusion_lat": 0.0, "lat": 38.90138916666667, "bike_id": "9844dd30356a3767f5c27ddb9f7f329e", "fusion_lon": 0.0}, {"rental_uris": {"ios": "https://dc.lft.to/lastmile_qr_scan", "android": "https://dc.lft.to/lastmile_qr_scan"}, "type": "electric_scooter", "name": "f87feea45eeb6381d5a1eb78b1f1d4d8", "is_reserved": 0, "lon": -77.01194316666667, "is_disabled": 0, "fusion_lat": 0.0, "lat": 38.900270166666665, "bike_id": "f87feea45eeb6381d5a1eb78b1f1d4d8", "fusion_lon": 0.0}, {"rental_uris": {"ios": "https://dc.lft.to/lastmile_qr_scan", "android": "https://dc.lft.to/lastmile_qr_scan"}, "type": "electric_scooter", "name": "31904b1265064c3ded169b3eeb535cbf", "is_reserved": 0, "lon": -77.0436865, "is_disabled": 0, "fusion_lat": 0.0, "lat": 38.908322, "bike_id": "31904b1265064c3ded169b3eeb535cbf", "fusion_lon": 0.0}, {"rental_uris": {"ios": "https://dc.lft.to/lastmile_qr_scan", "android": "https://dc.lft.to/lastmile_qr_scan"}, "type": "electric_scooter", "name": "548acdf317543e5b677a2b66cf5e16bd", "is_reserved": 0, "lon": -77.02392716666667, "is_disabled": 0, "fusion_lat": 0.0, "lat": 38.9260135, "bike_id": "548acdf317543e5b677a2b66cf5e16bd", "fusion_lon": 0.0}, {"rental_uris": {"ios": "https://dc.lft.to/lastmile_qr_scan", "android": "https://dc.lft.to/lastmile_qr_scan"}, "type": "electric_scooter", "name": "bf7c65962cbcf06a00365785c0a5f3aa", "is_reserved": 0, "lon": -77.0199185, "is_disabled": 0, "fusion_lat": 0.0, "lat": 38.930802166666666, "bike_id": "bf7c65962cbcf06a00365785c0a5f3aa", "fusion_lon": 0.0}, {"rental_uris": {"ios": "https://dc.lft.to/lastmile_qr_scan", "android": "https://dc.lft.to/lastmile_qr_scan"}, "type": "electric_bike", "name": "7a62c0d2a48707bdfc7c5b9e3281f453", "is_reserved": 0, "lon": -77.089834, "is_disabled": 0, "fusion_lat": 0.0, "lat": 38.91173883333333, "bike_id": "7a62c0d2a48707bdfc7c5b9e3281f453", "fusion_lon": 0.0}, {"rental_uris": {"ios": "https://dc.lft.to/lastmile_qr_scan", "android": "https://dc.lft.to/lastmile_qr_scan"}, "type": "electric_scooter", "name": "138d46a05a310924cd1e8b7e9e7a32c3", "is_reserved": 0, "lon": -77.02817583333334, "is_disabled": 0, "fusion_lat": 0.0, "lat": 38.909333, "bike_id": "138d46a05a310924cd1e8b7e9e7a32c3", "fusion_lon": 0.0}, {"rental_uris": {"ios": "https://dc.lft.to/lastmile_qr_scan", "android": "https://dc.lft.to/lastmile_qr_scan"}, "type": "electric_scooter", "name": "36a38494594b5dbdcf16953f73d66350", "is_reserved": 0, "lon": -77.02809666666667, "is_disabled": 0, "fusion_lat": 0.0, "lat": 38.91680733333333, "bike_id": "36a38494594b5dbdcf16953f73d66350", "fusion_lon": 0.0}, {"rental_uris": {"ios": "https://dc.lft.to/lastmile_qr_scan", "android": "https://dc.lft.to/lastmile_qr_scan"}, "type": "electric_bike", "name": "6bb9bc2556ed9373e519071b4b35543c", "is_reserved": 0, "lon": -77.0857185, "is_disabled": 0, "fusion_lat": 0.0, "lat": 38.87422016666667, "bike_id": "6bb9bc2556ed9373e519071b4b35543c", "fusion_lon": 0.0}, {"rental_uris": {"ios": "https://dc.lft.to/lastmile_qr_scan", "android": "https://dc.lft.to/lastmile_qr_scan"}, "type": "electric_scooter", "name": "c35f89dd3ca51bd4d943222af79a32a4", "is_reserved": 0, "lon": -76.92922883333334, "is_disabled": 0, "fusion_lat": 0.0, "lat": 38.89273266666667, "bike_id": "c35f89dd3ca51bd4d943222af79a32a4", "fusion_lon": 0.0}, {"rental_uris": {"ios": "https://dc.lft.to/lastmile_qr_scan", "android": "https://dc.lft.to/lastmile_qr_scan"}, "type": "electric_scooter", "name": "972304da36584bfb619939116e011fc3", "is_reserved": 0, "lon": -77.01832266666666, "is_disabled": 0, "fusion_lat": 0.0, "lat": 38.922543, "bike_id": "972304da36584bfb619939116e011fc3", "fusion_lon": 0.0}, {"rental_uris": {"ios": "https://dc.lft.to/lastmile_qr_scan", "android": "https://dc.lft.to/lastmile_qr_scan"}, "type": "electric_scooter", "name": "09089a6eb157e6affa37064ce6d5b37c", "is_reserved": 0, "lon": -77.0397015, "is_disabled": 0, "fusion_lat": 0.0, "lat": 38.902818833333335, "bike_id": "09089a6eb157e6affa37064ce6d5b37c", "fusion_lon": 0.0}, {"rental_uris": {"ios": "https://dc.lft.to/lastmile_qr_scan", "android": "https://dc.lft.to/lastmile_qr_scan"}, "type": "electric_scooter", "name": "68cf054a9578f17f70e01c0b98583729", "is_reserved": 0, "lon": -77.03047, "is_disabled": 0, "fusion_lat": 0.0, "lat": 38.909478, "bike_id": "68cf054a9578f17f70e01c0b98583729", "fusion_lon": 0.0}, {"rental_uris": {"ios": "https://dc.lft.to/lastmile_qr_scan", "android": "https://dc.lft.to/lastmile_qr_scan"}, "type": "electric_bike", "name": "a159d4693ac83a02d12ca73a418bc33d", "is_reserved": 0, "lon": -77.09453866666666, "is_disabled": 0, "fusion_lat": 0.0, "lat": 38.80755033333333, "bike_id": "a159d4693ac83a02d12ca73a418bc33d", "fusion_lon": 0.0}, {"rental_uris": {"ios": "https://dc.lft.to/lastmile_qr_scan", "android": "https://dc.lft.to/lastmile_qr_scan"}, "type": "electric_scooter", "name": "3dbe96ffc8e531efe70034697b8c2e9b", "is_reserved": 0, "lon": -77.01465383333333, "is_disabled": 0, "fusion_lat": 0.0, "lat": 38.8793965, "bike_id": "3dbe96ffc8e531efe70034697b8c2e9b", "fusion_lon": 0.0}, {"rental_uris": {"ios": "https://dc.lft.to/lastmile_qr_scan", "android": "https://dc.lft.to/lastmile_qr_scan"}, "type": "electric_scooter", "name": "3830aba1bd6d37439138801eb83554f8", "is_reserved": 0, "lon": -76.9721185, "is_disabled": 0, "fusion_lat": 0.0, "lat": 38.91716816666667, "bike_id": "3830aba1bd6d37439138801eb83554f8", "fusion_lon": 0.0}, {"rental_uris": {"ios": "https://dc.lft.to/lastmile_qr_scan", "android": "https://dc.lft.to/lastmile_qr_scan"}, "type": "electric_scooter", "name": "00539821ec0845e21212748946f07631", "is_reserved": 0, "lon": -77.03881166666666, "is_disabled": 0, "fusion_lat": 0.0, "lat": 38.93231316666667, "bike_id": "00539821ec0845e21212748946f07631", "fusion_lon": 0.0}, {"rental_uris": {"ios": "https://dc.lft.to/lastmile_qr_scan", "android": "https://dc.lft.to/lastmile_qr_scan"}, "type": "electric_scooter", "name": "dca1c415585ec3d292623f2b35b9d430", "is_reserved": 0, "lon": -77.01376, "is_disabled": 0, "fusion_lat": 0.0, "lat": 38.8982185, "bike_id": "dca1c415585ec3d292623f2b35b9d430", "fusion_lon": 0.0}, {"rental_uris": {"ios": "https://dc.lft.to/lastmile_qr_scan", "android": "https://dc.lft.to/lastmile_qr_scan"},