{"data": {"bikes": [{"lon": -77.02903583333334, "bike_id": "8403cb5867ab7eb44b2e001bb87ef082", "lat": 38.90385033333333, "fusion_lon": 0.0, "fusion_lat": 0.0, "type": "electric_scooter", "name": "8403cb5867ab7eb44b2e001bb87ef082", "is_disabled": 0, "rental_uris": {"ios": "https://dc.lft.to/lastmile_qr_scan", "android": "https://dc.lft.to/lastmile_qr_scan"}, "is_reserved": 0}, {"lon": -76.9761695, "bike_id": "ae2ebd2121a4ba030a6170f34dca1423", "lat": 38.90382783333333, "fusion_lon": 0.0, "fusion_lat": 0.0, "type": "electric_scooter", "name": "ae2ebd2121a4ba030a6170f34dca1423", "is_disabled": 0, "rental_uris": {"ios": "https://dc.lft.to/lastmile_qr_scan", "android": "https://dc.lft.to/lastmile_qr_scan"}, "is_reserved": 0}, {"lon": -76.9916185, "bike_id": "79dae2d9c5b41e461af2df44971d847a", "lat": 38.889645, "fusion_lon": 0.0, "fusion_lat": 0.0, "type": "electric_scooter", "name": "79dae2d9c5b41e461af2df44971d847a", "is_disabled": 0, "rental_uris": {"ios": "https://dc.lft.to/lastmile_qr_scan", "android": "https://dc.lft.to/lastmile_qr_scan"}, "is_reserved": 0}, {"lon": -77.02487066666667, "bike_id": "7558004dc72c0b07833e485288240b55", "lat": 38.919216666666664, "fusion_lon": 0.0, "fusion_lat": 0.0, "type": "electric_scooter", "name": "7558004dc72c0b07833e485288240b55", "is_disabled": 0, "rental_uris": {"ios": "https://dc.lft.to/lastmile_qr_scan", "android": "https://dc.lft.to/lastmile_qr_scan"}, "is_reserved": 0}, {"lon": -76.98668233333333, "bike_id": "13dc8f495b84f9c1239439b4321adcab", "lat": 38.90248483333333, "fusion_lon": 0.0, "fusion_lat": 0.0, "type": "electric_scooter", "name": "13dc8f495b84f9c1239439b4321adcab", "is_disabled": 0, "rental_uris": {"ios": "https://dc.lft.to/lastmile_qr_scan", "android": "https://dc.lft.to/lastmile_qr_scan"}, "is_reserved": 0}, {"lon": -77.0385695, "bike_id": "b15d1636ce9e4903fd221c3a57f0b274", "lat": 38.90692033333333, "fusion_lon": 0.0, "fusion_lat": 0.0, "type": "electric_scooter", "name": "b15d1636ce9e4903fd221c3a57f0b274", "is_disabled": 0, "rental_uris": {"ios": "https://dc.lft.to/lastmile_qr_scan", "android": "https://dc.lft.to/lastmile_qr_scan"}, "is_reserved": 0}, {"lon": -77.04716866666666, "bike_id": "a271d7cde8ef75d4c58e01cb5a4ccc53", "lat": 38.922284833333336, "fusion_lon": 0.0, "fusion_lat": 0.0, "type": "electric_scooter", "name": "a271d7cde8ef75d4c58e01cb5a4ccc53", "is_disabled": 0, "rental_uris": {"ios": "https://dc.lft.to/lastmile_qr_scan", "android": "https://dc.lft.to/lastmile_qr_scan"}, "is_reserved": 0}, {"lon": -77.02791166666667, "bike_id": "02fe42a09fbd90440378cf5810f8754b", "lat": 38.92012783333333, "fusion_lon": 0.0, "fusion_lat": 0.0, "type": "electric_scooter", "name": "02fe42a09fbd90440378cf5810f8754b", "is_disabled": 0, "rental_uris": {"ios": "https://dc.lft.to/lastmile_qr_scan", "android": "https://dc.lft.to/lastmile_qr_scan"}, "is_reserved": 0}, {"lon": -77.0426815, "bike_id": "2f5b900ca7b7d86ee1568a3654c201ef", "lat": 38.917884666666666, "fusion_lon": 0.0, "fusion_lat": 0.0, "type": "electric_scooter", "name": "2f5b900ca7b7d86ee1568a3654c201ef", "is_disabled": 0, "rental_uris": {"ios": "https://dc.lft.to/lastmile_qr_scan", "android": "https://dc.lft.to/lastmile_qr_scan"}, "is_reserved": 0}, {"lon": -77.0521, "bike_id": "bd74314bd129ec7ed1d6ab6994b77e33", "lat": 38.900105833333335, "fusion_lon": 0.0, "fusion_lat": 0.0, "type": "electric_scooter", "name": "bd74314bd129ec7ed1d6ab6994b77e33", "is_disabled": 0, "rental_uris": {"ios": "https://dc.lft.to/lastmile_qr_scan", "android": "https://dc.lft.to/lastmile_qr_scan"}, "is_reserved": 0}, {"lon": -76.98230666666667, "bike_id": "4fd40db850eb0c7a5d1b8a7f525f7033", "lat": 38.916433166666664, "fusion_lon": 0.0, "fusion_lat": 0.0, "type": "electric_scooter", "name": "4fd40db850eb0c7a5d1b8a7f525f7033", "is_disabled": 0, "rental_uris": {"ios": "https://dc.lft.to/lastmile_qr_scan", "android": "https://dc.lft.to/lastmile_qr_scan"}, "is_reserved": 0}, {"lon": -77.00063483333334, "bike_id": "bf9bd434de67435628b2b273d887fafa", "lat": 38.924332166666666, "fusion_lon": 0.0, "fusion_lat": 0.0, "type": "electric_scooter", "name": "bf9bd434de67435628b2b273d887fafa", "is_disabled": 0, "rental_uris": {"ios": "https://dc.lft.to/lastmile_qr_scan", "android": "https://dc.lft.to/lastmile_qr_scan"}, "is_reserved": 0}, {"lon": -76.9361115, "bike_id": "2850198c637076f59c28012b0418fae8", "lat": 38.89682883333333, "fusion_lon": 0.0, "fusion_lat": 0.0, "type": "electric_scooter", "name": "2850198c637076f59c28012b0418fae8", "is_disabled": 0, "rental_uris": {"ios": "https://dc.lft.to/lastmile_qr_scan", "android": "https://dc.lft.to/lastmile_qr_scan"}, "is_reserved": 0}, {"lon": -77.02400233333333, "bike_id": "c8030687f1c31fb25a4c8226acc43d79", "lat": 38.91763316666667, "fusion_lon": 0.0, "fusion_lat": 0.0, "type": "electric_scooter", "name": "c8030687f1c31fb25a4c8226acc43d79", "is_disabled": 0, "rental_uris": {"ios": "https://dc.lft.to/lastmile_qr_scan", "android": "https://dc.lft.to/lastmile_qr_scan"}, "is_reserved": 0}, {"lon": -77.0517145, "bike_id": "d8bb6bc6461c3e2671e422445e98954a", "lat": 38.923402, "fusion_lon": 0.0, "fusion_lat": 0.0, "type": "electric_scooter", "name": "d8bb6bc6461c3e2671e422445e98954a", "is_disabled": 0, "rental_uris": {"ios": "https://dc.lft.to/lastmile_qr_scan", "android": "https://dc.lft.to/lastmile_qr_scan"}, "is_reserved": 0}, {"lon": -76.98547, "bike_id": "bf4e934c525eb28a2171367e41424580", "lat": 38.92004216666667, "fusion_lon": 0.0, "fusion_lat": 0.0, "type": "electric_scooter", "name": "bf4e934c525eb28a2171367e41424580", "is_disabled": 0, "rental_uris": {"ios": "https://dc.lft.to/lastmile_qr_scan", "android": "https://dc.lft.to/lastmile_qr_scan"}, "is_reserved": 0}, {"lon": -77.03446983333333, "bike_id": "78478b307302eda09c55e4e9a53a2856", "lat": 38.908950833333336, "fusion_lon": 0.0, "fusion_lat": 0.0, "type": "electric_scooter", "name": "78478b307302eda09c55e4e9a53a2856", "is_disabled": 0, "rental_uris": {"ios": "https://dc.lft.to/lastmile_qr_scan", "android": "https://dc.lft.to/lastmile_qr_scan"}, "is_reserved": 0}, {"lon": -76.927346, "bike_id": "125c5067ecef6537503d76f3e77bd74e", "lat": 38.889664333333336, "fusion_lon": 0.0, "fusion_lat": 0.0, "type": "electric_scooter", "name": "125c5067ecef6537503d76f3e77bd74e", "is_disabled": 0, "rental_uris": {"ios": "https://dc.lft.to/lastmile_qr_scan", "android": "https://dc.lft.to/lastmile_qr_scan"}, "is_reserved": 0}, {"lon": -77.01420433333334, "bike_id": "1b6aefb1f77efda44b77a5138d25c823", "lat": 38.876430666666664, "fusion_lon": 0.0, "fusion_lat": 0.0, "type": "electric_scooter", "name": "1b6aefb1f77efda44b77a5138d25c823", "is_disabled": 0, "rental_uris": {"ios": "https://dc.lft.to/lastmile_qr_scan", "android": "https://dc.lft.to/lastmile_qr_scan"}, "is_reserved": 0}, {"lon": -76.93354366666667, "bike_id": "05eb895f867e357a35ea418af9aa2018", "lat": 38.899004, "fusion_lon": 0.0, "fusion_lat": 0.0, "type": "electric_scooter", "name": "05eb895f867e357a35ea418af9aa2018", "is_disabled": 0, "rental_uris": {"ios": "https://dc.lft.to/lastmile_qr_scan", "android": "https://dc.lft.to/lastmile_qr_scan"}, "is_reserved": 0}, {"lon": -77.02151683333334, "bike_id": "a1183e47565b0e84ad0f4ee241cd283b", "lat": 38.92595033333333, "fusion_lon": 0.0, "fusion_lat": 0.0, "type": "electric_bike", "name": "a1183e47565b0e84ad0f4ee241cd283b", "is_disabled": 0, "rental_uris": {"ios": "https://dc.lft.to/lastmile_qr_scan", "android": "https://dc.lft.to/lastmile_qr_scan"}, "is_reserved": 0}, {"lon": -77.04515833333333, "bike_id": "cf12cee284a58b330a62673b48c81cec", "lat": 38.9096775, "fusion_lon": 0.0, "fusion_lat": 0.0, "type": "electric_scooter", "name": "cf12cee284a58b330a62673b48c81cec", "is_disabled": 0, "rental_uris": {"ios": "https://dc.lft.to/lastmile_qr_scan", "android": "https://dc.lft.to/lastmile_qr_scan"}, "is_reserved": 0}, {"lon": -77.05128883333333, "bike_id": "61d25844b36d98502b09b83dc090cf33", "lat": 38.92361833333333, "fusion_lon": 0.0, "fusion_lat": 0.0, "type": "electric_scooter", "name": "61d25844b36d98502b09b83dc090cf33", "is_disabled": 0, "rental_uris": {"ios": "https://dc.lft.to/lastmile_qr_scan", "android": "https://dc.lft.to/lastmile_qr_scan"}, "is_reserved": 0}, {"lon": -77.12651566666666, "bike_id": "50b9faa7aad87fc78f2c9e0cc70eeabc", "lat": 38.81514383333333, "fusion_lon": 0.0, "fusion_lat": 0.0, "type": "electric_bike", "name": "50b9faa7aad87fc78f2c9e0cc70eeabc", "is_disabled": 0, "rental_uris": {"ios": "https://dc.lft.to/lastmile_qr_scan", "android": "https://dc.lft.to/lastmile_qr_scan"}, "is_reserved": 0}, {"lon": -77.08337783333333, "bike_id": "44e75ed041b98ce563849e0d00e60d84", "lat": 38.92987933333333, "fusion_lon": 0.0, "fusion_lat": 0.0, "type": "electric_scooter", "name": "44e75ed041b98ce563849e0d00e60d84", "is_disabled": 0, "rental_uris": {"ios": "https://dc.lft.to/lastmile_qr_scan", "android": "https://dc.lft.to/lastmile_qr_scan"}, "is_reserved": 0}, {"lon": -77.03990516666667, "bike_id": "86f5fe3c8884392023a7249d0b4dc5a0", "lat": 38.924595333333336, "fusion_lon": 0.0, "fusion_lat": 0.0, "type": "electric_scooter", "name": "86f5fe3c8884392023a7249d0b4dc5a0", "is_disabled": 0, "rental_uris": {"ios": "https://dc.lft.to/lastmile_qr_scan", "android": "https://dc.lft.to/lastmile_qr_scan"}, "is_reserved": 0}, {"lon": -77.04854916666666, "bike_id": "7d6de93a714f87be45860e38a53f883d", "lat": 38.904788333333336, "fusion_lon": 0.0, "fusion_lat": 0.0, "type": "electric_scooter", "name": "7d6de93a714f87be45860e38a53f883d", "is_disabled": 0, "rental_uris": {"ios": "https://dc.lft.to/lastmile_qr_scan", "android": "https://dc.lft.to/lastmile_qr_scan"}, "is_reserved": 0}, {"lon": -77.03044266666667, "bike_id": "a9017610b5ef8f0f9fbf325c3d9ca866", "lat": 38.90550133333333, "fusion_lon": 0.0, "fusion_lat": 0.0, "type": "electric_scooter", "name": "a9017610b5ef8f0f9fbf325c3d9ca866", "is_disabled": 0, "rental_uris": {"ios": "https://dc.lft.to/lastmile_qr_scan", "android": "https://dc.lft.to/lastmile_qr_scan"}, "is_reserved": 0}, {"lon": -77.02196666666667, "bike_id": "b95a51eb944d4d3c0cc68434d31cd1d8", "lat": 38.910061, "fusion_lon": 0.0, "fusion_lat": 0.0, "type": "electric_scooter", "name": "b95a51eb944d4d3c0cc68434d31cd1d8", "is_disabled": 0, "rental_uris": {"ios": "https://dc.lft.to/lastmile_qr_scan", "android": "https://dc.lft.to/lastmile_qr_scan"}, "is_reserved": 0}, {"lon": -76.98286683333333, "bike_id": "88a2b2a4b1f0d635f27cced7bc5469f8", "lat": 38.900467666666664, "fusion_lon": 0.0, "fusion_lat": 0.0, "type": "electric_scooter", "name": "88a2b2a4b1f0d635f27cced7bc5469f8", "is_disabled": 0, "rental_uris": {"ios": "https://dc.lft.to/lastmile_qr_scan", "android": "https://dc.lft.to/lastmile_qr_scan"}, "is_reserved": 0}, {"lon": -77.03622849999999, "bike_id": "02852677e173bfdd1ce67a73f8be0cc0", "lat": 38.91258766666667, "fusion_lon": 0.0, "fusion_lat": 0.0, "type": "electric_scooter", "name": "02852677e173bfdd1ce67a73f8be0cc0", "is_disabled": 0, "rental_uris": {"ios": "https://dc.lft.to/lastmile_qr_scan", "android": "https://dc.lft.to/lastmile_qr_scan"}, "is_reserved": 0}, {"lon": -77.01760633333333, "bike_id": "00c4f48f8c3c0b9c7ccd3f9178da9ade", "lat": 38.885974, "fusion_lon": 0.0, "fusion_lat": 0.0, "type": "electric_scooter", "name": "00c4f48f8c3c0b9c7ccd3f9178da9ade", "is_disabled": 0, "rental_uris": {"ios": "https://dc.lft.to/lastmile_qr_scan", "android": "https://dc.lft.to/lastmile_qr_scan"}, "is_reserved": 0}, {"lon": -77.043896, "bike_id": "77379b2c5b1be6564a94678d24d243bf", "lat": 38.921078333333334, "fusion_lon": 0.0, "fusion_lat": 0.0, "type": "electric_scooter", "name": "77379b2c5b1be6564a94678d24d243bf", "is_disabled": 0, "rental_uris": {"ios": "https://dc.lft.to/lastmile_qr_scan", "android": "https://dc.lft.to/lastmile_qr_scan"}, "is_reserved": 0}, {"lon": -77.06738483333334, "bike_id": "4a340171a9bef591588b71bb87250391", "lat": 38.90359333333333, "fusion_lon": 0.0, "fusion_lat": 0.0, "type": "electric_scooter", "name": "4a340171a9bef591588b71bb87250391", "is_disabled": 0, "rental_uris": {"ios": "https://dc.lft.to/lastmile_qr_scan", "android": "https://dc.lft.to/lastmile_qr_scan"}, "is_reserved": 0}, {"lon": -77.0238755, "bike_id": "93be750df5a030642340d6f2dd317c87", "lat": 38.907294, "fusion_lon": 0.0, "fusion_lat": 0.0, "type": "electric_scooter", "name": "93be750df5a030642340d6f2dd317c87", "is_disabled": 0, "rental_uris": {"ios": "https://dc.lft.to/lastmile_qr_scan", "android": "https://dc.lft.to/lastmile_qr_scan"}, "is_reserved": 0}, {"lon": -77.03094833333333, "bike_id": "5f6639884064cdcef8398805c9f20a48", "lat": 38.933957166666666, "fusion_lon": 0.0, "fusion_lat": 0.0, "type": "electric_scooter", "name": "5f6639884064cdcef8398805c9f20a48", "is_disabled": 0, "rental_uris": {"ios": "https://dc.lft.to/lastmile_qr_scan", "android": "https://dc.lft.to/lastmile_qr_scan"}, "is_reserved": 0}, {"lon": -77.03347933333333, "bike_id": "f498ce1e6e3f214e4bfd5153dcd9f8c9", "lat": 38.96245783333333, "fusion_lon": 0.0, "fusion_lat": 0.0, "type": "electric_scooter", "name": "f498ce1e6e3f214e4bfd5153dcd9f8c9", "is_disabled": 0, "rental_uris": {"ios": "https://dc.lft.to/lastmile_qr_scan", "android": "https://dc.lft.to/lastmile_qr_scan"}, "is_reserved": 0}, {"lon": -77.03580183333334, "bike_id": "db24033bc80c3bf21340f7260b38ad22", "lat": 38.932053333333336, "fusion_lon": 0.0, "fusion_lat": 0.0, "type": "electric_bike", "name": "db24033bc80c3bf21340f7260b38ad22", "is_disabled": 0, "rental_uris": {"ios": "https://dc.lft.to/lastmile_qr_scan", "android": "https://dc.lft.to/lastmile_qr_scan"}, "is_reserved": 0}, {"lon": -77.008548, "bike_id": "cddb63a404ed9e75d5df49ed1971129d", "lat": 38.91243683333333, "fusion_lon": 0.0, "fusion_lat": 0.0, "type": "electric_scooter", "name": "cddb63a404ed9e75d5df49ed1971129d", "is_disabled": 0, "rental_uris": {"ios": "https://dc.lft.to/lastmile_qr_scan", "android": "https://dc.lft.to/lastmile_qr_scan"}, "is_reserved": 0}, {"lon": -76.98140383333333, "bike_id": "e210e386ab280a42798a79d990e51ce4", "lat": 38.954206, "fusion_lon": 0.0, "fusion_lat": 0.0, "type": "electric_bike", "name": "e210e386ab280a42798a79d990e51ce4", "is_disabled": 0, "rental_uris": {"ios": "https://dc.lft.to/lastmile_qr_scan", "android": "https://dc.lft.to/lastmile_qr_scan"}, "is_reserved": 0}, {"lon": -77.034173, "bike_id": "72df3d7a229710e35b4f6ada24885c35", "lat": 38.92738283333333, "fusion_lon": 0.0, "fusion_lat": 0.0, "type": "electric_scooter", "name": "72df3d7a229710e35b4f6ada24885c35", "is_disabled": 0, "rental_uris": {"ios": "https://dc.lft.to/lastmile_qr_scan", "android": "https://dc.lft.to/lastmile_qr_scan"}, "is_reserved": 0}, {"lon": -77.03227433333333, "bike_id": "44ce51266741944f7fa579ff638bc071", "lat": 38.92750516666667, "fusion_lon": 0.0, "fusion_lat": 0.0, "type": "electric_scooter", "name": "44ce51266741944f7fa579ff638bc071", "is_disabled": 0, "rental_uris": {"ios": "https://dc.lft.to/lastmile_qr_scan", "android": "https://dc.lft.to/lastmile_qr_scan"}, "is_reserved": 0}, {"lon": -76.9806075, "bike_id": "4557432331a644f65d6ed11fddd19b51", "lat": 38.884928333333335, "fusion_lon": 0.0, "fusion_lat": 0.0, "type": "electric_scooter", "name": "4557432331a644f65d6ed11fddd19b51", "is_disabled": 0, "rental_uris": {"ios": "https://dc.lft.to/lastmile_qr_scan", "android": "https://dc.lft.to/lastmile_qr_scan"}, "is_reserved": 0}, {"lon": -77.02456366666667, "bike_id": "614e8fdcabbb1d912903a09fc7616ead", "lat": 38.918835, "fusion_lon": 0.0, "fusion_lat": 0.0, "type": "electric_scooter", "name": "614e8fdcabbb1d912903a09fc7616ead", "is_disabled": 0, "rental_uris": {"ios": "https://dc.lft.to/lastmile_qr_scan", "android": "https://dc.lft.to/lastmile_qr_scan"}, "is_reserved": 0}, {"lon": -77.0261055, "bike_id": "be1137a436110e88fc464963c5d1289e", "lat": 38.916888666666665, "fusion_lon": 0.0, "fusion_lat": 0.0, "type": "electric_scooter", "name": "be1137a436110e88fc464963c5d1289e", "is_disabled": 0, "rental_uris": {"ios": "https://dc.lft.to/lastmile_qr_scan", "android": "https://dc.lft.to/lastmile_qr_scan"}, "is_reserved": 0}, {"lon": -76.9950665, "bike_id": "62ae242272e6518cd8687331ae23c51f", "lat": 38.882545666666665, "fusion_lon": 0.0, "fusion_lat": 0.0, "type": "electric_scooter", "name": "62ae242272e6518cd8687331ae23c51f", "is_disabled": 0, "rental_uris": {"ios": "https://dc.lft.to/lastmile_qr_scan", "android": "https://dc.lft.to/lastmile_qr_scan"}, "is_reserved": 0}, {"lon": -76.97393833333334, "bike_id": "ba8408200400f15436a68fafa2d44677", "lat": 38.902938666666664, "fusion_lon": 0.0, "fusion_lat": 0.0, "type": "electric_scooter", "name": "ba8408200400f15436a68fafa2d44677", "is_disabled": 0, "rental_uris": {"ios": "https://dc.lft.to/lastmile_qr_scan", "android": "https://dc.lft.to/lastmile_qr_scan"}, "is_reserved": 0}, {"lon": -76.94590433333333, "bike_id": "238675f111cb5e9c867425aa6bca836f", "lat": 38.90139883333333, "fusion_lon": 0.0, "fusion_lat": 0.0, "type": "electric_scooter", "name": "238675f111cb5e9c867425aa6bca836f", "is_disabled": 0, "rental_uris": {"ios": "https://dc.lft.to/lastmile_qr_scan", "android": "https://dc.lft.to/lastmile_qr_scan"}, "is_reserved": 0}, {"lon": -77.02813516666667, "bike_id": "f4b850d22b9780eb8c1061d481b0a1ef", "lat": 38.9023, "fusion_lon": 0.0, "fusion_lat": 0.0, "type": "electric_scooter", "name": "f4b850d22b9780eb8c1061d481b0a1ef", "is_disabled": 0, "rental_uris": {"ios": "https://dc.lft.to/lastmile_qr_scan", "android": "https://dc.lft.to/lastmile_qr_scan"}, "is_reserved": 0}, {"lon": -76.98919516666666, "bike_id": "5f08f11fbd760037025f175e5fc1f639", "lat": 38.864899, "fusion_lon": 0.0, "fusion_lat": 0.0, "type": "electric_scooter", "name": "5f08f11fbd760037025f175e5fc1f639", "is_disabled": 0, "rental_uris": {"ios": "https://dc.lft.to/lastmile_qr_scan", "android": "https://dc.lft.to/lastmile_qr_scan"}, "is_reserved": 0}, {"lon": -77.0303515, "bike_id": "f6cd704921a9104a807e2013ca592524", "lat": 38.937166833333336, "fusion_lon": 0.0, "fusion_lat": 0.0, "type": "electric_scooter", "name": "f6cd704921a9104a807e2013ca592524", "is_disabled": 0, "rental_uris": {"ios": "https://dc.lft.to/lastmile_qr_scan", "android": "https://dc.lft.to/lastmile_qr_scan"}, "is_reserved": 0}, {"lon": -77.08807366666667, "bike_id": "32fa5d5cbf075e0879b8bb212705ca44", "lat": 38.91175833333333, "fusion_lon": 0.0, "fusion_lat": 0.0, "type": "electric_scooter", "name": "32fa5d5cbf075e0879b8bb212705ca44", "is_disabled": 0, "rental_uris": {"ios": "https://dc.lft.to/lastmile_qr_scan", "android": "https://dc.lft.to/lastmile_qr_scan"}, "is_reserved": 0}, {"lon": -77.0903765, "bike_id": "ae4b03d3fed62642bf86e90fab0c757b", "lat": 38.849714666666664, "fusion_lon": 0.0, "fusion_lat": 0.0, "type": "electric_bike", "name": "ae4b03d3fed62642bf86e90fab0c757b", "is_disabled": 0, "rental_uris": {"ios": "https://dc.lft.to/lastmile_qr_scan", "android": "https://dc.lft.to/lastmile_qr_scan"}, "is_reserved": 0}, {"lon": -77.0399365, "bike_id": "ee13ce84abb334714b40bba0d4a976b9", "lat": 38.9343035, "fusion_lon": 0.0, "fusion_lat": 0.0, "type": "electric_scooter", "name": "ee13ce84abb334714b40bba0d4a976b9", "is_disabled": 0, "rental_uris": {"ios": "https://dc.lft.to/lastmile_qr_scan", "android": "https://dc.lft.to/lastmile_qr_scan"}, "is_reserved": 0}, {"lon": -77.02451966666666, "bike_id": "57c95da83568d0f8e536f447ae297497", "lat": 38.93706066666667, "fusion_lon": 0.0, "fusion_lat": 0.0, "type": "electric_scooter", "name": "57c95da83568d0f8e536f447ae297497", "is_disabled": 0, "rental_uris": {"ios": "https://dc.lft.to/lastmile_qr_scan", "android": "https://dc.lft.to/lastmile_qr_scan"}, "is_reserved": 0}, {"lon": -77.074097, "bike_id": "74bd816dcd1ef5dee91465a3c0279d96", "lat": 38.9288465, "fusion_lon": 0.0, "fusion_lat": 0.0, "type": "electric_scooter", "name": "74bd816dcd1ef5dee91465a3c0279d96", "is_disabled": 0, "rental_uris": {"ios": "https://dc.lft.to/lastmile_qr_scan", "android": "https://dc.lft.to/lastmile_qr_scan"}, "is_reserved": 0}, {"lon": -77.002992, "bike_id": "832ebc77f6b21e5680d377cf70332255", "lat": 38.9089745, "fusion_lon": 0.0, "fusion_lat": 0.0, "type": "electric_scooter", "name": "832ebc77f6b21e5680d377cf70332255", "is_disabled": 0, "rental_uris": {"ios": "https://dc.lft.to/lastmile_qr_scan", "android": "https://dc.lft.to/lastmile_qr_scan"}, "is_reserved": 0}, {"lon": -77.010209, "bike_id": "e0820e2d37e886e42f914fe542ded3a8", "lat": 38.90846833333333, "fusion_lon": 0.0, "fusion_lat": 0.0, "type": "electric_scooter", "name": "e0820e2d37e886e42f914fe542ded3a8", "is_disabled": 0, "rental_uris": {"ios": "https://dc.lft.to/lastmile_qr_scan", "android": "https://dc.lft.to/lastmile_qr_scan"}, "is_reserved": 0}, {"lon": -77.03937033333334, "bike_id": "458f4f95d72840fd6f053ae7d8b835d2", "lat": 38.9157745, "fusion_lon": 0.0, "fusion_lat": 0.0, "type": "electric_scooter", "name": "458f4f95d72840fd6f053ae7d8b835d2", "is_disabled": 0, "rental_uris": {"ios": "https://dc.lft.to/lastmile_qr_scan", "android": "https://dc.lft.to/lastmile_qr_scan"}, "is_reserved": 0}, {"lon": -77.02258433333333, "bike_id": "01e3ce09c5d684e3fdab7f25a44612ff", "lat": 38.927307666666664, "fusion_lon": 0.0, "fusion_lat": 0.0, "type": "electric_scooter", "name": "01e3ce09c5d684e3fdab7f25a44612ff", "is_disabled": 0, "rental_uris": {"ios": "https://dc.lft.to/lastmile_qr_scan", "android": "https://dc.lft.to/lastmile_qr_scan"}, "is_reserved": 0}, {"lon": -77.0227655, "bike_id": "44b5672f947c98af9699d1b3b70655d8", "lat": 38.927262, "fusion_lon": 0.0, "fusion_lat": 0.0, "type": "electric_scooter", "name": "44b5672f947c98af9699d1b3b70655d8", "is_disabled": 0, "rental_uris": {"ios": "https://dc.lft.to/lastmile_qr_scan", "android": "https://dc.lft.to/lastmile_qr_scan"}, "is_reserved": 0}, {"lon": -76.9935125, "bike_id": "164da7b3516d5b0db5a3ac81cc6379b0", "lat": 38.84503, "fusion_lon": 0.0, "fusion_lat": 0.0, "type": "electric_bike", "name": "164da7b3516d5b0db5a3ac81cc6379b0", "is_disabled": 0, "rental_uris": {"ios": "https://dc.lft.to/lastmile_qr_scan", "android": "https://dc.lft.to/lastmile_qr_scan"}, "is_reserved": 0}, {"lon": -77.0433625, "bike_id": "d2e1b3b9e882c06d99bb06c6183b9e88", "lat": 38.908237, "fusion_lon": 0.0, "fusion_lat": 0.0, "type": "electric_scooter", "name": "d2e1b3b9e882c06d99bb06c6183b9e88", "is_disabled": 0, "rental_uris": {"ios": "https://dc.lft.to/lastmile_qr_scan", "android": "https://dc.lft.to/lastmile_qr_scan"}, "is_reserved": 0}, {"lon": -77.04571216666666, "bike_id": "e313840fbd28b9513c3698233313214d", "lat": 38.92121266666667, "fusion_lon": 0.0, "fusion_lat": 0.0, "type": "electric_scooter", "name": "e313840fbd28b9513c3698233313214d", "is_disabled": 0, "rental_uris": {"ios": "https://dc.lft.to/lastmile_qr_scan", "android": "https://dc.lft.to/lastmile_qr_scan"}, "is_reserved": 0}, {"lon": -76.996184, "bike_id": "957683d22d564725af2f8c20a5394c03", "lat": 38.90061333333333, "fusion_lon": 0.0, "fusion_lat": 0.0, "type": "electric_scooter", "name": "957683d22d564725af2f8c20a5394c03", "is_disabled": 0, "rental_uris": {"ios": "https://dc.lft.to/lastmile_qr_scan", "android": "https://dc.lft.to/lastmile_qr_scan"}, "is_reserved": 0}, {"lon": -77.033028, "bike_id": "abfc39daa86576e88030c38b18ca95b8", "lat": 38.923574333333335, "fusion_lon": 0.0, "fusion_lat": 0.0, "type": "electric_scooter", "name": "abfc39daa86576e88030c38b18ca95b8", "is_disabled": 0, "rental_uris": {"ios": "https://dc.lft.to/lastmile_qr_scan", "android": "https://dc.lft.to/lastmile_qr_scan"}, "is_reserved": 0}, {"lon": -77.03863116666666, "bike_id": "c4fe2dcd843db915273d50e922e22729", "lat": 38.903745, "fusion_lon": 0.0, "fusion_lat": 0.0, "type": "electric_scooter", "name": "c4fe2dcd843db915273d50e922e22729", "is_disabled": 0, "rental_uris": {"ios": "https://dc.lft.to/lastmile_qr_scan", "android": "https://dc.lft.to/lastmile_qr_scan"}, "is_reserved": 0}, {"lon": -77.02966716666667, "bike_id": "90aa46a035a37042a8e207c9ce3efa9e", "lat": 38.9167815, "fusion_lon": 0.0, "fusion_lat": 0.0, "type": "electric_scooter", "name": "90aa46a035a37042a8e207c9ce3efa9e", "is_disabled": 0, "rental_uris": {"ios": "https://dc.lft.to/lastmile_qr_scan", "android": "https://dc.lft.to/lastmile_qr_scan"}, "is_reserved": 0}, {"lon": -77.02184033333333, "bike_id": "25e002e3080cf53611035ad0d6eb2143", "lat": 38.900003833333336, "fusion_lon": 0.0, "fusion_lat": 0.0, "type": "electric_scooter", "name": "25e002e3080cf53611035ad0d6eb2143", "is_disabled": 0, "rental_uris": {"ios": "https://dc.lft.to/lastmile_qr_scan", "android": "https://dc.lft.to/lastmile_qr_scan"}, "is_reserved": 0}, {"lon": -76.94399766666666, "bike_id": "dcc79f7809933b64d236492977c5b67d", "lat": 38.88139, "fusion_lon": 0.0, "fusion_lat": 0.0, "type": "electric_scooter", "name": "dcc79f7809933b64d236492977c5b67d", "is_disabled": 0, "rental_uris": {"ios": "https://dc.lft.to/lastmile_qr_scan", "android": "https://dc.lft.to/lastmile_qr_scan"}, "is_reserved": 0}, {"lon": -76.97492866666667, "bike_id": "d256725345b2daf596a05446bbf2d9eb", "lat": 38.919259333333336, "fusion_lon": 0.0, "fusion_lat": 0.0, "type": "electric_scooter", "name": "d256725345b2daf596a05446bbf2d9eb", "is_disabled": 0, "rental_uris": {"ios": "https://dc.lft.to/lastmile_qr_scan", "android": "https://dc.lft.to/lastmile_qr_scan"}, "is_reserved": 0}, {"lon": -77.064807, "bike_id": "8f59d1fdbc85089bb7b306429f34cb26", "lat": 38.94651266666666, "fusion_lon": 0.0, "fusion_lat": 0.0, "type": "electric_scooter", "name": "8f59d1fdbc85089bb7b306429f34cb26", "is_disabled": 0, "rental_uris": {"ios": "https://dc.lft.to/lastmile_qr_scan", "android": "https://dc.lft.to/lastmile_qr_scan"}, "is_reserved": 0}, {"lon": -77.00752233333333, "bike_id": "9000815cca754980964604f25ea25680", "lat": 38.897310166666664, "fusion_lon": 0.0, "fusion_lat": 0.0, "type": "electric_scooter", "name": "9000815cca754980964604f25ea25680", "is_disabled": 0, "rental_uris": {"ios": "https://dc.lft.to/lastmile_qr_scan", "android": "https://dc.lft.to/lastmile_qr_scan"}, "is_reserved": 0}, {"lon": -76.97600633333333, "bike_id": "c18a62ebf45eb3ceb5e467053557adc3", "lat": 38.9056645, "fusion_lon": 0.0, "fusion_lat": 0.0, "type": "electric_scooter", "name": "c18a62ebf45eb3ceb5e467053557adc3", "is_disabled": 0, "rental_uris": {"ios": "https://dc.lft.to/lastmile_qr_scan", "android": "https://dc.lft.to/lastmile_qr_scan"}, "is_reserved": 0}, {"lon": -76.986959, "bike_id": "6aba4f76ccb08a2f722d4c07ba3e435d", "lat": 38.862508, "fusion_lon": 0.0, "fusion_lat": 0.0, "type": "electric_scooter", "name": "6aba4f76ccb08a2f722d4c07ba3e435d", "is_disabled": 0, "rental_uris": {"ios": "https://dc.lft.to/lastmile_qr_scan", "android": "https://dc.lft.to/lastmile_qr_scan"}, "is_reserved": 0}, {"lon": -77.00095166666667, "bike_id": "f11b116c728489315761607b83b22656", "lat": 38.900097333333335, "fusion_lon": 0.0, "fusion_lat": 0.0, "type": "electric_scooter", "name": "f11b116c728489315761607b83b22656", "is_disabled": 0, "rental_uris": {"ios": "https://dc.lft.to/lastmile_qr_scan", "android": "https://dc.lft.to/lastmile_qr_scan"}, "is_reserved": 0}, {"lon": -77.0228365, "bike_id": "af0baccb199794bdef41c2455d55c017", "lat": 38.91650116666667, "fusion_lon": 0.0, "fusion_lat": 0.0, "type": "electric_scooter", "name": "af0baccb199794bdef41c2455d55c017", "is_disabled": 0, "rental_uris": {"ios": "https://dc.lft.to/lastmile_qr_scan", "android": "https://dc.lft.to/lastmile_qr_scan"}, "is_reserved": 0}, {"lon": -77.00528083333333, "bike_id": "49bc8a954858b3ee2ec1fcf3ee623b24", "lat": 38.92976783333334, "fusion_lon": 0.0, "fusion_lat": 0.0, "type": "electric_scooter", "name": "49bc8a954858b3ee2ec1fcf3ee623b24", "is_disabled": 0, "rental_uris": {"ios": "https://dc.lft.to/lastmile_qr_scan", "android": "https://dc.lft.to/lastmile_qr_scan"}, "is_reserved": 0}, {"lon": -77.00204566666666, "bike_id": "5ae71969bea6506bf74e0422a3536ab0", "lat": 38.895394333333336, "fusion_lon": 0.0, "fusion_lat": 0.0, "type": "electric_scooter", "name": "5ae71969bea6506bf74e0422a3536ab0", "is_disabled": 0, "rental_uris": {"ios": "https://dc.lft.to/lastmile_qr_scan", "android": "https://dc.lft.to/lastmile_qr_scan"}, "is_reserved": 0}, {"lon": -77.0464855, "bike_id": "63ab7a76a4c0f47c0e2dec1f9cba6cdb", "lat": 38.909704, "fusion_lon": 0.0, "fusion_lat": 0.0, "type": "electric_scooter", "name": "63ab7a76a4c0f47c0e2dec1f9cba6cdb", "is_disabled": 0, "rental_uris": {"ios": "https://dc.lft.to/lastmile_qr_scan", "android": "https://dc.lft.to/lastmile_qr_scan"}, "is_reserved": 0}, {"lon": -77.02643366666666, "bike_id": "69de31b00fc4792b1da4083689ab6274", "lat": 38.892096333333335, "fusion_lon": 0.0, "fusion_lat": 0.0, "type": "electric_scooter", "name": "69de31b00fc4792b1da4083689ab6274", "is_disabled": 0, "rental_uris": {"ios": "https://dc.lft.to/lastmile_qr_scan", "android": "https://dc.lft.to/lastmile_qr_scan"}, "is_reserved": 0}, {"lon": -77.03450666666667, "bike_id": "5505d8080ab0d33b7c5510d860a5a5ea", "lat": 38.917404, "fusion_lon": 0.0, "fusion_lat": 0.0, "type": "electric_scooter", "name": "5505d8080ab0d33b7c5510d860a5a5ea", "is_disabled": 0, "rental_uris": {"ios": "https://dc.lft.to/lastmile_qr_scan", "android": "https://dc.lft.to/lastmile_qr_scan"}, "is_reserved": 0}, {"lon": -77.0282515, "bike_id": "9876fd9273bc9e90ba3b91a2983a466f", "lat": 38.88733116666667, "fusion_lon": 0.0, "fusion_lat": 0.0, "type": "electric_scooter", "name": "9876fd9273bc9e90ba3b91a2983a466f", "is_disabled": 0, "rental_uris": {"ios": "https://dc.lft.to/lastmile_qr_scan", "android": "https://dc.lft.to/lastmile_qr_scan"}, "is_reserved": 0}, {"lon": -76.93734566666667, "bike_id": "a4c8cb32e5a1d76c2f27f93a47ba311f", "lat": 38.88997633333334, "fusion_lon": 0.0, "fusion_lat": 0.0, "type": "electric_scooter", "name": "a4c8cb32e5a1d76c2f27f93a47ba311f", "is_disabled": 0, "rental_uris": {"ios": "https://dc.lft.to/lastmile_qr_scan", "android": "https://dc.lft.to/lastmile_qr_scan"}, "is_reserved": 0}, {"lon": -76.99487283333333, "bike_id": "084ee42eecc2f450f14229f36b22931f", "lat": 38.92260066666667, "fusion_lon": 0.0, "fusion_lat": 0.0, "type": "electric_scooter", "name": "084ee42eecc2f450f14229f36b22931f", "is_disabled": 0, "rental_uris": {"ios": "https://dc.lft.to/lastmile_qr_scan", "android": "https://dc.lft.to/lastmile_qr_scan"}, "is_reserved": 0}, {"lon": -77.02468316666666, "bike_id": "d7a94594fe8ec6f81ceb81b173d1eefc", "lat": 38.938828666666666, "fusion_lon": 0.0, "fusion_lat": 0.0, "type": "electric_scooter", "name": "d7a94594fe8ec6f81ceb81b173d1eefc", "is_disabled": 0, "rental_uris": {"ios": "https://dc.lft.to/lastmile_qr_scan", "android": "https://dc.lft.to/lastmile_qr_scan"}, "is_reserved": 0}, {"lon": -77.01775766666667, "bike_id": "419741395f59dc35613bcf8e5bc819ff", "lat": 38.9011555, "fusion_lon": 0.0, "fusion_lat": 0.0, "type": "electric_scooter", "name": "419741395f59dc35613bcf8e5bc819ff", "is_disabled": 0, "rental_uris": {"ios": "https://dc.lft.to/lastmile_qr_scan", "android": "https://dc.lft.to/lastmile_qr_scan"}, "is_reserved": 0}, {"lon": -77.0400925, "bike_id": "ff9e89e68ea598c7506c967ec0deaf37", "lat": 38.903663333333334, "fusion_lon": 0.0, "fusion_lat": 0.0, "type": "electric_scooter", "name": "ff9e89e68ea598c7506c967ec0deaf37", "is_disabled": 0, "rental_uris": {"ios": "https://dc.lft.to/lastmile_qr_scan", "android": "https://dc.lft.to/lastmile_qr_scan"}, "is_reserved": 0}, {"lon": -76.95658483333334, "bike_id": "eed317b003a01e4688d333446fa4f4ad", "lat": 38.8962695, "fusion_lon": 0.0, "fusion_lat": 0.0, "type": "electric_scooter", "name": "eed317b003a01e4688d333446fa4f4ad", "is_disabled": 0, "rental_uris": {"ios": "https://dc.lft.to/lastmile_qr_scan", "android": "https://dc.lft.to/lastmile_qr_scan"}, "is_reserved": 0}, {"lon": -77.12741933333334, "bike_id": "374c519bfa9c09cb610276b9d2b675cb", "lat": 38.895632666666664, "fusion_lon": 0.0, "fusion_lat": 0.0, "type": "electric_bike", "name": "374c519bfa9c09cb610276b9d2b675cb", "is_disabled": 0, "rental_uris": {"ios": "https://dc.lft.to/lastmile_qr_scan", "android": "https://dc.lft.to/lastmile_qr_scan"}, "is_reserved": 0}, {"lon": -77.0180815, "bike_id": "5011867cbde79fb506b41c7c31e1ae79", "lat": 38.96478883333333, "fusion_lon": 0.0, "fusion_lat": 0.0, "type": "electric_scooter", "name": "5011867cbde79fb506b41c7c31e1ae79", "is_disabled": 0, "rental_uris": {"ios": "https://dc.lft.to/lastmile_qr_scan", "android": "https://dc.lft.to/lastmile_qr_scan"}, "is_reserved": 0}, {"lon": -76.884018, "bike_id": "c4e7bfc45d57ed07e48082ef27136f5d", "lat": 38.931704833333335, "fusion_lon": 0.0, "fusion_lat": 0.0, "type": "electric_bike", "name": "c4e7bfc45d57ed07e48082ef27136f5d", "is_disabled": 0, "rental_uris": {"ios": "https://dc.lft.to/lastmile_qr_scan", "android": "https://dc.lft.to/lastmile_qr_scan"}, "is_reserved": 0}, {"lon": -77.03881833333334, "bike_id": "d929054ea001187b8a63ec3aa6ecc76d", "lat": 38.94868533333333, "fusion_lon": 0.0, "fusion_lat": 0.0, "type": "electric_scooter", "name": "d929054ea001187b8a63ec3aa6ecc76d", "is_disabled": 0, "rental_uris": {"ios": "https://dc.lft.to/lastmile_qr_scan", "android": "https://dc.lft.to/lastmile_qr_scan"}, "is_reserved": 0}, {"lon": -77.0573915, "bike_id": "ca52ee37a9c118ee0340b8dd5318db1e", "lat": 38.93393583333334, "fusion_lon": 0.0, "fusion_lat": 0.0, "type": "electric_scooter", "name": "ca52ee37a9c118ee0340b8dd5318db1e", "is_disabled": 0, "rental_uris": {"ios": "https://dc.lft.to/lastmile_qr_scan", "android": "https://dc.lft.to/lastmile_qr_scan"}, "is_reserved": 0}, {"lon": -76.98825383333333, "bike_id": "f411b4baee8b995ff4c6f10f3eaff6ef", "lat": 38.89073616666667, "fusion_lon": 0.0, "fusion_lat": 0.0, "type": "electric_scooter", "name": "f411b4baee8b995ff4c6f10f3eaff6ef", "is_disabled": 0, "rental_uris": {"ios": "https://dc.lft.to/lastmile_qr_scan", "android": "https://dc.lft.to/lastmile_qr_scan"}, "is_reserved": 0}, {"lon": -77.02750816666666, "bike_id": "6c2cdce77a8b40ad5967637042c312ea", "lat": 38.965682, "fusion_lon": 0.0, "fusion_lat": 0.0, "type": "electric_bike", "name": "6c2cdce77a8b40ad5967637042c312ea", "is_disabled": 0, "rental_uris": {"ios": "https://dc.lft.to/lastmile_qr_scan", "android": "https://dc.lft.to/lastmile_qr_scan"}, "is_reserved": 0}, {"lon": -76.9613445, "bike_id": "fc0e8b5eccf51e7c5688bbe109f4fc11", "lat": 38.9421105, "fusion_lon": 0.0, "fusion_lat": 0.0, "type": "electric_bike", "name": "fc0e8b5eccf51e7c5688bbe109f4fc11", "is_disabled": 0, "rental_uris": {"ios": "https://dc.lft.to/lastmile_qr_scan", "android": "https://dc.lft.to/lastmile_qr_scan"}, "is_reserved": 0}, {"lon": -77.04642466666667, "bike_id": "bff007d22e6465c48e52d978756d6624", "lat": 39.05498266666667, "fusion_lon": 0.0, "fusion_lat": 0.0, "type": "electric_bike", "name": "bff007d22e6465c48e52d978756d6624", "is_disabled": 0, "rental_uris": {"ios": "https://dc.lft.to/lastmile_qr_scan", "android": "https://dc.lft.to/lastmile_qr_scan"}, "is_reserved": 0}, {"lon": -77.055891, "bike_id": "bb9792a14ab06950c3716ecf9b4d6e59", "lat": 38.931429333333334, "fusion_lon": 0.0, "fusion_lat": 0.0, "type": "electric_scooter", "name": "bb9792a14ab06950c3716ecf9b4d6e59", "is_disabled": 0, "rental_uris": {"ios": "https://dc.lft.to/lastmile_qr_scan", "android": "https://dc.lft.to/lastmile_qr_scan"}, "is_reserved": 0}, {"lon": -77.04340166666667, "bike_id": "d00990767efd02cdfeac9b3f3abbe091", "lat": 38.9296465, "fusion_lon": 0.0, "fusion_lat": 0.0, "type": "electric_scooter", "name": "d00990767efd02cdfeac9b3f3abbe091", "is_disabled": 0, "rental_uris": {"ios": "https://dc.lft.to/lastmile_qr_scan", "android": "https://dc.lft.to/lastmile_qr_scan"}, "is_reserved": 0}, {"lon": -77.02691133333333, "bike_id": "1a61cdb94b112c259596c70791bd58ef", "lat": 38.9135345, "fusion_lon": 0.0, "fusion_lat": 0.0, "type": "electric_scooter", "name": "1a61cdb94b112c259596c70791bd58ef", "is_disabled": 0, "rental_uris": {"ios": "https://dc.lft.to/lastmile_qr_scan", "android": "https://dc.lft.to/lastmile_qr_scan"}, "is_reserved": 0}, {"lon": -77.04875333333334, "bike_id": "c9f6d04f3bd5e5acf95175fc7a970c30", "lat": 38.90969883333333, "fusion_lon": 0.0, "fusion_lat": 0.0, "type": "electric_scooter", "name": "c9f6d04f3bd5e5acf95175fc7a970c30", "is_disabled": 0, "rental_uris": {"ios": "https://dc.lft.to/lastmile_qr_scan", "android": "https://dc.lft.to/lastmile_qr_scan"}, "is_reserved": 0}, {"lon": -77.031827, "bike_id": "db3ee2487ed0c95e17313918a933c20d", "lat": 38.913371166666664, "fusion_lon": 0.0, "fusion_lat": 0.0, "type": "electric_scooter", "name": "db3ee2487ed0c95e17313918a933c20d", "is_disabled": 0, "rental_uris": {"ios": "https://dc.lft.to/lastmile_qr_scan", "android": "https://dc.lft.to/lastmile_qr_scan"}, "is_reserved": 0}, {"lon": -77.043318, "bike_id": "812cb16aa3a0774714b93c0aa547c8bf", "lat": 38.90556016666667, "fusion_lon": 0.0, "fusion_lat": 0.0, "type": "electric_scooter", "name": "812cb16aa3a0774714b93c0aa547c8bf", "is_disabled": 0, "rental_uris": {"ios": "https://dc.lft.to/lastmile_qr_scan", "android": "https://dc.lft.to/lastmile_qr_scan"}, "is_reserved": 0}, {"lon": -77.0228175, "bike_id": "3bc2eca9b4e660eb470309782d2b31d4", "lat": 38.90958583333333, "fusion_lon": 0.0, "fusion_lat": 0.0, "type": "electric_scooter", "name": "3bc2eca9b4e660eb470309782d2b31d4", "is_disabled": 0, "rental_uris": {"ios": "https://dc.lft.to/lastmile_qr_scan", "android": "https://dc.lft.to/lastmile_qr_scan"}, "is_reserved": 0}, {"lon": -77.021607, "bike_id": "f4be23bd395e972b64501eb5ef8e4d7c", "lat": 38.892188, "fusion_lon": 0.0, "fusion_lat": 0.0, "type": "electric_scooter", "name": "f4be23bd395e972b64501eb5ef8e4d7c", "is_disabled": 0, "rental_uris": {"ios": "https://dc.lft.to/lastmile_qr_scan", "android": "https://dc.lft.to/lastmile_qr_scan"}, "is_reserved": 0}, {"lon": -77.02385933333333, "bike_id": "76e65b2887bd8a443c2769fb723e6735", "lat": 38.9073095, "fusion_lon": 0.0, "fusion_lat": 0.0, "type": "electric_scooter", "name": "76e65b2887bd8a443c2769fb723e6735", "is_disabled": 0, "rental_uris": {"ios": "https://dc.lft.to/lastmile_qr_scan", "android": "https://dc.lft.to/lastmile_qr_scan"}, "is_reserved": 0}, {"lon": -77.04095833333334, "bike_id": "df5985fa49c7b68f29b968e8a68198ce", "lat": 38.92368166666667, "fusion_lon": 0.0, "fusion_lat": 0.0, "type": "electric_scooter", "name": "df5985fa49c7b68f29b968e8a68198ce", "is_disabled": 0, "rental_uris": {"ios": "https://dc.lft.to/lastmile_qr_scan", "android": "https://dc.lft.to/lastmile_qr_scan"}, "is_reserved": 0}, {"lon": -76.93372816666667, "bike_id": "4b390fa9f8c911a9416e21c46ed5f025", "lat": 38.899179333333336, "fusion_lon": 0.0, "fusion_lat": 0.0, "type": "electric_scooter", "name": "4b390fa9f8c911a9416e21c46ed5f025", "is_disabled": 0, "rental_uris": {"ios": "https://dc.lft.to/lastmile_qr_scan", "android": "https://dc.lft.to/lastmile_qr_scan"}, "is_reserved": 0}, {"lon": -76.98177016666666, "bike_id": "ac1e6dc5bea73a6120323f4d2f73c927", "lat": 38.89576816666667, "fusion_lon": 0.0, "fusion_lat": 0.0, "type": "electric_scooter", "name": "ac1e6dc5bea73a6120323f4d2f73c927", "is_disabled": 0, "rental_uris": {"ios": "https://dc.lft.to/lastmile_qr_scan", "android": "https://dc.lft.to/lastmile_qr_scan"}, "is_reserved": 0}, {"lon": -77.0229885, "bike_id": "acd1ed1f264d688c450bda432b8a2b49", "lat": 38.90972416666666, "fusion_lon": 0.0, "fusion_lat": 0.0, "type": "electric_scooter", "name": "acd1ed1f264d688c450bda432b8a2b49", "is_disabled": 0, "rental_uris": {"ios": "https://dc.lft.to/lastmile_qr_scan", "android": "https://dc.lft.to/lastmile_qr_scan"}, "is_reserved": 0}, {"lon": -77.04741266666667, "bike_id": "74d4680924927d8f625f90c02d510c0b", "lat": 38.91767466666667, "fusion_lon": 0.0, "fusion_lat": 0.0, "type": "electric_scooter", "name": "74d4680924927d8f625f90c02d510c0b", "is_disabled": 0, "rental_uris": {"ios": "https://dc.lft.to/lastmile_qr_scan", "android": "https://dc.lft.to/lastmile_qr_scan"}, "is_reserved": 0}, {"lon": -77.0246605, "bike_id": "f033d6be721c2da1ededdce7ef0183ad", "lat": 38.920789166666665, "fusion_lon": 0.0, "fusion_lat": 0.0, "type": "electric_scooter", "name": "f033d6be721c2da1ededdce7ef0183ad", "is_disabled": 0, "rental_uris": {"ios": "https://dc.lft.to/lastmile_qr_scan", "android": "https://dc.lft.to/lastmile_qr_scan"}, "is_reserved": 0}, {"lon": -76.9852785, "bike_id": "4589111315b1ec357d2d2cd6425c86dd", "lat": 38.904622, "fusion_lon": 0.0, "fusion_lat": 0.0, "type": "electric_scooter", "name": "4589111315b1ec357d2d2cd6425c86dd", "is_disabled": 0, "rental_uris": {"ios": "https://dc.lft.to/lastmile_qr_scan", "android": "https://dc.lft.to/lastmile_qr_scan"}, "is_reserved": 0}, {"lon": -77.01792416666666, "bike_id": "0e6e511c71715988ac8c1e8cc21cf920", "lat": 38.9212845, "fusion_lon": 0.0, "fusion_lat": 0.0, "type": "electric_scooter", "name": "0e6e511c71715988ac8c1e8cc21cf920", "is_disabled": 0, "rental_uris": {"ios": "https://dc.lft.to/lastmile_qr_scan", "android": "https://dc.lft.to/lastmile_qr_scan"}, "is_reserved": 0}, {"lon": -77.04819066666667, "bike_id": "23f221b3ed0e6b1e5ecea900ae33e8d3", "lat": 38.90719766666667, "fusion_lon": 0.0, "fusion_lat": 0.0, "type": "electric_scooter", "name": "23f221b3ed0e6b1e5ecea900ae33e8d3", "is_disabled": 0, "rental_uris": {"ios": "https://dc.lft.to/lastmile_qr_scan", "android": "https://dc.lft.to/lastmile_qr_scan"}, "is_reserved": 0}, {"lon": -77.0385225, "bike_id": "ae162b47671f991a8ed29c84a3cb5cff", "lat": 38.9069395, "fusion_lon": 0.0, "fusion_lat": 0.0, "type": "electric_scooter", "name": "ae162b47671f991a8ed29c84a3cb5cff", "is_disabled": 0, "rental_uris": {"ios": "https://dc.lft.to/lastmile_qr_scan", "android": "https://dc.lft.to/lastmile_qr_scan"}, "is_reserved": 0}, {"lon": -77.11709, "bike_id": "b5b2c91be24ee30d2318f8ba54c0d4f0", "lat": 38.86747283333333, "fusion_lon": 0.0, "fusion_lat": 0.0, "type": "electric_bike", "name": "b5b2c91be24ee30d2318f8ba54c0d4f0", "is_disabled": 0, "rental_uris": {"ios": "https://dc.lft.to/lastmile_qr_scan", "android": "https://dc.lft.to/lastmile_qr_scan"}, "is_reserved": 0}, {"lon": -77.000964, "bike_id": "4b0e43a58c2af5236bad08917a12964c", "lat": 38.91634633333334, "fusion_lon": 0.0, "fusion_lat": 0.0, "type": "electric_scooter", "name": "4b0e43a58c2af5236bad08917a12964c", "is_disabled": 0, "rental_uris": {"ios": "https://dc.lft.to/lastmile_qr_scan", "android": "https://dc.lft.to/lastmile_qr_scan"}, "is_reserved": 0}, {"lon": -77.013501, "bike_id": "7a015aa7927d936faa587a03484e629f", "lat": 38.878117333333336, "fusion_lon": 0.0, "fusion_lat": 0.0, "type": "electric_scooter", "name": "7a015aa7927d936faa587a03484e629f", "is_disabled": 0, "rental_uris": {"ios": "https://dc.lft.to/lastmile_qr_scan", "android": "https://dc.lft.to/lastmile_qr_scan"}, "is_reserved": 0}, {"lon": -77.02689466666666, "bike_id": "129dad1e36e68999bd48baac02d4146e", "lat": 38.9065965, "fusion_lon": 0.0, "fusion_lat": 0.0, "type": "electric_scooter", "name": "129dad1e36e68999bd48baac02d4146e", "is_disabled": 0, "rental_uris": {"ios": "https://dc.lft.to/lastmile_qr_scan", "android": "https://dc.lft.to/lastmile_qr_scan"}, "is_reserved": 0}, {"lon": -77.03295016666667, "bike_id": "353b788af005ac0af4f855be326a65fe", "lat": 38.9284885, "fusion_lon": 0.0, "fusion_lat": 0.0, "type": "electric_scooter", "name": "353b788af005ac0af4f855be326a65fe", "is_disabled": 0, "rental_uris": {"ios": "https://dc.lft.to/lastmile_qr_scan", "android": "https://dc.lft.to/lastmile_qr_scan"}, "is_reserved": 0}, {"lon": -77.03217883333333, "bike_id": "e133e53e33a83bd8562a99999f4d7bb3", "lat": 38.916449166666666, "fusion_lon": 0.0, "fusion_lat": 0.0, "type": "electric_scooter", "name": "e133e53e33a83bd8562a99999f4d7bb3", "is_disabled": 0, "rental_uris": {"ios": "https://dc.lft.to/lastmile_qr_scan", "android": "https://dc.lft.to/lastmile_qr_scan"}, "is_reserved": 0}, {"lon": -77.06168216666667, "bike_id": "0a5f101243571233f0d4aa6b638c9c7b", "lat": 38.90524166666667, "fusion_lon": 0.0, "fusion_lat": 0.0, "type": "electric_scooter", "name": "0a5f101243571233f0d4aa6b638c9c7b", "is_disabled": 0, "rental_uris": {"ios": "https://dc.lft.to/lastmile_qr_scan", "android": "https://dc.lft.to/lastmile_qr_scan"}, "is_reserved": 0}, {"lon": -77.02260866666667, "bike_id": "7edf2b48b55f7363edd132260953b313", "lat": 38.89380233333333, "fusion_lon": 0.0, "fusion_lat": 0.0, "type": "electric_scooter", "name": "7edf2b48b55f7363edd132260953b313", "is_disabled": 0, "rental_uris": {"ios": "https://dc.lft.to/lastmile_qr_scan", "android": "https://dc.lft.to/lastmile_qr_scan"}, "is_reserved": 0}, {"lon": -76.95402083333333, "bike_id": "d559c1dad8a71a07812b5d1a6f5aa4dd", "lat": 38.884637833333336, "fusion_lon": 0.0, "fusion_lat": 0.0, "type": "electric_scooter", "name": "d559c1dad8a71a07812b5d1a6f5aa4dd", "is_disabled": 0, "rental_uris": {"ios": "https://dc.lft.to/lastmile_qr_scan", "android": "https://dc.lft.to/lastmile_qr_scan"}, "is_reserved": 0}, {"lon": -77.01430716666667, "bike_id": "6f5b5490f2e30552ed4b40b31669e406", "lat": 38.877470333333335, "fusion_lon": 0.0, "fusion_lat": 0.0, "type": "electric_scooter", "name": "6f5b5490f2e30552ed4b40b31669e406", "is_disabled": 0, "rental_uris": {"ios": "https://dc.lft.to/lastmile_qr_scan", "android": "https://dc.lft.to/lastmile_qr_scan"}, "is_reserved": 0}, {"lon": -76.96060816666666, "bike_id": "983673d15ad59e56e5ed058aec488296", "lat": 38.88406616666666, "fusion_lon": 0.0, "fusion_lat": 0.0, "type": "electric_bike", "name": "983673d15ad59e56e5ed058aec488296", "is_disabled": 0, "rental_uris": {"ios": "https://dc.lft.to/lastmile_qr_scan", "android": "https://dc.lft.to/lastmile_qr_scan"}, "is_reserved": 0}, {"lon": -77.02195766666667, "bike_id": "b328d56fdfc56e882e13d0cf81049f8e", "lat": 38.91479016666667, "fusion_lon": 0.0, "fusion_lat": 0.0, "type": "electric_scooter", "name": "b328d56fdfc56e882e13d0cf81049f8e", "is_disabled": 0, "rental_uris": {"ios": "https://dc.lft.to/lastmile_qr_scan", "android": "https://dc.lft.to/lastmile_qr_scan"}, "is_reserved": 0}, {"lon": -76.98715016666667, "bike_id": "52898d347d8cd43b88833e1f978eea81", "lat": 38.86630816666667, "fusion_lon": 0.0, "fusion_lat": 0.0, "type": "electric_scooter", "name": "52898d347d8cd43b88833e1f978eea81", "is_disabled": 0, "rental_uris": {"ios": "https://dc.lft.to/lastmile_qr_scan", "android": "https://dc.lft.to/lastmile_qr_scan"}, "is_reserved": 0}, {"lon": -76.98227783333333, "bike_id": "76c4e97f3a1cd8e8e8730fb44c20cb3f", "lat": 38.91650333333333, "fusion_lon": 0.0, "fusion_lat": 0.0, "type": "electric_scooter", "name": "76c4e97f3a1cd8e8e8730fb44c20cb3f", "is_disabled": 0, "rental_uris": {"ios": "https://dc.lft.to/lastmile_qr_scan", "android": "https://dc.lft.to/lastmile_qr_scan"}, "is_reserved": 0}, {"lon": -77.05423066666667, "bike_id": "ac2657d92e6f2d7a8351e1b46cc6551c", "lat": 38.92843216666667, "fusion_lon": 0.0, "fusion_lat": 0.0, "type": "electric_scooter", "name": "ac2657d92e6f2d7a8351e1b46cc6551c", "is_disabled": 0, "rental_uris": {"ios": "https://dc.lft.to/lastmile_qr_scan", "android": "https://dc.lft.to/lastmile_qr_scan"}, "is_reserved": 0}, {"lon": -77.033446, "bike_id": "63cf7c412003f4e9a5159da5d7a54db5", "lat": 38.90710116666666, "fusion_lon": 0.0, "fusion_lat": 0.0, "type": "electric_scooter", "name": "63cf7c412003f4e9a5159da5d7a54db5", "is_disabled": 0, "rental_uris": {"ios": "https://dc.lft.to/lastmile_qr_scan", "android": "https://dc.lft.to/lastmile_qr_scan"}, "is_reserved": 0}, {"lon": -77.04211116666667, "bike_id": "dde3060a3d5a7ebc78e69c9ddaf32a81", "lat": 38.8926885, "fusion_lon": 0.0, "fusion_lat": 0.0, "type": "electric_scooter", "name": "dde3060a3d5a7ebc78e69c9ddaf32a81", "is_disabled": 0, "rental_uris": {"ios": "https://dc.lft.to/lastmile_qr_scan", "android": "https://dc.lft.to/lastmile_qr_scan"}, "is_reserved": 0}, {"lon": -77.04066766666666, "bike_id": "b59781dc7d5a8059bbfca5975afb0871", "lat": 38.91270933333333, "fusion_lon": 0.0, "fusion_lat": 0.0, "type": "electric_scooter", "name": "b59781dc7d5a8059bbfca5975afb0871", "is_disabled": 0, "rental_uris": {"ios": "https://dc.lft.to/lastmile_qr_scan", "android": "https://dc.lft.to/lastmile_qr_scan"}, "is_reserved": 0}, {"lon": -77.002287, "bike_id": "79c3b2eb25d4e14110fc699110714bf9", "lat": 38.9083215, "fusion_lon": 0.0, "fusion_lat": 0.0, "type": "electric_scooter", "name": "79c3b2eb25d4e14110fc699110714bf9", "is_disabled": 0, "rental_uris": {"ios": "https://dc.lft.to/lastmile_qr_scan", "android": "https://dc.lft.to/lastmile_qr_scan"}, "is_reserved": 0}, {"lon": -77.03267883333334, "bike_id": "e7584b94800ba3431511739aedb9dc31", "lat": 38.93446933333333, "fusion_lon": 0.0, "fusion_lat": 0.0, "type": "electric_scooter", "name": "e7584b94800ba3431511739aedb9dc31", "is_disabled": 0, "rental_uris": {"ios": "https://dc.lft.to/lastmile_qr_scan", "android": "https://dc.lft.to/lastmile_qr_scan"}, "is_reserved": 0}, {"lon": -77.0241325, "bike_id": "7778c0ce3e6677f2f9859c8fb374cd71", "lat": 38.90043716666667, "fusion_lon": 0.0, "fusion_lat": 0.0, "type": "electric_scooter", "name": "7778c0ce3e6677f2f9859c8fb374cd71", "is_disabled": 0, "rental_uris": {"ios": "https://dc.lft.to/lastmile_qr_scan", "android": "https://dc.lft.to/lastmile_qr_scan"}, "is_reserved": 0}, {"lon": -77.01550166666667, "bike_id": "5b7a5b0e7170eba7ba7c3b9ab86536dc", "lat": 38.89219216666667, "fusion_lon": 0.0, "fusion_lat": 0.0, "type": "electric_scooter", "name": "5b7a5b0e7170eba7ba7c3b9ab86536dc", "is_disabled": 0, "rental_uris": {"ios": "https://dc.lft.to/lastmile_qr_scan", "android": "https://dc.lft.to/lastmile_qr_scan"}, "is_reserved": 0}, {"lon": -76.94803833333333, "bike_id": "0b17dc9ceac7f3597af64809721d3792", "lat": 38.861945166666665, "fusion_lon": 0.0, "fusion_lat": 0.0, "type": "electric_bike", "name": "0b17dc9ceac7f3597af64809721d3792", "is_disabled": 0, "rental_uris": {"ios": "https://dc.lft.to/lastmile_qr_scan", "android": "https://dc.lft.to/lastmile_qr_scan"}, "is_reserved": 0}, {"lon": -76.99517933333334, "bike_id": "0577f822d0ccbc785ad3310b442da000", "lat": 38.896048, "fusion_lon": 0.0, "fusion_lat": 0.0, "type": "electric_scooter", "name": "0577f822d0ccbc785ad3310b442da000", "is_disabled": 0, "rental_uris": {"ios": "https://dc.lft.to/lastmile_qr_scan", "android": "https://dc.lft.to/lastmile_qr_scan"}, "is_reserved": 0}, {"lon": -76.98836516666667, "bike_id": "80c8e2cef2e88892eaff9269fd7d0bf8", "lat": 38.90071866666667, "fusion_lon": 0.0, "fusion_lat": 0.0, "type": "electric_scooter", "name": "80c8e2cef2e88892eaff9269fd7d0bf8", "is_disabled": 0, "rental_uris": {"ios": "https://dc.lft.to/lastmile_qr_scan", "android": "https://dc.lft.to/lastmile_qr_scan"}, "is_reserved": 0}, {"lon": -77.03270183333333, "bike_id": "c8e6eb699d0c05e311fb917af30336a1", "lat": 38.9274145, "fusion_lon": 0.0, "fusion_lat": 0.0, "type": "electric_scooter", "name": "c8e6eb699d0c05e311fb917af30336a1", "is_disabled": 0, "rental_uris": {"ios": "https://dc.lft.to/lastmile_qr_scan", "android": "https://dc.lft.to/lastmile_qr_scan"}, "is_reserved": 0}, {"lon": -77.04106616666667, "bike_id": "cef09ce55b4c05d7f548a781e16c9003", "lat": 38.898419833333335, "fusion_lon": 0.0, "fusion_lat": 0.0, "type": "electric_scooter", "name": "cef09ce55b4c05d7f548a781e16c9003", "is_disabled": 0, "rental_uris": {"ios": "https://dc.lft.to/lastmile_qr_scan", "android": "https://dc.lft.to/lastmile_qr_scan"}, "is_reserved": 0}, {"lon": -77.00709116666667, "bike_id": "9956e53b94e6beb935abc7433e422509", "lat": 38.884891833333334, "fusion_lon": 0.0, "fusion_lat": 0.0, "type": "electric_scooter", "name": "9956e53b94e6beb935abc7433e422509", "is_disabled": 0, "rental_uris": {"ios": "https://dc.lft.to/lastmile_qr_scan", "android": "https://dc.lft.to/lastmile_qr_scan"}, "is_reserved": 0}, {"lon": -76.9412, "bike_id": "09d17ca8d553631a212b69758f68ba3f", "lat": 38.908200666666666, "fusion_lon": 0.0, "fusion_lat": 0.0, "type": "electric_scooter", "name": "09d17ca8d553631a212b69758f68ba3f", "is_disabled": 0, "rental_uris": {"ios": "https://dc.lft.to/lastmile_qr_scan", "android": "https://dc.lft.to/lastmile_qr_scan"}, "is_reserved": 0}, {"lon": -77.03387333333333, "bike_id": "e720745d9df097d3e77ba73ab47e4067", "lat": 38.93874016666667, "fusion_lon": 0.0, "fusion_lat": 0.0, "type": "electric_scooter", "name": "e720745d9df097d3e77ba73ab47e4067", "is_disabled": 0, "rental_uris": {"ios": "https://dc.lft.to/lastmile_qr_scan", "android": "https://dc.lft.to/lastmile_qr_scan"}, "is_reserved": 0}, {"lon": -76.99775266666667, "bike_id": "5d73088e1accbe1f0c5d27528b9a2372", "lat": 38.843023, "fusion_lon": 0.0, "fusion_lat": 0.0, "type": "electric_scooter", "name": "5d73088e1accbe1f0c5d27528b9a2372", "is_disabled": 0, "rental_uris": {"ios": "https://dc.lft.to/lastmile_qr_scan", "android": "https://dc.lft.to/lastmile_qr_scan"}, "is_reserved": 0}, {"lon": -77.02382783333333, "bike_id": "72b0a2bb80d43c4495614b941cbce1f2", "lat": 38.906745666666666, "fusion_lon": 0.0, "fusion_lat": 0.0, "type": "electric_scooter", "name": "72b0a2bb80d43c4495614b941cbce1f2", "is_disabled": 0, "rental_uris": {"ios": "https://dc.lft.to/lastmile_qr_scan", "android": "https://dc.lft.to/lastmile_qr_scan"}, "is_reserved": 0}, {"lon": -77.02476083333333, "bike_id": "68ab8d5769ea11b887d13f24c8f93787", "lat": 38.904048333333336, "fusion_lon": 0.0, "fusion_lat": 0.0, "type": "electric_scooter", "name": "68ab8d5769ea11b887d13f24c8f93787", "is_disabled": 0, "rental_uris": {"ios": "https://dc.lft.to/lastmile_qr_scan", "android": "https://dc.lft.to/lastmile_qr_scan"}, "is_reserved": 0}, {"lon": -77.05862983333333, "bike_id": "6ddec3b680f201e9b7ef540770427d29", "lat": 38.93605566666667, "fusion_lon": 0.0, "fusion_lat": 0.0, "type": "electric_scooter", "name": "6ddec3b680f201e9b7ef540770427d29", "is_disabled": 0, "rental_uris": {"ios": "https://dc.lft.to/lastmile_qr_scan", "android": "https://dc.lft.to/lastmile_qr_scan"}, "is_reserved": 0}, {"lon": -77.01857433333333, "bike_id": "23ee27e1623da2a4629bf6650897f86f", "lat": 38.914893166666666, "fusion_lon": 0.0, "fusion_lat": 0.0, "type": "electric_scooter", "name": "23ee27e1623da2a4629bf6650897f86f", "is_disabled": 0, "rental_uris": {"ios": "https://dc.lft.to/lastmile_qr_scan", "android": "https://dc.lft.to/lastmile_qr_scan"}, "is_reserved": 0}, {"lon": -76.99048, "bike_id": "0b5355613edbf2c4fce75efe232ab695", "lat": 38.88414383333333, "fusion_lon": 0.0, "fusion_lat": 0.0, "type": "electric_scooter", "name": "0b5355613edbf2c4fce75efe232ab695", "is_disabled": 0, "rental_uris": {"ios": "https://dc.lft.to/lastmile_qr_scan", "android": "https://dc.lft.to/lastmile_qr_scan"}, "is_reserved": 0}, {"lon": -76.98226566666666, "bike_id": "23b8b051838f7dad6be43916bfe74c29", "lat": 38.866166666666665, "fusion_lon": 0.0, "fusion_lat": 0.0, "type": "electric_scooter", "name": "23b8b051838f7dad6be43916bfe74c29", "is_disabled": 0, "rental_uris": {"ios": "https://dc.lft.to/lastmile_qr_scan", "android": "https://dc.lft.to/lastmile_qr_scan"}, "is_reserved": 0}, {"lon": -77.0455915, "bike_id": "d3fa6d8ed25e812e0726d2bd24ee3c2c", "lat": 38.91828016666667, "fusion_lon": 0.0, "fusion_lat": 0.0, "type": "electric_scooter", "name": "d3fa6d8ed25e812e0726d2bd24ee3c2c", "is_disabled": 0, "rental_uris": {"ios": "https://dc.lft.to/lastmile_qr_scan", "android": "https://dc.lft.to/lastmile_qr_scan"}, "is_reserved": 0}, {"lon": -77.02941233333334, "bike_id": "b20697830d4fdaa75df2d4f2d5370af8", "lat": 38.907164333333334, "fusion_lon": 0.0, "fusion_lat": 0.0, "type": "electric_scooter", "name": "b20697830d4fdaa75df2d4f2d5370af8", "is_disabled": 0, "rental_uris": {"ios": "https://dc.lft.to/lastmile_qr_scan", "android": "https://dc.lft.to/lastmile_qr_scan"}, "is_reserved": 0}, {"lon": -76.99849033333334, "bike_id": "4dbaea8d1965d1aa87487c929a81fcb8", "lat": 38.907460666666665, "fusion_lon": 0.0, "fusion_lat": 0.0, "type": "electric_scooter", "name": "4dbaea8d1965d1aa87487c929a81fcb8", "is_disabled": 0, "rental_uris": {"ios": "https://dc.lft.to/lastmile_qr_scan", "android": "https://dc.lft.to/lastmile_qr_scan"}, "is_reserved": 0}, {"lon": -77.02607983333333, "bike_id": "a7e6bca4c9623f56b9f68d5ce0e8057e", "lat": 38.905166, "fusion_lon": 0.0, "fusion_lat": 0.0, "type": "electric_scooter", "name": "a7e6bca4c9623f56b9f68d5ce0e8057e", "is_disabled": 0, "rental_uris": {"ios": "https://dc.lft.to/lastmile_qr_scan", "android": "https://dc.lft.to/lastmile_qr_scan"}, "is_reserved": 0}, {"lon": -77.043219, "bike_id": "f920fdab0d633e89153a6b737ffa77f0", "lat": 38.90796566666667, "fusion_lon": 0.0, "fusion_lat": 0.0, "type": "electric_scooter", "name": "f920fdab0d633e89153a6b737ffa77f0", "is_disabled": 0, "rental_uris": {"ios": "https://dc.lft.to/lastmile_qr_scan", "android": "https://dc.lft.to/lastmile_qr_scan"}, "is_reserved": 0}, {"lon": -77.0001085, "bike_id": "175c9a1fad1dc5fd9db9a3e42d48d543", "lat": 38.874698, "fusion_lon": 0.0, "fusion_lat": 0.0, "type": "electric_scooter", "name": "175c9a1fad1dc5fd9db9a3e42d48d543", "is_disabled": 0, "rental_uris": {"ios": "https://dc.lft.to/lastmile_qr_scan", "android": "https://dc.lft.to/lastmile_qr_scan"}, "is_reserved": 0}, {"lon": -77.07343633333333, "bike_id": "93f1f7286216e364e0685f5f85807cf9", "lat": 38.911019, "fusion_lon": 0.0, "fusion_lat": 0.0, "type": "electric_scooter", "name": "93f1f7286216e364e0685f5f85807cf9", "is_disabled": 0, "rental_uris": {"ios": "https://dc.lft.to/lastmile_qr_scan", "android": "https://dc.lft.to/lastmile_qr_scan"}, "is_reserved": 0}, {"lon": -76.984919, "bike_id": "5d11280c09ca240bc4cc9d71a2586f1f", "lat": 38.89351083333333, "fusion_lon": 0.0, "fusion_lat": 0.0, "type": "electric_scooter", "name": "5d11280c09ca240bc4cc9d71a2586f1f", "is_disabled": 0, "rental_uris": {"ios": "https://dc.lft.to/lastmile_qr_scan", "android": "https://dc.lft.to/lastmile_qr_scan"}, "is_reserved": 0}, {"lon": -76.97904816666667, "bike_id": "f4051d1064726e7cae19c75e08483043", "lat": 38.92456166666667, "fusion_lon": 0.0, "fusion_lat": 0.0, "type": "electric_bike", "name": "f4051d1064726e7cae19c75e08483043", "is_disabled": 0, "rental_uris": {"ios": "https://dc.lft.to/lastmile_qr_scan", "android": "https://dc.lft.to/lastmile_qr_scan"}, "is_reserved": 0}, {"lon": -77.04098566666667, "bike_id": "474f292d6a0a7bbd325926adabd8f097", "lat": 38.92532033333333, "fusion_lon": 0.0, "fusion_lat": 0.0, "type": "electric_scooter", "name": "474f292d6a0a7bbd325926adabd8f097", "is_disabled": 0, "rental_uris": {"ios": "https://dc.lft.to/lastmile_qr_scan", "android": "https://dc.lft.to/lastmile_qr_scan"}, "is_reserved": 0}, {"lon": -77.02969666666667, "bike_id": "cca6f07e585ea92bdfc279d6bb10dd6a", "lat": 38.91679833333333, "fusion_lon": 0.0, "fusion_lat": 0.0, "type": "electric_scooter", "name": "cca6f07e585ea92bdfc279d6bb10dd6a", "is_disabled": 0, "rental_uris": {"ios": "https://dc.lft.to/lastmile_qr_scan", "android": "https://dc.lft.to/lastmile_qr_scan"}, "is_reserved": 0}, {"lon": -77.026788, "bike_id": "65c226ba959e221d6af96b8072f80915", "lat": 38.912561833333335, "fusion_lon": 0.0, "fusion_lat": 0.0, "type": "electric_scooter", "name": "65c226ba959e221d6af96b8072f80915", "is_disabled": 0, "rental_uris": {"ios": "https://dc.lft.to/lastmile_qr_scan", "android": "https://dc.lft.to/lastmile_qr_scan"}, "is_reserved": 0}, {"lon": -77.044549, "bike_id": "ebc9bf898a099ddde052dec129c00f32", "lat": 38.905463, "fusion_lon": 0.0, "fusion_lat": 0.0, "type": "electric_scooter", "name": "ebc9bf898a099ddde052dec129c00f32", "is_disabled": 0, "rental_uris": {"ios": "https://dc.lft.to/lastmile_qr_scan", "android": "https://dc.lft.to/lastmile_qr_scan"}, "is_reserved": 0}, {"lon": -77.04325833333333, "bike_id": "f5c3467fb79a38fc552ea1b03964eb01", "lat": 38.89222916666667, "fusion_lon": 0.0, "fusion_lat": 0.0, "type": "electric_scooter", "name": "f5c3467fb79a38fc552ea1b03964eb01", "is_disabled": 0, "rental_uris": {"ios": "https://dc.lft.to/lastmile_qr_scan", "android": "https://dc.lft.to/lastmile_qr_scan"}, "is_reserved": 0}, {"lon": -77.034619, "bike_id": "55c7580a475866a5a2d6cd9b4a877e06", "lat": 38.918763166666665, "fusion_lon": 0.0, "fusion_lat": 0.0, "type": "electric_scooter", "name": "55c7580a475866a5a2d6cd9b4a877e06", "is_disabled": 0, "rental_uris": {"ios": "https://dc.lft.to/lastmile_qr_scan", "android": "https://dc.lft.to/lastmile_qr_scan"}, "is_reserved": 0}, {"lon": -77.0456015, "bike_id": "c42285380cb8a631a92ecf72f2dcf236", "lat": 38.91459483333333, "fusion_lon": 0.0, "fusion_lat": 0.0, "type": "electric_scooter", "name": "c42285380cb8a631a92ecf72f2dcf236", "is_disabled": 0, "rental_uris": {"ios": "https://dc.lft.to/lastmile_qr_scan", "android": "https://dc.lft.to/lastmile_qr_scan"}, "is_reserved": 0}, {"lon": -77.05727383333333, "bike_id": "33744de320dddcf5b94e9bd7ab87b2a5", "lat": 38.93365266666667, "fusion_lon": 0.0, "fusion_lat": 0.0, "type": "electric_scooter", "name": "33744de320dddcf5b94e9bd7ab87b2a5", "is_disabled": 0, "rental_uris": {"ios": "https://dc.lft.to/lastmile_qr_scan", "android": "https://dc.lft.to/lastmile_qr_scan"}, "is_reserved": 0}, {"lon": -76.9732605, "bike_id": "76b1db5779095c78f3c59759493ba7b9", "lat": 38.904776166666664, "fusion_lon": 0.0, "fusion_lat": 0.0, "type": "electric_bike", "name": "76b1db5779095c78f3c59759493ba7b9", "is_disabled": 0, "rental_uris": {"ios": "https://dc.lft.to/lastmile_qr_scan", "android": "https://dc.lft.to/lastmile_qr_scan"}, "is_reserved": 0}, {"lon": -77.0048905, "bike_id": "75a20f79197ad9f251cb7e426000b594", "lat": 38.87474316666667, "fusion_lon": 0.0, "fusion_lat": 0.0, "type": "electric_scooter", "name": "75a20f79197ad9f251cb7e426000b594", "is_disabled": 0, "rental_uris": {"ios": "https://dc.lft.to/lastmile_qr_scan", "android": "https://dc.lft.to/lastmile_qr_scan"}, "is_reserved": 0}, {"lon": -77.03858016666666, "bike_id": "f445602e83b693422280b71381f0a790", "lat": 38.907051833333334, "fusion_lon": 0.0, "fusion_lat": 0.0, "type": "electric_scooter", "name": "f445602e83b693422280b71381f0a790", "is_disabled": 0, "rental_uris": {"ios": "https://dc.lft.to/lastmile_qr_scan", "android": "https://dc.lft.to/lastmile_qr_scan"}, "is_reserved": 0}, {"lon": -76.99974116666667, "bike_id": "ab8cc2be1f0a7c8e4acf070906d05283", "lat": 38.90845016666667, "fusion_lon": 0.0, "fusion_lat": 0.0, "type": "electric_scooter", "name": "ab8cc2be1f0a7c8e4acf070906d05283", "is_disabled": 0, "rental_uris": {"ios": "https://dc.lft.to/lastmile_qr_scan", "android": "https://dc.lft.to/lastmile_qr_scan"}, "is_reserved": 0}, {"lon": -77.00575716666667, "bike_id": "ac48fad67c1e427abd37709bb9be0d2a", "lat": 38.90924, "fusion_lon": 0.0, "fusion_lat": 0.0, "type": "electric_scooter", "name": "ac48fad67c1e427abd37709bb9be0d2a", "is_disabled": 0, "rental_uris": {"ios": "https://dc.lft.to/lastmile_qr_scan", "android": "https://dc.lft.to/lastmile_qr_scan"}, "is_reserved": 0}, {"lon": -76.99528166666667, "bike_id": "2dd8bb36f5614770026064b6cf9ed62f", "lat": 38.894777, "fusion_lon": 0.0, "fusion_lat": 0.0, "type": "electric_scooter", "name": "2dd8bb36f5614770026064b6cf9ed62f", "is_disabled": 0, "rental_uris": {"ios": "https://dc.lft.to/lastmile_qr_scan", "android": "https://dc.lft.to/lastmile_qr_scan"}, "is_reserved": 0}, {"lon": -77.031993, "bike_id": "758f4906f949c03a305c17377a8eaa28", "lat": 38.90775033333333, "fusion_lon": 0.0, "fusion_lat": 0.0, "type": "electric_scooter", "name": "758f4906f949c03a305c17377a8eaa28", "is_disabled": 0, "rental_uris": {"ios": "https://dc.lft.to/lastmile_qr_scan", "android": "https://dc.lft.to/lastmile_qr_scan"}, "is_reserved": 0}, {"lon": -76.9979465, "bike_id": "f2fcbebf36f6753c3ddbcaa277f54d2b", "lat": 38.956415166666666, "fusion_lon": 0.0, "fusion_lat": 0.0, "type": "electric_bike", "name": "f2fcbebf36f6753c3ddbcaa277f54d2b", "is_disabled": 0, "rental_uris": {"ios": "https://dc.lft.to/lastmile_qr_scan", "android": "https://dc.lft.to/lastmile_qr_scan"}, "is_reserved": 0}, {"lon": -76.95526916666667, "bike_id": "b9ee11b7b16b42c30a70ba233f8de415", "lat": 38.88771216666667, "fusion_lon": 0.0, "fusion_lat": 0.0, "type": "electric_scooter", "name": "b9ee11b7b16b42c30a70ba233f8de415", "is_disabled": 0, "rental_uris": {"ios": "https://dc.lft.to/lastmile_qr_scan", "android": "https://dc.lft.to/lastmile_qr_scan"}, "is_reserved": 0}, {"lon": -77.03462466666667, "bike_id": "c06886affc43f42c4ddd3c35ed3d08ab", "lat": 38.905521, "fusion_lon": 0.0, "fusion_lat": 0.0, "type": "electric_scooter", "name": "c06886affc43f42c4ddd3c35ed3d08ab", "is_disabled": 0, "rental_uris": {"ios": "https://dc.lft.to/lastmile_qr_scan", "android": "https://dc.lft.to/lastmile_qr_scan"}, "is_reserved": 0}, {"lon": -77.1856025, "bike_id": "a717ce9db7e631da98c62a892d8e70cd", "lat": 39.099755, "fusion_lon": 0.0, "fusion_lat": 0.0, "type": "electric_bike", "name": "a717ce9db7e631da98c62a892d8e70cd", "is_disabled": 0, "rental_uris": {"ios": "https://dc.lft.to/lastmile_qr_scan", "android": "https://dc.lft.to/lastmile_qr_scan"}, "is_reserved": 0}, {"lon": -77.004574, "bike_id": "c5671decb338f92162ce84e7b52cc7a6", "lat": 38.877633333333335, "fusion_lon": 0.0, "fusion_lat": 0.0, "type": "electric_scooter", "name": "c5671decb338f92162ce84e7b52cc7a6", "is_disabled": 0, "rental_uris": {"ios": "https://dc.lft.to/lastmile_qr_scan", "android": "https://dc.lft.to/lastmile_qr_scan"}, "is_reserved": 0}, {"lon": -76.99598433333334, "bike_id": "843f892a4d827a24a1d3468cf9b41fa2", "lat": 38.950706333333336, "fusion_lon": 0.0, "fusion_lat": 0.0, "type": "electric_bike", "name": "843f892a4d827a24a1d3468cf9b41fa2", "is_disabled": 0, "rental_uris": {"ios": "https://dc.lft.to/lastmile_qr_scan", "android": "https://dc.lft.to/lastmile_qr_scan"}, "is_reserved": 0}, {"lon": -77.02202333333334, "bike_id": "b1b88db0a707e25d5330446eeac2b61f", "lat": 38.89505416666667, "fusion_lon": 0.0, "fusion_lat": 0.0, "type": "electric_scooter", "name": "b1b88db0a707e25d5330446eeac2b61f", "is_disabled": 0, "rental_uris": {"ios": "https://dc.lft.to/lastmile_qr_scan", "android": "https://dc.lft.to/lastmile_qr_scan"}, "is_reserved": 0}, {"lon": -77.031723, "bike_id": "220d2fcddd213f278f698ed11b8aac34", "lat": 38.92111383333334, "fusion_lon": 0.0, "fusion_lat": 0.0, "type": "electric_bike", "name": "220d2fcddd213f278f698ed11b8aac34", "is_disabled": 0, "rental_uris": {"ios": "https://dc.lft.to/lastmile_qr_scan", "android": "https://dc.lft.to/lastmile_qr_scan"}, "is_reserved": 0}, {"lon": -77.0759225, "bike_id": "cda4c77a6e44028da2fb9f06639d4f5c", "lat": 38.912152666666664, "fusion_lon": 0.0, "fusion_lat": 0.0, "type": "electric_scooter", "name": "cda4c77a6e44028da2fb9f06639d4f5c", "is_disabled": 0, "rental_uris": {"ios": "https://dc.lft.to/lastmile_qr_scan", "android": "https://dc.lft.to/lastmile_qr_scan"}, "is_reserved": 0}, {"lon": -76.9996775, "bike_id": "3b8451dfea1d8d037b5dbcb4cbec7792", "lat": 38.907581666666665, "fusion_lon": 0.0, "fusion_lat": 0.0, "type": "electric_scooter", "name": "3b8451dfea1d8d037b5dbcb4cbec7792", "is_disabled": 0, "rental_uris": {"ios": "https://dc.lft.to/lastmile_qr_scan", "android": "https://dc.lft.to/lastmile_qr_scan"}, "is_reserved": 0}, {"lon": -77.03124533333333, "bike_id": "d19751c8f2f13c1085d9c79d5c661789", "lat": 38.94500266666667, "fusion_lon": 0.0, "fusion_lat": 0.0, "type": "electric_scooter", "name": "d19751c8f2f13c1085d9c79d5c661789", "is_disabled": 0, "rental_uris": {"ios": "https://dc.lft.to/lastmile_qr_scan", "android": "https://dc.lft.to/lastmile_qr_scan"}, "is_reserved": 0}, {"lon": -76.99051733333333, "bike_id": "124bcff281f97b5608ef97aa569f8f95", "lat": 38.898166333333336, "fusion_lon": 0.0, "fusion_lat": 0.0, "type": "electric_bike", "name": "124bcff281f97b5608ef97aa569f8f95", "is_disabled": 0, "rental_uris": {"ios": "https://dc.lft.to/lastmile_qr_scan", "android": "https://dc.lft.to/lastmile_qr_scan"}, "is_reserved": 0}, {"lon": -76.987711, "bike_id": "1929a31481081174b5b7e4d507320a4c", "lat": 38.86606233333333, "fusion_lon": 0.0, "fusion_lat": 0.0, "type": "electric_bike", "name": "1929a31481081174b5b7e4d507320a4c", "is_disabled": 0, "rental_uris": {"ios": "https://dc.lft.to/lastmile_qr_scan", "android": "https://dc.lft.to/lastmile_qr_scan"}, "is_reserved": 0}, {"lon": -77.0187855, "bike_id": "86c8beee9d57f718a9eb57d91cfd51d9", "lat": 38.914139166666665, "fusion_lon": 0.0, "fusion_lat": 0.0, "type": "electric_scooter", "name": "86c8beee9d57f718a9eb57d91cfd51d9", "is_disabled": 0, "rental_uris": {"ios": "https://dc.lft.to/lastmile_qr_scan", "android": "https://dc.lft.to/lastmile_qr_scan"}, "is_reserved": 0}, {"lon": -76.9774665, "bike_id": "b0dc33750347f41b6ea4c5dabc8d0f51", "lat": 38.8648735, "fusion_lon": 0.0, "fusion_lat": 0.0, "type": "electric_bike", "name": "b0dc33750347f41b6ea4c5dabc8d0f51", "is_disabled": 0, "rental_uris": {"ios": "https://dc.lft.to/lastmile_qr_scan", "android": "https://dc.lft.to/lastmile_qr_scan"}, "is_reserved": 0}, {"lon": -77.03178466666667, "bike_id": "4aef413583a6a178a21291edf4160d6f", "lat": 38.936021333333336, "fusion_lon": 0.0, "fusion_lat": 0.0, "type": "electric_scooter", "name": "4aef413583a6a178a21291edf4160d6f", "is_disabled": 0, "rental_uris": {"ios": "https://dc.lft.to/lastmile_qr_scan", "android": "https://dc.lft.to/lastmile_qr_scan"}, "is_reserved": 0}, {"lon": -77.005531, "bike_id": "811c9badd740b2f833857cd1e57a4681", "lat": 38.9055765, "fusion_lon": 0.0, "fusion_lat": 0.0, "type": "electric_scooter", "name": "811c9badd740b2f833857cd1e57a4681", "is_disabled": 0, "rental_uris": {"ios": "https://dc.lft.to/lastmile_qr_scan", "android": "https://dc.lft.to/lastmile_qr_scan"}, "is_reserved": 0}, {"lon": -77.03122533333334, "bike_id": "6da6bddc326c09de50aca1bedcb23ae5", "lat": 38.916765, "fusion_lon": 0.0, "fusion_lat": 0.0, "type": "electric_scooter", "name": "6da6bddc326c09de50aca1bedcb23ae5", "is_disabled": 0, "rental_uris": {"ios": "https://dc.lft.to/lastmile_qr_scan", "android": "https://dc.lft.to/lastmile_qr_scan"}, "is_reserved": 0}, {"lon": -77.02416833333334, "bike_id": "4fb9ec2766fc7aaafbcbcf4bda40bdc2", "lat": 38.9042215, "fusion_lon": 0.0, "fusion_lat": 0.0, "type": "electric_scooter", "name": "4fb9ec2766fc7aaafbcbcf4bda40bdc2", "is_disabled": 0, "rental_uris": {"ios": "https://dc.lft.to/lastmile_qr_scan", "android": "https://dc.lft.to/lastmile_qr_scan"}, "is_reserved": 0}, {"lon": -77.02376183333334, "bike_id": "98c2bb144ffc0768a3cf3e3630ce7ebc", "lat": 38.899656, "fusion_lon": 0.0, "fusion_lat": 0.0, "type": "electric_scooter", "name": "98c2bb144ffc0768a3cf3e3630ce7ebc", "is_disabled": 0, "rental_uris": {"ios": "https://dc.lft.to/lastmile_qr_scan", "android": "https://dc.lft.to/lastmile_qr_scan"}, "is_reserved": 0}, {"lon": -76.99699183333334, "bike_id": "f21107a1e0efdd0407c9f0610dafdfbe", "lat": 38.9220785, "fusion_lon": 0.0, "fusion_lat": 0.0, "type": "electric_scooter", "name": "f21107a1e0efdd0407c9f0610dafdfbe", "is_disabled": 0, "rental_uris": {"ios": "https://dc.lft.to/lastmile_qr_scan", "android": "https://dc.lft.to/lastmile_qr_scan"}, "is_reserved": 0}, {"lon": -76.96908966666666, "bike_id": "7d8a1175c9d747576a18b4decc930ce3", "lat": 38.84613083333333, "fusion_lon": 0.0, "fusion_lat": 0.0, "type": "electric_bike", "name": "7d8a1175c9d747576a18b4decc930ce3", "is_disabled": 0, "rental_uris": {"ios": "https://dc.lft.to/lastmile_qr_scan", "android": "https://dc.lft.to/lastmile_qr_scan"}, "is_reserved": 0}, {"lon": -77.03343083333333, "bike_id": "749d857cd284b25c7fe1e93324ecbc19", "lat": 38.945139, "fusion_lon": 0.0, "fusion_lat": 0.0, "type": "electric_bike", "name": "749d857cd284b25c7fe1e93324ecbc19", "is_disabled": 0, "rental_uris": {"ios": "https://dc.lft.to/lastmile_qr_scan", "android": "https://dc.lft.to/lastmile_qr_scan"}, "is_reserved": 0}, {"lon": -77.0140725, "bike_id": "4da20b30b5f31faebf52a56682a2469a", "lat": 38.927945333333334, "fusion_lon": 0.0, "fusion_lat": 0.0, "type": "electric_scooter", "name": "4da20b30b5f31faebf52a56682a2469a", "is_disabled": 0, "rental_uris": {"ios": "https://dc.lft.to/lastmile_qr_scan", "android": "https://dc.lft.to/lastmile_qr_scan"}, "is_reserved": 0}, {"lon": -77.01705283333334, "bike_id": "39cba010866b80cd812a4adb2075dffb", "lat": 38.91360316666667, "fusion_lon": 0.0, "fusion_lat": 0.0, "type": "electric_scooter", "name": "39cba010866b80cd812a4adb2075dffb", "is_disabled": 0, "rental_uris": {"ios": "https://dc.lft.to/lastmile_qr_scan", "android": "https://dc.lft.to/lastmile_qr_scan"}, "is_reserved": 0}, {"lon": -77.02279516666667, "bike_id": "3090173099add8d625513d2566ed2927", "lat": 38.92683783333333, "fusion_lon": 0.0, "fusion_lat": 0.0, "type": "electric_scooter", "name": "3090173099add8d625513d2566ed2927", "is_disabled": 0, "rental_uris": {"ios": "https://dc.lft.to/lastmile_qr_scan", "android": "https://dc.lft.to/lastmile_qr_scan"}, "is_reserved": 0}, {"lon": -77.11589, "bike_id": "216a04dcc4b9d5f263a1a5cb9271ba10", "lat": 39.07492633333333, "fusion_lon": 0.0, "fusion_lat": 0.0, "type": "electric_bike", "name": "216a04dcc4b9d5f263a1a5cb9271ba10", "is_disabled": 0, "rental_uris": {"ios": "https://dc.lft.to/lastmile_qr_scan", "android": "https://dc.lft.to/lastmile_qr_scan"}, "is_reserved": 0}, {"lon": -77.05806233333334, "bike_id": "076c44db5dcb980f1a23a295dee61c0a", "lat": 38.93450816666667, "fusion_lon": 0.0, "fusion_lat": 0.0, "type": "electric_scooter", "name": "076c44db5dcb980f1a23a295dee61c0a", "is_disabled": 0, "rental_uris": {"ios": "https://dc.lft.to/lastmile_qr_scan", "android": "https://dc.lft.to/lastmile_qr_scan"}, "is_reserved": 0}, {"lon": -77.02398083333334, "bike_id": "599fa9523252ebf5f2ee5cbcc5375f6e", "lat": 38.937006, "fusion_lon": 0.0, "fusion_lat": 0.0, "type": "electric_scooter", "name": "599fa9523252ebf5f2ee5cbcc5375f6e", "is_disabled": 0, "rental_uris": {"ios": "https://dc.lft.to/lastmile_qr_scan", "android": "https://dc.lft.to/lastmile_qr_scan"}, "is_reserved": 0}, {"lon": -77.031828, "bike_id": "fc4e2828ff3473d344ef6a5e6b352d05", "lat": 38.913331666666664, "fusion_lon": 0.0, "fusion_lat": 0.0, "type": "electric_scooter", "name": "fc4e2828ff3473d344ef6a5e6b352d05", "is_disabled": 0, "rental_uris": {"ios": "https://dc.lft.to/lastmile_qr_scan", "android": "https://dc.lft.to/lastmile_qr_scan"}, "is_reserved": 0}, {"lon": -77.01634383333334, "bike_id": "8054c31f728e2aaf3d4c0821f93813c9", "lat": 38.9289355, "fusion_lon": 0.0, "fusion_lat": 0.0, "type": "electric_scooter", "name": "8054c31f728e2aaf3d4c0821f93813c9", "is_disabled": 0, "rental_uris": {"ios": "https://dc.lft.to/lastmile_qr_scan", "android": "https://dc.lft.to/lastmile_qr_scan"}, "is_reserved": 0}, {"lon": -77.04913166666667, "bike_id": "9819ce2357fc6c9069444d65c5eddba7", "lat": 38.903534, "fusion_lon": 0.0, "fusion_lat": 0.0, "type": "electric_scooter", "name": "9819ce2357fc6c9069444d65c5eddba7", "is_disabled": 0, "rental_uris": {"ios": "https://dc.lft.to/lastmile_qr_scan", "android": "https://dc.lft.to/lastmile_qr_scan"}, "is_reserved": 0}, {"lon": -76.99544916666666, "bike_id": "489ed9c4ecb83e218966f9c725549c94", "lat": 38.8625485, "fusion_lon": 0.0, "fusion_lat": 0.0, "type": "electric_scooter", "name": "489ed9c4ecb83e218966f9c725549c94", "is_disabled": 0, "rental_uris": {"ios": "https://dc.lft.to/lastmile_qr_scan", "android": "https://dc.lft.to/lastmile_qr_scan"}, "is_reserved": 0}, {"lon": -76.99537583333333, "bike_id": "eb18db282cb7655a9f9b47f29e6629d8", "lat": 38.926679166666666, "fusion_lon": 0.0, "fusion_lat": 0.0, "type": "electric_scooter", "name": "eb18db282cb7655a9f9b47f29e6629d8", "is_disabled": 0, "rental_uris": {"ios": "https://dc.lft.to/lastmile_qr_scan", "android": "https://dc.lft.to/lastmile_qr_scan"}, "is_reserved": 0}, {"lon": -77.02612933333333, "bike_id": "c7082298d62174d96e79cbdb4e84599c", "lat": 38.896189166666666, "fusion_lon": 0.0, "fusion_lat": 0.0, "type": "electric_scooter", "name": "c7082298d62174d96e79cbdb4e84599c", "is_disabled": 0, "rental_uris": {"ios": "https://dc.lft.to/lastmile_qr_scan", "android": "https://dc.lft.to/lastmile_qr_scan"}, "is_reserved": 0}, {"lon": -77.03854283333334, "bike_id": "7a6c7169613570efed8bd75c58bff30d", "lat": 38.931303666666665, "fusion_lon": 0.0, "fusion_lat": 0.0, "type": "electric_scooter", "name": "7a6c7169613570efed8bd75c58bff30d", "is_disabled": 0, "rental_uris": {"ios": "https://dc.lft.to/lastmile_qr_scan", "android": "https://dc.lft.to/lastmile_qr_scan"}, "is_reserved": 0}, {"lon": -76.9373325, "bike_id": "e80351c6f9591b4318c4ef720fcd5fb9", "lat": 38.8900485, "fusion_lon": 0.0, "fusion_lat": 0.0, "type": "electric_scooter", "name": "e80351c6f9591b4318c4ef720fcd5fb9", "is_disabled": 0, "rental_uris": {"ios": "https://dc.lft.to/lastmile_qr_scan", "android": "https://dc.lft.to/lastmile_qr_scan"}, "is_reserved": 0}, {"lon": -77.0299255, "bike_id": "eee42d5bc591a8f99df1e672a209a160", "lat": 38.9247095, "fusion_lon": 0.0, "fusion_lat": 0.0, "type": "electric_scooter", "name": "eee42d5bc591a8f99df1e672a209a160", "is_disabled": 0, "rental_uris": {"ios": "https://dc.lft.to/lastmile_qr_scan", "android": "https://dc.lft.to/lastmile_qr_scan"}, "is_reserved": 0}, {"lon": -76.931296, "bike_id": "8142b4a75d2af4e9767c79d37504903d", "lat": 38.8760835, "fusion_lon": 0.0, "fusion_lat": 0.0, "type": "electric_scooter", "name": "8142b4a75d2af4e9767c79d37504903d", "is_disabled": 0, "rental_uris": {"ios": "https://dc.lft.to/lastmile_qr_scan", "android": "https://dc.lft.to/lastmile_qr_scan"}, "is_reserved": 0}, {"lon": -77.03162783333333, "bike_id": "59c4d084ac0ad06811a56c7b776260d6", "lat": 38.89219716666667, "fusion_lon": 0.0, "fusion_lat": 0.0, "type": "electric_scooter", "name": "59c4d084ac0ad06811a56c7b776260d6", "is_disabled": 0, "rental_uris": {"ios": "https://dc.lft.to/lastmile_qr_scan", "android": "https://dc.lft.to/lastmile_qr_scan"}, "is_reserved": 0}, {"lon": -77.02278466666667, "bike_id": "e6e2e6734efbc0e122d0567a8354b749", "lat": 38.89469033333334, "fusion_lon": 0.0, "fusion_lat": 0.0, "type": "electric_scooter", "name": "e6e2e6734efbc0e122d0567a8354b749", "is_disabled": 0, "rental_uris": {"ios": "https://dc.lft.to/lastmile_qr_scan", "android": "https://dc.lft.to/lastmile_qr_scan"}, "is_reserved": 0}, {"lon": -76.98104333333333, "bike_id": "42a59aa38fe62da136200a2d5cbcc21a", "lat": 38.90416183333333, "fusion_lon": 0.0, "fusion_lat": 0.0, "type": "electric_scooter", "name": "42a59aa38fe62da136200a2d5cbcc21a", "is_disabled": 0, "rental_uris": {"ios": "https://dc.lft.to/lastmile_qr_scan", "android": "https://dc.lft.to/lastmile_qr_scan"}, "is_reserved": 0}, {"lon": -76.9869505, "bike_id": "a890e1a02c0a67f75623c7eccd846080", "lat": 38.912149166666666, "fusion_lon": 0.0, "fusion_lat": 0.0, "type": "electric_scooter", "name": "a890e1a02c0a67f75623c7eccd846080", "is_disabled": 0, "rental_uris": {"ios": "https://dc.lft.to/lastmile_qr_scan", "android": "https://dc.lft.to/lastmile_qr_scan"}, "is_reserved": 0}, {"lon": -77.023457, "bike_id": "f964eeb988eef4d89cf25b34b4d63429", "lat": 38.92249183333333, "fusion_lon": 0.0, "fusion_lat": 0.0, "type": "electric_scooter", "name": "f964eeb988eef4d89cf25b34b4d63429", "is_disabled": 0, "rental_uris": {"ios": "https://dc.lft.to/lastmile_qr_scan", "android": "https://dc.lft.to/lastmile_qr_scan"}, "is_reserved": 0}, {"lon": -77.02164533333334, "bike_id": "855a9594ad2ab0095734d86910cd23fa", "lat": 38.909698, "fusion_lon": 0.0, "fusion_lat": 0.0, "type": "electric_scooter", "name": "855a9594ad2ab0095734d86910cd23fa", "is_disabled": 0, "rental_uris": {"ios": "https://dc.lft.to/lastmile_qr_scan", "android": "https://dc.lft.to/lastmile_qr_scan"}, "is_reserved": 0}, {"lon": -77.023752, "bike_id": "5d4f0371b6d814c8b23837516bdf1881", "lat": 38.90945266666667, "fusion_lon": 0.0, "fusion_lat": 0.0, "type": "electric_scooter", "name": "5d4f0371b6d814c8b23837516bdf1881", "is_disabled": 0, "rental_uris": {"ios": "https://dc.lft.to/lastmile_qr_scan", "android": "https://dc.lft.to/lastmile_qr_scan"}, "is_reserved": 0}, {"lon": -76.9817085, "bike_id": "0daed9abea49cfa1ecf24c1b6b76f25c", "lat": 38.90439466666667, "fusion_lon": 0.0, "fusion_lat": 0.0, "type": "electric_scooter", "name": "0daed9abea49cfa1ecf24c1b6b76f25c", "is_disabled": 0, "rental_uris": {"ios": "https://dc.lft.to/lastmile_qr_scan", "android": "https://dc.lft.to/lastmile_qr_scan"}, "is_reserved": 0}, {"lon": -77.02961916666666, "bike_id": "2bc77479f90a7042a6dba31704ea48c8", "lat": 38.922952333333335, "fusion_lon": 0.0, "fusion_lat": 0.0, "type": "electric_scooter", "name": "2bc77479f90a7042a6dba31704ea48c8", "is_disabled": 0, "rental_uris": {"ios": "https://dc.lft.to/lastmile_qr_scan", "android": "https://dc.lft.to/lastmile_qr_scan"}, "is_reserved": 0}, {"lon": -77.008185, "bike_id": "744f29f0065713a611cc5b7f95c8fd70", "lat": 38.876363166666664, "fusion_lon": 0.0, "fusion_lat": 0.0, "type": "electric_scooter", "name": "744f29f0065713a611cc5b7f95c8fd70", "is_disabled": 0, "rental_uris": {"ios": "https://dc.lft.to/lastmile_qr_scan", "android": "https://dc.lft.to/lastmile_qr_scan"}, "is_reserved": 0}, {"lon": -77.03958833333333, "bike_id": "2eb28c7f48c39da7fc7aeba14db6d05a", "lat": 38.913623666666666, "fusion_lon": 0.0, "fusion_lat": 0.0, "type": "electric_scooter", "name": "2eb28c7f48c39da7fc7aeba14db6d05a", "is_disabled": 0, "rental_uris": {"ios": "https://dc.lft.to/lastmile_qr_scan", "android": "https://dc.lft.to/lastmile_qr_scan"}, "is_reserved": 0}, {"lon": -77.03225333333333, "bike_id": "8b8ad3c615dc8eebe4c2259b188f0907", "lat": 38.93153266666667, "fusion_lon": 0.0, "fusion_lat": 0.0, "type": "electric_scooter", "name": "8b8ad3c615dc8eebe4c2259b188f0907", "is_disabled": 0, "rental_uris": {"ios": "https://dc.lft.to/lastmile_qr_scan", "android": "https://dc.lft.to/lastmile_qr_scan"}, "is_reserved": 0}, {"lon": -77.02761666666666, "bike_id": "1e06482525bb9363892e3b9f94dfca9e", "lat": 38.95427683333333, "fusion_lon": 0.0, "fusion_lat": 0.0, "type": "electric_scooter", "name": "1e06482525bb9363892e3b9f94dfca9e", "is_disabled": 0, "rental_uris": {"ios": "https://dc.lft.to/lastmile_qr_scan", "android": "https://dc.lft.to/lastmile_qr_scan"}, "is_reserved": 0}, {"lon": -76.96599933333333, "bike_id": "386117bbae048a32e88f89d23faa3ff4", "lat": 38.871073333333335, "fusion_lon": 0.0, "fusion_lat": 0.0, "type": "electric_scooter", "name": "386117bbae048a32e88f89d23faa3ff4", "is_disabled": 0, "rental_uris": {"ios": "https://dc.lft.to/lastmile_qr_scan", "android": "https://dc.lft.to/lastmile_qr_scan"}, "is_reserved": 0}, {"lon": -77.02021533333334, "bike_id": "fe2604ac05fa5919ddeba76ab2524e75", "lat": 38.90558133333333, "fusion_lon": 0.0, "fusion_lat": 0.0, "type": "electric_scooter", "name": "fe2604ac05fa5919ddeba76ab2524e75", "is_disabled": 0, "rental_uris": {"ios": "https://dc.lft.to/lastmile_qr_scan", "android": "https://dc.lft.to/lastmile_qr_scan"}, "is_reserved": 0}, {"lon": -77.03861133333334, "bike_id": "4b9f2d39bc433ea4a6226b7ea1aad7e0", "lat": 38.917147166666666, "fusion_lon": 0.0, "fusion_lat": 0.0, "type": "electric_scooter", "name": "4b9f2d39bc433ea4a6226b7ea1aad7e0", "is_disabled": 0, "rental_uris": {"ios": "https://dc.lft.to/lastmile_qr_scan", "android": "https://dc.lft.to/lastmile_qr_scan"}, "is_reserved": 0}, {"lon": -77.02714766666666, "bike_id": "64c72a1267d49386b338ad71b46b8614", "lat": 38.91809466666667, "fusion_lon": 0.0, "fusion_lat": 0.0, "type": "electric_scooter", "name": "64c72a1267d49386b338ad71b46b8614", "is_disabled": 0, "rental_uris": {"ios": "https://dc.lft.to/lastmile_qr_scan", "android": "https://dc.lft.to/lastmile_qr_scan"}, "is_reserved": 0}, {"lon": -77.04455066666667, "bike_id": "72ada7ff31536f632beb978db530b93e", "lat": 38.91842316666666, "fusion_lon": 0.0, "fusion_lat": 0.0, "type": "electric_scooter", "name": "72ada7ff31536f632beb978db530b93e", "is_disabled": 0, "rental_uris": {"ios": "https://dc.lft.to/lastmile_qr_scan", "android": "https://dc.lft.to/lastmile_qr_scan"}, "is_reserved": 0}, {"lon": -77.02623416666667, "bike_id": "4e8c6c5111dabc8f48ef63df9d058e02", "lat": 38.962223333333334, "fusion_lon": 0.0, "fusion_lat": 0.0, "type": "electric_bike", "name": "4e8c6c5111dabc8f48ef63df9d058e02", "is_disabled": 0, "rental_uris": {"ios": "https://dc.lft.to/lastmile_qr_scan", "android": "https://dc.lft.to/lastmile_qr_scan"}, "is_reserved": 0}, {"lon": -77.0345425, "bike_id": "3eec7a2425616fbe38795d4bbb426f57", "lat": 38.934332166666664, "fusion_lon": 0.0, "fusion_lat": 0.0, "type": "electric_scooter", "name": "3eec7a2425616fbe38795d4bbb426f57", "is_disabled": 0, "rental_uris": {"ios": "https://dc.lft.to/lastmile_qr_scan", "android": "https://dc.lft.to/lastmile_qr_scan"}, "is_reserved": 0}, {"lon": -77.02291016666666, "bike_id": "9707fa9bb0a65e81d243116d84933f61", "lat": 38.92230416666666, "fusion_lon": 0.0, "fusion_lat": 0.0, "type": "electric_scooter", "name": "9707fa9bb0a65e81d243116d84933f61", "is_disabled": 0, "rental_uris": {"ios": "https://dc.lft.to/lastmile_qr_scan", "android": "https://dc.lft.to/lastmile_qr_scan"}, "is_reserved": 0}, {"lon": -77.00837283333334, "bike_id": "29a89696a6ae8eecc1d1c9f4b4aa3170", "lat": 38.91350833333333, "fusion_lon": 0.0, "fusion_lat": 0.0, "type": "electric_scooter", "name": "29a89696a6ae8eecc1d1c9f4b4aa3170", "is_disabled": 0, "rental_uris": {"ios": "https://dc.lft.to/lastmile_qr_scan", "android": "https://dc.lft.to/lastmile_qr_scan"}, "is_reserved": 0}, {"lon": -77.098682, "bike_id": "405ed848dd01249d522d782653b026d3", "lat": 38.94964383333333, "fusion_lon": 0.0, "fusion_lat": 0.0, "type": "electric_scooter", "name": "405ed848dd01249d522d782653b026d3", "is_disabled": 0, "rental_uris": {"ios": "https://dc.lft.to/lastmile_qr_scan", "android": "https://dc.lft.to/lastmile_qr_scan"}, "is_reserved": 0}, {"lon": -77.021959, "bike_id": "e6a05a5793c59ed7436c82b27c7f9a86", "lat": 38.91125066666667, "fusion_lon": 0.0, "fusion_lat": 0.0, "type": "electric_scooter", "name": "e6a05a5793c59ed7436c82b27c7f9a86", "is_disabled": 0, "rental_uris": {"ios": "https://dc.lft.to/lastmile_qr_scan", "android": "https://dc.lft.to/lastmile_qr_scan"}, "is_reserved": 0}, {"lon": -77.0248685, "bike_id": "6e3dece872f80978fab0c61846809208", "lat": 38.919225833333336, "fusion_lon": 0.0, "fusion_lat": 0.0, "type": "electric_scooter", "name": "6e3dece872f80978fab0c61846809208", "is_disabled": 0, "rental_uris": {"ios": "https://dc.lft.to/lastmile_qr_scan", "android": "https://dc.lft.to/lastmile_qr_scan"}, "is_reserved": 0}, {"lon": -76.99460033333334, "bike_id": "4f9bd76a989ac58e8e47987d77f67264", "lat": 38.966219, "fusion_lon": 0.0, "fusion_lat": 0.0, "type": "electric_bike", "name": "4f9bd76a989ac58e8e47987d77f67264", "is_disabled": 0, "rental_uris": {"ios": "https://dc.lft.to/lastmile_qr_scan", "android": "https://dc.lft.to/lastmile_qr_scan"}, "is_reserved": 0}, {"lon": -76.99003083333334, "bike_id": "74679328ddab42b9901e7536cb848757", "lat": 38.8650255, "fusion_lon": 0.0, "fusion_lat": 0.0, "type": "electric_scooter", "name": "74679328ddab42b9901e7536cb848757", "is_disabled": 0, "rental_uris": {"ios": "https://dc.lft.to/lastmile_qr_scan", "android": "https://dc.lft.to/lastmile_qr_scan"}, "is_reserved": 0}, {"lon": -77.00375716666667, "bike_id": "68c0ecb377ad00c53e280d115d600e88", "lat": 38.897332666666664, "fusion_lon": 0.0, "fusion_lat": 0.0, "type": "electric_scooter", "name": "68c0ecb377ad00c53e280d115d600e88", "is_disabled": 0, "rental_uris": {"ios": "https://dc.lft.to/lastmile_qr_scan", "android": "https://dc.lft.to/lastmile_qr_scan"}, "is_reserved": 0}, {"lon": -77.00673633333334, "bike_id": "0e164d313cfc65a7f1972093111f2af9", "lat": 38.876498166666664, "fusion_lon": 0.0, "fusion_lat": 0.0, "type": "electric_scooter", "name": "0e164d313cfc65a7f1972093111f2af9", "is_disabled": 0, "rental_uris": {"ios": "https://dc.lft.to/lastmile_qr_scan", "android": "https://dc.lft.to/lastmile_qr_scan"}, "is_reserved": 0}, {"lon": -77.03128983333333, "bike_id": "8e058c7a6e61f34da7a787fe79adb89a", "lat": 38.917012, "fusion_lon": 0.0, "fusion_lat": 0.0, "type": "electric_scooter", "name": "8e058c7a6e61f34da7a787fe79adb89a", "is_disabled": 0, "rental_uris": {"ios": "https://dc.lft.to/lastmile_qr_scan", "android": "https://dc.lft.to/lastmile_qr_scan"}, "is_reserved": 0}, {"lon": -76.9954145, "bike_id": "df61bcf9a6f7ee1b4b9b52253c287805", "lat": 38.86253133333334, "fusion_lon": 0.0, "fusion_lat": 0.0, "type": "electric_scooter", "name": "df61bcf9a6f7ee1b4b9b52253c287805", "is_disabled": 0, "rental_uris": {"ios": "https://dc.lft.to/lastmile_qr_scan", "android": "https://dc.lft.to/lastmile_qr_scan"}, "is_reserved": 0}, {"lon": -77.00046916666666, "bike_id": "b9f2a3912deeabba8171f772c998e776", "lat": 38.896475, "fusion_lon": 0.0, "fusion_lat": 0.0, "type": "electric_scooter", "name": "b9f2a3912deeabba8171f772c998e776", "is_disabled": 0, "rental_uris": {"ios": "https://dc.lft.to/lastmile_qr_scan", "android": "https://dc.lft.to/lastmile_qr_scan"}, "is_reserved": 0}, {"lon": -77.00886833333334, "bike_id": "401694f77bbb6bd1aceab0fc66d567cb", "lat": 38.90633016666666, "fusion_lon": 0.0, "fusion_lat": 0.0, "type": "electric_scooter", "name": "401694f77bbb6bd1aceab0fc66d567cb", "is_disabled": 0, "rental_uris": {"ios": "https://dc.lft.to/lastmile_qr_scan", "android": "https://dc.lft.to/lastmile_qr_scan"}, "is_reserved": 0}, {"lon": -77.00585816666667, "bike_id": "557cafefc5a876bdf6500d4ba2724645", "lat": 38.87606133333333, "fusion_lon": 0.0, "fusion_lat": 0.0, "type": "electric_scooter", "name": "557cafefc5a876bdf6500d4ba2724645", "is_disabled": 0, "rental_uris": {"ios": "https://dc.lft.to/lastmile_qr_scan", "android": "https://dc.lft.to/lastmile_qr_scan"}, "is_reserved": 0}, {"lon": -77.01315583333333, "bike_id": "cc30eff05a68db57803c53ddacd8bb98", "lat": 38.87147866666667, "fusion_lon": 0.0, "fusion_lat": 0.0, "type": "electric_scooter", "name": "cc30eff05a68db57803c53ddacd8bb98", "is_disabled": 0, "rental_uris": {"ios": "https://dc.lft.to/lastmile_qr_scan", "android": "https://dc.lft.to/lastmile_qr_scan"}, "is_reserved": 0}, {"lon": -77.03549566666666, "bike_id": "55f0563c3e071460372fc7e36d7d4692", "lat": 38.91702266666667, "fusion_lon": 0.0, "fusion_lat": 0.0, "type": "electric_scooter", "name": "55f0563c3e071460372fc7e36d7d4692", "is_disabled": 0, "rental_uris": {"ios": "https://dc.lft.to/lastmile_qr_scan", "android": "https://dc.lft.to/lastmile_qr_scan"}, "is_reserved": 0}, {"lon": -77.04871983333334, "bike_id": "ffa53963a437f69646207f4081a772ea", "lat": 38.892501333333335, "fusion_lon": 0.0, "fusion_lat": 0.0, "type": "electric_scooter", "name": "ffa53963a437f69646207f4081a772ea", "is_disabled": 0, "rental_uris": {"ios": "https://dc.lft.to/lastmile_qr_scan", "android": "https://dc.lft.to/lastmile_qr_scan"}, "is_reserved": 0}, {"lon": -77.034594, "bike_id": "61b5aa638195773189ef584653e2d4a6", "lat": 38.908669, "fusion_lon": 0.0, "fusion_lat": 0.0, "type": "electric_scooter", "name": "61b5aa638195773189ef584653e2d4a6", "is_disabled": 0, "rental_uris": {"ios": "https://dc.lft.to/lastmile_qr_scan", "android": "https://dc.lft.to/lastmile_qr_scan"}, "is_reserved": 0}, {"lon": -77.03587033333334, "bike_id": "6ccc76a5e3b95d208fca1c8d8990a74a", "lat": 38.92669316666667, "fusion_lon": 0.0, "fusion_lat": 0.0, "type": "electric_scooter", "name": "6ccc76a5e3b95d208fca1c8d8990a74a", "is_disabled": 0, "rental_uris": {"ios": "https://dc.lft.to/lastmile_qr_scan", "android": "https://dc.lft.to/lastmile_qr_scan"}, "is_reserved": 0}, {"lon": -77.11598216666667, "bike_id": "538a7eadd111e94a1cfc4037f9ad9a83", "lat": 38.85477133333333, "fusion_lon": 0.0, "fusion_lat": 0.0, "type": "electric_bike", "name": "538a7eadd111e94a1cfc4037f9ad9a83", "is_disabled": 0, "rental_uris": {"ios": "https://dc.lft.to/lastmile_qr_scan", "android": "https://dc.lft.to/lastmile_qr_scan"}, "is_reserved": 0}, {"lon": -77.02713716666666, "bike_id": "bd772feec809adcfcc9f76b6d4eb8a9f", "lat": 38.9066425, "fusion_lon": 0.0, "fusion_lat": 0.0, "type": "electric_scooter", "name": "bd772feec809adcfcc9f76b6d4eb8a9f", "is_disabled": 0, "rental_uris": {"ios": "https://dc.lft.to/lastmile_qr_scan", "android": "https://dc.lft.to/lastmile_qr_scan"}, "is_reserved": 0}, {"lon": -77.04318216666667, "bike_id": "67bbfe07679dfed5b4a7742d259cb69f", "lat": 38.92202016666667, "fusion_lon": 0.0, "fusion_lat": 0.0, "type": "electric_scooter", "name": "67bbfe07679dfed5b4a7742d259cb69f", "is_disabled": 0, "rental_uris": {"ios": "https://dc.lft.to/lastmile_qr_scan", "android": "https://dc.lft.to/lastmile_qr_scan"}, "is_reserved": 0}, {"lon": -77.03883766666667, "bike_id": "fc12c976273305f5fbc261097edc37cd", "lat": 38.9222125, "fusion_lon": 0.0, "fusion_lat": 0.0, "type": "electric_scooter", "name": "fc12c976273305f5fbc261097edc37cd", "is_disabled": 0, "rental_uris": {"ios": "https://dc.lft.to/lastmile_qr_scan", "android": "https://dc.lft.to/lastmile_qr_scan"}, "is_reserved": 0}, {"lon": -77.02543533333333, "bike_id": "3ad2a6d338fad6c65a919ae1daccaa2b", "lat": 38.930886666666666, "fusion_lon": 0.0, "fusion_lat": 0.0, "type": "electric_scooter", "name": "3ad2a6d338fad6c65a919ae1daccaa2b", "is_disabled": 0, "rental_uris": {"ios": "https://dc.lft.to/lastmile_qr_scan", "android": "https://dc.lft.to/lastmile_qr_scan"}, "is_reserved": 0}, {"lon": -77.02403783333334, "bike_id": "a33e808e5596508a6d0e5867c54bd13d", "lat": 38.90601233333334, "fusion_lon": 0.0, "fusion_lat": 0.0, "type": "electric_scooter", "name": "a33e808e5596508a6d0e5867c54bd13d", "is_disabled": 0, "rental_uris": {"ios": "https://dc.lft.to/lastmile_qr_scan", "android": "https://dc.lft.to/lastmile_qr_scan"}, "is_reserved": 0}, {"lon": -77.00970466666666, "bike_id": "6dada4133267360229ad001e03acda92", "lat": 38.914052166666664, "fusion_lon": 0.0, "fusion_lat": 0.0, "type": "electric_scooter", "name": "6dada4133267360229ad001e03acda92", "is_disabled": 0, "rental_uris": {"ios": "https://dc.lft.to/lastmile_qr_scan", "android": "https://dc.lft.to/lastmile_qr_scan"}, "is_reserved": 0}, {"lon": -76.93747866666666, "bike_id": "3b03f6ab10894aef88ffc815f1d43f26", "lat": 38.8904645, "fusion_lon": 0.0, "fusion_lat": 0.0, "type": "electric_scooter", "name": "3b03f6ab10894aef88ffc815f1d43f26", "is_disabled": 0, "rental_uris": {"ios": "https://dc.lft.to/lastmile_qr_scan", "android": "https://dc.lft.to/lastmile_qr_scan"}, "is_reserved": 0}, {"lon": -77.0020375, "bike_id": "8587fa872a2bceea2e24b74e46299965", "lat": 38.902387, "fusion_lon": 0.0, "fusion_lat": 0.0, "type": "electric_scooter", "name": "8587fa872a2bceea2e24b74e46299965", "is_disabled": 0, "rental_uris": {"ios": "https://dc.lft.to/lastmile_qr_scan", "android": "https://dc.lft.to/lastmile_qr_scan"}, "is_reserved": 0}, {"lon": -77.04861016666666, "bike_id": "f68b8f4d93434af77bc6bc0add6f6994", "lat": 38.8922265, "fusion_lon": 0.0, "fusion_lat": 0.0, "type": "electric_scooter", "name": "f68b8f4d93434af77bc6bc0add6f6994", "is_disabled": 0, "rental_uris": {"ios": "https://dc.lft.to/lastmile_qr_scan", "android": "https://dc.lft.to/lastmile_qr_scan"}, "is_reserved": 0}, {"lon": -77.03257633333334, "bike_id": "95b4f572eaf0aadc1bfe15c09c7a962a", "lat": 38.90594633333333, "fusion_lon": 0.0, "fusion_lat": 0.0, "type": "electric_scooter", "name": "95b4f572eaf0aadc1bfe15c09c7a962a", "is_disabled": 0, "rental_uris": {"ios": "https://dc.lft.to/lastmile_qr_scan", "android": "https://dc.lft.to/lastmile_qr_scan"}, "is_reserved": 0}, {"lon": -77.03206666666667, "bike_id": "ac252e4eff1db24eb0434f1ca62e553c", "lat": 38.91728116666667, "fusion_lon": 0.0, "fusion_lat": 0.0, "type": "electric_scooter", "name": "ac252e4eff1db24eb0434f1ca62e553c", "is_disabled": 0, "rental_uris": {"ios": "https://dc.lft.to/lastmile_qr_scan", "android": "https://dc.lft.to/lastmile_qr_scan"}, "is_reserved": 0}, {"lon": -77.02234533333333, "bike_id": "d3b6c5eaf8a2da3e44afcc9cdfbce1b4", "lat": 38.915602, "fusion_lon": 0.0, "fusion_lat": 0.0, "type": "electric_scooter", "name": "d3b6c5eaf8a2da3e44afcc9cdfbce1b4", "is_disabled": 0, "rental_uris": {"ios": "https://dc.lft.to/lastmile_qr_scan", "android": "https://dc.lft.to/lastmile_qr_scan"}, "is_reserved": 0}, {"lon": -77.07911066666666, "bike_id": "e98f58e864debf6c2e6a4430e7b4c72a", "lat": 38.930913, "fusion_lon": 0.0, "fusion_lat": 0.0, "type": "electric_scooter", "name": "e98f58e864debf6c2e6a4430e7b4c72a", "is_disabled": 0, "rental_uris": {"ios": "https://dc.lft.to/lastmile_qr_scan", "android": "https://dc.lft.to/lastmile_qr_scan"}, "is_reserved": 0}, {"lon": -77.0359595, "bike_id": "5122bdbc498401be478b461f6d8a89f3", "lat": 38.93932316666667, "fusion_lon": 0.0, "fusion_lat": 0.0, "type": "electric_scooter", "name": "5122bdbc498401be478b461f6d8a89f3", "is_disabled": 0, "rental_uris": {"ios": "https://dc.lft.to/lastmile_qr_scan", "android": "https://dc.lft.to/lastmile_qr_scan"}, "is_reserved": 0}, {"lon": -76.99462616666666, "bike_id": "69508dc3747727bef2fb272e7ce95a44", "lat": 38.940661666666664, "fusion_lon": 0.0, "fusion_lat": 0.0, "type": "electric_scooter", "name": "69508dc3747727bef2fb272e7ce95a44", "is_disabled": 0, "rental_uris": {"ios": "https://dc.lft.to/lastmile_qr_scan", "android": "https://dc.lft.to/lastmile_qr_scan"}, "is_reserved": 0}, {"lon": -77.02391716666666, "bike_id": "954452559588c76e793952cfb65e5362", "lat": 38.90729733333333, "fusion_lon": 0.0, "fusion_lat": 0.0, "type": "electric_scooter", "name": "954452559588c76e793952cfb65e5362", "is_disabled": 0, "rental_uris": {"ios": "https://dc.lft.to/lastmile_qr_scan", "android": "https://dc.lft.to/lastmile_qr_scan"}, "is_reserved": 0}, {"lon": -77.02947883333333, "bike_id": "0e43d45b4effeacb6785b7f2150b15be", "lat": 38.9047445, "fusion_lon": 0.0, "fusion_lat": 0.0, "type": "electric_scooter", "name": "0e43d45b4effeacb6785b7f2150b15be", "is_disabled": 0, "rental_uris": {"ios": "https://dc.lft.to/lastmile_qr_scan", "android": "https://dc.lft.to/lastmile_qr_scan"}, "is_reserved": 0}, {"lon": -76.97669566666667, "bike_id": "e010c60fd3a233b0e8a43bcaf6a6350f", "lat": 38.952422, "fusion_lon": 0.0, "fusion_lat": 0.0, "type": "electric_bike", "name": "e010c60fd3a233b0e8a43bcaf6a6350f", "is_disabled": 0, "rental_uris": {"ios": "https://dc.lft.to/lastmile_qr_scan", "android": "https://dc.lft.to/lastmile_qr_scan"}, "is_reserved": 0}, {"lon": -76.9814095, "bike_id": "040d7198e431ab609703628ccd2227b9", "lat": 38.90320333333333, "fusion_lon": 0.0, "fusion_lat": 0.0, "type": "electric_scooter", "name": "040d7198e431ab609703628ccd2227b9", "is_disabled": 0, "rental_uris": {"ios": "https://dc.lft.to/lastmile_qr_scan", "android": "https://dc.lft.to/lastmile_qr_scan"}, "is_reserved": 0}, {"lon": -77.04323266666667, "bike_id": "bf3694daae184a7275905631b28c7fc2", "lat": 38.9080965, "fusion_lon": 0.0, "fusion_lat": 0.0, "type": "electric_scooter", "name": "bf3694daae184a7275905631b28c7fc2", "is_disabled": 0, "rental_uris": {"ios": "https://dc.lft.to/lastmile_qr_scan", "android": "https://dc.lft.to/lastmile_qr_scan"}, "is_reserved": 0}, {"lon": -77.02981883333334, "bike_id": "fb29ae58f9de5ad16fdfcc6e5b5331f1", "lat": 38.90709183333333, "fusion_lon": 0.0, "fusion_lat": 0.0, "type": "electric_scooter", "name": "fb29ae58f9de5ad16fdfcc6e5b5331f1", "is_disabled": 0, "rental_uris": {"ios": "https://dc.lft.to/lastmile_qr_scan", "android": "https://dc.lft.to/lastmile_qr_scan"}, "is_reserved": 0}, {"lon": -76.9984995, "bike_id": "ecd0d47abe774abe095e03427050895e", "lat": 38.89085383333333, "fusion_lon": 0.0, "fusion_lat": 0.0, "type": "electric_scooter", "name": "ecd0d47abe774abe095e03427050895e", "is_disabled": 0, "rental_uris": {"ios": "https://dc.lft.to/lastmile_qr_scan", "android": "https://dc.lft.to/lastmile_qr_scan"}, "is_reserved": 0}, {"lon": -77.0245995, "bike_id": "70d150d5cfe59c2a431f515e4870f545", "lat": 38.8833935, "fusion_lon": 0.0, "fusion_lat": 0.0, "type": "electric_scooter", "name": "70d150d5cfe59c2a431f515e4870f545", "is_disabled": 0, "rental_uris": {"ios": "https://dc.lft.to/lastmile_qr_scan", "android": "https://dc.lft.to/lastmile_qr_scan"}, "is_reserved": 0}, {"lon": -77.031123, "bike_id": "d638a468747f56e2bd2158b5010236a5", "lat": 38.920631166666666, "fusion_lon": 0.0, "fusion_lat": 0.0, "type": "electric_bike", "name": "d638a468747f56e2bd2158b5010236a5", "is_disabled": 0, "rental_uris": {"ios": "https://dc.lft.to/lastmile_qr_scan", "android": "https://dc.lft.to/lastmile_qr_scan"}, "is_reserved": 0}, {"lon": -76.98801983333334, "bike_id": "c0158131bbdb157f1068af3584728e4e", "lat": 38.867459833333335, "fusion_lon": 0.0, "fusion_lat": 0.0, "type": "electric_scooter", "name": "c0158131bbdb157f1068af3584728e4e", "is_disabled": 0, "rental_uris": {"ios": "https://dc.lft.to/lastmile_qr_scan", "android": "https://dc.lft.to/lastmile_qr_scan"}, "is_reserved": 0},