{"data": {"bikes": [{"bike_id": "0eabe5796ec101169758712dc9551008", "name": "0eabe5796ec101169758712dc9551008", "lat": 38.905078833333334, "fusion_lat": 0.0, "type": "electric_scooter", "lon": -77.0295045, "is_disabled": 0, "fusion_lon": 0.0, "rental_uris": {"android": "https://dc.lft.to/lastmile_qr_scan", "ios": "https://dc.lft.to/lastmile_qr_scan"}, "is_reserved": 0}, {"bike_id": "cace382a07aacf6ee35a121c1c81e35d", "name": "cace382a07aacf6ee35a121c1c81e35d", "lat": 38.954696, "fusion_lat": 0.0, "type": "electric_scooter", "lon": -77.07762783333334, "is_disabled": 0, "fusion_lon": 0.0, "rental_uris": {"android": "https://dc.lft.to/lastmile_qr_scan", "ios": "https://dc.lft.to/lastmile_qr_scan"}, "is_reserved": 0}, {"bike_id": "2f0c8a2e7707dd6296fadf3ea8be9333", "name": "2f0c8a2e7707dd6296fadf3ea8be9333", "lat": 38.9050695, "fusion_lat": 0.0, "type": "electric_scooter", "lon": -77.02959083333333, "is_disabled": 0, "fusion_lon": 0.0, "rental_uris": {"android": "https://dc.lft.to/lastmile_qr_scan", "ios": "https://dc.lft.to/lastmile_qr_scan"}, "is_reserved": 0}, {"bike_id": "ce8018eeaad9e3c00eb6a6ad8e357ce4", "name": "ce8018eeaad9e3c00eb6a6ad8e357ce4", "lat": 38.9058675, "fusion_lat": 0.0, "type": "electric_scooter", "lon": -77.04228583333334, "is_disabled": 0, "fusion_lon": 0.0, "rental_uris": {"android": "https://dc.lft.to/lastmile_qr_scan", "ios": "https://dc.lft.to/lastmile_qr_scan"}, "is_reserved": 0}, {"bike_id": "d7aa7100f0b40ceabf0b6e1e68fe4525", "name": "d7aa7100f0b40ceabf0b6e1e68fe4525", "lat": 38.9622, "fusion_lat": 0.0, "type": "electric_bike", "lon": -77.0738615, "is_disabled": 0, "fusion_lon": 0.0, "rental_uris": {"android": "https://dc.lft.to/lastmile_qr_scan", "ios": "https://dc.lft.to/lastmile_qr_scan"}, "is_reserved": 0}, {"bike_id": "6012dc145a03a9803097d83428872a85", "name": "6012dc145a03a9803097d83428872a85", "lat": 38.91725116666667, "fusion_lat": 0.0, "type": "electric_scooter", "lon": -77.02977283333334, "is_disabled": 0, "fusion_lon": 0.0, "rental_uris": {"android": "https://dc.lft.to/lastmile_qr_scan", "ios": "https://dc.lft.to/lastmile_qr_scan"}, "is_reserved": 0}, {"bike_id": "f42e455a57e19233a58cecf31d277fae", "name": "f42e455a57e19233a58cecf31d277fae", "lat": 38.99730566666667, "fusion_lat": 0.0, "type": "electric_bike", "lon": -77.02753333333334, "is_disabled": 0, "fusion_lon": 0.0, "rental_uris": {"android": "https://dc.lft.to/lastmile_qr_scan", "ios": "https://dc.lft.to/lastmile_qr_scan"}, "is_reserved": 0}, {"bike_id": "8df9239cca1588284d61e6c404463988", "name": "8df9239cca1588284d61e6c404463988", "lat": 38.91659333333333, "fusion_lat": 0.0, "type": "electric_scooter", "lon": -77.02285866666666, "is_disabled": 0, "fusion_lon": 0.0, "rental_uris": {"android": "https://dc.lft.to/lastmile_qr_scan", "ios": "https://dc.lft.to/lastmile_qr_scan"}, "is_reserved": 0}, {"bike_id": "c61458252b558959e8b40ff93b051b8f", "name": "c61458252b558959e8b40ff93b051b8f", "lat": 38.900015333333336, "fusion_lat": 0.0, "type": "electric_scooter", "lon": -77.03096433333333, "is_disabled": 0, "fusion_lon": 0.0, "rental_uris": {"android": "https://dc.lft.to/lastmile_qr_scan", "ios": "https://dc.lft.to/lastmile_qr_scan"}, "is_reserved": 0}, {"bike_id": "72ebb7050c7fe8d27040e72190252f16", "name": "72ebb7050c7fe8d27040e72190252f16", "lat": 38.874896, "fusion_lat": 0.0, "type": "electric_scooter", "lon": -76.99973683333333, "is_disabled": 0, "fusion_lon": 0.0, "rental_uris": {"android": "https://dc.lft.to/lastmile_qr_scan", "ios": "https://dc.lft.to/lastmile_qr_scan"}, "is_reserved": 0}, {"bike_id": "ecaf49cb50411107b17d512c03ed857f", "name": "ecaf49cb50411107b17d512c03ed857f", "lat": 38.89442866666667, "fusion_lat": 0.0, "type": "electric_scooter", "lon": -77.02043983333333, "is_disabled": 0, "fusion_lon": 0.0, "rental_uris": {"android": "https://dc.lft.to/lastmile_qr_scan", "ios": "https://dc.lft.to/lastmile_qr_scan"}, "is_reserved": 0}, {"bike_id": "af5e2a249a9b5b2425a5cfac3dff8bc7", "name": "af5e2a249a9b5b2425a5cfac3dff8bc7", "lat": 38.90268016666667, "fusion_lat": 0.0, "type": "electric_scooter", "lon": -77.03860133333333, "is_disabled": 0, "fusion_lon": 0.0, "rental_uris": {"android": "https://dc.lft.to/lastmile_qr_scan", "ios": "https://dc.lft.to/lastmile_qr_scan"}, "is_reserved": 0}, {"bike_id": "125ce6b5872434bb96ef04116f8f04eb", "name": "125ce6b5872434bb96ef04116f8f04eb", "lat": 38.83164883333333, "fusion_lat": 0.0, "type": "electric_bike", "lon": -76.99548516666667, "is_disabled": 0, "fusion_lon": 0.0, "rental_uris": {"android": "https://dc.lft.to/lastmile_qr_scan", "ios": "https://dc.lft.to/lastmile_qr_scan"}, "is_reserved": 0}, {"bike_id": "d0d2aeb688bd14ca97edbc24b3ca1879", "name": "d0d2aeb688bd14ca97edbc24b3ca1879", "lat": 38.9565225, "fusion_lat": 0.0, "type": "electric_scooter", "lon": -77.01279066666666, "is_disabled": 0, "fusion_lon": 0.0, "rental_uris": {"android": "https://dc.lft.to/lastmile_qr_scan", "ios": "https://dc.lft.to/lastmile_qr_scan"}, "is_reserved": 0}, {"bike_id": "d5c110e9da3950d32559c647bcc8f80f", "name": "d5c110e9da3950d32559c647bcc8f80f", "lat": 38.90739583333333, "fusion_lat": 0.0, "type": "electric_scooter", "lon": -77.002455, "is_disabled": 0, "fusion_lon": 0.0, "rental_uris": {"android": "https://dc.lft.to/lastmile_qr_scan", "ios": "https://dc.lft.to/lastmile_qr_scan"}, "is_reserved": 0}, {"bike_id": "2d4c93425a3c6c38a4edca293094769a", "name": "2d4c93425a3c6c38a4edca293094769a", "lat": 38.8812575, "fusion_lat": 0.0, "type": "electric_scooter", "lon": -77.01698233333333, "is_disabled": 0, "fusion_lon": 0.0, "rental_uris": {"android": "https://dc.lft.to/lastmile_qr_scan", "ios": "https://dc.lft.to/lastmile_qr_scan"}, "is_reserved": 0}, {"bike_id": "93ab37fff2e7f9a2bf8927fea7a410c9", "name": "93ab37fff2e7f9a2bf8927fea7a410c9", "lat": 38.9218405, "fusion_lat": 0.0, "type": "electric_scooter", "lon": -77.042267, "is_disabled": 0, "fusion_lon": 0.0, "rental_uris": {"android": "https://dc.lft.to/lastmile_qr_scan", "ios": "https://dc.lft.to/lastmile_qr_scan"}, "is_reserved": 0}, {"bike_id": "b91d59ebcee9fe29612f13a14986c23a", "name": "b91d59ebcee9fe29612f13a14986c23a", "lat": 38.89797883333333, "fusion_lat": 0.0, "type": "electric_scooter", "lon": -77.01192833333333, "is_disabled": 0, "fusion_lon": 0.0, "rental_uris": {"android": "https://dc.lft.to/lastmile_qr_scan", "ios": "https://dc.lft.to/lastmile_qr_scan"}, "is_reserved": 0}, {"bike_id": "054680bc5f811b5cae3c2c3cbb9999d7", "name": "054680bc5f811b5cae3c2c3cbb9999d7", "lat": 38.912889166666666, "fusion_lat": 0.0, "type": "electric_scooter", "lon": -77.022551, "is_disabled": 0, "fusion_lon": 0.0, "rental_uris": {"android": "https://dc.lft.to/lastmile_qr_scan", "ios": "https://dc.lft.to/lastmile_qr_scan"}, "is_reserved": 0}, {"bike_id": "ee25a01bce090269e42f44a5ec681d08", "name": "ee25a01bce090269e42f44a5ec681d08", "lat": 38.92443316666667, "fusion_lat": 0.0, "type": "electric_scooter", "lon": -77.034021, "is_disabled": 0, "fusion_lon": 0.0, "rental_uris": {"android": "https://dc.lft.to/lastmile_qr_scan", "ios": "https://dc.lft.to/lastmile_qr_scan"}, "is_reserved": 0}, {"bike_id": "8d003c399e8d3ce099222831d02765e4", "name": "8d003c399e8d3ce099222831d02765e4", "lat": 38.91714266666666, "fusion_lat": 0.0, "type": "electric_scooter", "lon": -77.03155833333334, "is_disabled": 0, "fusion_lon": 0.0, "rental_uris": {"android": "https://dc.lft.to/lastmile_qr_scan", "ios": "https://dc.lft.to/lastmile_qr_scan"}, "is_reserved": 0}, {"bike_id": "7d1490b16cb5db1c852b782c2c3181ec", "name": "7d1490b16cb5db1c852b782c2c3181ec", "lat": 38.8849445, "fusion_lat": 0.0, "type": "electric_scooter", "lon": -77.00713216666666, "is_disabled": 0, "fusion_lon": 0.0, "rental_uris": {"android": "https://dc.lft.to/lastmile_qr_scan", "ios": "https://dc.lft.to/lastmile_qr_scan"}, "is_reserved": 0}, {"bike_id": "334dc77530afb63ddfe88737f4159e39", "name": "334dc77530afb63ddfe88737f4159e39", "lat": 38.92451783333333, "fusion_lat": 0.0, "type": "electric_scooter", "lon": -77.03404883333333, "is_disabled": 0, "fusion_lon": 0.0, "rental_uris": {"android": "https://dc.lft.to/lastmile_qr_scan", "ios": "https://dc.lft.to/lastmile_qr_scan"}, "is_reserved": 0}, {"bike_id": "4187925a6f39c260960d1e38bdc223cf", "name": "4187925a6f39c260960d1e38bdc223cf", "lat": 38.922646, "fusion_lat": 0.0, "type": "electric_scooter", "lon": -77.020403, "is_disabled": 0, "fusion_lon": 0.0, "rental_uris": {"android": "https://dc.lft.to/lastmile_qr_scan", "ios": "https://dc.lft.to/lastmile_qr_scan"}, "is_reserved": 0}, {"bike_id": "4109967caea84fbac9d7f594d3f9e3a3", "name": "4109967caea84fbac9d7f594d3f9e3a3", "lat": 38.892264, "fusion_lat": 0.0, "type": "electric_scooter", "lon": -77.04868783333333, "is_disabled": 0, "fusion_lon": 0.0, "rental_uris": {"android": "https://dc.lft.to/lastmile_qr_scan", "ios": "https://dc.lft.to/lastmile_qr_scan"}, "is_reserved": 0}, {"bike_id": "e657c23601e42ec0175c3f052b5c194f", "name": "e657c23601e42ec0175c3f052b5c194f", "lat": 38.916825, "fusion_lat": 0.0, "type": "electric_scooter", "lon": -77.022954, "is_disabled": 0, "fusion_lon": 0.0, "rental_uris": {"android": "https://dc.lft.to/lastmile_qr_scan", "ios": "https://dc.lft.to/lastmile_qr_scan"}, "is_reserved": 0}, {"bike_id": "8be6626031554801945974a963b2fb8b", "name": "8be6626031554801945974a963b2fb8b", "lat": 38.90967, "fusion_lat": 0.0, "type": "electric_scooter", "lon": -77.03223633333333, "is_disabled": 0, "fusion_lon": 0.0, "rental_uris": {"android": "https://dc.lft.to/lastmile_qr_scan", "ios": "https://dc.lft.to/lastmile_qr_scan"}, "is_reserved": 0}, {"bike_id": "0449682c401dc1f5dc8913698a6d77da", "name": "0449682c401dc1f5dc8913698a6d77da", "lat": 38.907300666666664, "fusion_lat": 0.0, "type": "electric_scooter", "lon": -77.04801966666666, "is_disabled": 0, "fusion_lon": 0.0, "rental_uris": {"android": "https://dc.lft.to/lastmile_qr_scan", "ios": "https://dc.lft.to/lastmile_qr_scan"}, "is_reserved": 0}, {"bike_id": "b306a580cc7af32fc00ed303ec5db3c7", "name": "b306a580cc7af32fc00ed303ec5db3c7", "lat": 38.9257975, "fusion_lat": 0.0, "type": "electric_scooter", "lon": -76.99496566666667, "is_disabled": 0, "fusion_lon": 0.0, "rental_uris": {"android": "https://dc.lft.to/lastmile_qr_scan", "ios": "https://dc.lft.to/lastmile_qr_scan"}, "is_reserved": 0}, {"bike_id": "f6e6981d6082a63c50c3e5362737437e", "name": "f6e6981d6082a63c50c3e5362737437e", "lat": 38.902660833333336, "fusion_lat": 0.0, "type": "electric_scooter", "lon": -77.002252, "is_disabled": 0, "fusion_lon": 0.0, "rental_uris": {"android": "https://dc.lft.to/lastmile_qr_scan", "ios": "https://dc.lft.to/lastmile_qr_scan"}, "is_reserved": 0}, {"bike_id": "f4c77d39debfc3a83480cf75e45895a9", "name": "f4c77d39debfc3a83480cf75e45895a9", "lat": 38.902466, "fusion_lat": 0.0, "type": "electric_scooter", "lon": -76.974179, "is_disabled": 0, "fusion_lon": 0.0, "rental_uris": {"android": "https://dc.lft.to/lastmile_qr_scan", "ios": "https://dc.lft.to/lastmile_qr_scan"}, "is_reserved": 0}, {"bike_id": "588adfd226e11b3252f323b45ddf57ea", "name": "588adfd226e11b3252f323b45ddf57ea", "lat": 38.912766833333336, "fusion_lat": 0.0, "type": "electric_scooter", "lon": -77.031662, "is_disabled": 0, "fusion_lon": 0.0, "rental_uris": {"android": "https://dc.lft.to/lastmile_qr_scan", "ios": "https://dc.lft.to/lastmile_qr_scan"}, "is_reserved": 0}, {"bike_id": "738950930e9a3b877a58c6e4d93272b3", "name": "738950930e9a3b877a58c6e4d93272b3", "lat": 39.0381565, "fusion_lat": 0.0, "type": "electric_bike", "lon": -77.04227, "is_disabled": 0, "fusion_lon": 0.0, "rental_uris": {"android": "https://dc.lft.to/lastmile_qr_scan", "ios": "https://dc.lft.to/lastmile_qr_scan"}, "is_reserved": 0}, {"bike_id": "7272e0d48b5d78a4f0df8bd15b1da8db", "name": "7272e0d48b5d78a4f0df8bd15b1da8db", "lat": 38.926165833333336, "fusion_lat": 0.0, "type": "electric_scooter", "lon": -77.02159316666666, "is_disabled": 0, "fusion_lon": 0.0, "rental_uris": {"android": "https://dc.lft.to/lastmile_qr_scan", "ios": "https://dc.lft.to/lastmile_qr_scan"}, "is_reserved": 0}, {"bike_id": "f1fc65ed5a0fc6ccda5726fbc03ac2d1", "name": "f1fc65ed5a0fc6ccda5726fbc03ac2d1", "lat": 38.9113375, "fusion_lat": 0.0, "type": "electric_bike", "lon": -77.06576683333333, "is_disabled": 0, "fusion_lon": 0.0, "rental_uris": {"android": "https://dc.lft.to/lastmile_qr_scan", "ios": "https://dc.lft.to/lastmile_qr_scan"}, "is_reserved": 0}, {"bike_id": "0bad327fccaa67fb74add7873cc7ee20", "name": "0bad327fccaa67fb74add7873cc7ee20", "lat": 38.89624083333333, "fusion_lat": 0.0, "type": "electric_scooter", "lon": -77.02990816666667, "is_disabled": 0, "fusion_lon": 0.0, "rental_uris": {"android": "https://dc.lft.to/lastmile_qr_scan", "ios": "https://dc.lft.to/lastmile_qr_scan"}, "is_reserved": 0}, {"bike_id": "5e04aab4544afa6e4ae7c538d9289bdf", "name": "5e04aab4544afa6e4ae7c538d9289bdf", "lat": 38.9058705, "fusion_lat": 0.0, "type": "electric_scooter", "lon": -77.04361983333334, "is_disabled": 0, "fusion_lon": 0.0, "rental_uris": {"android": "https://dc.lft.to/lastmile_qr_scan", "ios": "https://dc.lft.to/lastmile_qr_scan"}, "is_reserved": 0}, {"bike_id": "53f207c27efb170108ae6e6a7b6286ed", "name": "53f207c27efb170108ae6e6a7b6286ed", "lat": 38.92583466666667, "fusion_lat": 0.0, "type": "electric_scooter", "lon": -77.022553, "is_disabled": 0, "fusion_lon": 0.0, "rental_uris": {"android": "https://dc.lft.to/lastmile_qr_scan", "ios": "https://dc.lft.to/lastmile_qr_scan"}, "is_reserved": 0}, {"bike_id": "9909c3b7a4014424de2eb5a067cb47a2", "name": "9909c3b7a4014424de2eb5a067cb47a2", "lat": 38.90719633333333, "fusion_lat": 0.0, "type": "electric_scooter", "lon": -77.0339205, "is_disabled": 0, "fusion_lon": 0.0, "rental_uris": {"android": "https://dc.lft.to/lastmile_qr_scan", "ios": "https://dc.lft.to/lastmile_qr_scan"}, "is_reserved": 0}, {"bike_id": "d8cb393810f735ae400ad1a2206c79db", "name": "d8cb393810f735ae400ad1a2206c79db", "lat": 38.90889766666667, "fusion_lat": 0.0, "type": "electric_scooter", "lon": -77.0240395, "is_disabled": 0, "fusion_lon": 0.0, "rental_uris": {"android": "https://dc.lft.to/lastmile_qr_scan", "ios": "https://dc.lft.to/lastmile_qr_scan"}, "is_reserved": 0}, {"bike_id": "913b989700c0efd3f559c481e606c068", "name": "913b989700c0efd3f559c481e606c068", "lat": 38.8816765, "fusion_lat": 0.0, "type": "electric_scooter", "lon": -77.00078633333334, "is_disabled": 0, "fusion_lon": 0.0, "rental_uris": {"android": "https://dc.lft.to/lastmile_qr_scan", "ios": "https://dc.lft.to/lastmile_qr_scan"}, "is_reserved": 0}, {"bike_id": "9846aa51490b9c84000049fb9732127d", "name": "9846aa51490b9c84000049fb9732127d", "lat": 38.903708333333334, "fusion_lat": 0.0, "type": "electric_scooter", "lon": -77.05021583333334, "is_disabled": 0, "fusion_lon": 0.0, "rental_uris": {"android": "https://dc.lft.to/lastmile_qr_scan", "ios": "https://dc.lft.to/lastmile_qr_scan"}, "is_reserved": 0}, {"bike_id": "cf5a26e92c5aeaddabb580c749d2b5c2", "name": "cf5a26e92c5aeaddabb580c749d2b5c2", "lat": 38.94132883333333, "fusion_lat": 0.0, "type": "electric_scooter", "lon": -77.0617025, "is_disabled": 0, "fusion_lon": 0.0, "rental_uris": {"android": "https://dc.lft.to/lastmile_qr_scan", "ios": "https://dc.lft.to/lastmile_qr_scan"}, "is_reserved": 0}, {"bike_id": "1d15fc7a634dd279c116bb137f114dcf", "name": "1d15fc7a634dd279c116bb137f114dcf", "lat": 38.9140515, "fusion_lat": 0.0, "type": "electric_scooter", "lon": -77.02692433333333, "is_disabled": 0, "fusion_lon": 0.0, "rental_uris": {"android": "https://dc.lft.to/lastmile_qr_scan", "ios": "https://dc.lft.to/lastmile_qr_scan"}, "is_reserved": 0}, {"bike_id": "ffafad4004fafd3ca046eea41d3f4a34", "name": "ffafad4004fafd3ca046eea41d3f4a34", "lat": 38.859557833333334, "fusion_lat": 0.0, "type": "electric_scooter", "lon": -76.9915115, "is_disabled": 0, "fusion_lon": 0.0, "rental_uris": {"android": "https://dc.lft.to/lastmile_qr_scan", "ios": "https://dc.lft.to/lastmile_qr_scan"}, "is_reserved": 0}, {"bike_id": "ed689cbb400374b38af689fa80c9f2e6", "name": "ed689cbb400374b38af689fa80c9f2e6", "lat": 38.900254, "fusion_lat": 0.0, "type": "electric_bike", "lon": -76.98038733333334, "is_disabled": 0, "fusion_lon": 0.0, "rental_uris": {"android": "https://dc.lft.to/lastmile_qr_scan", "ios": "https://dc.lft.to/lastmile_qr_scan"}, "is_reserved": 0}, {"bike_id": "281cee49c09087ee71440756c6281a02", "name": "281cee49c09087ee71440756c6281a02", "lat": 38.88525333333333, "fusion_lat": 0.0, "type": "electric_scooter", "lon": -76.9770805, "is_disabled": 0, "fusion_lon": 0.0, "rental_uris": {"android": "https://dc.lft.to/lastmile_qr_scan", "ios": "https://dc.lft.to/lastmile_qr_scan"}, "is_reserved": 0}, {"bike_id": "5640f754f36b0907e2902fa2ec6b7317", "name": "5640f754f36b0907e2902fa2ec6b7317", "lat": 38.930093166666666, "fusion_lat": 0.0, "type": "electric_scooter", "lon": -77.0377465, "is_disabled": 0, "fusion_lon": 0.0, "rental_uris": {"android": "https://dc.lft.to/lastmile_qr_scan", "ios": "https://dc.lft.to/lastmile_qr_scan"}, "is_reserved": 0}, {"bike_id": "7bf99942a48c9940328ac0e61e8fb2f9", "name": "7bf99942a48c9940328ac0e61e8fb2f9", "lat": 38.93503333333334, "fusion_lat": 0.0, "type": "electric_scooter", "lon": -77.027248, "is_disabled": 0, "fusion_lon": 0.0, "rental_uris": {"android": "https://dc.lft.to/lastmile_qr_scan", "ios": "https://dc.lft.to/lastmile_qr_scan"}, "is_reserved": 0}, {"bike_id": "dded4f31a5d56e387ae818d9452237be", "name": "dded4f31a5d56e387ae818d9452237be", "lat": 38.96035666666667, "fusion_lat": 0.0, "type": "electric_scooter", "lon": -77.024254, "is_disabled": 0, "fusion_lon": 0.0, "rental_uris": {"android": "https://dc.lft.to/lastmile_qr_scan", "ios": "https://dc.lft.to/lastmile_qr_scan"}, "is_reserved": 0}, {"bike_id": "28333300b3f44f7b9a35b72399128681", "name": "28333300b3f44f7b9a35b72399128681", "lat": 38.914056333333335, "fusion_lat": 0.0, "type": "electric_scooter", "lon": -77.03218116666666, "is_disabled": 0, "fusion_lon": 0.0, "rental_uris": {"android": "https://dc.lft.to/lastmile_qr_scan", "ios": "https://dc.lft.to/lastmile_qr_scan"}, "is_reserved": 0}, {"bike_id": "df9218602fb12ae8af7bdc16b9c551ee", "name": "df9218602fb12ae8af7bdc16b9c551ee", "lat": 38.921243, "fusion_lat": 0.0, "type": "electric_scooter", "lon": -77.041656, "is_disabled": 0, "fusion_lon": 0.0, "rental_uris": {"android": "https://dc.lft.to/lastmile_qr_scan", "ios": "https://dc.lft.to/lastmile_qr_scan"}, "is_reserved": 0}, {"bike_id": "6a1daa1baac55de7792913526ded631b", "name": "6a1daa1baac55de7792913526ded631b", "lat": 38.8879235, "fusion_lat": 0.0, "type": "electric_bike", "lon": -76.92343466666667, "is_disabled": 0, "fusion_lon": 0.0, "rental_uris": {"android": "https://dc.lft.to/lastmile_qr_scan", "ios": "https://dc.lft.to/lastmile_qr_scan"}, "is_reserved": 0}, {"bike_id": "73190f02cb2793fefd012b47d36feb00", "name": "73190f02cb2793fefd012b47d36feb00", "lat": 38.89890916666667, "fusion_lat": 0.0, "type": "electric_scooter", "lon": -77.02952666666667, "is_disabled": 0, "fusion_lon": 0.0, "rental_uris": {"android": "https://dc.lft.to/lastmile_qr_scan", "ios": "https://dc.lft.to/lastmile_qr_scan"}, "is_reserved": 0}, {"bike_id": "31e543372278860531359405e8244ab4", "name": "31e543372278860531359405e8244ab4", "lat": 38.91118483333333, "fusion_lat": 0.0, "type": "electric_scooter", "lon": -77.04407666666667, "is_disabled": 0, "fusion_lon": 0.0, "rental_uris": {"android": "https://dc.lft.to/lastmile_qr_scan", "ios": "https://dc.lft.to/lastmile_qr_scan"}, "is_reserved": 0}, {"bike_id": "fdc8b2b11805ce2b6fe726d5f6f12540", "name": "fdc8b2b11805ce2b6fe726d5f6f12540", "lat": 38.9267135, "fusion_lat": 0.0, "type": "electric_scooter", "lon": -77.027632, "is_disabled": 0, "fusion_lon": 0.0, "rental_uris": {"android": "https://dc.lft.to/lastmile_qr_scan", "ios": "https://dc.lft.to/lastmile_qr_scan"}, "is_reserved": 0}, {"bike_id": "1dd161b7340c560f8af5a8953eeb20b3", "name": "1dd161b7340c560f8af5a8953eeb20b3", "lat": 38.97501716666667, "fusion_lat": 0.0, "type": "electric_scooter", "lon": -77.0169985, "is_disabled": 0, "fusion_lon": 0.0, "rental_uris": {"android": "https://dc.lft.to/lastmile_qr_scan", "ios": "https://dc.lft.to/lastmile_qr_scan"}, "is_reserved": 0}, {"bike_id": "a9b08237eb166a0cf292ce4bdc5246e6", "name": "a9b08237eb166a0cf292ce4bdc5246e6", "lat": 38.89619233333333, "fusion_lat": 0.0, "type": "electric_scooter", "lon": -77.04479966666666, "is_disabled": 0, "fusion_lon": 0.0, "rental_uris": {"android": "https://dc.lft.to/lastmile_qr_scan", "ios": "https://dc.lft.to/lastmile_qr_scan"}, "is_reserved": 0}, {"bike_id": "ba5e45bdd4c0cc62247c88042b95ae92", "name": "ba5e45bdd4c0cc62247c88042b95ae92", "lat": 38.9134035, "fusion_lat": 0.0, "type": "electric_scooter", "lon": -77.04800566666667, "is_disabled": 0, "fusion_lon": 0.0, "rental_uris": {"android": "https://dc.lft.to/lastmile_qr_scan", "ios": "https://dc.lft.to/lastmile_qr_scan"}, "is_reserved": 0}, {"bike_id": "76f683cd762434b904606dd62003c7fe", "name": "76f683cd762434b904606dd62003c7fe", "lat": 38.897346666666664, "fusion_lat": 0.0, "type": "electric_scooter", "lon": -77.05472083333333, "is_disabled": 0, "fusion_lon": 0.0, "rental_uris": {"android": "https://dc.lft.to/lastmile_qr_scan", "ios": "https://dc.lft.to/lastmile_qr_scan"}, "is_reserved": 0}, {"bike_id": "0cabbbcd722afb92be12158051d85623", "name": "0cabbbcd722afb92be12158051d85623", "lat": 38.93184466666666, "fusion_lat": 0.0, "type": "electric_scooter", "lon": -77.02353983333333, "is_disabled": 0, "fusion_lon": 0.0, "rental_uris": {"android": "https://dc.lft.to/lastmile_qr_scan", "ios": "https://dc.lft.to/lastmile_qr_scan"}, "is_reserved": 0}, {"bike_id": "080cdcf90f050567763bf954c31eb734", "name": "080cdcf90f050567763bf954c31eb734", "lat": 38.919293333333336, "fusion_lat": 0.0, "type": "electric_scooter", "lon": -77.0097285, "is_disabled": 0, "fusion_lon": 0.0, "rental_uris": {"android": "https://dc.lft.to/lastmile_qr_scan", "ios": "https://dc.lft.to/lastmile_qr_scan"}, "is_reserved": 0}, {"bike_id": "02a165814f869197cd3d472f9ecb48ce", "name": "02a165814f869197cd3d472f9ecb48ce", "lat": 38.893684666666665, "fusion_lat": 0.0, "type": "electric_scooter", "lon": -77.003364, "is_disabled": 0, "fusion_lon": 0.0, "rental_uris": {"android": "https://dc.lft.to/lastmile_qr_scan", "ios": "https://dc.lft.to/lastmile_qr_scan"}, "is_reserved": 0}, {"bike_id": "b8f8de74c943f9598be2e6fc847e3e6b", "name": "b8f8de74c943f9598be2e6fc847e3e6b", "lat": 38.913018, "fusion_lat": 0.0, "type": "electric_scooter", "lon": -76.9853615, "is_disabled": 0, "fusion_lon": 0.0, "rental_uris": {"android": "https://dc.lft.to/lastmile_qr_scan", "ios": "https://dc.lft.to/lastmile_qr_scan"}, "is_reserved": 0}, {"bike_id": "c54a95aa5cf676d4588a3a1f8dcfc3f5", "name": "c54a95aa5cf676d4588a3a1f8dcfc3f5", "lat": 38.924641333333334, "fusion_lat": 0.0, "type": "electric_scooter", "lon": -77.0226775, "is_disabled": 0, "fusion_lon": 0.0, "rental_uris": {"android": "https://dc.lft.to/lastmile_qr_scan", "ios": "https://dc.lft.to/lastmile_qr_scan"}, "is_reserved": 0}, {"bike_id": "a817ade09dc7259ad1b48e75a17bf8ab", "name": "a817ade09dc7259ad1b48e75a17bf8ab", "lat": 38.9507175, "fusion_lat": 0.0, "type": "electric_scooter", "lon": -77.06971683333333, "is_disabled": 0, "fusion_lon": 0.0, "rental_uris": {"android": "https://dc.lft.to/lastmile_qr_scan", "ios": "https://dc.lft.to/lastmile_qr_scan"}, "is_reserved": 0}, {"bike_id": "c9805631fa636bef4df7168c590fa07d", "name": "c9805631fa636bef4df7168c590fa07d", "lat": 38.86720966666667, "fusion_lat": 0.0, "type": "electric_scooter", "lon": -77.01236216666666, "is_disabled": 0, "fusion_lon": 0.0, "rental_uris": {"android": "https://dc.lft.to/lastmile_qr_scan", "ios": "https://dc.lft.to/lastmile_qr_scan"}, "is_reserved": 0}, {"bike_id": "9a89da16190d999d331a77564370c292", "name": "9a89da16190d999d331a77564370c292", "lat": 38.88629066666667, "fusion_lat": 0.0, "type": "electric_scooter", "lon": -77.03353, "is_disabled": 0, "fusion_lon": 0.0, "rental_uris": {"android": "https://dc.lft.to/lastmile_qr_scan", "ios": "https://dc.lft.to/lastmile_qr_scan"}, "is_reserved": 0}, {"bike_id": "534c1f77086d39f6e5fa47a966dc224b", "name": "534c1f77086d39f6e5fa47a966dc224b", "lat": 38.905624, "fusion_lat": 0.0, "type": "electric_scooter", "lon": -77.03972466666667, "is_disabled": 0, "fusion_lon": 0.0, "rental_uris": {"android": "https://dc.lft.to/lastmile_qr_scan", "ios": "https://dc.lft.to/lastmile_qr_scan"}, "is_reserved": 0}, {"bike_id": "81c7155227fb633626a54383de053ba4", "name": "81c7155227fb633626a54383de053ba4", "lat": 38.90901733333333, "fusion_lat": 0.0, "type": "electric_scooter", "lon": -77.04397883333333, "is_disabled": 0, "fusion_lon": 0.0, "rental_uris": {"android": "https://dc.lft.to/lastmile_qr_scan", "ios": "https://dc.lft.to/lastmile_qr_scan"}, "is_reserved": 0}, {"bike_id": "b4ca16078daa6115b11fee240821c41b", "name": "b4ca16078daa6115b11fee240821c41b", "lat": 38.88372566666666, "fusion_lat": 0.0, "type": "electric_scooter", "lon": -77.02011966666667, "is_disabled": 0, "fusion_lon": 0.0, "rental_uris": {"android": "https://dc.lft.to/lastmile_qr_scan", "ios": "https://dc.lft.to/lastmile_qr_scan"}, "is_reserved": 0}, {"bike_id": "491e1f2e094cd9353a94200e64112007", "name": "491e1f2e094cd9353a94200e64112007", "lat": 38.8953035, "fusion_lat": 0.0, "type": "electric_scooter", "lon": -77.04471033333333, "is_disabled": 0, "fusion_lon": 0.0, "rental_uris": {"android": "https://dc.lft.to/lastmile_qr_scan", "ios": "https://dc.lft.to/lastmile_qr_scan"}, "is_reserved": 0}, {"bike_id": "f45956831fa1e0b11033c23c4c8635a0", "name": "f45956831fa1e0b11033c23c4c8635a0", "lat": 39.084949333333334, "fusion_lat": 0.0, "type": "electric_bike", "lon": -76.95060433333333, "is_disabled": 0, "fusion_lon": 0.0, "rental_uris": {"android": "https://dc.lft.to/lastmile_qr_scan", "ios": "https://dc.lft.to/lastmile_qr_scan"}, "is_reserved": 0}, {"bike_id": "ed5e5098ac79c465c59c2a6dd42f43cd", "name": "ed5e5098ac79c465c59c2a6dd42f43cd", "lat": 38.90646916666667, "fusion_lat": 0.0, "type": "electric_scooter", "lon": -76.99378516666667, "is_disabled": 0, "fusion_lon": 0.0, "rental_uris": {"android": "https://dc.lft.to/lastmile_qr_scan", "ios": "https://dc.lft.to/lastmile_qr_scan"}, "is_reserved": 0}, {"bike_id": "cdd7c17228c51683df6ca71582d0bbcb", "name": "cdd7c17228c51683df6ca71582d0bbcb", "lat": 38.920497, "fusion_lat": 0.0, "type": "electric_scooter", "lon": -77.016839, "is_disabled": 0, "fusion_lon": 0.0, "rental_uris": {"android": "https://dc.lft.to/lastmile_qr_scan", "ios": "https://dc.lft.to/lastmile_qr_scan"}, "is_reserved": 0}, {"bike_id": "9d2291a4b1d5f857ed173deb8921f61d", "name": "9d2291a4b1d5f857ed173deb8921f61d", "lat": 38.921466833333334, "fusion_lat": 0.0, "type": "electric_scooter", "lon": -77.04587066666667, "is_disabled": 0, "fusion_lon": 0.0, "rental_uris": {"android": "https://dc.lft.to/lastmile_qr_scan", "ios": "https://dc.lft.to/lastmile_qr_scan"}, "is_reserved": 0}, {"bike_id": "0ac934746ee374ae9b293ed1e58b025d", "name": "0ac934746ee374ae9b293ed1e58b025d", "lat": 38.95740716666667, "fusion_lat": 0.0, "type": "electric_scooter", "lon": -77.0301075, "is_disabled": 0, "fusion_lon": 0.0, "rental_uris": {"android": "https://dc.lft.to/lastmile_qr_scan", "ios": "https://dc.lft.to/lastmile_qr_scan"}, "is_reserved": 0}, {"bike_id": "db4ce53120838e9dc41ae9ddcefadec8", "name": "db4ce53120838e9dc41ae9ddcefadec8", "lat": 38.915032333333336, "fusion_lat": 0.0, "type": "electric_scooter", "lon": -77.0322715, "is_disabled": 0, "fusion_lon": 0.0, "rental_uris": {"android": "https://dc.lft.to/lastmile_qr_scan", "ios": "https://dc.lft.to/lastmile_qr_scan"}, "is_reserved": 0}, {"bike_id": "ab93025829e4a47515c330aa71036474", "name": "ab93025829e4a47515c330aa71036474", "lat": 38.87023633333333, "fusion_lat": 0.0, "type": "electric_bike", "lon": -77.22995916666666, "is_disabled": 0, "fusion_lon": 0.0, "rental_uris": {"android": "https://dc.lft.to/lastmile_qr_scan", "ios": "https://dc.lft.to/lastmile_qr_scan"}, "is_reserved": 0}, {"bike_id": "e5801b7c00e3db154317c80e1c5975ce", "name": "e5801b7c00e3db154317c80e1c5975ce", "lat": 38.88538966666667, "fusion_lat": 0.0, "type": "electric_bike", "lon": -76.99822516666667, "is_disabled": 0, "fusion_lon": 0.0, "rental_uris": {"android": "https://dc.lft.to/lastmile_qr_scan", "ios": "https://dc.lft.to/lastmile_qr_scan"}, "is_reserved": 0}, {"bike_id": "0d9b2fbf52fe079619937c6af40f3d2a", "name": "0d9b2fbf52fe079619937c6af40f3d2a", "lat": 38.95476333333333, "fusion_lat": 0.0, "type": "electric_scooter", "lon": -77.01975, "is_disabled": 0, "fusion_lon": 0.0, "rental_uris": {"android": "https://dc.lft.to/lastmile_qr_scan", "ios": "https://dc.lft.to/lastmile_qr_scan"}, "is_reserved": 0}, {"bike_id": "3defc57088a8efe0098389d4d6b7941d", "name": "3defc57088a8efe0098389d4d6b7941d", "lat": 38.90183666666667, "fusion_lat": 0.0, "type": "electric_scooter", "lon": -77.04672466666666, "is_disabled": 0, "fusion_lon": 0.0, "rental_uris": {"android": "https://dc.lft.to/lastmile_qr_scan", "ios": "https://dc.lft.to/lastmile_qr_scan"}, "is_reserved": 0}, {"bike_id": "b0e1028040b8a7b98d7e2eb515169373", "name": "b0e1028040b8a7b98d7e2eb515169373", "lat": 38.91200633333333, "fusion_lat": 0.0, "type": "electric_scooter", "lon": -77.03832766666666, "is_disabled": 0, "fusion_lon": 0.0, "rental_uris": {"android": "https://dc.lft.to/lastmile_qr_scan", "ios": "https://dc.lft.to/lastmile_qr_scan"}, "is_reserved": 0}, {"bike_id": "1cc0da66f4ddb03f966cbc830d7c3e83", "name": "1cc0da66f4ddb03f966cbc830d7c3e83", "lat": 38.91686133333333, "fusion_lat": 0.0, "type": "electric_scooter", "lon": -77.02297866666666, "is_disabled": 0, "fusion_lon": 0.0, "rental_uris": {"android": "https://dc.lft.to/lastmile_qr_scan", "ios": "https://dc.lft.to/lastmile_qr_scan"}, "is_reserved": 0}, {"bike_id": "cbd7b826b40a11a30bbd15d19ef51576", "name": "cbd7b826b40a11a30bbd15d19ef51576", "lat": 38.90389966666667, "fusion_lat": 0.0, "type": "electric_scooter", "lon": -77.01223133333333, "is_disabled": 0, "fusion_lon": 0.0, "rental_uris": {"android": "https://dc.lft.to/lastmile_qr_scan", "ios": "https://dc.lft.to/lastmile_qr_scan"}, "is_reserved": 0}, {"bike_id": "fa8a50ebb682b529c1686505e368d96b", "name": "fa8a50ebb682b529c1686505e368d96b", "lat": 38.94188716666667, "fusion_lat": 0.0, "type": "electric_scooter", "lon": -77.023482, "is_disabled": 0, "fusion_lon": 0.0, "rental_uris": {"android": "https://dc.lft.to/lastmile_qr_scan", "ios": "https://dc.lft.to/lastmile_qr_scan"}, "is_reserved": 0}, {"bike_id": "ff4b63c8605b4a94d8f4886e59db9dea", "name": "ff4b63c8605b4a94d8f4886e59db9dea", "lat": 38.9074365, "fusion_lat": 0.0, "type": "electric_scooter", "lon": -76.93479066666667, "is_disabled": 0, "fusion_lon": 0.0, "rental_uris": {"android": "https://dc.lft.to/lastmile_qr_scan", "ios": "https://dc.lft.to/lastmile_qr_scan"}, "is_reserved": 0}, {"bike_id": "71fe8783249781934bc35210c871df64", "name": "71fe8783249781934bc35210c871df64", "lat": 38.9241105, "fusion_lat": 0.0, "type": "electric_scooter", "lon": -77.03533383333334, "is_disabled": 0, "fusion_lon": 0.0, "rental_uris": {"android": "https://dc.lft.to/lastmile_qr_scan", "ios": "https://dc.lft.to/lastmile_qr_scan"}, "is_reserved": 0}, {"bike_id": "8bd37fe6babd5db314499ac2dfe277d6", "name": "8bd37fe6babd5db314499ac2dfe277d6", "lat": 38.94091366666667, "fusion_lat": 0.0, "type": "electric_scooter", "lon": -77.02980766666667, "is_disabled": 0, "fusion_lon": 0.0, "rental_uris": {"android": "https://dc.lft.to/lastmile_qr_scan", "ios": "https://dc.lft.to/lastmile_qr_scan"}, "is_reserved": 0}, {"bike_id": "f5d24f3afeed27a54b94995b25be51c4", "name": "f5d24f3afeed27a54b94995b25be51c4", "lat": 38.89991216666667, "fusion_lat": 0.0, "type": "electric_scooter", "lon": -77.02299066666667, "is_disabled": 0, "fusion_lon": 0.0, "rental_uris": {"android": "https://dc.lft.to/lastmile_qr_scan", "ios": "https://dc.lft.to/lastmile_qr_scan"}, "is_reserved": 0}, {"bike_id": "5ea2fcc69c3185278e2f6475362fc1cb", "name": "5ea2fcc69c3185278e2f6475362fc1cb", "lat": 38.91724683333333, "fusion_lat": 0.0, "type": "electric_scooter", "lon": -77.03674333333333, "is_disabled": 0, "fusion_lon": 0.0, "rental_uris": {"android": "https://dc.lft.to/lastmile_qr_scan", "ios": "https://dc.lft.to/lastmile_qr_scan"}, "is_reserved": 0}, {"bike_id": "cbb82f5a1839b71420dcd58bdc5882c7", "name": "cbb82f5a1839b71420dcd58bdc5882c7", "lat": 38.91420333333333, "fusion_lat": 0.0, "type": "electric_scooter", "lon": -77.03256733333333, "is_disabled": 0, "fusion_lon": 0.0, "rental_uris": {"android": "https://dc.lft.to/lastmile_qr_scan", "ios": "https://dc.lft.to/lastmile_qr_scan"}, "is_reserved": 0}, {"bike_id": "03567940c6a79766bd1f2c71008c9adc", "name": "03567940c6a79766bd1f2c71008c9adc", "lat": 38.90477283333333, "fusion_lat": 0.0, "type": "electric_scooter", "lon": -77.01692133333333, "is_disabled": 0, "fusion_lon": 0.0, "rental_uris": {"android": "https://dc.lft.to/lastmile_qr_scan", "ios": "https://dc.lft.to/lastmile_qr_scan"}, "is_reserved": 0}, {"bike_id": "53b2e542d36d21f1a8457d44fbd4c761", "name": "53b2e542d36d21f1a8457d44fbd4c761", "lat": 38.92754566666667, "fusion_lat": 0.0, "type": "electric_scooter", "lon": -77.02112483333333, "is_disabled": 0, "fusion_lon": 0.0, "rental_uris": {"android": "https://dc.lft.to/lastmile_qr_scan", "ios": "https://dc.lft.to/lastmile_qr_scan"}, "is_reserved": 0}, {"bike_id": "26c2cf0544d28f191af22a9e6434e68a", "name": "26c2cf0544d28f191af22a9e6434e68a", "lat": 38.919936166666666, "fusion_lat": 0.0, "type": "electric_scooter", "lon": -77.02174983333333, "is_disabled": 0, "fusion_lon": 0.0, "rental_uris": {"android": "https://dc.lft.to/lastmile_qr_scan", "ios": "https://dc.lft.to/lastmile_qr_scan"}, "is_reserved": 0}, {"bike_id": "6edd90ececdd7e5bba2c19ff21becee2", "name": "6edd90ececdd7e5bba2c19ff21becee2", "lat": 38.922418, "fusion_lat": 0.0, "type": "electric_scooter", "lon": -77.03959333333333, "is_disabled": 0, "fusion_lon": 0.0, "rental_uris": {"android": "https://dc.lft.to/lastmile_qr_scan", "ios": "https://dc.lft.to/lastmile_qr_scan"}, "is_reserved": 0}, {"bike_id": "41a89e8e6ae75cb04f285a20284cec83", "name": "41a89e8e6ae75cb04f285a20284cec83", "lat": 38.904210666666664, "fusion_lat": 0.0, "type": "electric_scooter", "lon": -76.99072083333333, "is_disabled": 0, "fusion_lon": 0.0, "rental_uris": {"android": "https://dc.lft.to/lastmile_qr_scan", "ios": "https://dc.lft.to/lastmile_qr_scan"}, "is_reserved": 0}, {"bike_id": "91ca16af0d07ce52ec303e6ea40c633c", "name": "91ca16af0d07ce52ec303e6ea40c633c", "lat": 38.896151333333336, "fusion_lat": 0.0, "type": "electric_scooter", "lon": -77.02980566666666, "is_disabled": 0, "fusion_lon": 0.0, "rental_uris": {"android": "https://dc.lft.to/lastmile_qr_scan", "ios": "https://dc.lft.to/lastmile_qr_scan"}, "is_reserved": 0}, {"bike_id": "14dfb115c7815b871707f503ae91fd0c", "name": "14dfb115c7815b871707f503ae91fd0c", "lat": 38.9347245, "fusion_lat": 0.0, "type": "electric_scooter", "lon": -77.0416335, "is_disabled": 0, "fusion_lon": 0.0, "rental_uris": {"android": "https://dc.lft.to/lastmile_qr_scan", "ios": "https://dc.lft.to/lastmile_qr_scan"}, "is_reserved": 0}, {"bike_id": "1443ea3a73e77deee31e681b4f34c65b", "name": "1443ea3a73e77deee31e681b4f34c65b", "lat": 38.989215, "fusion_lat": 0.0, "type": "electric_bike", "lon": -77.02537916666667, "is_disabled": 0, "fusion_lon": 0.0, "rental_uris": {"android": "https://dc.lft.to/lastmile_qr_scan", "ios": "https://dc.lft.to/lastmile_qr_scan"}, "is_reserved": 0}, {"bike_id": "4a10b93c8af93e8161980400a1742b2e", "name": "4a10b93c8af93e8161980400a1742b2e", "lat": 38.92163216666667, "fusion_lat": 0.0, "type": "electric_scooter", "lon": -77.03837933333334, "is_disabled": 0, "fusion_lon": 0.0, "rental_uris": {"android": "https://dc.lft.to/lastmile_qr_scan", "ios": "https://dc.lft.to/lastmile_qr_scan"}, "is_reserved": 0}, {"bike_id": "2558189c2b10bcb75fd217e310e5f8a3", "name": "2558189c2b10bcb75fd217e310e5f8a3", "lat": 38.91227116666666, "fusion_lat": 0.0, "type": "electric_scooter", "lon": -77.031775, "is_disabled": 0, "fusion_lon": 0.0, "rental_uris": {"android": "https://dc.lft.to/lastmile_qr_scan", "ios": "https://dc.lft.to/lastmile_qr_scan"}, "is_reserved": 0}, {"bike_id": "1dc795dd890508ea2429d00f9cf043f5", "name": "1dc795dd890508ea2429d00f9cf043f5", "lat": 38.8984645, "fusion_lat": 0.0, "type": "electric_bike", "lon": -77.11869516666667, "is_disabled": 0, "fusion_lon": 0.0, "rental_uris": {"android": "https://dc.lft.to/lastmile_qr_scan", "ios": "https://dc.lft.to/lastmile_qr_scan"}, "is_reserved": 0}, {"bike_id": "80fe1e4a97d2007ed58a8cb15e9092d5", "name": "80fe1e4a97d2007ed58a8cb15e9092d5", "lat": 38.913106666666664, "fusion_lat": 0.0, "type": "electric_scooter", "lon": -77.0319945, "is_disabled": 0, "fusion_lon": 0.0, "rental_uris": {"android": "https://dc.lft.to/lastmile_qr_scan", "ios": "https://dc.lft.to/lastmile_qr_scan"}, "is_reserved": 0}, {"bike_id": "e1bdc3281ec2810e5c8105dd7c471569", "name": "e1bdc3281ec2810e5c8105dd7c471569", "lat": 38.911222, "fusion_lat": 0.0, "type": "electric_scooter", "lon": -77.022394, "is_disabled": 0, "fusion_lon": 0.0, "rental_uris": {"android": "https://dc.lft.to/lastmile_qr_scan", "ios": "https://dc.lft.to/lastmile_qr_scan"}, "is_reserved": 0}, {"bike_id": "589209405881786a955b7adc382fca0a", "name": "589209405881786a955b7adc382fca0a", "lat": 38.91818966666666, "fusion_lat": 0.0, "type": "electric_scooter", "lon": -77.03151216666667, "is_disabled": 0, "fusion_lon": 0.0, "rental_uris": {"android": "https://dc.lft.to/lastmile_qr_scan", "ios": "https://dc.lft.to/lastmile_qr_scan"}, "is_reserved": 0}, {"bike_id": "8b54264b616c7b026427b0a954c51ada", "name": "8b54264b616c7b026427b0a954c51ada", "lat": 38.90083166666667, "fusion_lat": 0.0, "type": "electric_scooter", "lon": -77.03466166666666, "is_disabled": 0, "fusion_lon": 0.0, "rental_uris": {"android": "https://dc.lft.to/lastmile_qr_scan", "ios": "https://dc.lft.to/lastmile_qr_scan"}, "is_reserved": 0}, {"bike_id": "2de1e88230afa443013871578c8a3e64", "name": "2de1e88230afa443013871578c8a3e64", "lat": 38.9268005, "fusion_lat": 0.0, "type": "electric_scooter", "lon": -77.0074585, "is_disabled": 0, "fusion_lon": 0.0, "rental_uris": {"android": "https://dc.lft.to/lastmile_qr_scan", "ios": "https://dc.lft.to/lastmile_qr_scan"}, "is_reserved": 0}, {"bike_id": "49b9a30f6c5ca56754a2c09253f017f5", "name": "49b9a30f6c5ca56754a2c09253f017f5", "lat": 38.92864683333333, "fusion_lat": 0.0, "type": "electric_scooter", "lon": -77.03707116666666, "is_disabled": 0, "fusion_lon": 0.0, "rental_uris": {"android": "https://dc.lft.to/lastmile_qr_scan", "ios": "https://dc.lft.to/lastmile_qr_scan"}, "is_reserved": 0}, {"bike_id": "ee2ebc5079e131fd715dfbd2468ee204", "name": "ee2ebc5079e131fd715dfbd2468ee204", "lat": 38.94796183333333, "fusion_lat": 0.0, "type": "electric_bike", "lon": -76.94254666666667, "is_disabled": 0, "fusion_lon": 0.0, "rental_uris": {"android": "https://dc.lft.to/lastmile_qr_scan", "ios": "https://dc.lft.to/lastmile_qr_scan"}, "is_reserved": 0}, {"bike_id": "86769b05e0cf242add60af2f21a7a31f", "name": "86769b05e0cf242add60af2f21a7a31f", "lat": 38.895483, "fusion_lat": 0.0, "type": "electric_scooter", "lon": -76.98334466666667, "is_disabled": 0, "fusion_lon": 0.0, "rental_uris": {"android": "https://dc.lft.to/lastmile_qr_scan", "ios": "https://dc.lft.to/lastmile_qr_scan"}, "is_reserved": 0}, {"bike_id": "3a2de74165a08eb7ba863d66811bba92", "name": "3a2de74165a08eb7ba863d66811bba92", "lat": 38.985340666666666, "fusion_lat": 0.0, "type": "electric_bike", "lon": -76.95471033333334, "is_disabled": 0, "fusion_lon": 0.0, "rental_uris": {"android": "https://dc.lft.to/lastmile_qr_scan", "ios": "https://dc.lft.to/lastmile_qr_scan"}, "is_reserved": 0}, {"bike_id": "6a25da2876ae6b9779d1d7daccc2b81a", "name": "6a25da2876ae6b9779d1d7daccc2b81a", "lat": 38.90032816666667, "fusion_lat": 0.0, "type": "electric_scooter", "lon": -77.03547483333334, "is_disabled": 0, "fusion_lon": 0.0, "rental_uris": {"android": "https://dc.lft.to/lastmile_qr_scan", "ios": "https://dc.lft.to/lastmile_qr_scan"}, "is_reserved": 0}, {"bike_id": "6a34d51af141cbf6de56696dc3be7542", "name": "6a34d51af141cbf6de56696dc3be7542", "lat": 38.8993185, "fusion_lat": 0.0, "type": "electric_scooter", "lon": -77.027163, "is_disabled": 0, "fusion_lon": 0.0, "rental_uris": {"android": "https://dc.lft.to/lastmile_qr_scan", "ios": "https://dc.lft.to/lastmile_qr_scan"}, "is_reserved": 0}, {"bike_id": "d0824cb2622f9eff11e2c197d260ada0", "name": "d0824cb2622f9eff11e2c197d260ada0", "lat": 38.91138433333333, "fusion_lat": 0.0, "type": "electric_scooter", "lon": -77.04353983333333, "is_disabled": 0, "fusion_lon": 0.0, "rental_uris": {"android": "https://dc.lft.to/lastmile_qr_scan", "ios": "https://dc.lft.to/lastmile_qr_scan"}, "is_reserved": 0}, {"bike_id": "c0c35323743a70b7e714d7e3bbc0628c", "name": "c0c35323743a70b7e714d7e3bbc0628c", "lat": 38.898056833333335, "fusion_lat": 0.0, "type": "electric_bike", "lon": -76.99075966666666, "is_disabled": 0, "fusion_lon": 0.0, "rental_uris": {"android": "https://dc.lft.to/lastmile_qr_scan", "ios": "https://dc.lft.to/lastmile_qr_scan"}, "is_reserved": 0}, {"bike_id": "a31050a827d6272f7871016f82986264", "name": "a31050a827d6272f7871016f82986264", "lat": 38.929734333333336, "fusion_lat": 0.0, "type": "electric_scooter", "lon": -77.027541, "is_disabled": 0, "fusion_lon": 0.0, "rental_uris": {"android": "https://dc.lft.to/lastmile_qr_scan", "ios": "https://dc.lft.to/lastmile_qr_scan"}, "is_reserved": 0}, {"bike_id": "57e21d28c56c3217960d4fd608cb1461", "name": "57e21d28c56c3217960d4fd608cb1461", "lat": 38.898005166666664, "fusion_lat": 0.0, "type": "electric_scooter", "lon": -77.00918616666667, "is_disabled": 0, "fusion_lon": 0.0, "rental_uris": {"android": "https://dc.lft.to/lastmile_qr_scan", "ios": "https://dc.lft.to/lastmile_qr_scan"}, "is_reserved": 0}, {"bike_id": "2661a9695dd27dd2035479c77ee0e629", "name": "2661a9695dd27dd2035479c77ee0e629", "lat": 38.903495166666666, "fusion_lat": 0.0, "type": "electric_scooter", "lon": -77.02575633333333, "is_disabled": 0, "fusion_lon": 0.0, "rental_uris": {"android": "https://dc.lft.to/lastmile_qr_scan", "ios": "https://dc.lft.to/lastmile_qr_scan"}, "is_reserved": 0}, {"bike_id": "a7080d11f2b55036a14165360eb321cb", "name": "a7080d11f2b55036a14165360eb321cb", "lat": 38.9119315, "fusion_lat": 0.0, "type": "electric_scooter", "lon": -77.00726033333333, "is_disabled": 0, "fusion_lon": 0.0, "rental_uris": {"android": "https://dc.lft.to/lastmile_qr_scan", "ios": "https://dc.lft.to/lastmile_qr_scan"}, "is_reserved": 0}, {"bike_id": "06477cb54acb53fd572b0f022b4bceba", "name": "06477cb54acb53fd572b0f022b4bceba", "lat": 38.917182333333336, "fusion_lat": 0.0, "type": "electric_scooter", "lon": -77.03176, "is_disabled": 0, "fusion_lon": 0.0, "rental_uris": {"android": "https://dc.lft.to/lastmile_qr_scan", "ios": "https://dc.lft.to/lastmile_qr_scan"}, "is_reserved": 0}, {"bike_id": "2605420cb4e161c0d14729c51b5f57e6", "name": "2605420cb4e161c0d14729c51b5f57e6", "lat": 38.90412083333333, "fusion_lat": 0.0, "type": "electric_scooter", "lon": -77.06773883333334, "is_disabled": 0, "fusion_lon": 0.0, "rental_uris": {"android": "https://dc.lft.to/lastmile_qr_scan", "ios": "https://dc.lft.to/lastmile_qr_scan"}, "is_reserved": 0}, {"bike_id": "73b51ef4c9e814a0721ead1d87241230", "name": "73b51ef4c9e814a0721ead1d87241230", "lat": 38.914273666666666, "fusion_lat": 0.0, "type": "electric_scooter", "lon": -77.03189116666667, "is_disabled": 0, "fusion_lon": 0.0, "rental_uris": {"android": "https://dc.lft.to/lastmile_qr_scan", "ios": "https://dc.lft.to/lastmile_qr_scan"}, "is_reserved": 0}, {"bike_id": "d9a58923f110a30bdcc3fb7f585a1370", "name": "d9a58923f110a30bdcc3fb7f585a1370", "lat": 38.9181925, "fusion_lat": 0.0, "type": "electric_scooter", "lon": -77.03157116666667, "is_disabled": 0, "fusion_lon": 0.0, "rental_uris": {"android": "https://dc.lft.to/lastmile_qr_scan", "ios": "https://dc.lft.to/lastmile_qr_scan"}, "is_reserved": 0}, {"bike_id": "e4ed92826867eac5c384dff50c67c0a3", "name": "e4ed92826867eac5c384dff50c67c0a3", "lat": 38.92924033333333, "fusion_lat": 0.0, "type": "electric_scooter", "lon": -76.99817716666666, "is_disabled": 0, "fusion_lon": 0.0, "rental_uris": {"android": "https://dc.lft.to/lastmile_qr_scan", "ios": "https://dc.lft.to/lastmile_qr_scan"}, "is_reserved": 0}, {"bike_id": "2b2c8b1ed970e5c2147d565acec75a4c", "name": "2b2c8b1ed970e5c2147d565acec75a4c", "lat": 38.90024416666667, "fusion_lat": 0.0, "type": "electric_scooter", "lon": -77.0219955, "is_disabled": 0, "fusion_lon": 0.0, "rental_uris": {"android": "https://dc.lft.to/lastmile_qr_scan", "ios": "https://dc.lft.to/lastmile_qr_scan"}, "is_reserved": 0}, {"bike_id": "509cf2647f70ffde363867522bff8eaa", "name": "509cf2647f70ffde363867522bff8eaa", "lat": 38.905076333333334, "fusion_lat": 0.0, "type": "electric_scooter", "lon": -77.02945183333334, "is_disabled": 0, "fusion_lon": 0.0, "rental_uris": {"android": "https://dc.lft.to/lastmile_qr_scan", "ios": "https://dc.lft.to/lastmile_qr_scan"}, "is_reserved": 0}, {"bike_id": "9421aeaf330918a8f8052ee9f7768e9e", "name": "9421aeaf330918a8f8052ee9f7768e9e", "lat": 38.9170925, "fusion_lat": 0.0, "type": "electric_bike", "lon": -77.05724383333333, "is_disabled": 0, "fusion_lon": 0.0, "rental_uris": {"android": "https://dc.lft.to/lastmile_qr_scan", "ios": "https://dc.lft.to/lastmile_qr_scan"}, "is_reserved": 0}, {"bike_id": "c678f255cf607115c954964444dded4b", "name": "c678f255cf607115c954964444dded4b", "lat": 38.91040916666667, "fusion_lat": 0.0, "type": "electric_scooter", "lon": -77.02202133333333, "is_disabled": 0, "fusion_lon": 0.0, "rental_uris": {"android": "https://dc.lft.to/lastmile_qr_scan", "ios": "https://dc.lft.to/lastmile_qr_scan"}, "is_reserved": 0}, {"bike_id": "5950b824cfcc8705a3329002f6cc6d5c", "name": "5950b824cfcc8705a3329002f6cc6d5c", "lat": 38.920716, "fusion_lat": 0.0, "type": "electric_bike", "lon": -76.99583866666667, "is_disabled": 0, "fusion_lon": 0.0, "rental_uris": {"android": "https://dc.lft.to/lastmile_qr_scan", "ios": "https://dc.lft.to/lastmile_qr_scan"}, "is_reserved": 0}, {"bike_id": "95a22310fc3204c88854fde022437e1b", "name": "95a22310fc3204c88854fde022437e1b", "lat": 38.8927795, "fusion_lat": 0.0, "type": "electric_scooter", "lon": -76.9926695, "is_disabled": 0, "fusion_lon": 0.0, "rental_uris": {"android": "https://dc.lft.to/lastmile_qr_scan", "ios": "https://dc.lft.to/lastmile_qr_scan"}, "is_reserved": 0}, {"bike_id": "d5c0760dc277c9ccfb9e09fa138e281d", "name": "d5c0760dc277c9ccfb9e09fa138e281d", "lat": 38.875792, "fusion_lat": 0.0, "type": "electric_scooter", "lon": -77.01999733333334, "is_disabled": 0, "fusion_lon": 0.0, "rental_uris": {"android": "https://dc.lft.to/lastmile_qr_scan", "ios": "https://dc.lft.to/lastmile_qr_scan"}, "is_reserved": 0}, {"bike_id": "5b4138efe355f8efb3992c4965ba7abb", "name": "5b4138efe355f8efb3992c4965ba7abb", "lat": 38.907997333333334, "fusion_lat": 0.0, "type": "electric_scooter", "lon": -77.04228066666667, "is_disabled": 0, "fusion_lon": 0.0, "rental_uris": {"android": "https://dc.lft.to/lastmile_qr_scan", "ios": "https://dc.lft.to/lastmile_qr_scan"}, "is_reserved": 0}, {"bike_id": "07076896dca8a99d4c1eb2bf04a2013a", "name": "07076896dca8a99d4c1eb2bf04a2013a", "lat": 38.923294166666665, "fusion_lat": 0.0, "type": "electric_scooter", "lon": -77.0296025, "is_disabled": 0, "fusion_lon": 0.0, "rental_uris": {"android": "https://dc.lft.to/lastmile_qr_scan", "ios": "https://dc.lft.to/lastmile_qr_scan"}, "is_reserved": 0}, {"bike_id": "472d972e0fd2597b3d02643f8356f15d", "name": "472d972e0fd2597b3d02643f8356f15d", "lat": 38.917133666666665, "fusion_lat": 0.0, "type": "electric_scooter", "lon": -77.0327345, "is_disabled": 0, "fusion_lon": 0.0, "rental_uris": {"android": "https://dc.lft.to/lastmile_qr_scan", "ios": "https://dc.lft.to/lastmile_qr_scan"}, "is_reserved": 0}, {"bike_id": "e3569bb2973e6f59b9ef2e3813e270b3", "name": "e3569bb2973e6f59b9ef2e3813e270b3", "lat": 38.915001333333336, "fusion_lat": 0.0, "type": "electric_scooter", "lon": -77.01992633333333, "is_disabled": 0, "fusion_lon": 0.0, "rental_uris": {"android": "https://dc.lft.to/lastmile_qr_scan", "ios": "https://dc.lft.to/lastmile_qr_scan"}, "is_reserved": 0}, {"bike_id": "1e151920ab3232be778ad2b7feac56c8", "name": "1e151920ab3232be778ad2b7feac56c8", "lat": 38.90732916666666, "fusion_lat": 0.0, "type": "electric_scooter", "lon": -77.0249195, "is_disabled": 0, "fusion_lon": 0.0, "rental_uris": {"android": "https://dc.lft.to/lastmile_qr_scan", "ios": "https://dc.lft.to/lastmile_qr_scan"}, "is_reserved": 0}, {"bike_id": "df4952d30aaa9589931bc9ae3bf72c5f", "name": "df4952d30aaa9589931bc9ae3bf72c5f", "lat": 38.920476666666666, "fusion_lat": 0.0, "type": "electric_scooter", "lon": -77.02435916666667, "is_disabled": 0, "fusion_lon": 0.0, "rental_uris": {"android": "https://dc.lft.to/lastmile_qr_scan", "ios": "https://dc.lft.to/lastmile_qr_scan"}, "is_reserved": 0}, {"bike_id": "8e67f066f3f388ca215b0a807fbda4df", "name": "8e67f066f3f388ca215b0a807fbda4df", "lat": 38.92447816666667, "fusion_lat": 0.0, "type": "electric_scooter", "lon": -77.02164366666666, "is_disabled": 0, "fusion_lon": 0.0, "rental_uris": {"android": "https://dc.lft.to/lastmile_qr_scan", "ios": "https://dc.lft.to/lastmile_qr_scan"}, "is_reserved": 0}, {"bike_id": "ad3e865e9c7487b56021e416d81802db", "name": "ad3e865e9c7487b56021e416d81802db", "lat": 38.92423433333333, "fusion_lat": 0.0, "type": "electric_scooter", "lon": -77.0194755, "is_disabled": 0, "fusion_lon": 0.0, "rental_uris": {"android": "https://dc.lft.to/lastmile_qr_scan", "ios": "https://dc.lft.to/lastmile_qr_scan"}, "is_reserved": 0}, {"bike_id": "e5657e99a32715cbbce94aea1ec0363a", "name": "e5657e99a32715cbbce94aea1ec0363a", "lat": 38.91100816666667, "fusion_lat": 0.0, "type": "electric_scooter", "lon": -77.00399733333333, "is_disabled": 0, "fusion_lon": 0.0, "rental_uris": {"android": "https://dc.lft.to/lastmile_qr_scan", "ios": "https://dc.lft.to/lastmile_qr_scan"}, "is_reserved": 0}, {"bike_id": "6aa918d25ad14e6d2066a28b37b9a5fe", "name": "6aa918d25ad14e6d2066a28b37b9a5fe", "lat": 38.946704, "fusion_lat": 0.0, "type": "electric_bike", "lon": -76.99341616666666, "is_disabled": 0, "fusion_lon": 0.0, "rental_uris": {"android": "https://dc.lft.to/lastmile_qr_scan", "ios": "https://dc.lft.to/lastmile_qr_scan"}, "is_reserved": 0}, {"bike_id": "f822c6f8fea1f9d0ed2b5043b7c5f489", "name": "f822c6f8fea1f9d0ed2b5043b7c5f489", "lat": 38.90746683333333, "fusion_lat": 0.0, "type": "electric_scooter", "lon": -77.041928, "is_disabled": 0, "fusion_lon": 0.0, "rental_uris": {"android": "https://dc.lft.to/lastmile_qr_scan", "ios": "https://dc.lft.to/lastmile_qr_scan"}, "is_reserved": 0}, {"bike_id": "63c6592d5bff22dd255196dd5bfda239", "name": "63c6592d5bff22dd255196dd5bfda239", "lat": 38.918021, "fusion_lat": 0.0, "type": "electric_scooter", "lon": -77.0344915, "is_disabled": 0, "fusion_lon": 0.0, "rental_uris": {"android": "https://dc.lft.to/lastmile_qr_scan", "ios": "https://dc.lft.to/lastmile_qr_scan"}, "is_reserved": 0}, {"bike_id": "f03aae91bd138cd369d836193682c2a8", "name": "f03aae91bd138cd369d836193682c2a8", "lat": 38.920171333333336, "fusion_lat": 0.0, "type": "electric_scooter", "lon": -77.03154383333333, "is_disabled": 0, "fusion_lon": 0.0, "rental_uris": {"android": "https://dc.lft.to/lastmile_qr_scan", "ios": "https://dc.lft.to/lastmile_qr_scan"}, "is_reserved": 0}, {"bike_id": "e590fa61d77e155743171cb56fd773d4", "name": "e590fa61d77e155743171cb56fd773d4", "lat": 38.90524683333334, "fusion_lat": 0.0, "type": "electric_scooter", "lon": -77.01900466666666, "is_disabled": 0, "fusion_lon": 0.0, "rental_uris": {"android": "https://dc.lft.to/lastmile_qr_scan", "ios": "https://dc.lft.to/lastmile_qr_scan"}, "is_reserved": 0}, {"bike_id": "8fb27097ce353542ada5615bebd64895", "name": "8fb27097ce353542ada5615bebd64895", "lat": 38.896811, "fusion_lat": 0.0, "type": "electric_scooter", "lon": -77.005121, "is_disabled": 0, "fusion_lon": 0.0, "rental_uris": {"android": "https://dc.lft.to/lastmile_qr_scan", "ios": "https://dc.lft.to/lastmile_qr_scan"}, "is_reserved": 0}, {"bike_id": "b1f7837194dda858609816ebcba60d38", "name": "b1f7837194dda858609816ebcba60d38", "lat": 38.886055999999996, "fusion_lat": 0.0, "type": "electric_bike", "lon": -77.14234483333334, "is_disabled": 0, "fusion_lon": 0.0, "rental_uris": {"android": "https://dc.lft.to/lastmile_qr_scan", "ios": "https://dc.lft.to/lastmile_qr_scan"}, "is_reserved": 0}, {"bike_id": "6c8b00878fb47ff4ccc1f683a5a20fc8", "name": "6c8b00878fb47ff4ccc1f683a5a20fc8", "lat": 38.905641333333335, "fusion_lat": 0.0, "type": "electric_scooter", "lon": -77.00552316666666, "is_disabled": 0, "fusion_lon": 0.0, "rental_uris": {"android": "https://dc.lft.to/lastmile_qr_scan", "ios": "https://dc.lft.to/lastmile_qr_scan"}, "is_reserved": 0}, {"bike_id": "67824cde6e308e6f998f09bbd15d005a", "name": "67824cde6e308e6f998f09bbd15d005a", "lat": 38.885154, "fusion_lat": 0.0, "type": "electric_scooter", "lon": -77.011182, "is_disabled": 0, "fusion_lon": 0.0, "rental_uris": {"android": "https://dc.lft.to/lastmile_qr_scan", "ios": "https://dc.lft.to/lastmile_qr_scan"}, "is_reserved": 0}, {"bike_id": "46594fa2cdbd419f3ed40065388adf16", "name": "46594fa2cdbd419f3ed40065388adf16", "lat": 38.8984925, "fusion_lat": 0.0, "type": "electric_scooter", "lon": -77.02965883333333, "is_disabled": 0, "fusion_lon": 0.0, "rental_uris": {"android": "https://dc.lft.to/lastmile_qr_scan", "ios": "https://dc.lft.to/lastmile_qr_scan"}, "is_reserved": 0}, {"bike_id": "e17105016ed1c3b15a906b78d6734e69", "name": "e17105016ed1c3b15a906b78d6734e69", "lat": 38.9011915, "fusion_lat": 0.0, "type": "electric_scooter", "lon": -77.031814, "is_disabled": 0, "fusion_lon": 0.0, "rental_uris": {"android": "https://dc.lft.to/lastmile_qr_scan", "ios": "https://dc.lft.to/lastmile_qr_scan"}, "is_reserved": 0}, {"bike_id": "78537dff6ef13fc79374f9c6f20008b4", "name": "78537dff6ef13fc79374f9c6f20008b4", "lat": 38.91450433333333, "fusion_lat": 0.0, "type": "electric_scooter", "lon": -77.03213133333334, "is_disabled": 0, "fusion_lon": 0.0, "rental_uris": {"android": "https://dc.lft.to/lastmile_qr_scan", "ios": "https://dc.lft.to/lastmile_qr_scan"}, "is_reserved": 0}, {"bike_id": "e2b22557c4ad5b3956912513720d5ace", "name": "e2b22557c4ad5b3956912513720d5ace", "lat": 38.89905383333333, "fusion_lat": 0.0, "type": "electric_scooter", "lon": -77.03276083333333, "is_disabled": 0, "fusion_lon": 0.0, "rental_uris": {"android": "https://dc.lft.to/lastmile_qr_scan", "ios": "https://dc.lft.to/lastmile_qr_scan"}, "is_reserved": 0}, {"bike_id": "877abef109bf92bca38548ca1e5438d4", "name": "877abef109bf92bca38548ca1e5438d4", "lat": 38.912767, "fusion_lat": 0.0, "type": "electric_scooter", "lon": -77.02384933333333, "is_disabled": 0, "fusion_lon": 0.0, "rental_uris": {"android": "https://dc.lft.to/lastmile_qr_scan", "ios": "https://dc.lft.to/lastmile_qr_scan"}, "is_reserved": 0}, {"bike_id": "faebc7463eb4b8c0ceaeedceccf826c9", "name": "faebc7463eb4b8c0ceaeedceccf826c9", "lat": 38.902687666666665, "fusion_lat": 0.0, "type": "electric_scooter", "lon": -77.01741016666666, "is_disabled": 0, "fusion_lon": 0.0, "rental_uris": {"android": "https://dc.lft.to/lastmile_qr_scan", "ios": "https://dc.lft.to/lastmile_qr_scan"}, "is_reserved": 0}, {"bike_id": "384c8054cef7ac6e72fee76329ce9357", "name": "384c8054cef7ac6e72fee76329ce9357", "lat": 38.9038315, "fusion_lat": 0.0, "type": "electric_scooter", "lon": -77.068577, "is_disabled": 0, "fusion_lon": 0.0, "rental_uris": {"android": "https://dc.lft.to/lastmile_qr_scan", "ios": "https://dc.lft.to/lastmile_qr_scan"}, "is_reserved": 0}, {"bike_id": "5b79a14e169e367571dc2634614982e3", "name": "5b79a14e169e367571dc2634614982e3", "lat": 38.886333666666665, "fusion_lat": 0.0, "type": "electric_scooter", "lon": -77.01285933333334, "is_disabled": 0, "fusion_lon": 0.0, "rental_uris": {"android": "https://dc.lft.to/lastmile_qr_scan", "ios": "https://dc.lft.to/lastmile_qr_scan"}, "is_reserved": 0}, {"bike_id": "1655867207114ac5bfd67558c25e67e2", "name": "1655867207114ac5bfd67558c25e67e2", "lat": 38.89505416666667, "fusion_lat": 0.0, "type": "electric_scooter", "lon": -77.0464075, "is_disabled": 0, "fusion_lon": 0.0, "rental_uris": {"android": "https://dc.lft.to/lastmile_qr_scan", "ios": "https://dc.lft.to/lastmile_qr_scan"}, "is_reserved": 0}, {"bike_id": "99511dc4ddf061dbdc79717aeca81d87", "name": "99511dc4ddf061dbdc79717aeca81d87", "lat": 38.900721833333336, "fusion_lat": 0.0, "type": "electric_scooter", "lon": -77.04535366666667, "is_disabled": 0, "fusion_lon": 0.0, "rental_uris": {"android": "https://dc.lft.to/lastmile_qr_scan", "ios": "https://dc.lft.to/lastmile_qr_scan"}, "is_reserved": 0}, {"bike_id": "af41620ad4e01ecf671ebf7e03a4ac1b", "name": "af41620ad4e01ecf671ebf7e03a4ac1b", "lat": 38.901483166666665, "fusion_lat": 0.0, "type": "electric_scooter", "lon": -77.041759, "is_disabled": 0, "fusion_lon": 0.0, "rental_uris": {"android": "https://dc.lft.to/lastmile_qr_scan", "ios": "https://dc.lft.to/lastmile_qr_scan"}, "is_reserved": 0}, {"bike_id": "39ae1ec09a9d453b4cf11f8dba372537", "name": "39ae1ec09a9d453b4cf11f8dba372537", "lat": 38.92376483333334, "fusion_lat": 0.0, "type": "electric_scooter", "lon": -77.01911266666667, "is_disabled": 0, "fusion_lon": 0.0, "rental_uris": {"android": "https://dc.lft.to/lastmile_qr_scan", "ios": "https://dc.lft.to/lastmile_qr_scan"}, "is_reserved": 0}, {"bike_id": "f335273f3e3355a8a58088d754b2322c", "name": "f335273f3e3355a8a58088d754b2322c", "lat": 38.898876, "fusion_lat": 0.0, "type": "electric_scooter", "lon": -77.00843716666667, "is_disabled": 0, "fusion_lon": 0.0, "rental_uris": {"android": "https://dc.lft.to/lastmile_qr_scan", "ios": "https://dc.lft.to/lastmile_qr_scan"}, "is_reserved": 0}, {"bike_id": "81926cfa32e389a4500cfe1a90416b34", "name": "81926cfa32e389a4500cfe1a90416b34", "lat": 38.92726666666667, "fusion_lat": 0.0, "type": "electric_scooter", "lon": -77.016339, "is_disabled": 0, "fusion_lon": 0.0, "rental_uris": {"android": "https://dc.lft.to/lastmile_qr_scan", "ios": "https://dc.lft.to/lastmile_qr_scan"}, "is_reserved": 0}, {"bike_id": "8638821428390e617f4544dd4a183831", "name": "8638821428390e617f4544dd4a183831", "lat": 38.90785116666667, "fusion_lat": 0.0, "type": "electric_scooter", "lon": -77.04507116666667, "is_disabled": 0, "fusion_lon": 0.0, "rental_uris": {"android": "https://dc.lft.to/lastmile_qr_scan", "ios": "https://dc.lft.to/lastmile_qr_scan"}, "is_reserved": 0}, {"bike_id": "5f6a63d0480e6fa37eb2d361c2f97357", "name": "5f6a63d0480e6fa37eb2d361c2f97357", "lat": 38.92046533333333, "fusion_lat": 0.0, "type": "electric_scooter", "lon": -77.016744, "is_disabled": 0, "fusion_lon": 0.0, "rental_uris": {"android": "https://dc.lft.to/lastmile_qr_scan", "ios": "https://dc.lft.to/lastmile_qr_scan"}, "is_reserved": 0}, {"bike_id": "aa3ea7faa63ebfee9aab064d5e5c4352", "name": "aa3ea7faa63ebfee9aab064d5e5c4352", "lat": 38.898116, "fusion_lat": 0.0, "type": "electric_scooter", "lon": -77.03241616666666, "is_disabled": 0, "fusion_lon": 0.0, "rental_uris": {"android": "https://dc.lft.to/lastmile_qr_scan", "ios": "https://dc.lft.to/lastmile_qr_scan"}, "is_reserved": 0}, {"bike_id": "c300fa420650bd366cdafb16c95bc3c1", "name": "c300fa420650bd366cdafb16c95bc3c1", "lat": 38.895603333333334, "fusion_lat": 0.0, "type": "electric_scooter", "lon": -77.01125716666667, "is_disabled": 0, "fusion_lon": 0.0, "rental_uris": {"android": "https://dc.lft.to/lastmile_qr_scan", "ios": "https://dc.lft.to/lastmile_qr_scan"}, "is_reserved": 0}, {"bike_id": "b3fc23e74c5f75c7a48723ac027fb0e7", "name": "b3fc23e74c5f75c7a48723ac027fb0e7", "lat": 38.87706716666667, "fusion_lat": 0.0, "type": "electric_scooter", "lon": -77.01730783333333, "is_disabled": 0, "fusion_lon": 0.0, "rental_uris": {"android": "https://dc.lft.to/lastmile_qr_scan", "ios": "https://dc.lft.to/lastmile_qr_scan"}, "is_reserved": 0}, {"bike_id": "f0e0d3fd00ca5a7b6d97a0166c51da09", "name": "f0e0d3fd00ca5a7b6d97a0166c51da09", "lat": 38.91117416666667, "fusion_lat": 0.0, "type": "electric_scooter", "lon": -77.03828433333334, "is_disabled": 0, "fusion_lon": 0.0, "rental_uris": {"android": "https://dc.lft.to/lastmile_qr_scan", "ios": "https://dc.lft.to/lastmile_qr_scan"}, "is_reserved": 0}, {"bike_id": "39b82e4ae8742e0be09ba77af48fde82", "name": "39b82e4ae8742e0be09ba77af48fde82", "lat": 38.91285766666667, "fusion_lat": 0.0, "type": "electric_scooter", "lon": -77.03869316666666, "is_disabled": 0, "fusion_lon": 0.0, "rental_uris": {"android": "https://dc.lft.to/lastmile_qr_scan", "ios": "https://dc.lft.to/lastmile_qr_scan"}, "is_reserved": 0}, {"bike_id": "c2d14d6db07ea5c5a1b0932e84ca8fc8", "name": "c2d14d6db07ea5c5a1b0932e84ca8fc8", "lat": 38.931875833333336, "fusion_lat": 0.0, "type": "electric_bike", "lon": -77.023519, "is_disabled": 0, "fusion_lon": 0.0, "rental_uris": {"android": "https://dc.lft.to/lastmile_qr_scan", "ios": "https://dc.lft.to/lastmile_qr_scan"}, "is_reserved": 0}, {"bike_id": "ca90b1b30c8350c058d379cdc1f2fa28", "name": "ca90b1b30c8350c058d379cdc1f2fa28", "lat": 38.865699166666666, "fusion_lat": 0.0, "type": "electric_scooter", "lon": -76.9903155, "is_disabled": 0, "fusion_lon": 0.0, "rental_uris": {"android": "https://dc.lft.to/lastmile_qr_scan", "ios": "https://dc.lft.to/lastmile_qr_scan"}, "is_reserved": 0}, {"bike_id": "0225b96dbed1c78f7be4b1e9ae496558", "name": "0225b96dbed1c78f7be4b1e9ae496558", "lat": 38.916633833333336, "fusion_lat": 0.0, "type": "electric_scooter", "lon": -77.02468183333333, "is_disabled": 0, "fusion_lon": 0.0, "rental_uris": {"android": "https://dc.lft.to/lastmile_qr_scan", "ios": "https://dc.lft.to/lastmile_qr_scan"}, "is_reserved": 0}, {"bike_id": "483d17ba4d892d3800a2289a92c7917f", "name": "483d17ba4d892d3800a2289a92c7917f", "lat": 38.92889816666667, "fusion_lat": 0.0, "type": "electric_scooter", "lon": -77.03762733333333, "is_disabled": 0, "fusion_lon": 0.0, "rental_uris": {"android": "https://dc.lft.to/lastmile_qr_scan", "ios": "https://dc.lft.to/lastmile_qr_scan"}, "is_reserved": 0}, {"bike_id": "1640c4b1d3699c2f6b778cc27e938593", "name": "1640c4b1d3699c2f6b778cc27e938593", "lat": 38.90048733333333, "fusion_lat": 0.0, "type": "electric_scooter", "lon": -76.988437, "is_disabled": 0, "fusion_lon": 0.0, "rental_uris": {"android": "https://dc.lft.to/lastmile_qr_scan", "ios": "https://dc.lft.to/lastmile_qr_scan"}, "is_reserved": 0}, {"bike_id": "c32564a53b3e97eb54479165903fa4d2", "name": "c32564a53b3e97eb54479165903fa4d2", "lat": 38.90198483333333, "fusion_lat": 0.0, "type": "electric_scooter", "lon": -77.02093333333333, "is_disabled": 0, "fusion_lon": 0.0, "rental_uris": {"android": "https://dc.lft.to/lastmile_qr_scan", "ios": "https://dc.lft.to/lastmile_qr_scan"}, "is_reserved": 0}, {"bike_id": "2ed0d7d13bb2f6fa913f249c12caf465", "name": "2ed0d7d13bb2f6fa913f249c12caf465", "lat": 38.956922166666665, "fusion_lat": 0.0, "type": "electric_bike", "lon": -77.0222695, "is_disabled": 0, "fusion_lon": 0.0, "rental_uris": {"android": "https://dc.lft.to/lastmile_qr_scan", "ios": "https://dc.lft.to/lastmile_qr_scan"}, "is_reserved": 0}, {"bike_id": "50ba2ef2f6feb987f61d72181e16c492", "name": "50ba2ef2f6feb987f61d72181e16c492", "lat": 38.93429116666667, "fusion_lat": 0.0, "type": "electric_bike", "lon": -77.04003816666666, "is_disabled": 0, "fusion_lon": 0.0, "rental_uris": {"android": "https://dc.lft.to/lastmile_qr_scan", "ios": "https://dc.lft.to/lastmile_qr_scan"}, "is_reserved": 0}, {"bike_id": "9c825fd40951e1a15fd0cbfbfa454b64", "name": "9c825fd40951e1a15fd0cbfbfa454b64", "lat": 38.918082166666665, "fusion_lat": 0.0, "type": "electric_scooter", "lon": -77.0343445, "is_disabled": 0, "fusion_lon": 0.0, "rental_uris": {"android": "https://dc.lft.to/lastmile_qr_scan", "ios": "https://dc.lft.to/lastmile_qr_scan"}, "is_reserved": 0}, {"bike_id": "c7d760ff33692bab2fb3ab1e6d99f94b", "name": "c7d760ff33692bab2fb3ab1e6d99f94b", "lat": 38.876528666666665, "fusion_lat": 0.0, "type": "electric_scooter", "lon": -77.020777, "is_disabled": 0, "fusion_lon": 0.0, "rental_uris": {"android": "https://dc.lft.to/lastmile_qr_scan", "ios": "https://dc.lft.to/lastmile_qr_scan"}, "is_reserved": 0}, {"bike_id": "dcbf192513a67e1ad39f296bfae80260", "name": "dcbf192513a67e1ad39f296bfae80260", "lat": 38.902647, "fusion_lat": 0.0, "type": "electric_scooter", "lon": -77.01809183333333, "is_disabled": 0, "fusion_lon": 0.0, "rental_uris": {"android": "https://dc.lft.to/lastmile_qr_scan", "ios": "https://dc.lft.to/lastmile_qr_scan"}, "is_reserved": 0}, {"bike_id": "f1338495c0bfbdaa6830787353d0c0c9", "name": "f1338495c0bfbdaa6830787353d0c0c9", "lat": 38.886763333333334, "fusion_lat": 0.0, "type": "electric_scooter", "lon": -77.00199566666667, "is_disabled": 0, "fusion_lon": 0.0, "rental_uris": {"android": "https://dc.lft.to/lastmile_qr_scan", "ios": "https://dc.lft.to/lastmile_qr_scan"}, "is_reserved": 0}, {"bike_id": "267a281e1da34df9ef55958f66c66347", "name": "267a281e1da34df9ef55958f66c66347", "lat": 38.8853615, "fusion_lat": 0.0, "type": "electric_scooter", "lon": -76.98055933333333, "is_disabled": 0, "fusion_lon": 0.0, "rental_uris": {"android": "https://dc.lft.to/lastmile_qr_scan", "ios": "https://dc.lft.to/lastmile_qr_scan"}, "is_reserved": 0}, {"bike_id": "c9851452b45c1a25d0ca301c81582217", "name": "c9851452b45c1a25d0ca301c81582217", "lat": 38.900427, "fusion_lat": 0.0, "type": "electric_scooter", "lon": -77.03408666666667, "is_disabled": 0, "fusion_lon": 0.0, "rental_uris": {"android": "https://dc.lft.to/lastmile_qr_scan", "ios": "https://dc.lft.to/lastmile_qr_scan"}, "is_reserved": 0}, {"bike_id": "bde67b22dcd902f177993c817077b7ba", "name": "bde67b22dcd902f177993c817077b7ba", "lat": 38.867208833333336, "fusion_lat": 0.0, "type": "electric_scooter", "lon": -76.98072116666667, "is_disabled": 0, "fusion_lon": 0.0, "rental_uris": {"android": "https://dc.lft.to/lastmile_qr_scan", "ios": "https://dc.lft.to/lastmile_qr_scan"}, "is_reserved": 0}, {"bike_id": "576a32bcaa7d54f2b0db0714c7980c40", "name": "576a32bcaa7d54f2b0db0714c7980c40", "lat": 38.93659483333333, "fusion_lat": 0.0, "type": "electric_scooter", "lon": -77.02136583333333, "is_disabled": 0, "fusion_lon": 0.0, "rental_uris": {"android": "https://dc.lft.to/lastmile_qr_scan", "ios": "https://dc.lft.to/lastmile_qr_scan"}, "is_reserved": 0}, {"bike_id": "1cf35960c617c534d98e826032c565b1", "name": "1cf35960c617c534d98e826032c565b1", "lat": 38.919626, "fusion_lat": 0.0, "type": "electric_scooter", "lon": -77.04359833333334, "is_disabled": 0, "fusion_lon": 0.0, "rental_uris": {"android": "https://dc.lft.to/lastmile_qr_scan", "ios": "https://dc.lft.to/lastmile_qr_scan"}, "is_reserved": 0}, {"bike_id": "84acf0fc543894c09f76b6062eb31e34", "name": "84acf0fc543894c09f76b6062eb31e34", "lat": 38.92862933333333, "fusion_lat": 0.0, "type": "electric_scooter", "lon": -77.01400083333333, "is_disabled": 0, "fusion_lon": 0.0, "rental_uris": {"android": "https://dc.lft.to/lastmile_qr_scan", "ios": "https://dc.lft.to/lastmile_qr_scan"}, "is_reserved": 0}, {"bike_id": "f324ab340efc162540384e3e4848f3ab", "name": "f324ab340efc162540384e3e4848f3ab", "lat": 38.90954216666667, "fusion_lat": 0.0, "type": "electric_scooter", "lon": -77.02383316666666, "is_disabled": 0, "fusion_lon": 0.0, "rental_uris": {"android": "https://dc.lft.to/lastmile_qr_scan", "ios": "https://dc.lft.to/lastmile_qr_scan"}, "is_reserved": 0}, {"bike_id": "3fe03608dd170c7333b60ac5272508b8", "name": "3fe03608dd170c7333b60ac5272508b8", "lat": 38.92155916666667, "fusion_lat": 0.0, "type": "electric_scooter", "lon": -77.02105566666667, "is_disabled": 0, "fusion_lon": 0.0, "rental_uris": {"android": "https://dc.lft.to/lastmile_qr_scan", "ios": "https://dc.lft.to/lastmile_qr_scan"}, "is_reserved": 0}, {"bike_id": "8b37c2ea1b155a412a9fc5f50024b50c", "name": "8b37c2ea1b155a412a9fc5f50024b50c", "lat": 38.93596616666667, "fusion_lat": 0.0, "type": "electric_scooter", "lon": -77.03365616666666, "is_disabled": 0, "fusion_lon": 0.0, "rental_uris": {"android": "https://dc.lft.to/lastmile_qr_scan", "ios": "https://dc.lft.to/lastmile_qr_scan"}, "is_reserved": 0}, {"bike_id": "3aae5509cbd2d0a6378859c4c5f3f62b", "name": "3aae5509cbd2d0a6378859c4c5f3f62b", "lat": 38.93703433333334, "fusion_lat": 0.0, "type": "electric_scooter", "lon": -77.05600066666666, "is_disabled": 0, "fusion_lon": 0.0, "rental_uris": {"android": "https://dc.lft.to/lastmile_qr_scan", "ios": "https://dc.lft.to/lastmile_qr_scan"}, "is_reserved": 0}, {"bike_id": "a465b04f4a41e2a7615743b164924c4c", "name": "a465b04f4a41e2a7615743b164924c4c", "lat": 38.89224316666667, "fusion_lat": 0.0, "type": "electric_scooter", "lon": -77.045022, "is_disabled": 0, "fusion_lon": 0.0, "rental_uris": {"android": "https://dc.lft.to/lastmile_qr_scan", "ios": "https://dc.lft.to/lastmile_qr_scan"}, "is_reserved": 0}, {"bike_id": "3e88330a14df9aed435edd6bb18bd712", "name": "3e88330a14df9aed435edd6bb18bd712", "lat": 38.914648, "fusion_lat": 0.0, "type": "electric_scooter", "lon": -77.03213616666666, "is_disabled": 0, "fusion_lon": 0.0, "rental_uris": {"android": "https://dc.lft.to/lastmile_qr_scan", "ios": "https://dc.lft.to/lastmile_qr_scan"}, "is_reserved": 0}, {"bike_id": "8a2fc6558097b501e0b0ab55d39fa43a", "name": "8a2fc6558097b501e0b0ab55d39fa43a", "lat": 38.89893033333333, "fusion_lat": 0.0, "type": "electric_scooter", "lon": -76.98001466666666, "is_disabled": 0, "fusion_lon": 0.0, "rental_uris": {"android": "https://dc.lft.to/lastmile_qr_scan", "ios": "https://dc.lft.to/lastmile_qr_scan"}, "is_reserved": 0}, {"bike_id": "080ac5edff16c716f9d138b2ca9da2b4", "name": "080ac5edff16c716f9d138b2ca9da2b4", "lat": 38.90372883333333, "fusion_lat": 0.0, "type": "electric_scooter", "lon": -77.02207333333334, "is_disabled": 0, "fusion_lon": 0.0, "rental_uris": {"android": "https://dc.lft.to/lastmile_qr_scan", "ios": "https://dc.lft.to/lastmile_qr_scan"}, "is_reserved": 0}, {"bike_id": "8aedf05cfdce3c136865037b1c026cf9", "name": "8aedf05cfdce3c136865037b1c026cf9", "lat": 38.9142215, "fusion_lat": 0.0, "type": "electric_scooter", "lon": -77.0317045, "is_disabled": 0, "fusion_lon": 0.0, "rental_uris": {"android": "https://dc.lft.to/lastmile_qr_scan", "ios": "https://dc.lft.to/lastmile_qr_scan"}, "is_reserved": 0}, {"bike_id": "d44acf44c5757f29409d62d48ca0b748", "name": "d44acf44c5757f29409d62d48ca0b748", "lat": 38.97503416666667, "fusion_lat": 0.0, "type": "electric_scooter", "lon": -77.01695766666667, "is_disabled": 0, "fusion_lon": 0.0, "rental_uris": {"android": "https://dc.lft.to/lastmile_qr_scan", "ios": "https://dc.lft.to/lastmile_qr_scan"}, "is_reserved": 0}, {"bike_id": "f8dda93e0b3a36d8addaa8a432a253a6", "name": "f8dda93e0b3a36d8addaa8a432a253a6", "lat": 38.9229865, "fusion_lat": 0.0, "type": "electric_scooter", "lon": -76.99777950000001, "is_disabled": 0, "fusion_lon": 0.0, "rental_uris": {"android": "https://dc.lft.to/lastmile_qr_scan", "ios": "https://dc.lft.to/lastmile_qr_scan"}, "is_reserved": 0}, {"bike_id": "cbf8dbd6cb91e664f0f8409d31f19eaf", "name": "cbf8dbd6cb91e664f0f8409d31f19eaf", "lat": 38.919267833333336, "fusion_lat": 0.0, "type": "electric_scooter", "lon": -77.07271966666667, "is_disabled": 0, "fusion_lon": 0.0, "rental_uris": {"android": "https://dc.lft.to/lastmile_qr_scan", "ios": "https://dc.lft.to/lastmile_qr_scan"}, "is_reserved": 0}, {"bike_id": "7ab1b41647a7dc3d84dc2c7c7d382484", "name": "7ab1b41647a7dc3d84dc2c7c7d382484", "lat": 38.8930605, "fusion_lat": 0.0, "type": "electric_scooter", "lon": -77.01240366666667, "is_disabled": 0, "fusion_lon": 0.0, "rental_uris": {"android": "https://dc.lft.to/lastmile_qr_scan", "ios": "https://dc.lft.to/lastmile_qr_scan"}, "is_reserved": 0}, {"bike_id": "8da720ca674e42d18b0f12ece7146320", "name": "8da720ca674e42d18b0f12ece7146320", "lat": 38.911763, "fusion_lat": 0.0, "type": "electric_scooter", "lon": -77.0384075, "is_disabled": 0, "fusion_lon": 0.0, "rental_uris": {"android": "https://dc.lft.to/lastmile_qr_scan", "ios": "https://dc.lft.to/lastmile_qr_scan"}, "is_reserved": 0}, {"bike_id": "08c3906dfdfda0d99983cab539af8618", "name": "08c3906dfdfda0d99983cab539af8618", "lat": 38.88071083333333, "fusion_lat": 0.0, "type": "electric_bike", "lon": -77.02554266666667, "is_disabled": 0, "fusion_lon": 0.0, "rental_uris": {"android": "https://dc.lft.to/lastmile_qr_scan", "ios": "https://dc.lft.to/lastmile_qr_scan"}, "is_reserved": 0}, {"bike_id": "3a873f6605ac114f66344c0a212afd4a", "name": "3a873f6605ac114f66344c0a212afd4a", "lat": 38.87710116666667, "fusion_lat": 0.0, "type": "electric_scooter", "lon": -77.0184655, "is_disabled": 0, "fusion_lon": 0.0, "rental_uris": {"android": "https://dc.lft.to/lastmile_qr_scan", "ios": "https://dc.lft.to/lastmile_qr_scan"}, "is_reserved": 0}, {"bike_id": "4acf722a540cf23c56191cb2fa192e84", "name": "4acf722a540cf23c56191cb2fa192e84", "lat": 38.97319566666667, "fusion_lat": 0.0, "type": "electric_bike", "lon": -76.994827, "is_disabled": 0, "fusion_lon": 0.0, "rental_uris": {"android": "https://dc.lft.to/lastmile_qr_scan", "ios": "https://dc.lft.to/lastmile_qr_scan"}, "is_reserved": 0}, {"bike_id": "246e2597a13ade69e3c0042dfac88c37", "name": "246e2597a13ade69e3c0042dfac88c37", "lat": 38.890426166666664, "fusion_lat": 0.0, "type": "electric_scooter", "lon": -76.95248916666667, "is_disabled": 0, "fusion_lon": 0.0, "rental_uris": {"android": "https://dc.lft.to/lastmile_qr_scan", "ios": "https://dc.lft.to/lastmile_qr_scan"}, "is_reserved": 0}, {"bike_id": "8dfe75ff54482371ebfb331bec23bbfe", "name": "8dfe75ff54482371ebfb331bec23bbfe", "lat": 38.87851666666667, "fusion_lat": 0.0, "type": "electric_scooter", "lon": -76.98299716666666, "is_disabled": 0, "fusion_lon": 0.0, "rental_uris": {"android": "https://dc.lft.to/lastmile_qr_scan", "ios": "https://dc.lft.to/lastmile_qr_scan"}, "is_reserved": 0}, {"bike_id": "482ab3d3bdc10cbbe062eff2358edd17", "name": "482ab3d3bdc10cbbe062eff2358edd17", "lat": 38.91799866666667, "fusion_lat": 0.0, "type": "electric_scooter", "lon": -77.0315675, "is_disabled": 0, "fusion_lon": 0.0, "rental_uris": {"android": "https://dc.lft.to/lastmile_qr_scan", "ios": "https://dc.lft.to/lastmile_qr_scan"}, "is_reserved": 0}, {"bike_id": "aa9984764944d8853a5219341e6596d5", "name": "aa9984764944d8853a5219341e6596d5", "lat": 38.87887716666667, "fusion_lat": 0.0, "type": "electric_scooter", "lon": -77.02232216666667, "is_disabled": 0, "fusion_lon": 0.0, "rental_uris": {"android": "https://dc.lft.to/lastmile_qr_scan", "ios": "https://dc.lft.to/lastmile_qr_scan"}, "is_reserved": 0}, {"bike_id": "8efabc8ab1524b92eb503ff36db97fba", "name": "8efabc8ab1524b92eb503ff36db97fba", "lat": 38.91758383333333, "fusion_lat": 0.0, "type": "electric_scooter", "lon": -77.04765266666666, "is_disabled": 0, "fusion_lon": 0.0, "rental_uris": {"android": "https://dc.lft.to/lastmile_qr_scan", "ios": "https://dc.lft.to/lastmile_qr_scan"}, "is_reserved": 0}, {"bike_id": "aabaab785ed43dd0cbb102eacbda5a31", "name": "aabaab785ed43dd0cbb102eacbda5a31", "lat": 38.920323833333335, "fusion_lat": 0.0, "type": "electric_scooter", "lon": -77.01037983333333, "is_disabled": 0, "fusion_lon": 0.0, "rental_uris": {"android": "https://dc.lft.to/lastmile_qr_scan", "ios": "https://dc.lft.to/lastmile_qr_scan"}, "is_reserved": 0}, {"bike_id": "6f9328d194202b35bd853a0babb0f3a9", "name": "6f9328d194202b35bd853a0babb0f3a9", "lat": 38.9095985, "fusion_lat": 0.0, "type": "electric_scooter", "lon": -77.045768, "is_disabled": 0, "fusion_lon": 0.0, "rental_uris": {"android": "https://dc.lft.to/lastmile_qr_scan", "ios": "https://dc.lft.to/lastmile_qr_scan"}, "is_reserved": 0}, {"bike_id": "90e7795b1ca0c65500c4ffa6a99daea4", "name": "90e7795b1ca0c65500c4ffa6a99daea4", "lat": 38.908801833333335, "fusion_lat": 0.0, "type": "electric_scooter", "lon": -77.03847466666667, "is_disabled": 0, "fusion_lon": 0.0, "rental_uris": {"android": "https://dc.lft.to/lastmile_qr_scan", "ios": "https://dc.lft.to/lastmile_qr_scan"}, "is_reserved": 0}, {"bike_id": "e9446bebb82a0212abe3556846624a52", "name": "e9446bebb82a0212abe3556846624a52", "lat": 38.90149266666667, "fusion_lat": 0.0, "type": "electric_scooter", "lon": -77.0195655, "is_disabled": 0, "fusion_lon": 0.0, "rental_uris": {"android": "https://dc.lft.to/lastmile_qr_scan", "ios": "https://dc.lft.to/lastmile_qr_scan"}, "is_reserved": 0}, {"bike_id": "bdb6b2d07c2bc6d13c6772efa58a07ae", "name": "bdb6b2d07c2bc6d13c6772efa58a07ae", "lat": 38.923402833333334, "fusion_lat": 0.0, "type": "electric_scooter", "lon": -77.04149066666666, "is_disabled": 0, "fusion_lon": 0.0, "rental_uris": {"android": "https://dc.lft.to/lastmile_qr_scan", "ios": "https://dc.lft.to/lastmile_qr_scan"}, "is_reserved": 0}, {"bike_id": "a6ed94490acf24c6cb3f6fb31a1bea2a", "name": "a6ed94490acf24c6cb3f6fb31a1bea2a", "lat": 38.93780366666667, "fusion_lat": 0.0, "type": "electric_scooter", "lon": -77.02350733333333, "is_disabled": 0, "fusion_lon": 0.0, "rental_uris": {"android": "https://dc.lft.to/lastmile_qr_scan", "ios": "https://dc.lft.to/lastmile_qr_scan"}, "is_reserved": 0}, {"bike_id": "48cc7877e7c9c4530b8fbde0edc7f64e", "name": "48cc7877e7c9c4530b8fbde0edc7f64e", "lat": 38.888204, "fusion_lat": 0.0, "type": "electric_scooter", "lon": -77.00203366666666, "is_disabled": 0, "fusion_lon": 0.0, "rental_uris": {"android": "https://dc.lft.to/lastmile_qr_scan", "ios": "https://dc.lft.to/lastmile_qr_scan"}, "is_reserved": 0}, {"bike_id": "134ef10f74c092a7edef9857f95db68d", "name": "134ef10f74c092a7edef9857f95db68d", "lat": 38.943107833333336, "fusion_lat": 0.0, "type": "electric_scooter", "lon": -77.02175883333334, "is_disabled": 0, "fusion_lon": 0.0, "rental_uris": {"android": "https://dc.lft.to/lastmile_qr_scan", "ios": "https://dc.lft.to/lastmile_qr_scan"}, "is_reserved": 0}, {"bike_id": "009a46d03bbe0272b2823159191ce847", "name": "009a46d03bbe0272b2823159191ce847", "lat": 38.873928666666664, "fusion_lat": 0.0, "type": "electric_scooter", "lon": -77.0002365, "is_disabled": 0, "fusion_lon": 0.0, "rental_uris": {"android": "https://dc.lft.to/lastmile_qr_scan", "ios": "https://dc.lft.to/lastmile_qr_scan"}, "is_reserved": 0}, {"bike_id": "6f3f68965a070cc2db02f49047d8a74e", "name": "6f3f68965a070cc2db02f49047d8a74e", "lat": 38.91419666666667, "fusion_lat": 0.0, "type": "electric_scooter", "lon": -77.03208933333333, "is_disabled": 0, "fusion_lon": 0.0, "rental_uris": {"android": "https://dc.lft.to/lastmile_qr_scan", "ios": "https://dc.lft.to/lastmile_qr_scan"}, "is_reserved": 0}, {"bike_id": "3e3e53892d313b2e4a72e4250c22c60a", "name": "3e3e53892d313b2e4a72e4250c22c60a", "lat": 38.8994185, "fusion_lat": 0.0, "type": "electric_scooter", "lon": -77.026903, "is_disabled": 0, "fusion_lon": 0.0, "rental_uris": {"android": "https://dc.lft.to/lastmile_qr_scan", "ios": "https://dc.lft.to/lastmile_qr_scan"}, "is_reserved": 0}, {"bike_id": "28baf7b9246759fa2ec486b12f0916ff", "name": "28baf7b9246759fa2ec486b12f0916ff", "lat": 38.9026745, "fusion_lat": 0.0, "type": "electric_scooter", "lon": -77.04356866666667, "is_disabled": 0, "fusion_lon": 0.0, "rental_uris": {"android": "https://dc.lft.to/lastmile_qr_scan", "ios": "https://dc.lft.to/lastmile_qr_scan"}, "is_reserved": 0}, {"bike_id": "748d526a249c39d601ad41a3423ce4de", "name": "748d526a249c39d601ad41a3423ce4de", "lat": 38.895062, "fusion_lat": 0.0, "type": "electric_scooter", "lon": -77.02137283333333, "is_disabled": 0, "fusion_lon": 0.0, "rental_uris": {"android": "https://dc.lft.to/lastmile_qr_scan", "ios": "https://dc.lft.to/lastmile_qr_scan"}, "is_reserved": 0}, {"bike_id": "6cfd83739e98d997a435f40e48ae9cc7", "name": "6cfd83739e98d997a435f40e48ae9cc7", "lat": 38.937622166666664, "fusion_lat": 0.0, "type": "electric_scooter", "lon": -77.028381, "is_disabled": 0, "fusion_lon": 0.0, "rental_uris": {"android": "https://dc.lft.to/lastmile_qr_scan", "ios": "https://dc.lft.to/lastmile_qr_scan"}, "is_reserved": 0}, {"bike_id": "5b087b027a4c58c763f5a7709090f617", "name": "5b087b027a4c58c763f5a7709090f617", "lat": 38.912187833333334, "fusion_lat": 0.0, "type": "electric_scooter", "lon": -77.06404366666666, "is_disabled": 0, "fusion_lon": 0.0, "rental_uris": {"android": "https://dc.lft.to/lastmile_qr_scan", "ios": "https://dc.lft.to/lastmile_qr_scan"}, "is_reserved": 0}, {"bike_id": "df69979b6ac8da26f11f1073a8abed78", "name": "df69979b6ac8da26f11f1073a8abed78", "lat": 38.90575233333333, "fusion_lat": 0.0, "type": "electric_scooter", "lon": -77.0078875, "is_disabled": 0, "fusion_lon": 0.0, "rental_uris": {"android": "https://dc.lft.to/lastmile_qr_scan", "ios": "https://dc.lft.to/lastmile_qr_scan"}, "is_reserved": 0}, {"bike_id": "c2eba886d710e24af9b5fe47650b74ea", "name": "c2eba886d710e24af9b5fe47650b74ea", "lat": 38.9037325, "fusion_lat": 0.0, "type": "electric_scooter", "lon": -76.98489816666667, "is_disabled": 0, "fusion_lon": 0.0, "rental_uris": {"android": "https://dc.lft.to/lastmile_qr_scan", "ios": "https://dc.lft.to/lastmile_qr_scan"}, "is_reserved": 0}, {"bike_id": "bff7235c14cb90dfe3fb5a40c93686f1", "name": "bff7235c14cb90dfe3fb5a40c93686f1", "lat": 38.8993025, "fusion_lat": 0.0, "type": "electric_scooter", "lon": -77.03982216666667, "is_disabled": 0, "fusion_lon": 0.0, "rental_uris": {"android": "https://dc.lft.to/lastmile_qr_scan", "ios": "https://dc.lft.to/lastmile_qr_scan"}, "is_reserved": 0}, {"bike_id": "31c7470063e9871647c64fb0f4b2662a", "name": "31c7470063e9871647c64fb0f4b2662a", "lat": 38.908185, "fusion_lat": 0.0, "type": "electric_scooter", "lon": -77.0334875, "is_disabled": 0, "fusion_lon": 0.0, "rental_uris": {"android": "https://dc.lft.to/lastmile_qr_scan", "ios": "https://dc.lft.to/lastmile_qr_scan"}, "is_reserved": 0}, {"bike_id": "02485969119301a8218c3ce01825b741", "name": "02485969119301a8218c3ce01825b741", "lat": 38.91991816666667, "fusion_lat": 0.0, "type": "electric_scooter", "lon": -77.03310716666667, "is_disabled": 0, "fusion_lon": 0.0, "rental_uris": {"android": "https://dc.lft.to/lastmile_qr_scan", "ios": "https://dc.lft.to/lastmile_qr_scan"}, "is_reserved": 0}, {"bike_id": "5e83597c1f965830a4353b2d28bd5b5b", "name": "5e83597c1f965830a4353b2d28bd5b5b", "lat": 38.926928833333335, "fusion_lat": 0.0, "type": "electric_scooter", "lon": -77.025804, "is_disabled": 0, "fusion_lon": 0.0, "rental_uris": {"android": "https://dc.lft.to/lastmile_qr_scan", "ios": "https://dc.lft.to/lastmile_qr_scan"}, "is_reserved": 0}, {"bike_id": "6e20659c0bcd9642cca6955dc5abc2bb", "name": "6e20659c0bcd9642cca6955dc5abc2bb", "lat": 38.904452, "fusion_lat": 0.0, "type": "electric_scooter", "lon": -77.02594733333333, "is_disabled": 0, "fusion_lon": 0.0, "rental_uris": {"android": "https://dc.lft.to/lastmile_qr_scan", "ios": "https://dc.lft.to/lastmile_qr_scan"}, "is_reserved": 0}, {"bike_id": "7c94e863d01f3005d7f85dfb83400a12", "name": "7c94e863d01f3005d7f85dfb83400a12", "lat": 38.937771, "fusion_lat": 0.0, "type": "electric_scooter", "lon": -77.0246795, "is_disabled": 0, "fusion_lon": 0.0, "rental_uris": {"android": "https://dc.lft.to/lastmile_qr_scan", "ios": "https://dc.lft.to/lastmile_qr_scan"}, "is_reserved": 0}, {"bike_id": "30e0daec6aec81262e30ed2b707c9119", "name": "30e0daec6aec81262e30ed2b707c9119", "lat": 38.9160585, "fusion_lat": 0.0, "type": "electric_scooter", "lon": -77.04497916666666, "is_disabled": 0, "fusion_lon": 0.0, "rental_uris": {"android": "https://dc.lft.to/lastmile_qr_scan", "ios": "https://dc.lft.to/lastmile_qr_scan"}, "is_reserved": 0}, {"bike_id": "659a605f328224b5bd516c02cee14842", "name": "659a605f328224b5bd516c02cee14842", "lat": 38.904132833333335, "fusion_lat": 0.0, "type": "electric_scooter", "lon": -76.97330933333333, "is_disabled": 0, "fusion_lon": 0.0, "rental_uris": {"android": "https://dc.lft.to/lastmile_qr_scan", "ios": "https://dc.lft.to/lastmile_qr_scan"}, "is_reserved": 0}, {"bike_id": "21952e69c336bb38f10234d6de6e64d3", "name": "21952e69c336bb38f10234d6de6e64d3", "lat": 38.923433, "fusion_lat": 0.0, "type": "electric_scooter", "lon": -77.03664683333334, "is_disabled": 0, "fusion_lon": 0.0, "rental_uris": {"android": "https://dc.lft.to/lastmile_qr_scan", "ios": "https://dc.lft.to/lastmile_qr_scan"}, "is_reserved": 0}, {"bike_id": "33fea0b931eacae145548f1ecc35774c", "name": "33fea0b931eacae145548f1ecc35774c", "lat": 38.87659683333333, "fusion_lat": 0.0, "type": "electric_scooter", "lon": -76.9932765, "is_disabled": 0, "fusion_lon": 0.0, "rental_uris": {"android": "https://dc.lft.to/lastmile_qr_scan", "ios": "https://dc.lft.to/lastmile_qr_scan"}, "is_reserved": 0}, {"bike_id": "62c4d3783c8909920e0e4fd35111d013", "name": "62c4d3783c8909920e0e4fd35111d013", "lat": 38.91157333333334, "fusion_lat": 0.0, "type": "electric_scooter", "lon": -77.02284833333333, "is_disabled": 0, "fusion_lon": 0.0, "rental_uris": {"android": "https://dc.lft.to/lastmile_qr_scan", "ios": "https://dc.lft.to/lastmile_qr_scan"}, "is_reserved": 0}, {"bike_id": "3367471405b33fc620d1e9e352782d66", "name": "3367471405b33fc620d1e9e352782d66", "lat": 38.930489666666666, "fusion_lat": 0.0, "type": "electric_scooter", "lon": -76.95838316666666, "is_disabled": 0, "fusion_lon": 0.0, "rental_uris": {"android": "https://dc.lft.to/lastmile_qr_scan", "ios": "https://dc.lft.to/lastmile_qr_scan"}, "is_reserved": 0}, {"bike_id": "7c212975a1f8ecc5ef4b3f24fcf346c9", "name": "7c212975a1f8ecc5ef4b3f24fcf346c9", "lat": 38.91059383333333, "fusion_lat": 0.0, "type": "electric_scooter", "lon": -77.0410465, "is_disabled": 0, "fusion_lon": 0.0, "rental_uris": {"android": "https://dc.lft.to/lastmile_qr_scan", "ios": "https://dc.lft.to/lastmile_qr_scan"}, "is_reserved": 0}, {"bike_id": "1d849bdc3d65afc1adeda8b8b33385e9", "name": "1d849bdc3d65afc1adeda8b8b33385e9", "lat": 38.9208395, "fusion_lat": 0.0, "type": "electric_scooter", "lon": -77.03561216666667, "is_disabled": 0, "fusion_lon": 0.0, "rental_uris": {"android": "https://dc.lft.to/lastmile_qr_scan", "ios": "https://dc.lft.to/lastmile_qr_scan"}, "is_reserved": 0}, {"bike_id": "4bc89e2a08502aff837e4b6c06705484", "name": "4bc89e2a08502aff837e4b6c06705484", "lat": 38.92141866666667, "fusion_lat": 0.0, "type": "electric_scooter", "lon": -77.03658666666666, "is_disabled": 0, "fusion_lon": 0.0, "rental_uris": {"android": "https://dc.lft.to/lastmile_qr_scan", "ios": "https://dc.lft.to/lastmile_qr_scan"}, "is_reserved": 0}, {"bike_id": "049a13ab382fdc7efa5012e21a9e9c85", "name": "049a13ab382fdc7efa5012e21a9e9c85", "lat": 38.90451766666666, "fusion_lat": 0.0, "type": "electric_scooter", "lon": -77.02600583333333, "is_disabled": 0, "fusion_lon": 0.0, "rental_uris": {"android": "https://dc.lft.to/lastmile_qr_scan", "ios": "https://dc.lft.to/lastmile_qr_scan"}, "is_reserved": 0}, {"bike_id": "ddc6fc6e4157425526d0114eee17691c", "name": "ddc6fc6e4157425526d0114eee17691c", "lat": 38.89351466666667, "fusion_lat": 0.0, "type": "electric_scooter", "lon": -77.0397875, "is_disabled": 0, "fusion_lon": 0.0, "rental_uris": {"android": "https://dc.lft.to/lastmile_qr_scan", "ios": "https://dc.lft.to/lastmile_qr_scan"}, "is_reserved": 0}, {"bike_id": "25c88e259d6eac13eb57b4cdca967f84", "name": "25c88e259d6eac13eb57b4cdca967f84", "lat": 38.89457816666667, "fusion_lat": 0.0, "type": "electric_scooter", "lon": -77.0454885, "is_disabled": 0, "fusion_lon": 0.0, "rental_uris": {"android": "https://dc.lft.to/lastmile_qr_scan", "ios": "https://dc.lft.to/lastmile_qr_scan"}, "is_reserved": 0}, {"bike_id": "6fbd6948e301b41840f86722861fd612", "name": "6fbd6948e301b41840f86722861fd612", "lat": 38.84926016666667, "fusion_lat": 0.0, "type": "electric_bike", "lon": -77.08373633333333, "is_disabled": 0, "fusion_lon": 0.0, "rental_uris": {"android": "https://dc.lft.to/lastmile_qr_scan", "ios": "https://dc.lft.to/lastmile_qr_scan"}, "is_reserved": 0}, {"bike_id": "1af5c0f25d7fd7e0d46099e119cc6301", "name": "1af5c0f25d7fd7e0d46099e119cc6301", "lat": 38.9126005, "fusion_lat": 0.0, "type": "electric_scooter", "lon": -77.022081, "is_disabled": 0, "fusion_lon": 0.0, "rental_uris": {"android": "https://dc.lft.to/lastmile_qr_scan", "ios": "https://dc.lft.to/lastmile_qr_scan"}, "is_reserved": 0}, {"bike_id": "3d7607922f4a128b15ddbc12b5d075ba", "name": "3d7607922f4a128b15ddbc12b5d075ba", "lat": 38.895680166666665, "fusion_lat": 0.0, "type": "electric_scooter", "lon": -76.98223883333333, "is_disabled": 0, "fusion_lon": 0.0, "rental_uris": {"android": "https://dc.lft.to/lastmile_qr_scan", "ios": "https://dc.lft.to/lastmile_qr_scan"}, "is_reserved": 0}, {"bike_id": "6d9f7fbb8cf3b6df68b9cb70dbbcf9d6", "name": "6d9f7fbb8cf3b6df68b9cb70dbbcf9d6", "lat": 38.9346355, "fusion_lat": 0.0, "type": "electric_scooter", "lon": -77.05809833333333, "is_disabled": 0, "fusion_lon": 0.0, "rental_uris": {"android": "https://dc.lft.to/lastmile_qr_scan", "ios": "https://dc.lft.to/lastmile_qr_scan"}, "is_reserved": 0}, {"bike_id": "677c88cdc0359e75a6baad06eb4d7c45", "name": "677c88cdc0359e75a6baad06eb4d7c45", "lat": 38.91074583333334, "fusion_lat": 0.0, "type": "electric_scooter", "lon": -76.99136866666667, "is_disabled": 0, "fusion_lon": 0.0, "rental_uris": {"android": "https://dc.lft.to/lastmile_qr_scan", "ios": "https://dc.lft.to/lastmile_qr_scan"}, "is_reserved": 0}, {"bike_id": "40c6f517f928ac376139f8b8ad9fa726", "name": "40c6f517f928ac376139f8b8ad9fa726", "lat": 38.922604666666665, "fusion_lat": 0.0, "type": "electric_scooter", "lon": -77.01921783333333, "is_disabled": 0, "fusion_lon": 0.0, "rental_uris": {"android": "https://dc.lft.to/lastmile_qr_scan", "ios": "https://dc.lft.to/lastmile_qr_scan"}, "is_reserved": 0}, {"bike_id": "1bc2ac6049e25947c6aa757d6ed0c4b4", "name": "1bc2ac6049e25947c6aa757d6ed0c4b4", "lat": 38.923178166666666, "fusion_lat": 0.0, "type": "electric_scooter", "lon": -77.02801133333334, "is_disabled": 0, "fusion_lon": 0.0, "rental_uris": {"android": "https://dc.lft.to/lastmile_qr_scan", "ios": "https://dc.lft.to/lastmile_qr_scan"}, "is_reserved": 0}, {"bike_id": "768a763f7129c0d5a3a2b41e6e042646", "name": "768a763f7129c0d5a3a2b41e6e042646", "lat": 38.91545333333333, "fusion_lat": 0.0, "type": "electric_scooter", "lon": -77.020862, "is_disabled": 0, "fusion_lon": 0.0, "rental_uris": {"android": "https://dc.lft.to/lastmile_qr_scan", "ios": "https://dc.lft.to/lastmile_qr_scan"}, "is_reserved": 0}, {"bike_id": "32cbe9ad1918123a3aa650b2577c4a2e", "name": "32cbe9ad1918123a3aa650b2577c4a2e", "lat": 38.9020905, "fusion_lat": 0.0, "type": "electric_scooter", "lon": -77.02086683333333, "is_disabled": 0, "fusion_lon": 0.0, "rental_uris": {"android": "https://dc.lft.to/lastmile_qr_scan", "ios": "https://dc.lft.to/lastmile_qr_scan"}, "is_reserved": 0}, {"bike_id": "4f2c670dabe32cc9a45350b1c7413add", "name": "4f2c670dabe32cc9a45350b1c7413add", "lat": 38.90700283333334, "fusion_lat": 0.0, "type": "electric_scooter", "lon": -76.997697, "is_disabled": 0, "fusion_lon": 0.0, "rental_uris": {"android": "https://dc.lft.to/lastmile_qr_scan", "ios": "https://dc.lft.to/lastmile_qr_scan"}, "is_reserved": 0}, {"bike_id": "55da81e88bb5ca7d712b239c1743d118", "name": "55da81e88bb5ca7d712b239c1743d118", "lat": 38.92117983333333, "fusion_lat": 0.0, "type": "electric_scooter", "lon": -77.04113316666667, "is_disabled": 0, "fusion_lon": 0.0, "rental_uris": {"android": "https://dc.lft.to/lastmile_qr_scan", "ios": "https://dc.lft.to/lastmile_qr_scan"}, "is_reserved": 0}, {"bike_id": "0d44da4221b6e1b14917370a771e9239", "name": "0d44da4221b6e1b14917370a771e9239", "lat": 38.94478566666667, "fusion_lat": 0.0, "type": "electric_bike", "lon": -76.9868755, "is_disabled": 0, "fusion_lon": 0.0, "rental_uris": {"android": "https://dc.lft.to/lastmile_qr_scan", "ios": "https://dc.lft.to/lastmile_qr_scan"}, "is_reserved": 0}, {"bike_id": "70bee6404b6fbdf48cb880dd741c6efc", "name": "70bee6404b6fbdf48cb880dd741c6efc", "lat": 38.83866733333333, "fusion_lat": 0.0, "type": "electric_bike", "lon": -76.99696516666667, "is_disabled": 0, "fusion_lon": 0.0, "rental_uris": {"android": "https://dc.lft.to/lastmile_qr_scan", "ios": "https://dc.lft.to/lastmile_qr_scan"}, "is_reserved": 0}, {"bike_id": "8193227f33f13757554a61808d0de7df", "name": "8193227f33f13757554a61808d0de7df", "lat": 38.994146, "fusion_lat": 0.0, "type": "electric_bike", "lon": -77.01799816666667, "is_disabled": 0, "fusion_lon": 0.0, "rental_uris": {"android": "https://dc.lft.to/lastmile_qr_scan", "ios": "https://dc.lft.to/lastmile_qr_scan"}, "is_reserved": 0}, {"bike_id": "30c3aa4f813420cd01a35e2e2d8a6d18", "name": "30c3aa4f813420cd01a35e2e2d8a6d18", "lat": 38.8922225, "fusion_lat": 0.0, "type": "electric_scooter", "lon": -77.0486945, "is_disabled": 0, "fusion_lon": 0.0, "rental_uris": {"android": "https://dc.lft.to/lastmile_qr_scan", "ios": "https://dc.lft.to/lastmile_qr_scan"}, "is_reserved": 0}, {"bike_id": "a99ed94d4945adb9da1af22b39b615d2", "name": "a99ed94d4945adb9da1af22b39b615d2", "lat": 38.91681533333333, "fusion_lat": 0.0, "type": "electric_scooter", "lon": -77.023214, "is_disabled": 0, "fusion_lon": 0.0, "rental_uris": {"android": "https://dc.lft.to/lastmile_qr_scan", "ios": "https://dc.lft.to/lastmile_qr_scan"}, "is_reserved": 0}, {"bike_id": "2334cd6b105a169e2ba6aa58332d8a44", "name": "2334cd6b105a169e2ba6aa58332d8a44", "lat": 38.9142245, "fusion_lat": 0.0, "type": "electric_scooter", "lon": -77.03170916666667, "is_disabled": 0, "fusion_lon": 0.0, "rental_uris": {"android": "https://dc.lft.to/lastmile_qr_scan", "ios": "https://dc.lft.to/lastmile_qr_scan"}, "is_reserved": 0}, {"bike_id": "f2077467af339463faa57cf95874a783", "name": "f2077467af339463faa57cf95874a783", "lat": 38.90661683333333, "fusion_lat": 0.0, "type": "electric_scooter", "lon": -77.016291, "is_disabled": 0, "fusion_lon": 0.0, "rental_uris": {"android": "https://dc.lft.to/lastmile_qr_scan", "ios": "https://dc.lft.to/lastmile_qr_scan"}, "is_reserved": 0}, {"bike_id": "1ebf23e11366ac2e9857b8850c55f148", "name": "1ebf23e11366ac2e9857b8850c55f148", "lat": 38.950557, "fusion_lat": 0.0, "type": "electric_scooter", "lon": -77.054201, "is_disabled": 0, "fusion_lon": 0.0, "rental_uris": {"android": "https://dc.lft.to/lastmile_qr_scan", "ios": "https://dc.lft.to/lastmile_qr_scan"}, "is_reserved": 0}, {"bike_id": "ec27ec28c7d3026701483c1cab904bc0", "name": "ec27ec28c7d3026701483c1cab904bc0", "lat": 38.905544166666665, "fusion_lat": 0.0, "type": "electric_scooter", "lon": -77.0429075, "is_disabled": 0, "fusion_lon": 0.0, "rental_uris": {"android": "https://dc.lft.to/lastmile_qr_scan", "ios": "https://dc.lft.to/lastmile_qr_scan"}, "is_reserved": 0}, {"bike_id": "ebd690db05075c6f5a53ae9ba53f0d87", "name": "ebd690db05075c6f5a53ae9ba53f0d87", "lat": 38.9468895, "fusion_lat": 0.0, "type": "electric_scooter", "lon": -77.06516583333334, "is_disabled": 0, "fusion_lon": 0.0, "rental_uris": {"android": "https://dc.lft.to/lastmile_qr_scan", "ios": "https://dc.lft.to/lastmile_qr_scan"}, "is_reserved": 0}, {"bike_id": "8cccd1bb67687119c08cf992444b2b5e", "name": "8cccd1bb67687119c08cf992444b2b5e", "lat": 38.90750116666667, "fusion_lat": 0.0, "type": "electric_scooter", "lon": -77.0318645, "is_disabled": 0, "fusion_lon": 0.0, "rental_uris": {"android": "https://dc.lft.to/lastmile_qr_scan", "ios": "https://dc.lft.to/lastmile_qr_scan"}, "is_reserved": 0}, {"bike_id": "84daca251230ad8675284e090bddaf57", "name": "84daca251230ad8675284e090bddaf57", "lat": 38.92277266666667, "fusion_lat": 0.0, "type": "electric_scooter", "lon": -77.02127533333334, "is_disabled": 0, "fusion_lon": 0.0, "rental_uris": {"android": "https://dc.lft.to/lastmile_qr_scan", "ios": "https://dc.lft.to/lastmile_qr_scan"}, "is_reserved": 0}, {"bike_id": "3a73686d0c04d7206ec7b202f2ebeca8", "name": "3a73686d0c04d7206ec7b202f2ebeca8", "lat": 38.927470666666665, "fusion_lat": 0.0, "type": "electric_scooter", "lon": -77.03300233333333, "is_disabled": 0, "fusion_lon": 0.0, "rental_uris": {"android": "https://dc.lft.to/lastmile_qr_scan", "ios": "https://dc.lft.to/lastmile_qr_scan"}, "is_reserved": 0}, {"bike_id": "c49a7551117df59e69a3324a9b5f6376", "name": "c49a7551117df59e69a3324a9b5f6376", "lat": 38.90539533333333, "fusion_lat": 0.0, "type": "electric_scooter", "lon": -77.05659966666667, "is_disabled": 0, "fusion_lon": 0.0, "rental_uris": {"android": "https://dc.lft.to/lastmile_qr_scan", "ios": "https://dc.lft.to/lastmile_qr_scan"}, "is_reserved": 0}, {"bike_id": "da2f7b800ea7aa5095d78888bde9130b", "name": "da2f7b800ea7aa5095d78888bde9130b", "lat": 38.90189, "fusion_lat": 0.0, "type": "electric_scooter", "lon": -76.9300185, "is_disabled": 0, "fusion_lon": 0.0, "rental_uris": {"android": "https://dc.lft.to/lastmile_qr_scan", "ios": "https://dc.lft.to/lastmile_qr_scan"}, "is_reserved": 0}, {"bike_id": "946bb64f0dd1dd88a34175825c5c1c7d", "name": "946bb64f0dd1dd88a34175825c5c1c7d", "lat": 38.9267775, "fusion_lat": 0.0, "type": "electric_scooter", "lon": -77.0230735, "is_disabled": 0, "fusion_lon": 0.0, "rental_uris": {"android": "https://dc.lft.to/lastmile_qr_scan", "ios": "https://dc.lft.to/lastmile_qr_scan"}, "is_reserved": 0}, {"bike_id": "a5577c3fb49ad87524e038f1185af3ff", "name": "a5577c3fb49ad87524e038f1185af3ff", "lat": 38.89887183333333, "fusion_lat": 0.0, "type": "electric_scooter", "lon": -76.99611816666666, "is_disabled": 0, "fusion_lon": 0.0, "rental_uris": {"android": "https://dc.lft.to/lastmile_qr_scan", "ios": "https://dc.lft.to/lastmile_qr_scan"}, "is_reserved": 0}, {"bike_id": "04456d58dca58c809144ff2a4bfd082d", "name": "04456d58dca58c809144ff2a4bfd082d", "lat": 38.86535583333333, "fusion_lat": 0.0, "type": "electric_scooter", "lon": -76.97456966666667, "is_disabled": 0, "fusion_lon": 0.0, "rental_uris": {"android": "https://dc.lft.to/lastmile_qr_scan", "ios": "https://dc.lft.to/lastmile_qr_scan"}, "is_reserved": 0}, {"bike_id": "e3f8c90a283ec5315a26e738c09bf8fc", "name": "e3f8c90a283ec5315a26e738c09bf8fc", "lat": 38.92723266666667, "fusion_lat": 0.0, "type": "electric_scooter", "lon": -77.020899, "is_disabled": 0, "fusion_lon": 0.0, "rental_uris": {"android": "https://dc.lft.to/lastmile_qr_scan", "ios": "https://dc.lft.to/lastmile_qr_scan"}, "is_reserved": 0}, {"bike_id": "d98a775db9d95f62ab753444bcd5fdb6", "name": "d98a775db9d95f62ab753444bcd5fdb6", "lat": 38.924223166666664, "fusion_lat": 0.0, "type": "electric_scooter", "lon": -77.02014666666666, "is_disabled": 0, "fusion_lon": 0.0, "rental_uris": {"android": "https://dc.lft.to/lastmile_qr_scan", "ios": "https://dc.lft.to/lastmile_qr_scan"}, "is_reserved": 0}, {"bike_id": "37d3d58128fe76a68bec7325ab93ad7d", "name": "37d3d58128fe76a68bec7325ab93ad7d", "lat": 38.902458333333335, "fusion_lat": 0.0, "type": "electric_scooter", "lon": -77.026897, "is_disabled": 0, "fusion_lon": 0.0, "rental_uris": {"android": "https://dc.lft.to/lastmile_qr_scan", "ios": "https://dc.lft.to/lastmile_qr_scan"}, "is_reserved": 0}, {"bike_id": "408e21e91387f2220be5753463c82616", "name": "408e21e91387f2220be5753463c82616", "lat": 38.924953333333335, "fusion_lat": 0.0, "type": "electric_scooter", "lon": -77.0393235, "is_disabled": 0, "fusion_lon": 0.0, "rental_uris": {"android": "https://dc.lft.to/lastmile_qr_scan", "ios": "https://dc.lft.to/lastmile_qr_scan"}, "is_reserved": 0}, {"bike_id": "9d6d7cc4c16525ba27a247458e21b50b", "name": "9d6d7cc4c16525ba27a247458e21b50b", "lat": 38.93007166666666, "fusion_lat": 0.0, "type": "electric_scooter", "lon": -77.01824816666667, "is_disabled": 0, "fusion_lon": 0.0, "rental_uris": {"android": "https://dc.lft.to/lastmile_qr_scan", "ios": "https://dc.lft.to/lastmile_qr_scan"}, "is_reserved": 0}, {"bike_id": "4427769d592d9e88c72bbca62c40042b", "name": "4427769d592d9e88c72bbca62c40042b", "lat": 38.901885666666665, "fusion_lat": 0.0, "type": "electric_scooter", "lon": -77.03386833333333, "is_disabled": 0, "fusion_lon": 0.0, "rental_uris": {"android": "https://dc.lft.to/lastmile_qr_scan", "ios": "https://dc.lft.to/lastmile_qr_scan"}, "is_reserved": 0}, {"bike_id": "5c1a49da89768b9b9e3481884b6762f0", "name": "5c1a49da89768b9b9e3481884b6762f0", "lat": 38.8794695, "fusion_lat": 0.0, "type": "electric_scooter", "lon": -77.02155333333333, "is_disabled": 0, "fusion_lon": 0.0, "rental_uris": {"android": "https://dc.lft.to/lastmile_qr_scan", "ios": "https://dc.lft.to/lastmile_qr_scan"}, "is_reserved": 0},