{"data": {"bikes": [{"is_disabled": 0, "is_reserved": 0, "fusion_lat": 0.0, "lat": 38.9368585, "fusion_lon": 0.0, "rental_uris": {"ios": "https://dc.lft.to/lastmile_qr_scan", "android": "https://dc.lft.to/lastmile_qr_scan"}, "lon": -77.03623, "bike_id": "606c735b9d0780d13af739910bba719c", "type": "electric_scooter", "name": "606c735b9d0780d13af739910bba719c"}, {"is_disabled": 0, "is_reserved": 0, "fusion_lat": 0.0, "lat": 38.910175833333334, "fusion_lon": 0.0, "rental_uris": {"ios": "https://dc.lft.to/lastmile_qr_scan", "android": "https://dc.lft.to/lastmile_qr_scan"}, "lon": -77.03637433333333, "bike_id": "a47978e2a2569adeb60c4ca9c5a4577a", "type": "electric_scooter", "name": "a47978e2a2569adeb60c4ca9c5a4577a"}, {"is_disabled": 0, "is_reserved": 0, "fusion_lat": 0.0, "lat": 38.901311166666666, "fusion_lon": 0.0, "rental_uris": {"ios": "https://dc.lft.to/lastmile_qr_scan", "android": "https://dc.lft.to/lastmile_qr_scan"}, "lon": -76.99720866666667, "bike_id": "d52b5f4edf2a73dd764443d6090f1ac9", "type": "electric_scooter", "name": "d52b5f4edf2a73dd764443d6090f1ac9"}, {"is_disabled": 0, "is_reserved": 0, "fusion_lat": 0.0, "lat": 38.9057575, "fusion_lon": 0.0, "rental_uris": {"ios": "https://dc.lft.to/lastmile_qr_scan", "android": "https://dc.lft.to/lastmile_qr_scan"}, "lon": -77.04255883333333, "bike_id": "abe0eb13da995d35029fb7d1f0c4b762", "type": "electric_scooter", "name": "abe0eb13da995d35029fb7d1f0c4b762"}, {"is_disabled": 0, "is_reserved": 0, "fusion_lat": 0.0, "lat": 38.936615833333335, "fusion_lon": 0.0, "rental_uris": {"ios": "https://dc.lft.to/lastmile_qr_scan", "android": "https://dc.lft.to/lastmile_qr_scan"}, "lon": -77.06611066666666, "bike_id": "fd3608fa3956059e23f1e4de753c13f0", "type": "electric_scooter", "name": "fd3608fa3956059e23f1e4de753c13f0"}, {"is_disabled": 0, "is_reserved": 0, "fusion_lat": 0.0, "lat": 38.89494766666667, "fusion_lon": 0.0, "rental_uris": {"ios": "https://dc.lft.to/lastmile_qr_scan", "android": "https://dc.lft.to/lastmile_qr_scan"}, "lon": -77.02297166666666, "bike_id": "e7fdda19d45175a8833fd953daea25ab", "type": "electric_scooter", "name": "e7fdda19d45175a8833fd953daea25ab"}, {"is_disabled": 0, "is_reserved": 0, "fusion_lat": 0.0, "lat": 38.908017666666666, "fusion_lon": 0.0, "rental_uris": {"ios": "https://dc.lft.to/lastmile_qr_scan", "android": "https://dc.lft.to/lastmile_qr_scan"}, "lon": -76.99721016666666, "bike_id": "da820eeff3e7e65e554efe33e9a2eb74", "type": "electric_scooter", "name": "da820eeff3e7e65e554efe33e9a2eb74"}, {"is_disabled": 0, "is_reserved": 0, "fusion_lat": 0.0, "lat": 38.929737833333334, "fusion_lon": 0.0, "rental_uris": {"ios": "https://dc.lft.to/lastmile_qr_scan", "android": "https://dc.lft.to/lastmile_qr_scan"}, "lon": -77.02338983333334, "bike_id": "28ab39c85b185e47a112dc919db91353", "type": "electric_scooter", "name": "28ab39c85b185e47a112dc919db91353"}, {"is_disabled": 0, "is_reserved": 0, "fusion_lat": 0.0, "lat": 39.02624, "fusion_lon": 0.0, "rental_uris": {"ios": "https://dc.lft.to/lastmile_qr_scan", "android": "https://dc.lft.to/lastmile_qr_scan"}, "lon": -77.03879966666666, "bike_id": "e52eb35a802b92c8cfeee4986d245efb", "type": "electric_bike", "name": "e52eb35a802b92c8cfeee4986d245efb"}, {"is_disabled": 0, "is_reserved": 0, "fusion_lat": 0.0, "lat": 38.9026135, "fusion_lon": 0.0, "rental_uris": {"ios": "https://dc.lft.to/lastmile_qr_scan", "android": "https://dc.lft.to/lastmile_qr_scan"}, "lon": -77.01756883333333, "bike_id": "3ad1087d4088b57c355e37320f01cacc", "type": "electric_scooter", "name": "3ad1087d4088b57c355e37320f01cacc"}, {"is_disabled": 0, "is_reserved": 0, "fusion_lat": 0.0, "lat": 38.90218216666667, "fusion_lon": 0.0, "rental_uris": {"ios": "https://dc.lft.to/lastmile_qr_scan", "android": "https://dc.lft.to/lastmile_qr_scan"}, "lon": -77.05124316666667, "bike_id": "4d6adef49623a2e288083a73a1f9123c", "type": "electric_scooter", "name": "4d6adef49623a2e288083a73a1f9123c"}, {"is_disabled": 0, "is_reserved": 0, "fusion_lat": 0.0, "lat": 38.922299833333334, "fusion_lon": 0.0, "rental_uris": {"ios": "https://dc.lft.to/lastmile_qr_scan", "android": "https://dc.lft.to/lastmile_qr_scan"}, "lon": -77.01807666666667, "bike_id": "58c850525f7b21959847d61e23578dc7", "type": "electric_scooter", "name": "58c850525f7b21959847d61e23578dc7"}, {"is_disabled": 0, "is_reserved": 0, "fusion_lat": 0.0, "lat": 38.904715, "fusion_lon": 0.0, "rental_uris": {"ios": "https://dc.lft.to/lastmile_qr_scan", "android": "https://dc.lft.to/lastmile_qr_scan"}, "lon": -76.98423366666667, "bike_id": "f6e77966ab635af65b0f35c9611b0e32", "type": "electric_bike", "name": "f6e77966ab635af65b0f35c9611b0e32"}, {"is_disabled": 0, "is_reserved": 0, "fusion_lat": 0.0, "lat": 38.92239216666667, "fusion_lon": 0.0, "rental_uris": {"ios": "https://dc.lft.to/lastmile_qr_scan", "android": "https://dc.lft.to/lastmile_qr_scan"}, "lon": -77.04016716666666, "bike_id": "fb11e5a3e6498b4fa8b74464fc410895", "type": "electric_scooter", "name": "fb11e5a3e6498b4fa8b74464fc410895"}, {"is_disabled": 0, "is_reserved": 0, "fusion_lat": 0.0, "lat": 38.930524166666665, "fusion_lon": 0.0, "rental_uris": {"ios": "https://dc.lft.to/lastmile_qr_scan", "android": "https://dc.lft.to/lastmile_qr_scan"}, "lon": -77.04049533333334, "bike_id": "6a5700ecbf54fe4797ca56e6f3434a76", "type": "electric_scooter", "name": "6a5700ecbf54fe4797ca56e6f3434a76"}, {"is_disabled": 0, "is_reserved": 0, "fusion_lat": 0.0, "lat": 38.91104333333333, "fusion_lon": 0.0, "rental_uris": {"ios": "https://dc.lft.to/lastmile_qr_scan", "android": "https://dc.lft.to/lastmile_qr_scan"}, "lon": -77.002148, "bike_id": "27f9b1f9ee7179e7070c035b1832849b", "type": "electric_scooter", "name": "27f9b1f9ee7179e7070c035b1832849b"}, {"is_disabled": 0, "is_reserved": 0, "fusion_lat": 0.0, "lat": 38.90055516666666, "fusion_lon": 0.0, "rental_uris": {"ios": "https://dc.lft.to/lastmile_qr_scan", "android": "https://dc.lft.to/lastmile_qr_scan"}, "lon": -77.01366966666667, "bike_id": "2f3cb25809b2326005b36331a1a9aaaf", "type": "electric_scooter", "name": "2f3cb25809b2326005b36331a1a9aaaf"}, {"is_disabled": 0, "is_reserved": 0, "fusion_lat": 0.0, "lat": 38.876846666666665, "fusion_lon": 0.0, "rental_uris": {"ios": "https://dc.lft.to/lastmile_qr_scan", "android": "https://dc.lft.to/lastmile_qr_scan"}, "lon": -77.017578, "bike_id": "6a72a4a00b0560ea880af2cdcb69c62c", "type": "electric_bike", "name": "6a72a4a00b0560ea880af2cdcb69c62c"}, {"is_disabled": 0, "is_reserved": 0, "fusion_lat": 0.0, "lat": 38.926812166666664, "fusion_lon": 0.0, "rental_uris": {"ios": "https://dc.lft.to/lastmile_qr_scan", "android": "https://dc.lft.to/lastmile_qr_scan"}, "lon": -77.02699616666666, "bike_id": "f26e01e46eed920b5700294e24bd942c", "type": "electric_scooter", "name": "f26e01e46eed920b5700294e24bd942c"}, {"is_disabled": 0, "is_reserved": 0, "fusion_lat": 0.0, "lat": 38.85793983333333, "fusion_lon": 0.0, "rental_uris": {"ios": "https://dc.lft.to/lastmile_qr_scan", "android": "https://dc.lft.to/lastmile_qr_scan"}, "lon": -76.98754683333334, "bike_id": "c4f8709edbc84cd947c87536d41e103d", "type": "electric_bike", "name": "c4f8709edbc84cd947c87536d41e103d"}, {"is_disabled": 0, "is_reserved": 0, "fusion_lat": 0.0, "lat": 38.9205825, "fusion_lon": 0.0, "rental_uris": {"ios": "https://dc.lft.to/lastmile_qr_scan", "android": "https://dc.lft.to/lastmile_qr_scan"}, "lon": -77.02509366666666, "bike_id": "e102e0f58370611b532690ec78c761b8", "type": "electric_scooter", "name": "e102e0f58370611b532690ec78c761b8"}, {"is_disabled": 0, "is_reserved": 0, "fusion_lat": 0.0, "lat": 38.9195455, "fusion_lon": 0.0, "rental_uris": {"ios": "https://dc.lft.to/lastmile_qr_scan", "android": "https://dc.lft.to/lastmile_qr_scan"}, "lon": -77.02510383333333, "bike_id": "707549e2f0887fde548a89ee5d808411", "type": "electric_scooter", "name": "707549e2f0887fde548a89ee5d808411"}, {"is_disabled": 0, "is_reserved": 0, "fusion_lat": 0.0, "lat": 38.918176833333334, "fusion_lon": 0.0, "rental_uris": {"ios": "https://dc.lft.to/lastmile_qr_scan", "android": "https://dc.lft.to/lastmile_qr_scan"}, "lon": -77.03248416666666, "bike_id": "08f931d39d3e9d1bfbda671c11957ffd", "type": "electric_scooter", "name": "08f931d39d3e9d1bfbda671c11957ffd"}, {"is_disabled": 0, "is_reserved": 0, "fusion_lat": 0.0, "lat": 38.927469, "fusion_lon": 0.0, "rental_uris": {"ios": "https://dc.lft.to/lastmile_qr_scan", "android": "https://dc.lft.to/lastmile_qr_scan"}, "lon": -77.03301966666666, "bike_id": "0cc078cbae3bcbc0b448afacb2e2ba7f", "type": "electric_scooter", "name": "0cc078cbae3bcbc0b448afacb2e2ba7f"}, {"is_disabled": 0, "is_reserved": 0, "fusion_lat": 0.0, "lat": 38.92584733333333, "fusion_lon": 0.0, "rental_uris": {"ios": "https://dc.lft.to/lastmile_qr_scan", "android": "https://dc.lft.to/lastmile_qr_scan"}, "lon": -77.04011, "bike_id": "56bcac5ea6be8b08e432f709a50e61b4", "type": "electric_bike", "name": "56bcac5ea6be8b08e432f709a50e61b4"}, {"is_disabled": 0, "is_reserved": 0, "fusion_lat": 0.0, "lat": 38.967981333333334, "fusion_lon": 0.0, "rental_uris": {"ios": "https://dc.lft.to/lastmile_qr_scan", "android": "https://dc.lft.to/lastmile_qr_scan"}, "lon": -77.02429566666666, "bike_id": "1f475dd274e91fae38cde3aa9a6b0d6e", "type": "electric_scooter", "name": "1f475dd274e91fae38cde3aa9a6b0d6e"}, {"is_disabled": 0, "is_reserved": 0, "fusion_lat": 0.0, "lat": 38.9238845, "fusion_lon": 0.0, "rental_uris": {"ios": "https://dc.lft.to/lastmile_qr_scan", "android": "https://dc.lft.to/lastmile_qr_scan"}, "lon": -77.030978, "bike_id": "f851e8dc71b74a6f16ddb89401f52fd6", "type": "electric_scooter", "name": "f851e8dc71b74a6f16ddb89401f52fd6"}, {"is_disabled": 0, "is_reserved": 0, "fusion_lat": 0.0, "lat": 38.91255666666667, "fusion_lon": 0.0, "rental_uris": {"ios": "https://dc.lft.to/lastmile_qr_scan", "android": "https://dc.lft.to/lastmile_qr_scan"}, "lon": -77.01947066666666, "bike_id": "1765024f083b5bae1334815027db1763", "type": "electric_scooter", "name": "1765024f083b5bae1334815027db1763"}, {"is_disabled": 0, "is_reserved": 0, "fusion_lat": 0.0, "lat": 38.90246716666667, "fusion_lon": 0.0, "rental_uris": {"ios": "https://dc.lft.to/lastmile_qr_scan", "android": "https://dc.lft.to/lastmile_qr_scan"}, "lon": -77.015288, "bike_id": "1ad7375d48e4d0ee52060a35a6e2f59d", "type": "electric_scooter", "name": "1ad7375d48e4d0ee52060a35a6e2f59d"}, {"is_disabled": 0, "is_reserved": 0, "fusion_lat": 0.0, "lat": 38.905891833333335, "fusion_lon": 0.0, "rental_uris": {"ios": "https://dc.lft.to/lastmile_qr_scan", "android": "https://dc.lft.to/lastmile_qr_scan"}, "lon": -77.0218235, "bike_id": "735127150c822560085a349e768bb92d", "type": "electric_scooter", "name": "735127150c822560085a349e768bb92d"}, {"is_disabled": 0, "is_reserved": 0, "fusion_lat": 0.0, "lat": 38.925442333333336, "fusion_lon": 0.0, "rental_uris": {"ios": "https://dc.lft.to/lastmile_qr_scan", "android": "https://dc.lft.to/lastmile_qr_scan"}, "lon": -77.02263916666666, "bike_id": "957cd159e228e8480e134c535909857e", "type": "electric_scooter", "name": "957cd159e228e8480e134c535909857e"}, {"is_disabled": 0, "is_reserved": 0, "fusion_lat": 0.0, "lat": 38.8862705, "fusion_lon": 0.0, "rental_uris": {"ios": "https://dc.lft.to/lastmile_qr_scan", "android": "https://dc.lft.to/lastmile_qr_scan"}, "lon": -77.02836166666667, "bike_id": "a9263e576e688a1f0855b18fa5d10353", "type": "electric_scooter", "name": "a9263e576e688a1f0855b18fa5d10353"}, {"is_disabled": 0, "is_reserved": 0, "fusion_lat": 0.0, "lat": 38.908455333333336, "fusion_lon": 0.0, "rental_uris": {"ios": "https://dc.lft.to/lastmile_qr_scan", "android": "https://dc.lft.to/lastmile_qr_scan"}, "lon": -76.93446516666667, "bike_id": "b84aebe19ce4ae87e9b5012ce24e3379", "type": "electric_scooter", "name": "b84aebe19ce4ae87e9b5012ce24e3379"}, {"is_disabled": 0, "is_reserved": 0, "fusion_lat": 0.0, "lat": 38.926083, "fusion_lon": 0.0, "rental_uris": {"ios": "https://dc.lft.to/lastmile_qr_scan", "android": "https://dc.lft.to/lastmile_qr_scan"}, "lon": -77.07966916666666, "bike_id": "e3aa0b8bafc5b5804961a266b02fb4ef", "type": "electric_scooter", "name": "e3aa0b8bafc5b5804961a266b02fb4ef"}, {"is_disabled": 0, "is_reserved": 0, "fusion_lat": 0.0, "lat": 38.914203, "fusion_lon": 0.0, "rental_uris": {"ios": "https://dc.lft.to/lastmile_qr_scan", "android": "https://dc.lft.to/lastmile_qr_scan"}, "lon": -77.03174616666666, "bike_id": "b45f0449d93fc292cd48243216443d11", "type": "electric_scooter", "name": "b45f0449d93fc292cd48243216443d11"}, {"is_disabled": 0, "is_reserved": 0, "fusion_lat": 0.0, "lat": 38.904337166666664, "fusion_lon": 0.0, "rental_uris": {"ios": "https://dc.lft.to/lastmile_qr_scan", "android": "https://dc.lft.to/lastmile_qr_scan"}, "lon": -77.0308845, "bike_id": "6c1ef968519f8ce2af61153a59359f5a", "type": "electric_scooter", "name": "6c1ef968519f8ce2af61153a59359f5a"}, {"is_disabled": 0, "is_reserved": 0, "fusion_lat": 0.0, "lat": 38.921271833333336, "fusion_lon": 0.0, "rental_uris": {"ios": "https://dc.lft.to/lastmile_qr_scan", "android": "https://dc.lft.to/lastmile_qr_scan"}, "lon": -77.0455935, "bike_id": "28857ca0ea969e978a05f0350603d529", "type": "electric_scooter", "name": "28857ca0ea969e978a05f0350603d529"}, {"is_disabled": 0, "is_reserved": 0, "fusion_lat": 0.0, "lat": 38.91411983333333, "fusion_lon": 0.0, "rental_uris": {"ios": "https://dc.lft.to/lastmile_qr_scan", "android": "https://dc.lft.to/lastmile_qr_scan"}, "lon": -77.0399925, "bike_id": "10ca6a0954ba9180747a405e59614230", "type": "electric_scooter", "name": "10ca6a0954ba9180747a405e59614230"}, {"is_disabled": 0, "is_reserved": 0, "fusion_lat": 0.0, "lat": 38.923641333333336, "fusion_lon": 0.0, "rental_uris": {"ios": "https://dc.lft.to/lastmile_qr_scan", "android": "https://dc.lft.to/lastmile_qr_scan"}, "lon": -77.02138883333333, "bike_id": "80e81538c171d4261ef815dd579a5f14", "type": "electric_scooter", "name": "80e81538c171d4261ef815dd579a5f14"}, {"is_disabled": 0, "is_reserved": 0, "fusion_lat": 0.0, "lat": 39.02650583333333, "fusion_lon": 0.0, "rental_uris": {"ios": "https://dc.lft.to/lastmile_qr_scan", "android": "https://dc.lft.to/lastmile_qr_scan"}, "lon": -77.03684066666666, "bike_id": "01b9e101f28d459f9e49c9a3b9b11314", "type": "electric_bike", "name": "01b9e101f28d459f9e49c9a3b9b11314"}, {"is_disabled": 0, "is_reserved": 0, "fusion_lat": 0.0, "lat": 38.8999765, "fusion_lon": 0.0, "rental_uris": {"ios": "https://dc.lft.to/lastmile_qr_scan", "android": "https://dc.lft.to/lastmile_qr_scan"}, "lon": -77.02719033333334, "bike_id": "23f54ddaee719c64225ff6f3322eb2fc", "type": "electric_scooter", "name": "23f54ddaee719c64225ff6f3322eb2fc"}, {"is_disabled": 0, "is_reserved": 0, "fusion_lat": 0.0, "lat": 38.93057016666667, "fusion_lon": 0.0, "rental_uris": {"ios": "https://dc.lft.to/lastmile_qr_scan", "android": "https://dc.lft.to/lastmile_qr_scan"}, "lon": -77.04059383333333, "bike_id": "065d20df749d129d98d6fc286a5576cc", "type": "electric_scooter", "name": "065d20df749d129d98d6fc286a5576cc"}, {"is_disabled": 0, "is_reserved": 0, "fusion_lat": 0.0, "lat": 38.91472733333333, "fusion_lon": 0.0, "rental_uris": {"ios": "https://dc.lft.to/lastmile_qr_scan", "android": "https://dc.lft.to/lastmile_qr_scan"}, "lon": -77.00922516666667, "bike_id": "b0fc2b5d53c6817944e28f24f71e51a7", "type": "electric_scooter", "name": "b0fc2b5d53c6817944e28f24f71e51a7"}, {"is_disabled": 0, "is_reserved": 0, "fusion_lat": 0.0, "lat": 38.91459316666667, "fusion_lon": 0.0, "rental_uris": {"ios": "https://dc.lft.to/lastmile_qr_scan", "android": "https://dc.lft.to/lastmile_qr_scan"}, "lon": -77.031813, "bike_id": "b615b186b85b73094210bb34e8e95584", "type": "electric_scooter", "name": "b615b186b85b73094210bb34e8e95584"}, {"is_disabled": 0, "is_reserved": 0, "fusion_lat": 0.0, "lat": 38.9260005, "fusion_lon": 0.0, "rental_uris": {"ios": "https://dc.lft.to/lastmile_qr_scan", "android": "https://dc.lft.to/lastmile_qr_scan"}, "lon": -77.05299616666667, "bike_id": "958839e6ce32bf236a0c866014537f7d", "type": "electric_scooter", "name": "958839e6ce32bf236a0c866014537f7d"}, {"is_disabled": 0, "is_reserved": 0, "fusion_lat": 0.0, "lat": 38.930219666666666, "fusion_lon": 0.0, "rental_uris": {"ios": "https://dc.lft.to/lastmile_qr_scan", "android": "https://dc.lft.to/lastmile_qr_scan"}, "lon": -77.02332533333333, "bike_id": "441580bfe10d24e9a17965454155db44", "type": "electric_scooter", "name": "441580bfe10d24e9a17965454155db44"}, {"is_disabled": 0, "is_reserved": 0, "fusion_lat": 0.0, "lat": 38.88618433333333, "fusion_lon": 0.0, "rental_uris": {"ios": "https://dc.lft.to/lastmile_qr_scan", "android": "https://dc.lft.to/lastmile_qr_scan"}, "lon": -76.9263735, "bike_id": "e507a316c6f575763feba78120760983", "type": "electric_scooter", "name": "e507a316c6f575763feba78120760983"}, {"is_disabled": 0, "is_reserved": 0, "fusion_lat": 0.0, "lat": 38.914137, "fusion_lon": 0.0, "rental_uris": {"ios": "https://dc.lft.to/lastmile_qr_scan", "android": "https://dc.lft.to/lastmile_qr_scan"}, "lon": -77.0521125, "bike_id": "d4171138b29a4dab447d2925ecde289b", "type": "electric_scooter", "name": "d4171138b29a4dab447d2925ecde289b"}, {"is_disabled": 0, "is_reserved": 0, "fusion_lat": 0.0, "lat": 38.943312666666664, "fusion_lon": 0.0, "rental_uris": {"ios": "https://dc.lft.to/lastmile_qr_scan", "android": "https://dc.lft.to/lastmile_qr_scan"}, "lon": -77.0269285, "bike_id": "aa0b58115e1796bcfe131ac0962cdef6", "type": "electric_scooter", "name": "aa0b58115e1796bcfe131ac0962cdef6"}, {"is_disabled": 0, "is_reserved": 0, "fusion_lat": 0.0, "lat": 38.905151000000004, "fusion_lon": 0.0, "rental_uris": {"ios": "https://dc.lft.to/lastmile_qr_scan", "android": "https://dc.lft.to/lastmile_qr_scan"}, "lon": -76.95195083333333, "bike_id": "fffdc0582f9e5c6711f880511018e6f6", "type": "electric_scooter", "name": "fffdc0582f9e5c6711f880511018e6f6"}, {"is_disabled": 0, "is_reserved": 0, "fusion_lat": 0.0, "lat": 38.919628833333334, "fusion_lon": 0.0, "rental_uris": {"ios": "https://dc.lft.to/lastmile_qr_scan", "android": "https://dc.lft.to/lastmile_qr_scan"}, "lon": -77.01906683333333, "bike_id": "49df833cbc777a3ad045de8586a7f6b4", "type": "electric_scooter", "name": "49df833cbc777a3ad045de8586a7f6b4"}, {"is_disabled": 0, "is_reserved": 0, "fusion_lat": 0.0, "lat": 38.922230166666665, "fusion_lon": 0.0, "rental_uris": {"ios": "https://dc.lft.to/lastmile_qr_scan", "android": "https://dc.lft.to/lastmile_qr_scan"}, "lon": -77.03887566666667, "bike_id": "029ed051a0ecb19c630f74f420afc0de", "type": "electric_scooter", "name": "029ed051a0ecb19c630f74f420afc0de"}, {"is_disabled": 0, "is_reserved": 0, "fusion_lat": 0.0, "lat": 38.895006, "fusion_lon": 0.0, "rental_uris": {"ios": "https://dc.lft.to/lastmile_qr_scan", "android": "https://dc.lft.to/lastmile_qr_scan"}, "lon": -77.02292283333334, "bike_id": "87d73fa18368049d645bdcc323e457e9", "type": "electric_scooter", "name": "87d73fa18368049d645bdcc323e457e9"}, {"is_disabled": 0, "is_reserved": 0, "fusion_lat": 0.0, "lat": 38.89531516666667, "fusion_lon": 0.0, "rental_uris": {"ios": "https://dc.lft.to/lastmile_qr_scan", "android": "https://dc.lft.to/lastmile_qr_scan"}, "lon": -77.03211483333334, "bike_id": "bceee9e2e05b484010555663a027b00f", "type": "electric_scooter", "name": "bceee9e2e05b484010555663a027b00f"}, {"is_disabled": 0, "is_reserved": 0, "fusion_lat": 0.0, "lat": 38.93657183333333, "fusion_lon": 0.0, "rental_uris": {"ios": "https://dc.lft.to/lastmile_qr_scan", "android": "https://dc.lft.to/lastmile_qr_scan"}, "lon": -77.03654183333333, "bike_id": "215541f9b67e65b1f67c457d4be92811", "type": "electric_scooter", "name": "215541f9b67e65b1f67c457d4be92811"}, {"is_disabled": 0, "is_reserved": 0, "fusion_lat": 0.0, "lat": 38.91435116666667, "fusion_lon": 0.0, "rental_uris": {"ios": "https://dc.lft.to/lastmile_qr_scan", "android": "https://dc.lft.to/lastmile_qr_scan"}, "lon": -76.98441616666666, "bike_id": "69b5b625d670bfa15abeac585fd9c667", "type": "electric_scooter", "name": "69b5b625d670bfa15abeac585fd9c667"}, {"is_disabled": 0, "is_reserved": 0, "fusion_lat": 0.0, "lat": 38.87891666666667, "fusion_lon": 0.0, "rental_uris": {"ios": "https://dc.lft.to/lastmile_qr_scan", "android": "https://dc.lft.to/lastmile_qr_scan"}, "lon": -76.93531816666666, "bike_id": "29c356610c74f0adfe719e5ad03e4af5", "type": "electric_scooter", "name": "29c356610c74f0adfe719e5ad03e4af5"}, {"is_disabled": 0, "is_reserved": 0, "fusion_lat": 0.0, "lat": 38.862152, "fusion_lon": 0.0, "rental_uris": {"ios": "https://dc.lft.to/lastmile_qr_scan", "android": "https://dc.lft.to/lastmile_qr_scan"}, "lon": -76.99481116666666, "bike_id": "01718580b9a3e4fa77d776989ddd9615", "type": "electric_scooter", "name": "01718580b9a3e4fa77d776989ddd9615"}, {"is_disabled": 0, "is_reserved": 0, "fusion_lat": 0.0, "lat": 38.949766, "fusion_lon": 0.0, "rental_uris": {"ios": "https://dc.lft.to/lastmile_qr_scan", "android": "https://dc.lft.to/lastmile_qr_scan"}, "lon": -77.02436233333333, "bike_id": "01d6ada100573fcebcf7d2b19ecc81d3", "type": "electric_scooter", "name": "01d6ada100573fcebcf7d2b19ecc81d3"}, {"is_disabled": 0, "is_reserved": 0, "fusion_lat": 0.0, "lat": 38.889874666666664, "fusion_lon": 0.0, "rental_uris": {"ios": "https://dc.lft.to/lastmile_qr_scan", "android": "https://dc.lft.to/lastmile_qr_scan"}, "lon": -77.00342183333333, "bike_id": "4ac018193259327c2fbfe157d92196dc", "type": "electric_scooter", "name": "4ac018193259327c2fbfe157d92196dc"}, {"is_disabled": 0, "is_reserved": 0, "fusion_lat": 0.0, "lat": 38.9048335, "fusion_lon": 0.0, "rental_uris": {"ios": "https://dc.lft.to/lastmile_qr_scan", "android": "https://dc.lft.to/lastmile_qr_scan"}, "lon": -77.00888616666667, "bike_id": "c6f7d953975515ffe4c18806e97567c9", "type": "electric_scooter", "name": "c6f7d953975515ffe4c18806e97567c9"}, {"is_disabled": 0, "is_reserved": 0, "fusion_lat": 0.0, "lat": 38.92243216666667, "fusion_lon": 0.0, "rental_uris": {"ios": "https://dc.lft.to/lastmile_qr_scan", "android": "https://dc.lft.to/lastmile_qr_scan"}, "lon": -77.02127666666667, "bike_id": "f62b99a1f8a0f1b32e2d89f83ec08cde", "type": "electric_scooter", "name": "f62b99a1f8a0f1b32e2d89f83ec08cde"}, {"is_disabled": 0, "is_reserved": 0, "fusion_lat": 0.0, "lat": 38.830461166666666, "fusion_lon": 0.0, "rental_uris": {"ios": "https://dc.lft.to/lastmile_qr_scan", "android": "https://dc.lft.to/lastmile_qr_scan"}, "lon": -77.00826433333333, "bike_id": "0457e51b79bc262a097569f8385b3499", "type": "electric_bike", "name": "0457e51b79bc262a097569f8385b3499"}, {"is_disabled": 0, "is_reserved": 0, "fusion_lat": 0.0, "lat": 38.892211333333336, "fusion_lon": 0.0, "rental_uris": {"ios": "https://dc.lft.to/lastmile_qr_scan", "android": "https://dc.lft.to/lastmile_qr_scan"}, "lon": -77.0235195, "bike_id": "db3f7d4b7525637a778f0266bb1866d3", "type": "electric_scooter", "name": "db3f7d4b7525637a778f0266bb1866d3"}, {"is_disabled": 0, "is_reserved": 0, "fusion_lat": 0.0, "lat": 38.91787383333333, "fusion_lon": 0.0, "rental_uris": {"ios": "https://dc.lft.to/lastmile_qr_scan", "android": "https://dc.lft.to/lastmile_qr_scan"}, "lon": -77.04666983333334, "bike_id": "a8de07f160fe8e2284cf5cfa73e7d8cd", "type": "electric_scooter", "name": "a8de07f160fe8e2284cf5cfa73e7d8cd"}, {"is_disabled": 0, "is_reserved": 0, "fusion_lat": 0.0, "lat": 38.917114166666664, "fusion_lon": 0.0, "rental_uris": {"ios": "https://dc.lft.to/lastmile_qr_scan", "android": "https://dc.lft.to/lastmile_qr_scan"}, "lon": -77.038677, "bike_id": "36e18432ade0aa60b0df8cf96d95b312", "type": "electric_scooter", "name": "36e18432ade0aa60b0df8cf96d95b312"}, {"is_disabled": 0, "is_reserved": 0, "fusion_lat": 0.0, "lat": 38.927463833333334, "fusion_lon": 0.0, "rental_uris": {"ios": "https://dc.lft.to/lastmile_qr_scan", "android": "https://dc.lft.to/lastmile_qr_scan"}, "lon": -77.06460733333333, "bike_id": "355edba3e1614f9e4e76f476ee26162e", "type": "electric_scooter", "name": "355edba3e1614f9e4e76f476ee26162e"}, {"is_disabled": 0, "is_reserved": 0, "fusion_lat": 0.0, "lat": 38.892769, "fusion_lon": 0.0, "rental_uris": {"ios": "https://dc.lft.to/lastmile_qr_scan", "android": "https://dc.lft.to/lastmile_qr_scan"}, "lon": -77.05040133333334, "bike_id": "28a401bbdf5c428d605662d88265c6fa", "type": "electric_scooter", "name": "28a401bbdf5c428d605662d88265c6fa"}, {"is_disabled": 0, "is_reserved": 0, "fusion_lat": 0.0, "lat": 38.92684583333333, "fusion_lon": 0.0, "rental_uris": {"ios": "https://dc.lft.to/lastmile_qr_scan", "android": "https://dc.lft.to/lastmile_qr_scan"}, "lon": -77.0150285, "bike_id": "ffca5e630fbc520fbb9fb42ffcfea4bd", "type": "electric_scooter", "name": "ffca5e630fbc520fbb9fb42ffcfea4bd"}, {"is_disabled": 0, "is_reserved": 0, "fusion_lat": 0.0, "lat": 38.923653333333334, "fusion_lon": 0.0, "rental_uris": {"ios": "https://dc.lft.to/lastmile_qr_scan", "android": "https://dc.lft.to/lastmile_qr_scan"}, "lon": -77.0190835, "bike_id": "47f65725333ab8ab10d908bd24bc5ca9", "type": "electric_scooter", "name": "47f65725333ab8ab10d908bd24bc5ca9"}, {"is_disabled": 0, "is_reserved": 0, "fusion_lat": 0.0, "lat": 38.909578, "fusion_lon": 0.0, "rental_uris": {"ios": "https://dc.lft.to/lastmile_qr_scan", "android": "https://dc.lft.to/lastmile_qr_scan"}, "lon": -77.01136833333334, "bike_id": "6b73c07ca9ef6a7ea4f1e6d2a624d2c1", "type": "electric_scooter", "name": "6b73c07ca9ef6a7ea4f1e6d2a624d2c1"}, {"is_disabled": 0, "is_reserved": 0, "fusion_lat": 0.0, "lat": 38.93025, "fusion_lon": 0.0, "rental_uris": {"ios": "https://dc.lft.to/lastmile_qr_scan", "android": "https://dc.lft.to/lastmile_qr_scan"}, "lon": -77.02312883333333, "bike_id": "2b997d5e91507f0748258187271508e1", "type": "electric_scooter", "name": "2b997d5e91507f0748258187271508e1"}, {"is_disabled": 0, "is_reserved": 0, "fusion_lat": 0.0, "lat": 38.88374233333333, "fusion_lon": 0.0, "rental_uris": {"ios": "https://dc.lft.to/lastmile_qr_scan", "android": "https://dc.lft.to/lastmile_qr_scan"}, "lon": -76.99523716666667, "bike_id": "a2255175f3354e39a53c32c13795f302", "type": "electric_scooter", "name": "a2255175f3354e39a53c32c13795f302"}, {"is_disabled": 0, "is_reserved": 0, "fusion_lat": 0.0, "lat": 38.912615833333334, "fusion_lon": 0.0, "rental_uris": {"ios": "https://dc.lft.to/lastmile_qr_scan", "android": "https://dc.lft.to/lastmile_qr_scan"}, "lon": -77.0383235, "bike_id": "c1e56e8b97c1779466d7bec33b4085c4", "type": "electric_scooter", "name": "c1e56e8b97c1779466d7bec33b4085c4"}, {"is_disabled": 0, "is_reserved": 0, "fusion_lat": 0.0, "lat": 38.90913366666667, "fusion_lon": 0.0, "rental_uris": {"ios": "https://dc.lft.to/lastmile_qr_scan", "android": "https://dc.lft.to/lastmile_qr_scan"}, "lon": -77.03394516666667, "bike_id": "af37b6e29605353dbe63209114ab3b02", "type": "electric_scooter", "name": "af37b6e29605353dbe63209114ab3b02"}, {"is_disabled": 0, "is_reserved": 0, "fusion_lat": 0.0, "lat": 38.916187, "fusion_lon": 0.0, "rental_uris": {"ios": "https://dc.lft.to/lastmile_qr_scan", "android": "https://dc.lft.to/lastmile_qr_scan"}, "lon": -77.05068516666667, "bike_id": "f686a695d435d462f8a807edf17bb49f", "type": "electric_scooter", "name": "f686a695d435d462f8a807edf17bb49f"}, {"is_disabled": 0, "is_reserved": 0, "fusion_lat": 0.0, "lat": 38.937506666666664, "fusion_lon": 0.0, "rental_uris": {"ios": "https://dc.lft.to/lastmile_qr_scan", "android": "https://dc.lft.to/lastmile_qr_scan"}, "lon": -77.02436733333333, "bike_id": "d97e6f7048aff2e2e7660b1d062bbd86", "type": "electric_scooter", "name": "d97e6f7048aff2e2e7660b1d062bbd86"}, {"is_disabled": 0, "is_reserved": 0, "fusion_lat": 0.0, "lat": 38.93234983333333, "fusion_lon": 0.0, "rental_uris": {"ios": "https://dc.lft.to/lastmile_qr_scan", "android": "https://dc.lft.to/lastmile_qr_scan"}, "lon": -76.99701633333333, "bike_id": "23367c29f6f5307779027ee1e9a4677e", "type": "electric_scooter", "name": "23367c29f6f5307779027ee1e9a4677e"}, {"is_disabled": 0, "is_reserved": 0, "fusion_lat": 0.0, "lat": 38.97475566666667, "fusion_lon": 0.0, "rental_uris": {"ios": "https://dc.lft.to/lastmile_qr_scan", "android": "https://dc.lft.to/lastmile_qr_scan"}, "lon": -77.014902, "bike_id": "98f332d5ac1d2df821fc667a0ec12a40", "type": "electric_scooter", "name": "98f332d5ac1d2df821fc667a0ec12a40"}, {"is_disabled": 0, "is_reserved": 0, "fusion_lat": 0.0, "lat": 38.873724333333335, "fusion_lon": 0.0, "rental_uris": {"ios": "https://dc.lft.to/lastmile_qr_scan", "android": "https://dc.lft.to/lastmile_qr_scan"}, "lon": -77.0009105, "bike_id": "261c859d14489219710a8dcf9e8053aa", "type": "electric_scooter", "name": "261c859d14489219710a8dcf9e8053aa"}, {"is_disabled": 0, "is_reserved": 0, "fusion_lat": 0.0, "lat": 38.906785666666664, "fusion_lon": 0.0, "rental_uris": {"ios": "https://dc.lft.to/lastmile_qr_scan", "android": "https://dc.lft.to/lastmile_qr_scan"}, "lon": -77.02719633333334, "bike_id": "041060de5063ab534b0af7e5ac022f30", "type": "electric_scooter", "name": "041060de5063ab534b0af7e5ac022f30"}, {"is_disabled": 0, "is_reserved": 0, "fusion_lat": 0.0, "lat": 38.89482116666667, "fusion_lon": 0.0, "rental_uris": {"ios": "https://dc.lft.to/lastmile_qr_scan", "android": "https://dc.lft.to/lastmile_qr_scan"}, "lon": -76.978831, "bike_id": "3f4529afc2032e1a9b94ae5caa72bc89", "type": "electric_scooter", "name": "3f4529afc2032e1a9b94ae5caa72bc89"}, {"is_disabled": 0, "is_reserved": 0, "fusion_lat": 0.0, "lat": 38.905726333333334, "fusion_lon": 0.0, "rental_uris": {"ios": "https://dc.lft.to/lastmile_qr_scan", "android": "https://dc.lft.to/lastmile_qr_scan"}, "lon": -77.00456416666667, "bike_id": "96029173b8d709b1d4a9c8d84418c67e", "type": "electric_scooter", "name": "96029173b8d709b1d4a9c8d84418c67e"}, {"is_disabled": 0, "is_reserved": 0, "fusion_lat": 0.0, "lat": 38.919206333333335, "fusion_lon": 0.0, "rental_uris": {"ios": "https://dc.lft.to/lastmile_qr_scan", "android": "https://dc.lft.to/lastmile_qr_scan"}, "lon": -77.046288, "bike_id": "345c5bcdab344ed8f9b1299979283dd5", "type": "electric_scooter", "name": "345c5bcdab344ed8f9b1299979283dd5"}, {"is_disabled": 0, "is_reserved": 0, "fusion_lat": 0.0, "lat": 38.917294, "fusion_lon": 0.0, "rental_uris": {"ios": "https://dc.lft.to/lastmile_qr_scan", "android": "https://dc.lft.to/lastmile_qr_scan"}, "lon": -77.03322666666666, "bike_id": "386ceda16819cff04a37c26016bdfcb5", "type": "electric_scooter", "name": "386ceda16819cff04a37c26016bdfcb5"}, {"is_disabled": 0, "is_reserved": 0, "fusion_lat": 0.0, "lat": 38.923509333333335, "fusion_lon": 0.0, "rental_uris": {"ios": "https://dc.lft.to/lastmile_qr_scan", "android": "https://dc.lft.to/lastmile_qr_scan"}, "lon": -77.03521616666667, "bike_id": "bfec426487c7ced20ba2b19c29593d57", "type": "electric_scooter", "name": "bfec426487c7ced20ba2b19c29593d57"}, {"is_disabled": 0, "is_reserved": 0, "fusion_lat": 0.0, "lat": 38.88658733333333, "fusion_lon": 0.0, "rental_uris": {"ios": "https://dc.lft.to/lastmile_qr_scan", "android": "https://dc.lft.to/lastmile_qr_scan"}, "lon": -77.02838166666666, "bike_id": "cb87b48493302c0c0c74f55f5dca59f3", "type": "electric_scooter", "name": "cb87b48493302c0c0c74f55f5dca59f3"}, {"is_disabled": 0, "is_reserved": 0, "fusion_lat": 0.0, "lat": 38.895955, "fusion_lon": 0.0, "rental_uris": {"ios": "https://dc.lft.to/lastmile_qr_scan", "android": "https://dc.lft.to/lastmile_qr_scan"}, "lon": -76.9832615, "bike_id": "f2f6fefcff79d3779772cce5111a9197", "type": "electric_scooter", "name": "f2f6fefcff79d3779772cce5111a9197"}, {"is_disabled": 0, "is_reserved": 0, "fusion_lat": 0.0, "lat": 38.9044395, "fusion_lon": 0.0, "rental_uris": {"ios": "https://dc.lft.to/lastmile_qr_scan", "android": "https://dc.lft.to/lastmile_qr_scan"}, "lon": -77.02699466666667, "bike_id": "3deb04c6e9722c238c67b74defa843dc", "type": "electric_scooter", "name": "3deb04c6e9722c238c67b74defa843dc"}, {"is_disabled": 0, "is_reserved": 0, "fusion_lat": 0.0, "lat": 38.8756195, "fusion_lon": 0.0, "rental_uris": {"ios": "https://dc.lft.to/lastmile_qr_scan", "android": "https://dc.lft.to/lastmile_qr_scan"}, "lon": -77.00607916666667, "bike_id": "5d6222198518db0c049a0d45be21f794", "type": "electric_scooter", "name": "5d6222198518db0c049a0d45be21f794"}, {"is_disabled": 0, "is_reserved": 0, "fusion_lat": 0.0, "lat": 38.915749, "fusion_lon": 0.0, "rental_uris": {"ios": "https://dc.lft.to/lastmile_qr_scan", "android": "https://dc.lft.to/lastmile_qr_scan"}, "lon": -77.05035416666666, "bike_id": "1a04c8899a3da3650b2e78ed2bbdb8cb", "type": "electric_scooter", "name": "1a04c8899a3da3650b2e78ed2bbdb8cb"}, {"is_disabled": 0, "is_reserved": 0, "fusion_lat": 0.0, "lat": 38.92108616666667, "fusion_lon": 0.0, "rental_uris": {"ios": "https://dc.lft.to/lastmile_qr_scan", "android": "https://dc.lft.to/lastmile_qr_scan"}, "lon": -77.03169633333333, "bike_id": "9c910ddbcac62a311888202a9088d3b5", "type": "electric_scooter", "name": "9c910ddbcac62a311888202a9088d3b5"}, {"is_disabled": 0, "is_reserved": 0, "fusion_lat": 0.0, "lat": 38.868886333333336, "fusion_lon": 0.0, "rental_uris": {"ios": "https://dc.lft.to/lastmile_qr_scan", "android": "https://dc.lft.to/lastmile_qr_scan"}, "lon": -76.98999916666666, "bike_id": "4f5289ca14126ad412407a36106a89fe", "type": "electric_scooter", "name": "4f5289ca14126ad412407a36106a89fe"}, {"is_disabled": 0, "is_reserved": 0, "fusion_lat": 0.0, "lat": 38.91421366666667, "fusion_lon": 0.0, "rental_uris": {"ios": "https://dc.lft.to/lastmile_qr_scan", "android": "https://dc.lft.to/lastmile_qr_scan"}, "lon": -77.02226633333333, "bike_id": "c57efc2cf15dcb3d7d28711b6f680293", "type": "electric_scooter", "name": "c57efc2cf15dcb3d7d28711b6f680293"}, {"is_disabled": 0, "is_reserved": 0, "fusion_lat": 0.0, "lat": 38.846755333333334, "fusion_lon": 0.0, "rental_uris": {"ios": "https://dc.lft.to/lastmile_qr_scan", "android": "https://dc.lft.to/lastmile_qr_scan"}, "lon": -77.139402, "bike_id": "0e8f590d3c812437396641085ae67743", "type": "electric_bike", "name": "0e8f590d3c812437396641085ae67743"}, {"is_disabled": 0, "is_reserved": 0, "fusion_lat": 0.0, "lat": 38.932712333333335, "fusion_lon": 0.0, "rental_uris": {"ios": "https://dc.lft.to/lastmile_qr_scan", "android": "https://dc.lft.to/lastmile_qr_scan"}, "lon": -77.020964, "bike_id": "e17973241ec6aff4b60299c49a2f281f", "type": "electric_scooter", "name": "e17973241ec6aff4b60299c49a2f281f"}, {"is_disabled": 0, "is_reserved": 0, "fusion_lat": 0.0, "lat": 38.9224035, "fusion_lon": 0.0, "rental_uris": {"ios": "https://dc.lft.to/lastmile_qr_scan", "android": "https://dc.lft.to/lastmile_qr_scan"}, "lon": -77.03896733333333, "bike_id": "dafa83206b6001c948132bbff2b00069", "type": "electric_scooter", "name": "dafa83206b6001c948132bbff2b00069"}, {"is_disabled": 0, "is_reserved": 0, "fusion_lat": 0.0, "lat": 38.92004416666666, "fusion_lon": 0.0, "rental_uris": {"ios": "https://dc.lft.to/lastmile_qr_scan", "android": "https://dc.lft.to/lastmile_qr_scan"}, "lon": -77.02161216666667, "bike_id": "0b72d9c27330608c3ff672bc947e8ca7", "type": "electric_scooter", "name": "0b72d9c27330608c3ff672bc947e8ca7"}, {"is_disabled": 0, "is_reserved": 0, "fusion_lat": 0.0, "lat": 38.88490616666667, "fusion_lon": 0.0, "rental_uris": {"ios": "https://dc.lft.to/lastmile_qr_scan", "android": "https://dc.lft.to/lastmile_qr_scan"}, "lon": -77.03476333333333, "bike_id": "680b35f57dfa2efd6fae07e40438451d", "type": "electric_scooter", "name": "680b35f57dfa2efd6fae07e40438451d"}, {"is_disabled": 0, "is_reserved": 0, "fusion_lat": 0.0, "lat": 38.914640166666665, "fusion_lon": 0.0, "rental_uris": {"ios": "https://dc.lft.to/lastmile_qr_scan", "android": "https://dc.lft.to/lastmile_qr_scan"}, "lon": -77.0179215, "bike_id": "9376a1b6b047128c763591d7e57cf0f0", "type": "electric_scooter", "name": "9376a1b6b047128c763591d7e57cf0f0"}, {"is_disabled": 0, "is_reserved": 0, "fusion_lat": 0.0, "lat": 38.8997875, "fusion_lon": 0.0, "rental_uris": {"ios": "https://dc.lft.to/lastmile_qr_scan", "android": "https://dc.lft.to/lastmile_qr_scan"}, "lon": -77.02344683333334, "bike_id": "adcbf27be44660e1f21d155059585797", "type": "electric_scooter", "name": "adcbf27be44660e1f21d155059585797"}, {"is_disabled": 0, "is_reserved": 0, "fusion_lat": 0.0, "lat": 38.91547116666667, "fusion_lon": 0.0, "rental_uris": {"ios": "https://dc.lft.to/lastmile_qr_scan", "android": "https://dc.lft.to/lastmile_qr_scan"}, "lon": -77.05105933333333, "bike_id": "18232b2e560495d021a3688b1cf86399", "type": "electric_scooter", "name": "18232b2e560495d021a3688b1cf86399"}, {"is_disabled": 0, "is_reserved": 0, "fusion_lat": 0.0, "lat": 38.88966333333333, "fusion_lon": 0.0, "rental_uris": {"ios": "https://dc.lft.to/lastmile_qr_scan", "android": "https://dc.lft.to/lastmile_qr_scan"}, "lon": -76.98034583333333, "bike_id": "8896862571e02c773c1e1c064051f66f", "type": "electric_scooter", "name": "8896862571e02c773c1e1c064051f66f"}, {"is_disabled": 0, "is_reserved": 0, "fusion_lat": 0.0, "lat": 38.934015, "fusion_lon": 0.0, "rental_uris": {"ios": "https://dc.lft.to/lastmile_qr_scan", "android": "https://dc.lft.to/lastmile_qr_scan"}, "lon": -77.03537683333333, "bike_id": "f3667fe1c8c5498ba5af58b784b2f2f8", "type": "electric_bike", "name": "f3667fe1c8c5498ba5af58b784b2f2f8"}, {"is_disabled": 0, "is_reserved": 0, "fusion_lat": 0.0, "lat": 38.87175083333333, "fusion_lon": 0.0, "rental_uris": {"ios": "https://dc.lft.to/lastmile_qr_scan", "android": "https://dc.lft.to/lastmile_qr_scan"}, "lon": -77.00626833333334, "bike_id": "281c6133c2f75a1f2c80d75d9c8db62c", "type": "electric_scooter", "name": "281c6133c2f75a1f2c80d75d9c8db62c"}, {"is_disabled": 0, "is_reserved": 0, "fusion_lat": 0.0, "lat": 38.857152166666665, "fusion_lon": 0.0, "rental_uris": {"ios": "https://dc.lft.to/lastmile_qr_scan", "android": "https://dc.lft.to/lastmile_qr_scan"}, "lon": -76.98095816666667, "bike_id": "4597b84acfaedf6ba77046ac186d3572", "type": "electric_scooter", "name": "4597b84acfaedf6ba77046ac186d3572"}, {"is_disabled": 0, "is_reserved": 0, "fusion_lat": 0.0, "lat": 38.90766583333333, "fusion_lon": 0.0, "rental_uris": {"ios": "https://dc.lft.to/lastmile_qr_scan", "android": "https://dc.lft.to/lastmile_qr_scan"}, "lon": -77.04246733333333, "bike_id": "d458d46673df1d2c90581e8670e6884b", "type": "electric_scooter", "name": "d458d46673df1d2c90581e8670e6884b"}, {"is_disabled": 0, "is_reserved": 0, "fusion_lat": 0.0, "lat": 38.8967525, "fusion_lon": 0.0, "rental_uris": {"ios": "https://dc.lft.to/lastmile_qr_scan", "android": "https://dc.lft.to/lastmile_qr_scan"}, "lon": -77.05466933333334, "bike_id": "2c9111feceed8660454d9e9f9dc722c3", "type": "electric_scooter", "name": "2c9111feceed8660454d9e9f9dc722c3"}, {"is_disabled": 0, "is_reserved": 0, "fusion_lat": 0.0, "lat": 38.902635333333336, "fusion_lon": 0.0, "rental_uris": {"ios": "https://dc.lft.to/lastmile_qr_scan", "android": "https://dc.lft.to/lastmile_qr_scan"}, "lon": -77.0176605, "bike_id": "015cb1664b0c5af3f71651e47d662bbc", "type": "electric_scooter", "name": "015cb1664b0c5af3f71651e47d662bbc"}, {"is_disabled": 0, "is_reserved": 0, "fusion_lat": 0.0, "lat": 38.88480583333333, "fusion_lon": 0.0, "rental_uris": {"ios": "https://dc.lft.to/lastmile_qr_scan", "android": "https://dc.lft.to/lastmile_qr_scan"}, "lon": -77.02633116666667, "bike_id": "c50867429e18ce9989e32322eeba7069", "type": "electric_scooter", "name": "c50867429e18ce9989e32322eeba7069"}, {"is_disabled": 0, "is_reserved": 0, "fusion_lat": 0.0, "lat": 38.90581016666667, "fusion_lon": 0.0, "rental_uris": {"ios": "https://dc.lft.to/lastmile_qr_scan", "android": "https://dc.lft.to/lastmile_qr_scan"}, "lon": -77.00733466666667, "bike_id": "2a004fcd076d21c2167e2c370d3f83f8", "type": "electric_scooter", "name": "2a004fcd076d21c2167e2c370d3f83f8"}, {"is_disabled": 0, "is_reserved": 0, "fusion_lat": 0.0, "lat": 38.807677, "fusion_lon": 0.0, "rental_uris": {"ios": "https://dc.lft.to/lastmile_qr_scan", "android": "https://dc.lft.to/lastmile_qr_scan"}, "lon": -77.0574165, "bike_id": "268606412918f01c09982692b7839ab3", "type": "electric_bike", "name": "268606412918f01c09982692b7839ab3"}, {"is_disabled": 0, "is_reserved": 0, "fusion_lat": 0.0, "lat": 38.89755366666667, "fusion_lon": 0.0, "rental_uris": {"ios": "https://dc.lft.to/lastmile_qr_scan", "android": "https://dc.lft.to/lastmile_qr_scan"}, "lon": -77.02138283333333, "bike_id": "a4304380f2a1df8c39a0dd728f712881", "type": "electric_scooter", "name": "a4304380f2a1df8c39a0dd728f712881"}, {"is_disabled": 0, "is_reserved": 0, "fusion_lat": 0.0, "lat": 38.94922066666667, "fusion_lon": 0.0, "rental_uris": {"ios": "https://dc.lft.to/lastmile_qr_scan", "android": "https://dc.lft.to/lastmile_qr_scan"}, "lon": -77.02319183333333, "bike_id": "7593ad8b5b7925b8fc872ea40c155479", "type": "electric_scooter", "name": "7593ad8b5b7925b8fc872ea40c155479"}, {"is_disabled": 0, "is_reserved": 0, "fusion_lat": 0.0, "lat": 38.9049, "fusion_lon": 0.0, "rental_uris": {"ios": "https://dc.lft.to/lastmile_qr_scan", "android": "https://dc.lft.to/lastmile_qr_scan"}, "lon": -76.949606, "bike_id": "4065ffca766e6a6c398bd913e2dcc9a8", "type": "electric_scooter", "name": "4065ffca766e6a6c398bd913e2dcc9a8"}, {"is_disabled": 0, "is_reserved": 0, "fusion_lat": 0.0, "lat": 38.9389985, "fusion_lon": 0.0, "rental_uris": {"ios": "https://dc.lft.to/lastmile_qr_scan", "android": "https://dc.lft.to/lastmile_qr_scan"}, "lon": -77.07769516666667, "bike_id": "846dca4dc76291ce72573a5cf27abdab", "type": "electric_scooter", "name": "846dca4dc76291ce72573a5cf27abdab"}, {"is_disabled": 0, "is_reserved": 0, "fusion_lat": 0.0, "lat": 38.89603483333333, "fusion_lon": 0.0, "rental_uris": {"ios": "https://dc.lft.to/lastmile_qr_scan", "android": "https://dc.lft.to/lastmile_qr_scan"}, "lon": -77.04540883333334, "bike_id": "0756c63ceb4e3cc133010b9703c02a30", "type": "electric_scooter", "name": "0756c63ceb4e3cc133010b9703c02a30"}, {"is_disabled": 0, "is_reserved": 0, "fusion_lat": 0.0, "lat": 38.8668165, "fusion_lon": 0.0, "rental_uris": {"ios": "https://dc.lft.to/lastmile_qr_scan", "android": "https://dc.lft.to/lastmile_qr_scan"}, "lon": -76.948551, "bike_id": "06daa1d12f15f3db66971b2e8f8b678d", "type": "electric_scooter", "name": "06daa1d12f15f3db66971b2e8f8b678d"}, {"is_disabled": 0, "is_reserved": 0, "fusion_lat": 0.0, "lat": 38.92435233333333, "fusion_lon": 0.0, "rental_uris": {"ios": "https://dc.lft.to/lastmile_qr_scan", "android": "https://dc.lft.to/lastmile_qr_scan"}, "lon": -77.03401616666666, "bike_id": "983e6c03590431de3f9b5754f273ba17", "type": "electric_scooter", "name": "983e6c03590431de3f9b5754f273ba17"}, {"is_disabled": 0, "is_reserved": 0, "fusion_lat": 0.0, "lat": 38.824329, "fusion_lon": 0.0, "rental_uris": {"ios": "https://dc.lft.to/lastmile_qr_scan", "android": "https://dc.lft.to/lastmile_qr_scan"}, "lon": -77.12044333333333, "bike_id": "9dee7a44db6dc7b63ff644599133fcba", "type": "electric_bike", "name": "9dee7a44db6dc7b63ff644599133fcba"}, {"is_disabled": 0, "is_reserved": 0, "fusion_lat": 0.0, "lat": 38.920612, "fusion_lon": 0.0, "rental_uris": {"ios": "https://dc.lft.to/lastmile_qr_scan", "android": "https://dc.lft.to/lastmile_qr_scan"}, "lon": -77.02409766666666, "bike_id": "52750698a96e59739fb8af280d6bd0f8", "type": "electric_scooter", "name": "52750698a96e59739fb8af280d6bd0f8"}, {"is_disabled": 0, "is_reserved": 0, "fusion_lat": 0.0, "lat": 38.921770333333335, "fusion_lon": 0.0, "rental_uris": {"ios": "https://dc.lft.to/lastmile_qr_scan", "android": "https://dc.lft.to/lastmile_qr_scan"}, "lon": -77.042282, "bike_id": "d60deb0feaf89082622110d97958e1fe", "type": "electric_scooter", "name": "d60deb0feaf89082622110d97958e1fe"}, {"is_disabled": 0, "is_reserved": 0, "fusion_lat": 0.0, "lat": 38.87289066666666, "fusion_lon": 0.0, "rental_uris": {"ios": "https://dc.lft.to/lastmile_qr_scan", "android": "https://dc.lft.to/lastmile_qr_scan"}, "lon": -77.0098775, "bike_id": "c7b571b635901da01bf983b47cebe302", "type": "electric_scooter", "name": "c7b571b635901da01bf983b47cebe302"}, {"is_disabled": 0, "is_reserved": 0, "fusion_lat": 0.0, "lat": 38.85635883333333, "fusion_lon": 0.0, "rental_uris": {"ios": "https://dc.lft.to/lastmile_qr_scan", "android": "https://dc.lft.to/lastmile_qr_scan"}, "lon": -77.06835866666667, "bike_id": "6d9caa7725ee42f86522df39695a7b96", "type": "electric_bike", "name": "6d9caa7725ee42f86522df39695a7b96"}, {"is_disabled": 0, "is_reserved": 0, "fusion_lat": 0.0, "lat": 38.88221766666667, "fusion_lon": 0.0, "rental_uris": {"ios": "https://dc.lft.to/lastmile_qr_scan", "android": "https://dc.lft.to/lastmile_qr_scan"}, "lon": -76.99737616666667, "bike_id": "14c44d7ecbdec34b25642f7e03b420cf", "type": "electric_scooter", "name": "14c44d7ecbdec34b25642f7e03b420cf"}, {"is_disabled": 0, "is_reserved": 0, "fusion_lat": 0.0, "lat": 38.86555, "fusion_lon": 0.0, "rental_uris": {"ios": "https://dc.lft.to/lastmile_qr_scan", "android": "https://dc.lft.to/lastmile_qr_scan"}, "lon": -76.9747695, "bike_id": "caf82187ac9cab9e039bc2ad725460bc", "type": "electric_bike", "name": "caf82187ac9cab9e039bc2ad725460bc"}, {"is_disabled": 0, "is_reserved": 0, "fusion_lat": 0.0, "lat": 38.900725666666666, "fusion_lon": 0.0, "rental_uris": {"ios": "https://dc.lft.to/lastmile_qr_scan", "android": "https://dc.lft.to/lastmile_qr_scan"}, "lon": -77.0382415, "bike_id": "f4259530a9c7c445188a5d84254d858d", "type": "electric_scooter", "name": "f4259530a9c7c445188a5d84254d858d"}, {"is_disabled": 0, "is_reserved": 0, "fusion_lat": 0.0, "lat": 38.93197466666667, "fusion_lon": 0.0, "rental_uris": {"ios": "https://dc.lft.to/lastmile_qr_scan", "android": "https://dc.lft.to/lastmile_qr_scan"}, "lon": -77.01867816666666, "bike_id": "456def12306efa89e537daf8a415f7a9", "type": "electric_scooter", "name": "456def12306efa89e537daf8a415f7a9"}, {"is_disabled": 0, "is_reserved": 0, "fusion_lat": 0.0, "lat": 38.92027216666666, "fusion_lon": 0.0, "rental_uris": {"ios": "https://dc.lft.to/lastmile_qr_scan", "android": "https://dc.lft.to/lastmile_qr_scan"}, "lon": -76.99562483333334, "bike_id": "13a114ddb99929f15bba59ca42dd592b", "type": "electric_scooter", "name": "13a114ddb99929f15bba59ca42dd592b"}, {"is_disabled": 0, "is_reserved": 0, "fusion_lat": 0.0, "lat": 38.9260025, "fusion_lon": 0.0, "rental_uris": {"ios": "https://dc.lft.to/lastmile_qr_scan", "android": "https://dc.lft.to/lastmile_qr_scan"}, "lon": -76.982418, "bike_id": "a6e7449f13d6dd8e0ef5124d1ae4a1f9", "type": "electric_bike", "name": "a6e7449f13d6dd8e0ef5124d1ae4a1f9"}, {"is_disabled": 0, "is_reserved": 0, "fusion_lat": 0.0, "lat": 38.92279416666667, "fusion_lon": 0.0, "rental_uris": {"ios": "https://dc.lft.to/lastmile_qr_scan", "android": "https://dc.lft.to/lastmile_qr_scan"}, "lon": -77.034097, "bike_id": "f38b6b807956535748f7fe9a60016557", "type": "electric_scooter", "name": "f38b6b807956535748f7fe9a60016557"}, {"is_disabled": 0, "is_reserved": 0, "fusion_lat": 0.0, "lat": 38.890839, "fusion_lon": 0.0, "rental_uris": {"ios": "https://dc.lft.to/lastmile_qr_scan", "android": "https://dc.lft.to/lastmile_qr_scan"}, "lon": -76.95469933333334, "bike_id": "458aed4a3eb3347eb4825cfa94a3d0ae", "type": "electric_bike", "name": "458aed4a3eb3347eb4825cfa94a3d0ae"}, {"is_disabled": 0, "is_reserved": 0, "fusion_lat": 0.0, "lat": 38.95635466666667, "fusion_lon": 0.0, "rental_uris": {"ios": "https://dc.lft.to/lastmile_qr_scan", "android": "https://dc.lft.to/lastmile_qr_scan"}, "lon": -77.03631483333334, "bike_id": "1289aba6b03382095a4d092fba2f057c", "type": "electric_scooter", "name": "1289aba6b03382095a4d092fba2f057c"}, {"is_disabled": 0, "is_reserved": 0, "fusion_lat": 0.0, "lat": 38.93000516666667, "fusion_lon": 0.0, "rental_uris": {"ios": "https://dc.lft.to/lastmile_qr_scan", "android": "https://dc.lft.to/lastmile_qr_scan"}, "lon": -77.03209716666667, "bike_id": "5b8ec324bbbe99cced4b4b95b4ca95cf", "type": "electric_scooter", "name": "5b8ec324bbbe99cced4b4b95b4ca95cf"}, {"is_disabled": 0, "is_reserved": 0, "fusion_lat": 0.0, "lat": 38.932808333333334, "fusion_lon": 0.0, "rental_uris": {"ios": "https://dc.lft.to/lastmile_qr_scan", "android": "https://dc.lft.to/lastmile_qr_scan"}, "lon": -77.03504416666667, "bike_id": "a8b07679d0071f3d8b5a873fcdafc898", "type": "electric_scooter", "name": "a8b07679d0071f3d8b5a873fcdafc898"}, {"is_disabled": 0, "is_reserved": 0, "fusion_lat": 0.0, "lat": 38.9225665, "fusion_lon": 0.0, "rental_uris": {"ios": "https://dc.lft.to/lastmile_qr_scan", "android": "https://dc.lft.to/lastmile_qr_scan"}, "lon": -77.04301216666667, "bike_id": "11d6fd1509e0daed1af86257975f244e", "type": "electric_scooter", "name": "11d6fd1509e0daed1af86257975f244e"}, {"is_disabled": 0, "is_reserved": 0, "fusion_lat": 0.0, "lat": 38.922869166666665, "fusion_lon": 0.0, "rental_uris": {"ios": "https://dc.lft.to/lastmile_qr_scan", "android": "https://dc.lft.to/lastmile_qr_scan"}, "lon": -77.036665, "bike_id": "7381b6c3e760b57e17800f9503d0edb0", "type": "electric_scooter", "name": "7381b6c3e760b57e17800f9503d0edb0"}, {"is_disabled": 0, "is_reserved": 0, "fusion_lat": 0.0, "lat": 38.829092, "fusion_lon": 0.0, "rental_uris": {"ios": "https://dc.lft.to/lastmile_qr_scan", "android": "https://dc.lft.to/lastmile_qr_scan"}, "lon": -77.07279933333334, "bike_id": "c38061a729d7d3ff9efaa3361a648434", "type": "electric_bike", "name": "c38061a729d7d3ff9efaa3361a648434"}, {"is_disabled": 0, "is_reserved": 0, "fusion_lat": 0.0, "lat": 38.92661783333333, "fusion_lon": 0.0, "rental_uris": {"ios": "https://dc.lft.to/lastmile_qr_scan", "android": "https://dc.lft.to/lastmile_qr_scan"}, "lon": -77.03724566666666, "bike_id": "ea35e62c230ddbc435ec04cf835a6d92", "type": "electric_scooter", "name": "ea35e62c230ddbc435ec04cf835a6d92"}, {"is_disabled": 0, "is_reserved": 0, "fusion_lat": 0.0, "lat": 38.887384, "fusion_lon": 0.0, "rental_uris": {"ios": "https://dc.lft.to/lastmile_qr_scan", "android": "https://dc.lft.to/lastmile_qr_scan"}, "lon": -76.98359816666667, "bike_id": "82a09a3c97b8275cd5756260f3ae06be", "type": "electric_scooter", "name": "82a09a3c97b8275cd5756260f3ae06be"}, {"is_disabled": 0, "is_reserved": 0, "fusion_lat": 0.0, "lat": 38.926668, "fusion_lon": 0.0, "rental_uris": {"ios": "https://dc.lft.to/lastmile_qr_scan", "android": "https://dc.lft.to/lastmile_qr_scan"}, "lon": -77.0309005, "bike_id": "c6ec1ef84ffa8ec949ffffe5f08cf653", "type": "electric_scooter", "name": "c6ec1ef84ffa8ec949ffffe5f08cf653"}, {"is_disabled": 0, "is_reserved": 0, "fusion_lat": 0.0, "lat": 38.904325, "fusion_lon": 0.0, "rental_uris": {"ios": "https://dc.lft.to/lastmile_qr_scan", "android": "https://dc.lft.to/lastmile_qr_scan"}, "lon": -76.97233833333334, "bike_id": "06571849f6aaf538fdf419b22752425c", "type": "electric_bike", "name": "06571849f6aaf538fdf419b22752425c"}, {"is_disabled": 0, "is_reserved": 0, "fusion_lat": 0.0, "lat": 38.918168, "fusion_lon": 0.0, "rental_uris": {"ios": "https://dc.lft.to/lastmile_qr_scan", "android": "https://dc.lft.to/lastmile_qr_scan"}, "lon": -77.0379575, "bike_id": "8e0a5526b26e78a95fd63482849678d9", "type": "electric_scooter", "name": "8e0a5526b26e78a95fd63482849678d9"}, {"is_disabled": 0, "is_reserved": 0, "fusion_lat": 0.0, "lat": 38.9358945, "fusion_lon": 0.0, "rental_uris": {"ios": "https://dc.lft.to/lastmile_qr_scan", "android": "https://dc.lft.to/lastmile_qr_scan"}, "lon": -77.0285775, "bike_id": "ab82fdf47132e55fadc11543332ec925", "type": "electric_scooter", "name": "ab82fdf47132e55fadc11543332ec925"}, {"is_disabled": 0, "is_reserved": 0, "fusion_lat": 0.0, "lat": 38.919582166666665, "fusion_lon": 0.0, "rental_uris": {"ios": "https://dc.lft.to/lastmile_qr_scan", "android": "https://dc.lft.to/lastmile_qr_scan"}, "lon": -77.07869833333334, "bike_id": "7a67fc6d6878afdbef5a738e54f5efb0", "type": "electric_scooter", "name": "7a67fc6d6878afdbef5a738e54f5efb0"}, {"is_disabled": 0, "is_reserved": 0, "fusion_lat": 0.0, "lat": 38.897060333333336, "fusion_lon": 0.0, "rental_uris": {"ios": "https://dc.lft.to/lastmile_qr_scan", "android": "https://dc.lft.to/lastmile_qr_scan"}, "lon": -77.028002, "bike_id": "db1531c022634bb1f5b1a226143aae85", "type": "electric_scooter", "name": "db1531c022634bb1f5b1a226143aae85"}, {"is_disabled": 0, "is_reserved": 0, "fusion_lat": 0.0, "lat": 38.9075445, "fusion_lon": 0.0, "rental_uris": {"ios": "https://dc.lft.to/lastmile_qr_scan", "android": "https://dc.lft.to/lastmile_qr_scan"}, "lon": -77.0012385, "bike_id": "846d6721a10e1f57c02b1e5bcfe34dab", "type": "electric_scooter", "name": "846d6721a10e1f57c02b1e5bcfe34dab"}, {"is_disabled": 0, "is_reserved": 0, "fusion_lat": 0.0, "lat": 38.917107333333334, "fusion_lon": 0.0, "rental_uris": {"ios": "https://dc.lft.to/lastmile_qr_scan", "android": "https://dc.lft.to/lastmile_qr_scan"}, "lon": -77.0385755, "bike_id": "13498dd791c723b17f7db8103009f61b", "type": "electric_scooter", "name": "13498dd791c723b17f7db8103009f61b"}, {"is_disabled": 0, "is_reserved": 0, "fusion_lat": 0.0, "lat": 38.87965066666667, "fusion_lon": 0.0, "rental_uris": {"ios": "https://dc.lft.to/lastmile_qr_scan", "android": "https://dc.lft.to/lastmile_qr_scan"}, "lon": -77.00572916666667, "bike_id": "3c8578808142cca592938b50b30139d0", "type": "electric_scooter", "name": "3c8578808142cca592938b50b30139d0"}, {"is_disabled": 0, "is_reserved": 0, "fusion_lat": 0.0, "lat": 38.92081866666667, "fusion_lon": 0.0, "rental_uris": {"ios": "https://dc.lft.to/lastmile_qr_scan", "android": "https://dc.lft.to/lastmile_qr_scan"}, "lon": -77.01800966666667, "bike_id": "fc824af260b60810d3fa1549babf301a", "type": "electric_scooter", "name": "fc824af260b60810d3fa1549babf301a"}, {"is_disabled": 0, "is_reserved": 0, "fusion_lat": 0.0, "lat": 38.9507435, "fusion_lon": 0.0, "rental_uris": {"ios": "https://dc.lft.to/lastmile_qr_scan", "android": "https://dc.lft.to/lastmile_qr_scan"}, "lon": -77.01200783333333, "bike_id": "e1730827dae2049072cc161b5e50f3ea", "type": "electric_bike", "name": "e1730827dae2049072cc161b5e50f3ea"}, {"is_disabled": 0, "is_reserved": 0, "fusion_lat": 0.0, "lat": 38.879425833333336, "fusion_lon": 0.0, "rental_uris": {"ios": "https://dc.lft.to/lastmile_qr_scan", "android": "https://dc.lft.to/lastmile_qr_scan"}, "lon": -77.00767366666666, "bike_id": "7351228de0fb44b1f71ca306ad8cdeae", "type": "electric_scooter", "name": "7351228de0fb44b1f71ca306ad8cdeae"}, {"is_disabled": 0, "is_reserved": 0, "fusion_lat": 0.0, "lat": 38.911245666666666, "fusion_lon": 0.0, "rental_uris": {"ios": "https://dc.lft.to/lastmile_qr_scan", "android": "https://dc.lft.to/lastmile_qr_scan"}, "lon": -77.022008, "bike_id": "7b44fcd937b79399d8bd8c893360bb54", "type": "electric_scooter", "name": "7b44fcd937b79399d8bd8c893360bb54"}, {"is_disabled": 0, "is_reserved": 0, "fusion_lat": 0.0, "lat": 38.915502000000004, "fusion_lon": 0.0, "rental_uris": {"ios": "https://dc.lft.to/lastmile_qr_scan", "android": "https://dc.lft.to/lastmile_qr_scan"}, "lon": -77.03175716666667, "bike_id": "1f74371e1b90cb1d870afe3a24b54470", "type": "electric_scooter", "name": "1f74371e1b90cb1d870afe3a24b54470"}, {"is_disabled": 0, "is_reserved": 0, "fusion_lat": 0.0, "lat": 38.9284805, "fusion_lon": 0.0, "rental_uris": {"ios": "https://dc.lft.to/lastmile_qr_scan", "android": "https://dc.lft.to/lastmile_qr_scan"}, "lon": -77.03730466666667, "bike_id": "25f0f3e024629639e6b4001725acd53a", "type": "electric_scooter", "name": "25f0f3e024629639e6b4001725acd53a"}, {"is_disabled": 0, "is_reserved": 0, "fusion_lat": 0.0, "lat": 38.848655666666666, "fusion_lon": 0.0, "rental_uris": {"ios": "https://dc.lft.to/lastmile_qr_scan", "android": "https://dc.lft.to/lastmile_qr_scan"}, "lon": -77.06829083333334, "bike_id": "a68ce1599427edffdbcf706a227e5e54", "type": "electric_bike", "name": "a68ce1599427edffdbcf706a227e5e54"}, {"is_disabled": 0, "is_reserved": 0, "fusion_lat": 0.0, "lat": 38.897434833333335, "fusion_lon": 0.0, "rental_uris": {"ios": "https://dc.lft.to/lastmile_qr_scan", "android": "https://dc.lft.to/lastmile_qr_scan"}, "lon": -76.99227416666666, "bike_id": "1a19f71c7a2c194a97c7f3fd2ea748c2", "type": "electric_bike", "name": "1a19f71c7a2c194a97c7f3fd2ea748c2"}, {"is_disabled": 0, "is_reserved": 0, "fusion_lat": 0.0, "lat": 38.927651166666664, "fusion_lon": 0.0, "rental_uris": {"ios": "https://dc.lft.to/lastmile_qr_scan", "android": "https://dc.lft.to/lastmile_qr_scan"}, "lon": -77.02886783333334, "bike_id": "7b6caaa8d8ac0710d3cd16e476725ebf", "type": "electric_scooter", "name": "7b6caaa8d8ac0710d3cd16e476725ebf"}, {"is_disabled": 0, "is_reserved": 0, "fusion_lat": 0.0, "lat": 38.89807016666666, "fusion_lon": 0.0, "rental_uris": {"ios": "https://dc.lft.to/lastmile_qr_scan", "android": "https://dc.lft.to/lastmile_qr_scan"}, "lon": -77.0295215, "bike_id": "5a901224afe2f5adf5a6dd89444f123a", "type": "electric_scooter", "name": "5a901224afe2f5adf5a6dd89444f123a"}, {"is_disabled": 0, "is_reserved": 0, "fusion_lat": 0.0, "lat": 38.9289575, "fusion_lon": 0.0, "rental_uris": {"ios": "https://dc.lft.to/lastmile_qr_scan", "android": "https://dc.lft.to/lastmile_qr_scan"}, "lon": -77.03272033333333, "bike_id": "f194f0ea012feef3e0859ee270a57b71", "type": "electric_scooter", "name": "f194f0ea012feef3e0859ee270a57b71"}, {"is_disabled": 0, "is_reserved": 0, "fusion_lat": 0.0, "lat": 38.93550033333333, "fusion_lon": 0.0, "rental_uris": {"ios": "https://dc.lft.to/lastmile_qr_scan", "android": "https://dc.lft.to/lastmile_qr_scan"}, "lon": -77.07707783333333, "bike_id": "c38a25d08d892dfaa44249cd13e20a9c", "type": "electric_scooter", "name": "c38a25d08d892dfaa44249cd13e20a9c"}, {"is_disabled": 0, "is_reserved": 0, "fusion_lat": 0.0, "lat": 38.92587566666667, "fusion_lon": 0.0, "rental_uris": {"ios": "https://dc.lft.to/lastmile_qr_scan", "android": "https://dc.lft.to/lastmile_qr_scan"}, "lon": -77.04407266666666, "bike_id": "139f0da2136897f765a777baad9ba62d", "type": "electric_scooter", "name": "139f0da2136897f765a777baad9ba62d"}, {"is_disabled": 0, "is_reserved": 0, "fusion_lat": 0.0, "lat": 38.892347, "fusion_lon": 0.0, "rental_uris": {"ios": "https://dc.lft.to/lastmile_qr_scan", "android": "https://dc.lft.to/lastmile_qr_scan"}, "lon": -77.03191083333333, "bike_id": "d8eda64cb591001253770a4610dd3814", "type": "electric_scooter", "name": "d8eda64cb591001253770a4610dd3814"}, {"is_disabled": 0, "is_reserved": 0, "fusion_lat": 0.0, "lat": 38.91678683333333, "fusion_lon": 0.0, "rental_uris": {"ios": "https://dc.lft.to/lastmile_qr_scan", "android": "https://dc.lft.to/lastmile_qr_scan"}, "lon": -77.029709, "bike_id": "86d379871992e9c176b5d14abea1d023", "type": "electric_scooter", "name": "86d379871992e9c176b5d14abea1d023"}, {"is_disabled": 0, "is_reserved": 0, "fusion_lat": 0.0, "lat": 38.914175, "fusion_lon": 0.0, "rental_uris": {"ios": "https://dc.lft.to/lastmile_qr_scan", "android": "https://dc.lft.to/lastmile_qr_scan"}, "lon": -77.031776, "bike_id": "14cb81a501dffc382c61d30de605049e", "type": "electric_scooter", "name": "14cb81a501dffc382c61d30de605049e"}, {"is_disabled": 0, "is_reserved": 0, "fusion_lat": 0.0, "lat": 38.924803833333335, "fusion_lon": 0.0, "rental_uris": {"ios": "https://dc.lft.to/lastmile_qr_scan", "android": "https://dc.lft.to/lastmile_qr_scan"}, "lon": -77.02837833333334, "bike_id": "e3ad9e4220cb84a275a69ea5cfd52c35", "type": "electric_scooter", "name": "e3ad9e4220cb84a275a69ea5cfd52c35"}, {"is_disabled": 0, "is_reserved": 0, "fusion_lat": 0.0, "lat": 38.891798, "fusion_lon": 0.0, "rental_uris": {"ios": "https://dc.lft.to/lastmile_qr_scan", "android": "https://dc.lft.to/lastmile_qr_scan"}, "lon": -77.03180583333334, "bike_id": "37cb874e342ab5759a73d96a3c0dcf02", "type": "electric_scooter", "name": "37cb874e342ab5759a73d96a3c0dcf02"}, {"is_disabled": 0, "is_reserved": 0, "fusion_lat": 0.0, "lat": 38.87174366666667, "fusion_lon": 0.0, "rental_uris": {"ios": "https://dc.lft.to/lastmile_qr_scan", "android": "https://dc.lft.to/lastmile_qr_scan"}, "lon": -77.0062355, "bike_id": "9133305441d82dccb24113cd7deaaf07", "type": "electric_scooter", "name": "9133305441d82dccb24113cd7deaaf07"}, {"is_disabled": 0, "is_reserved": 0, "fusion_lat": 0.0, "lat": 38.938602, "fusion_lon": 0.0, "rental_uris": {"ios": "https://dc.lft.to/lastmile_qr_scan", "android": "https://dc.lft.to/lastmile_qr_scan"}, "lon": -76.9943225, "bike_id": "27a76607a51bcd8a162e684bd6f9eeda", "type": "electric_scooter", "name": "27a76607a51bcd8a162e684bd6f9eeda"}, {"is_disabled": 0, "is_reserved": 0, "fusion_lat": 0.0, "lat": 38.9233515, "fusion_lon": 0.0, "rental_uris": {"ios": "https://dc.lft.to/lastmile_qr_scan", "android": "https://dc.lft.to/lastmile_qr_scan"}, "lon": -77.05674266666666, "bike_id": "4b35f1e6043d77b9ef5b79cd2be74022", "type": "electric_scooter", "name": "4b35f1e6043d77b9ef5b79cd2be74022"}, {"is_disabled": 0, "is_reserved": 0, "fusion_lat": 0.0, "lat": 38.902206666666665, "fusion_lon": 0.0, "rental_uris": {"ios": "https://dc.lft.to/lastmile_qr_scan", "android": "https://dc.lft.to/lastmile_qr_scan"}, "lon": -76.93176733333334, "bike_id": "3c409fb8ff7286fbde30339e44a08b49", "type": "electric_bike", "name": "3c409fb8ff7286fbde30339e44a08b49"}, {"is_disabled": 0, "is_reserved": 0, "fusion_lat": 0.0, "lat": 38.90685966666667, "fusion_lon": 0.0, "rental_uris": {"ios": "https://dc.lft.to/lastmile_qr_scan", "android": "https://dc.lft.to/lastmile_qr_scan"}, "lon": -76.97931233333334, "bike_id": "d38e9b752c04f02b49a532eda26b1642", "type": "electric_scooter", "name": "d38e9b752c04f02b49a532eda26b1642"}, {"is_disabled": 0, "is_reserved": 0, "fusion_lat": 0.0, "lat": 38.911957666666666, "fusion_lon": 0.0, "rental_uris": {"ios": "https://dc.lft.to/lastmile_qr_scan", "android": "https://dc.lft.to/lastmile_qr_scan"}, "lon": -77.00281116666666, "bike_id": "f8c1795f035302fdeb7b7e494fe6068b", "type": "electric_bike", "name": "f8c1795f035302fdeb7b7e494fe6068b"}, {"is_disabled": 0, "is_reserved": 0, "fusion_lat": 0.0, "lat": 38.92316116666667, "fusion_lon": 0.0, "rental_uris": {"ios": "https://dc.lft.to/lastmile_qr_scan", "android": "https://dc.lft.to/lastmile_qr_scan"}, "lon": -77.0392325, "bike_id": "eb288eabb306919f39a1ced45b7e3fa8", "type": "electric_scooter", "name": "eb288eabb306919f39a1ced45b7e3fa8"}, {"is_disabled": 0, "is_reserved": 0, "fusion_lat": 0.0, "lat": 38.9079665, "fusion_lon": 0.0, "rental_uris": {"ios": "https://dc.lft.to/lastmile_qr_scan", "android": "https://dc.lft.to/lastmile_qr_scan"}, "lon": -77.00230633333334, "bike_id": "66bace3647f6df0a6609c451f15c6995", "type": "electric_scooter", "name": "66bace3647f6df0a6609c451f15c6995"}, {"is_disabled": 0, "is_reserved": 0, "fusion_lat": 0.0, "lat": 38.94099116666667, "fusion_lon": 0.0, "rental_uris": {"ios": "https://dc.lft.to/lastmile_qr_scan", "android": "https://dc.lft.to/lastmile_qr_scan"}, "lon": -77.03283683333333, "bike_id": "9c49aceccaa67cb8ec396a733b31c20b", "type": "electric_scooter", "name": "9c49aceccaa67cb8ec396a733b31c20b"}, {"is_disabled": 0, "is_reserved": 0, "fusion_lat": 0.0, "lat": 38.879945, "fusion_lon": 0.0, "rental_uris": {"ios": "https://dc.lft.to/lastmile_qr_scan", "android": "https://dc.lft.to/lastmile_qr_scan"}, "lon": -77.03742283333334, "bike_id": "e309c84d319fd0df795a8b262015cdd0", "type": "electric_scooter", "name": "e309c84d319fd0df795a8b262015cdd0"}, {"is_disabled": 0, "is_reserved": 0, "fusion_lat": 0.0, "lat": 38.83865216666667, "fusion_lon": 0.0, "rental_uris": {"ios": "https://dc.lft.to/lastmile_qr_scan", "android": "https://dc.lft.to/lastmile_qr_scan"}, "lon": -76.9969335, "bike_id": "6a7dd80f3efdb55bf0f49798b629a21f", "type": "electric_bike", "name": "6a7dd80f3efdb55bf0f49798b629a21f"}, {"is_disabled": 0, "is_reserved": 0, "fusion_lat": 0.0, "lat": 38.92237266666667, "fusion_lon": 0.0, "rental_uris": {"ios": "https://dc.lft.to/lastmile_qr_scan", "android": "https://dc.lft.to/lastmile_qr_scan"}, "lon": -77.0271205, "bike_id": "18e938ab75b36a77bab307f5dbbb4594", "type": "electric_scooter", "name": "18e938ab75b36a77bab307f5dbbb4594"}, {"is_disabled": 0, "is_reserved": 0, "fusion_lat": 0.0, "lat": 38.91840966666667, "fusion_lon": 0.0, "rental_uris": {"ios": "https://dc.lft.to/lastmile_qr_scan", "android": "https://dc.lft.to/lastmile_qr_scan"}, "lon": -77.04180866666667, "bike_id": "f0b9c905fa70873fae74b53719041ebc", "type": "electric_scooter", "name": "f0b9c905fa70873fae74b53719041ebc"}, {"is_disabled": 0, "is_reserved": 0, "fusion_lat": 0.0, "lat": 38.928612, "fusion_lon": 0.0, "rental_uris": {"ios": "https://dc.lft.to/lastmile_qr_scan", "android": "https://dc.lft.to/lastmile_qr_scan"}, "lon": -77.07894566666667, "bike_id": "e222cb89251274220da5e0e716d5b92d", "type": "electric_scooter", "name": "e222cb89251274220da5e0e716d5b92d"}, {"is_disabled": 0, "is_reserved": 0, "fusion_lat": 0.0, "lat": 38.904627, "fusion_lon": 0.0, "rental_uris": {"ios": "https://dc.lft.to/lastmile_qr_scan", "android": "https://dc.lft.to/lastmile_qr_scan"}, "lon": -77.04902666666666, "bike_id": "f65c6b574bcf196ddb48db1d061aa0dd", "type": "electric_scooter", "name": "f65c6b574bcf196ddb48db1d061aa0dd"}, {"is_disabled": 0, "is_reserved": 0, "fusion_lat": 0.0, "lat": 38.8779775, "fusion_lon": 0.0, "rental_uris": {"ios": "https://dc.lft.to/lastmile_qr_scan", "android": "https://dc.lft.to/lastmile_qr_scan"}, "lon": -77.00118916666666, "bike_id": "2f0abddccbd3959d80a7e7b62e9c53ec", "type": "electric_scooter", "name": "2f0abddccbd3959d80a7e7b62e9c53ec"}, {"is_disabled": 0, "is_reserved": 0, "fusion_lat": 0.0, "lat": 38.91711516666667, "fusion_lon": 0.0, "rental_uris": {"ios": "https://dc.lft.to/lastmile_qr_scan", "android": "https://dc.lft.to/lastmile_qr_scan"}, "lon": -77.03869566666667, "bike_id": "2ee7aedca5ee88a52e9e3db61882f01b", "type": "electric_scooter", "name": "2ee7aedca5ee88a52e9e3db61882f01b"}, {"is_disabled": 0, "is_reserved": 0, "fusion_lat": 0.0, "lat": 38.9233265, "fusion_lon": 0.0, "rental_uris": {"ios": "https://dc.lft.to/lastmile_qr_scan", "android": "https://dc.lft.to/lastmile_qr_scan"}, "lon": -77.05679183333334, "bike_id": "00a7d53d3088cf52d3be733abeecb6eb", "type": "electric_scooter", "name": "00a7d53d3088cf52d3be733abeecb6eb"}, {"is_disabled": 0, "is_reserved": 0, "fusion_lat": 0.0, "lat": 38.92391516666667, "fusion_lon": 0.0, "rental_uris": {"ios": "https://dc.lft.to/lastmile_qr_scan", "android": "https://dc.lft.to/lastmile_qr_scan"}, "lon": -77.025941, "bike_id": "faf46b424c301e2051701ab810818371", "type": "electric_scooter", "name": "faf46b424c301e2051701ab810818371"}, {"is_disabled": 0, "is_reserved": 0, "fusion_lat": 0.0, "lat": 38.883624166666664, "fusion_lon": 0.0, "rental_uris": {"ios": "https://dc.lft.to/lastmile_qr_scan", "android": "https://dc.lft.to/lastmile_qr_scan"}, "lon": -76.9279195, "bike_id": "96664c1cdbadc0dedfa3327def214373", "type": "electric_scooter", "name": "96664c1cdbadc0dedfa3327def214373"}, {"is_disabled": 0, "is_reserved": 0, "fusion_lat": 0.0, "lat": 38.91842066666667, "fusion_lon": 0.0, "rental_uris": {"ios": "https://dc.lft.to/lastmile_qr_scan", "android": "https://dc.lft.to/lastmile_qr_scan"}, "lon": -77.0391465, "bike_id": "f9b23cf8f85a5cf6d02dcc4ce7456604", "type": "electric_scooter", "name": "f9b23cf8f85a5cf6d02dcc4ce7456604"}, {"is_disabled": 0, "is_reserved": 0, "fusion_lat": 0.0, "lat": 38.9327055, "fusion_lon": 0.0, "rental_uris": {"ios": "https://dc.lft.to/lastmile_qr_scan", "android": "https://dc.lft.to/lastmile_qr_scan"}, "lon": -77.03493483333334, "bike_id": "e54c603c80563ca0dc47bf81fc3de5e8", "type": "electric_scooter", "name": "e54c603c80563ca0dc47bf81fc3de5e8"}, {"is_disabled": 0, "is_reserved": 0, "fusion_lat": 0.0, "lat": 38.87219183333333, "fusion_lon": 0.0, "rental_uris": {"ios": "https://dc.lft.to/lastmile_qr_scan", "android": "https://dc.lft.to/lastmile_qr_scan"}, "lon": -77.22836916666667, "bike_id": "8642fe0df66f2788c78ff53dd7b3d050", "type": "electric_bike", "name": "8642fe0df66f2788c78ff53dd7b3d050"}, {"is_disabled": 0, "is_reserved": 0, "fusion_lat": 0.0, "lat": 38.92242533333334, "fusion_lon": 0.0, "rental_uris": {"ios": "https://dc.lft.to/lastmile_qr_scan", "android": "https://dc.lft.to/lastmile_qr_scan"}, "lon": -77.0307095, "bike_id": "4af95a80b12187e809a2dff11f14b069", "type": "electric_scooter", "name": "4af95a80b12187e809a2dff11f14b069"}, {"is_disabled": 0, "is_reserved": 0, "fusion_lat": 0.0, "lat": 38.9326585, "fusion_lon": 0.0, "rental_uris": {"ios": "https://dc.lft.to/lastmile_qr_scan", "android": "https://dc.lft.to/lastmile_qr_scan"}, "lon": -77.02061216666667, "bike_id": "ee0167c107450563bdc1960db2e2023c", "type": "electric_bike", "name": "ee0167c107450563bdc1960db2e2023c"}, {"is_disabled": 0, "is_reserved": 0, "fusion_lat": 0.0, "lat": 38.9203645, "fusion_lon": 0.0, "rental_uris": {"ios": "https://dc.lft.to/lastmile_qr_scan", "android": "https://dc.lft.to/lastmile_qr_scan"}, "lon": -77.02594683333334, "bike_id": "59a0473a598e76f5c0a767a0fc26af7a", "type": "electric_scooter", "name": "59a0473a598e76f5c0a767a0fc26af7a"}, {"is_disabled": 0, "is_reserved": 0, "fusion_lat": 0.0, "lat": 38.916908666666664, "fusion_lon": 0.0, "rental_uris": {"ios": "https://dc.lft.to/lastmile_qr_scan", "android": "https://dc.lft.to/lastmile_qr_scan"}, "lon": -77.02519533333333, "bike_id": "6f646d0874d6833c56aeaf01d53a5f41", "type": "electric_scooter", "name": "6f646d0874d6833c56aeaf01d53a5f41"}, {"is_disabled": 0, "is_reserved": 0, "fusion_lat": 0.0, "lat": 38.9158905, "fusion_lon": 0.0, "rental_uris": {"ios": "https://dc.lft.to/lastmile_qr_scan", "android": "https://dc.lft.to/lastmile_qr_scan"}, "lon": -77.019998, "bike_id": "9dc64ebfc69dc93e7cd02dbcb234cc25", "type": "electric_scooter", "name": "9dc64ebfc69dc93e7cd02dbcb234cc25"}, {"is_disabled": 0, "is_reserved": 0, "fusion_lat": 0.0, "lat": 38.898938, "fusion_lon": 0.0, "rental_uris": {"ios": "https://dc.lft.to/lastmile_qr_scan", "android": "https://dc.lft.to/lastmile_qr_scan"}, "lon": -77.00194783333333, "bike_id": "39ef4cbc929459b155ee5b97095396c5", "type": "electric_bike", "name": "39ef4cbc929459b155ee5b97095396c5"}, {"is_disabled": 0, "is_reserved": 0, "fusion_lat": 0.0, "lat": 38.905408333333334, "fusion_lon": 0.0, "rental_uris": {"ios": "https://dc.lft.to/lastmile_qr_scan", "android": "https://dc.lft.to/lastmile_qr_scan"}, "lon": -77.02227966666666, "bike_id": "8ac8e240146f69bb2038350bd355b2b7", "type": "electric_scooter", "name": "8ac8e240146f69bb2038350bd355b2b7"}, {"is_disabled": 0, "is_reserved": 0, "fusion_lat": 0.0, "lat": 38.878442166666666, "fusion_lon": 0.0, "rental_uris": {"ios": "https://dc.lft.to/lastmile_qr_scan", "android": "https://dc.lft.to/lastmile_qr_scan"}, "lon": -76.93134, "bike_id": "40c9a099cbaf97bf89fa6232722d7d6a", "type": "electric_scooter", "name": "40c9a099cbaf97bf89fa6232722d7d6a"}, {"is_disabled": 0, "is_reserved": 0, "fusion_lat": 0.0, "lat": 38.918173333333336, "fusion_lon": 0.0, "rental_uris": {"ios": "https://dc.lft.to/lastmile_qr_scan", "android": "https://dc.lft.to/lastmile_qr_scan"}, "lon": -77.02474433333333, "bike_id": "c11a21d7c2c6e226098ebd6a0e328dcf", "type": "electric_scooter", "name": "c11a21d7c2c6e226098ebd6a0e328dcf"}, {"is_disabled": 0, "is_reserved": 0, "fusion_lat": 0.0, "lat": 39.010665833333334, "fusion_lon": 0.0, "rental_uris": {"ios": "https://dc.lft.to/lastmile_qr_scan", "android": "https://dc.lft.to/lastmile_qr_scan"}, "lon": -76.92243666666667, "bike_id": "6535225dc199b8593438b3b80e724222", "type": "electric_bike", "name": "6535225dc199b8593438b3b80e724222"}, {"is_disabled": 0, "is_reserved": 0, "fusion_lat": 0.0, "lat": 38.88320783333333, "fusion_lon": 0.0, "rental_uris": {"ios": "https://dc.lft.to/lastmile_qr_scan", "android": "https://dc.lft.to/lastmile_qr_scan"}, "lon": -77.017472, "bike_id": "b901e5d106ede9e5053d1ec802ca2033", "type": "electric_scooter", "name": "b901e5d106ede9e5053d1ec802ca2033"}, {"is_disabled": 0, "is_reserved": 0, "fusion_lat": 0.0, "lat": 38.90776816666666, "fusion_lon": 0.0, "rental_uris": {"ios": "https://dc.lft.to/lastmile_qr_scan", "android": "https://dc.lft.to/lastmile_qr_scan"}, "lon": -77.0453475, "bike_id": "7f9bd7af02c12a97cc5ed117a28c6569", "type": "electric_scooter", "name": "7f9bd7af02c12a97cc5ed117a28c6569"}, {"is_disabled": 0, "is_reserved": 0, "fusion_lat": 0.0, "lat": 38.8073075, "fusion_lon": 0.0, "rental_uris": {"ios": "https://dc.lft.to/lastmile_qr_scan", "android": "https://dc.lft.to/lastmile_qr_scan"}, "lon": -76.992629, "bike_id": "af408edeac6e70d3ddf9e9719265381c", "type": "electric_bike", "name": "af408edeac6e70d3ddf9e9719265381c"}, {"is_disabled": 0, "is_reserved": 0, "fusion_lat": 0.0, "lat": 38.90018, "fusion_lon": 0.0, "rental_uris": {"ios": "https://dc.lft.to/lastmile_qr_scan", "android": "https://dc.lft.to/lastmile_qr_scan"}, "lon": -77.01196316666666, "bike_id": "eded9a3242146bd6200e910686f2ce6c", "type": "electric_scooter", "name": "eded9a3242146bd6200e910686f2ce6c"}, {"is_disabled": 0, "is_reserved": 0, "fusion_lat": 0.0, "lat": 38.870838, "fusion_lon": 0.0, "rental_uris": {"ios": "https://dc.lft.to/lastmile_qr_scan", "android": "https://dc.lft.to/lastmile_qr_scan"}, "lon": -77.010848, "bike_id": "72e923dac2ff9cadeb18ab332643b780", "type": "electric_scooter", "name": "72e923dac2ff9cadeb18ab332643b780"}, {"is_disabled": 0, "is_reserved": 0, "fusion_lat": 0.0, "lat": 38.919247166666665, "fusion_lon": 0.0, "rental_uris": {"ios": "https://dc.lft.to/lastmile_qr_scan", "android": "https://dc.lft.to/lastmile_qr_scan"}, "lon": -77.03422016666667, "bike_id": "a195c2e09f0544c24a8d8035db036053", "type": "electric_scooter", "name": "a195c2e09f0544c24a8d8035db036053"}, {"is_disabled": 0, "is_reserved": 0, "fusion_lat": 0.0, "lat": 38.9622165, "fusion_lon": 0.0, "rental_uris": {"ios": "https://dc.lft.to/lastmile_qr_scan", "android": "https://dc.lft.to/lastmile_qr_scan"}, "lon": -77.02629683333333, "bike_id": "27fbc6fad0e625c3d943a09d1bb7fa7e", "type": "electric_bike", "name": "27fbc6fad0e625c3d943a09d1bb7fa7e"}, {"is_disabled": 0, "is_reserved": 0, "fusion_lat": 0.0, "lat": 38.919894166666666, "fusion_lon": 0.0, "rental_uris": {"ios": "https://dc.lft.to/lastmile_qr_scan", "android": "https://dc.lft.to/lastmile_qr_scan"}, "lon": -77.03249166666667, "bike_id": "0fecff17fa6f212c6a05c89400f0d4b7", "type": "electric_scooter", "name": "0fecff17fa6f212c6a05c89400f0d4b7"}, {"is_disabled": 0, "is_reserved": 0, "fusion_lat": 0.0, "lat": 38.924528, "fusion_lon": 0.0, "rental_uris": {"ios": "https://dc.lft.to/lastmile_qr_scan", "android": "https://dc.lft.to/lastmile_qr_scan"}, "lon": -77.0204025, "bike_id": "700d76e42e929ba32614ed0d21385004", "type": "electric_scooter", "name": "700d76e42e929ba32614ed0d21385004"}, {"is_disabled": 0, "is_reserved": 0, "fusion_lat": 0.0, "lat": 38.9227405, "fusion_lon": 0.0, "rental_uris": {"ios": "https://dc.lft.to/lastmile_qr_scan", "android": "https://dc.lft.to/lastmile_qr_scan"}, "lon": -77.02973, "bike_id": "614a6cf658c870c9c925b35f0e59d90c", "type": "electric_scooter", "name": "614a6cf658c870c9c925b35f0e59d90c"}, {"is_disabled": 0, "is_reserved": 0, "fusion_lat": 0.0, "lat": 38.92360433333333, "fusion_lon": 0.0, "rental_uris": {"ios": "https://dc.lft.to/lastmile_qr_scan", "android": "https://dc.lft.to/lastmile_qr_scan"}, "lon": -77.00192033333333, "bike_id": "bc3b2d0646edcfac0a10af6ecafdea19", "type": "electric_scooter", "name": "bc3b2d0646edcfac0a10af6ecafdea19"}, {"is_disabled": 0, "is_reserved": 0, "fusion_lat": 0.0, "lat": 38.915631166666664, "fusion_lon": 0.0, "rental_uris": {"ios": "https://dc.lft.to/lastmile_qr_scan", "android": "https://dc.lft.to/lastmile_qr_scan"}, "lon": -77.02302016666667, "bike_id": "cc28d1f76942029a8db2565f50e0d8f0", "type": "electric_scooter", "name": "cc28d1f76942029a8db2565f50e0d8f0"}, {"is_disabled": 0, "is_reserved": 0, "fusion_lat": 0.0, "lat": 38.920733166666665, "fusion_lon": 0.0, "rental_uris": {"ios": "https://dc.lft.to/lastmile_qr_scan", "android": "https://dc.lft.to/lastmile_qr_scan"}, "lon": -77.024258, "bike_id": "5421e78acf6373a43e2007b3a304b451", "type": "electric_scooter", "name": "5421e78acf6373a43e2007b3a304b451"}, {"is_disabled": 0, "is_reserved": 0, "fusion_lat": 0.0, "lat": 38.931983333333335, "fusion_lon": 0.0, "rental_uris": {"ios": "https://dc.lft.to/lastmile_qr_scan", "android": "https://dc.lft.to/lastmile_qr_scan"}, "lon": -77.03752216666666, "bike_id": "196fe43ed06be05f77b170929f344e41", "type": "electric_scooter", "name": "196fe43ed06be05f77b170929f344e41"}, {"is_disabled": 0, "is_reserved": 0, "fusion_lat": 0.0, "lat": 38.928730333333334, "fusion_lon": 0.0, "rental_uris": {"ios": "https://dc.lft.to/lastmile_qr_scan", "android": "https://dc.lft.to/lastmile_qr_scan"}, "lon": -77.0382595, "bike_id": "7a13a4eebd8cdfae9bc18dc8350d17d3", "type": "electric_scooter", "name": "7a13a4eebd8cdfae9bc18dc8350d17d3"}, {"is_disabled": 0, "is_reserved": 0, "fusion_lat": 0.0, "lat": 38.9233195, "fusion_lon": 0.0, "rental_uris": {"ios": "https://dc.lft.to/lastmile_qr_scan", "android": "https://dc.lft.to/lastmile_qr_scan"}, "lon": -77.03667233333333, "bike_id": "4398c5392faf274206285f8441c472cd", "type": "electric_scooter", "name": "4398c5392faf274206285f8441c472cd"}, {"is_disabled": 0, "is_reserved": 0, "fusion_lat": 0.0, "lat": 38.921821333333334, "fusion_lon": 0.0, "rental_uris": {"ios": "https://dc.lft.to/lastmile_qr_scan", "android": "https://dc.lft.to/lastmile_qr_scan"}, "lon": -77.021053, "bike_id": "3997d9bbf125890c22175e92ee5befc4", "type": "electric_scooter", "name": "3997d9bbf125890c22175e92ee5befc4"}, {"is_disabled": 0, "is_reserved": 0, "fusion_lat": 0.0, "lat": 38.883747, "fusion_lon": 0.0, "rental_uris": {"ios": "https://dc.lft.to/lastmile_qr_scan", "android": "https://dc.lft.to/lastmile_qr_scan"}, "lon": -76.9237175, "bike_id": "5884b5299495c7ef646400e861c4ece5", "type": "electric_bike", "name": "5884b5299495c7ef646400e861c4ece5"}, {"is_disabled": 0, "is_reserved": 0, "fusion_lat": 0.0, "lat": 38.85898366666667, "fusion_lon": 0.0, "rental_uris": {"ios": "https://dc.lft.to/lastmile_qr_scan", "android": "https://dc.lft.to/lastmile_qr_scan"}, "lon": -77.095572, "bike_id": "64d96eb70cf975cf42d04324c375093a", "type": "electric_bike", "name": "64d96eb70cf975cf42d04324c375093a"}, {"is_disabled": 0, "is_reserved": 0, "fusion_lat": 0.0, "lat": 38.90418566666666, "fusion_lon": 0.0, "rental_uris": {"ios": "https://dc.lft.to/lastmile_qr_scan", "android": "https://dc.lft.to/lastmile_qr_scan"}, "lon": -76.99069683333333, "bike_id": "4966f52154b131ad2caef4ef6d6207cd", "type": "electric_scooter", "name": "4966f52154b131ad2caef4ef6d6207cd"}, {"is_disabled": 0, "is_reserved": 0, "fusion_lat": 0.0, "lat": 38.957036, "fusion_lon": 0.0, "rental_uris": {"ios": "https://dc.lft.to/lastmile_qr_scan", "android": "https://dc.lft.to/lastmile_qr_scan"}, "lon": -77.359709, "bike_id": "654874bf533f8264cee47ab9f45aeaa2", "type": "electric_bike", "name": "654874bf533f8264cee47ab9f45aeaa2"}, {"is_disabled": 0, "is_reserved": 0, "fusion_lat": 0.0, "lat": 38.90973866666667, "fusion_lon": 0.0, "rental_uris": {"ios": "https://dc.lft.to/lastmile_qr_scan", "android": "https://dc.lft.to/lastmile_qr_scan"}, "lon": -77.024085, "bike_id": "b4ec5cdf2d8ba3a6dcf5a079e525e764", "type": "electric_scooter", "name": "b4ec5cdf2d8ba3a6dcf5a079e525e764"}, {"is_disabled": 0, "is_reserved": 0, "fusion_lat": 0.0, "lat": 38.905907666666664, "fusion_lon": 0.0, "rental_uris": {"ios": "https://dc.lft.to/lastmile_qr_scan", "android": "https://dc.lft.to/lastmile_qr_scan"}, "lon": -77.02183766666667, "bike_id": "b28577c44dc5bdf768cb61026fea2fcd", "type": "electric_scooter", "name": "b28577c44dc5bdf768cb61026fea2fcd"}, {"is_disabled": 0, "is_reserved": 0, "fusion_lat": 0.0, "lat": 39.08429783333333, "fusion_lon": 0.0, "rental_uris": {"ios": "https://dc.lft.to/lastmile_qr_scan", "android": "https://dc.lft.to/lastmile_qr_scan"}, "lon": -76.9514465, "bike_id": "aa4e34082e13767697c7c183947ad8ba", "type": "electric_bike", "name": "aa4e34082e13767697c7c183947ad8ba"}, {"is_disabled": 0, "is_reserved": 0, "fusion_lat": 0.0, "lat": 38.88390666666667, "fusion_lon": 0.0, "rental_uris": {"ios": "https://dc.lft.to/lastmile_qr_scan", "android": "https://dc.lft.to/lastmile_qr_scan"}, "lon": -76.93031766666667, "bike_id": "f66ddde36d30acd8182752b7b596821c", "type": "electric_scooter", "name": "f66ddde36d30acd8182752b7b596821c"}, {"is_disabled": 0, "is_reserved": 0, "fusion_lat": 0.0, "lat": 38.934816, "fusion_lon": 0.0, "rental_uris": {"ios": "https://dc.lft.to/lastmile_qr_scan", "android": "https://dc.lft.to/lastmile_qr_scan"}, "lon": -77.0341955, "bike_id": "652c4f20a6c634c611b4cd4651f502af", "type": "electric_scooter", "name": "652c4f20a6c634c611b4cd4651f502af"}, {"is_disabled": 0, "is_reserved": 0, "fusion_lat": 0.0, "lat": 38.9215395, "fusion_lon": 0.0, "rental_uris": {"ios": "https://dc.lft.to/lastmile_qr_scan", "android": "https://dc.lft.to/lastmile_qr_scan"}, "lon": -77.03464866666667, "bike_id": "1c22492a74f65e2d4ffb0416400d861a", "type": "electric_scooter", "name": "1c22492a74f65e2d4ffb0416400d861a"}, {"is_disabled": 0, "is_reserved": 0, "fusion_lat": 0.0, "lat": 38.907170666666666, "fusion_lon": 0.0, "rental_uris": {"ios": "https://dc.lft.to/lastmile_qr_scan", "android": "https://dc.lft.to/lastmile_qr_scan"}, "lon": -77.05307866666666, "bike_id": "186c052dc7eaee9b8a68049957f25a91", "type": "electric_scooter", "name": "186c052dc7eaee9b8a68049957f25a91"}, {"is_disabled": 0, "is_reserved": 0, "fusion_lat": 0.0, "lat": 38.931317666666665, "fusion_lon": 0.0, "rental_uris": {"ios": "https://dc.lft.to/lastmile_qr_scan", "android": "https://dc.lft.to/lastmile_qr_scan"}, "lon": -77.02808266666666, "bike_id": "ae882a99f92a4c41e193c26a6e72eaa4", "type": "electric_scooter", "name": "ae882a99f92a4c41e193c26a6e72eaa4"}, {"is_disabled": 0, "is_reserved": 0, "fusion_lat": 0.0, "lat": 38.935266666666664, "fusion_lon": 0.0, "rental_uris": {"ios": "https://dc.lft.to/lastmile_qr_scan", "android": "https://dc.lft.to/lastmile_qr_scan"}, "lon": -77.081575, "bike_id": "6d004bb21b5f056a6e133918e7c9df33", "type": "electric_scooter", "name": "6d004bb21b5f056a6e133918e7c9df33"}, {"is_disabled": 0, "is_reserved": 0, "fusion_lat": 0.0, "lat": 38.91611416666667, "fusion_lon": 0.0, "rental_uris": {"ios": "https://dc.lft.to/lastmile_qr_scan", "android": "https://dc.lft.to/lastmile_qr_scan"}, "lon": -77.02397783333333, "bike_id": "a7977b4ddca69154f5a9f9b7dde6e44a", "type": "electric_scooter", "name": "a7977b4ddca69154f5a9f9b7dde6e44a"}, {"is_disabled": 0, "is_reserved": 0, "fusion_lat": 0.0, "lat": 38.930540666666666, "fusion_lon": 0.0, "rental_uris": {"ios": "https://dc.lft.to/lastmile_qr_scan", "android": "https://dc.lft.to/lastmile_qr_scan"}, "lon": -77.031934, "bike_id": "874b70fa60f07e7fd57a414690af0ee0", "type": "electric_scooter", "name": "874b70fa60f07e7fd57a414690af0ee0"}, {"is_disabled": 0, "is_reserved": 0, "fusion_lat": 0.0, "lat": 38.8925675, "fusion_lon": 0.0, "rental_uris": {"ios": "https://dc.lft.to/lastmile_qr_scan", "android": "https://dc.lft.to/lastmile_qr_scan"}, "lon": -77.050263, "bike_id": "8bb1ab56d8797b048eb89c780a2c09fe", "type": "electric_scooter", "name": "8bb1ab56d8797b048eb89c780a2c09fe"}, {"is_disabled": 0, "is_reserved": 0, "fusion_lat": 0.0, "lat": 38.89352916666667, "fusion_lon": 0.0, "rental_uris": {"ios": "https://dc.lft.to/lastmile_qr_scan", "android": "https://dc.lft.to/lastmile_qr_scan"}, "lon": -76.9921205, "bike_id": "123f46abe1450d83f25483280bcf25b5", "type": "electric_scooter", "name": "123f46abe1450d83f25483280bcf25b5"}, {"is_disabled": 0, "is_reserved": 0, "fusion_lat": 0.0, "lat": 38.93313666666667, "fusion_lon": 0.0, "rental_uris": {"ios": "https://dc.lft.to/lastmile_qr_scan", "android": "https://dc.lft.to/lastmile_qr_scan"}, "lon": -77.03185533333334, "bike_id": "fd15c94fb912267f213a484401fc4d30", "type": "electric_scooter", "name": "fd15c94fb912267f213a484401fc4d30"}, {"is_disabled": 0, "is_reserved": 0, "fusion_lat": 0.0, "lat": 38.923290333333334, "fusion_lon": 0.0, "rental_uris": {"ios": "https://dc.lft.to/lastmile_qr_scan", "android": "https://dc.lft.to/lastmile_qr_scan"}, "lon": -77.00889716666667, "bike_id": "82230724cb68f063ae884df59169d534", "type": "electric_scooter", "name": "82230724cb68f063ae884df59169d534"}, {"is_disabled": 0, "is_reserved": 0, "fusion_lat": 0.0, "lat": 38.91342083333333, "fusion_lon": 0.0, "rental_uris": {"ios": "https://dc.lft.to/lastmile_qr_scan", "android": "https://dc.lft.to/lastmile_qr_scan"}, "lon": -77.002216, "bike_id": "dd4769b22fa7bc8ce651a301006b8f69", "type": "electric_scooter", "name": "dd4769b22fa7bc8ce651a301006b8f69"}, {"is_disabled": 0, "is_reserved": 0, "fusion_lat": 0.0, "lat": 38.891976166666666, "fusion_lon": 0.0, "rental_uris": {"ios": "https://dc.lft.to/lastmile_qr_scan", "android": "https://dc.lft.to/lastmile_qr_scan"}, "lon": -77.02472933333334, "bike_id": "489899c353d96cf4cf776cd5e03ef541", "type": "electric_scooter", "name": "489899c353d96cf4cf776cd5e03ef541"}, {"is_disabled": 0, "is_reserved": 0, "fusion_lat": 0.0, "lat": 38.917686, "fusion_lon": 0.0, "rental_uris": {"ios": "https://dc.lft.to/lastmile_qr_scan", "android": "https://dc.lft.to/lastmile_qr_scan"}, "lon": -77.0044855, "bike_id": "89c1ba2f6c5207e6e9949ac1206f5a2d", "type": "electric_scooter", "name": "89c1ba2f6c5207e6e9949ac1206f5a2d"}, {"is_disabled": 0, "is_reserved": 0, "fusion_lat": 0.0, "lat": 38.912054499999996, "fusion_lon": 0.0, "rental_uris": {"ios": "https://dc.lft.to/lastmile_qr_scan", "android": "https://dc.lft.to/lastmile_qr_scan"}, "lon": -77.0210405, "bike_id": "c86e3aad1807cdb49074d0f3262081d4", "type": "electric_scooter", "name": "c86e3aad1807cdb49074d0f3262081d4"}, {"is_disabled": 0, "is_reserved": 0, "fusion_lat": 0.0, "lat": 38.92165466666667, "fusion_lon": 0.0, "rental_uris": {"ios": "https://dc.lft.to/lastmile_qr_scan", "android": "https://dc.lft.to/lastmile_qr_scan"}, "lon": -77.03674433333333, "bike_id": "a0f2e8f3c550f9c51580bbbbcaaa1d9c", "type": "electric_scooter", "name": "a0f2e8f3c550f9c51580bbbbcaaa1d9c"}, {"is_disabled": 0, "is_reserved": 0, "fusion_lat": 0.0, "lat": 38.876695166666664, "fusion_lon": 0.0, "rental_uris": {"ios": "https://dc.lft.to/lastmile_qr_scan", "android": "https://dc.lft.to/lastmile_qr_scan"}, "lon": -77.0175985, "bike_id": "1613c58c3dfbb4ceb10ff2d71e911e19", "type": "electric_scooter", "name": "1613c58c3dfbb4ceb10ff2d71e911e19"}, {"is_disabled": 0, "is_reserved": 0, "fusion_lat": 0.0, "lat": 38.88474433333333, "fusion_lon": 0.0, "rental_uris": {"ios": "https://dc.lft.to/lastmile_qr_scan", "android": "https://dc.lft.to/lastmile_qr_scan"}, "lon": -77.03356916666667, "bike_id": "be655aad86fc610cd72b5864ea08349b", "type": "electric_scooter", "name": "be655aad86fc610cd72b5864ea08349b"}, {"is_disabled": 0, "is_reserved": 0, "fusion_lat": 0.0, "lat": 38.902164, "fusion_lon": 0.0, "rental_uris": {"ios": "https://dc.lft.to/lastmile_qr_scan", "android": "https://dc.lft.to/lastmile_qr_scan"}, "lon": -77.02380766666667, "bike_id": "825c1e032c1144b11119648402091257", "type": "electric_scooter", "name": "825c1e032c1144b11119648402091257"}, {"is_disabled": 0, "is_reserved": 0, "fusion_lat": 0.0, "lat": 38.923442, "fusion_lon": 0.0, "rental_uris": {"ios": "https://dc.lft.to/lastmile_qr_scan", "android": "https://dc.lft.to/lastmile_qr_scan"}, "lon": -77.03395933333333, "bike_id": "14a65c3f96cefcc1740f7f3dab3fcad6", "type": "electric_scooter", "name": "14a65c3f96cefcc1740f7f3dab3fcad6"}, {"is_disabled": 0, "is_reserved": 0, "fusion_lat": 0.0, "lat": 38.916734, "fusion_lon": 0.0, "rental_uris": {"ios": "https://dc.lft.to/lastmile_qr_scan", "android": "https://dc.lft.to/lastmile_qr_scan"}, "lon": -77.02960916666666, "bike_id": "f563198ee240670c5806adc1c62c73a7", "type": "electric_scooter", "name": "f563198ee240670c5806adc1c62c73a7"}, {"is_disabled": 0, "is_reserved": 0, "fusion_lat": 0.0, "lat": 38.91981216666667, "fusion_lon": 0.0, "rental_uris": {"ios": "https://dc.lft.to/lastmile_qr_scan", "android": "https://dc.lft.to/lastmile_qr_scan"}, "lon": -77.01807166666667, "bike_id": "7a0927e8f80be51fb849a5ee11ffb57a", "type": "electric_scooter", "name": "7a0927e8f80be51fb849a5ee11ffb57a"}, {"is_disabled": 0, "is_reserved": 0, "fusion_lat": 0.0, "lat": 38.86286783333333, "fusion_lon": 0.0, "rental_uris": {"ios": "https://dc.lft.to/lastmile_qr_scan", "android": "https://dc.lft.to/lastmile_qr_scan"}, "lon": -76.945225, "bike_id": "e2e64b52c42927243142bb76293ec230", "type": "electric_bike", "name": "e2e64b52c42927243142bb76293ec230"}, {"is_disabled": 0, "is_reserved": 0, "fusion_lat": 0.0, "lat": 38.91932633333333, "fusion_lon": 0.0, "rental_uris": {"ios": "https://dc.lft.to/lastmile_qr_scan", "android": "https://dc.lft.to/lastmile_qr_scan"}, "lon": -77.02316583333334, "bike_id": "58e88a051270a35cad72318831545808", "type": "electric_scooter", "name": "58e88a051270a35cad72318831545808"}, {"is_disabled": 0, "is_reserved": 0, "fusion_lat": 0.0, "lat": 38.87289083333334, "fusion_lon": 0.0, "rental_uris": {"ios": "https://dc.lft.to/lastmile_qr_scan", "android": "https://dc.lft.to/lastmile_qr_scan"}, "lon": -77.0098875, "bike_id": "50a8caafcfb8c14a8244ce66024b54aa", "type": "electric_scooter", "name": "50a8caafcfb8c14a8244ce66024b54aa"}, {"is_disabled": 0, "is_reserved": 0, "fusion_lat": 0.0, "lat": 38.938725, "fusion_lon": 0.0, "rental_uris": {"ios": "https://dc.lft.to/lastmile_qr_scan", "android": "https://dc.lft.to/lastmile_qr_scan"}, "lon": -77.06019966666666, "bike_id": "645282090ff1b18ea88217035891a293", "type": "electric_scooter", "name": "645282090ff1b18ea88217035891a293"}, {"is_disabled": 0, "is_reserved": 0, "fusion_lat": 0.0, "lat": 38.8924065, "fusion_lon": 0.0, "rental_uris": {"ios": "https://dc.lft.to/lastmile_qr_scan", "android": "https://dc.lft.to/lastmile_qr_scan"}, "lon": -77.02608316666667, "bike_id": "752b8d9d8b4fd3a1293fd6e242d307f0", "type": "electric_scooter", "name": "752b8d9d8b4fd3a1293fd6e242d307f0"}, {"is_disabled": 0, "is_reserved": 0, "fusion_lat": 0.0, "lat": 38.906615333333335, "fusion_lon": 0.0, "rental_uris": {"ios": "https://dc.lft.to/lastmile_qr_scan", "android": "https://dc.lft.to/lastmile_qr_scan"}, "lon": -76.986037, "bike_id": "d9683b3bfa7aa83191c4b228de27f16b", "type": "electric_scooter", "name": "d9683b3bfa7aa83191c4b228de27f16b"}, {"is_disabled": 0, "is_reserved": 0, "fusion_lat": 0.0, "lat": 38.91672233333333, "fusion_lon": 0.0, "rental_uris": {"ios": "https://dc.lft.to/lastmile_qr_scan", "android": "https://dc.lft.to/lastmile_qr_scan"}, "lon": -77.02716483333333, "bike_id": "ba81abf847ecf262f1dc575611d34740", "type": "electric_scooter", "name": "ba81abf847ecf262f1dc575611d34740"}, {"is_disabled": 0, "is_reserved": 0, "fusion_lat": 0.0, "lat": 38.919857, "fusion_lon": 0.0, "rental_uris": {"ios": "https://dc.lft.to/lastmile_qr_scan", "android": "https://dc.lft.to/lastmile_qr_scan"}, "lon": -77.01796216666666, "bike_id": "057ff83278cff78622ca591bd9435e39", "type": "electric_scooter", "name": "057ff83278cff78622ca591bd9435e39"}, {"is_disabled": 0, "is_reserved": 0, "fusion_lat": 0.0, "lat": 38.96048966666667, "fusion_lon": 0.0, "rental_uris": {"ios": "https://dc.lft.to/lastmile_qr_scan", "android": "https://dc.lft.to/lastmile_qr_scan"}, "lon": -77.00507716666667, "bike_id": "ffe2ac725d22d84b027855c849a105f5", "type": "electric_scooter", "name": "ffe2ac725d22d84b027855c849a105f5"}, {"is_disabled": 0, "is_reserved": 0, "fusion_lat": 0.0, "lat": 38.93742316666667, "fusion_lon": 0.0, "rental_uris": {"ios": "https://dc.lft.to/lastmile_qr_scan", "android": "https://dc.lft.to/lastmile_qr_scan"}, "lon": -77.021311, "bike_id": "581a95b73485bd5c37ec95a742d13586", "type": "electric_scooter", "name": "581a95b73485bd5c37ec95a742d13586"}, {"is_disabled": 0, "is_reserved": 0, "fusion_lat": 0.0, "lat": 38.91818033333333, "fusion_lon": 0.0, "rental_uris": {"ios": "https://dc.lft.to/lastmile_qr_scan", "android": "https://dc.lft.to/lastmile_qr_scan"}, "lon": -77.02696783333333, "bike_id": "0879b3f822828b0226ded1ef930dd848", "type": "electric_scooter", "name": "0879b3f822828b0226ded1ef930dd848"}, {"is_disabled": 0, "is_reserved": 0, "fusion_lat": 0.0, "lat": 38.9217315, "fusion_lon": 0.0, "rental_uris": {"ios": "https://dc.lft.to/lastmile_qr_scan", "android": "https://dc.lft.to/lastmile_qr_scan"}, "lon": -77.04699883333333, "bike_id": "690afc33ed4d93d29eeae44c1b5fb195", "type": "electric_scooter", "name": "690afc33ed4d93d29eeae44c1b5fb195"}, {"is_disabled": 0, "is_reserved": 0, "fusion_lat": 0.0, "lat": 38.93061733333333, "fusion_lon": 0.0, "rental_uris": {"ios": "https://dc.lft.to/lastmile_qr_scan", "android": "https://dc.lft.to/lastmile_qr_scan"}, "lon": -77.04329083333333, "bike_id": "602cc58beb03e354abe1474ccd59a41d", "type": "electric_scooter", "name": "602cc58beb03e354abe1474ccd59a41d"}, {"is_disabled": 0, "is_reserved": 0, "fusion_lat": 0.0, "lat": 38.895041166666665, "fusion_lon": 0.0, "rental_uris": {"ios": "https://dc.lft.to/lastmile_qr_scan", "android": "https://dc.lft.to/lastmile_qr_scan"}, "lon": -77.02111033333334, "bike_id": "80ce7e8324db65a79c054d9ff2e9e3a1", "type": "electric_scooter", "name": "80ce7e8324db65a79c054d9ff2e9e3a1"}, {"is_disabled": 0, "is_reserved": 0, "fusion_lat": 0.0, "lat": 38.9072615, "fusion_lon": 0.0, "rental_uris": {"ios": "https://dc.lft.to/lastmile_qr_scan", "android": "https://dc.lft.to/lastmile_qr_scan"}, "lon": -77.027256, "bike_id": "7604a24929b52fbfc3137671af276393", "type": "electric_scooter", "name": "7604a24929b52fbfc3137671af276393"}, {"is_disabled": 0, "is_reserved": 0, "fusion_lat": 0.0, "lat": 38.8919165, "fusion_lon": 0.0, "rental_uris": {"ios": "https://dc.lft.to/lastmile_qr_scan", "android": "https://dc.lft.to/lastmile_qr_scan"}, "lon": -77.02230533333334, "bike_id": "1e3af020c2e0856c428c80272d87c52c", "type": "electric_scooter", "name": "1e3af020c2e0856c428c80272d87c52c"}, {"is_disabled": 0, "is_reserved": 0, "fusion_lat": 0.0, "lat": 38.891740666666664, "fusion_lon": 0.0, "rental_uris": {"ios": "https://dc.lft.to/lastmile_qr_scan", "android": "https://dc.lft.to/lastmile_qr_scan"}, "lon": -77.015526, "bike_id": "6573bd1040e1c3eef5d801a8c3087e25", "type": "electric_scooter", "name": "6573bd1040e1c3eef5d801a8c3087e25"}, {"is_disabled": 0, "is_reserved": 0, "fusion_lat": 0.0, "lat": 38.90679333333333, "fusion_lon": 0.0, "rental_uris": {"ios": "https://dc.lft.to/lastmile_qr_scan", "android": "https://dc.lft.to/lastmile_qr_scan"}, "lon": -76.979279, "bike_id": "54a65e3f347b08fc41554dd73618d1cb", "type": "electric_scooter", "name": "54a65e3f347b08fc41554dd73618d1cb"}, {"is_disabled": 0, "is_reserved": 0, "fusion_lat": 0.0, "lat": 38.92477316666667, "fusion_lon": 0.0, "rental_uris": {"ios": "https://dc.lft.to/lastmile_qr_scan", "android": "https://dc.lft.to/lastmile_qr_scan"}, "lon": -77.026686, "bike_id": "b86d013c9b8a59328490a5353aced9d8", "type": "electric_scooter", "name": "b86d013c9b8a59328490a5353aced9d8"}, {"is_disabled": 0, "is_reserved": 0, "fusion_lat": 0.0, "lat": 38.887654, "fusion_lon": 0.0, "rental_uris": {"ios": "https://dc.lft.to/lastmile_qr_scan", "android": "https://dc.lft.to/lastmile_qr_scan"}, "lon": -77.03351566666667, "bike_id": "e19143d1784ffce986670297bb3c035f", "type": "electric_scooter", "name": "e19143d1784ffce986670297bb3c035f"}, {"is_disabled": 0, "is_reserved": 0, "fusion_lat": 0.0, "lat": 38.904397833333334, "fusion_lon": 0.0, "rental_uris": {"ios": "https://dc.lft.to/lastmile_qr_scan", "android": "https://dc.lft.to/lastmile_qr_scan"}, "lon": -77.02591016666666, "bike_id": "17c7680b055ddc0232dd9714fe5173b1", "type": "electric_scooter", "name": "17c7680b055ddc0232dd9714fe5173b1"}, {"is_disabled": 0, "is_reserved": 0, "fusion_lat": 0.0, "lat": 38.90412933333333, "fusion_lon": 0.0, "rental_uris": {"ios": "https://dc.lft.to/lastmile_qr_scan", "android": "https://dc.lft.to/lastmile_qr_scan"}, "lon": -77.05345983333333, "bike_id": "329a8b658832fb313be17b44435e9670", "type": "electric_scooter", "name": "329a8b658832fb313be17b44435e9670"}, {"is_disabled": 0, "is_reserved": 0, "fusion_lat": 0.0, "lat": 38.920738166666666, "fusion_lon": 0.0, "rental_uris": {"ios": "https://dc.lft.to/lastmile_qr_scan", "android": "https://dc.lft.to/lastmile_qr_scan"}, "lon": -77.023155, "bike_id": "aafdde96329923d4bb4f6f842f46c22b", "type": "electric_scooter", "name": "aafdde96329923d4bb4f6f842f46c22b"}, {"is_disabled": 0, "is_reserved": 0, "fusion_lat": 0.0, "lat": 38.956049166666666, "fusion_lon": 0.0, "rental_uris": {"ios": "https://dc.lft.to/lastmile_qr_scan", "android": "https://dc.lft.to/lastmile_qr_scan"}, "lon": -77.03304233333333, "bike_id": "ebe6486cab3880dc19ac001869871abe", "type": "electric_scooter", "name": "ebe6486cab3880dc19ac001869871abe"}, {"is_disabled": 0, "is_reserved": 0, "fusion_lat": 0.0, "lat": 38.91985483333333, "fusion_lon": 0.0, "rental_uris": {"ios": "https://dc.lft.to/lastmile_qr_scan", "android": "https://dc.lft.to/lastmile_qr_scan"}, "lon": -77.04165166666667, "bike_id": "39d00fb952cafb63e7594a853b4bc8ff", "type": "electric_scooter", "name": "39d00fb952cafb63e7594a853b4bc8ff"}, {"is_disabled": 0, "is_reserved": 0, "fusion_lat": 0.0, "lat": 38.93527016666667, "fusion_lon": 0.0, "rental_uris": {"ios": "https://dc.lft.to/lastmile_qr_scan", "android": "https://dc.lft.to/lastmile_qr_scan"}, "lon": -77.03263233333334, "bike_id": "5b0d1e976c79ebdb47d3e4e5a9e631a3", "type": "electric_scooter", "name": "5b0d1e976c79ebdb47d3e4e5a9e631a3"}, {"is_disabled": 0, "is_reserved": 0, "fusion_lat": 0.0, "lat": 38.9039175, "fusion_lon": 0.0, "rental_uris": {"ios": "https://dc.lft.to/lastmile_qr_scan", "android": "https://dc.lft.to/lastmile_qr_scan"}, "lon": -76.99003716666667, "bike_id": "51bb0867f46e48948ed0179d48be56ad", "type": "electric_scooter", "name": "51bb0867f46e48948ed0179d48be56ad"}, {"is_disabled": 0, "is_reserved": 0, "fusion_lat": 0.0, "lat": 38.909729666666664, "fusion_lon": 0.0, "rental_uris": {"ios": "https://dc.lft.to/lastmile_qr_scan", "android": "https://dc.lft.to/lastmile_qr_scan"}, "lon": -77.02411283333333, "bike_id": "c4e6a5530101b515b8e52acc6981b02f", "type": "electric_scooter", "name": "c4e6a5530101b515b8e52acc6981b02f"}, {"is_disabled": 0, "is_reserved": 0, "fusion_lat": 0.0, "lat": 38.90080716666667, "fusion_lon": 0.0, "rental_uris": {"ios": "https://dc.lft.to/lastmile_qr_scan", "android": "https://dc.lft.to/lastmile_qr_scan"}, "lon": -77.0590715, "bike_id": "c63120cbfe8cebc459b2cbb88c3163bd", "type": "electric_scooter", "name": "c63120cbfe8cebc459b2cbb88c3163bd"}, {"is_disabled": 0, "is_reserved": 0, "fusion_lat": 0.0, "lat": 38.906338166666664, "fusion_lon": 0.0, "rental_uris": {"ios": "https://dc.lft.to/lastmile_qr_scan", "android": "https://dc.lft.to/lastmile_qr_scan"}, "lon": -77.00893516666666, "bike_id": "1df560440101520196ac75fa1c971574", "type": "electric_scooter", "name": "1df560440101520196ac75fa1c971574"}, {"is_disabled": 0, "is_reserved": 0, "fusion_lat": 0.0, "lat": 38.92974733333333, "fusion_lon": 0.0, "rental_uris": {"ios": "https://dc.lft.to/lastmile_qr_scan", "android": "https://dc.lft.to/lastmile_qr_scan"}, "lon": -77.02793966666667, "bike_id": "10f765960b78ce69f1de20735a058916", "type": "electric_scooter", "name": "10f765960b78ce69f1de20735a058916"}, {"is_disabled": 0, "is_reserved": 0, "fusion_lat": 0.0, "lat": 38.8992835, "fusion_lon": 0.0, "rental_uris": {"ios": "https://dc.lft.to/lastmile_qr_scan", "android": "https://dc.lft.to/lastmile_qr_scan"}, "lon": -77.03239033333334, "bike_id": "ff590dd1e07cafe74cd4752456e67e6d", "type": "electric_scooter", "name": "ff590dd1e07cafe74cd4752456e67e6d"}, {"is_disabled": 0, "is_reserved": 0, "fusion_lat": 0.0, "lat": 38.871633333333335, "fusion_lon": 0.0, "rental_uris": {"ios": "https://dc.lft.to/lastmile_qr_scan", "android": "https://dc.lft.to/lastmile_qr_scan"}, "lon": -77.01361233333333, "bike_id": "8200a102bc2b35697d0149fa1437a794", "type": "electric_scooter", "name": "8200a102bc2b35697d0149fa1437a794"}, {"is_disabled": 0, "is_reserved": 0, "fusion_lat": 0.0, "lat": 38.919767, "fusion_lon": 0.0, "rental_uris": {"ios": "https://dc.lft.to/lastmile_qr_scan", "android": "https://dc.lft.to/lastmile_qr_scan"}, "lon": -77.0181275, "bike_id": "8c384a3c602ddb3ecd9da11beff4821f", "type": "electric_scooter", "name": "8c384a3c602ddb3ecd9da11beff4821f"}, {"is_disabled": 0, "is_reserved": 0, "fusion_lat": 0.0, "lat": 38.88411133333334, "fusion_lon": 0.0, "rental_uris": {"ios": "https://dc.lft.to/lastmile_qr_scan", "android": "https://dc.lft.to/lastmile_qr_scan"}, "lon": -77.0292335, "bike_id": "5226fffcd81e0ba4922da60736f61415", "type": "electric_scooter", "name": "5226fffcd81e0ba4922da60736f61415"},