{"data": {"bikes": [{"name": "4bf70d8b4576af60c6711131a7b6865c", "fusion_lon": 0.0, "lat": 38.89953766666667, "is_reserved": 0, "type": "electric_scooter", "bike_id": "4bf70d8b4576af60c6711131a7b6865c", "is_disabled": 0, "rental_uris": {"android": "https://dc.lft.to/lastmile_qr_scan", "ios": "https://dc.lft.to/lastmile_qr_scan"}, "lon": -77.04777966666667, "fusion_lat": 0.0}, {"name": "0ddc80eadbcdc562e7414e999d913d35", "fusion_lon": 0.0, "lat": 38.89730216666667, "is_reserved": 0, "type": "electric_scooter", "bike_id": "0ddc80eadbcdc562e7414e999d913d35", "is_disabled": 0, "rental_uris": {"android": "https://dc.lft.to/lastmile_qr_scan", "ios": "https://dc.lft.to/lastmile_qr_scan"}, "lon": -77.02129366666666, "fusion_lat": 0.0}, {"name": "f7ad1919b3afcdab8ac2eefa9a02c9ef", "fusion_lon": 0.0, "lat": 38.900298166666666, "is_reserved": 0, "type": "electric_scooter", "bike_id": "f7ad1919b3afcdab8ac2eefa9a02c9ef", "is_disabled": 0, "rental_uris": {"android": "https://dc.lft.to/lastmile_qr_scan", "ios": "https://dc.lft.to/lastmile_qr_scan"}, "lon": -77.0013835, "fusion_lat": 0.0}, {"name": "ef3cca02f8258c314605f9b32731454c", "fusion_lon": 0.0, "lat": 38.904359, "is_reserved": 0, "type": "electric_scooter", "bike_id": "ef3cca02f8258c314605f9b32731454c", "is_disabled": 0, "rental_uris": {"android": "https://dc.lft.to/lastmile_qr_scan", "ios": "https://dc.lft.to/lastmile_qr_scan"}, "lon": -77.043649, "fusion_lat": 0.0}, {"name": "f972274f1aae5be1fc3a107c46733023", "fusion_lon": 0.0, "lat": 38.8695305, "is_reserved": 0, "type": "electric_scooter", "bike_id": "f972274f1aae5be1fc3a107c46733023", "is_disabled": 0, "rental_uris": {"android": "https://dc.lft.to/lastmile_qr_scan", "ios": "https://dc.lft.to/lastmile_qr_scan"}, "lon": -76.98166883333333, "fusion_lat": 0.0}, {"name": "2241570060b45372de21b2de1b2490ea", "fusion_lon": 0.0, "lat": 38.93073533333333, "is_reserved": 0, "type": "electric_scooter", "bike_id": "2241570060b45372de21b2de1b2490ea", "is_disabled": 0, "rental_uris": {"android": "https://dc.lft.to/lastmile_qr_scan", "ios": "https://dc.lft.to/lastmile_qr_scan"}, "lon": -77.02193833333334, "fusion_lat": 0.0}, {"name": "59937d5af3f395358b65857eb3e40e45", "fusion_lon": 0.0, "lat": 38.9027215, "is_reserved": 0, "type": "electric_scooter", "bike_id": "59937d5af3f395358b65857eb3e40e45", "is_disabled": 0, "rental_uris": {"android": "https://dc.lft.to/lastmile_qr_scan", "ios": "https://dc.lft.to/lastmile_qr_scan"}, "lon": -77.05918266666667, "fusion_lat": 0.0}, {"name": "33b88dc4ae822be59f85ff2172a21fcd", "fusion_lon": 0.0, "lat": 38.870860666666665, "is_reserved": 0, "type": "electric_bike", "bike_id": "33b88dc4ae822be59f85ff2172a21fcd", "is_disabled": 0, "rental_uris": {"android": "https://dc.lft.to/lastmile_qr_scan", "ios": "https://dc.lft.to/lastmile_qr_scan"}, "lon": -77.0120705, "fusion_lat": 0.0}, {"name": "63711a301e073f8b625b6f4884c75d63", "fusion_lon": 0.0, "lat": 38.906466, "is_reserved": 0, "type": "electric_scooter", "bike_id": "63711a301e073f8b625b6f4884c75d63", "is_disabled": 0, "rental_uris": {"android": "https://dc.lft.to/lastmile_qr_scan", "ios": "https://dc.lft.to/lastmile_qr_scan"}, "lon": -77.074751, "fusion_lat": 0.0}, {"name": "9f86374c68d104433ee23cf99a1a4fec", "fusion_lon": 0.0, "lat": 38.90744566666667, "is_reserved": 0, "type": "electric_scooter", "bike_id": "9f86374c68d104433ee23cf99a1a4fec", "is_disabled": 0, "rental_uris": {"android": "https://dc.lft.to/lastmile_qr_scan", "ios": "https://dc.lft.to/lastmile_qr_scan"}, "lon": -77.04324033333333, "fusion_lat": 0.0}, {"name": "f958d33d76ec9d99500d8e83505fd0a6", "fusion_lon": 0.0, "lat": 38.9016135, "is_reserved": 0, "type": "electric_scooter", "bike_id": "f958d33d76ec9d99500d8e83505fd0a6", "is_disabled": 0, "rental_uris": {"android": "https://dc.lft.to/lastmile_qr_scan", "ios": "https://dc.lft.to/lastmile_qr_scan"}, "lon": -77.01983083333333, "fusion_lat": 0.0}, {"name": "2cc5883becf409f1d80d682c99d59d88", "fusion_lon": 0.0, "lat": 38.89740066666667, "is_reserved": 0, "type": "electric_scooter", "bike_id": "2cc5883becf409f1d80d682c99d59d88", "is_disabled": 0, "rental_uris": {"android": "https://dc.lft.to/lastmile_qr_scan", "ios": "https://dc.lft.to/lastmile_qr_scan"}, "lon": -77.007709, "fusion_lat": 0.0}, {"name": "504086b83ddb6b9f9ddeb563c9c6c1fc", "fusion_lon": 0.0, "lat": 38.895467833333335, "is_reserved": 0, "type": "electric_scooter", "bike_id": "504086b83ddb6b9f9ddeb563c9c6c1fc", "is_disabled": 0, "rental_uris": {"android": "https://dc.lft.to/lastmile_qr_scan", "ios": "https://dc.lft.to/lastmile_qr_scan"}, "lon": -77.05662983333333, "fusion_lat": 0.0}, {"name": "0e6515782816fc0cb45b90b534c58e2f", "fusion_lon": 0.0, "lat": 38.902426166666665, "is_reserved": 0, "type": "electric_scooter", "bike_id": "0e6515782816fc0cb45b90b534c58e2f", "is_disabled": 0, "rental_uris": {"android": "https://dc.lft.to/lastmile_qr_scan", "ios": "https://dc.lft.to/lastmile_qr_scan"}, "lon": -77.01816233333334, "fusion_lat": 0.0}, {"name": "ec40127688a263aab7296981704375a1", "fusion_lon": 0.0, "lat": 38.845872166666666, "is_reserved": 0, "type": "electric_bike", "bike_id": "ec40127688a263aab7296981704375a1", "is_disabled": 0, "rental_uris": {"android": "https://dc.lft.to/lastmile_qr_scan", "ios": "https://dc.lft.to/lastmile_qr_scan"}, "lon": -76.98258366666667, "fusion_lat": 0.0}, {"name": "630f696e42e12c3e0e2dd2ba9a2a7f5a", "fusion_lon": 0.0, "lat": 38.884199333333335, "is_reserved": 0, "type": "electric_scooter", "bike_id": "630f696e42e12c3e0e2dd2ba9a2a7f5a", "is_disabled": 0, "rental_uris": {"android": "https://dc.lft.to/lastmile_qr_scan", "ios": "https://dc.lft.to/lastmile_qr_scan"}, "lon": -77.01781466666667, "fusion_lat": 0.0}, {"name": "7dba23884320964d278d6fe03a0df9d3", "fusion_lon": 0.0, "lat": 38.9085135, "is_reserved": 0, "type": "electric_scooter", "bike_id": "7dba23884320964d278d6fe03a0df9d3", "is_disabled": 0, "rental_uris": {"android": "https://dc.lft.to/lastmile_qr_scan", "ios": "https://dc.lft.to/lastmile_qr_scan"}, "lon": -77.010164, "fusion_lat": 0.0}, {"name": "90c808aec969250ef129ad6e05c76d34", "fusion_lon": 0.0, "lat": 38.8985305, "is_reserved": 0, "type": "electric_scooter", "bike_id": "90c808aec969250ef129ad6e05c76d34", "is_disabled": 0, "rental_uris": {"android": "https://dc.lft.to/lastmile_qr_scan", "ios": "https://dc.lft.to/lastmile_qr_scan"}, "lon": -77.03938766666667, "fusion_lat": 0.0}, {"name": "7d2673aeba5ed3547b46925136442cd9", "fusion_lon": 0.0, "lat": 38.90836216666667, "is_reserved": 0, "type": "electric_scooter", "bike_id": "7d2673aeba5ed3547b46925136442cd9", "is_disabled": 0, "rental_uris": {"android": "https://dc.lft.to/lastmile_qr_scan", "ios": "https://dc.lft.to/lastmile_qr_scan"}, "lon": -77.04325433333334, "fusion_lat": 0.0}, {"name": "ae0d1e2ddd34001dd59840b8da82377c", "fusion_lon": 0.0, "lat": 38.938818, "is_reserved": 0, "type": "electric_scooter", "bike_id": "ae0d1e2ddd34001dd59840b8da82377c", "is_disabled": 0, "rental_uris": {"android": "https://dc.lft.to/lastmile_qr_scan", "ios": "https://dc.lft.to/lastmile_qr_scan"}, "lon": -77.02479983333333, "fusion_lat": 0.0}, {"name": "2b10c00da7669dd13da0de80d02b82a1", "fusion_lon": 0.0, "lat": 38.910903, "is_reserved": 0, "type": "electric_scooter", "bike_id": "2b10c00da7669dd13da0de80d02b82a1", "is_disabled": 0, "rental_uris": {"android": "https://dc.lft.to/lastmile_qr_scan", "ios": "https://dc.lft.to/lastmile_qr_scan"}, "lon": -77.07408783333334, "fusion_lat": 0.0}, {"name": "4a895acd9033f385f64e4cb81a169713", "fusion_lon": 0.0, "lat": 38.87923, "is_reserved": 0, "type": "electric_scooter", "bike_id": "4a895acd9033f385f64e4cb81a169713", "is_disabled": 0, "rental_uris": {"android": "https://dc.lft.to/lastmile_qr_scan", "ios": "https://dc.lft.to/lastmile_qr_scan"}, "lon": -76.9998095, "fusion_lat": 0.0}, {"name": "b71b0e1a60f77ee853535ec59c7af627", "fusion_lon": 0.0, "lat": 38.90682133333333, "is_reserved": 0, "type": "electric_scooter", "bike_id": "b71b0e1a60f77ee853535ec59c7af627", "is_disabled": 0, "rental_uris": {"android": "https://dc.lft.to/lastmile_qr_scan", "ios": "https://dc.lft.to/lastmile_qr_scan"}, "lon": -77.02971383333333, "fusion_lat": 0.0}, {"name": "1031329cadc4bfa30babd7cada9f5449", "fusion_lon": 0.0, "lat": 38.89810966666667, "is_reserved": 0, "type": "electric_bike", "bike_id": "1031329cadc4bfa30babd7cada9f5449", "is_disabled": 0, "rental_uris": {"android": "https://dc.lft.to/lastmile_qr_scan", "ios": "https://dc.lft.to/lastmile_qr_scan"}, "lon": -76.990774, "fusion_lat": 0.0}, {"name": "7a5e79628e24a2fb3532fbc646d6777a", "fusion_lon": 0.0, "lat": 38.832377666666666, "is_reserved": 0, "type": "electric_bike", "bike_id": "7a5e79628e24a2fb3532fbc646d6777a", "is_disabled": 0, "rental_uris": {"android": "https://dc.lft.to/lastmile_qr_scan", "ios": "https://dc.lft.to/lastmile_qr_scan"}, "lon": -76.946152, "fusion_lat": 0.0}, {"name": "88754db635ef54629a9376e0046130c1", "fusion_lon": 0.0, "lat": 38.904103666666664, "is_reserved": 0, "type": "electric_scooter", "bike_id": "88754db635ef54629a9376e0046130c1", "is_disabled": 0, "rental_uris": {"android": "https://dc.lft.to/lastmile_qr_scan", "ios": "https://dc.lft.to/lastmile_qr_scan"}, "lon": -76.97331616666666, "fusion_lat": 0.0}, {"name": "622dd269bde9dcab4730774a5fa493d1", "fusion_lon": 0.0, "lat": 38.88417316666666, "is_reserved": 0, "type": "electric_scooter", "bike_id": "622dd269bde9dcab4730774a5fa493d1", "is_disabled": 0, "rental_uris": {"android": "https://dc.lft.to/lastmile_qr_scan", "ios": "https://dc.lft.to/lastmile_qr_scan"}, "lon": -77.03055633333334, "fusion_lat": 0.0}, {"name": "1c023a277b9eb763a9284fa950175faf", "fusion_lon": 0.0, "lat": 38.8818235, "is_reserved": 0, "type": "electric_scooter", "bike_id": "1c023a277b9eb763a9284fa950175faf", "is_disabled": 0, "rental_uris": {"android": "https://dc.lft.to/lastmile_qr_scan", "ios": "https://dc.lft.to/lastmile_qr_scan"}, "lon": -77.03573283333333, "fusion_lat": 0.0}, {"name": "fe0400342d592133303e2ba7465932cf", "fusion_lon": 0.0, "lat": 38.932581166666665, "is_reserved": 0, "type": "electric_scooter", "bike_id": "fe0400342d592133303e2ba7465932cf", "is_disabled": 0, "rental_uris": {"android": "https://dc.lft.to/lastmile_qr_scan", "ios": "https://dc.lft.to/lastmile_qr_scan"}, "lon": -77.038444, "fusion_lat": 0.0}, {"name": "6c7f81a14b93958c87da427cc123e4d4", "fusion_lon": 0.0, "lat": 38.918424, "is_reserved": 0, "type": "electric_scooter", "bike_id": "6c7f81a14b93958c87da427cc123e4d4", "is_disabled": 0, "rental_uris": {"android": "https://dc.lft.to/lastmile_qr_scan", "ios": "https://dc.lft.to/lastmile_qr_scan"}, "lon": -77.05953633333333, "fusion_lat": 0.0}, {"name": "7c341d7e66402f96a385fe324e2d894a", "fusion_lon": 0.0, "lat": 38.927376, "is_reserved": 0, "type": "electric_scooter", "bike_id": "7c341d7e66402f96a385fe324e2d894a", "is_disabled": 0, "rental_uris": {"android": "https://dc.lft.to/lastmile_qr_scan", "ios": "https://dc.lft.to/lastmile_qr_scan"}, "lon": -77.05252966666667, "fusion_lat": 0.0}, {"name": "19a8e3f5c74baaf41834c012d47d8fc1", "fusion_lon": 0.0, "lat": 39.050495166666664, "is_reserved": 0, "type": "electric_bike", "bike_id": "19a8e3f5c74baaf41834c012d47d8fc1", "is_disabled": 0, "rental_uris": {"android": "https://dc.lft.to/lastmile_qr_scan", "ios": "https://dc.lft.to/lastmile_qr_scan"}, "lon": -77.0514445, "fusion_lat": 0.0}, {"name": "f3025f5a60cc01d9b2c903e55d0085e4", "fusion_lon": 0.0, "lat": 38.92309266666667, "is_reserved": 0, "type": "electric_scooter", "bike_id": "f3025f5a60cc01d9b2c903e55d0085e4", "is_disabled": 0, "rental_uris": {"android": "https://dc.lft.to/lastmile_qr_scan", "ios": "https://dc.lft.to/lastmile_qr_scan"}, "lon": -77.029724, "fusion_lat": 0.0}, {"name": "a22e6d531dd36a47b359ad87f2a1ea58", "fusion_lon": 0.0, "lat": 38.930254166666664, "is_reserved": 0, "type": "electric_scooter", "bike_id": "a22e6d531dd36a47b359ad87f2a1ea58", "is_disabled": 0, "rental_uris": {"android": "https://dc.lft.to/lastmile_qr_scan", "ios": "https://dc.lft.to/lastmile_qr_scan"}, "lon": -77.06308033333333, "fusion_lat": 0.0}, {"name": "7fc3557c56de9baf025fb9cffecae74e", "fusion_lon": 0.0, "lat": 38.893023, "is_reserved": 0, "type": "electric_scooter", "bike_id": "7fc3557c56de9baf025fb9cffecae74e", "is_disabled": 0, "rental_uris": {"android": "https://dc.lft.to/lastmile_qr_scan", "ios": "https://dc.lft.to/lastmile_qr_scan"}, "lon": -77.02874566666667, "fusion_lat": 0.0}, {"name": "f06ea58213f6b39b48b5e7b99e22e94e", "fusion_lon": 0.0, "lat": 38.892314999999996, "is_reserved": 0, "type": "electric_scooter", "bike_id": "f06ea58213f6b39b48b5e7b99e22e94e", "is_disabled": 0, "rental_uris": {"android": "https://dc.lft.to/lastmile_qr_scan", "ios": "https://dc.lft.to/lastmile_qr_scan"}, "lon": -77.01721116666667, "fusion_lat": 0.0}, {"name": "e2f7bba3feb85a7b0dc028a78c30e9bf", "fusion_lon": 0.0, "lat": 38.9250965, "is_reserved": 0, "type": "electric_scooter", "bike_id": "e2f7bba3feb85a7b0dc028a78c30e9bf", "is_disabled": 0, "rental_uris": {"android": "https://dc.lft.to/lastmile_qr_scan", "ios": "https://dc.lft.to/lastmile_qr_scan"}, "lon": -77.02335666666667, "fusion_lat": 0.0}, {"name": "8c028396766d2ba99afeb199c13ebdb0", "fusion_lon": 0.0, "lat": 38.902701666666665, "is_reserved": 0, "type": "electric_scooter", "bike_id": "8c028396766d2ba99afeb199c13ebdb0", "is_disabled": 0, "rental_uris": {"android": "https://dc.lft.to/lastmile_qr_scan", "ios": "https://dc.lft.to/lastmile_qr_scan"}, "lon": -77.03963216666666, "fusion_lat": 0.0}, {"name": "ddd58280910f30c041234abb39f02126", "fusion_lon": 0.0, "lat": 38.9022575, "is_reserved": 0, "type": "electric_scooter", "bike_id": "ddd58280910f30c041234abb39f02126", "is_disabled": 0, "rental_uris": {"android": "https://dc.lft.to/lastmile_qr_scan", "ios": "https://dc.lft.to/lastmile_qr_scan"}, "lon": -77.04805766666666, "fusion_lat": 0.0}, {"name": "899de5570ebb5f76f13bd4e42ef09648", "fusion_lon": 0.0, "lat": 38.90326016666667, "is_reserved": 0, "type": "electric_bike", "bike_id": "899de5570ebb5f76f13bd4e42ef09648", "is_disabled": 0, "rental_uris": {"android": "https://dc.lft.to/lastmile_qr_scan", "ios": "https://dc.lft.to/lastmile_qr_scan"}, "lon": -76.97301183333333, "fusion_lat": 0.0}, {"name": "e8b2dff374657eeb12c7922aa8026c94", "fusion_lon": 0.0, "lat": 38.8766405, "is_reserved": 0, "type": "electric_scooter", "bike_id": "e8b2dff374657eeb12c7922aa8026c94", "is_disabled": 0, "rental_uris": {"android": "https://dc.lft.to/lastmile_qr_scan", "ios": "https://dc.lft.to/lastmile_qr_scan"}, "lon": -77.01823633333333, "fusion_lat": 0.0}, {"name": "e14c6f8fd3d7c16148a4d9074458d542", "fusion_lon": 0.0, "lat": 38.804264833333335, "is_reserved": 0, "type": "electric_bike", "bike_id": "e14c6f8fd3d7c16148a4d9074458d542", "is_disabled": 0, "rental_uris": {"android": "https://dc.lft.to/lastmile_qr_scan", "ios": "https://dc.lft.to/lastmile_qr_scan"}, "lon": -77.055699, "fusion_lat": 0.0}, {"name": "282a6e3a9d6ebe75c37e67df29d12ab2", "fusion_lon": 0.0, "lat": 38.904608, "is_reserved": 0, "type": "electric_scooter", "bike_id": "282a6e3a9d6ebe75c37e67df29d12ab2", "is_disabled": 0, "rental_uris": {"android": "https://dc.lft.to/lastmile_qr_scan", "ios": "https://dc.lft.to/lastmile_qr_scan"}, "lon": -77.04369933333334, "fusion_lat": 0.0}, {"name": "634c881f506b9b535e52021ffeb94112", "fusion_lon": 0.0, "lat": 38.9018605, "is_reserved": 0, "type": "electric_scooter", "bike_id": "634c881f506b9b535e52021ffeb94112", "is_disabled": 0, "rental_uris": {"android": "https://dc.lft.to/lastmile_qr_scan", "ios": "https://dc.lft.to/lastmile_qr_scan"}, "lon": -77.02187116666667, "fusion_lat": 0.0}, {"name": "26c994d13a58f50eb44ed450a5190f9c", "fusion_lon": 0.0, "lat": 38.91887716666667, "is_reserved": 0, "type": "electric_scooter", "bike_id": "26c994d13a58f50eb44ed450a5190f9c", "is_disabled": 0, "rental_uris": {"android": "https://dc.lft.to/lastmile_qr_scan", "ios": "https://dc.lft.to/lastmile_qr_scan"}, "lon": -77.024606, "fusion_lat": 0.0}, {"name": "743960616f3a4e6babd120eb07fa8031", "fusion_lon": 0.0, "lat": 38.862404166666664, "is_reserved": 0, "type": "electric_scooter", "bike_id": "743960616f3a4e6babd120eb07fa8031", "is_disabled": 0, "rental_uris": {"android": "https://dc.lft.to/lastmile_qr_scan", "ios": "https://dc.lft.to/lastmile_qr_scan"}, "lon": -76.99492433333333, "fusion_lat": 0.0}, {"name": "9d4e95682be20db32d3e49df93f4d993", "fusion_lon": 0.0, "lat": 38.9236595, "is_reserved": 0, "type": "electric_scooter", "bike_id": "9d4e95682be20db32d3e49df93f4d993", "is_disabled": 0, "rental_uris": {"android": "https://dc.lft.to/lastmile_qr_scan", "ios": "https://dc.lft.to/lastmile_qr_scan"}, "lon": -77.04253633333333, "fusion_lat": 0.0}, {"name": "cc5d5ee4afe30a24b47edc135cc15a06", "fusion_lon": 0.0, "lat": 38.90956633333333, "is_reserved": 0, "type": "electric_scooter", "bike_id": "cc5d5ee4afe30a24b47edc135cc15a06", "is_disabled": 0, "rental_uris": {"android": "https://dc.lft.to/lastmile_qr_scan", "ios": "https://dc.lft.to/lastmile_qr_scan"}, "lon": -77.02688266666667, "fusion_lat": 0.0}, {"name": "6868e6b93bab107d62b86b5243df2050", "fusion_lon": 0.0, "lat": 38.916521833333334, "is_reserved": 0, "type": "electric_scooter", "bike_id": "6868e6b93bab107d62b86b5243df2050", "is_disabled": 0, "rental_uris": {"android": "https://dc.lft.to/lastmile_qr_scan", "ios": "https://dc.lft.to/lastmile_qr_scan"}, "lon": -77.029655, "fusion_lat": 0.0}, {"name": "1564b33c09a86f801e9b6a34e5b1ce5c", "fusion_lon": 0.0, "lat": 38.93635166666667, "is_reserved": 0, "type": "electric_scooter", "bike_id": "1564b33c09a86f801e9b6a34e5b1ce5c", "is_disabled": 0, "rental_uris": {"android": "https://dc.lft.to/lastmile_qr_scan", "ios": "https://dc.lft.to/lastmile_qr_scan"}, "lon": -77.05889883333333, "fusion_lat": 0.0}, {"name": "86d2a1bd8f4599bf11a3927c4eace8b0", "fusion_lon": 0.0, "lat": 38.89883916666667, "is_reserved": 0, "type": "electric_scooter", "bike_id": "86d2a1bd8f4599bf11a3927c4eace8b0", "is_disabled": 0, "rental_uris": {"android": "https://dc.lft.to/lastmile_qr_scan", "ios": "https://dc.lft.to/lastmile_qr_scan"}, "lon": -76.99825916666667, "fusion_lat": 0.0}, {"name": "aff01fdffb7065948aa54097babb7334", "fusion_lon": 0.0, "lat": 38.89532633333334, "is_reserved": 0, "type": "electric_scooter", "bike_id": "aff01fdffb7065948aa54097babb7334", "is_disabled": 0, "rental_uris": {"android": "https://dc.lft.to/lastmile_qr_scan", "ios": "https://dc.lft.to/lastmile_qr_scan"}, "lon": -77.01096216666667, "fusion_lat": 0.0}, {"name": "ded3a7e4444677498a9f28c23a3a18b1", "fusion_lon": 0.0, "lat": 38.902468666666664, "is_reserved": 0, "type": "electric_scooter", "bike_id": "ded3a7e4444677498a9f28c23a3a18b1", "is_disabled": 0, "rental_uris": {"android": "https://dc.lft.to/lastmile_qr_scan", "ios": "https://dc.lft.to/lastmile_qr_scan"}, "lon": -77.002027, "fusion_lat": 0.0}, {"name": "d6b5c68efcb2efe75749114edfa8af1d", "fusion_lon": 0.0, "lat": 38.9201145, "is_reserved": 0, "type": "electric_scooter", "bike_id": "d6b5c68efcb2efe75749114edfa8af1d", "is_disabled": 0, "rental_uris": {"android": "https://dc.lft.to/lastmile_qr_scan", "ios": "https://dc.lft.to/lastmile_qr_scan"}, "lon": -77.0388555, "fusion_lat": 0.0}, {"name": "ec4890e4e15aab9081f17c309f8b8f31", "fusion_lon": 0.0, "lat": 38.956804166666664, "is_reserved": 0, "type": "electric_scooter", "bike_id": "ec4890e4e15aab9081f17c309f8b8f31", "is_disabled": 0, "rental_uris": {"android": "https://dc.lft.to/lastmile_qr_scan", "ios": "https://dc.lft.to/lastmile_qr_scan"}, "lon": -77.022289, "fusion_lat": 0.0}, {"name": "6ddf59598bc83f858ff6be3245dacbc5", "fusion_lon": 0.0, "lat": 38.90417816666667, "is_reserved": 0, "type": "electric_scooter", "bike_id": "6ddf59598bc83f858ff6be3245dacbc5", "is_disabled": 0, "rental_uris": {"android": "https://dc.lft.to/lastmile_qr_scan", "ios": "https://dc.lft.to/lastmile_qr_scan"}, "lon": -77.05003783333333, "fusion_lat": 0.0}, {"name": "3cd74c0fc43ac2deb68903a2b88aa5f3", "fusion_lon": 0.0, "lat": 38.910807166666665, "is_reserved": 0, "type": "electric_scooter", "bike_id": "3cd74c0fc43ac2deb68903a2b88aa5f3", "is_disabled": 0, "rental_uris": {"android": "https://dc.lft.to/lastmile_qr_scan", "ios": "https://dc.lft.to/lastmile_qr_scan"}, "lon": -76.9926845, "fusion_lat": 0.0}, {"name": "97a08d03e84a2b7a8227e6425c9bfa84", "fusion_lon": 0.0, "lat": 38.88503133333333, "is_reserved": 0, "type": "electric_scooter", "bike_id": "97a08d03e84a2b7a8227e6425c9bfa84", "is_disabled": 0, "rental_uris": {"android": "https://dc.lft.to/lastmile_qr_scan", "ios": "https://dc.lft.to/lastmile_qr_scan"}, "lon": -77.005677, "fusion_lat": 0.0}, {"name": "46e9f644641977a6f1f680fdab8c1a0e", "fusion_lon": 0.0, "lat": 38.92765816666667, "is_reserved": 0, "type": "electric_bike", "bike_id": "46e9f644641977a6f1f680fdab8c1a0e", "is_disabled": 0, "rental_uris": {"android": "https://dc.lft.to/lastmile_qr_scan", "ios": "https://dc.lft.to/lastmile_qr_scan"}, "lon": -77.07006833333334, "fusion_lat": 0.0}, {"name": "25e41174dc11410e972a7048c0650b8f", "fusion_lon": 0.0, "lat": 38.91047916666667, "is_reserved": 0, "type": "electric_scooter", "bike_id": "25e41174dc11410e972a7048c0650b8f", "is_disabled": 0, "rental_uris": {"android": "https://dc.lft.to/lastmile_qr_scan", "ios": "https://dc.lft.to/lastmile_qr_scan"}, "lon": -77.04345066666667, "fusion_lat": 0.0}, {"name": "695c274d1faec0f234378c6d9df1f029", "fusion_lon": 0.0, "lat": 38.83144383333333, "is_reserved": 0, "type": "electric_scooter", "bike_id": "695c274d1faec0f234378c6d9df1f029", "is_disabled": 0, "rental_uris": {"android": "https://dc.lft.to/lastmile_qr_scan", "ios": "https://dc.lft.to/lastmile_qr_scan"}, "lon": -77.05120033333333, "fusion_lat": 0.0}, {"name": "67685f0e940d0503b48f55a6b96694f5", "fusion_lon": 0.0, "lat": 38.89966733333333, "is_reserved": 0, "type": "electric_bike", "bike_id": "67685f0e940d0503b48f55a6b96694f5", "is_disabled": 0, "rental_uris": {"android": "https://dc.lft.to/lastmile_qr_scan", "ios": "https://dc.lft.to/lastmile_qr_scan"}, "lon": -76.98666216666666, "fusion_lat": 0.0}, {"name": "c3f78663dce6fd49f811106975e33790", "fusion_lon": 0.0, "lat": 38.8793545, "is_reserved": 0, "type": "electric_scooter", "bike_id": "c3f78663dce6fd49f811106975e33790", "is_disabled": 0, "rental_uris": {"android": "https://dc.lft.to/lastmile_qr_scan", "ios": "https://dc.lft.to/lastmile_qr_scan"}, "lon": -77.0006055, "fusion_lat": 0.0}, {"name": "e811fabc3f97e21d571f174bab67cdc1", "fusion_lon": 0.0, "lat": 38.90573583333333, "is_reserved": 0, "type": "electric_scooter", "bike_id": "e811fabc3f97e21d571f174bab67cdc1", "is_disabled": 0, "rental_uris": {"android": "https://dc.lft.to/lastmile_qr_scan", "ios": "https://dc.lft.to/lastmile_qr_scan"}, "lon": -77.04119266666666, "fusion_lat": 0.0}, {"name": "8859a0ed1dd8d39b03dda0538946c51d", "fusion_lon": 0.0, "lat": 38.928395333333334, "is_reserved": 0, "type": "electric_scooter", "bike_id": "8859a0ed1dd8d39b03dda0538946c51d", "is_disabled": 0, "rental_uris": {"android": "https://dc.lft.to/lastmile_qr_scan", "ios": "https://dc.lft.to/lastmile_qr_scan"}, "lon": -77.014092, "fusion_lat": 0.0}, {"name": "bd929961f512b5620aa0b70d136d53d8", "fusion_lon": 0.0, "lat": 38.93626066666667, "is_reserved": 0, "type": "electric_bike", "bike_id": "bd929961f512b5620aa0b70d136d53d8", "is_disabled": 0, "rental_uris": {"android": "https://dc.lft.to/lastmile_qr_scan", "ios": "https://dc.lft.to/lastmile_qr_scan"}, "lon": -77.090152, "fusion_lat": 0.0}, {"name": "6f412c3c220ab255a8f3d0742a407f7a", "fusion_lon": 0.0, "lat": 38.90959016666667, "is_reserved": 0, "type": "electric_scooter", "bike_id": "6f412c3c220ab255a8f3d0742a407f7a", "is_disabled": 0, "rental_uris": {"android": "https://dc.lft.to/lastmile_qr_scan", "ios": "https://dc.lft.to/lastmile_qr_scan"}, "lon": -77.02685783333334, "fusion_lat": 0.0}, {"name": "7475e3768459335e1c1abfff30bf07d7", "fusion_lon": 0.0, "lat": 38.863928666666666, "is_reserved": 0, "type": "electric_scooter", "bike_id": "7475e3768459335e1c1abfff30bf07d7", "is_disabled": 0, "rental_uris": {"android": "https://dc.lft.to/lastmile_qr_scan", "ios": "https://dc.lft.to/lastmile_qr_scan"}, "lon": -76.990411, "fusion_lat": 0.0}, {"name": "58449566e8d4e42a16c3fbb685b156fe", "fusion_lon": 0.0, "lat": 38.80128233333333, "is_reserved": 0, "type": "electric_bike", "bike_id": "58449566e8d4e42a16c3fbb685b156fe", "is_disabled": 0, "rental_uris": {"android": "https://dc.lft.to/lastmile_qr_scan", "ios": "https://dc.lft.to/lastmile_qr_scan"}, "lon": -77.07043983333334, "fusion_lat": 0.0}, {"name": "04dfb6fa6cb4144f0cefff761da1193a", "fusion_lon": 0.0, "lat": 38.900536333333335, "is_reserved": 0, "type": "electric_scooter", "bike_id": "04dfb6fa6cb4144f0cefff761da1193a", "is_disabled": 0, "rental_uris": {"android": "https://dc.lft.to/lastmile_qr_scan", "ios": "https://dc.lft.to/lastmile_qr_scan"}, "lon": -76.91936033333333, "fusion_lat": 0.0}, {"name": "43efb155b3eb19a915b666351aae0a84", "fusion_lon": 0.0, "lat": 38.903905, "is_reserved": 0, "type": "electric_scooter", "bike_id": "43efb155b3eb19a915b666351aae0a84", "is_disabled": 0, "rental_uris": {"android": "https://dc.lft.to/lastmile_qr_scan", "ios": "https://dc.lft.to/lastmile_qr_scan"}, "lon": -77.0363905, "fusion_lat": 0.0}, {"name": "663c4ea8e25ef4fe1a396da7350d6767", "fusion_lon": 0.0, "lat": 38.921181833333335, "is_reserved": 0, "type": "electric_scooter", "bike_id": "663c4ea8e25ef4fe1a396da7350d6767", "is_disabled": 0, "rental_uris": {"android": "https://dc.lft.to/lastmile_qr_scan", "ios": "https://dc.lft.to/lastmile_qr_scan"}, "lon": -77.0457205, "fusion_lat": 0.0}, {"name": "7644d7fd5ceffeeea1215d2bbc52e6bd", "fusion_lon": 0.0, "lat": 38.90587333333333, "is_reserved": 0, "type": "electric_scooter", "bike_id": "7644d7fd5ceffeeea1215d2bbc52e6bd", "is_disabled": 0, "rental_uris": {"android": "https://dc.lft.to/lastmile_qr_scan", "ios": "https://dc.lft.to/lastmile_qr_scan"}, "lon": -77.04358366666666, "fusion_lat": 0.0}, {"name": "309ea17c03e50ecc0ea82562c9dd5218", "fusion_lon": 0.0, "lat": 38.90047416666667, "is_reserved": 0, "type": "electric_scooter", "bike_id": "309ea17c03e50ecc0ea82562c9dd5218", "is_disabled": 0, "rental_uris": {"android": "https://dc.lft.to/lastmile_qr_scan", "ios": "https://dc.lft.to/lastmile_qr_scan"}, "lon": -77.0291145, "fusion_lat": 0.0}, {"name": "f00dad0322d924e2034989aefa6e40ec", "fusion_lon": 0.0, "lat": 38.92510266666667, "is_reserved": 0, "type": "electric_scooter", "bike_id": "f00dad0322d924e2034989aefa6e40ec", "is_disabled": 0, "rental_uris": {"android": "https://dc.lft.to/lastmile_qr_scan", "ios": "https://dc.lft.to/lastmile_qr_scan"}, "lon": -77.05256866666667, "fusion_lat": 0.0}, {"name": "a75c7fca1455aa45046b3080f33c4196", "fusion_lon": 0.0, "lat": 38.91818383333333, "is_reserved": 0, "type": "electric_scooter", "bike_id": "a75c7fca1455aa45046b3080f33c4196", "is_disabled": 0, "rental_uris": {"android": "https://dc.lft.to/lastmile_qr_scan", "ios": "https://dc.lft.to/lastmile_qr_scan"}, "lon": -77.02490233333333, "fusion_lat": 0.0}, {"name": "20d05074e3127c39708c6064197a2cb5", "fusion_lon": 0.0, "lat": 38.91925033333333, "is_reserved": 0, "type": "electric_scooter", "bike_id": "20d05074e3127c39708c6064197a2cb5", "is_disabled": 0, "rental_uris": {"android": "https://dc.lft.to/lastmile_qr_scan", "ios": "https://dc.lft.to/lastmile_qr_scan"}, "lon": -77.02511666666666, "fusion_lat": 0.0}, {"name": "47979d2ae50822988ad4043aaf9fc054", "fusion_lon": 0.0, "lat": 38.895269666666664, "is_reserved": 0, "type": "electric_scooter", "bike_id": "47979d2ae50822988ad4043aaf9fc054", "is_disabled": 0, "rental_uris": {"android": "https://dc.lft.to/lastmile_qr_scan", "ios": "https://dc.lft.to/lastmile_qr_scan"}, "lon": -77.002041, "fusion_lat": 0.0}, {"name": "0e5d63931fda63e67dee44ba9fb19ebc", "fusion_lon": 0.0, "lat": 38.907145, "is_reserved": 0, "type": "electric_scooter", "bike_id": "0e5d63931fda63e67dee44ba9fb19ebc", "is_disabled": 0, "rental_uris": {"android": "https://dc.lft.to/lastmile_qr_scan", "ios": "https://dc.lft.to/lastmile_qr_scan"}, "lon": -77.01010683333334, "fusion_lat": 0.0}, {"name": "7d887c4b94fb1a9e2cee876fcf02fa3a", "fusion_lon": 0.0, "lat": 38.906674333333335, "is_reserved": 0, "type": "electric_scooter", "bike_id": "7d887c4b94fb1a9e2cee876fcf02fa3a", "is_disabled": 0, "rental_uris": {"android": "https://dc.lft.to/lastmile_qr_scan", "ios": "https://dc.lft.to/lastmile_qr_scan"}, "lon": -77.04470833333333, "fusion_lat": 0.0}, {"name": "d37624e3ed91148d26c6f12a7b48c522", "fusion_lon": 0.0, "lat": 38.927843833333334, "is_reserved": 0, "type": "electric_scooter", "bike_id": "d37624e3ed91148d26c6f12a7b48c522", "is_disabled": 0, "rental_uris": {"android": "https://dc.lft.to/lastmile_qr_scan", "ios": "https://dc.lft.to/lastmile_qr_scan"}, "lon": -77.0142405, "fusion_lat": 0.0}, {"name": "2c86b5cd14d7e7423c25d878b6a492b0", "fusion_lon": 0.0, "lat": 38.9035065, "is_reserved": 0, "type": "electric_scooter", "bike_id": "2c86b5cd14d7e7423c25d878b6a492b0", "is_disabled": 0, "rental_uris": {"android": "https://dc.lft.to/lastmile_qr_scan", "ios": "https://dc.lft.to/lastmile_qr_scan"}, "lon": -76.97481383333333, "fusion_lat": 0.0}, {"name": "d096d8529d64bd981e87f68071bd44c2", "fusion_lon": 0.0, "lat": 38.90031883333333, "is_reserved": 0, "type": "electric_scooter", "bike_id": "d096d8529d64bd981e87f68071bd44c2", "is_disabled": 0, "rental_uris": {"android": "https://dc.lft.to/lastmile_qr_scan", "ios": "https://dc.lft.to/lastmile_qr_scan"}, "lon": -76.99902483333334, "fusion_lat": 0.0}, {"name": "bb53090a92d7ad99efc0da3dd0f200e3", "fusion_lon": 0.0, "lat": 38.916652666666664, "is_reserved": 0, "type": "electric_scooter", "bike_id": "bb53090a92d7ad99efc0da3dd0f200e3", "is_disabled": 0, "rental_uris": {"android": "https://dc.lft.to/lastmile_qr_scan", "ios": "https://dc.lft.to/lastmile_qr_scan"}, "lon": -77.02971433333333, "fusion_lat": 0.0}, {"name": "5aba90bd07690bcadd5f210a0c1deca2", "fusion_lon": 0.0, "lat": 38.8931925, "is_reserved": 0, "type": "electric_scooter", "bike_id": "5aba90bd07690bcadd5f210a0c1deca2", "is_disabled": 0, "rental_uris": {"android": "https://dc.lft.to/lastmile_qr_scan", "ios": "https://dc.lft.to/lastmile_qr_scan"}, "lon": -77.0486995, "fusion_lat": 0.0}, {"name": "ba73af041199e1233def0cc523e0c8d7", "fusion_lon": 0.0, "lat": 38.92646366666666, "is_reserved": 0, "type": "electric_scooter", "bike_id": "ba73af041199e1233def0cc523e0c8d7", "is_disabled": 0, "rental_uris": {"android": "https://dc.lft.to/lastmile_qr_scan", "ios": "https://dc.lft.to/lastmile_qr_scan"}, "lon": -77.04137383333334, "fusion_lat": 0.0}, {"name": "2db269aff73f71ca823b63bdc9a5b9c6", "fusion_lon": 0.0, "lat": 38.916628333333335, "is_reserved": 0, "type": "electric_scooter", "bike_id": "2db269aff73f71ca823b63bdc9a5b9c6", "is_disabled": 0, "rental_uris": {"android": "https://dc.lft.to/lastmile_qr_scan", "ios": "https://dc.lft.to/lastmile_qr_scan"}, "lon": -77.02967166666667, "fusion_lat": 0.0}, {"name": "e505bdf3a317d141b24b03dade468f2a", "fusion_lon": 0.0, "lat": 38.951536, "is_reserved": 0, "type": "electric_scooter", "bike_id": "e505bdf3a317d141b24b03dade468f2a", "is_disabled": 0, "rental_uris": {"android": "https://dc.lft.to/lastmile_qr_scan", "ios": "https://dc.lft.to/lastmile_qr_scan"}, "lon": -77.01867183333333, "fusion_lat": 0.0}, {"name": "276dd987dd3ef0c9417f451d513085bd", "fusion_lon": 0.0, "lat": 38.90193266666667, "is_reserved": 0, "type": "electric_scooter", "bike_id": "276dd987dd3ef0c9417f451d513085bd", "is_disabled": 0, "rental_uris": {"android": "https://dc.lft.to/lastmile_qr_scan", "ios": "https://dc.lft.to/lastmile_qr_scan"}, "lon": -77.02367166666667, "fusion_lat": 0.0}, {"name": "62213031b08ee35a245e5aca59eca139", "fusion_lon": 0.0, "lat": 38.9021025, "is_reserved": 0, "type": "electric_scooter", "bike_id": "62213031b08ee35a245e5aca59eca139", "is_disabled": 0, "rental_uris": {"android": "https://dc.lft.to/lastmile_qr_scan", "ios": "https://dc.lft.to/lastmile_qr_scan"}, "lon": -77.02370533333334, "fusion_lat": 0.0}, {"name": "91fd425c27656a749bbf6172e0772073", "fusion_lon": 0.0, "lat": 38.92171066666667, "is_reserved": 0, "type": "electric_scooter", "bike_id": "91fd425c27656a749bbf6172e0772073", "is_disabled": 0, "rental_uris": {"android": "https://dc.lft.to/lastmile_qr_scan", "ios": "https://dc.lft.to/lastmile_qr_scan"}, "lon": -77.0436245, "fusion_lat": 0.0}, {"name": "36aafdf79602560ad32ef89353138ef1", "fusion_lon": 0.0, "lat": 38.87415766666667, "is_reserved": 0, "type": "electric_scooter", "bike_id": "36aafdf79602560ad32ef89353138ef1", "is_disabled": 0, "rental_uris": {"android": "https://dc.lft.to/lastmile_qr_scan", "ios": "https://dc.lft.to/lastmile_qr_scan"}, "lon": -76.97112216666666, "fusion_lat": 0.0}, {"name": "d581d60f9ca91cd7625e51174a39c1aa", "fusion_lon": 0.0, "lat": 38.876119833333334, "is_reserved": 0, "type": "electric_scooter", "bike_id": "d581d60f9ca91cd7625e51174a39c1aa", "is_disabled": 0, "rental_uris": {"android": "https://dc.lft.to/lastmile_qr_scan", "ios": "https://dc.lft.to/lastmile_qr_scan"}, "lon": -77.00088966666667, "fusion_lat": 0.0}, {"name": "8e1bf93623fc75691be11ab55e345e87", "fusion_lon": 0.0, "lat": 38.90975, "is_reserved": 0, "type": "electric_scooter", "bike_id": "8e1bf93623fc75691be11ab55e345e87", "is_disabled": 0, "rental_uris": {"android": "https://dc.lft.to/lastmile_qr_scan", "ios": "https://dc.lft.to/lastmile_qr_scan"}, "lon": -77.0344245, "fusion_lat": 0.0}, {"name": "e111d5952d31fa92b0084a64fddcce72", "fusion_lon": 0.0, "lat": 38.90380583333334, "is_reserved": 0, "type": "electric_scooter", "bike_id": "e111d5952d31fa92b0084a64fddcce72", "is_disabled": 0, "rental_uris": {"android": "https://dc.lft.to/lastmile_qr_scan", "ios": "https://dc.lft.to/lastmile_qr_scan"}, "lon": -77.03851666666667, "fusion_lat": 0.0}, {"name": "f65b96b05836b7336a9b435c981a4823", "fusion_lon": 0.0, "lat": 38.91515416666667, "is_reserved": 0, "type": "electric_scooter", "bike_id": "f65b96b05836b7336a9b435c981a4823", "is_disabled": 0, "rental_uris": {"android": "https://dc.lft.to/lastmile_qr_scan", "ios": "https://dc.lft.to/lastmile_qr_scan"}, "lon": -77.03208216666667, "fusion_lat": 0.0}, {"name": "134ea69bb75b7150b832d30b460f6a64", "fusion_lon": 0.0, "lat": 38.910144833333334, "is_reserved": 0, "type": "electric_bike", "bike_id": "134ea69bb75b7150b832d30b460f6a64", "is_disabled": 0, "rental_uris": {"android": "https://dc.lft.to/lastmile_qr_scan", "ios": "https://dc.lft.to/lastmile_qr_scan"}, "lon": -77.22798616666667, "fusion_lat": 0.0}, {"name": "f45124a86cc1af40ae82c6ba1d735b40", "fusion_lon": 0.0, "lat": 38.87283083333333, "is_reserved": 0, "type": "electric_bike", "bike_id": "f45124a86cc1af40ae82c6ba1d735b40", "is_disabled": 0, "rental_uris": {"android": "https://dc.lft.to/lastmile_qr_scan", "ios": "https://dc.lft.to/lastmile_qr_scan"}, "lon": -77.2331445, "fusion_lat": 0.0}, {"name": "6eda7619204d18ad0fad4ff00f790bfc", "fusion_lon": 0.0, "lat": 38.8695055, "is_reserved": 0, "type": "electric_scooter", "bike_id": "6eda7619204d18ad0fad4ff00f790bfc", "is_disabled": 0, "rental_uris": {"android": "https://dc.lft.to/lastmile_qr_scan", "ios": "https://dc.lft.to/lastmile_qr_scan"}, "lon": -76.9817085, "fusion_lat": 0.0}, {"name": "56b5c59b4679383e091f96376b75b891", "fusion_lon": 0.0, "lat": 38.880597333333334, "is_reserved": 0, "type": "electric_bike", "bike_id": "56b5c59b4679383e091f96376b75b891", "is_disabled": 0, "rental_uris": {"android": "https://dc.lft.to/lastmile_qr_scan", "ios": "https://dc.lft.to/lastmile_qr_scan"}, "lon": -76.96239166666666, "fusion_lat": 0.0}, {"name": "6caa40168955fb1c428ad70afde2a653", "fusion_lon": 0.0, "lat": 38.8932255, "is_reserved": 0, "type": "electric_scooter", "bike_id": "6caa40168955fb1c428ad70afde2a653", "is_disabled": 0, "rental_uris": {"android": "https://dc.lft.to/lastmile_qr_scan", "ios": "https://dc.lft.to/lastmile_qr_scan"}, "lon": -77.048734, "fusion_lat": 0.0}, {"name": "cf3b3a6d9d5b1b6e9a3a0dca749ae01d", "fusion_lon": 0.0, "lat": 38.916118833333336, "is_reserved": 0, "type": "electric_scooter", "bike_id": "cf3b3a6d9d5b1b6e9a3a0dca749ae01d", "is_disabled": 0, "rental_uris": {"android": "https://dc.lft.to/lastmile_qr_scan", "ios": "https://dc.lft.to/lastmile_qr_scan"}, "lon": -77.04849983333334, "fusion_lat": 0.0}, {"name": "905e97f4ca1df2a04acb458b0c774520", "fusion_lon": 0.0, "lat": 38.9239805, "is_reserved": 0, "type": "electric_scooter", "bike_id": "905e97f4ca1df2a04acb458b0c774520", "is_disabled": 0, "rental_uris": {"android": "https://dc.lft.to/lastmile_qr_scan", "ios": "https://dc.lft.to/lastmile_qr_scan"}, "lon": -77.02140383333334, "fusion_lat": 0.0}, {"name": "487bbe1629d7a099d796d180459419b8", "fusion_lon": 0.0, "lat": 38.87293416666667, "is_reserved": 0, "type": "electric_scooter", "bike_id": "487bbe1629d7a099d796d180459419b8", "is_disabled": 0, "rental_uris": {"android": "https://dc.lft.to/lastmile_qr_scan", "ios": "https://dc.lft.to/lastmile_qr_scan"}, "lon": -77.00986683333333, "fusion_lat": 0.0}, {"name": "2ab893f834683902818ba4d0c6192dae", "fusion_lon": 0.0, "lat": 38.915321166666665, "is_reserved": 0, "type": "electric_scooter", "bike_id": "2ab893f834683902818ba4d0c6192dae", "is_disabled": 0, "rental_uris": {"android": "https://dc.lft.to/lastmile_qr_scan", "ios": "https://dc.lft.to/lastmile_qr_scan"}, "lon": -77.03858883333334, "fusion_lat": 0.0}, {"name": "9730b8e80a5b844ce4f2eefdd7bc3555", "fusion_lon": 0.0, "lat": 38.90830283333333, "is_reserved": 0, "type": "electric_scooter", "bike_id": "9730b8e80a5b844ce4f2eefdd7bc3555", "is_disabled": 0, "rental_uris": {"android": "https://dc.lft.to/lastmile_qr_scan", "ios": "https://dc.lft.to/lastmile_qr_scan"}, "lon": -77.03926166666666, "fusion_lat": 0.0}, {"name": "bd2ed6603a80e3cc3eb29c5a492aa1ba", "fusion_lon": 0.0, "lat": 38.86353483333333, "is_reserved": 0, "type": "electric_scooter", "bike_id": "bd2ed6603a80e3cc3eb29c5a492aa1ba", "is_disabled": 0, "rental_uris": {"android": "https://dc.lft.to/lastmile_qr_scan", "ios": "https://dc.lft.to/lastmile_qr_scan"}, "lon": -76.987047, "fusion_lat": 0.0}, {"name": "6cbd0e843281604e69b49be74b61150b", "fusion_lon": 0.0, "lat": 38.898428, "is_reserved": 0, "type": "electric_scooter", "bike_id": "6cbd0e843281604e69b49be74b61150b", "is_disabled": 0, "rental_uris": {"android": "https://dc.lft.to/lastmile_qr_scan", "ios": "https://dc.lft.to/lastmile_qr_scan"}, "lon": -77.033205, "fusion_lat": 0.0}, {"name": "b2ea7d6be9c399c42a193ab47bfc43cf", "fusion_lon": 0.0, "lat": 38.92313866666667, "is_reserved": 0, "type": "electric_scooter", "bike_id": "b2ea7d6be9c399c42a193ab47bfc43cf", "is_disabled": 0, "rental_uris": {"android": "https://dc.lft.to/lastmile_qr_scan", "ios": "https://dc.lft.to/lastmile_qr_scan"}, "lon": -77.02758816666666, "fusion_lat": 0.0}, {"name": "bc6d3099e46f4f6ed616302b6c305455", "fusion_lon": 0.0, "lat": 38.942092, "is_reserved": 0, "type": "electric_scooter", "bike_id": "bc6d3099e46f4f6ed616302b6c305455", "is_disabled": 0, "rental_uris": {"android": "https://dc.lft.to/lastmile_qr_scan", "ios": "https://dc.lft.to/lastmile_qr_scan"}, "lon": -77.0251835, "fusion_lat": 0.0}, {"name": "00ea5ae9511b4900977fafeb5d647161", "fusion_lon": 0.0, "lat": 38.920354833333334, "is_reserved": 0, "type": "electric_scooter", "bike_id": "00ea5ae9511b4900977fafeb5d647161", "is_disabled": 0, "rental_uris": {"android": "https://dc.lft.to/lastmile_qr_scan", "ios": "https://dc.lft.to/lastmile_qr_scan"}, "lon": -77.016666, "fusion_lat": 0.0}, {"name": "00519d4562f986c35b66a8bf8adc15d8", "fusion_lon": 0.0, "lat": 38.9179355, "is_reserved": 0, "type": "electric_scooter", "bike_id": "00519d4562f986c35b66a8bf8adc15d8", "is_disabled": 0, "rental_uris": {"android": "https://dc.lft.to/lastmile_qr_scan", "ios": "https://dc.lft.to/lastmile_qr_scan"}, "lon": -77.0421085, "fusion_lat": 0.0}, {"name": "bfe01405e8d0415c364b5f0524a4655e", "fusion_lon": 0.0, "lat": 38.9051475, "is_reserved": 0, "type": "electric_scooter", "bike_id": "bfe01405e8d0415c364b5f0524a4655e", "is_disabled": 0, "rental_uris": {"android": "https://dc.lft.to/lastmile_qr_scan", "ios": "https://dc.lft.to/lastmile_qr_scan"}, "lon": -77.066819, "fusion_lat": 0.0}, {"name": "107532c4760b975d17547fe1c4b4e101", "fusion_lon": 0.0, "lat": 38.88581283333333, "is_reserved": 0, "type": "electric_scooter", "bike_id": "107532c4760b975d17547fe1c4b4e101", "is_disabled": 0, "rental_uris": {"android": "https://dc.lft.to/lastmile_qr_scan", "ios": "https://dc.lft.to/lastmile_qr_scan"}, "lon": -77.0201715, "fusion_lat": 0.0}, {"name": "d7f5a24af1c581f3f505b4360c527d1a", "fusion_lon": 0.0, "lat": 38.922068833333334, "is_reserved": 0, "type": "electric_bike", "bike_id": "d7f5a24af1c581f3f505b4360c527d1a", "is_disabled": 0, "rental_uris": {"android": "https://dc.lft.to/lastmile_qr_scan", "ios": "https://dc.lft.to/lastmile_qr_scan"}, "lon": -76.987982, "fusion_lat": 0.0}, {"name": "ff4ca9e2d89b1c476a610f87d0a572c2", "fusion_lon": 0.0, "lat": 38.920333, "is_reserved": 0, "type": "electric_scooter", "bike_id": "ff4ca9e2d89b1c476a610f87d0a572c2", "is_disabled": 0, "rental_uris": {"android": "https://dc.lft.to/lastmile_qr_scan", "ios": "https://dc.lft.to/lastmile_qr_scan"}, "lon": -77.01006216666667, "fusion_lat": 0.0}, {"name": "67dc500513f23dc72534ce70582e2f74", "fusion_lon": 0.0, "lat": 38.88815566666667, "is_reserved": 0, "type": "electric_scooter", "bike_id": "67dc500513f23dc72534ce70582e2f74", "is_disabled": 0, "rental_uris": {"android": "https://dc.lft.to/lastmile_qr_scan", "ios": "https://dc.lft.to/lastmile_qr_scan"}, "lon": -76.93345466666666, "fusion_lat": 0.0}, {"name": "aa79819136dfa0e1404757918a12e18e", "fusion_lon": 0.0, "lat": 38.9032715, "is_reserved": 0, "type": "electric_scooter", "bike_id": "aa79819136dfa0e1404757918a12e18e", "is_disabled": 0, "rental_uris": {"android": "https://dc.lft.to/lastmile_qr_scan", "ios": "https://dc.lft.to/lastmile_qr_scan"}, "lon": -77.0384375, "fusion_lat": 0.0}, {"name": "3f23bc08d41ee05d558d795a4813f4a9", "fusion_lon": 0.0, "lat": 38.89744316666667, "is_reserved": 0, "type": "electric_scooter", "bike_id": "3f23bc08d41ee05d558d795a4813f4a9", "is_disabled": 0, "rental_uris": {"android": "https://dc.lft.to/lastmile_qr_scan", "ios": "https://dc.lft.to/lastmile_qr_scan"}, "lon": -77.04285266666666, "fusion_lat": 0.0}, {"name": "5cfec241e0984557db23e37f6163cb79", "fusion_lon": 0.0, "lat": 38.918340666666666, "is_reserved": 0, "type": "electric_scooter", "bike_id": "5cfec241e0984557db23e37f6163cb79", "is_disabled": 0, "rental_uris": {"android": "https://dc.lft.to/lastmile_qr_scan", "ios": "https://dc.lft.to/lastmile_qr_scan"}, "lon": -77.03179383333334, "fusion_lat": 0.0}, {"name": "1abb57b2c93bd7560cbadd4f5cf10fcf", "fusion_lon": 0.0, "lat": 38.860950833333334, "is_reserved": 0, "type": "electric_bike", "bike_id": "1abb57b2c93bd7560cbadd4f5cf10fcf", "is_disabled": 0, "rental_uris": {"android": "https://dc.lft.to/lastmile_qr_scan", "ios": "https://dc.lft.to/lastmile_qr_scan"}, "lon": -77.095872, "fusion_lat": 0.0}, {"name": "1338759956c5bc6cc32576e61385e7c9", "fusion_lon": 0.0, "lat": 38.8962655, "is_reserved": 0, "type": "electric_scooter", "bike_id": "1338759956c5bc6cc32576e61385e7c9", "is_disabled": 0, "rental_uris": {"android": "https://dc.lft.to/lastmile_qr_scan", "ios": "https://dc.lft.to/lastmile_qr_scan"}, "lon": -77.02816666666666, "fusion_lat": 0.0}, {"name": "f61b34de8ba94d908da1192ea28f1f3e", "fusion_lon": 0.0, "lat": 38.915966, "is_reserved": 0, "type": "electric_scooter", "bike_id": "f61b34de8ba94d908da1192ea28f1f3e", "is_disabled": 0, "rental_uris": {"android": "https://dc.lft.to/lastmile_qr_scan", "ios": "https://dc.lft.to/lastmile_qr_scan"}, "lon": -77.02181, "fusion_lat": 0.0}, {"name": "7ecd2015ec3fb82e93df1472e82ab238", "fusion_lon": 0.0, "lat": 38.91413333333333, "is_reserved": 0, "type": "electric_scooter", "bike_id": "7ecd2015ec3fb82e93df1472e82ab238", "is_disabled": 0, "rental_uris": {"android": "https://dc.lft.to/lastmile_qr_scan", "ios": "https://dc.lft.to/lastmile_qr_scan"}, "lon": -77.02221816666666, "fusion_lat": 0.0}, {"name": "b183ef2ed3c5b899dceeae3cd5200cec", "fusion_lon": 0.0, "lat": 38.924741833333336, "is_reserved": 0, "type": "electric_scooter", "bike_id": "b183ef2ed3c5b899dceeae3cd5200cec", "is_disabled": 0, "rental_uris": {"android": "https://dc.lft.to/lastmile_qr_scan", "ios": "https://dc.lft.to/lastmile_qr_scan"}, "lon": -77.02197883333334, "fusion_lat": 0.0}, {"name": "a9daf1b19fadb24ba859f8f9011aae5f", "fusion_lon": 0.0, "lat": 38.903588, "is_reserved": 0, "type": "electric_scooter", "bike_id": "a9daf1b19fadb24ba859f8f9011aae5f", "is_disabled": 0, "rental_uris": {"android": "https://dc.lft.to/lastmile_qr_scan", "ios": "https://dc.lft.to/lastmile_qr_scan"}, "lon": -77.0462235, "fusion_lat": 0.0}, {"name": "f5ca1e8ce029e0874632c2a97d3e7e70", "fusion_lon": 0.0, "lat": 38.90256016666667, "is_reserved": 0, "type": "electric_scooter", "bike_id": "f5ca1e8ce029e0874632c2a97d3e7e70", "is_disabled": 0, "rental_uris": {"android": "https://dc.lft.to/lastmile_qr_scan", "ios": "https://dc.lft.to/lastmile_qr_scan"}, "lon": -77.02817633333333, "fusion_lat": 0.0}, {"name": "00f61283226e282a41dcff9d305d3167", "fusion_lon": 0.0, "lat": 38.928628333333336, "is_reserved": 0, "type": "electric_scooter", "bike_id": "00f61283226e282a41dcff9d305d3167", "is_disabled": 0, "rental_uris": {"android": "https://dc.lft.to/lastmile_qr_scan", "ios": "https://dc.lft.to/lastmile_qr_scan"}, "lon": -77.033378, "fusion_lat": 0.0}, {"name": "2ff41206cf7984cc8aea4ce0e07025e3", "fusion_lon": 0.0, "lat": 38.876660333333334, "is_reserved": 0, "type": "electric_scooter", "bike_id": "2ff41206cf7984cc8aea4ce0e07025e3", "is_disabled": 0, "rental_uris": {"android": "https://dc.lft.to/lastmile_qr_scan", "ios": "https://dc.lft.to/lastmile_qr_scan"}, "lon": -77.00233866666666, "fusion_lat": 0.0}, {"name": "d720510824b616419a270a96d17592f7", "fusion_lon": 0.0, "lat": 38.922543166666664, "is_reserved": 0, "type": "electric_scooter", "bike_id": "d720510824b616419a270a96d17592f7", "is_disabled": 0, "rental_uris": {"android": "https://dc.lft.to/lastmile_qr_scan", "ios": "https://dc.lft.to/lastmile_qr_scan"}, "lon": -77.0308715, "fusion_lat": 0.0}, {"name": "faa3860b46db36ebac35c4ffa6aa300f", "fusion_lon": 0.0, "lat": 38.89223466666667, "is_reserved": 0, "type": "electric_scooter", "bike_id": "faa3860b46db36ebac35c4ffa6aa300f", "is_disabled": 0, "rental_uris": {"android": "https://dc.lft.to/lastmile_qr_scan", "ios": "https://dc.lft.to/lastmile_qr_scan"}, "lon": -77.04858533333334, "fusion_lat": 0.0}, {"name": "3209e49795a3d08208c3c83f4f0c2533", "fusion_lon": 0.0, "lat": 38.927239666666665, "is_reserved": 0, "type": "electric_scooter", "bike_id": "3209e49795a3d08208c3c83f4f0c2533", "is_disabled": 0, "rental_uris": {"android": "https://dc.lft.to/lastmile_qr_scan", "ios": "https://dc.lft.to/lastmile_qr_scan"}, "lon": -77.02306, "fusion_lat": 0.0}, {"name": "2748914267358c692b89d364547829db", "fusion_lon": 0.0, "lat": 38.87881266666667, "is_reserved": 0, "type": "electric_scooter", "bike_id": "2748914267358c692b89d364547829db", "is_disabled": 0, "rental_uris": {"android": "https://dc.lft.to/lastmile_qr_scan", "ios": "https://dc.lft.to/lastmile_qr_scan"}, "lon": -77.00818266666667, "fusion_lat": 0.0}, {"name": "596890111de274c54ec3e339663b509c", "fusion_lon": 0.0, "lat": 38.909328, "is_reserved": 0, "type": "electric_scooter", "bike_id": "596890111de274c54ec3e339663b509c", "is_disabled": 0, "rental_uris": {"android": "https://dc.lft.to/lastmile_qr_scan", "ios": "https://dc.lft.to/lastmile_qr_scan"}, "lon": -77.02694233333334, "fusion_lat": 0.0}, {"name": "b9614150ea8d2397250cd53f1984abad", "fusion_lon": 0.0, "lat": 38.8960745, "is_reserved": 0, "type": "electric_scooter", "bike_id": "b9614150ea8d2397250cd53f1984abad", "is_disabled": 0, "rental_uris": {"android": "https://dc.lft.to/lastmile_qr_scan", "ios": "https://dc.lft.to/lastmile_qr_scan"}, "lon": -77.05058616666666, "fusion_lat": 0.0}, {"name": "07e1ed4b23435ede35743348e308e5d9", "fusion_lon": 0.0, "lat": 38.9027015, "is_reserved": 0, "type": "electric_scooter", "bike_id": "07e1ed4b23435ede35743348e308e5d9", "is_disabled": 0, "rental_uris": {"android": "https://dc.lft.to/lastmile_qr_scan", "ios": "https://dc.lft.to/lastmile_qr_scan"}, "lon": -77.00324766666667, "fusion_lat": 0.0}, {"name": "ce8099acf6354ee2a5f2ae45b70dbd0c", "fusion_lon": 0.0, "lat": 38.865029166666666, "is_reserved": 0, "type": "electric_scooter", "bike_id": "ce8099acf6354ee2a5f2ae45b70dbd0c", "is_disabled": 0, "rental_uris": {"android": "https://dc.lft.to/lastmile_qr_scan", "ios": "https://dc.lft.to/lastmile_qr_scan"}, "lon": -76.99000233333334, "fusion_lat": 0.0}, {"name": "3b7b059a5b700bf15c633c206d39767b", "fusion_lon": 0.0, "lat": 38.905933166666664, "is_reserved": 0, "type": "electric_scooter", "bike_id": "3b7b059a5b700bf15c633c206d39767b", "is_disabled": 0, "rental_uris": {"android": "https://dc.lft.to/lastmile_qr_scan", "ios": "https://dc.lft.to/lastmile_qr_scan"}, "lon": -77.02195033333334, "fusion_lat": 0.0}, {"name": "b355ff2ede0a0b602f9724e1289b7734", "fusion_lon": 0.0, "lat": 38.89836783333333, "is_reserved": 0, "type": "electric_bike", "bike_id": "b355ff2ede0a0b602f9724e1289b7734", "is_disabled": 0, "rental_uris": {"android": "https://dc.lft.to/lastmile_qr_scan", "ios": "https://dc.lft.to/lastmile_qr_scan"}, "lon": -77.0246955, "fusion_lat": 0.0}, {"name": "860300c899ed4a528b7186d6cf170243", "fusion_lon": 0.0, "lat": 38.882437833333334, "is_reserved": 0, "type": "electric_bike", "bike_id": "860300c899ed4a528b7186d6cf170243", "is_disabled": 0, "rental_uris": {"android": "https://dc.lft.to/lastmile_qr_scan", "ios": "https://dc.lft.to/lastmile_qr_scan"}, "lon": -76.962527, "fusion_lat": 0.0}, {"name": "2f8898dbda2a2002970ee5e579643a50", "fusion_lon": 0.0, "lat": 38.88211783333333, "is_reserved": 0, "type": "electric_scooter", "bike_id": "2f8898dbda2a2002970ee5e579643a50", "is_disabled": 0, "rental_uris": {"android": "https://dc.lft.to/lastmile_qr_scan", "ios": "https://dc.lft.to/lastmile_qr_scan"}, "lon": -76.98920116666666, "fusion_lat": 0.0}, {"name": "8dacfe69531a30743830f16c3d9bc253", "fusion_lon": 0.0, "lat": 38.924959666666666, "is_reserved": 0, "type": "electric_scooter", "bike_id": "8dacfe69531a30743830f16c3d9bc253", "is_disabled": 0, "rental_uris": {"android": "https://dc.lft.to/lastmile_qr_scan", "ios": "https://dc.lft.to/lastmile_qr_scan"}, "lon": -77.02154616666667, "fusion_lat": 0.0}, {"name": "6b3e0c7ad8ce4d52b03c63bdb173a08f", "fusion_lon": 0.0, "lat": 38.918419, "is_reserved": 0, "type": "electric_scooter", "bike_id": "6b3e0c7ad8ce4d52b03c63bdb173a08f", "is_disabled": 0, "rental_uris": {"android": "https://dc.lft.to/lastmile_qr_scan", "ios": "https://dc.lft.to/lastmile_qr_scan"}, "lon": -77.02295283333333, "fusion_lat": 0.0}, {"name": "b0745c245bda4ed84f0a6bb14a2260cc", "fusion_lon": 0.0, "lat": 38.9082795, "is_reserved": 0, "type": "electric_scooter", "bike_id": "b0745c245bda4ed84f0a6bb14a2260cc", "is_disabled": 0, "rental_uris": {"android": "https://dc.lft.to/lastmile_qr_scan", "ios": "https://dc.lft.to/lastmile_qr_scan"}, "lon": -76.93446383333334, "fusion_lat": 0.0}, {"name": "89059905ae990a69826180cf478ffa5d", "fusion_lon": 0.0, "lat": 38.87689016666667, "is_reserved": 0, "type": "electric_scooter", "bike_id": "89059905ae990a69826180cf478ffa5d", "is_disabled": 0, "rental_uris": {"android": "https://dc.lft.to/lastmile_qr_scan", "ios": "https://dc.lft.to/lastmile_qr_scan"}, "lon": -77.004073, "fusion_lat": 0.0}, {"name": "d4c7491ee8cfaa0b73c31350476226e7", "fusion_lon": 0.0, "lat": 38.900948666666665, "is_reserved": 0, "type": "electric_scooter", "bike_id": "d4c7491ee8cfaa0b73c31350476226e7", "is_disabled": 0, "rental_uris": {"android": "https://dc.lft.to/lastmile_qr_scan", "ios": "https://dc.lft.to/lastmile_qr_scan"}, "lon": -76.97645866666667, "fusion_lat": 0.0}, {"name": "89057ba9fb6426e74f8842c026a338b8", "fusion_lon": 0.0, "lat": 38.928720166666665, "is_reserved": 0, "type": "electric_scooter", "bike_id": "89057ba9fb6426e74f8842c026a338b8", "is_disabled": 0, "rental_uris": {"android": "https://dc.lft.to/lastmile_qr_scan", "ios": "https://dc.lft.to/lastmile_qr_scan"}, "lon": -77.021692, "fusion_lat": 0.0}, {"name": "fbdf1d77e8c784621b803f8d0c2e9f2d", "fusion_lon": 0.0, "lat": 38.854415833333334, "is_reserved": 0, "type": "electric_bike", "bike_id": "fbdf1d77e8c784621b803f8d0c2e9f2d", "is_disabled": 0, "rental_uris": {"android": "https://dc.lft.to/lastmile_qr_scan", "ios": "https://dc.lft.to/lastmile_qr_scan"}, "lon": -77.08308333333333, "fusion_lat": 0.0}, {"name": "54f853c8e7cbd3f4d29845c3844776dc", "fusion_lon": 0.0, "lat": 38.9071185, "is_reserved": 0, "type": "electric_scooter", "bike_id": "54f853c8e7cbd3f4d29845c3844776dc", "is_disabled": 0, "rental_uris": {"android": "https://dc.lft.to/lastmile_qr_scan", "ios": "https://dc.lft.to/lastmile_qr_scan"}, "lon": -77.03516, "fusion_lat": 0.0}, {"name": "88c0464ec8e21a90f31b6ebda27b9be9", "fusion_lon": 0.0, "lat": 38.9232865, "is_reserved": 0, "type": "electric_scooter", "bike_id": "88c0464ec8e21a90f31b6ebda27b9be9", "is_disabled": 0, "rental_uris": {"android": "https://dc.lft.to/lastmile_qr_scan", "ios": "https://dc.lft.to/lastmile_qr_scan"}, "lon": -77.01960616666666, "fusion_lat": 0.0}, {"name": "ad1d1c9b06f8232df3f562a6c36bb676", "fusion_lon": 0.0, "lat": 38.90148883333333, "is_reserved": 0, "type": "electric_scooter", "bike_id": "ad1d1c9b06f8232df3f562a6c36bb676", "is_disabled": 0, "rental_uris": {"android": "https://dc.lft.to/lastmile_qr_scan", "ios": "https://dc.lft.to/lastmile_qr_scan"}, "lon": -77.04397466666667, "fusion_lat": 0.0}, {"name": "7aac25efe91992dc9869b47361d53ce5", "fusion_lon": 0.0, "lat": 38.920149333333335, "is_reserved": 0, "type": "electric_scooter", "bike_id": "7aac25efe91992dc9869b47361d53ce5", "is_disabled": 0, "rental_uris": {"android": "https://dc.lft.to/lastmile_qr_scan", "ios": "https://dc.lft.to/lastmile_qr_scan"}, "lon": -77.03116183333333, "fusion_lat": 0.0}, {"name": "9ff1c4f56b19179961e83135e20be53a", "fusion_lon": 0.0, "lat": 38.876128333333334, "is_reserved": 0, "type": "electric_scooter", "bike_id": "9ff1c4f56b19179961e83135e20be53a", "is_disabled": 0, "rental_uris": {"android": "https://dc.lft.to/lastmile_qr_scan", "ios": "https://dc.lft.to/lastmile_qr_scan"}, "lon": -77.000926, "fusion_lat": 0.0}, {"name": "dd7101effc7ded16fb89ea94a35c21e9", "fusion_lon": 0.0, "lat": 38.9183255, "is_reserved": 0, "type": "electric_scooter", "bike_id": "dd7101effc7ded16fb89ea94a35c21e9", "is_disabled": 0, "rental_uris": {"android": "https://dc.lft.to/lastmile_qr_scan", "ios": "https://dc.lft.to/lastmile_qr_scan"}, "lon": -77.03175283333333, "fusion_lat": 0.0}, {"name": "e639431b90289a0846c7239457fa91c9", "fusion_lon": 0.0, "lat": 38.900102833333335, "is_reserved": 0, "type": "electric_scooter", "bike_id": "e639431b90289a0846c7239457fa91c9", "is_disabled": 0, "rental_uris": {"android": "https://dc.lft.to/lastmile_qr_scan", "ios": "https://dc.lft.to/lastmile_qr_scan"}, "lon": -77.00682083333334, "fusion_lat": 0.0}, {"name": "b65d879c2f20ab7cfac8a70bbbc2c9a1", "fusion_lon": 0.0, "lat": 38.91981966666667, "is_reserved": 0, "type": "electric_scooter", "bike_id": "b65d879c2f20ab7cfac8a70bbbc2c9a1", "is_disabled": 0, "rental_uris": {"android": "https://dc.lft.to/lastmile_qr_scan", "ios": "https://dc.lft.to/lastmile_qr_scan"}, "lon": -77.07701266666666, "fusion_lat": 0.0}, {"name": "ffdae0a3561d4a1c052800e3aac95e25", "fusion_lon": 0.0, "lat": 38.907191, "is_reserved": 0, "type": "electric_scooter", "bike_id": "ffdae0a3561d4a1c052800e3aac95e25", "is_disabled": 0, "rental_uris": {"android": "https://dc.lft.to/lastmile_qr_scan", "ios": "https://dc.lft.to/lastmile_qr_scan"}, "lon": -77.03370283333334, "fusion_lat": 0.0}, {"name": "ef6e3baa528668922ef9609431d898e6", "fusion_lon": 0.0, "lat": 38.917283166666664, "is_reserved": 0, "type": "electric_scooter", "bike_id": "ef6e3baa528668922ef9609431d898e6", "is_disabled": 0, "rental_uris": {"android": "https://dc.lft.to/lastmile_qr_scan", "ios": "https://dc.lft.to/lastmile_qr_scan"}, "lon": -77.02498083333333, "fusion_lat": 0.0}, {"name": "476fe56a59eb98797d9832669cfd18bd", "fusion_lon": 0.0, "lat": 38.920843833333336, "is_reserved": 0, "type": "electric_scooter", "bike_id": "476fe56a59eb98797d9832669cfd18bd", "is_disabled": 0, "rental_uris": {"android": "https://dc.lft.to/lastmile_qr_scan", "ios": "https://dc.lft.to/lastmile_qr_scan"}, "lon": -77.042119, "fusion_lat": 0.0}, {"name": "963b133e2b4a5e8520a564513dd0348d", "fusion_lon": 0.0, "lat": 38.9353765, "is_reserved": 0, "type": "electric_scooter", "bike_id": "963b133e2b4a5e8520a564513dd0348d", "is_disabled": 0, "rental_uris": {"android": "https://dc.lft.to/lastmile_qr_scan", "ios": "https://dc.lft.to/lastmile_qr_scan"}, "lon": -77.0347545, "fusion_lat": 0.0}, {"name": "a6a3026f0191d8a1a3b27eca1e93515b", "fusion_lon": 0.0, "lat": 38.927095333333334, "is_reserved": 0, "type": "electric_scooter", "bike_id": "a6a3026f0191d8a1a3b27eca1e93515b", "is_disabled": 0, "rental_uris": {"android": "https://dc.lft.to/lastmile_qr_scan", "ios": "https://dc.lft.to/lastmile_qr_scan"}, "lon": -77.02092016666667, "fusion_lat": 0.0}, {"name": "56d95a5f56b7673f7ffea57dcfe3e8d1", "fusion_lon": 0.0, "lat": 38.956669166666664, "is_reserved": 0, "type": "electric_scooter", "bike_id": "56d95a5f56b7673f7ffea57dcfe3e8d1", "is_disabled": 0, "rental_uris": {"android": "https://dc.lft.to/lastmile_qr_scan", "ios": "https://dc.lft.to/lastmile_qr_scan"}, "lon": -77.0103825, "fusion_lat": 0.0}, {"name": "9179bd3a4c5b4682cfd2d481c9ad5e46", "fusion_lon": 0.0, "lat": 38.90834916666667, "is_reserved": 0, "type": "electric_scooter", "bike_id": "9179bd3a4c5b4682cfd2d481c9ad5e46", "is_disabled": 0, "rental_uris": {"android": "https://dc.lft.to/lastmile_qr_scan", "ios": "https://dc.lft.to/lastmile_qr_scan"}, "lon": -77.04459933333334, "fusion_lat": 0.0}, {"name": "9e52f85232869ee0b4f74dc0ae4a58ea", "fusion_lon": 0.0, "lat": 38.90752883333333, "is_reserved": 0, "type": "electric_scooter", "bike_id": "9e52f85232869ee0b4f74dc0ae4a58ea", "is_disabled": 0, "rental_uris": {"android": "https://dc.lft.to/lastmile_qr_scan", "ios": "https://dc.lft.to/lastmile_qr_scan"}, "lon": -76.9988315, "fusion_lat": 0.0}, {"name": "8990ceab16069ee22357310f8fac121d", "fusion_lon": 0.0, "lat": 38.92878183333333, "is_reserved": 0, "type": "electric_bike", "bike_id": "8990ceab16069ee22357310f8fac121d", "is_disabled": 0, "rental_uris": {"android": "https://dc.lft.to/lastmile_qr_scan", "ios": "https://dc.lft.to/lastmile_qr_scan"}, "lon": -77.012471, "fusion_lat": 0.0}, {"name": "b50c30efa77c1bc27edb16442e5a9264", "fusion_lon": 0.0, "lat": 38.925075166666666, "is_reserved": 0, "type": "electric_scooter", "bike_id": "b50c30efa77c1bc27edb16442e5a9264", "is_disabled": 0, "rental_uris": {"android": "https://dc.lft.to/lastmile_qr_scan", "ios": "https://dc.lft.to/lastmile_qr_scan"}, "lon": -77.0270225, "fusion_lat": 0.0}, {"name": "7244c3a58039909c0c641dc36f0950d9", "fusion_lon": 0.0, "lat": 38.928499333333335, "is_reserved": 0, "type": "electric_scooter", "bike_id": "7244c3a58039909c0c641dc36f0950d9", "is_disabled": 0, "rental_uris": {"android": "https://dc.lft.to/lastmile_qr_scan", "ios": "https://dc.lft.to/lastmile_qr_scan"}, "lon": -77.01411533333334, "fusion_lat": 0.0}, {"name": "ed39e7b7d5038d7fd53ab62abeb46075", "fusion_lon": 0.0, "lat": 38.91384516666667, "is_reserved": 0, "type": "electric_bike", "bike_id": "ed39e7b7d5038d7fd53ab62abeb46075", "is_disabled": 0, "rental_uris": {"android": "https://dc.lft.to/lastmile_qr_scan", "ios": "https://dc.lft.to/lastmile_qr_scan"}, "lon": -77.08932616666667, "fusion_lat": 0.0}, {"name": "a58d408a35ce0286d95bfe56dde1b30d", "fusion_lon": 0.0, "lat": 38.8443265, "is_reserved": 0, "type": "electric_scooter", "bike_id": "a58d408a35ce0286d95bfe56dde1b30d", "is_disabled": 0, "rental_uris": {"android": "https://dc.lft.to/lastmile_qr_scan", "ios": "https://dc.lft.to/lastmile_qr_scan"}, "lon": -76.99812616666667, "fusion_lat": 0.0}, {"name": "9249bf76aea41974fab78c441b94d9da", "fusion_lon": 0.0, "lat": 38.83431083333333, "is_reserved": 0, "type": "electric_bike", "bike_id": "9249bf76aea41974fab78c441b94d9da", "is_disabled": 0, "rental_uris": {"android": "https://dc.lft.to/lastmile_qr_scan", "ios": "https://dc.lft.to/lastmile_qr_scan"}, "lon": -77.10356666666667, "fusion_lat": 0.0}, {"name": "325f905ecd445e2df13f9e8f7e82d363", "fusion_lon": 0.0, "lat": 38.8922055, "is_reserved": 0, "type": "electric_bike", "bike_id": "325f905ecd445e2df13f9e8f7e82d363", "is_disabled": 0, "rental_uris": {"android": "https://dc.lft.to/lastmile_qr_scan", "ios": "https://dc.lft.to/lastmile_qr_scan"}, "lon": -76.97084616666666, "fusion_lat": 0.0}, {"name": "6e3a95ee721f20afc60222d706f5d93d", "fusion_lon": 0.0, "lat": 38.899535666666665, "is_reserved": 0, "type": "electric_scooter", "bike_id": "6e3a95ee721f20afc60222d706f5d93d", "is_disabled": 0, "rental_uris": {"android": "https://dc.lft.to/lastmile_qr_scan", "ios": "https://dc.lft.to/lastmile_qr_scan"}, "lon": -77.02184866666667, "fusion_lat": 0.0}, {"name": "f2a80d1807345a24509891fdd6cd9726", "fusion_lon": 0.0, "lat": 38.90058966666667, "is_reserved": 0, "type": "electric_scooter", "bike_id": "f2a80d1807345a24509891fdd6cd9726", "is_disabled": 0, "rental_uris": {"android": "https://dc.lft.to/lastmile_qr_scan", "ios": "https://dc.lft.to/lastmile_qr_scan"}, "lon": -76.98707233333333, "fusion_lat": 0.0}, {"name": "7ea03d1cb9cf0ecfe8fce8315348b71e", "fusion_lon": 0.0, "lat": 38.918906666666665, "is_reserved": 0, "type": "electric_scooter", "bike_id": "7ea03d1cb9cf0ecfe8fce8315348b71e", "is_disabled": 0, "rental_uris": {"android": "https://dc.lft.to/lastmile_qr_scan", "ios": "https://dc.lft.to/lastmile_qr_scan"}, "lon": -77.02296366666667, "fusion_lat": 0.0}, {"name": "a0c8c9df915f2f2d5d6c3347ae7eed9d", "fusion_lon": 0.0, "lat": 38.917068666666665, "is_reserved": 0, "type": "electric_scooter", "bike_id": "a0c8c9df915f2f2d5d6c3347ae7eed9d", "is_disabled": 0, "rental_uris": {"android": "https://dc.lft.to/lastmile_qr_scan", "ios": "https://dc.lft.to/lastmile_qr_scan"}, "lon": -77.09579133333334, "fusion_lat": 0.0}, {"name": "a759bc797106271051849d5ce7088b13", "fusion_lon": 0.0, "lat": 38.91787383333333, "is_reserved": 0, "type": "electric_scooter", "bike_id": "a759bc797106271051849d5ce7088b13", "is_disabled": 0, "rental_uris": {"android": "https://dc.lft.to/lastmile_qr_scan", "ios": "https://dc.lft.to/lastmile_qr_scan"}, "lon": -77.04201716666667, "fusion_lat": 0.0}, {"name": "25d002a98361d319d2519bfd721b7b1a", "fusion_lon": 0.0, "lat": 38.900775333333335, "is_reserved": 0, "type": "electric_scooter", "bike_id": "25d002a98361d319d2519bfd721b7b1a", "is_disabled": 0, "rental_uris": {"android": "https://dc.lft.to/lastmile_qr_scan", "ios": "https://dc.lft.to/lastmile_qr_scan"}, "lon": -77.04987033333333, "fusion_lat": 0.0}, {"name": "0139181fd46f319d810c8470f996949e", "fusion_lon": 0.0, "lat": 38.8922195, "is_reserved": 0, "type": "electric_scooter", "bike_id": "0139181fd46f319d810c8470f996949e", "is_disabled": 0, "rental_uris": {"android": "https://dc.lft.to/lastmile_qr_scan", "ios": "https://dc.lft.to/lastmile_qr_scan"}, "lon": -77.0486115, "fusion_lat": 0.0}, {"name": "a242d0f98acb7079e15e14e01b8d9840", "fusion_lon": 0.0, "lat": 38.9066365, "is_reserved": 0, "type": "electric_scooter", "bike_id": "a242d0f98acb7079e15e14e01b8d9840", "is_disabled": 0, "rental_uris": {"android": "https://dc.lft.to/lastmile_qr_scan", "ios": "https://dc.lft.to/lastmile_qr_scan"}, "lon": -77.0386375, "fusion_lat": 0.0}, {"name": "efbac5e37e736b6daa561ffb31d79c2c", "fusion_lon": 0.0, "lat": 38.90600166666667, "is_reserved": 0, "type": "electric_scooter", "bike_id": "efbac5e37e736b6daa561ffb31d79c2c", "is_disabled": 0, "rental_uris": {"android": "https://dc.lft.to/lastmile_qr_scan", "ios": "https://dc.lft.to/lastmile_qr_scan"}, "lon": -77.06526416666667, "fusion_lat": 0.0}, {"name": "a814e59d49236350742a1a4d79f3823b", "fusion_lon": 0.0, "lat": 38.9568985, "is_reserved": 0, "type": "electric_bike", "bike_id": "a814e59d49236350742a1a4d79f3823b", "is_disabled": 0, "rental_uris": {"android": "https://dc.lft.to/lastmile_qr_scan", "ios": "https://dc.lft.to/lastmile_qr_scan"}, "lon": -77.02228683333334, "fusion_lat": 0.0}, {"name": "9731177c4e10ead79fb8957f2ec64a8f", "fusion_lon": 0.0, "lat": 38.90542583333333, "is_reserved": 0, "type": "electric_scooter", "bike_id": "9731177c4e10ead79fb8957f2ec64a8f", "is_disabled": 0, "rental_uris": {"android": "https://dc.lft.to/lastmile_qr_scan", "ios": "https://dc.lft.to/lastmile_qr_scan"}, "lon": -77.05038383333333, "fusion_lat": 0.0}, {"name": "1dde0099fb9a0c07f94bde86f02da2c2", "fusion_lon": 0.0, "lat": 38.904123, "is_reserved": 0, "type": "electric_scooter", "bike_id": "1dde0099fb9a0c07f94bde86f02da2c2", "is_disabled": 0, "rental_uris": {"android": "https://dc.lft.to/lastmile_qr_scan", "ios": "https://dc.lft.to/lastmile_qr_scan"}, "lon": -76.9732805, "fusion_lat": 0.0}, {"name": "9b51d919275feb4140d58a679567865e", "fusion_lon": 0.0, "lat": 38.92166916666667, "is_reserved": 0, "type": "electric_scooter", "bike_id": "9b51d919275feb4140d58a679567865e", "is_disabled": 0, "rental_uris": {"android": "https://dc.lft.to/lastmile_qr_scan", "ios": "https://dc.lft.to/lastmile_qr_scan"}, "lon": -77.019134, "fusion_lat": 0.0}, {"name": "cac8084d68e8a12e46fea30cb0731c41", "fusion_lon": 0.0, "lat": 38.89841783333333, "is_reserved": 0, "type": "electric_scooter", "bike_id": "cac8084d68e8a12e46fea30cb0731c41", "is_disabled": 0, "rental_uris": {"android": "https://dc.lft.to/lastmile_qr_scan", "ios": "https://dc.lft.to/lastmile_qr_scan"}, "lon": -77.02277183333334, "fusion_lat": 0.0}, {"name": "833a7166c898142265577d2816f539ab", "fusion_lon": 0.0, "lat": 38.951520333333335, "is_reserved": 0, "type": "electric_scooter", "bike_id": "833a7166c898142265577d2816f539ab", "is_disabled": 0, "rental_uris": {"android": "https://dc.lft.to/lastmile_qr_scan", "ios": "https://dc.lft.to/lastmile_qr_scan"}, "lon": -77.01863183333333, "fusion_lat": 0.0}, {"name": "4560484ee225f81b7f54b1188ccf89bb", "fusion_lon": 0.0, "lat": 38.95732533333333, "is_reserved": 0, "type": "electric_scooter", "bike_id": "4560484ee225f81b7f54b1188ccf89bb", "is_disabled": 0, "rental_uris": {"android": "https://dc.lft.to/lastmile_qr_scan", "ios": "https://dc.lft.to/lastmile_qr_scan"}, "lon": -77.02401066666667, "fusion_lat": 0.0}, {"name": "dc8e12959f8afbde695fca54a89048e9", "fusion_lon": 0.0, "lat": 38.900833, "is_reserved": 0, "type": "electric_scooter", "bike_id": "dc8e12959f8afbde695fca54a89048e9", "is_disabled": 0, "rental_uris": {"android": "https://dc.lft.to/lastmile_qr_scan", "ios": "https://dc.lft.to/lastmile_qr_scan"}, "lon": -76.93021883333333, "fusion_lat": 0.0}, {"name": "81a7646d31c8875a6690c66d50d9bfff", "fusion_lon": 0.0, "lat": 38.924524, "is_reserved": 0, "type": "electric_scooter", "bike_id": "81a7646d31c8875a6690c66d50d9bfff", "is_disabled": 0, "rental_uris": {"android": "https://dc.lft.to/lastmile_qr_scan", "ios": "https://dc.lft.to/lastmile_qr_scan"}, "lon": -77.03993783333334, "fusion_lat": 0.0}, {"name": "996910ab6de4e8583abc8a4c16914d2e", "fusion_lon": 0.0, "lat": 38.9297185, "is_reserved": 0, "type": "electric_scooter", "bike_id": "996910ab6de4e8583abc8a4c16914d2e", "is_disabled": 0, "rental_uris": {"android": "https://dc.lft.to/lastmile_qr_scan", "ios": "https://dc.lft.to/lastmile_qr_scan"}, "lon": -77.01688233333333, "fusion_lat": 0.0}, {"name": "02e51ed022ac9e8d43e260c14a938d89", "fusion_lon": 0.0, "lat": 38.91102883333333, "is_reserved": 0, "type": "electric_scooter", "bike_id": "02e51ed022ac9e8d43e260c14a938d89", "is_disabled": 0, "rental_uris": {"android": "https://dc.lft.to/lastmile_qr_scan", "ios": "https://dc.lft.to/lastmile_qr_scan"}, "lon": -77.0035555, "fusion_lat": 0.0}, {"name": "a743eb189a77c657413208a77434e5d9", "fusion_lon": 0.0, "lat": 38.921490166666665, "is_reserved": 0, "type": "electric_scooter", "bike_id": "a743eb189a77c657413208a77434e5d9", "is_disabled": 0, "rental_uris": {"android": "https://dc.lft.to/lastmile_qr_scan", "ios": "https://dc.lft.to/lastmile_qr_scan"}, "lon": -77.03502216666666, "fusion_lat": 0.0}, {"name": "5e12b84c7f6c6856821fe1cbb23faa6d", "fusion_lon": 0.0, "lat": 38.90869, "is_reserved": 0, "type": "electric_scooter", "bike_id": "5e12b84c7f6c6856821fe1cbb23faa6d", "is_disabled": 0, "rental_uris": {"android": "https://dc.lft.to/lastmile_qr_scan", "ios": "https://dc.lft.to/lastmile_qr_scan"}, "lon": -77.03223016666666, "fusion_lat": 0.0}, {"name": "fbd43d0fed031792980167d9cf065c3b", "fusion_lon": 0.0, "lat": 38.95653266666667, "is_reserved": 0, "type": "electric_bike", "bike_id": "fbd43d0fed031792980167d9cf065c3b", "is_disabled": 0, "rental_uris": {"android": "https://dc.lft.to/lastmile_qr_scan", "ios": "https://dc.lft.to/lastmile_qr_scan"}, "lon": -77.01280583333333, "fusion_lat": 0.0}, {"name": "0c1b922a056cd4d534a4286f349b1b7a", "fusion_lon": 0.0, "lat": 38.918200666666664, "is_reserved": 0, "type": "electric_scooter", "bike_id": "0c1b922a056cd4d534a4286f349b1b7a", "is_disabled": 0, "rental_uris": {"android": "https://dc.lft.to/lastmile_qr_scan", "ios": "https://dc.lft.to/lastmile_qr_scan"}, "lon": -77.03663283333333, "fusion_lat": 0.0}, {"name": "a1ffbb3dd8318b0cbed79bc155ac67fc", "fusion_lon": 0.0, "lat": 38.90539316666667, "is_reserved": 0, "type": "electric_scooter", "bike_id": "a1ffbb3dd8318b0cbed79bc155ac67fc", "is_disabled": 0, "rental_uris": {"android": "https://dc.lft.to/lastmile_qr_scan", "ios": "https://dc.lft.to/lastmile_qr_scan"}, "lon": -77.030774, "fusion_lat": 0.0}, {"name": "6e76c00613154d7fb87a0b7083c28872", "fusion_lon": 0.0, "lat": 38.959430166666664, "is_reserved": 0, "type": "electric_scooter", "bike_id": "6e76c00613154d7fb87a0b7083c28872", "is_disabled": 0, "rental_uris": {"android": "https://dc.lft.to/lastmile_qr_scan", "ios": "https://dc.lft.to/lastmile_qr_scan"}, "lon": -77.03049866666667, "fusion_lat": 0.0}, {"name": "8992637562ccd06c7221b1cfd8485c10", "fusion_lon": 0.0, "lat": 38.880221166666665, "is_reserved": 0, "type": "electric_scooter", "bike_id": "8992637562ccd06c7221b1cfd8485c10", "is_disabled": 0, "rental_uris": {"android": "https://dc.lft.to/lastmile_qr_scan", "ios": "https://dc.lft.to/lastmile_qr_scan"}, "lon": -76.93115683333333, "fusion_lat": 0.0}, {"name": "170245ecd5017a7ab784f795c542dacb", "fusion_lon": 0.0, "lat": 38.85539383333333, "is_reserved": 0, "type": "electric_scooter", "bike_id": "170245ecd5017a7ab784f795c542dacb", "is_disabled": 0, "rental_uris": {"android": "https://dc.lft.to/lastmile_qr_scan", "ios": "https://dc.lft.to/lastmile_qr_scan"}, "lon": -76.98417583333334, "fusion_lat": 0.0}, {"name": "b69ddc9f7969566e45b58980de7cd9af", "fusion_lon": 0.0, "lat": 38.89863483333333, "is_reserved": 0, "type": "electric_scooter", "bike_id": "b69ddc9f7969566e45b58980de7cd9af", "is_disabled": 0, "rental_uris": {"android": "https://dc.lft.to/lastmile_qr_scan", "ios": "https://dc.lft.to/lastmile_qr_scan"}, "lon": -76.92754433333333, "fusion_lat": 0.0}, {"name": "1a285ff94af2e11c83820f87c3ba53a6", "fusion_lon": 0.0, "lat": 38.902481333333334, "is_reserved": 0, "type": "electric_scooter", "bike_id": "1a285ff94af2e11c83820f87c3ba53a6", "is_disabled": 0, "rental_uris": {"android": "https://dc.lft.to/lastmile_qr_scan", "ios": "https://dc.lft.to/lastmile_qr_scan"}, "lon": -77.043609, "fusion_lat": 0.0}, {"name": "31f0ff3d280015d14a9f03399690cff2", "fusion_lon": 0.0, "lat": 38.922401, "is_reserved": 0, "type": "electric_scooter", "bike_id": "31f0ff3d280015d14a9f03399690cff2", "is_disabled": 0, "rental_uris": {"android": "https://dc.lft.to/lastmile_qr_scan", "ios": "https://dc.lft.to/lastmile_qr_scan"}, "lon": -77.03351266666667, "fusion_lat": 0.0}, {"name": "becd15dbe834deff508e1d9c40e5366a", "fusion_lon": 0.0, "lat": 38.92619466666667, "is_reserved": 0, "type": "electric_scooter", "bike_id": "becd15dbe834deff508e1d9c40e5366a", "is_disabled": 0, "rental_uris": {"android": "https://dc.lft.to/lastmile_qr_scan", "ios": "https://dc.lft.to/lastmile_qr_scan"}, "lon": -77.04323983333333, "fusion_lat": 0.0}, {"name": "c7e8e680ef612e6a5d198d875cbd45ed", "fusion_lon": 0.0, "lat": 38.92244083333333, "is_reserved": 0, "type": "electric_scooter", "bike_id": "c7e8e680ef612e6a5d198d875cbd45ed", "is_disabled": 0, "rental_uris": {"android": "https://dc.lft.to/lastmile_qr_scan", "ios": "https://dc.lft.to/lastmile_qr_scan"}, "lon": -77.04269066666667, "fusion_lat": 0.0}, {"name": "7551468836415be8787dd98df2106cbc", "fusion_lon": 0.0, "lat": 38.9952945, "is_reserved": 0, "type": "electric_bike", "bike_id": "7551468836415be8787dd98df2106cbc", "is_disabled": 0, "rental_uris": {"android": "https://dc.lft.to/lastmile_qr_scan", "ios": "https://dc.lft.to/lastmile_qr_scan"}, "lon": -77.06940483333334, "fusion_lat": 0.0}, {"name": "ec70aff967e482333b6b33abe4d613db", "fusion_lon": 0.0, "lat": 38.866774666666664, "is_reserved": 0, "type": "electric_scooter", "bike_id": "ec70aff967e482333b6b33abe4d613db", "is_disabled": 0, "rental_uris": {"android": "https://dc.lft.to/lastmile_qr_scan", "ios": "https://dc.lft.to/lastmile_qr_scan"}, "lon": -76.9856905, "fusion_lat": 0.0}, {"name": "4bdd49c4b4884fcb03f0fc7ae9149ec8", "fusion_lon": 0.0, "lat": 38.895077, "is_reserved": 0, "type": "electric_scooter", "bike_id": "4bdd49c4b4884fcb03f0fc7ae9149ec8", "is_disabled": 0, "rental_uris": {"android": "https://dc.lft.to/lastmile_qr_scan", "ios": "https://dc.lft.to/lastmile_qr_scan"}, "lon": -76.934733, "fusion_lat": 0.0}, {"name": "ca9050d77e6da1f876a7abd03a5c6d32", "fusion_lon": 0.0, "lat": 38.911071, "is_reserved": 0, "type": "electric_scooter", "bike_id": "ca9050d77e6da1f876a7abd03a5c6d32", "is_disabled": 0, "rental_uris": {"android": "https://dc.lft.to/lastmile_qr_scan", "ios": "https://dc.lft.to/lastmile_qr_scan"}, "lon": -77.03826416666666, "fusion_lat": 0.0}, {"name": "b58eb86067d7edda583cd3b76f089a45", "fusion_lon": 0.0, "lat": 38.882292666666665, "is_reserved": 0, "type": "electric_bike", "bike_id": "b58eb86067d7edda583cd3b76f089a45", "is_disabled": 0, "rental_uris": {"android": "https://dc.lft.to/lastmile_qr_scan", "ios": "https://dc.lft.to/lastmile_qr_scan"}, "lon": -77.1172885, "fusion_lat": 0.0}, {"name": "09e655525af719478211984fa3c3dbc3", "fusion_lon": 0.0, "lat": 38.892187, "is_reserved": 0, "type": "electric_scooter", "bike_id": "09e655525af719478211984fa3c3dbc3", "is_disabled": 0, "rental_uris": {"android": "https://dc.lft.to/lastmile_qr_scan", "ios": "https://dc.lft.to/lastmile_qr_scan"}, "lon": -77.02223916666667, "fusion_lat": 0.0}, {"name": "0d9954498ac910f67fb638f1241871d8", "fusion_lon": 0.0, "lat": 38.932723, "is_reserved": 0, "type": "electric_scooter", "bike_id": "0d9954498ac910f67fb638f1241871d8", "is_disabled": 0, "rental_uris": {"android": "https://dc.lft.to/lastmile_qr_scan", "ios": "https://dc.lft.to/lastmile_qr_scan"}, "lon": -77.04542366666666, "fusion_lat": 0.0}, {"name": "9b1aa76d578ee9c4cbb54be79cf987a6", "fusion_lon": 0.0, "lat": 38.8638805, "is_reserved": 0, "type": "electric_scooter", "bike_id": "9b1aa76d578ee9c4cbb54be79cf987a6", "is_disabled": 0, "rental_uris": {"android": "https://dc.lft.to/lastmile_qr_scan", "ios": "https://dc.lft.to/lastmile_qr_scan"}, "lon": -76.99042966666667, "fusion_lat": 0.0}, {"name": "812b62a8218663d6dce0d58750d19d11", "fusion_lon": 0.0, "lat": 38.903985, "is_reserved": 0, "type": "electric_scooter", "bike_id": "812b62a8218663d6dce0d58750d19d11", "is_disabled": 0, "rental_uris": {"android": "https://dc.lft.to/lastmile_qr_scan", "ios": "https://dc.lft.to/lastmile_qr_scan"}, "lon": -77.06775466666667, "fusion_lat": 0.0}, {"name": "cf6ab7f03d1fb20bdc814ea7850809d4", "fusion_lon": 0.0, "lat": 38.911050833333334, "is_reserved": 0, "type": "electric_scooter", "bike_id": "cf6ab7f03d1fb20bdc814ea7850809d4", "is_disabled": 0, "rental_uris": {"android": "https://dc.lft.to/lastmile_qr_scan", "ios": "https://dc.lft.to/lastmile_qr_scan"}, "lon": -77.04831233333333, "fusion_lat": 0.0}, {"name": "6c4ecdfb1b06e4a949e3589da394cb3b", "fusion_lon": 0.0, "lat": 38.9311595, "is_reserved": 0, "type": "electric_scooter", "bike_id": "6c4ecdfb1b06e4a949e3589da394cb3b", "is_disabled": 0, "rental_uris": {"android": "https://dc.lft.to/lastmile_qr_scan", "ios": "https://dc.lft.to/lastmile_qr_scan"}, "lon": -77.0302795, "fusion_lat": 0.0}, {"name": "67c93c5da478e3052d9d562c9953e0a5", "fusion_lon": 0.0, "lat": 38.9136135, "is_reserved": 0, "type": "electric_scooter", "bike_id": "67c93c5da478e3052d9d562c9953e0a5", "is_disabled": 0, "rental_uris": {"android": "https://dc.lft.to/lastmile_qr_scan", "ios": "https://dc.lft.to/lastmile_qr_scan"}, "lon": -77.06938083333333, "fusion_lat": 0.0}, {"name": "8814adbc29576ef539eabcb5ffb8b6b9", "fusion_lon": 0.0, "lat": 38.91636583333333, "is_reserved": 0, "type": "electric_scooter", "bike_id": "8814adbc29576ef539eabcb5ffb8b6b9", "is_disabled": 0, "rental_uris": {"android": "https://dc.lft.to/lastmile_qr_scan", "ios": "https://dc.lft.to/lastmile_qr_scan"}, "lon": -77.0384955, "fusion_lat": 0.0}, {"name": "5b9b6ff874b6df898f3d8f0893606f1c", "fusion_lon": 0.0, "lat": 38.865046666666665, "is_reserved": 0, "type": "electric_scooter", "bike_id": "5b9b6ff874b6df898f3d8f0893606f1c", "is_disabled": 0, "rental_uris": {"android": "https://dc.lft.to/lastmile_qr_scan", "ios": "https://dc.lft.to/lastmile_qr_scan"}, "lon": -76.99000183333334, "fusion_lat": 0.0}, {"name": "6447e5ff28ed6b7d9095a15206713dc3", "fusion_lon": 0.0, "lat": 38.92487783333333, "is_reserved": 0, "type": "electric_scooter", "bike_id": "6447e5ff28ed6b7d9095a15206713dc3", "is_disabled": 0, "rental_uris": {"android": "https://dc.lft.to/lastmile_qr_scan", "ios": "https://dc.lft.to/lastmile_qr_scan"}, "lon": -77.0524895, "fusion_lat": 0.0}, {"name": "66cc729a5da529bc7c8478ba3ebe4ff8", "fusion_lon": 0.0, "lat": 38.9219245, "is_reserved": 0, "type": "electric_scooter", "bike_id": "66cc729a5da529bc7c8478ba3ebe4ff8", "is_disabled": 0, "rental_uris": {"android": "https://dc.lft.to/lastmile_qr_scan", "ios": "https://dc.lft.to/lastmile_qr_scan"}, "lon": -77.02090333333334, "fusion_lat": 0.0}, {"name": "b9d7061f6069771007ffa2c4cb1dcd40", "fusion_lon": 0.0, "lat": 38.902479166666666, "is_reserved": 0, "type": "electric_scooter", "bike_id": "b9d7061f6069771007ffa2c4cb1dcd40", "is_disabled": 0, "rental_uris": {"android": "https://dc.lft.to/lastmile_qr_scan", "ios": "https://dc.lft.to/lastmile_qr_scan"}, "lon": -77.002008, "fusion_lat": 0.0}, {"name": "b04876ce22ad37c4734d1c9dacff94c5", "fusion_lon": 0.0, "lat": 38.916534166666665, "is_reserved": 0, "type": "electric_scooter", "bike_id": "b04876ce22ad37c4734d1c9dacff94c5", "is_disabled": 0, "rental_uris": {"android": "https://dc.lft.to/lastmile_qr_scan", "ios": "https://dc.lft.to/lastmile_qr_scan"}, "lon": -77.020051, "fusion_lat": 0.0}, {"name": "a5c8294541b10b5af393f1a8e68232d6", "fusion_lon": 0.0, "lat": 38.90038916666666, "is_reserved": 0, "type": "electric_scooter", "bike_id": "a5c8294541b10b5af393f1a8e68232d6", "is_disabled": 0, "rental_uris": {"android": "https://dc.lft.to/lastmile_qr_scan", "ios": "https://dc.lft.to/lastmile_qr_scan"}, "lon": -76.98834616666667, "fusion_lat": 0.0}, {"name": "744cf2874afb5cf4da09c9646277be23", "fusion_lon": 0.0, "lat": 38.916371166666664, "is_reserved": 0, "type": "electric_scooter", "bike_id": "744cf2874afb5cf4da09c9646277be23", "is_disabled": 0, "rental_uris": {"android": "https://dc.lft.to/lastmile_qr_scan", "ios": "https://dc.lft.to/lastmile_qr_scan"}, "lon": -77.02554916666666, "fusion_lat": 0.0}, {"name": "c9a7d9c06f7a3b35374537382f3954f5", "fusion_lon": 0.0, "lat": 38.9065685, "is_reserved": 0, "type": "electric_scooter", "bike_id": "c9a7d9c06f7a3b35374537382f3954f5", "is_disabled": 0, "rental_uris": {"android": "https://dc.lft.to/lastmile_qr_scan", "ios": "https://dc.lft.to/lastmile_qr_scan"}, "lon": -77.00199416666666, "fusion_lat": 0.0}, {"name": "f17d46a8f8136a0f1d40412c70c634ae", "fusion_lon": 0.0, "lat": 38.9083605, "is_reserved": 0, "type": "electric_scooter", "bike_id": "f17d46a8f8136a0f1d40412c70c634ae", "is_disabled": 0, "rental_uris": {"android": "https://dc.lft.to/lastmile_qr_scan", "ios": "https://dc.lft.to/lastmile_qr_scan"}, "lon": -77.04330533333334, "fusion_lat": 0.0}, {"name": "d0d99bef96cbdb2a115f4bc36e3691e6", "fusion_lon": 0.0, "lat": 38.89369216666667, "is_reserved": 0, "type": "electric_scooter", "bike_id": "d0d99bef96cbdb2a115f4bc36e3691e6", "is_disabled": 0, "rental_uris": {"android": "https://dc.lft.to/lastmile_qr_scan", "ios": "https://dc.lft.to/lastmile_qr_scan"}, "lon": -77.0468115, "fusion_lat": 0.0}, {"name": "de6fe850a661198427913349d02235b8", "fusion_lon": 0.0, "lat": 39.03991633333333, "is_reserved": 0, "type": "electric_bike", "bike_id": "de6fe850a661198427913349d02235b8", "is_disabled": 0, "rental_uris": {"android": "https://dc.lft.to/lastmile_qr_scan", "ios": "https://dc.lft.to/lastmile_qr_scan"}, "lon": -76.99922183333334, "fusion_lat": 0.0}, {"name": "4afdaa0f251a190b80d27731fc68f000", "fusion_lon": 0.0, "lat": 38.900452666666666, "is_reserved": 0, "type": "electric_scooter", "bike_id": "4afdaa0f251a190b80d27731fc68f000", "is_disabled": 0, "rental_uris": {"android": "https://dc.lft.to/lastmile_qr_scan", "ios": "https://dc.lft.to/lastmile_qr_scan"}, "lon": -77.01319583333333, "fusion_lat": 0.0}, {"name": "80042092f16da255c2bf6a897c21c2b7", "fusion_lon": 0.0, "lat": 38.88526366666667, "is_reserved": 0, "type": "electric_scooter", "bike_id": "80042092f16da255c2bf6a897c21c2b7", "is_disabled": 0, "rental_uris": {"android": "https://dc.lft.to/lastmile_qr_scan", "ios": "https://dc.lft.to/lastmile_qr_scan"}, "lon": -77.01134416666666, "fusion_lat": 0.0}, {"name": "873cfa4c0c1bd83968f2c8599b7e0d2d", "fusion_lon": 0.0, "lat": 38.90515633333333, "is_reserved": 0, "type": "electric_scooter", "bike_id": "873cfa4c0c1bd83968f2c8599b7e0d2d", "is_disabled": 0, "rental_uris": {"android": "https://dc.lft.to/lastmile_qr_scan", "ios": "https://dc.lft.to/lastmile_qr_scan"}, "lon": -77.00134366666667, "fusion_lat": 0.0}, {"name": "243a058f9031c786866314bd102d129f", "fusion_lon": 0.0, "lat": 38.94590483333333, "is_reserved": 0, "type": "electric_scooter", "bike_id": "243a058f9031c786866314bd102d129f", "is_disabled": 0, "rental_uris": {"android": "https://dc.lft.to/lastmile_qr_scan", "ios": "https://dc.lft.to/lastmile_qr_scan"}, "lon": -77.06458666666667, "fusion_lat": 0.0}, {"name": "1cb04646f4b871ed6fe7ed0859f48d34", "fusion_lon": 0.0, "lat": 38.902763, "is_reserved": 0, "type": "electric_scooter", "bike_id": "1cb04646f4b871ed6fe7ed0859f48d34", "is_disabled": 0, "rental_uris": {"android": "https://dc.lft.to/lastmile_qr_scan", "ios": "https://dc.lft.to/lastmile_qr_scan"}, "lon": -77.03942933333333, "fusion_lat": 0.0}, {"name": "2a9cbed5475eca6e989d9d5544a6d63a", "fusion_lon": 0.0, "lat": 38.91925533333333, "is_reserved": 0, "type": "electric_scooter", "bike_id": "2a9cbed5475eca6e989d9d5544a6d63a", "is_disabled": 0, "rental_uris": {"android": "https://dc.lft.to/lastmile_qr_scan", "ios": "https://dc.lft.to/lastmile_qr_scan"}, "lon": -77.03182633333333, "fusion_lat": 0.0}, {"name": "4704cfc2826dc8b6ae3f60586573daff", "fusion_lon": 0.0, "lat": 38.8767925, "is_reserved": 0, "type": "electric_scooter", "bike_id": "4704cfc2826dc8b6ae3f60586573daff", "is_disabled": 0, "rental_uris": {"android": "https://dc.lft.to/lastmile_qr_scan", "ios": "https://dc.lft.to/lastmile_qr_scan"}, "lon": -76.998251, "fusion_lat": 0.0}, {"name": "b6d9cbf4b963fe3094d00590aae12bfb", "fusion_lon": 0.0, "lat": 38.96163416666667, "is_reserved": 0, "type": "electric_scooter", "bike_id": "b6d9cbf4b963fe3094d00590aae12bfb", "is_disabled": 0, "rental_uris": {"android": "https://dc.lft.to/lastmile_qr_scan", "ios": "https://dc.lft.to/lastmile_qr_scan"}, "lon": -77.0323365, "fusion_lat": 0.0}, {"name": "0ea78d1bc554de235027dc678a5f2ce4", "fusion_lon": 0.0, "lat": 38.897420833333335, "is_reserved": 0, "type": "electric_scooter", "bike_id": "0ea78d1bc554de235027dc678a5f2ce4", "is_disabled": 0, "rental_uris": {"android": "https://dc.lft.to/lastmile_qr_scan", "ios": "https://dc.lft.to/lastmile_qr_scan"}, "lon": -77.02667966666667, "fusion_lat": 0.0}, {"name": "2e83a5ebd3271c750c7e00ec7b92d286", "fusion_lon": 0.0, "lat": 38.90342866666667, "is_reserved": 0, "type": "electric_scooter", "bike_id": "2e83a5ebd3271c750c7e00ec7b92d286", "is_disabled": 0, "rental_uris": {"android": "https://dc.lft.to/lastmile_qr_scan", "ios": "https://dc.lft.to/lastmile_qr_scan"}, "lon": -77.027421, "fusion_lat": 0.0}, {"name": "130fbd91e7e32fc493a89c1853038d43", "fusion_lon": 0.0, "lat": 38.898952, "is_reserved": 0, "type": "electric_scooter", "bike_id": "130fbd91e7e32fc493a89c1853038d43", "is_disabled": 0, "rental_uris": {"android": "https://dc.lft.to/lastmile_qr_scan", "ios": "https://dc.lft.to/lastmile_qr_scan"}, "lon": -77.04885316666666, "fusion_lat": 0.0}, {"name": "d6e4fd79b20662aa74b567393782eb5e", "fusion_lon": 0.0, "lat": 38.923547666666664, "is_reserved": 0, "type": "electric_scooter", "bike_id": "d6e4fd79b20662aa74b567393782eb5e", "is_disabled": 0, "rental_uris": {"android": "https://dc.lft.to/lastmile_qr_scan", "ios": "https://dc.lft.to/lastmile_qr_scan"}, "lon": -77.04159866666667, "fusion_lat": 0.0}, {"name": "035bb9e54b505e6a4f10264cd687c68b", "fusion_lon": 0.0, "lat": 38.937666166666666, "is_reserved": 0, "type": "electric_scooter", "bike_id": "035bb9e54b505e6a4f10264cd687c68b", "is_disabled": 0, "rental_uris": {"android": "https://dc.lft.to/lastmile_qr_scan", "ios": "https://dc.lft.to/lastmile_qr_scan"}, "lon": -77.02517733333333, "fusion_lat": 0.0}, {"name": "19d62510a58dceb289c2081710bce27b", "fusion_lon": 0.0, "lat": 38.8991215, "is_reserved": 0, "type": "electric_scooter", "bike_id": "19d62510a58dceb289c2081710bce27b", "is_disabled": 0, "rental_uris": {"android": "https://dc.lft.to/lastmile_qr_scan", "ios": "https://dc.lft.to/lastmile_qr_scan"}, "lon": -76.95065716666667, "fusion_lat": 0.0}, {"name": "ad5a2bce733ff6ecc3c891ffde7e6ac2", "fusion_lon": 0.0, "lat": 38.91621583333333, "is_reserved": 0, "type": "electric_scooter", "bike_id": "ad5a2bce733ff6ecc3c891ffde7e6ac2", "is_disabled": 0, "rental_uris": {"android": "https://dc.lft.to/lastmile_qr_scan", "ios": "https://dc.lft.to/lastmile_qr_scan"}, "lon": -77.0397685, "fusion_lat": 0.0}, {"name": "96f7dd8567974eb7c2f2cf2ebae2e0a8", "fusion_lon": 0.0, "lat": 38.8589305, "is_reserved": 0, "type": "electric_scooter", "bike_id": "96f7dd8567974eb7c2f2cf2ebae2e0a8", "is_disabled": 0, "rental_uris": {"android": "https://dc.lft.to/lastmile_qr_scan", "ios": "https://dc.lft.to/lastmile_qr_scan"}, "lon": -76.9972925, "fusion_lat": 0.0}, {"name": "9b4c91321b043a1de60e2014f28068a1", "fusion_lon": 0.0, "lat": 38.89452416666666, "is_reserved": 0, "type": "electric_bike", "bike_id": "9b4c91321b043a1de60e2014f28068a1", "is_disabled": 0, "rental_uris": {"android": "https://dc.lft.to/lastmile_qr_scan", "ios": "https://dc.lft.to/lastmile_qr_scan"}, "lon": -77.04674833333333, "fusion_lat": 0.0}, {"name": "ba8d88ed5a9668102bd32caea3d1ab5c", "fusion_lon": 0.0, "lat": 38.92938633333333, "is_reserved": 0, "type": "electric_scooter", "bike_id": "ba8d88ed5a9668102bd32caea3d1ab5c", "is_disabled": 0, "rental_uris": {"android": "https://dc.lft.to/lastmile_qr_scan", "ios": "https://dc.lft.to/lastmile_qr_scan"}, "lon": -77.01988883333334, "fusion_lat": 0.0}, {"name": "31c760dcb0d59da323a19aec929353b8", "fusion_lon": 0.0, "lat": 38.92538416666667, "is_reserved": 0, "type": "electric_bike", "bike_id": "31c760dcb0d59da323a19aec929353b8", "is_disabled": 0, "rental_uris": {"android": "https://dc.lft.to/lastmile_qr_scan", "ios": "https://dc.lft.to/lastmile_qr_scan"}, "lon": -77.00114166666667, "fusion_lat": 0.0}, {"name": "c0706821dc77ce368e0f18265574f0c4", "fusion_lon": 0.0, "lat": 38.911035166666665, "is_reserved": 0, "type": "electric_scooter", "bike_id": "c0706821dc77ce368e0f18265574f0c4", "is_disabled": 0, "rental_uris": {"android": "https://dc.lft.to/lastmile_qr_scan", "ios": "https://dc.lft.to/lastmile_qr_scan"}, "lon": -77.02504116666667, "fusion_lat": 0.0}, {"name": "8fbffebd1c33403de02c35a2cf2e34d2", "fusion_lon": 0.0, "lat": 38.923663, "is_reserved": 0, "type": "electric_scooter", "bike_id": "8fbffebd1c33403de02c35a2cf2e34d2", "is_disabled": 0, "rental_uris": {"android": "https://dc.lft.to/lastmile_qr_scan", "ios": "https://dc.lft.to/lastmile_qr_scan"}, "lon": -76.9954125, "fusion_lat": 0.0}, {"name": "70a9654a208c4b5837b80c857bb53423", "fusion_lon": 0.0, "lat": 38.89317233333333, "is_reserved": 0, "type": "electric_scooter", "bike_id": "70a9654a208c4b5837b80c857bb53423", "is_disabled": 0, "rental_uris": {"android": "https://dc.lft.to/lastmile_qr_scan", "ios": "https://dc.lft.to/lastmile_qr_scan"}, "lon": -77.012088, "fusion_lat": 0.0}, {"name": "42ec8da76a01cf3af5bb8a51ebcd707e", "fusion_lon": 0.0, "lat": 38.905767, "is_reserved": 0, "type": "electric_scooter", "bike_id": "42ec8da76a01cf3af5bb8a51ebcd707e", "is_disabled": 0, "rental_uris": {"android": "https://dc.lft.to/lastmile_qr_scan", "ios": "https://dc.lft.to/lastmile_qr_scan"}, "lon": -77.003939, "fusion_lat": 0.0}, {"name": "7974d10ace1ccadddcfe5379e3af9a73", "fusion_lon": 0.0, "lat": 38.877263666666664, "is_reserved": 0, "type": "electric_scooter", "bike_id": "7974d10ace1ccadddcfe5379e3af9a73", "is_disabled": 0, "rental_uris": {"android": "https://dc.lft.to/lastmile_qr_scan", "ios": "https://dc.lft.to/lastmile_qr_scan"}, "lon": -77.0178075, "fusion_lat": 0.0}, {"name": "852812d947aa877e7fd3314023d13f56", "fusion_lon": 0.0, "lat": 38.927265, "is_reserved": 0, "type": "electric_scooter", "bike_id": "852812d947aa877e7fd3314023d13f56", "is_disabled": 0, "rental_uris": {"android": "https://dc.lft.to/lastmile_qr_scan", "ios": "https://dc.lft.to/lastmile_qr_scan"}, "lon": -77.02280233333333, "fusion_lat": 0.0}, {"name": "96ddc2eb9268bea427d74a0dd6991af5", "fusion_lon": 0.0, "lat": 38.925109166666665, "is_reserved": 0, "type": "electric_scooter", "bike_id": "96ddc2eb9268bea427d74a0dd6991af5", "is_disabled": 0, "rental_uris": {"android": "https://dc.lft.to/lastmile_qr_scan", "ios": "https://dc.lft.to/lastmile_qr_scan"}, "lon": -77.03888566666667, "fusion_lat": 0.0}, {"name": "2172d870ab420be504b52b66d6dbe681", "fusion_lon": 0.0, "lat": 38.899142166666664, "is_reserved": 0, "type": "electric_scooter", "bike_id": "2172d870ab420be504b52b66d6dbe681", "is_disabled": 0, "rental_uris": {"android": "https://dc.lft.to/lastmile_qr_scan", "ios": "https://dc.lft.to/lastmile_qr_scan"}, "lon": -76.9340335, "fusion_lat": 0.0}, {"name": "d716ec084f67a12f39397d5000f9220d", "fusion_lon": 0.0, "lat": 38.902360333333334, "is_reserved": 0, "type": "electric_scooter", "bike_id": "d716ec084f67a12f39397d5000f9220d", "is_disabled": 0, "rental_uris": {"android": "https://dc.lft.to/lastmile_qr_scan", "ios": "https://dc.lft.to/lastmile_qr_scan"}, "lon": -77.02663316666667, "fusion_lat": 0.0}, {"name": "8a99b480b81ec797265dda59e077137a", "fusion_lon": 0.0, "lat": 38.833666666666666, "is_reserved": 0, "type": "electric_scooter", "bike_id": "8a99b480b81ec797265dda59e077137a", "is_disabled": 0, "rental_uris": {"android": "https://dc.lft.to/lastmile_qr_scan", "ios": "https://dc.lft.to/lastmile_qr_scan"}, "lon": -76.9966515, "fusion_lat": 0.0}, {"name": "08321658192df1e5bdebb86d650ea7c7", "fusion_lon": 0.0, "lat": 38.911285166666666, "is_reserved": 0, "type": "electric_scooter", "bike_id": "08321658192df1e5bdebb86d650ea7c7", "is_disabled": 0, "rental_uris": {"android": "https://dc.lft.to/lastmile_qr_scan", "ios": "https://dc.lft.to/lastmile_qr_scan"}, "lon": -77.03845, "fusion_lat": 0.0}, {"name": "5ab5f9d9658a32eba356b720e3699ed1", "fusion_lon": 0.0, "lat": 38.92421933333333, "is_reserved": 0, "type": "electric_scooter", "bike_id": "5ab5f9d9658a32eba356b720e3699ed1", "is_disabled": 0, "rental_uris": {"android": "https://dc.lft.to/lastmile_qr_scan", "ios": "https://dc.lft.to/lastmile_qr_scan"}, "lon": -77.05054583333333, "fusion_lat": 0.0}, {"name": "95412785ccbb1c7e62756d029d160673", "fusion_lon": 0.0, "lat": 38.910806, "is_reserved": 0, "type": "electric_scooter", "bike_id": "95412785ccbb1c7e62756d029d160673", "is_disabled": 0, "rental_uris": {"android": "https://dc.lft.to/lastmile_qr_scan", "ios": "https://dc.lft.to/lastmile_qr_scan"}, "lon": -77.008538, "fusion_lat": 0.0}, {"name": "ca28822f7d8e19e4c9a06e1e5aa4dd3f", "fusion_lon": 0.0, "lat": 38.93238683333333, "is_reserved": 0, "type": "electric_scooter", "bike_id": "ca28822f7d8e19e4c9a06e1e5aa4dd3f", "is_disabled": 0, "rental_uris": {"android": "https://dc.lft.to/lastmile_qr_scan", "ios": "https://dc.lft.to/lastmile_qr_scan"}, "lon": -77.03411416666667, "fusion_lat": 0.0}, {"name": "a21ce80708c0d2f71b4c712d9bfc4ea9", "fusion_lon": 0.0, "lat": 38.92848016666667, "is_reserved": 0, "type": "electric_scooter", "bike_id": "a21ce80708c0d2f71b4c712d9bfc4ea9", "is_disabled": 0, "rental_uris": {"android": "https://dc.lft.to/lastmile_qr_scan", "ios": "https://dc.lft.to/lastmile_qr_scan"}, "lon": -77.01388733333333, "fusion_lat": 0.0}, {"name": "0ab744887e0ec24d6cd3bed0c8002857", "fusion_lon": 0.0, "lat": 38.921477833333334, "is_reserved": 0, "type": "electric_scooter", "bike_id": "0ab744887e0ec24d6cd3bed0c8002857", "is_disabled": 0, "rental_uris": {"android": "https://dc.lft.to/lastmile_qr_scan", "ios": "https://dc.lft.to/lastmile_qr_scan"}, "lon": -77.018155, "fusion_lat": 0.0}, {"name": "321c3409e0b85104e08ecc31fff579e5", "fusion_lon": 0.0, "lat": 38.951762333333335, "is_reserved": 0, "type": "electric_bike", "bike_id": "321c3409e0b85104e08ecc31fff579e5", "is_disabled": 0, "rental_uris": {"android": "https://dc.lft.to/lastmile_qr_scan", "ios": "https://dc.lft.to/lastmile_qr_scan"}, "lon": -76.97731783333333, "fusion_lat": 0.0}, {"name": "8d27af5908b1a39f53bd516aa11f8796", "fusion_lon": 0.0, "lat": 38.96503033333333, "is_reserved": 0, "type": "electric_bike", "bike_id": "8d27af5908b1a39f53bd516aa11f8796", "is_disabled": 0, "rental_uris": {"android": "https://dc.lft.to/lastmile_qr_scan", "ios": "https://dc.lft.to/lastmile_qr_scan"}, "lon": -77.01999966666666, "fusion_lat": 0.0}, {"name": "ca71e04adeb32300b6b60e4a38f75ad3", "fusion_lon": 0.0, "lat": 38.9095805, "is_reserved": 0, "type": "electric_scooter", "bike_id": "ca71e04adeb32300b6b60e4a38f75ad3", "is_disabled": 0, "rental_uris": {"android": "https://dc.lft.to/lastmile_qr_scan", "ios": "https://dc.lft.to/lastmile_qr_scan"}, "lon": -77.02685366666667, "fusion_lat": 0.0}, {"name": "93ec3d39df2826c1aea149281f8cde72", "fusion_lon": 0.0, "lat": 38.904931833333336, "is_reserved": 0, "type": "electric_scooter", "bike_id": "93ec3d39df2826c1aea149281f8cde72", "is_disabled": 0, "rental_uris": {"android": "https://dc.lft.to/lastmile_qr_scan", "ios": "https://dc.lft.to/lastmile_qr_scan"}, "lon": -76.949626, "fusion_lat": 0.0}, {"name": "a3acafc206a21b25c3a2e201d6db40f2", "fusion_lon": 0.0, "lat": 38.93673316666667, "is_reserved": 0, "type": "electric_scooter", "bike_id": "a3acafc206a21b25c3a2e201d6db40f2", "is_disabled": 0, "rental_uris": {"android": "https://dc.lft.to/lastmile_qr_scan", "ios": "https://dc.lft.to/lastmile_qr_scan"}, "lon": -77.03588433333333, "fusion_lat": 0.0}, {"name": "baa481a89da91d0fe721a8a069310cbe", "fusion_lon": 0.0, "lat": 38.921546, "is_reserved": 0, "type": "electric_scooter", "bike_id": "baa481a89da91d0fe721a8a069310cbe", "is_disabled": 0, "rental_uris": {"android": "https://dc.lft.to/lastmile_qr_scan", "ios": "https://dc.lft.to/lastmile_qr_scan"}, "lon": -77.02084033333334, "fusion_lat": 0.0}, {"name": "d75a04140e418f4195a4f2f38ff154e0", "fusion_lon": 0.0, "lat": 38.8860605, "is_reserved": 0, "type": "electric_scooter", "bike_id": "d75a04140e418f4195a4f2f38ff154e0", "is_disabled": 0, "rental_uris": {"android": "https://dc.lft.to/lastmile_qr_scan", "ios": "https://dc.lft.to/lastmile_qr_scan"}, "lon": -77.00480333333333, "fusion_lat": 0.0}, {"name": "61e913056860ce4259d1ee47ea2b6224", "fusion_lon": 0.0, "lat": 38.903260833333334, "is_reserved": 0, "type": "electric_scooter", "bike_id": "61e913056860ce4259d1ee47ea2b6224", "is_disabled": 0, "rental_uris": {"android": "https://dc.lft.to/lastmile_qr_scan", "ios": "https://dc.lft.to/lastmile_qr_scan"}, "lon": -77.03853416666666, "fusion_lat": 0.0}, {"name": "979e5acd305d00355aa1ee6265021478", "fusion_lon": 0.0, "lat": 38.91247933333333, "is_reserved": 0, "type": "electric_scooter", "bike_id": "979e5acd305d00355aa1ee6265021478", "is_disabled": 0, "rental_uris": {"android": "https://dc.lft.to/lastmile_qr_scan", "ios": "https://dc.lft.to/lastmile_qr_scan"}, "lon": -77.022255, "fusion_lat": 0.0}, {"name": "9494a9978cea5e81edeb131b12868116", "fusion_lon": 0.0, "lat": 38.922857666666665, "is_reserved": 0, "type": "electric_scooter", "bike_id": "9494a9978cea5e81edeb131b12868116", "is_disabled": 0, "rental_uris": {"android": "https://dc.lft.to/lastmile_qr_scan", "ios": "https://dc.lft.to/lastmile_qr_scan"}, "lon": -77.01839, "fusion_lat": 0.0}, {"name": "a19a385561e9bd8ef2b62c24a0659f05", "fusion_lon": 0.0, "lat": 38.9096975, "is_reserved": 0, "type": "electric_scooter", "bike_id": "a19a385561e9bd8ef2b62c24a0659f05", "is_disabled": 0, "rental_uris": {"android": "https://dc.lft.to/lastmile_qr_scan", "ios": "https://dc.lft.to/lastmile_qr_scan"}, "lon": -77.0359035, "fusion_lat": 0.0}, {"name": "1215c23d0e73a5f29792dd91b23e3a74", "fusion_lon": 0.0, "lat": 38.900461666666665, "is_reserved": 0, "type": "electric_scooter", "bike_id": "1215c23d0e73a5f29792dd91b23e3a74", "is_disabled": 0, "rental_uris": {"android": "https://dc.lft.to/lastmile_qr_scan", "ios": "https://dc.lft.to/lastmile_qr_scan"}, "lon": -77.043369, "fusion_lat": 0.0}, {"name": "ef3d7a827292ecd5701a78b92dc2d5b4", "fusion_lon": 0.0, "lat": 38.91561516666667, "is_reserved": 0, "type": "electric_scooter", "bike_id": "ef3d7a827292ecd5701a78b92dc2d5b4", "is_disabled": 0, "rental_uris": {"android": "https://dc.lft.to/lastmile_qr_scan", "ios": "https://dc.lft.to/lastmile_qr_scan"}, "lon": -77.03762833333333, "fusion_lat": 0.0}, {"name": "bbca938f19ab0dad246c9e82dfac6238", "fusion_lon": 0.0, "lat": 38.865128, "is_reserved": 0, "type": "electric_scooter", "bike_id": "bbca938f19ab0dad246c9e82dfac6238", "is_disabled": 0, "rental_uris": {"android": "https://dc.lft.to/lastmile_qr_scan", "ios": "https://dc.lft.to/lastmile_qr_scan"}, "lon": -76.99018766666667, "fusion_lat": 0.0}, {"name": "62f8c6280d1bc21749cf96a8102ed964", "fusion_lon": 0.0, "lat": 38.92885233333333, "is_reserved": 0, "type": "electric_scooter", "bike_id": "62f8c6280d1bc21749cf96a8102ed964", "is_disabled": 0, "rental_uris": {"android": "https://dc.lft.to/lastmile_qr_scan", "ios": "https://dc.lft.to/lastmile_qr_scan"}, "lon": -77.032877, "fusion_lat": 0.0}, {"name": "cf3ffecb292330867f6bd5f348926c90", "fusion_lon": 0.0, "lat": 38.917032166666665, "is_reserved": 0, "type": "electric_scooter", "bike_id": "cf3ffecb292330867f6bd5f348926c90", "is_disabled": 0, "rental_uris": {"android": "https://dc.lft.to/lastmile_qr_scan", "ios": "https://dc.lft.to/lastmile_qr_scan"}, "lon": -77.03161383333334, "fusion_lat": 0.0}, {"name": "86d485f53a3439cef461fbda5907618c", "fusion_lon": 0.0, "lat": 38.900907, "is_reserved": 0, "type": "electric_scooter", "bike_id": "86d485f53a3439cef461fbda5907618c", "is_disabled": 0, "rental_uris": {"android": "https://dc.lft.to/lastmile_qr_scan", "ios": "https://dc.lft.to/lastmile_qr_scan"}, "lon": -77.05022916666667, "fusion_lat": 0.0}, {"name": "d71893b18b108f2c440f870b757b2bc0", "fusion_lon": 0.0, "lat": 38.88244816666667, "is_reserved": 0, "type": "electric_scooter", "bike_id": "d71893b18b108f2c440f870b757b2bc0", "is_disabled": 0, "rental_uris": {"android": "https://dc.lft.to/lastmile_qr_scan", "ios": "https://dc.lft.to/lastmile_qr_scan"}, "lon": -76.99117483333333, "fusion_lat": 0.0}, {"name": "757a25f67c978941b9a26e3f3466250d", "fusion_lon": 0.0, "lat": 38.89612233333333, "is_reserved": 0, "type": "electric_scooter", "bike_id": "757a25f67c978941b9a26e3f3466250d", "is_disabled": 0, "rental_uris": {"android": "https://dc.lft.to/lastmile_qr_scan", "ios": "https://dc.lft.to/lastmile_qr_scan"}, "lon": -77.0455985, "fusion_lat": 0.0},