{"data": {"bikes": [{"rental_uris": {"ios": "https://dc.lft.to/lastmile_qr_scan", "android": "https://dc.lft.to/lastmile_qr_scan"}, "type": "electric_scooter", "name": "4c11e0e8ed236a33125452804884bb2a", "is_reserved": 0, "lon": -77.0364495, "is_disabled": 0, "fusion_lat": 0.0, "lat": 38.92485383333333, "bike_id": "4c11e0e8ed236a33125452804884bb2a", "fusion_lon": 0.0}, {"rental_uris": {"ios": "https://dc.lft.to/lastmile_qr_scan", "android": "https://dc.lft.to/lastmile_qr_scan"}, "type": "electric_scooter", "name": "fe17b519f3d3425f55adb29c495169e6", "is_reserved": 0, "lon": -77.0201295, "is_disabled": 0, "fusion_lat": 0.0, "lat": 38.92323366666667, "bike_id": "fe17b519f3d3425f55adb29c495169e6", "fusion_lon": 0.0}, {"rental_uris": {"ios": "https://dc.lft.to/lastmile_qr_scan", "android": "https://dc.lft.to/lastmile_qr_scan"}, "type": "electric_scooter", "name": "8553a5b3859537a0f002dd0c0a7cc36e", "is_reserved": 0, "lon": -77.01054266666667, "is_disabled": 0, "fusion_lat": 0.0, "lat": 38.911933, "bike_id": "8553a5b3859537a0f002dd0c0a7cc36e", "fusion_lon": 0.0}, {"rental_uris": {"ios": "https://dc.lft.to/lastmile_qr_scan", "android": "https://dc.lft.to/lastmile_qr_scan"}, "type": "electric_scooter", "name": "b5dbfa64a5230ed4208f54300dbab834", "is_reserved": 0, "lon": -77.003114, "is_disabled": 0, "fusion_lat": 0.0, "lat": 38.908935166666666, "bike_id": "b5dbfa64a5230ed4208f54300dbab834", "fusion_lon": 0.0}, {"rental_uris": {"ios": "https://dc.lft.to/lastmile_qr_scan", "android": "https://dc.lft.to/lastmile_qr_scan"}, "type": "electric_scooter", "name": "db242065d75f8dd72d24b96617413a83", "is_reserved": 0, "lon": -77.04200116666667, "is_disabled": 0, "fusion_lat": 0.0, "lat": 38.92257516666667, "bike_id": "db242065d75f8dd72d24b96617413a83", "fusion_lon": 0.0}, {"rental_uris": {"ios": "https://dc.lft.to/lastmile_qr_scan", "android": "https://dc.lft.to/lastmile_qr_scan"}, "type": "electric_scooter", "name": "dea758e9828c7411859149b29c1f9c66", "is_reserved": 0, "lon": -77.00553066666667, "is_disabled": 0, "fusion_lat": 0.0, "lat": 38.9119245, "bike_id": "dea758e9828c7411859149b29c1f9c66", "fusion_lon": 0.0}, {"rental_uris": {"ios": "https://dc.lft.to/lastmile_qr_scan", "android": "https://dc.lft.to/lastmile_qr_scan"}, "type": "electric_scooter", "name": "6652ab22f06991b3802f20c91a599530", "is_reserved": 0, "lon": -77.0270835, "is_disabled": 0, "fusion_lat": 0.0, "lat": 38.917286, "bike_id": "6652ab22f06991b3802f20c91a599530", "fusion_lon": 0.0}, {"rental_uris": {"ios": "https://dc.lft.to/lastmile_qr_scan", "android": "https://dc.lft.to/lastmile_qr_scan"}, "type": "electric_scooter", "name": "ebbaf17300e5846e85034988e5977b6d", "is_reserved": 0, "lon": -76.99619766666666, "is_disabled": 0, "fusion_lat": 0.0, "lat": 38.90001516666667, "bike_id": "ebbaf17300e5846e85034988e5977b6d", "fusion_lon": 0.0}, {"rental_uris": {"ios": "https://dc.lft.to/lastmile_qr_scan", "android": "https://dc.lft.to/lastmile_qr_scan"}, "type": "electric_scooter", "name": "7627e8f513f804a5ad6bcd983f4bab10", "is_reserved": 0, "lon": -77.05520016666667, "is_disabled": 0, "fusion_lat": 0.0, "lat": 38.907706833333336, "bike_id": "7627e8f513f804a5ad6bcd983f4bab10", "fusion_lon": 0.0}, {"rental_uris": {"ios": "https://dc.lft.to/lastmile_qr_scan", "android": "https://dc.lft.to/lastmile_qr_scan"}, "type": "electric_scooter", "name": "b4d3f9b10c615428d1651a00a2fd941e", "is_reserved": 0, "lon": -77.07087383333334, "is_disabled": 0, "fusion_lat": 0.0, "lat": 38.9532535, "bike_id": "b4d3f9b10c615428d1651a00a2fd941e", "fusion_lon": 0.0}, {"rental_uris": {"ios": "https://dc.lft.to/lastmile_qr_scan", "android": "https://dc.lft.to/lastmile_qr_scan"}, "type": "electric_scooter", "name": "2fa06b486793a40f627084921bece5aa", "is_reserved": 0, "lon": -77.04341766666667, "is_disabled": 0, "fusion_lat": 0.0, "lat": 38.922462833333334, "bike_id": "2fa06b486793a40f627084921bece5aa", "fusion_lon": 0.0}, {"rental_uris": {"ios": "https://dc.lft.to/lastmile_qr_scan", "android": "https://dc.lft.to/lastmile_qr_scan"}, "type": "electric_scooter", "name": "5a11fe0ffd5b43352b8a92fd07208bd3", "is_reserved": 0, "lon": -77.01986083333334, "is_disabled": 0, "fusion_lat": 0.0, "lat": 38.87605533333333, "bike_id": "5a11fe0ffd5b43352b8a92fd07208bd3", "fusion_lon": 0.0}, {"rental_uris": {"ios": "https://dc.lft.to/lastmile_qr_scan", "android": "https://dc.lft.to/lastmile_qr_scan"}, "type": "electric_scooter", "name": "0b3838a3b790002f9156774fffe51fd4", "is_reserved": 0, "lon": -77.07292416666667, "is_disabled": 0, "fusion_lat": 0.0, "lat": 38.9144145, "bike_id": "0b3838a3b790002f9156774fffe51fd4", "fusion_lon": 0.0}, {"rental_uris": {"ios": "https://dc.lft.to/lastmile_qr_scan", "android": "https://dc.lft.to/lastmile_qr_scan"}, "type": "electric_scooter", "name": "e86760cbda8c94dcec863f5b0a7971f2", "is_reserved": 0, "lon": -77.03652283333334, "is_disabled": 0, "fusion_lat": 0.0, "lat": 38.954604333333336, "bike_id": "e86760cbda8c94dcec863f5b0a7971f2", "fusion_lon": 0.0}, {"rental_uris": {"ios": "https://dc.lft.to/lastmile_qr_scan", "android": "https://dc.lft.to/lastmile_qr_scan"}, "type": "electric_scooter", "name": "c18da9c70a78ec78082212e65b12c753", "is_reserved": 0, "lon": -76.987287, "is_disabled": 0, "fusion_lat": 0.0, "lat": 38.842200166666665, "bike_id": "c18da9c70a78ec78082212e65b12c753", "fusion_lon": 0.0}, {"rental_uris": {"ios": "https://dc.lft.to/lastmile_qr_scan", "android": "https://dc.lft.to/lastmile_qr_scan"}, "type": "electric_scooter", "name": "486a11db9abd15276dd7aa88726aaae1", "is_reserved": 0, "lon": -76.9713355, "is_disabled": 0, "fusion_lat": 0.0, "lat": 38.8786315, "bike_id": "486a11db9abd15276dd7aa88726aaae1", "fusion_lon": 0.0}, {"rental_uris": {"ios": "https://dc.lft.to/lastmile_qr_scan", "android": "https://dc.lft.to/lastmile_qr_scan"}, "type": "electric_scooter", "name": "f68a711570ed4a293c3552ddd8d5808f", "is_reserved": 0, "lon": -76.99553483333334, "is_disabled": 0, "fusion_lat": 0.0, "lat": 38.92682, "bike_id": "f68a711570ed4a293c3552ddd8d5808f", "fusion_lon": 0.0}, {"rental_uris": {"ios": "https://dc.lft.to/lastmile_qr_scan", "android": "https://dc.lft.to/lastmile_qr_scan"}, "type": "electric_scooter", "name": "f85d884dc7c6f39ef96ebe77ff70d6ea", "is_reserved": 0, "lon": -77.03949883333334, "is_disabled": 0, "fusion_lat": 0.0, "lat": 38.89830516666667, "bike_id": "f85d884dc7c6f39ef96ebe77ff70d6ea", "fusion_lon": 0.0}, {"rental_uris": {"ios": "https://dc.lft.to/lastmile_qr_scan", "android": "https://dc.lft.to/lastmile_qr_scan"}, "type": "electric_scooter", "name": "146f1fe525abef2653818ea98b24b42d", "is_reserved": 0, "lon": -77.02717666666666, "is_disabled": 0, "fusion_lat": 0.0, "lat": 38.917302, "bike_id": "146f1fe525abef2653818ea98b24b42d", "fusion_lon": 0.0}, {"rental_uris": {"ios": "https://dc.lft.to/lastmile_qr_scan", "android": "https://dc.lft.to/lastmile_qr_scan"}, "type": "electric_scooter", "name": "809ca35b746892811bc5eca02f0220df", "is_reserved": 0, "lon": -77.0467425, "is_disabled": 0, "fusion_lat": 0.0, "lat": 38.89226033333333, "bike_id": "809ca35b746892811bc5eca02f0220df", "fusion_lon": 0.0}, {"rental_uris": {"ios": "https://dc.lft.to/lastmile_qr_scan", "android": "https://dc.lft.to/lastmile_qr_scan"}, "type": "electric_scooter", "name": "f9de23cfdca0aeb38cdda04f09b1d679", "is_reserved": 0, "lon": -77.02442683333334, "is_disabled": 0, "fusion_lat": 0.0, "lat": 38.956390666666664, "bike_id": "f9de23cfdca0aeb38cdda04f09b1d679", "fusion_lon": 0.0}, {"rental_uris": {"ios": "https://dc.lft.to/lastmile_qr_scan", "android": "https://dc.lft.to/lastmile_qr_scan"}, "type": "electric_scooter", "name": "a6a90a39c66858ae2bb82cdb4627f991", "is_reserved": 0, "lon": -76.99149333333334, "is_disabled": 0, "fusion_lat": 0.0, "lat": 38.90122266666667, "bike_id": "a6a90a39c66858ae2bb82cdb4627f991", "fusion_lon": 0.0}, {"rental_uris": {"ios": "https://dc.lft.to/lastmile_qr_scan", "android": "https://dc.lft.to/lastmile_qr_scan"}, "type": "electric_scooter", "name": "00b26f3ce4436ef8f8ef420237bca5d6", "is_reserved": 0, "lon": -77.0531015, "is_disabled": 0, "fusion_lat": 0.0, "lat": 38.90271583333333, "bike_id": "00b26f3ce4436ef8f8ef420237bca5d6", "fusion_lon": 0.0}, {"rental_uris": {"ios": "https://dc.lft.to/lastmile_qr_scan", "android": "https://dc.lft.to/lastmile_qr_scan"}, "type": "electric_scooter", "name": "46f10a77ad79fd78c58440edae3a88c3", "is_reserved": 0, "lon": -77.03357683333333, "is_disabled": 0, "fusion_lat": 0.0, "lat": 38.92861516666667, "bike_id": "46f10a77ad79fd78c58440edae3a88c3", "fusion_lon": 0.0}, {"rental_uris": {"ios": "https://dc.lft.to/lastmile_qr_scan", "android": "https://dc.lft.to/lastmile_qr_scan"}, "type": "electric_scooter", "name": "0cb7e27f8712ef7ebc4e142b900543f7", "is_reserved": 0, "lon": -76.92918716666667, "is_disabled": 0, "fusion_lat": 0.0, "lat": 38.8865745, "bike_id": "0cb7e27f8712ef7ebc4e142b900543f7", "fusion_lon": 0.0}, {"rental_uris": {"ios": "https://dc.lft.to/lastmile_qr_scan", "android": "https://dc.lft.to/lastmile_qr_scan"}, "type": "electric_bike", "name": "ce9bf1b82ed6cdca8104c5ec3add7c57", "is_reserved": 0, "lon": -77.03882016666667, "is_disabled": 0, "fusion_lat": 0.0, "lat": 39.026385166666664, "bike_id": "ce9bf1b82ed6cdca8104c5ec3add7c57", "fusion_lon": 0.0}, {"rental_uris": {"ios": "https://dc.lft.to/lastmile_qr_scan", "android": "https://dc.lft.to/lastmile_qr_scan"}, "type": "electric_scooter", "name": "88fd0b0157b94cad42e13cea4c38b743", "is_reserved": 0, "lon": -77.05219783333334, "is_disabled": 0, "fusion_lat": 0.0, "lat": 38.88909783333333, "bike_id": "88fd0b0157b94cad42e13cea4c38b743", "fusion_lon": 0.0}, {"rental_uris": {"ios": "https://dc.lft.to/lastmile_qr_scan", "android": "https://dc.lft.to/lastmile_qr_scan"}, "type": "electric_scooter", "name": "b6416abeb9e299681609564f50c46f27", "is_reserved": 0, "lon": -77.01167783333334, "is_disabled": 0, "fusion_lat": 0.0, "lat": 38.896558166666665, "bike_id": "b6416abeb9e299681609564f50c46f27", "fusion_lon": 0.0}, {"rental_uris": {"ios": "https://dc.lft.to/lastmile_qr_scan", "android": "https://dc.lft.to/lastmile_qr_scan"}, "type": "electric_scooter", "name": "c5dd104c37271df532d96d56528c5739", "is_reserved": 0, "lon": -76.93181616666666, "is_disabled": 0, "fusion_lat": 0.0, "lat": 38.898753166666665, "bike_id": "c5dd104c37271df532d96d56528c5739", "fusion_lon": 0.0}, {"rental_uris": {"ios": "https://dc.lft.to/lastmile_qr_scan", "android": "https://dc.lft.to/lastmile_qr_scan"}, "type": "electric_bike", "name": "dbedb739f321360ad324bc9443075ad7", "is_reserved": 0, "lon": -77.1273355, "is_disabled": 0, "fusion_lat": 0.0, "lat": 38.8956615, "bike_id": "dbedb739f321360ad324bc9443075ad7", "fusion_lon": 0.0}, {"rental_uris": {"ios": "https://dc.lft.to/lastmile_qr_scan", "android": "https://dc.lft.to/lastmile_qr_scan"}, "type": "electric_bike", "name": "e687505ff11cb994479333d69c4dc0a6", "is_reserved": 0, "lon": -77.096209, "is_disabled": 0, "fusion_lat": 0.0, "lat": 38.952476833333336, "bike_id": "e687505ff11cb994479333d69c4dc0a6", "fusion_lon": 0.0}, {"rental_uris": {"ios": "https://dc.lft.to/lastmile_qr_scan", "android": "https://dc.lft.to/lastmile_qr_scan"}, "type": "electric_scooter", "name": "f890fa77af4d3d58eb7565b089544420", "is_reserved": 0, "lon": -76.99480716666666, "is_disabled": 0, "fusion_lat": 0.0, "lat": 38.89969416666667, "bike_id": "f890fa77af4d3d58eb7565b089544420", "fusion_lon": 0.0}, {"rental_uris": {"ios": "https://dc.lft.to/lastmile_qr_scan", "android": "https://dc.lft.to/lastmile_qr_scan"}, "type": "electric_scooter", "name": "17adfc555cffb87135be0199b6be7f9b", "is_reserved": 0, "lon": -77.06393566666667, "is_disabled": 0, "fusion_lat": 0.0, "lat": 38.9448625, "bike_id": "17adfc555cffb87135be0199b6be7f9b", "fusion_lon": 0.0}, {"rental_uris": {"ios": "https://dc.lft.to/lastmile_qr_scan", "android": "https://dc.lft.to/lastmile_qr_scan"}, "type": "electric_bike", "name": "2d1a3fc728a0879f698aaff328627802", "is_reserved": 0, "lon": -76.999167, "is_disabled": 0, "fusion_lat": 0.0, "lat": 38.99467383333333, "bike_id": "2d1a3fc728a0879f698aaff328627802", "fusion_lon": 0.0}, {"rental_uris": {"ios": "https://dc.lft.to/lastmile_qr_scan", "android": "https://dc.lft.to/lastmile_qr_scan"}, "type": "electric_scooter", "name": "379a717e533bca254cc722c6284aea4e", "is_reserved": 0, "lon": -77.02226816666666, "is_disabled": 0, "fusion_lat": 0.0, "lat": 38.898447, "bike_id": "379a717e533bca254cc722c6284aea4e", "fusion_lon": 0.0}, {"rental_uris": {"ios": "https://dc.lft.to/lastmile_qr_scan", "android": "https://dc.lft.to/lastmile_qr_scan"}, "type": "electric_scooter", "name": "e82cb86ab0a6a168bd1644908167859e", "is_reserved": 0, "lon": -77.03270216666667, "is_disabled": 0, "fusion_lat": 0.0, "lat": 38.90442016666667, "bike_id": "e82cb86ab0a6a168bd1644908167859e", "fusion_lon": 0.0}, {"rental_uris": {"ios": "https://dc.lft.to/lastmile_qr_scan", "android": "https://dc.lft.to/lastmile_qr_scan"}, "type": "electric_scooter", "name": "f38d8bc7ab5a25ef70780864dc20bbac", "is_reserved": 0, "lon": -77.04601233333334, "is_disabled": 0, "fusion_lat": 0.0, "lat": 38.923303, "bike_id": "f38d8bc7ab5a25ef70780864dc20bbac", "fusion_lon": 0.0}, {"rental_uris": {"ios": "https://dc.lft.to/lastmile_qr_scan", "android": "https://dc.lft.to/lastmile_qr_scan"}, "type": "electric_scooter", "name": "ed71a1b1957134436fc7ea84ee76d5af", "is_reserved": 0, "lon": -77.04750366666667, "is_disabled": 0, "fusion_lat": 0.0, "lat": 38.8959165, "bike_id": "ed71a1b1957134436fc7ea84ee76d5af", "fusion_lon": 0.0}, {"rental_uris": {"ios": "https://dc.lft.to/lastmile_qr_scan", "android": "https://dc.lft.to/lastmile_qr_scan"}, "type": "electric_scooter", "name": "8adecc087a9f15c0f2c7af1589816585", "is_reserved": 0, "lon": -77.06609283333333, "is_disabled": 0, "fusion_lat": 0.0, "lat": 38.91109183333333, "bike_id": "8adecc087a9f15c0f2c7af1589816585", "fusion_lon": 0.0}, {"rental_uris": {"ios": "https://dc.lft.to/lastmile_qr_scan", "android": "https://dc.lft.to/lastmile_qr_scan"}, "type": "electric_scooter", "name": "3804222df775d78502eac63976a27594", "is_reserved": 0, "lon": -77.03665783333334, "is_disabled": 0, "fusion_lat": 0.0, "lat": 38.921049833333335, "bike_id": "3804222df775d78502eac63976a27594", "fusion_lon": 0.0}, {"rental_uris": {"ios": "https://dc.lft.to/lastmile_qr_scan", "android": "https://dc.lft.to/lastmile_qr_scan"}, "type": "electric_scooter", "name": "68c7785a862ba8716fa65685a851b6b6", "is_reserved": 0, "lon": -77.01744933333333, "is_disabled": 0, "fusion_lat": 0.0, "lat": 38.914161666666665, "bike_id": "68c7785a862ba8716fa65685a851b6b6", "fusion_lon": 0.0}, {"rental_uris": {"ios": "https://dc.lft.to/lastmile_qr_scan", "android": "https://dc.lft.to/lastmile_qr_scan"}, "type": "electric_bike", "name": "b9e8bbe51ddc8f8b8adaf0f108f946fd", "is_reserved": 0, "lon": -77.0641285, "is_disabled": 0, "fusion_lat": 0.0, "lat": 38.9063095, "bike_id": "b9e8bbe51ddc8f8b8adaf0f108f946fd", "fusion_lon": 0.0}, {"rental_uris": {"ios": "https://dc.lft.to/lastmile_qr_scan", "android": "https://dc.lft.to/lastmile_qr_scan"}, "type": "electric_scooter", "name": "09a593794c2ac8d6c3fd73a0682d0be4", "is_reserved": 0, "lon": -77.02078916666666, "is_disabled": 0, "fusion_lat": 0.0, "lat": 38.8849615, "bike_id": "09a593794c2ac8d6c3fd73a0682d0be4", "fusion_lon": 0.0}, {"rental_uris": {"ios": "https://dc.lft.to/lastmile_qr_scan", "android": "https://dc.lft.to/lastmile_qr_scan"}, "type": "electric_scooter", "name": "5ec1bcaf2ac606de3502f9076f4a757d", "is_reserved": 0, "lon": -77.03739166666666, "is_disabled": 0, "fusion_lat": 0.0, "lat": 38.87993133333333, "bike_id": "5ec1bcaf2ac606de3502f9076f4a757d", "fusion_lon": 0.0}, {"rental_uris": {"ios": "https://dc.lft.to/lastmile_qr_scan", "android": "https://dc.lft.to/lastmile_qr_scan"}, "type": "electric_scooter", "name": "18fd848de5fdca71febb771bd6d7cb28", "is_reserved": 0, "lon": -77.04527283333333, "is_disabled": 0, "fusion_lat": 0.0, "lat": 38.911216333333336, "bike_id": "18fd848de5fdca71febb771bd6d7cb28", "fusion_lon": 0.0}, {"rental_uris": {"ios": "https://dc.lft.to/lastmile_qr_scan", "android": "https://dc.lft.to/lastmile_qr_scan"}, "type": "electric_scooter", "name": "750573eb5f59cd092c2f18b86ead8a0f", "is_reserved": 0, "lon": -77.01818983333334, "is_disabled": 0, "fusion_lat": 0.0, "lat": 38.9222195, "bike_id": "750573eb5f59cd092c2f18b86ead8a0f", "fusion_lon": 0.0}, {"rental_uris": {"ios": "https://dc.lft.to/lastmile_qr_scan", "android": "https://dc.lft.to/lastmile_qr_scan"}, "type": "electric_scooter", "name": "8a5ed80a7b4bb93aa1171f91efdcb24d", "is_reserved": 0, "lon": -77.0321285, "is_disabled": 0, "fusion_lat": 0.0, "lat": 38.91638483333333, "bike_id": "8a5ed80a7b4bb93aa1171f91efdcb24d", "fusion_lon": 0.0}, {"rental_uris": {"ios": "https://dc.lft.to/lastmile_qr_scan", "android": "https://dc.lft.to/lastmile_qr_scan"}, "type": "electric_scooter", "name": "ea400453f777aa654c5acfcb9cc40c1c", "is_reserved": 0, "lon": -77.03350316666666, "is_disabled": 0, "fusion_lat": 0.0, "lat": 38.902749166666666, "bike_id": "ea400453f777aa654c5acfcb9cc40c1c", "fusion_lon": 0.0}, {"rental_uris": {"ios": "https://dc.lft.to/lastmile_qr_scan", "android": "https://dc.lft.to/lastmile_qr_scan"}, "type": "electric_scooter", "name": "2e638942149028ffae2255005a2c4110", "is_reserved": 0, "lon": -77.01575533333333, "is_disabled": 0, "fusion_lat": 0.0, "lat": 38.8765295, "bike_id": "2e638942149028ffae2255005a2c4110", "fusion_lon": 0.0}, {"rental_uris": {"ios": "https://dc.lft.to/lastmile_qr_scan", "android": "https://dc.lft.to/lastmile_qr_scan"}, "type": "electric_scooter", "name": "9cbed8f18b84317a8097cf37ce989be7", "is_reserved": 0, "lon": -77.04331466666666, "is_disabled": 0, "fusion_lat": 0.0, "lat": 38.91377933333333, "bike_id": "9cbed8f18b84317a8097cf37ce989be7", "fusion_lon": 0.0}, {"rental_uris": {"ios": "https://dc.lft.to/lastmile_qr_scan", "android": "https://dc.lft.to/lastmile_qr_scan"}, "type": "electric_scooter", "name": "1a928ce1b02374ab98cc9b6b242af714", "is_reserved": 0, "lon": -77.03538233333333, "is_disabled": 0, "fusion_lat": 0.0, "lat": 38.92645133333333, "bike_id": "1a928ce1b02374ab98cc9b6b242af714", "fusion_lon": 0.0}, {"rental_uris": {"ios": "https://dc.lft.to/lastmile_qr_scan", "android": "https://dc.lft.to/lastmile_qr_scan"}, "type": "electric_scooter", "name": "ba9d7e1240c1e7fa7941300a53542c9e", "is_reserved": 0, "lon": -77.03064883333333, "is_disabled": 0, "fusion_lat": 0.0, "lat": 38.92253183333333, "bike_id": "ba9d7e1240c1e7fa7941300a53542c9e", "fusion_lon": 0.0}, {"rental_uris": {"ios": "https://dc.lft.to/lastmile_qr_scan", "android": "https://dc.lft.to/lastmile_qr_scan"}, "type": "electric_scooter", "name": "8669a95b40308fc93212f5ec26cf8fd8", "is_reserved": 0, "lon": -77.03449333333333, "is_disabled": 0, "fusion_lat": 0.0, "lat": 38.9081275, "bike_id": "8669a95b40308fc93212f5ec26cf8fd8", "fusion_lon": 0.0}, {"rental_uris": {"ios": "https://dc.lft.to/lastmile_qr_scan", "android": "https://dc.lft.to/lastmile_qr_scan"}, "type": "electric_scooter", "name": "5721c1b22bc7409b275aebe0c3a4d68e", "is_reserved": 0, "lon": -77.02648233333333, "is_disabled": 0, "fusion_lat": 0.0, "lat": 38.91920416666667, "bike_id": "5721c1b22bc7409b275aebe0c3a4d68e", "fusion_lon": 0.0}, {"rental_uris": {"ios": "https://dc.lft.to/lastmile_qr_scan", "android": "https://dc.lft.to/lastmile_qr_scan"}, "type": "electric_scooter", "name": "65566ded20a7615e5f9625354885fa62", "is_reserved": 0, "lon": -77.04694233333333, "is_disabled": 0, "fusion_lat": 0.0, "lat": 38.897430666666665, "bike_id": "65566ded20a7615e5f9625354885fa62", "fusion_lon": 0.0}, {"rental_uris": {"ios": "https://dc.lft.to/lastmile_qr_scan", "android": "https://dc.lft.to/lastmile_qr_scan"}, "type": "electric_scooter", "name": "a3ac54f3cd6123b1b1c35e5f7e4b45a2", "is_reserved": 0, "lon": -76.9902975, "is_disabled": 0, "fusion_lat": 0.0, "lat": 38.88880966666667, "bike_id": "a3ac54f3cd6123b1b1c35e5f7e4b45a2", "fusion_lon": 0.0}, {"rental_uris": {"ios": "https://dc.lft.to/lastmile_qr_scan", "android": "https://dc.lft.to/lastmile_qr_scan"}, "type": "electric_scooter", "name": "8a29c306939db7561cf2ec0a621a670a", "is_reserved": 0, "lon": -77.01703866666666, "is_disabled": 0, "fusion_lat": 0.0, "lat": 38.913843666666665, "bike_id": "8a29c306939db7561cf2ec0a621a670a", "fusion_lon": 0.0}, {"rental_uris": {"ios": "https://dc.lft.to/lastmile_qr_scan", "android": "https://dc.lft.to/lastmile_qr_scan"}, "type": "electric_bike", "name": "6787f6f78bab0600c33520677b52158f", "is_reserved": 0, "lon": -76.91722266666666, "is_disabled": 0, "fusion_lat": 0.0, "lat": 38.8802485, "bike_id": "6787f6f78bab0600c33520677b52158f", "fusion_lon": 0.0}, {"rental_uris": {"ios": "https://dc.lft.to/lastmile_qr_scan", "android": "https://dc.lft.to/lastmile_qr_scan"}, "type": "electric_scooter", "name": "8f4d9a2fcfa7ffe180acb9d9be2de4f5", "is_reserved": 0, "lon": -77.01760366666667, "is_disabled": 0, "fusion_lat": 0.0, "lat": 38.87685916666667, "bike_id": "8f4d9a2fcfa7ffe180acb9d9be2de4f5", "fusion_lon": 0.0}, {"rental_uris": {"ios": "https://dc.lft.to/lastmile_qr_scan", "android": "https://dc.lft.to/lastmile_qr_scan"}, "type": "electric_bike", "name": "b200fab1c25e59f02737afb3e7c09bb6", "is_reserved": 0, "lon": -77.036254, "is_disabled": 0, "fusion_lat": 0.0, "lat": 38.972966166666666, "bike_id": "b200fab1c25e59f02737afb3e7c09bb6", "fusion_lon": 0.0}, {"rental_uris": {"ios": "https://dc.lft.to/lastmile_qr_scan", "android": "https://dc.lft.to/lastmile_qr_scan"}, "type": "electric_scooter", "name": "f397d61c320efc58e665a7ce3b9d8403", "is_reserved": 0, "lon": -76.9883945, "is_disabled": 0, "fusion_lat": 0.0, "lat": 38.8429505, "bike_id": "f397d61c320efc58e665a7ce3b9d8403", "fusion_lon": 0.0}, {"rental_uris": {"ios": "https://dc.lft.to/lastmile_qr_scan", "android": "https://dc.lft.to/lastmile_qr_scan"}, "type": "electric_scooter", "name": "ecc7258353602e99363eb313cec8f67a", "is_reserved": 0, "lon": -77.021922, "is_disabled": 0, "fusion_lat": 0.0, "lat": 38.905484666666666, "bike_id": "ecc7258353602e99363eb313cec8f67a", "fusion_lon": 0.0}, {"rental_uris": {"ios": "https://dc.lft.to/lastmile_qr_scan", "android": "https://dc.lft.to/lastmile_qr_scan"}, "type": "electric_scooter", "name": "d21f01f99bee70813b2a0184c7980b0a", "is_reserved": 0, "lon": -77.0447385, "is_disabled": 0, "fusion_lat": 0.0, "lat": 38.90385633333333, "bike_id": "d21f01f99bee70813b2a0184c7980b0a", "fusion_lon": 0.0}, {"rental_uris": {"ios": "https://dc.lft.to/lastmile_qr_scan", "android": "https://dc.lft.to/lastmile_qr_scan"}, "type": "electric_bike", "name": "e025a285851c265a47f3617db7a633c1", "is_reserved": 0, "lon": -76.96262883333333, "is_disabled": 0, "fusion_lat": 0.0, "lat": 38.96784666666667, "bike_id": "e025a285851c265a47f3617db7a633c1", "fusion_lon": 0.0}, {"rental_uris": {"ios": "https://dc.lft.to/lastmile_qr_scan", "android": "https://dc.lft.to/lastmile_qr_scan"}, "type": "electric_scooter", "name": "e6e0c7668061953ea916e2896630d04e", "is_reserved": 0, "lon": -77.04314, "is_disabled": 0, "fusion_lat": 0.0, "lat": 38.90731733333333, "bike_id": "e6e0c7668061953ea916e2896630d04e", "fusion_lon": 0.0}, {"rental_uris": {"ios": "https://dc.lft.to/lastmile_qr_scan", "android": "https://dc.lft.to/lastmile_qr_scan"}, "type": "electric_bike", "name": "6bb2b84f1faf0a171da30241d09cea93", "is_reserved": 0, "lon": -77.06255033333333, "is_disabled": 0, "fusion_lat": 0.0, "lat": 38.93736533333333, "bike_id": "6bb2b84f1faf0a171da30241d09cea93", "fusion_lon": 0.0}, {"rental_uris": {"ios": "https://dc.lft.to/lastmile_qr_scan", "android": "https://dc.lft.to/lastmile_qr_scan"}, "type": "electric_bike", "name": "38a3df5c2f04ad8e00dc3f9ab39d21d7", "is_reserved": 0, "lon": -77.10210533333333, "is_disabled": 0, "fusion_lat": 0.0, "lat": 38.91993166666666, "bike_id": "38a3df5c2f04ad8e00dc3f9ab39d21d7", "fusion_lon": 0.0}, {"rental_uris": {"ios": "https://dc.lft.to/lastmile_qr_scan", "android": "https://dc.lft.to/lastmile_qr_scan"}, "type": "electric_scooter", "name": "014505822f4d141515d023ab47a70148", "is_reserved": 0, "lon": -77.02597233333333, "is_disabled": 0, "fusion_lat": 0.0, "lat": 38.9581105, "bike_id": "014505822f4d141515d023ab47a70148", "fusion_lon": 0.0}, {"rental_uris": {"ios": "https://dc.lft.to/lastmile_qr_scan", "android": "https://dc.lft.to/lastmile_qr_scan"}, "type": "electric_scooter", "name": "5ec1aa83c370b8dc9fc46440aae9a5f2", "is_reserved": 0, "lon": -77.03361016666666, "is_disabled": 0, "fusion_lat": 0.0, "lat": 38.92251666666667, "bike_id": "5ec1aa83c370b8dc9fc46440aae9a5f2", "fusion_lon": 0.0}, {"rental_uris": {"ios": "https://dc.lft.to/lastmile_qr_scan", "android": "https://dc.lft.to/lastmile_qr_scan"}, "type": "electric_scooter", "name": "b00badcef9b2e84c0b180babf25e18b5", "is_reserved": 0, "lon": -76.99882683333334, "is_disabled": 0, "fusion_lat": 0.0, "lat": 38.88660383333333, "bike_id": "b00badcef9b2e84c0b180babf25e18b5", "fusion_lon": 0.0}, {"rental_uris": {"ios": "https://dc.lft.to/lastmile_qr_scan", "android": "https://dc.lft.to/lastmile_qr_scan"}, "type": "electric_scooter", "name": "b0195c258606afbd45209c94d5d45430", "is_reserved": 0, "lon": -77.04902766666666, "is_disabled": 0, "fusion_lat": 0.0, "lat": 38.88841383333333, "bike_id": "b0195c258606afbd45209c94d5d45430", "fusion_lon": 0.0}, {"rental_uris": {"ios": "https://dc.lft.to/lastmile_qr_scan", "android": "https://dc.lft.to/lastmile_qr_scan"}, "type": "electric_bike", "name": "e52147fdaf0f3bb2e48413d00f29aa16", "is_reserved": 0, "lon": -76.98685666666667, "is_disabled": 0, "fusion_lat": 0.0, "lat": 38.944727666666665, "bike_id": "e52147fdaf0f3bb2e48413d00f29aa16", "fusion_lon": 0.0}, {"rental_uris": {"ios": "https://dc.lft.to/lastmile_qr_scan", "android": "https://dc.lft.to/lastmile_qr_scan"}, "type": "electric_bike", "name": "7ee588e3cac8aeca23eb4cd0ffcceecc", "is_reserved": 0, "lon": -77.07657333333333, "is_disabled": 0, "fusion_lat": 0.0, "lat": 38.809797333333336, "bike_id": "7ee588e3cac8aeca23eb4cd0ffcceecc", "fusion_lon": 0.0}, {"rental_uris": {"ios": "https://dc.lft.to/lastmile_qr_scan", "android": "https://dc.lft.to/lastmile_qr_scan"}, "type": "electric_scooter", "name": "ed43b96221a3965c1d2e93ffc35307aa", "is_reserved": 0, "lon": -77.01760383333334, "is_disabled": 0, "fusion_lat": 0.0, "lat": 38.8768365, "bike_id": "ed43b96221a3965c1d2e93ffc35307aa", "fusion_lon": 0.0}, {"rental_uris": {"ios": "https://dc.lft.to/lastmile_qr_scan", "android": "https://dc.lft.to/lastmile_qr_scan"}, "type": "electric_scooter", "name": "ef80891405b02c7ea3d010f51cd9f5fb", "is_reserved": 0, "lon": -77.04505033333334, "is_disabled": 0, "fusion_lat": 0.0, "lat": 38.892265333333334, "bike_id": "ef80891405b02c7ea3d010f51cd9f5fb", "fusion_lon": 0.0}, {"rental_uris": {"ios": "https://dc.lft.to/lastmile_qr_scan", "android": "https://dc.lft.to/lastmile_qr_scan"}, "type": "electric_scooter", "name": "f316b30688402a354a450180c486afab", "is_reserved": 0, "lon": -77.04664433333333, "is_disabled": 0, "fusion_lat": 0.0, "lat": 38.9124935, "bike_id": "f316b30688402a354a450180c486afab", "fusion_lon": 0.0}, {"rental_uris": {"ios": "https://dc.lft.to/lastmile_qr_scan", "android": "https://dc.lft.to/lastmile_qr_scan"}, "type": "electric_scooter", "name": "c7885fa56a3e59cc4d26b69940f70aad", "is_reserved": 0, "lon": -76.94650983333334, "is_disabled": 0, "fusion_lat": 0.0, "lat": 38.89827983333333, "bike_id": "c7885fa56a3e59cc4d26b69940f70aad", "fusion_lon": 0.0}, {"rental_uris": {"ios": "https://dc.lft.to/lastmile_qr_scan", "android": "https://dc.lft.to/lastmile_qr_scan"}, "type": "electric_scooter", "name": "0386edcb3022df700c9d60d641d5aca1", "is_reserved": 0, "lon": -77.03832716666666, "is_disabled": 0, "fusion_lat": 0.0, "lat": 38.90725066666667, "bike_id": "0386edcb3022df700c9d60d641d5aca1", "fusion_lon": 0.0}, {"rental_uris": {"ios": "https://dc.lft.to/lastmile_qr_scan", "android": "https://dc.lft.to/lastmile_qr_scan"}, "type": "electric_scooter", "name": "e5a3a69d03d7e78865884f962fc690f6", "is_reserved": 0, "lon": -76.97719333333333, "is_disabled": 0, "fusion_lat": 0.0, "lat": 38.90058033333333, "bike_id": "e5a3a69d03d7e78865884f962fc690f6", "fusion_lon": 0.0}, {"rental_uris": {"ios": "https://dc.lft.to/lastmile_qr_scan", "android": "https://dc.lft.to/lastmile_qr_scan"}, "type": "electric_scooter", "name": "a67df1a38d9b4f18927b63459969c165", "is_reserved": 0, "lon": -76.99146483333334, "is_disabled": 0, "fusion_lat": 0.0, "lat": 38.901216, "bike_id": "a67df1a38d9b4f18927b63459969c165", "fusion_lon": 0.0}, {"rental_uris": {"ios": "https://dc.lft.to/lastmile_qr_scan", "android": "https://dc.lft.to/lastmile_qr_scan"}, "type": "electric_bike", "name": "bad56678828c1c3f9a1c20bf620b857c", "is_reserved": 0, "lon": -77.01904216666667, "is_disabled": 0, "fusion_lat": 0.0, "lat": 38.9765755, "bike_id": "bad56678828c1c3f9a1c20bf620b857c", "fusion_lon": 0.0}, {"rental_uris": {"ios": "https://dc.lft.to/lastmile_qr_scan", "android": "https://dc.lft.to/lastmile_qr_scan"}, "type": "electric_scooter", "name": "4f7bbe37cca9b16ceeea51de161e885b", "is_reserved": 0, "lon": -77.0608835, "is_disabled": 0, "fusion_lat": 0.0, "lat": 38.93986916666667, "bike_id": "4f7bbe37cca9b16ceeea51de161e885b", "fusion_lon": 0.0}, {"rental_uris": {"ios": "https://dc.lft.to/lastmile_qr_scan", "android": "https://dc.lft.to/lastmile_qr_scan"}, "type": "electric_bike", "name": "711f84891a30f80fba4812d666a73e29", "is_reserved": 0, "lon": -77.02070566666667, "is_disabled": 0, "fusion_lat": 0.0, "lat": 38.9644025, "bike_id": "711f84891a30f80fba4812d666a73e29", "fusion_lon": 0.0}, {"rental_uris": {"ios": "https://dc.lft.to/lastmile_qr_scan", "android": "https://dc.lft.to/lastmile_qr_scan"}, "type": "electric_scooter", "name": "d340c112505e47e6415b8d2b7271b13a", "is_reserved": 0, "lon": -76.9902645, "is_disabled": 0, "fusion_lat": 0.0, "lat": 38.88876783333333, "bike_id": "d340c112505e47e6415b8d2b7271b13a", "fusion_lon": 0.0}, {"rental_uris": {"ios": "https://dc.lft.to/lastmile_qr_scan", "android": "https://dc.lft.to/lastmile_qr_scan"}, "type": "electric_bike", "name": "fd87e30269498aad6c8f0f45e4b4544a", "is_reserved": 0, "lon": -77.07239983333334, "is_disabled": 0, "fusion_lat": 0.0, "lat": 38.813635833333336, "bike_id": "fd87e30269498aad6c8f0f45e4b4544a", "fusion_lon": 0.0}, {"rental_uris": {"ios": "https://dc.lft.to/lastmile_qr_scan", "android": "https://dc.lft.to/lastmile_qr_scan"}, "type": "electric_scooter", "name": "5d43654f6502826f4c0f56d021c3bb58", "is_reserved": 0, "lon": -77.04236783333333, "is_disabled": 0, "fusion_lat": 0.0, "lat": 38.922718833333334, "bike_id": "5d43654f6502826f4c0f56d021c3bb58", "fusion_lon": 0.0}, {"rental_uris": {"ios": "https://dc.lft.to/lastmile_qr_scan", "android": "https://dc.lft.to/lastmile_qr_scan"}, "type": "electric_scooter", "name": "e54d8ae3a5118ea8a56c3b54376e24a0", "is_reserved": 0, "lon": -77.01506683333334, "is_disabled": 0, "fusion_lat": 0.0, "lat": 38.901432, "bike_id": "e54d8ae3a5118ea8a56c3b54376e24a0", "fusion_lon": 0.0}, {"rental_uris": {"ios": "https://dc.lft.to/lastmile_qr_scan", "android": "https://dc.lft.to/lastmile_qr_scan"}, "type": "electric_scooter", "name": "4db24ce64cac7236b78105e3bec512c6", "is_reserved": 0, "lon": -77.03224666666667, "is_disabled": 0, "fusion_lat": 0.0, "lat": 38.92480966666667, "bike_id": "4db24ce64cac7236b78105e3bec512c6", "fusion_lon": 0.0}, {"rental_uris": {"ios": "https://dc.lft.to/lastmile_qr_scan", "android": "https://dc.lft.to/lastmile_qr_scan"}, "type": "electric_scooter", "name": "aa3574eaf462f7d9e7d5b65ba7e5e002", "is_reserved": 0, "lon": -77.00067833333334, "is_disabled": 0, "fusion_lat": 0.0, "lat": 38.87688566666667, "bike_id": "aa3574eaf462f7d9e7d5b65ba7e5e002", "fusion_lon": 0.0}, {"rental_uris": {"ios": "https://dc.lft.to/lastmile_qr_scan", "android": "https://dc.lft.to/lastmile_qr_scan"}, "type": "electric_scooter", "name": "abf032d8f4356d6790ae87e1437650a6", "is_reserved": 0, "lon": -77.05197233333334, "is_disabled": 0, "fusion_lat": 0.0, "lat": 38.92462116666667, "bike_id": "abf032d8f4356d6790ae87e1437650a6", "fusion_lon": 0.0}, {"rental_uris": {"ios": "https://dc.lft.to/lastmile_qr_scan", "android": "https://dc.lft.to/lastmile_qr_scan"}, "type": "electric_scooter", "name": "c10eca4194c2e0bfc347d19290929086", "is_reserved": 0, "lon": -76.99006516666667, "is_disabled": 0, "fusion_lat": 0.0, "lat": 38.903975833333334, "bike_id": "c10eca4194c2e0bfc347d19290929086", "fusion_lon": 0.0}, {"rental_uris": {"ios": "https://dc.lft.to/lastmile_qr_scan", "android": "https://dc.lft.to/lastmile_qr_scan"}, "type": "electric_scooter", "name": "50f6a8e896760663f4c1cd679046d120", "is_reserved": 0, "lon": -77.0425875, "is_disabled": 0, "fusion_lat": 0.0, "lat": 38.9106625, "bike_id": "50f6a8e896760663f4c1cd679046d120", "fusion_lon": 0.0}, {"rental_uris": {"ios": "https://dc.lft.to/lastmile_qr_scan", "android": "https://dc.lft.to/lastmile_qr_scan"}, "type": "electric_scooter", "name": "945620f67c4d8e21f90b59f8751934d4", "is_reserved": 0, "lon": -77.037885, "is_disabled": 0, "fusion_lat": 0.0, "lat": 38.9257575, "bike_id": "945620f67c4d8e21f90b59f8751934d4", "fusion_lon": 0.0}, {"rental_uris": {"ios": "https://dc.lft.to/lastmile_qr_scan", "android": "https://dc.lft.to/lastmile_qr_scan"}, "type": "electric_scooter", "name": "17ad1e0b09a7cf7b2e4cd421d21c7b94", "is_reserved": 0, "lon": -77.026225, "is_disabled": 0, "fusion_lat": 0.0, "lat": 38.9017155, "bike_id": "17ad1e0b09a7cf7b2e4cd421d21c7b94", "fusion_lon": 0.0}, {"rental_uris": {"ios": "https://dc.lft.to/lastmile_qr_scan", "android": "https://dc.lft.to/lastmile_qr_scan"}, "type": "electric_bike", "name": "c8d4ffef0d94bf043863a5d5957aca77", "is_reserved": 0, "lon": -76.96884433333334, "is_disabled": 0, "fusion_lat": 0.0, "lat": 38.869839999999996, "bike_id": "c8d4ffef0d94bf043863a5d5957aca77", "fusion_lon": 0.0}, {"rental_uris": {"ios": "https://dc.lft.to/lastmile_qr_scan", "android": "https://dc.lft.to/lastmile_qr_scan"}, "type": "electric_scooter", "name": "311d662fe866d2d66ab1398d67d5c1e2", "is_reserved": 0, "lon": -77.040014, "is_disabled": 0, "fusion_lat": 0.0, "lat": 38.934252, "bike_id": "311d662fe866d2d66ab1398d67d5c1e2", "fusion_lon": 0.0}, {"rental_uris": {"ios": "https://dc.lft.to/lastmile_qr_scan", "android": "https://dc.lft.to/lastmile_qr_scan"}, "type": "electric_scooter", "name": "5318105153630a8751bfb26ba8034f10", "is_reserved": 0, "lon": -77.0189085, "is_disabled": 0, "fusion_lat": 0.0, "lat": 38.874627333333336, "bike_id": "5318105153630a8751bfb26ba8034f10", "fusion_lon": 0.0}, {"rental_uris": {"ios": "https://dc.lft.to/lastmile_qr_scan", "android": "https://dc.lft.to/lastmile_qr_scan"}, "type": "electric_scooter", "name": "72b9119657449434232d6f3c8fc95a5f", "is_reserved": 0, "lon": -77.00925983333333, "is_disabled": 0, "fusion_lat": 0.0, "lat": 38.89780016666667, "bike_id": "72b9119657449434232d6f3c8fc95a5f", "fusion_lon": 0.0}, {"rental_uris": {"ios": "https://dc.lft.to/lastmile_qr_scan", "android": "https://dc.lft.to/lastmile_qr_scan"}, "type": "electric_scooter", "name": "192d0aa3300291c9f646b0ce9a8737e6", "is_reserved": 0, "lon": -77.02372216666667, "is_disabled": 0, "fusion_lat": 0.0, "lat": 38.903212, "bike_id": "192d0aa3300291c9f646b0ce9a8737e6", "fusion_lon": 0.0}, {"rental_uris": {"ios": "https://dc.lft.to/lastmile_qr_scan", "android": "https://dc.lft.to/lastmile_qr_scan"}, "type": "electric_scooter", "name": "ca993fc822082e162ba4f053a489eacc", "is_reserved": 0, "lon": -76.98545533333333, "is_disabled": 0, "fusion_lat": 0.0, "lat": 38.879647166666665, "bike_id": "ca993fc822082e162ba4f053a489eacc", "fusion_lon": 0.0}, {"rental_uris": {"ios": "https://dc.lft.to/lastmile_qr_scan", "android": "https://dc.lft.to/lastmile_qr_scan"}, "type": "electric_scooter", "name": "dbc66c1d94d866cf6f36741bed38ca86", "is_reserved": 0, "lon": -77.0355915, "is_disabled": 0, "fusion_lat": 0.0, "lat": 38.927336833333335, "bike_id": "dbc66c1d94d866cf6f36741bed38ca86", "fusion_lon": 0.0}, {"rental_uris": {"ios": "https://dc.lft.to/lastmile_qr_scan", "android": "https://dc.lft.to/lastmile_qr_scan"}, "type": "electric_bike", "name": "485956296fa8fabdfd1d1705eb6d6c87", "is_reserved": 0, "lon": -77.12895883333333, "is_disabled": 0, "fusion_lat": 0.0, "lat": 38.90598683333333, "bike_id": "485956296fa8fabdfd1d1705eb6d6c87", "fusion_lon": 0.0}, {"rental_uris": {"ios": "https://dc.lft.to/lastmile_qr_scan", "android": "https://dc.lft.to/lastmile_qr_scan"}, "type": "electric_scooter", "name": "cd70a5034b2972ef37d79837aa683608", "is_reserved": 0, "lon": -76.99142033333334, "is_disabled": 0, "fusion_lat": 0.0, "lat": 38.8733785, "bike_id": "cd70a5034b2972ef37d79837aa683608", "fusion_lon": 0.0}, {"rental_uris": {"ios": "https://dc.lft.to/lastmile_qr_scan", "android": "https://dc.lft.to/lastmile_qr_scan"}, "type": "electric_scooter", "name": "172ca24f861a5a8e64fc2b43bd9af837", "is_reserved": 0, "lon": -77.02174316666667, "is_disabled": 0, "fusion_lat": 0.0, "lat": 38.92829416666667, "bike_id": "172ca24f861a5a8e64fc2b43bd9af837", "fusion_lon": 0.0}, {"rental_uris": {"ios": "https://dc.lft.to/lastmile_qr_scan", "android": "https://dc.lft.to/lastmile_qr_scan"}, "type": "electric_scooter", "name": "aea89a7a2377a6dafcebcbc31449598b", "is_reserved": 0, "lon": -76.9961235, "is_disabled": 0, "fusion_lat": 0.0, "lat": 38.900053666666665, "bike_id": "aea89a7a2377a6dafcebcbc31449598b", "fusion_lon": 0.0}, {"rental_uris": {"ios": "https://dc.lft.to/lastmile_qr_scan", "android": "https://dc.lft.to/lastmile_qr_scan"}, "type": "electric_scooter", "name": "019963e2e891847dde119d20876f2dd0", "is_reserved": 0, "lon": -77.02469433333333, "is_disabled": 0, "fusion_lat": 0.0, "lat": 38.903195833333335, "bike_id": "019963e2e891847dde119d20876f2dd0", "fusion_lon": 0.0}, {"rental_uris": {"ios": "https://dc.lft.to/lastmile_qr_scan", "android": "https://dc.lft.to/lastmile_qr_scan"}, "type": "electric_bike", "name": "b6df5e40407505cd4672507e429896e7", "is_reserved": 0, "lon": -76.98263166666666, "is_disabled": 0, "fusion_lat": 0.0, "lat": 38.84847583333333, "bike_id": "b6df5e40407505cd4672507e429896e7", "fusion_lon": 0.0}, {"rental_uris": {"ios": "https://dc.lft.to/lastmile_qr_scan", "android": "https://dc.lft.to/lastmile_qr_scan"}, "type": "electric_scooter", "name": "5b584b37eecd9cadc0c4808313c5f8b0", "is_reserved": 0, "lon": -77.02698933333333, "is_disabled": 0, "fusion_lat": 0.0, "lat": 38.897302333333336, "bike_id": "5b584b37eecd9cadc0c4808313c5f8b0", "fusion_lon": 0.0}, {"rental_uris": {"ios": "https://dc.lft.to/lastmile_qr_scan", "android": "https://dc.lft.to/lastmile_qr_scan"}, "type": "electric_scooter", "name": "fe660ad7fd2aaeee13708eb1d245b30a", "is_reserved": 0, "lon": -77.02091533333333, "is_disabled": 0, "fusion_lat": 0.0, "lat": 38.92115866666666, "bike_id": "fe660ad7fd2aaeee13708eb1d245b30a", "fusion_lon": 0.0}, {"rental_uris": {"ios": "https://dc.lft.to/lastmile_qr_scan", "android": "https://dc.lft.to/lastmile_qr_scan"}, "type": "electric_scooter", "name": "b27e1543bc335a013237208ac9890651", "is_reserved": 0, "lon": -77.01764816666666, "is_disabled": 0, "fusion_lat": 0.0, "lat": 38.88627, "bike_id": "b27e1543bc335a013237208ac9890651", "fusion_lon": 0.0}, {"rental_uris": {"ios": "https://dc.lft.to/lastmile_qr_scan", "android": "https://dc.lft.to/lastmile_qr_scan"}, "type": "electric_scooter", "name": "305ddf773cdebea6e2e1f393321f0586", "is_reserved": 0, "lon": -77.048661, "is_disabled": 0, "fusion_lat": 0.0, "lat": 38.89221516666667, "bike_id": "305ddf773cdebea6e2e1f393321f0586", "fusion_lon": 0.0}, {"rental_uris": {"ios": "https://dc.lft.to/lastmile_qr_scan", "android": "https://dc.lft.to/lastmile_qr_scan"}, "type": "electric_scooter", "name": "0547cd55cbe8ad235519273c82a82afa", "is_reserved": 0, "lon": -77.01694666666667, "is_disabled": 0, "fusion_lat": 0.0, "lat": 38.90450583333333, "bike_id": "0547cd55cbe8ad235519273c82a82afa", "fusion_lon": 0.0}, {"rental_uris": {"ios": "https://dc.lft.to/lastmile_qr_scan", "android": "https://dc.lft.to/lastmile_qr_scan"}, "type": "electric_scooter", "name": "de7cd9fb71ec9c4d47f29176aebfc136", "is_reserved": 0, "lon": -77.03835266666667, "is_disabled": 0, "fusion_lat": 0.0, "lat": 38.9111945, "bike_id": "de7cd9fb71ec9c4d47f29176aebfc136", "fusion_lon": 0.0}, {"rental_uris": {"ios": "https://dc.lft.to/lastmile_qr_scan", "android": "https://dc.lft.to/lastmile_qr_scan"}, "type": "electric_scooter", "name": "9dc8a3f1aa38cb2d5ed40b2805beecfd", "is_reserved": 0, "lon": -76.98340883333333, "is_disabled": 0, "fusion_lat": 0.0, "lat": 38.90082116666667, "bike_id": "9dc8a3f1aa38cb2d5ed40b2805beecfd", "fusion_lon": 0.0}, {"rental_uris": {"ios": "https://dc.lft.to/lastmile_qr_scan", "android": "https://dc.lft.to/lastmile_qr_scan"}, "type": "electric_scooter", "name": "79261d9a3ee90b259c4cabae075e4143", "is_reserved": 0, "lon": -77.02791966666666, "is_disabled": 0, "fusion_lat": 0.0, "lat": 38.899655833333334, "bike_id": "79261d9a3ee90b259c4cabae075e4143", "fusion_lon": 0.0}, {"rental_uris": {"ios": "https://dc.lft.to/lastmile_qr_scan", "android": "https://dc.lft.to/lastmile_qr_scan"}, "type": "electric_scooter", "name": "bf97c7f5165092a38613e64db06a5793", "is_reserved": 0, "lon": -77.03385566666667, "is_disabled": 0, "fusion_lat": 0.0, "lat": 38.899687166666666, "bike_id": "bf97c7f5165092a38613e64db06a5793", "fusion_lon": 0.0}, {"rental_uris": {"ios": "https://dc.lft.to/lastmile_qr_scan", "android": "https://dc.lft.to/lastmile_qr_scan"}, "type": "electric_bike", "name": "a43093c696cfb121e552ead4e58cc282", "is_reserved": 0, "lon": -76.98881766666666, "is_disabled": 0, "fusion_lat": 0.0, "lat": 38.921173833333334, "bike_id": "a43093c696cfb121e552ead4e58cc282", "fusion_lon": 0.0}, {"rental_uris": {"ios": "https://dc.lft.to/lastmile_qr_scan", "android": "https://dc.lft.to/lastmile_qr_scan"}, "type": "electric_scooter", "name": "adc631288d23b0177ee83f02444f1997", "is_reserved": 0, "lon": -77.030519, "is_disabled": 0, "fusion_lat": 0.0, "lat": 38.90718583333334, "bike_id": "adc631288d23b0177ee83f02444f1997", "fusion_lon": 0.0}, {"rental_uris": {"ios": "https://dc.lft.to/lastmile_qr_scan", "android": "https://dc.lft.to/lastmile_qr_scan"}, "type": "electric_scooter", "name": "6d5563282187e92da463b8120b232abf", "is_reserved": 0, "lon": -77.040552, "is_disabled": 0, "fusion_lat": 0.0, "lat": 38.91766716666667, "bike_id": "6d5563282187e92da463b8120b232abf", "fusion_lon": 0.0}, {"rental_uris": {"ios": "https://dc.lft.to/lastmile_qr_scan", "android": "https://dc.lft.to/lastmile_qr_scan"}, "type": "electric_scooter", "name": "e3a2ba53dc1c04cbb33850f97a7689d1", "is_reserved": 0, "lon": -77.05811466666667, "is_disabled": 0, "fusion_lat": 0.0, "lat": 38.935200333333334, "bike_id": "e3a2ba53dc1c04cbb33850f97a7689d1", "fusion_lon": 0.0}, {"rental_uris": {"ios": "https://dc.lft.to/lastmile_qr_scan", "android": "https://dc.lft.to/lastmile_qr_scan"}, "type": "electric_scooter", "name": "63095305352ce5e60830ea7c0c679019", "is_reserved": 0, "lon": -77.03299633333333, "is_disabled": 0, "fusion_lat": 0.0, "lat": 38.917113666666665, "bike_id": "63095305352ce5e60830ea7c0c679019", "fusion_lon": 0.0}, {"rental_uris": {"ios": "https://dc.lft.to/lastmile_qr_scan", "android": "https://dc.lft.to/lastmile_qr_scan"}, "type": "electric_scooter", "name": "36378f0e84817384e77c145a323437e2", "is_reserved": 0, "lon": -77.03269733333333, "is_disabled": 0, "fusion_lat": 0.0, "lat": 38.91991083333333, "bike_id": "36378f0e84817384e77c145a323437e2", "fusion_lon": 0.0}, {"rental_uris": {"ios": "https://dc.lft.to/lastmile_qr_scan", "android": "https://dc.lft.to/lastmile_qr_scan"}, "type": "electric_scooter", "name": "c918075e57e120b9e59fc730208a81f5", "is_reserved": 0, "lon": -77.04810283333333, "is_disabled": 0, "fusion_lat": 0.0, "lat": 38.9203605, "bike_id": "c918075e57e120b9e59fc730208a81f5", "fusion_lon": 0.0}, {"rental_uris": {"ios": "https://dc.lft.to/lastmile_qr_scan", "android": "https://dc.lft.to/lastmile_qr_scan"}, "type": "electric_bike", "name": "2b7ea7ce4463dc692682fc7e68100020", "is_reserved": 0, "lon": -77.00153733333333, "is_disabled": 0, "fusion_lat": 0.0, "lat": 38.941668166666666, "bike_id": "2b7ea7ce4463dc692682fc7e68100020", "fusion_lon": 0.0}, {"rental_uris": {"ios": "https://dc.lft.to/lastmile_qr_scan", "android": "https://dc.lft.to/lastmile_qr_scan"}, "type": "electric_scooter", "name": "e1eea19e2867daf1c9e297f5bfec6d8f", "is_reserved": 0, "lon": -77.04806083333334, "is_disabled": 0, "fusion_lat": 0.0, "lat": 38.899497833333335, "bike_id": "e1eea19e2867daf1c9e297f5bfec6d8f", "fusion_lon": 0.0}, {"rental_uris": {"ios": "https://dc.lft.to/lastmile_qr_scan", "android": "https://dc.lft.to/lastmile_qr_scan"}, "type": "electric_scooter", "name": "2f4aca6a8394d4542e885b2cdba8ae68", "is_reserved": 0, "lon": -77.03159516666666, "is_disabled": 0, "fusion_lat": 0.0, "lat": 38.95932066666667, "bike_id": "2f4aca6a8394d4542e885b2cdba8ae68", "fusion_lon": 0.0}, {"rental_uris": {"ios": "https://dc.lft.to/lastmile_qr_scan", "android": "https://dc.lft.to/lastmile_qr_scan"}, "type": "electric_scooter", "name": "887a58ab464472c8232fe62b359cede8", "is_reserved": 0, "lon": -77.031979, "is_disabled": 0, "fusion_lat": 0.0, "lat": 38.8991405, "bike_id": "887a58ab464472c8232fe62b359cede8", "fusion_lon": 0.0}, {"rental_uris": {"ios": "https://dc.lft.to/lastmile_qr_scan", "android": "https://dc.lft.to/lastmile_qr_scan"}, "type": "electric_scooter", "name": "740d7171c88793a5812a446508257974", "is_reserved": 0, "lon": -77.04377966666667, "is_disabled": 0, "fusion_lat": 0.0, "lat": 38.934256166666664, "bike_id": "740d7171c88793a5812a446508257974", "fusion_lon": 0.0}, {"rental_uris": {"ios": "https://dc.lft.to/lastmile_qr_scan", "android": "https://dc.lft.to/lastmile_qr_scan"}, "type": "electric_scooter", "name": "1f9256848ff6730c18546fbdac35c68f", "is_reserved": 0, "lon": -76.990645, "is_disabled": 0, "fusion_lat": 0.0, "lat": 38.904196666666664, "bike_id": "1f9256848ff6730c18546fbdac35c68f", "fusion_lon": 0.0}, {"rental_uris": {"ios": "https://dc.lft.to/lastmile_qr_scan", "android": "https://dc.lft.to/lastmile_qr_scan"}, "type": "electric_scooter", "name": "388011826845dba99b100b47e15c69fd", "is_reserved": 0, "lon": -77.01883483333333, "is_disabled": 0, "fusion_lat": 0.0, "lat": 38.897453666666664, "bike_id": "388011826845dba99b100b47e15c69fd", "fusion_lon": 0.0}, {"rental_uris": {"ios": "https://dc.lft.to/lastmile_qr_scan", "android": "https://dc.lft.to/lastmile_qr_scan"}, "type": "electric_scooter", "name": "c0d43cfb38a341de2e23d3e94a264952", "is_reserved": 0, "lon": -76.9833315, "is_disabled": 0, "fusion_lat": 0.0, "lat": 38.9008605, "bike_id": "c0d43cfb38a341de2e23d3e94a264952", "fusion_lon": 0.0}, {"rental_uris": {"ios": "https://dc.lft.to/lastmile_qr_scan", "android": "https://dc.lft.to/lastmile_qr_scan"}, "type": "electric_scooter", "name": "75d1f9f8061a7d1be9d454cd281314e9", "is_reserved": 0, "lon": -77.0218745, "is_disabled": 0, "fusion_lat": 0.0, "lat": 38.914804333333336, "bike_id": "75d1f9f8061a7d1be9d454cd281314e9", "fusion_lon": 0.0}, {"rental_uris": {"ios": "https://dc.lft.to/lastmile_qr_scan", "android": "https://dc.lft.to/lastmile_qr_scan"}, "type": "electric_scooter", "name": "eae3d3288993628ce634871c72acd2dc", "is_reserved": 0, "lon": -77.032004, "is_disabled": 0, "fusion_lat": 0.0, "lat": 38.9146895, "bike_id": "eae3d3288993628ce634871c72acd2dc", "fusion_lon": 0.0}, {"rental_uris": {"ios": "https://dc.lft.to/lastmile_qr_scan", "android": "https://dc.lft.to/lastmile_qr_scan"}, "type": "electric_scooter", "name": "238b8517bf7edff7382c621637947c34", "is_reserved": 0, "lon": -77.02015666666667, "is_disabled": 0, "fusion_lat": 0.0, "lat": 38.8990735, "bike_id": "238b8517bf7edff7382c621637947c34", "fusion_lon": 0.0}, {"rental_uris": {"ios": "https://dc.lft.to/lastmile_qr_scan", "android": "https://dc.lft.to/lastmile_qr_scan"}, "type": "electric_scooter", "name": "fd3ac6c527cab82bf8aaf8b9360bf254", "is_reserved": 0, "lon": -77.04920416666667, "is_disabled": 0, "fusion_lat": 0.0, "lat": 38.9009625, "bike_id": "fd3ac6c527cab82bf8aaf8b9360bf254", "fusion_lon": 0.0}, {"rental_uris": {"ios": "https://dc.lft.to/lastmile_qr_scan", "android": "https://dc.lft.to/lastmile_qr_scan"}, "type": "electric_scooter", "name": "e7be013e5887b4912ed0ab82f8573b46", "is_reserved": 0, "lon": -77.068547, "is_disabled": 0, "fusion_lat": 0.0, "lat": 38.90404016666667, "bike_id": "e7be013e5887b4912ed0ab82f8573b46", "fusion_lon": 0.0}, {"rental_uris": {"ios": "https://dc.lft.to/lastmile_qr_scan", "android": "https://dc.lft.to/lastmile_qr_scan"}, "type": "electric_bike", "name": "4a2f8c07dd9860636a048f01350257d6", "is_reserved": 0, "lon": -77.06954283333333, "is_disabled": 0, "fusion_lat": 0.0, "lat": 38.836272, "bike_id": "4a2f8c07dd9860636a048f01350257d6", "fusion_lon": 0.0}, {"rental_uris": {"ios": "https://dc.lft.to/lastmile_qr_scan", "android": "https://dc.lft.to/lastmile_qr_scan"}, "type": "electric_scooter", "name": "6f1b2bafe00bacab03cedaee359c3086", "is_reserved": 0, "lon": -77.00132233333333, "is_disabled": 0, "fusion_lat": 0.0, "lat": 38.8750915, "bike_id": "6f1b2bafe00bacab03cedaee359c3086", "fusion_lon": 0.0}, {"rental_uris": {"ios": "https://dc.lft.to/lastmile_qr_scan", "android": "https://dc.lft.to/lastmile_qr_scan"}, "type": "electric_scooter", "name": "7dd146c9f2417ad2931c836c579c301c", "is_reserved": 0, "lon": -76.97330283333334, "is_disabled": 0, "fusion_lat": 0.0, "lat": 38.90409866666667, "bike_id": "7dd146c9f2417ad2931c836c579c301c", "fusion_lon": 0.0}, {"rental_uris": {"ios": "https://dc.lft.to/lastmile_qr_scan", "android": "https://dc.lft.to/lastmile_qr_scan"}, "type": "electric_scooter", "name": "e1ee3395e8afab8dcb32e0617f29a484", "is_reserved": 0, "lon": -77.0609895, "is_disabled": 0, "fusion_lat": 0.0, "lat": 38.939775833333336, "bike_id": "e1ee3395e8afab8dcb32e0617f29a484", "fusion_lon": 0.0}, {"rental_uris": {"ios": "https://dc.lft.to/lastmile_qr_scan", "android": "https://dc.lft.to/lastmile_qr_scan"}, "type": "electric_scooter", "name": "a3fa1a54adf33adfe6e03fd037164acd", "is_reserved": 0, "lon": -77.048222, "is_disabled": 0, "fusion_lat": 0.0, "lat": 38.914926, "bike_id": "a3fa1a54adf33adfe6e03fd037164acd", "fusion_lon": 0.0}, {"rental_uris": {"ios": "https://dc.lft.to/lastmile_qr_scan", "android": "https://dc.lft.to/lastmile_qr_scan"}, "type": "electric_scooter", "name": "cf8d4aa455bd0e839cd06e1cee6f180b", "is_reserved": 0, "lon": -77.01145766666667, "is_disabled": 0, "fusion_lat": 0.0, "lat": 38.90964116666667, "bike_id": "cf8d4aa455bd0e839cd06e1cee6f180b", "fusion_lon": 0.0}, {"rental_uris": {"ios": "https://dc.lft.to/lastmile_qr_scan", "android": "https://dc.lft.to/lastmile_qr_scan"}, "type": "electric_scooter", "name": "c6e658e7827762734fb3b10bc1409f70", "is_reserved": 0, "lon": -77.039695, "is_disabled": 0, "fusion_lat": 0.0, "lat": 38.93151266666667, "bike_id": "c6e658e7827762734fb3b10bc1409f70", "fusion_lon": 0.0}, {"rental_uris": {"ios": "https://dc.lft.to/lastmile_qr_scan", "android": "https://dc.lft.to/lastmile_qr_scan"}, "type": "electric_scooter", "name": "d1e9cd48480d10e2c3b3a02d76517579", "is_reserved": 0, "lon": -77.03829333333333, "is_disabled": 0, "fusion_lat": 0.0, "lat": 38.90729733333333, "bike_id": "d1e9cd48480d10e2c3b3a02d76517579", "fusion_lon": 0.0}, {"rental_uris": {"ios": "https://dc.lft.to/lastmile_qr_scan", "android": "https://dc.lft.to/lastmile_qr_scan"}, "type": "electric_scooter", "name": "bdce32619725b3669851879c669ba323", "is_reserved": 0, "lon": -77.02713433333334, "is_disabled": 0, "fusion_lat": 0.0, "lat": 38.917246666666664, "bike_id": "bdce32619725b3669851879c669ba323", "fusion_lon": 0.0}, {"rental_uris": {"ios": "https://dc.lft.to/lastmile_qr_scan", "android": "https://dc.lft.to/lastmile_qr_scan"}, "type": "electric_scooter", "name": "b6dde15753594c83565d1fd2ba8bbe1b", "is_reserved": 0, "lon": -76.99585483333334, "is_disabled": 0, "fusion_lat": 0.0, "lat": 38.909423833333335, "bike_id": "b6dde15753594c83565d1fd2ba8bbe1b", "fusion_lon": 0.0}, {"rental_uris": {"ios": "https://dc.lft.to/lastmile_qr_scan", "android": "https://dc.lft.to/lastmile_qr_scan"}, "type": "electric_scooter", "name": "cb50e44a63e53997dc57fe1d65112cba", "is_reserved": 0, "lon": -77.02379616666667, "is_disabled": 0, "fusion_lat": 0.0, "lat": 38.90846233333333, "bike_id": "cb50e44a63e53997dc57fe1d65112cba", "fusion_lon": 0.0}, {"rental_uris": {"ios": "https://dc.lft.to/lastmile_qr_scan", "android": "https://dc.lft.to/lastmile_qr_scan"}, "type": "electric_bike", "name": "97489112ac13fcf8a352d555f115a5b6", "is_reserved": 0, "lon": -77.001351, "is_disabled": 0, "fusion_lat": 0.0, "lat": 38.995006000000004, "bike_id": "97489112ac13fcf8a352d555f115a5b6", "fusion_lon": 0.0}, {"rental_uris": {"ios": "https://dc.lft.to/lastmile_qr_scan", "android": "https://dc.lft.to/lastmile_qr_scan"}, "type": "electric_scooter", "name": "a304546a43ac9bd0c50f73bc0c1459a1", "is_reserved": 0, "lon": -77.054982, "is_disabled": 0, "fusion_lat": 0.0, "lat": 38.928406833333334, "bike_id": "a304546a43ac9bd0c50f73bc0c1459a1", "fusion_lon": 0.0}, {"rental_uris": {"ios": "https://dc.lft.to/lastmile_qr_scan", "android": "https://dc.lft.to/lastmile_qr_scan"}, "type": "electric_scooter", "name": "9d3561ec0c70e5d22be1812d965d5249", "is_reserved": 0, "lon": -77.06102233333333, "is_disabled": 0, "fusion_lat": 0.0, "lat": 38.939832833333334, "bike_id": "9d3561ec0c70e5d22be1812d965d5249", "fusion_lon": 0.0}, {"rental_uris": {"ios": "https://dc.lft.to/lastmile_qr_scan", "android": "https://dc.lft.to/lastmile_qr_scan"}, "type": "electric_scooter", "name": "57d7a25e57182f9e7f6371ac42678f69", "is_reserved": 0, "lon": -76.9374735, "is_disabled": 0, "fusion_lat": 0.0, "lat": 38.8901025, "bike_id": "57d7a25e57182f9e7f6371ac42678f69", "fusion_lon": 0.0}, {"rental_uris": {"ios": "https://dc.lft.to/lastmile_qr_scan", "android": "https://dc.lft.to/lastmile_qr_scan"}, "type": "electric_scooter", "name": "e3190541387f3f4e8530136451785454", "is_reserved": 0, "lon": -77.02388333333333, "is_disabled": 0, "fusion_lat": 0.0, "lat": 38.935151166666664, "bike_id": "e3190541387f3f4e8530136451785454", "fusion_lon": 0.0}, {"rental_uris": {"ios": "https://dc.lft.to/lastmile_qr_scan", "android": "https://dc.lft.to/lastmile_qr_scan"}, "type": "electric_scooter", "name": "3b2ac8d506fa13ada44981d7de9f4c3e", "is_reserved": 0, "lon": -77.07337783333334, "is_disabled": 0, "fusion_lat": 0.0, "lat": 38.9609485, "bike_id": "3b2ac8d506fa13ada44981d7de9f4c3e", "fusion_lon": 0.0}, {"rental_uris": {"ios": "https://dc.lft.to/lastmile_qr_scan", "android": "https://dc.lft.to/lastmile_qr_scan"}, "type": "electric_bike", "name": "3906c8655587d7a1eb0298e398972122", "is_reserved": 0, "lon": -76.992489, "is_disabled": 0, "fusion_lat": 0.0, "lat": 38.96061433333333, "bike_id": "3906c8655587d7a1eb0298e398972122", "fusion_lon": 0.0}, {"rental_uris": {"ios": "https://dc.lft.to/lastmile_qr_scan", "android": "https://dc.lft.to/lastmile_qr_scan"}, "type": "electric_scooter", "name": "093b13bef12a38eea1a52948e676a138", "is_reserved": 0, "lon": -77.03179316666667, "is_disabled": 0, "fusion_lat": 0.0, "lat": 38.910948166666664, "bike_id": "093b13bef12a38eea1a52948e676a138", "fusion_lon": 0.0}, {"rental_uris": {"ios": "https://dc.lft.to/lastmile_qr_scan", "android": "https://dc.lft.to/lastmile_qr_scan"}, "type": "electric_scooter", "name": "6aec5dd8d5120eb6a0f01dcf5088aa87", "is_reserved": 0, "lon": -77.031424, "is_disabled": 0, "fusion_lat": 0.0, "lat": 38.88743316666667, "bike_id": "6aec5dd8d5120eb6a0f01dcf5088aa87", "fusion_lon": 0.0}, {"rental_uris": {"ios": "https://dc.lft.to/lastmile_qr_scan", "android": "https://dc.lft.to/lastmile_qr_scan"}, "type": "electric_scooter", "name": "d2e68f6422e06f940523d1ce6dbca06c", "is_reserved": 0, "lon": -76.99791016666667, "is_disabled": 0, "fusion_lat": 0.0, "lat": 38.8763185, "bike_id": "d2e68f6422e06f940523d1ce6dbca06c", "fusion_lon": 0.0}, {"rental_uris": {"ios": "https://dc.lft.to/lastmile_qr_scan", "android": "https://dc.lft.to/lastmile_qr_scan"}, "type": "electric_bike", "name": "2cc63f64cf70f5e06fd5583d5079b9eb", "is_reserved": 0, "lon": -76.95791583333333, "is_disabled": 0, "fusion_lat": 0.0, "lat": 38.98044, "bike_id": "2cc63f64cf70f5e06fd5583d5079b9eb", "fusion_lon": 0.0}, {"rental_uris": {"ios": "https://dc.lft.to/lastmile_qr_scan", "android": "https://dc.lft.to/lastmile_qr_scan"}, "type": "electric_scooter", "name": "e5e6223ee75d28c8b713785ae6c77cbe", "is_reserved": 0, "lon": -76.97570483333334, "is_disabled": 0, "fusion_lat": 0.0, "lat": 38.944189333333334, "bike_id": "e5e6223ee75d28c8b713785ae6c77cbe", "fusion_lon": 0.0}, {"rental_uris": {"ios": "https://dc.lft.to/lastmile_qr_scan", "android": "https://dc.lft.to/lastmile_qr_scan"}, "type": "electric_scooter", "name": "39481c4775a5960d219738c428e07a64", "is_reserved": 0, "lon": -77.07164133333333, "is_disabled": 0, "fusion_lat": 0.0, "lat": 38.907632, "bike_id": "39481c4775a5960d219738c428e07a64", "fusion_lon": 0.0}, {"rental_uris": {"ios": "https://dc.lft.to/lastmile_qr_scan", "android": "https://dc.lft.to/lastmile_qr_scan"}, "type": "electric_scooter", "name": "b7cd84db187c2247057e9566b9a67989", "is_reserved": 0, "lon": -77.04461383333333, "is_disabled": 0, "fusion_lat": 0.0, "lat": 38.916046333333334, "bike_id": "b7cd84db187c2247057e9566b9a67989", "fusion_lon": 0.0}, {"rental_uris": {"ios": "https://dc.lft.to/lastmile_qr_scan", "android": "https://dc.lft.to/lastmile_qr_scan"}, "type": "electric_bike", "name": "ea0366bd685b36e7e33bfc3132822076", "is_reserved": 0, "lon": -76.972848, "is_disabled": 0, "fusion_lat": 0.0, "lat": 38.865083166666665, "bike_id": "ea0366bd685b36e7e33bfc3132822076", "fusion_lon": 0.0}, {"rental_uris": {"ios": "https://dc.lft.to/lastmile_qr_scan", "android": "https://dc.lft.to/lastmile_qr_scan"}, "type": "electric_scooter", "name": "87a3f8efe006e995d81d7a7fd19767a6", "is_reserved": 0, "lon": -77.02300166666667, "is_disabled": 0, "fusion_lat": 0.0, "lat": 38.8986065, "bike_id": "87a3f8efe006e995d81d7a7fd19767a6", "fusion_lon": 0.0}, {"rental_uris": {"ios": "https://dc.lft.to/lastmile_qr_scan", "android": "https://dc.lft.to/lastmile_qr_scan"}, "type": "electric_scooter", "name": "16173010e13b2c09f4f479176b1b009e", "is_reserved": 0, "lon": -77.03186383333333, "is_disabled": 0, "fusion_lat": 0.0, "lat": 38.929203333333334, "bike_id": "16173010e13b2c09f4f479176b1b009e", "fusion_lon": 0.0}, {"rental_uris": {"ios": "https://dc.lft.to/lastmile_qr_scan", "android": "https://dc.lft.to/lastmile_qr_scan"}, "type": "electric_scooter", "name": "be90fee9c8591b2569ec556b147007b1", "is_reserved": 0, "lon": -77.03152116666666, "is_disabled": 0, "fusion_lat": 0.0, "lat": 38.905887166666666, "bike_id": "be90fee9c8591b2569ec556b147007b1", "fusion_lon": 0.0}, {"rental_uris": {"ios": "https://dc.lft.to/lastmile_qr_scan", "android": "https://dc.lft.to/lastmile_qr_scan"}, "type": "electric_scooter", "name": "c7b2e9212f8f2509f2aaacddf759cc0d", "is_reserved": 0, "lon": -77.04526633333333, "is_disabled": 0, "fusion_lat": 0.0, "lat": 38.91123133333333, "bike_id": "c7b2e9212f8f2509f2aaacddf759cc0d", "fusion_lon": 0.0}, {"rental_uris": {"ios": "https://dc.lft.to/lastmile_qr_scan", "android": "https://dc.lft.to/lastmile_qr_scan"}, "type": "electric_scooter", "name": "af24708696456371ce96b583dccc59e7", "is_reserved": 0, "lon": -77.00216166666667, "is_disabled": 0, "fusion_lat": 0.0, "lat": 38.894537166666666, "bike_id": "af24708696456371ce96b583dccc59e7", "fusion_lon": 0.0}, {"rental_uris": {"ios": "https://dc.lft.to/lastmile_qr_scan", "android": "https://dc.lft.to/lastmile_qr_scan"}, "type": "electric_bike", "name": "509f4bbdd2066b318f0ddac29c155497", "is_reserved": 0, "lon": -77.10075433333333, "is_disabled": 0, "fusion_lat": 0.0, "lat": 38.85736383333333, "bike_id": "509f4bbdd2066b318f0ddac29c155497", "fusion_lon": 0.0}, {"rental_uris": {"ios": "https://dc.lft.to/lastmile_qr_scan", "android": "https://dc.lft.to/lastmile_qr_scan"}, "type": "electric_scooter", "name": "0f1cf449c4af074f780129c4b4a845cf", "is_reserved": 0, "lon": -77.0321245, "is_disabled": 0, "fusion_lat": 0.0, "lat": 38.89461883333333, "bike_id": "0f1cf449c4af074f780129c4b4a845cf", "fusion_lon": 0.0}, {"rental_uris": {"ios": "https://dc.lft.to/lastmile_qr_scan", "android": "https://dc.lft.to/lastmile_qr_scan"}, "type": "electric_scooter", "name": "ad9b846f19b15f52601ad91220a8fc4a", "is_reserved": 0, "lon": -76.985323, "is_disabled": 0, "fusion_lat": 0.0, "lat": 38.85848283333333, "bike_id": "ad9b846f19b15f52601ad91220a8fc4a", "fusion_lon": 0.0}, {"rental_uris": {"ios": "https://dc.lft.to/lastmile_qr_scan", "android": "https://dc.lft.to/lastmile_qr_scan"}, "type": "electric_scooter", "name": "33149197882984c8cd05bb354dfa1481", "is_reserved": 0, "lon": -77.03376683333333, "is_disabled": 0, "fusion_lat": 0.0, "lat": 38.93862816666667, "bike_id": "33149197882984c8cd05bb354dfa1481", "fusion_lon": 0.0}, {"rental_uris": {"ios": "https://dc.lft.to/lastmile_qr_scan", "android": "https://dc.lft.to/lastmile_qr_scan"}, "type": "electric_scooter", "name": "8f6b8fd9c777ca15cfe5712cd16547bc", "is_reserved": 0, "lon": -77.0027145, "is_disabled": 0, "fusion_lat": 0.0, "lat": 38.8876925, "bike_id": "8f6b8fd9c777ca15cfe5712cd16547bc", "fusion_lon": 0.0}, {"rental_uris": {"ios": "https://dc.lft.to/lastmile_qr_scan", "android": "https://dc.lft.to/lastmile_qr_scan"}, "type": "electric_scooter", "name": "b3b83970eeb7ecd40f668b96932290e9", "is_reserved": 0, "lon": -77.04957916666666, "is_disabled": 0, "fusion_lat": 0.0, "lat": 38.91599033333333, "bike_id": "b3b83970eeb7ecd40f668b96932290e9", "fusion_lon": 0.0}, {"rental_uris": {"ios": "https://dc.lft.to/lastmile_qr_scan", "android": "https://dc.lft.to/lastmile_qr_scan"}, "type": "electric_bike", "name": "20654d4ea0e2f37626cb10b85ff42fb5", "is_reserved": 0, "lon": -77.04286616666667, "is_disabled": 0, "fusion_lat": 0.0, "lat": 38.90914866666667, "bike_id": "20654d4ea0e2f37626cb10b85ff42fb5", "fusion_lon": 0.0}, {"rental_uris": {"ios": "https://dc.lft.to/lastmile_qr_scan", "android": "https://dc.lft.to/lastmile_qr_scan"}, "type": "electric_scooter", "name": "d47f2749619a067b259f34973bbb8995", "is_reserved": 0, "lon": -77.04021533333334, "is_disabled": 0, "fusion_lat": 0.0, "lat": 38.92250766666667, "bike_id": "d47f2749619a067b259f34973bbb8995", "fusion_lon": 0.0}, {"rental_uris": {"ios": "https://dc.lft.to/lastmile_qr_scan", "android": "https://dc.lft.to/lastmile_qr_scan"}, "type": "electric_scooter", "name": "2dbc1c9754a47a53a82bb4bcd8d7d7cb", "is_reserved": 0, "lon": -77.00955933333333, "is_disabled": 0, "fusion_lat": 0.0, "lat": 38.87459316666666, "bike_id": "2dbc1c9754a47a53a82bb4bcd8d7d7cb", "fusion_lon": 0.0}, {"rental_uris": {"ios": "https://dc.lft.to/lastmile_qr_scan", "android": "https://dc.lft.to/lastmile_qr_scan"}, "type": "electric_scooter", "name": "5852c6d8e8f48b072fe2e635a4d04cd4", "is_reserved": 0, "lon": -77.02975466666666, "is_disabled": 0, "fusion_lat": 0.0, "lat": 38.92362766666667, "bike_id": "5852c6d8e8f48b072fe2e635a4d04cd4", "fusion_lon": 0.0}, {"rental_uris": {"ios": "https://dc.lft.to/lastmile_qr_scan", "android": "https://dc.lft.to/lastmile_qr_scan"}, "type": "electric_scooter", "name": "b980ddb31cfe2e6b073d664e1e00a5c5", "is_reserved": 0, "lon": -77.0785995, "is_disabled": 0, "fusion_lat": 0.0, "lat": 38.931502333333334, "bike_id": "b980ddb31cfe2e6b073d664e1e00a5c5", "fusion_lon": 0.0}, {"rental_uris": {"ios": "https://dc.lft.to/lastmile_qr_scan", "android": "https://dc.lft.to/lastmile_qr_scan"}, "type": "electric_scooter", "name": "d4463b838d02fe9d3d1c87349ff5a285", "is_reserved": 0, "lon": -77.00507833333333, "is_disabled": 0, "fusion_lat": 0.0, "lat": 38.878403, "bike_id": "d4463b838d02fe9d3d1c87349ff5a285", "fusion_lon": 0.0}, {"rental_uris": {"ios": "https://dc.lft.to/lastmile_qr_scan", "android": "https://dc.lft.to/lastmile_qr_scan"}, "type": "electric_scooter", "name": "8f88327e4cfa0c632e2e3022b553ea52", "is_reserved": 0, "lon": -77.030932, "is_disabled": 0, "fusion_lat": 0.0, "lat": 38.91035333333333, "bike_id": "8f88327e4cfa0c632e2e3022b553ea52", "fusion_lon": 0.0}, {"rental_uris": {"ios": "https://dc.lft.to/lastmile_qr_scan", "android": "https://dc.lft.to/lastmile_qr_scan"}, "type": "electric_bike", "name": "cef035e094ed73cf6d6b19620258e53c", "is_reserved": 0, "lon": -76.9333315, "is_disabled": 0, "fusion_lat": 0.0, "lat": 38.951521666666665, "bike_id": "cef035e094ed73cf6d6b19620258e53c", "fusion_lon": 0.0}, {"rental_uris": {"ios": "https://dc.lft.to/lastmile_qr_scan", "android": "https://dc.lft.to/lastmile_qr_scan"}, "type": "electric_bike", "name": "f90292cfc2faa65c4fd112a967d89148", "is_reserved": 0, "lon": -77.09621383333334, "is_disabled": 0, "fusion_lat": 0.0, "lat": 38.9744335, "bike_id": "f90292cfc2faa65c4fd112a967d89148", "fusion_lon": 0.0}, {"rental_uris": {"ios": "https://dc.lft.to/lastmile_qr_scan", "android": "https://dc.lft.to/lastmile_qr_scan"}, "type": "electric_scooter", "name": "a01a51b5af0fea74c88235184a380cc0", "is_reserved": 0, "lon": -77.02417416666667, "is_disabled": 0, "fusion_lat": 0.0, "lat": 38.9097205, "bike_id": "a01a51b5af0fea74c88235184a380cc0", "fusion_lon": 0.0}, {"rental_uris": {"ios": "https://dc.lft.to/lastmile_qr_scan", "android": "https://dc.lft.to/lastmile_qr_scan"}, "type": "electric_scooter", "name": "6c875ca03ba5441f9e3e506520112e32", "is_reserved": 0, "lon": -77.00069833333333, "is_disabled": 0, "fusion_lat": 0.0, "lat": 38.874376, "bike_id": "6c875ca03ba5441f9e3e506520112e32", "fusion_lon": 0.0}, {"rental_uris": {"ios": "https://dc.lft.to/lastmile_qr_scan", "android": "https://dc.lft.to/lastmile_qr_scan"}, "type": "electric_scooter", "name": "59682380c4b4995f42a096859f608f26", "is_reserved": 0, "lon": -77.0241015, "is_disabled": 0, "fusion_lat": 0.0, "lat": 38.92060633333333, "bike_id": "59682380c4b4995f42a096859f608f26", "fusion_lon": 0.0}, {"rental_uris": {"ios": "https://dc.lft.to/lastmile_qr_scan", "android": "https://dc.lft.to/lastmile_qr_scan"}, "type": "electric_scooter", "name": "6e7842c4335332d10f242c3b204a824b", "is_reserved": 0, "lon": -76.99848733333333, "is_disabled": 0, "fusion_lat": 0.0, "lat": 38.90021566666667, "bike_id": "6e7842c4335332d10f242c3b204a824b", "fusion_lon": 0.0}, {"rental_uris": {"ios": "https://dc.lft.to/lastmile_qr_scan", "android": "https://dc.lft.to/lastmile_qr_scan"}, "type": "electric_scooter", "name": "b89ca6d7c55c278b944098a1adc68c3f", "is_reserved": 0, "lon": -76.99871466666667, "is_disabled": 0, "fusion_lat": 0.0, "lat": 38.900272, "bike_id": "b89ca6d7c55c278b944098a1adc68c3f", "fusion_lon": 0.0}, {"rental_uris": {"ios": "https://dc.lft.to/lastmile_qr_scan", "android": "https://dc.lft.to/lastmile_qr_scan"}, "type": "electric_scooter", "name": "8bf5c48aaaa891364814b0918e82c803", "is_reserved": 0, "lon": -76.9937725, "is_disabled": 0, "fusion_lat": 0.0, "lat": 38.89339, "bike_id": "8bf5c48aaaa891364814b0918e82c803", "fusion_lon": 0.0}, {"rental_uris": {"ios": "https://dc.lft.to/lastmile_qr_scan", "android": "https://dc.lft.to/lastmile_qr_scan"}, "type": "electric_bike", "name": "e42c4245af9b266bd6e23e67fe044350", "is_reserved": 0, "lon": -77.04755416666667, "is_disabled": 0, "fusion_lat": 0.0, "lat": 38.8218595, "bike_id": "e42c4245af9b266bd6e23e67fe044350", "fusion_lon": 0.0}, {"rental_uris": {"ios": "https://dc.lft.to/lastmile_qr_scan", "android": "https://dc.lft.to/lastmile_qr_scan"}, "type": "electric_scooter", "name": "75be27cf7d716b0d4c67d5316885e3a7", "is_reserved": 0, "lon": -77.06475283333333, "is_disabled": 0, "fusion_lat": 0.0, "lat": 38.92701733333333, "bike_id": "75be27cf7d716b0d4c67d5316885e3a7", "fusion_lon": 0.0}, {"rental_uris": {"ios": "https://dc.lft.to/lastmile_qr_scan", "android": "https://dc.lft.to/lastmile_qr_scan"}, "type": "electric_scooter", "name": "c9479e8f717d2c5c72ee48a12d1a5c4b", "is_reserved": 0, "lon": -77.02141033333334, "is_disabled": 0, "fusion_lat": 0.0, "lat": 38.9250305, "bike_id": "c9479e8f717d2c5c72ee48a12d1a5c4b", "fusion_lon": 0.0}, {"rental_uris": {"ios": "https://dc.lft.to/lastmile_qr_scan", "android": "https://dc.lft.to/lastmile_qr_scan"}, "type": "electric_scooter", "name": "a1383c7eb3369ef14b9961c6c3558b4f", "is_reserved": 0, "lon": -76.984512, "is_disabled": 0, "fusion_lat": 0.0, "lat": 38.900215, "bike_id": "a1383c7eb3369ef14b9961c6c3558b4f", "fusion_lon": 0.0}, {"rental_uris": {"ios": "https://dc.lft.to/lastmile_qr_scan", "android": "https://dc.lft.to/lastmile_qr_scan"}, "type": "electric_scooter", "name": "7d29879142d4428f5b02adcda90b63e3", "is_reserved": 0, "lon": -77.045254, "is_disabled": 0, "fusion_lat": 0.0, "lat": 38.911207833333336, "bike_id": "7d29879142d4428f5b02adcda90b63e3", "fusion_lon": 0.0}, {"rental_uris": {"ios": "https://dc.lft.to/lastmile_qr_scan", "android": "https://dc.lft.to/lastmile_qr_scan"}, "type": "electric_scooter", "name": "c3fa1fb655a039b4b33500926760d423", "is_reserved": 0, "lon": -77.01968516666666, "is_disabled": 0, "fusion_lat": 0.0, "lat": 38.92252666666667, "bike_id": "c3fa1fb655a039b4b33500926760d423", "fusion_lon": 0.0}, {"rental_uris": {"ios": "https://dc.lft.to/lastmile_qr_scan", "android": "https://dc.lft.to/lastmile_qr_scan"}, "type": "electric_scooter", "name": "b007ef4c3b3ad270130aac52f007cc5d", "is_reserved": 0, "lon": -76.99155266666666, "is_disabled": 0, "fusion_lat": 0.0, "lat": 38.88812433333333, "bike_id": "b007ef4c3b3ad270130aac52f007cc5d", "fusion_lon": 0.0}, {"rental_uris": {"ios": "https://dc.lft.to/lastmile_qr_scan", "android": "https://dc.lft.to/lastmile_qr_scan"}, "type": "electric_scooter", "name": "4f89f27ccdf8640389c46af7f06592c0", "is_reserved": 0, "lon": -77.04229066666667, "is_disabled": 0, "fusion_lat": 0.0, "lat": 38.911083166666664, "bike_id": "4f89f27ccdf8640389c46af7f06592c0", "fusion_lon": 0.0}, {"rental_uris": {"ios": "https://dc.lft.to/lastmile_qr_scan", "android": "https://dc.lft.to/lastmile_qr_scan"}, "type": "electric_scooter", "name": "b84830e9fdf7e386b470fffbeafbc90b", "is_reserved": 0, "lon": -77.0047725, "is_disabled": 0, "fusion_lat": 0.0, "lat": 38.8850715, "bike_id": "b84830e9fdf7e386b470fffbeafbc90b", "fusion_lon": 0.0}, {"rental_uris": {"ios": "https://dc.lft.to/lastmile_qr_scan", "android": "https://dc.lft.to/lastmile_qr_scan"}, "type": "electric_scooter", "name": "4f80573f9bcbcfc73916b2cc371b91a3", "is_reserved": 0, "lon": -76.99502233333334, "is_disabled": 0, "fusion_lat": 0.0, "lat": 38.9098085, "bike_id": "4f80573f9bcbcfc73916b2cc371b91a3", "fusion_lon": 0.0}, {"rental_uris": {"ios": "https://dc.lft.to/lastmile_qr_scan", "android": "https://dc.lft.to/lastmile_qr_scan"}, "type": "electric_scooter", "name": "2ede5fe2e9c42f8e6b2409760313afd0", "is_reserved": 0, "lon": -76.93392533333333, "is_disabled": 0, "fusion_lat": 0.0, "lat": 38.899118, "bike_id": "2ede5fe2e9c42f8e6b2409760313afd0", "fusion_lon": 0.0}, {"rental_uris": {"ios": "https://dc.lft.to/lastmile_qr_scan", "android": "https://dc.lft.to/lastmile_qr_scan"}, "type": "electric_scooter", "name": "506e665adec590c3eac1af5c4ec10fdd", "is_reserved": 0, "lon": -76.94060816666666, "is_disabled": 0, "fusion_lat": 0.0, "lat": 38.885827666666664, "bike_id": "506e665adec590c3eac1af5c4ec10fdd", "fusion_lon": 0.0}, {"rental_uris": {"ios": "https://dc.lft.to/lastmile_qr_scan", "android": "https://dc.lft.to/lastmile_qr_scan"}, "type": "electric_scooter", "name": "0835957fdd066303301f76f73bc5c979", "is_reserved": 0, "lon": -77.03804716666667, "is_disabled": 0, "fusion_lat": 0.0, "lat": 38.91410233333333, "bike_id": "0835957fdd066303301f76f73bc5c979", "fusion_lon": 0.0}, {"rental_uris": {"ios": "https://dc.lft.to/lastmile_qr_scan", "android": "https://dc.lft.to/lastmile_qr_scan"}, "type": "electric_scooter", "name": "6a0666b21b1816f11dbb90b534d851cf", "is_reserved": 0, "lon": -77.02302383333334, "is_disabled": 0, "fusion_lat": 0.0, "lat": 38.94934416666667, "bike_id": "6a0666b21b1816f11dbb90b534d851cf", "fusion_lon": 0.0}, {"rental_uris": {"ios": "https://dc.lft.to/lastmile_qr_scan", "android": "https://dc.lft.to/lastmile_qr_scan"}, "type": "electric_scooter", "name": "f0a81372856127096af7ec930ab47ef5", "is_reserved": 0, "lon": -77.02293266666666, "is_disabled": 0, "fusion_lat": 0.0, "lat": 38.897086, "bike_id": "f0a81372856127096af7ec930ab47ef5", "fusion_lon": 0.0}, {"rental_uris": {"ios": "https://dc.lft.to/lastmile_qr_scan", "android": "https://dc.lft.to/lastmile_qr_scan"}, "type": "electric_scooter", "name": "f1340ef484aa2ffc498506a787eaf9bd", "is_reserved": 0, "lon": -77.03907316666667, "is_disabled": 0, "fusion_lat": 0.0, "lat": 38.898413166666664, "bike_id": "f1340ef484aa2ffc498506a787eaf9bd", "fusion_lon": 0.0}, {"rental_uris": {"ios": "https://dc.lft.to/lastmile_qr_scan", "android": "https://dc.lft.to/lastmile_qr_scan"}, "type": "electric_scooter", "name": "6ae3d4d6f59aaa259a1a7932370adb0c", "is_reserved": 0, "lon": -77.07255583333334, "is_disabled": 0, "fusion_lat": 0.0, "lat": 38.934352833333335, "bike_id": "6ae3d4d6f59aaa259a1a7932370adb0c", "fusion_lon": 0.0}, {"rental_uris": {"ios": "https://dc.lft.to/lastmile_qr_scan", "android": "https://dc.lft.to/lastmile_qr_scan"}, "type": "electric_scooter", "name": "4813ff3eab13c9c69bdaebb98468e4e2", "is_reserved": 0, "lon": -77.02321716666667, "is_disabled": 0, "fusion_lat": 0.0, "lat": 38.938053333333336, "bike_id": "4813ff3eab13c9c69bdaebb98468e4e2", "fusion_lon": 0.0}, {"rental_uris": {"ios": "https://dc.lft.to/lastmile_qr_scan", "android": "https://dc.lft.to/lastmile_qr_scan"}, "type": "electric_scooter", "name": "0537b4a68c790cb0f5a11a051f9b777e", "is_reserved": 0, "lon": -77.04158833333334, "is_disabled": 0, "fusion_lat": 0.0, "lat": 38.91445816666667, "bike_id": "0537b4a68c790cb0f5a11a051f9b777e", "fusion_lon": 0.0}, {"rental_uris": {"ios": "https://dc.lft.to/lastmile_qr_scan", "android": "https://dc.lft.to/lastmile_qr_scan"}, "type": "electric_scooter", "name": "0f7be56082ae74bb6ab2121b13fa67e2", "is_reserved": 0, "lon": -77.04118933333334, "is_disabled": 0, "fusion_lat": 0.0, "lat": 38.906020833333336, "bike_id": "0f7be56082ae74bb6ab2121b13fa67e2", "fusion_lon": 0.0}, {"rental_uris": {"ios": "https://dc.lft.to/lastmile_qr_scan", "android": "https://dc.lft.to/lastmile_qr_scan"}, "type": "electric_scooter", "name": "90621abd8b062ca9ddbf18debbed99e2", "is_reserved": 0, "lon": -77.03443383333334, "is_disabled": 0, "fusion_lat": 0.0, "lat": 38.90827866666667, "bike_id": "90621abd8b062ca9ddbf18debbed99e2", "fusion_lon": 0.0}, {"rental_uris": {"ios": "https://dc.lft.to/lastmile_qr_scan", "android": "https://dc.lft.to/lastmile_qr_scan"}, "type": "electric_scooter", "name": "1bb4726f8c90f8944703baf7ab378b2f", "is_reserved": 0, "lon": -77.039935, "is_disabled": 0, "fusion_lat": 0.0, "lat": 38.89221666666667, "bike_id": "1bb4726f8c90f8944703baf7ab378b2f", "fusion_lon": 0.0}, {"rental_uris": {"ios": "https://dc.lft.to/lastmile_qr_scan", "android": "https://dc.lft.to/lastmile_qr_scan"}, "type": "electric_scooter", "name": "ee6a36edaafd7a824edadfa0cad9a4c2", "is_reserved": 0, "lon": -77.0422675, "is_disabled": 0, "fusion_lat": 0.0, "lat": 38.92166316666667, "bike_id": "ee6a36edaafd7a824edadfa0cad9a4c2", "fusion_lon": 0.0}, {"rental_uris": {"ios": "https://dc.lft.to/lastmile_qr_scan", "android": "https://dc.lft.to/lastmile_qr_scan"}, "type": "electric_scooter", "name": "45136011d2f07f2f64156dbbaae525b7", "is_reserved": 0, "lon": -77.04762166666667, "is_disabled": 0, "fusion_lat": 0.0, "lat": 38.91241633333333, "bike_id": "45136011d2f07f2f64156dbbaae525b7", "fusion_lon": 0.0}, {"rental_uris": {"ios": "https://dc.lft.to/lastmile_qr_scan", "android": "https://dc.lft.to/lastmile_qr_scan"}, "type": "electric_scooter", "name": "8fc7b434b9a82b61f73e3208b0f0024b", "is_reserved": 0, "lon": -77.020083, "is_disabled": 0, "fusion_lat": 0.0, "lat": 38.928075666666665, "bike_id": "8fc7b434b9a82b61f73e3208b0f0024b", "fusion_lon": 0.0}, {"rental_uris": {"ios": "https://dc.lft.to/lastmile_qr_scan", "android": "https://dc.lft.to/lastmile_qr_scan"}, "type": "electric_bike", "name": "fddc2b3a12f4b21ffebb9825b7e08cc1", "is_reserved": 0, "lon": -77.1028715, "is_disabled": 0, "fusion_lat": 0.0, "lat": 38.852519, "bike_id": "fddc2b3a12f4b21ffebb9825b7e08cc1", "fusion_lon": 0.0}, {"rental_uris": {"ios": "https://dc.lft.to/lastmile_qr_scan", "android": "https://dc.lft.to/lastmile_qr_scan"}, "type": "electric_scooter", "name": "5d8e20f489fd540387cf03908c439d37", "is_reserved": 0, "lon": -77.02646766666666, "is_disabled": 0, "fusion_lat": 0.0, "lat": 38.930979666666666, "bike_id": "5d8e20f489fd540387cf03908c439d37", "fusion_lon": 0.0}, {"rental_uris": {"ios": "https://dc.lft.to/lastmile_qr_scan", "android": "https://dc.lft.to/lastmile_qr_scan"}, "type": "electric_scooter", "name": "9b405e60b6be97c912039b106b7ead0a", "is_reserved": 0, "lon": -77.03203233333333, "is_disabled": 0, "fusion_lat": 0.0, "lat": 38.921892166666666, "bike_id": "9b405e60b6be97c912039b106b7ead0a", "fusion_lon": 0.0}, {"rental_uris": {"ios": "https://dc.lft.to/lastmile_qr_scan", "android": "https://dc.lft.to/lastmile_qr_scan"}, "type": "electric_scooter", "name": "453744ae865877596c66393f17e5f21a", "is_reserved": 0, "lon": -76.99599433333333, "is_disabled": 0, "fusion_lat": 0.0, "lat": 38.890881666666665, "bike_id": "453744ae865877596c66393f17e5f21a", "fusion_lon": 0.0}, {"rental_uris": {"ios": "https://dc.lft.to/lastmile_qr_scan", "android": "https://dc.lft.to/lastmile_qr_scan"}, "type": "electric_bike", "name": "0ac5bf190f6668662b43a23cc239cdbc", "is_reserved": 0, "lon": -76.97953816666667, "is_disabled": 0, "fusion_lat": 0.0, "lat": 38.920388333333335, "bike_id": "0ac5bf190f6668662b43a23cc239cdbc", "fusion_lon": 0.0}, {"rental_uris": {"ios": "https://dc.lft.to/lastmile_qr_scan", "android": "https://dc.lft.to/lastmile_qr_scan"}, "type": "electric_scooter", "name": "ec8770e627e8386c2b39cfc6d75a19b4", "is_reserved": 0, "lon": -77.02564566666666, "is_disabled": 0, "fusion_lat": 0.0, "lat": 38.9484975, "bike_id": "ec8770e627e8386c2b39cfc6d75a19b4", "fusion_lon": 0.0}, {"rental_uris": {"ios": "https://dc.lft.to/lastmile_qr_scan", "android": "https://dc.lft.to/lastmile_qr_scan"}, "type": "electric_scooter", "name": "6bf2853141397c22d6802b52405cab9d", "is_reserved": 0, "lon": -77.03419416666667, "is_disabled": 0, "fusion_lat": 0.0, "lat": 38.90144633333333, "bike_id": "6bf2853141397c22d6802b52405cab9d", "fusion_lon": 0.0}, {"rental_uris": {"ios": "https://dc.lft.to/lastmile_qr_scan", "android": "https://dc.lft.to/lastmile_qr_scan"}, "type": "electric_scooter", "name": "eac8d0fa7ef01fa622f0df6bc7f45134", "is_reserved": 0, "lon": -77.01494216666667, "is_disabled": 0, "fusion_lat": 0.0, "lat": 38.90650016666667, "bike_id": "eac8d0fa7ef01fa622f0df6bc7f45134", "fusion_lon": 0.0}, {"rental_uris": {"ios": "https://dc.lft.to/lastmile_qr_scan", "android": "https://dc.lft.to/lastmile_qr_scan"}, "type": "electric_scooter", "name": "db05e8fbd53bb28498f4b99154c9d5d5", "is_reserved": 0, "lon": -77.06381383333333, "is_disabled": 0, "fusion_lat": 0.0, "lat": 38.905233, "bike_id": "db05e8fbd53bb28498f4b99154c9d5d5", "fusion_lon": 0.0}, {"rental_uris": {"ios": "https://dc.lft.to/lastmile_qr_scan", "android": "https://dc.lft.to/lastmile_qr_scan"}, "type": "electric_scooter", "name": "39386ff12ff1058d9392a9419729e335", "is_reserved": 0, "lon": -76.923022, "is_disabled": 0, "fusion_lat": 0.0, "lat": 38.893856666666665, "bike_id": "39386ff12ff1058d9392a9419729e335", "fusion_lon": 0.0}, {"rental_uris": {"ios": "https://dc.lft.to/lastmile_qr_scan", "android": "https://dc.lft.to/lastmile_qr_scan"}, "type": "electric_scooter", "name": "f068d98345698e5b9b0efe2ca7d5bf4e", "is_reserved": 0, "lon": -77.00555966666667, "is_disabled": 0, "fusion_lat": 0.0, "lat": 38.8766025, "bike_id": "f068d98345698e5b9b0efe2ca7d5bf4e", "fusion_lon": 0.0}, {"rental_uris": {"ios": "https://dc.lft.to/lastmile_qr_scan", "android": "https://dc.lft.to/lastmile_qr_scan"}, "type": "electric_scooter", "name": "d3c63b0cf3a49c21538d3ba92f44798a", "is_reserved": 0, "lon": -77.02334016666667, "is_disabled": 0, "fusion_lat": 0.0, "lat": 38.93290266666666, "bike_id": "d3c63b0cf3a49c21538d3ba92f44798a", "fusion_lon": 0.0}, {"rental_uris": {"ios": "https://dc.lft.to/lastmile_qr_scan", "android": "https://dc.lft.to/lastmile_qr_scan"}, "type": "electric_scooter", "name": "3e8335e2bb15733b3d92c305988d36d2", "is_reserved": 0, "lon": -77.02296566666666, "is_disabled": 0, "fusion_lat": 0.0, "lat": 38.916731166666665, "bike_id": "3e8335e2bb15733b3d92c305988d36d2", "fusion_lon": 0.0}, {"rental_uris": {"ios": "https://dc.lft.to/lastmile_qr_scan", "android": "https://dc.lft.to/lastmile_qr_scan"}, "type": "electric_bike", "name": "f90d8c0cdf2052f7e9410f5628c87e53", "is_reserved": 0, "lon": -77.02507783333333, "is_disabled": 0, "fusion_lat": 0.0, "lat": 38.934098166666665, "bike_id": "f90d8c0cdf2052f7e9410f5628c87e53", "fusion_lon": 0.0}, {"rental_uris": {"ios": "https://dc.lft.to/lastmile_qr_scan", "android": "https://dc.lft.to/lastmile_qr_scan"}, "type": "electric_scooter", "name": "f8078e91402b1947e16d478409183c40", "is_reserved": 0, "lon": -77.0163485, "is_disabled": 0, "fusion_lat": 0.0, "lat": 38.903705, "bike_id": "f8078e91402b1947e16d478409183c40", "fusion_lon": 0.0}, {"rental_uris": {"ios": "https://dc.lft.to/lastmile_qr_scan", "android": "https://dc.lft.to/lastmile_qr_scan"}, "type": "electric_scooter", "name": "f16278270a9f3e99d839fa3e54871a20", "is_reserved": 0, "lon": -77.02228966666667, "is_disabled": 0, "fusion_lat": 0.0, "lat": 38.89221533333333, "bike_id": "f16278270a9f3e99d839fa3e54871a20", "fusion_lon": 0.0}, {"rental_uris": {"ios": "https://dc.lft.to/lastmile_qr_scan", "android": "https://dc.lft.to/lastmile_qr_scan"}, "type": "electric_bike", "name": "1e2b787821ff0add0fb47ebbcc46c7fd", "is_reserved": 0, "lon": -77.2317605, "is_disabled": 0, "fusion_lat": 0.0, "lat": 38.928946, "bike_id": "1e2b787821ff0add0fb47ebbcc46c7fd", "fusion_lon": 0.0}, {"rental_uris": {"ios": "https://dc.lft.to/lastmile_qr_scan", "android": "https://dc.lft.to/lastmile_qr_scan"}, "type": "electric_scooter", "name": "0612f15546903d12596766abbbfcca65", "is_reserved": 0, "lon": -77.02590133333334, "is_disabled": 0, "fusion_lat": 0.0, "lat": 38.906889, "bike_id": "0612f15546903d12596766abbbfcca65", "fusion_lon": 0.0}, {"rental_uris": {"ios": "https://dc.lft.to/lastmile_qr_scan", "android": "https://dc.lft.to/lastmile_qr_scan"}, "type": "electric_scooter", "name": "0a61731b2d6dbc6aa9a5be7c793a3960", "is_reserved": 0, "lon": -76.94635316666667, "is_disabled": 0, "fusion_lat": 0.0, "lat": 38.89866216666667, "bike_id": "0a61731b2d6dbc6aa9a5be7c793a3960", "fusion_lon": 0.0}, {"rental_uris": {"ios": "https://dc.lft.to/lastmile_qr_scan", "android": "https://dc.lft.to/lastmile_qr_scan"}, "type": "electric_scooter", "name": "820759603e54962a301f268a2511a846", "is_reserved": 0, "lon": -77.04184666666667, "is_disabled": 0, "fusion_lat": 0.0, "lat": 38.91853016666666, "bike_id": "820759603e54962a301f268a2511a846", "fusion_lon": 0.0}, {"rental_uris": {"ios": "https://dc.lft.to/lastmile_qr_scan", "android": "https://dc.lft.to/lastmile_qr_scan"}, "type": "electric_scooter", "name": "1941aa411fa357743e13238d1d0690ef", "is_reserved": 0, "lon": -77.03206983333334, "is_disabled": 0, "fusion_lat": 0.0, "lat": 38.88476, "bike_id": "1941aa411fa357743e13238d1d0690ef", "fusion_lon": 0.0}, {"rental_uris": {"ios": "https://dc.lft.to/lastmile_qr_scan", "android": "https://dc.lft.to/lastmile_qr_scan"}, "type": "electric_scooter", "name": "84f656c6f592ac53eee7b9233305b4f7", "is_reserved": 0, "lon": -77.029719, "is_disabled": 0, "fusion_lat": 0.0, "lat": 38.9168115, "bike_id": "84f656c6f592ac53eee7b9233305b4f7", "fusion_lon": 0.0}, {"rental_uris": {"ios": "https://dc.lft.to/lastmile_qr_scan", "android": "https://dc.lft.to/lastmile_qr_scan"}, "type": "electric_scooter", "name": "ef4a5cc025f144dc99b48be7c5f035c5", "is_reserved": 0, "lon": -77.00826216666667, "is_disabled": 0, "fusion_lat": 0.0, "lat": 38.91369383333333, "bike_id": "ef4a5cc025f144dc99b48be7c5f035c5", "fusion_lon": 0.0}, {"rental_uris": {"ios": "https://dc.lft.to/lastmile_qr_scan", "android": "https://dc.lft.to/lastmile_qr_scan"}, "type": "electric_scooter", "name": "3bfedf9ee09be21642fed361558bcf29", "is_reserved": 0, "lon": -77.04090483333333, "is_disabled": 0, "fusion_lat": 0.0, "lat": 38.92706333333334, "bike_id": "3bfedf9ee09be21642fed361558bcf29", "fusion_lon": 0.0}, {"rental_uris": {"ios": "https://dc.lft.to/lastmile_qr_scan", "android": "https://dc.lft.to/lastmile_qr_scan"}, "type": "electric_scooter", "name": "e9154b3969052778f851bdcca9febfbb", "is_reserved": 0, "lon": -77.03262716666667, "is_disabled": 0, "fusion_lat": 0.0, "lat": 38.93377316666667, "bike_id": "e9154b3969052778f851bdcca9febfbb", "fusion_lon": 0.0}, {"rental_uris": {"ios": "https://dc.lft.to/lastmile_qr_scan", "android": "https://dc.lft.to/lastmile_qr_scan"}, "type": "electric_scooter", "name": "769ccbfb12578767e9a5aa8e8c87397d", "is_reserved": 0, "lon": -77.02617766666667, "is_disabled": 0, "fusion_lat": 0.0, "lat": 38.88083483333333, "bike_id": "769ccbfb12578767e9a5aa8e8c87397d", "fusion_lon": 0.0}, {"rental_uris": {"ios": "https://dc.lft.to/lastmile_qr_scan", "android": "https://dc.lft.to/lastmile_qr_scan"}, "type": "electric_scooter", "name": "fde118e5f92e98dd05c73c7dbe2b1229", "is_reserved": 0, "lon": -77.02601933333334, "is_disabled": 0, "fusion_lat": 0.0, "lat": 38.90364016666667, "bike_id": "fde118e5f92e98dd05c73c7dbe2b1229", "fusion_lon": 0.0}, {"rental_uris": {"ios": "https://dc.lft.to/lastmile_qr_scan", "android": "https://dc.lft.to/lastmile_qr_scan"}, "type": "electric_scooter", "name": "c0f95399e458c36c078b30fa493353b5", "is_reserved": 0, "lon": -76.99233083333333, "is_disabled": 0, "fusion_lat": 0.0, "lat": 38.887549, "bike_id": "c0f95399e458c36c078b30fa493353b5", "fusion_lon": 0.0}, {"rental_uris": {"ios": "https://dc.lft.to/lastmile_qr_scan", "android": "https://dc.lft.to/lastmile_qr_scan"}, "type": "electric_scooter", "name": "60fc327d5769ff31ca184c199f32e9ae", "is_reserved": 0, "lon": -77.03826033333333, "is_disabled": 0, "fusion_lat": 0.0, "lat": 38.931413666666664, "bike_id": "60fc327d5769ff31ca184c199f32e9ae", "fusion_lon": 0.0}, {"rental_uris": {"ios": "https://dc.lft.to/lastmile_qr_scan", "android": "https://dc.lft.to/lastmile_qr_scan"}, "type": "electric_scooter", "name": "570eb00029c21c245b5df9f4939287b5", "is_reserved": 0, "lon": -77.0344345, "is_disabled": 0, "fusion_lat": 0.0, "lat": 38.900925666666666, "bike_id": "570eb00029c21c245b5df9f4939287b5", "fusion_lon": 0.0}, {"rental_uris": {"ios": "https://dc.lft.to/lastmile_qr_scan", "android": "https://dc.lft.to/lastmile_qr_scan"}, "type": "electric_scooter", "name": "5de90531cff5b63efe15d3fbd3c0b134", "is_reserved": 0, "lon": -77.012249, "is_disabled": 0, "fusion_lat": 0.0, "lat": 38.867180166666664, "bike_id": "5de90531cff5b63efe15d3fbd3c0b134", "fusion_lon": 0.0}, {"rental_uris": {"ios": "https://dc.lft.to/lastmile_qr_scan", "android": "https://dc.lft.to/lastmile_qr_scan"}, "type": "electric_scooter", "name": "017999c52a5e8347a3215e1cbfde9bd0", "is_reserved": 0, "lon": -77.04878566666666, "is_disabled": 0, "fusion_lat": 0.0, "lat": 38.900826333333335, "bike_id": "017999c52a5e8347a3215e1cbfde9bd0", "fusion_lon": 0.0}, {"rental_uris": {"ios": "https://dc.lft.to/lastmile_qr_scan", "android": "https://dc.lft.to/lastmile_qr_scan"}, "type": "electric_scooter", "name": "4a70e7ceedd43fc2ec7863e9368cd875", "is_reserved": 0, "lon": -77.03833266666666, "is_disabled": 0, "fusion_lat": 0.0, "lat": 38.907251333333335, "bike_id": "4a70e7ceedd43fc2ec7863e9368cd875", "fusion_lon": 0.0}, {"rental_uris": {"ios": "https://dc.lft.to/lastmile_qr_scan", "android": "https://dc.lft.to/lastmile_qr_scan"}, "type": "electric_scooter", "name": "19498d438de513201801327d9fbff4fa", "is_reserved": 0, "lon": -77.04883366666667, "is_disabled": 0, "fusion_lat": 0.0, "lat": 38.916208, "bike_id": "19498d438de513201801327d9fbff4fa", "fusion_lon": 0.0}, {"rental_uris": {"ios": "https://dc.lft.to/lastmile_qr_scan", "android": "https://dc.lft.to/lastmile_qr_scan"}, "type": "electric_scooter", "name": "3c0aac5404d15366d53c11be1f60f96a", "is_reserved": 0, "lon": -76.999115, "is_disabled": 0, "fusion_lat": 0.0, "lat": 38.9245565, "bike_id": "3c0aac5404d15366d53c11be1f60f96a", "fusion_lon": 0.0}, {"rental_uris": {"ios": "https://dc.lft.to/lastmile_qr_scan", "android": "https://dc.lft.to/lastmile_qr_scan"}, "type": "electric_bike", "name": "6edfd5bb29dae07ea91726425d8875a8", "is_reserved": 0, "lon": -76.907329, "is_disabled": 0, "fusion_lat": 0.0, "lat": 38.896147666666664, "bike_id": "6edfd5bb29dae07ea91726425d8875a8", "fusion_lon": 0.0}, {"rental_uris": {"ios": "https://dc.lft.to/lastmile_qr_scan", "android": "https://dc.lft.to/lastmile_qr_scan"}, "type": "electric_scooter", "name": "113a272a1a0e71752f0fcf6b21d84822", "is_reserved": 0, "lon": -76.97940516666667, "is_disabled": 0, "fusion_lat": 0.0, "lat": 38.9066305, "bike_id": "113a272a1a0e71752f0fcf6b21d84822", "fusion_lon": 0.0}, {"rental_uris": {"ios": "https://dc.lft.to/lastmile_qr_scan", "android": "https://dc.lft.to/lastmile_qr_scan"}, "type": "electric_scooter", "name": "f1811b5c849154b56bd224abf46426a5", "is_reserved": 0, "lon": -77.00882216666666, "is_disabled": 0, "fusion_lat": 0.0, "lat": 38.8986815, "bike_id": "f1811b5c849154b56bd224abf46426a5", "fusion_lon": 0.0}, {"rental_uris": {"ios": "https://dc.lft.to/lastmile_qr_scan", "android": "https://dc.lft.to/lastmile_qr_scan"}, "type": "electric_scooter", "name": "16561a2cc553f9874c598fea076a67bd", "is_reserved": 0, "lon": -77.001895, "is_disabled": 0, "fusion_lat": 0.0, "lat": 38.905726, "bike_id": "16561a2cc553f9874c598fea076a67bd", "fusion_lon": 0.0}, {"rental_uris": {"ios": "https://dc.lft.to/lastmile_qr_scan", "android": "https://dc.lft.to/lastmile_qr_scan"}, "type": "electric_scooter", "name": "5ba4afcc0b89bdde9d90e2e53d61e02f", "is_reserved": 0, "lon": -77.03325183333334, "is_disabled": 0, "fusion_lat": 0.0, "lat": 38.91916333333333, "bike_id": "5ba4afcc0b89bdde9d90e2e53d61e02f", "fusion_lon": 0.0}, {"rental_uris": {"ios": "https://dc.lft.to/lastmile_qr_scan", "android": "https://dc.lft.to/lastmile_qr_scan"}, "type": "electric_bike", "name": "51779055a284c48c0130992a65f9cb4a", "is_reserved": 0, "lon": -76.9809015, "is_disabled": 0, "fusion_lat": 0.0, "lat": 38.95354283333333, "bike_id": "51779055a284c48c0130992a65f9cb4a", "fusion_lon": 0.0}, {"rental_uris": {"ios": "https://dc.lft.to/lastmile_qr_scan", "android": "https://dc.lft.to/lastmile_qr_scan"}, "type": "electric_scooter", "name": "2a8876de95894a5203b6f13904795727", "is_reserved": 0, "lon": -77.02814216666667, "is_disabled": 0, "fusion_lat": 0.0, "lat": 38.894656166666664, "bike_id": "2a8876de95894a5203b6f13904795727", "fusion_lon": 0.0}, {"rental_uris": {"ios": "https://dc.lft.to/lastmile_qr_scan", "android": "https://dc.lft.to/lastmile_qr_scan"}, "type": "electric_bike", "name": "19e67b27b92325f3da1738f02abacb0e", "is_reserved": 0, "lon": -77.044674, "is_disabled": 0, "fusion_lat": 0.0, "lat": 38.917060166666666, "bike_id": "19e67b27b92325f3da1738f02abacb0e", "fusion_lon": 0.0}, {"rental_uris": {"ios": "https://dc.lft.to/lastmile_qr_scan", "android": "https://dc.lft.to/lastmile_qr_scan"}, "type": "electric_bike", "name": "e249c8437a4f55a96d723b09536adddd", "is_reserved": 0, "lon": -76.99547433333333, "is_disabled": 0, "fusion_lat": 0.0, "lat": 38.8315955, "bike_id": "e249c8437a4f55a96d723b09536adddd", "fusion_lon": 0.0}, {"rental_uris": {"ios": "https://dc.lft.to/lastmile_qr_scan", "android": "https://dc.lft.to/lastmile_qr_scan"}, "type": "electric_scooter", "name": "46e1e882410beec79c134e5a99ce5862", "is_reserved": 0, "lon": -77.03291333333334, "is_disabled": 0, "fusion_lat": 0.0, "lat": 38.928643, "bike_id": "46e1e882410beec79c134e5a99ce5862", "fusion_lon": 0.0}, {"rental_uris": {"ios": "https://dc.lft.to/lastmile_qr_scan", "android": "https://dc.lft.to/lastmile_qr_scan"}, "type": "electric_scooter", "name": "d2ac20aea48c32c8a20c1e0e612664b1", "is_reserved": 0, "lon": -77.04654416666666, "is_disabled": 0, "fusion_lat": 0.0, "lat": 38.893359833333335, "bike_id": "d2ac20aea48c32c8a20c1e0e612664b1", "fusion_lon": 0.0}, {"rental_uris": {"ios": "https://dc.lft.to/lastmile_qr_scan", "android": "https://dc.lft.to/lastmile_qr_scan"}, "type": "electric_scooter", "name": "1160a4742676052825f75ea90188467a", "is_reserved": 0, "lon": -77.02154733333333, "is_disabled": 0, "fusion_lat": 0.0, "lat": 38.88745, "bike_id": "1160a4742676052825f75ea90188467a", "fusion_lon": 0.0}, {"rental_uris": {"ios": "https://dc.lft.to/lastmile_qr_scan", "android": "https://dc.lft.to/lastmile_qr_scan"}, "type": "electric_scooter", "name": "a1d7f462e6594c96427b10130d046cae", "is_reserved": 0, "lon": -77.04694233333333, "is_disabled": 0, "fusion_lat": 0.0, "lat": 38.8973645, "bike_id": "a1d7f462e6594c96427b10130d046cae", "fusion_lon": 0.0}, {"rental_uris": {"ios": "https://dc.lft.to/lastmile_qr_scan", "android": "https://dc.lft.to/lastmile_qr_scan"}, "type": "electric_scooter", "name": "5605d74617fbb20743c4c06e130787c0", "is_reserved": 0, "lon": -76.99635283333333, "is_disabled": 0, "fusion_lat": 0.0, "lat": 38.8876675, "bike_id": "5605d74617fbb20743c4c06e130787c0", "fusion_lon": 0.0}, {"rental_uris": {"ios": "https://dc.lft.to/lastmile_qr_scan", "android": "https://dc.lft.to/lastmile_qr_scan"}, "type": "electric_scooter", "name": "6a47b10d8fba038a3b9ab1dc90b326e5", "is_reserved": 0, "lon": -76.99618083333333, "is_disabled": 0, "fusion_lat": 0.0, "lat": 38.90003316666667, "bike_id": "6a47b10d8fba038a3b9ab1dc90b326e5", "fusion_lon": 0.0}, {"rental_uris": {"ios": "https://dc.lft.to/lastmile_qr_scan", "android": "https://dc.lft.to/lastmile_qr_scan"}, "type": "electric_scooter", "name": "07fa70809c1a8137eb5d1ce69bfdfbd0", "is_reserved": 0, "lon": -77.01884766666667, "is_disabled": 0, "fusion_lat": 0.0, "lat": 38.897516, "bike_id": "07fa70809c1a8137eb5d1ce69bfdfbd0", "fusion_lon": 0.0}, {"rental_uris": {"ios": "https://dc.lft.to/lastmile_qr_scan", "android": "https://dc.lft.to/lastmile_qr_scan"}, "type": "electric_scooter", "name": "799482e1b356e3b89d59a20cc5a20b8d", "is_reserved": 0, "lon": -77.0792225, "is_disabled": 0, "fusion_lat": 0.0, "lat": 38.945585333333334, "bike_id": "799482e1b356e3b89d59a20cc5a20b8d", "fusion_lon": 0.0}, {"rental_uris": {"ios": "https://dc.lft.to/lastmile_qr_scan", "android": "https://dc.lft.to/lastmile_qr_scan"}, "type": "electric_scooter", "name": "30f02573ebf0b9df110635a689a1c735", "is_reserved": 0, "lon": -77.03215816666666, "is_disabled": 0, "fusion_lat": 0.0, "lat": 38.938692, "bike_id": "30f02573ebf0b9df110635a689a1c735", "fusion_lon": 0.0}, {"rental_uris": {"ios": "https://dc.lft.to/lastmile_qr_scan", "android": "https://dc.lft.to/lastmile_qr_scan"}, "type": "electric_bike", "name": "7b4030ff3d9dfbe07bdf3dd4a1372cd0", "is_reserved": 0, "lon": -76.99622416666666, "is_disabled": 0, "fusion_lat": 0.0, "lat": 38.928500666666665, "bike_id": "7b4030ff3d9dfbe07bdf3dd4a1372cd0", "fusion_lon": 0.0}, {"rental_uris": {"ios": "https://dc.lft.to/lastmile_qr_scan", "android": "https://dc.lft.to/lastmile_qr_scan"}, "type": "electric_bike", "name": "9b62d6335e27d3076dcee45203138fde", "is_reserved": 0, "lon": -77.0407895, "is_disabled": 0, "fusion_lat": 0.0, "lat": 38.83064733333333, "bike_id": "9b62d6335e27d3076dcee45203138fde", "fusion_lon": 0.0}, {"rental_uris": {"ios": "https://dc.lft.to/lastmile_qr_scan", "android": "https://dc.lft.to/lastmile_qr_scan"}, "type": "electric_scooter", "name": "4328d029a32c9f21f07a2dce45abaa5c", "is_reserved": 0, "lon": -77.04637933333333, "is_disabled": 0, "fusion_lat": 0.0, "lat": 38.91797966666667, "bike_id": "4328d029a32c9f21f07a2dce45abaa5c", "fusion_lon": 0.0}, {"rental_uris": {"ios": "https://dc.lft.to/lastmile_qr_scan", "android": "https://dc.lft.to/lastmile_qr_scan"}, "type": "electric_scooter", "name": "87d5887b7c9ec06cd355765e7fbb001a", "is_reserved": 0, "lon": -77.00282466666667, "is_disabled": 0, "fusion_lat": 0.0, "lat": 38.846093, "bike_id": "87d5887b7c9ec06cd355765e7fbb001a", "fusion_lon": 0.0}, {"rental_uris": {"ios": "https://dc.lft.to/lastmile_qr_scan", "android": "https://dc.lft.to/lastmile_qr_scan"}, "type": "electric_scooter", "name": "8213ca217bd2a88b8254cca05e5c9fff", "is_reserved": 0, "lon": -77.02007633333334, "is_disabled": 0, "fusion_lat": 0.0, "lat": 38.9161925, "bike_id": "8213ca217bd2a88b8254cca05e5c9fff", "fusion_lon": 0.0}, {"rental_uris": {"ios": "https://dc.lft.to/lastmile_qr_scan", "android": "https://dc.lft.to/lastmile_qr_scan"}, "type": "electric_scooter", "name": "d72fa60e89546ea7b437e38065a7614e", "is_reserved": 0, "lon": -77.07119716666666, "is_disabled": 0, "fusion_lat": 0.0, "lat": 38.89538366666667, "bike_id": "d72fa60e89546ea7b437e38065a7614e", "fusion_lon": 0.0}, {"rental_uris": {"ios": "https://dc.lft.to/lastmile_qr_scan", "android": "https://dc.lft.to/lastmile_qr_scan"}, "type": "electric_scooter", "name": "7f22e084937a26f13bc0d2ed35af1889", "is_reserved": 0, "lon": -77.00347766666667, "is_disabled": 0, "fusion_lat": 0.0, "lat": 38.8772255, "bike_id": "7f22e084937a26f13bc0d2ed35af1889", "fusion_lon": 0.0}, {"rental_uris": {"ios": "https://dc.lft.to/lastmile_qr_scan", "android": "https://dc.lft.to/lastmile_qr_scan"}, "type": "electric_scooter", "name": "2a0f727d4ee8e3369532519d7cdded04", "is_reserved": 0, "lon": -77.017788, "is_disabled": 0, "fusion_lat": 0.0, "lat": 38.90045933333333, "bike_id": "2a0f727d4ee8e3369532519d7cdded04", "fusion_lon": 0.0}, {"rental_uris": {"ios": "https://dc.lft.to/lastmile_qr_scan", "android": "https://dc.lft.to/lastmile_qr_scan"}, "type": "electric_scooter", "name": "edf24b3887cd870514c8edeba1e04777", "is_reserved": 0, "lon": -77.0181515, "is_disabled": 0, "fusion_lat": 0.0, "lat": 38.92150216666667, "bike_id": "edf24b3887cd870514c8edeba1e04777", "fusion_lon": 0.0}, {"rental_uris": {"ios": "https://dc.lft.to/lastmile_qr_scan", "android": "https://dc.lft.to/lastmile_qr_scan"}, "type": "electric_scooter", "name": "e5842cd541288dfa447e29cc4aa4a992", "is_reserved": 0, "lon": -76.99286466666666, "is_disabled": 0, "fusion_lat": 0.0, "lat": 38.902621333333336, "bike_id": "e5842cd541288dfa447e29cc4aa4a992", "fusion_lon": 0.0}, {"rental_uris": {"ios": "https://dc.lft.to/lastmile_qr_scan", "android": "https://dc.lft.to/lastmile_qr_scan"}, "type": "electric_scooter", "name": "5fce83c9aaaaf8e046f4e09e9355a642", "is_reserved": 0, "lon": -77.039899, "is_disabled": 0, "fusion_lat": 0.0, "lat": 38.90240566666667, "bike_id": "5fce83c9aaaaf8e046f4e09e9355a642", "fusion_lon": 0.0}, {"rental_uris": {"ios": "https://dc.lft.to/lastmile_qr_scan", "android": "https://dc.lft.to/lastmile_qr_scan"}, "type": "electric_scooter", "name": "64e6442fcb7491c7138661e8590ff7ab", "is_reserved": 0, "lon": -77.07830833333334, "is_disabled": 0, "fusion_lat": 0.0, "lat": 38.94570483333333, "bike_id": "64e6442fcb7491c7138661e8590ff7ab", "fusion_lon": 0.0}, {"rental_uris": {"ios": "https://dc.lft.to/lastmile_qr_scan", "android": "https://dc.lft.to/lastmile_qr_scan"}, "type": "electric_scooter", "name": "0154519de6d9bcdbe9760300ec300b21", "is_reserved": 0, "lon": -77.04603466666667, "is_disabled": 0, "fusion_lat": 0.0, "lat": 38.90579816666666, "bike_id": "0154519de6d9bcdbe9760300ec300b21", "fusion_lon": 0.0}, {"rental_uris": {"ios": "https://dc.lft.to/lastmile_qr_scan", "android": "https://dc.lft.to/lastmile_qr_scan"}, "type": "electric_scooter", "name": "dd8a30dd033d3602601621313b1ca660", "is_reserved": 0, "lon": -77.065898, "is_disabled": 0, "fusion_lat": 0.0, "lat": 38.903997, "bike_id": "dd8a30dd033d3602601621313b1ca660", "fusion_lon": 0.0}, {"rental_uris": {"ios": "https://dc.lft.to/lastmile_qr_scan", "android": "https://dc.lft.to/lastmile_qr_scan"}, "type": "electric_scooter", "name": "3b8fdc884ed9d1f62618bb93fcd1325e", "is_reserved": 0, "lon": -77.06688566666666, "is_disabled": 0, "fusion_lat": 0.0, "lat": 38.950226666666666, "bike_id": "3b8fdc884ed9d1f62618bb93fcd1325e", "fusion_lon": 0.0}, {"rental_uris": {"ios": "https://dc.lft.to/lastmile_qr_scan", "android": "https://dc.lft.to/lastmile_qr_scan"}, "type": "electric_scooter", "name": "77d685a17c780ba2c197c604be22ddb8", "is_reserved": 0, "lon": -77.03807283333333, "is_disabled": 0, "fusion_lat": 0.0, "lat": 38.91042383333333, "bike_id": "77d685a17c780ba2c197c604be22ddb8", "fusion_lon": 0.0},