{"data": {"bikes": [{"is_reserved": 0, "type": "electric_scooter", "fusion_lat": 0.0, "is_disabled": 0, "rental_uris": {"ios": "https://dc.lft.to/lastmile_qr_scan", "android": "https://dc.lft.to/lastmile_qr_scan"}, "bike_id": "c3f2262d0314cdaea201e24bbd8a1f34", "lat": 38.928018333333334, "name": "c3f2262d0314cdaea201e24bbd8a1f34", "lon": -77.037001, "fusion_lon": 0.0}, {"is_reserved": 0, "type": "electric_scooter", "fusion_lat": 0.0, "is_disabled": 0, "rental_uris": {"ios": "https://dc.lft.to/lastmile_qr_scan", "android": "https://dc.lft.to/lastmile_qr_scan"}, "bike_id": "f5a6df87364d821ccd1f9d87c8da4c88", "lat": 38.917090333333334, "name": "f5a6df87364d821ccd1f9d87c8da4c88", "lon": -77.04049233333333, "fusion_lon": 0.0}, {"is_reserved": 0, "type": "electric_scooter", "fusion_lat": 0.0, "is_disabled": 0, "rental_uris": {"ios": "https://dc.lft.to/lastmile_qr_scan", "android": "https://dc.lft.to/lastmile_qr_scan"}, "bike_id": "d58fc484508ad0b48b5f3c6efe12ef17", "lat": 38.918518166666665, "name": "d58fc484508ad0b48b5f3c6efe12ef17", "lon": -77.034892, "fusion_lon": 0.0}, {"is_reserved": 0, "type": "electric_scooter", "fusion_lat": 0.0, "is_disabled": 0, "rental_uris": {"ios": "https://dc.lft.to/lastmile_qr_scan", "android": "https://dc.lft.to/lastmile_qr_scan"}, "bike_id": "103c5493fb753a81fcf282b03934aac1", "lat": 38.935889, "name": "103c5493fb753a81fcf282b03934aac1", "lon": -77.07428783333333, "fusion_lon": 0.0}, {"is_reserved": 0, "type": "electric_scooter", "fusion_lat": 0.0, "is_disabled": 0, "rental_uris": {"ios": "https://dc.lft.to/lastmile_qr_scan", "android": "https://dc.lft.to/lastmile_qr_scan"}, "bike_id": "555916dd84c189473d99a2a52f8647ea", "lat": 38.8934045, "name": "555916dd84c189473d99a2a52f8647ea", "lon": -76.98558066666666, "fusion_lon": 0.0}, {"is_reserved": 0, "type": "electric_scooter", "fusion_lat": 0.0, "is_disabled": 0, "rental_uris": {"ios": "https://dc.lft.to/lastmile_qr_scan", "android": "https://dc.lft.to/lastmile_qr_scan"}, "bike_id": "7fb21d555a13879acec4a14e25ae53c1", "lat": 38.87728283333333, "name": "7fb21d555a13879acec4a14e25ae53c1", "lon": -77.006029, "fusion_lon": 0.0}, {"is_reserved": 0, "type": "electric_scooter", "fusion_lat": 0.0, "is_disabled": 0, "rental_uris": {"ios": "https://dc.lft.to/lastmile_qr_scan", "android": "https://dc.lft.to/lastmile_qr_scan"}, "bike_id": "aa582c3e4235163208bfe571bd01011f", "lat": 38.912172, "name": "aa582c3e4235163208bfe571bd01011f", "lon": -77.00660983333333, "fusion_lon": 0.0}, {"is_reserved": 0, "type": "electric_scooter", "fusion_lat": 0.0, "is_disabled": 0, "rental_uris": {"ios": "https://dc.lft.to/lastmile_qr_scan", "android": "https://dc.lft.to/lastmile_qr_scan"}, "bike_id": "638ff7b73d7bab388a9d827defdc2933", "lat": 38.92056016666667, "name": "638ff7b73d7bab388a9d827defdc2933", "lon": -77.03400016666667, "fusion_lon": 0.0}, {"is_reserved": 0, "type": "electric_scooter", "fusion_lat": 0.0, "is_disabled": 0, "rental_uris": {"ios": "https://dc.lft.to/lastmile_qr_scan", "android": "https://dc.lft.to/lastmile_qr_scan"}, "bike_id": "d5bde42ccfaf080ea347653b53ccfffc", "lat": 38.902669333333336, "name": "d5bde42ccfaf080ea347653b53ccfffc", "lon": -76.9897975, "fusion_lon": 0.0}, {"is_reserved": 0, "type": "electric_scooter", "fusion_lat": 0.0, "is_disabled": 0, "rental_uris": {"ios": "https://dc.lft.to/lastmile_qr_scan", "android": "https://dc.lft.to/lastmile_qr_scan"}, "bike_id": "d1bf1ab51022a396f6ba51300250bfff", "lat": 38.907804166666665, "name": "d1bf1ab51022a396f6ba51300250bfff", "lon": -77.0725955, "fusion_lon": 0.0}, {"is_reserved": 0, "type": "electric_scooter", "fusion_lat": 0.0, "is_disabled": 0, "rental_uris": {"ios": "https://dc.lft.to/lastmile_qr_scan", "android": "https://dc.lft.to/lastmile_qr_scan"}, "bike_id": "b725026890bfb7c47c70f86f618e9f35", "lat": 38.91544483333333, "name": "b725026890bfb7c47c70f86f618e9f35", "lon": -77.029736, "fusion_lon": 0.0}, {"is_reserved": 0, "type": "electric_scooter", "fusion_lat": 0.0, "is_disabled": 0, "rental_uris": {"ios": "https://dc.lft.to/lastmile_qr_scan", "android": "https://dc.lft.to/lastmile_qr_scan"}, "bike_id": "7542b974febf9d8ca65341cfffd0085a", "lat": 38.90495833333333, "name": "7542b974febf9d8ca65341cfffd0085a", "lon": -77.04336133333334, "fusion_lon": 0.0}, {"is_reserved": 0, "type": "electric_scooter", "fusion_lat": 0.0, "is_disabled": 0, "rental_uris": {"ios": "https://dc.lft.to/lastmile_qr_scan", "android": "https://dc.lft.to/lastmile_qr_scan"}, "bike_id": "d5c61f525a94a299878f559fcf5db432", "lat": 38.87371733333333, "name": "d5c61f525a94a299878f559fcf5db432", "lon": -77.00126216666666, "fusion_lon": 0.0}, {"is_reserved": 0, "type": "electric_scooter", "fusion_lat": 0.0, "is_disabled": 0, "rental_uris": {"ios": "https://dc.lft.to/lastmile_qr_scan", "android": "https://dc.lft.to/lastmile_qr_scan"}, "bike_id": "2f017739312a6f1bb6797fcc7315b202", "lat": 38.933707, "name": "2f017739312a6f1bb6797fcc7315b202", "lon": -77.0725285, "fusion_lon": 0.0}, {"is_reserved": 0, "type": "electric_scooter", "fusion_lat": 0.0, "is_disabled": 0, "rental_uris": {"ios": "https://dc.lft.to/lastmile_qr_scan", "android": "https://dc.lft.to/lastmile_qr_scan"}, "bike_id": "a9bdfceeef9ec72cf9d1923caa078855", "lat": 38.9446235, "name": "a9bdfceeef9ec72cf9d1923caa078855", "lon": -77.0065985, "fusion_lon": 0.0}, {"is_reserved": 0, "type": "electric_scooter", "fusion_lat": 0.0, "is_disabled": 0, "rental_uris": {"ios": "https://dc.lft.to/lastmile_qr_scan", "android": "https://dc.lft.to/lastmile_qr_scan"}, "bike_id": "63e8412404893ff3234c93979389926b", "lat": 38.90593966666667, "name": "63e8412404893ff3234c93979389926b", "lon": -77.02997133333334, "fusion_lon": 0.0}, {"is_reserved": 0, "type": "electric_scooter", "fusion_lat": 0.0, "is_disabled": 0, "rental_uris": {"ios": "https://dc.lft.to/lastmile_qr_scan", "android": "https://dc.lft.to/lastmile_qr_scan"}, "bike_id": "da920fd7056291da2ba353ff1f746f5e", "lat": 38.9030845, "name": "da920fd7056291da2ba353ff1f746f5e", "lon": -77.041932, "fusion_lon": 0.0}, {"is_reserved": 0, "type": "electric_scooter", "fusion_lat": 0.0, "is_disabled": 0, "rental_uris": {"ios": "https://dc.lft.to/lastmile_qr_scan", "android": "https://dc.lft.to/lastmile_qr_scan"}, "bike_id": "e1269e2faf14e7e390f32bc67b58f622", "lat": 38.95380083333333, "name": "e1269e2faf14e7e390f32bc67b58f622", "lon": -77.001901, "fusion_lon": 0.0}, {"is_reserved": 0, "type": "electric_scooter", "fusion_lat": 0.0, "is_disabled": 0, "rental_uris": {"ios": "https://dc.lft.to/lastmile_qr_scan", "android": "https://dc.lft.to/lastmile_qr_scan"}, "bike_id": "5eec15c8124f5958f08382832975b068", "lat": 38.91360233333333, "name": "5eec15c8124f5958f08382832975b068", "lon": -77.04484616666667, "fusion_lon": 0.0}, {"is_reserved": 0, "type": "electric_scooter", "fusion_lat": 0.0, "is_disabled": 0, "rental_uris": {"ios": "https://dc.lft.to/lastmile_qr_scan", "android": "https://dc.lft.to/lastmile_qr_scan"}, "bike_id": "ff27f4e65669da7869419ee7e83cec24", "lat": 38.928743833333336, "name": "ff27f4e65669da7869419ee7e83cec24", "lon": -77.03999216666666, "fusion_lon": 0.0}, {"is_reserved": 0, "type": "electric_scooter", "fusion_lat": 0.0, "is_disabled": 0, "rental_uris": {"ios": "https://dc.lft.to/lastmile_qr_scan", "android": "https://dc.lft.to/lastmile_qr_scan"}, "bike_id": "5fa481e306511c49d802e7b5689f2344", "lat": 38.90481533333333, "name": "5fa481e306511c49d802e7b5689f2344", "lon": -77.027146, "fusion_lon": 0.0}, {"is_reserved": 0, "type": "electric_scooter", "fusion_lat": 0.0, "is_disabled": 0, "rental_uris": {"ios": "https://dc.lft.to/lastmile_qr_scan", "android": "https://dc.lft.to/lastmile_qr_scan"}, "bike_id": "9818d929f6b9d08f59bd94f877e82ebe", "lat": 38.89326233333333, "name": "9818d929f6b9d08f59bd94f877e82ebe", "lon": -77.01989316666666, "fusion_lon": 0.0}, {"is_reserved": 0, "type": "electric_scooter", "fusion_lat": 0.0, "is_disabled": 0, "rental_uris": {"ios": "https://dc.lft.to/lastmile_qr_scan", "android": "https://dc.lft.to/lastmile_qr_scan"}, "bike_id": "f078e2ed6b28f31f7f6881919a409e53", "lat": 38.94447433333333, "name": "f078e2ed6b28f31f7f6881919a409e53", "lon": -77.03284066666667, "fusion_lon": 0.0}, {"is_reserved": 0, "type": "electric_scooter", "fusion_lat": 0.0, "is_disabled": 0, "rental_uris": {"ios": "https://dc.lft.to/lastmile_qr_scan", "android": "https://dc.lft.to/lastmile_qr_scan"}, "bike_id": "9547870727adb72c96d39f5dbb02efb7", "lat": 38.912649333333334, "name": "9547870727adb72c96d39f5dbb02efb7", "lon": -77.014323, "fusion_lon": 0.0}, {"is_reserved": 0, "type": "electric_bike", "fusion_lat": 0.0, "is_disabled": 0, "rental_uris": {"ios": "https://dc.lft.to/lastmile_qr_scan", "android": "https://dc.lft.to/lastmile_qr_scan"}, "bike_id": "c244445737c974d3acb8078a98a4ad9b", "lat": 38.86828783333333, "name": "c244445737c974d3acb8078a98a4ad9b", "lon": -76.98023266666667, "fusion_lon": 0.0}, {"is_reserved": 0, "type": "electric_scooter", "fusion_lat": 0.0, "is_disabled": 0, "rental_uris": {"ios": "https://dc.lft.to/lastmile_qr_scan", "android": "https://dc.lft.to/lastmile_qr_scan"}, "bike_id": "78e8fb3e0d7b16afa12c031453322156", "lat": 38.8922765, "name": "78e8fb3e0d7b16afa12c031453322156", "lon": -77.04483266666666, "fusion_lon": 0.0}, {"is_reserved": 0, "type": "electric_scooter", "fusion_lat": 0.0, "is_disabled": 0, "rental_uris": {"ios": "https://dc.lft.to/lastmile_qr_scan", "android": "https://dc.lft.to/lastmile_qr_scan"}, "bike_id": "4fb4243a69d6688ed1a8705316a485d2", "lat": 38.912375, "name": "4fb4243a69d6688ed1a8705316a485d2", "lon": -77.03847416666666, "fusion_lon": 0.0}, {"is_reserved": 0, "type": "electric_scooter", "fusion_lat": 0.0, "is_disabled": 0, "rental_uris": {"ios": "https://dc.lft.to/lastmile_qr_scan", "android": "https://dc.lft.to/lastmile_qr_scan"}, "bike_id": "f2724fe5351ed4f31acbe4b2022832ce", "lat": 38.91954783333333, "name": "f2724fe5351ed4f31acbe4b2022832ce", "lon": -77.02307116666667, "fusion_lon": 0.0}, {"is_reserved": 0, "type": "electric_scooter", "fusion_lat": 0.0, "is_disabled": 0, "rental_uris": {"ios": "https://dc.lft.to/lastmile_qr_scan", "android": "https://dc.lft.to/lastmile_qr_scan"}, "bike_id": "17ff268f199c6b051e43a6f949d0651d", "lat": 38.95150866666667, "name": "17ff268f199c6b051e43a6f949d0651d", "lon": -77.01865633333334, "fusion_lon": 0.0}, {"is_reserved": 0, "type": "electric_scooter", "fusion_lat": 0.0, "is_disabled": 0, "rental_uris": {"ios": "https://dc.lft.to/lastmile_qr_scan", "android": "https://dc.lft.to/lastmile_qr_scan"}, "bike_id": "0a491fe0e787202f03d34e5fb4376b32", "lat": 38.903675166666666, "name": "0a491fe0e787202f03d34e5fb4376b32", "lon": -77.00984166666667, "fusion_lon": 0.0}, {"is_reserved": 0, "type": "electric_scooter", "fusion_lat": 0.0, "is_disabled": 0, "rental_uris": {"ios": "https://dc.lft.to/lastmile_qr_scan", "android": "https://dc.lft.to/lastmile_qr_scan"}, "bike_id": "576c0c81ae4fe9e09499de3006b6a96e", "lat": 38.9177175, "name": "576c0c81ae4fe9e09499de3006b6a96e", "lon": -77.0475645, "fusion_lon": 0.0}, {"is_reserved": 0, "type": "electric_scooter", "fusion_lat": 0.0, "is_disabled": 0, "rental_uris": {"ios": "https://dc.lft.to/lastmile_qr_scan", "android": "https://dc.lft.to/lastmile_qr_scan"}, "bike_id": "1cc0bdb03b49f0af825bcbd52e7ef1f3", "lat": 38.90758616666667, "name": "1cc0bdb03b49f0af825bcbd52e7ef1f3", "lon": -77.01905166666667, "fusion_lon": 0.0}, {"is_reserved": 0, "type": "electric_scooter", "fusion_lat": 0.0, "is_disabled": 0, "rental_uris": {"ios": "https://dc.lft.to/lastmile_qr_scan", "android": "https://dc.lft.to/lastmile_qr_scan"}, "bike_id": "9f588d784780dbf64ae265e87478e3b8", "lat": 38.92348966666667, "name": "9f588d784780dbf64ae265e87478e3b8", "lon": -77.03316066666666, "fusion_lon": 0.0}, {"is_reserved": 0, "type": "electric_scooter", "fusion_lat": 0.0, "is_disabled": 0, "rental_uris": {"ios": "https://dc.lft.to/lastmile_qr_scan", "android": "https://dc.lft.to/lastmile_qr_scan"}, "bike_id": "b4afd17f3a2ba9ade4a2894585f8d5d9", "lat": 38.917192666666665, "name": "b4afd17f3a2ba9ade4a2894585f8d5d9", "lon": -77.0345805, "fusion_lon": 0.0}, {"is_reserved": 0, "type": "electric_scooter", "fusion_lat": 0.0, "is_disabled": 0, "rental_uris": {"ios": "https://dc.lft.to/lastmile_qr_scan", "android": "https://dc.lft.to/lastmile_qr_scan"}, "bike_id": "b586c9e778cf81e1f6296190095e9352", "lat": 38.9027, "name": "b586c9e778cf81e1f6296190095e9352", "lon": -77.02011816666666, "fusion_lon": 0.0}, {"is_reserved": 0, "type": "electric_scooter", "fusion_lat": 0.0, "is_disabled": 0, "rental_uris": {"ios": "https://dc.lft.to/lastmile_qr_scan", "android": "https://dc.lft.to/lastmile_qr_scan"}, "bike_id": "1f35a50d7dfb78df625c3e5965a4a302", "lat": 38.9234925, "name": "1f35a50d7dfb78df625c3e5965a4a302", "lon": -77.037846, "fusion_lon": 0.0}, {"is_reserved": 0, "type": "electric_scooter", "fusion_lat": 0.0, "is_disabled": 0, "rental_uris": {"ios": "https://dc.lft.to/lastmile_qr_scan", "android": "https://dc.lft.to/lastmile_qr_scan"}, "bike_id": "7fb9a3b91560b0e53d1ef9f6db2f96b4", "lat": 38.9069005, "name": "7fb9a3b91560b0e53d1ef9f6db2f96b4", "lon": -77.02725966666667, "fusion_lon": 0.0}, {"is_reserved": 0, "type": "electric_bike", "fusion_lat": 0.0, "is_disabled": 0, "rental_uris": {"ios": "https://dc.lft.to/lastmile_qr_scan", "android": "https://dc.lft.to/lastmile_qr_scan"}, "bike_id": "750cfbedc66c0a773da7cbc5159fb5ba", "lat": 38.9295695, "name": "750cfbedc66c0a773da7cbc5159fb5ba", "lon": -77.02019433333334, "fusion_lon": 0.0}, {"is_reserved": 0, "type": "electric_scooter", "fusion_lat": 0.0, "is_disabled": 0, "rental_uris": {"ios": "https://dc.lft.to/lastmile_qr_scan", "android": "https://dc.lft.to/lastmile_qr_scan"}, "bike_id": "8fb584b896e418aa1a2b790b0dd4b0fd", "lat": 38.92088183333333, "name": "8fb584b896e418aa1a2b790b0dd4b0fd", "lon": -76.994814, "fusion_lon": 0.0}, {"is_reserved": 0, "type": "electric_scooter", "fusion_lat": 0.0, "is_disabled": 0, "rental_uris": {"ios": "https://dc.lft.to/lastmile_qr_scan", "android": "https://dc.lft.to/lastmile_qr_scan"}, "bike_id": "db5572c95fd431e99c7e339df0faf161", "lat": 38.91820516666667, "name": "db5572c95fd431e99c7e339df0faf161", "lon": -77.02700233333333, "fusion_lon": 0.0}, {"is_reserved": 0, "type": "electric_scooter", "fusion_lat": 0.0, "is_disabled": 0, "rental_uris": {"ios": "https://dc.lft.to/lastmile_qr_scan", "android": "https://dc.lft.to/lastmile_qr_scan"}, "bike_id": "289c9d1383c06d96d0f46de24900bffd", "lat": 38.92503933333333, "name": "289c9d1383c06d96d0f46de24900bffd", "lon": -77.05116916666667, "fusion_lon": 0.0}, {"is_reserved": 0, "type": "electric_scooter", "fusion_lat": 0.0, "is_disabled": 0, "rental_uris": {"ios": "https://dc.lft.to/lastmile_qr_scan", "android": "https://dc.lft.to/lastmile_qr_scan"}, "bike_id": "3e66fa69c90a4e7acfc704741c49a2b4", "lat": 38.902672333333335, "name": "3e66fa69c90a4e7acfc704741c49a2b4", "lon": -77.0454715, "fusion_lon": 0.0}, {"is_reserved": 0, "type": "electric_bike", "fusion_lat": 0.0, "is_disabled": 0, "rental_uris": {"ios": "https://dc.lft.to/lastmile_qr_scan", "android": "https://dc.lft.to/lastmile_qr_scan"}, "bike_id": "991fb567a053ea848d77a852e608ff91", "lat": 38.97284116666667, "name": "991fb567a053ea848d77a852e608ff91", "lon": -77.0362855, "fusion_lon": 0.0}, {"is_reserved": 0, "type": "electric_scooter", "fusion_lat": 0.0, "is_disabled": 0, "rental_uris": {"ios": "https://dc.lft.to/lastmile_qr_scan", "android": "https://dc.lft.to/lastmile_qr_scan"}, "bike_id": "deb7a087f817320473dafac4b6087cbf", "lat": 38.878518166666666, "name": "deb7a087f817320473dafac4b6087cbf", "lon": -77.00877716666666, "fusion_lon": 0.0}, {"is_reserved": 0, "type": "electric_scooter", "fusion_lat": 0.0, "is_disabled": 0, "rental_uris": {"ios": "https://dc.lft.to/lastmile_qr_scan", "android": "https://dc.lft.to/lastmile_qr_scan"}, "bike_id": "28cc76b57d12c99fff203f51336b9c19", "lat": 38.8948245, "name": "28cc76b57d12c99fff203f51336b9c19", "lon": -77.02737583333334, "fusion_lon": 0.0}, {"is_reserved": 0, "type": "electric_bike", "fusion_lat": 0.0, "is_disabled": 0, "rental_uris": {"ios": "https://dc.lft.to/lastmile_qr_scan", "android": "https://dc.lft.to/lastmile_qr_scan"}, "bike_id": "b51bfea00892ab9451c390ccd1a8ee6d", "lat": 38.842944333333335, "name": "b51bfea00892ab9451c390ccd1a8ee6d", "lon": -77.06384133333333, "fusion_lon": 0.0}, {"is_reserved": 0, "type": "electric_scooter", "fusion_lat": 0.0, "is_disabled": 0, "rental_uris": {"ios": "https://dc.lft.to/lastmile_qr_scan", "android": "https://dc.lft.to/lastmile_qr_scan"}, "bike_id": "2a34ec0d44486c86e9656c56a0ea85ec", "lat": 38.9207345, "name": "2a34ec0d44486c86e9656c56a0ea85ec", "lon": -77.02539416666667, "fusion_lon": 0.0}, {"is_reserved": 0, "type": "electric_bike", "fusion_lat": 0.0, "is_disabled": 0, "rental_uris": {"ios": "https://dc.lft.to/lastmile_qr_scan", "android": "https://dc.lft.to/lastmile_qr_scan"}, "bike_id": "95bc0e911ac8babc931047dac378adbb", "lat": 38.95248216666667, "name": "95bc0e911ac8babc931047dac378adbb", "lon": -77.09625683333333, "fusion_lon": 0.0}, {"is_reserved": 0, "type": "electric_scooter", "fusion_lat": 0.0, "is_disabled": 0, "rental_uris": {"ios": "https://dc.lft.to/lastmile_qr_scan", "android": "https://dc.lft.to/lastmile_qr_scan"}, "bike_id": "fab7d9a9eeca8ce8d69c5c129d0c9567", "lat": 38.91872133333333, "name": "fab7d9a9eeca8ce8d69c5c129d0c9567", "lon": -77.0350275, "fusion_lon": 0.0}, {"is_reserved": 0, "type": "electric_scooter", "fusion_lat": 0.0, "is_disabled": 0, "rental_uris": {"ios": "https://dc.lft.to/lastmile_qr_scan", "android": "https://dc.lft.to/lastmile_qr_scan"}, "bike_id": "b8631670a8e0667f48d3e9c74ade7c59", "lat": 38.916531, "name": "b8631670a8e0667f48d3e9c74ade7c59", "lon": -77.01028416666666, "fusion_lon": 0.0}, {"is_reserved": 0, "type": "electric_scooter", "fusion_lat": 0.0, "is_disabled": 0, "rental_uris": {"ios": "https://dc.lft.to/lastmile_qr_scan", "android": "https://dc.lft.to/lastmile_qr_scan"}, "bike_id": "acd7288f103aadfc3e8142131c794398", "lat": 38.93597616666667, "name": "acd7288f103aadfc3e8142131c794398", "lon": -77.0376105, "fusion_lon": 0.0}, {"is_reserved": 0, "type": "electric_scooter", "fusion_lat": 0.0, "is_disabled": 0, "rental_uris": {"ios": "https://dc.lft.to/lastmile_qr_scan", "android": "https://dc.lft.to/lastmile_qr_scan"}, "bike_id": "0e6300d71dff8a80d51df45a59ef322b", "lat": 38.92156716666667, "name": "0e6300d71dff8a80d51df45a59ef322b", "lon": -77.033901, "fusion_lon": 0.0}, {"is_reserved": 0, "type": "electric_scooter", "fusion_lat": 0.0, "is_disabled": 0, "rental_uris": {"ios": "https://dc.lft.to/lastmile_qr_scan", "android": "https://dc.lft.to/lastmile_qr_scan"}, "bike_id": "dd5034a6b6d0308f7f62664466007513", "lat": 38.89646, "name": "dd5034a6b6d0308f7f62664466007513", "lon": -77.02846866666667, "fusion_lon": 0.0}, {"is_reserved": 0, "type": "electric_scooter", "fusion_lat": 0.0, "is_disabled": 0, "rental_uris": {"ios": "https://dc.lft.to/lastmile_qr_scan", "android": "https://dc.lft.to/lastmile_qr_scan"}, "bike_id": "dac1d05fb874216970f334cea9fcaac4", "lat": 38.944875, "name": "dac1d05fb874216970f334cea9fcaac4", "lon": -77.0950455, "fusion_lon": 0.0}, {"is_reserved": 0, "type": "electric_bike", "fusion_lat": 0.0, "is_disabled": 0, "rental_uris": {"ios": "https://dc.lft.to/lastmile_qr_scan", "android": "https://dc.lft.to/lastmile_qr_scan"}, "bike_id": "4ce250deb68ce05691a86c2f3003fcef", "lat": 38.88305183333333, "name": "4ce250deb68ce05691a86c2f3003fcef", "lon": -77.001954, "fusion_lon": 0.0}, {"is_reserved": 0, "type": "electric_scooter", "fusion_lat": 0.0, "is_disabled": 0, "rental_uris": {"ios": "https://dc.lft.to/lastmile_qr_scan", "android": "https://dc.lft.to/lastmile_qr_scan"}, "bike_id": "fe8ec12ea36e7849101eae8b42771afb", "lat": 38.89227116666667, "name": "fe8ec12ea36e7849101eae8b42771afb", "lon": -77.04641516666666, "fusion_lon": 0.0}, {"is_reserved": 0, "type": "electric_scooter", "fusion_lat": 0.0, "is_disabled": 0, "rental_uris": {"ios": "https://dc.lft.to/lastmile_qr_scan", "android": "https://dc.lft.to/lastmile_qr_scan"}, "bike_id": "ef9780b6fcf0f1fc48e99a762cbf954b", "lat": 38.89825966666667, "name": "ef9780b6fcf0f1fc48e99a762cbf954b", "lon": -76.93007266666666, "fusion_lon": 0.0}, {"is_reserved": 0, "type": "electric_scooter", "fusion_lat": 0.0, "is_disabled": 0, "rental_uris": {"ios": "https://dc.lft.to/lastmile_qr_scan", "android": "https://dc.lft.to/lastmile_qr_scan"}, "bike_id": "db43e85844e4e5c74229a1e8dd8dcc1b", "lat": 38.922145666666665, "name": "db43e85844e4e5c74229a1e8dd8dcc1b", "lon": -77.04237416666666, "fusion_lon": 0.0}, {"is_reserved": 0, "type": "electric_scooter", "fusion_lat": 0.0, "is_disabled": 0, "rental_uris": {"ios": "https://dc.lft.to/lastmile_qr_scan", "android": "https://dc.lft.to/lastmile_qr_scan"}, "bike_id": "cf50b486d8e5ac1eef2f73b180371477", "lat": 38.89770716666666, "name": "cf50b486d8e5ac1eef2f73b180371477", "lon": -77.04779733333334, "fusion_lon": 0.0}, {"is_reserved": 0, "type": "electric_bike", "fusion_lat": 0.0, "is_disabled": 0, "rental_uris": {"ios": "https://dc.lft.to/lastmile_qr_scan", "android": "https://dc.lft.to/lastmile_qr_scan"}, "bike_id": "256972fa1a1abf0879eb1574e437df01", "lat": 38.80980483333333, "name": "256972fa1a1abf0879eb1574e437df01", "lon": -77.07662366666666, "fusion_lon": 0.0}, {"is_reserved": 0, "type": "electric_scooter", "fusion_lat": 0.0, "is_disabled": 0, "rental_uris": {"ios": "https://dc.lft.to/lastmile_qr_scan", "android": "https://dc.lft.to/lastmile_qr_scan"}, "bike_id": "a9014bdf8d75444a8a5f687b12c056ac", "lat": 38.898217333333335, "name": "a9014bdf8d75444a8a5f687b12c056ac", "lon": -77.01269983333333, "fusion_lon": 0.0}, {"is_reserved": 0, "type": "electric_bike", "fusion_lat": 0.0, "is_disabled": 0, "rental_uris": {"ios": "https://dc.lft.to/lastmile_qr_scan", "android": "https://dc.lft.to/lastmile_qr_scan"}, "bike_id": "c81e4559aba0fd85b64da11a9e3e7292", "lat": 38.92018016666667, "name": "c81e4559aba0fd85b64da11a9e3e7292", "lon": -77.003335, "fusion_lon": 0.0}, {"is_reserved": 0, "type": "electric_scooter", "fusion_lat": 0.0, "is_disabled": 0, "rental_uris": {"ios": "https://dc.lft.to/lastmile_qr_scan", "android": "https://dc.lft.to/lastmile_qr_scan"}, "bike_id": "9a4d7960d50cf1df42e258714af82d3f", "lat": 38.9266685, "name": "9a4d7960d50cf1df42e258714af82d3f", "lon": -76.995374, "fusion_lon": 0.0}, {"is_reserved": 0, "type": "electric_scooter", "fusion_lat": 0.0, "is_disabled": 0, "rental_uris": {"ios": "https://dc.lft.to/lastmile_qr_scan", "android": "https://dc.lft.to/lastmile_qr_scan"}, "bike_id": "f4363e9215daf0536d4b600d1ca9a106", "lat": 38.8944425, "name": "f4363e9215daf0536d4b600d1ca9a106", "lon": -76.980841, "fusion_lon": 0.0}, {"is_reserved": 0, "type": "electric_scooter", "fusion_lat": 0.0, "is_disabled": 0, "rental_uris": {"ios": "https://dc.lft.to/lastmile_qr_scan", "android": "https://dc.lft.to/lastmile_qr_scan"}, "bike_id": "a32b76fcc0109b4c0f5987b21feff1c7", "lat": 38.90742433333333, "name": "a32b76fcc0109b4c0f5987b21feff1c7", "lon": -77.00766683333333, "fusion_lon": 0.0}, {"is_reserved": 0, "type": "electric_bike", "fusion_lat": 0.0, "is_disabled": 0, "rental_uris": {"ios": "https://dc.lft.to/lastmile_qr_scan", "android": "https://dc.lft.to/lastmile_qr_scan"}, "bike_id": "1ed26a79c0c3388601b3bd39f64ba5a6", "lat": 38.936398, "name": "1ed26a79c0c3388601b3bd39f64ba5a6", "lon": -76.9545325, "fusion_lon": 0.0}, {"is_reserved": 0, "type": "electric_scooter", "fusion_lat": 0.0, "is_disabled": 0, "rental_uris": {"ios": "https://dc.lft.to/lastmile_qr_scan", "android": "https://dc.lft.to/lastmile_qr_scan"}, "bike_id": "ad8ead9775214975eface54448b4e37f", "lat": 38.92468383333333, "name": "ad8ead9775214975eface54448b4e37f", "lon": -77.02241816666667, "fusion_lon": 0.0}, {"is_reserved": 0, "type": "electric_scooter", "fusion_lat": 0.0, "is_disabled": 0, "rental_uris": {"ios": "https://dc.lft.to/lastmile_qr_scan", "android": "https://dc.lft.to/lastmile_qr_scan"}, "bike_id": "2bf722aefd10056ccba622fb87043f5a", "lat": 38.88729566666667, "name": "2bf722aefd10056ccba622fb87043f5a", "lon": -76.98379633333333, "fusion_lon": 0.0}, {"is_reserved": 0, "type": "electric_scooter", "fusion_lat": 0.0, "is_disabled": 0, "rental_uris": {"ios": "https://dc.lft.to/lastmile_qr_scan", "android": "https://dc.lft.to/lastmile_qr_scan"}, "bike_id": "c85acc7e02ec0407f841605e697a594e", "lat": 38.8995225, "name": "c85acc7e02ec0407f841605e697a594e", "lon": -77.0475305, "fusion_lon": 0.0}, {"is_reserved": 0, "type": "electric_scooter", "fusion_lat": 0.0, "is_disabled": 0, "rental_uris": {"ios": "https://dc.lft.to/lastmile_qr_scan", "android": "https://dc.lft.to/lastmile_qr_scan"}, "bike_id": "72a194ae7958fbc97b14b45c579b6c4c", "lat": 38.95627616666667, "name": "72a194ae7958fbc97b14b45c579b6c4c", "lon": -77.0224155, "fusion_lon": 0.0}, {"is_reserved": 0, "type": "electric_scooter", "fusion_lat": 0.0, "is_disabled": 0, "rental_uris": {"ios": "https://dc.lft.to/lastmile_qr_scan", "android": "https://dc.lft.to/lastmile_qr_scan"}, "bike_id": "59768afe67609cae659fb90273d75d14", "lat": 38.918079666666664, "name": "59768afe67609cae659fb90273d75d14", "lon": -77.03336283333333, "fusion_lon": 0.0}, {"is_reserved": 0, "type": "electric_scooter", "fusion_lat": 0.0, "is_disabled": 0, "rental_uris": {"ios": "https://dc.lft.to/lastmile_qr_scan", "android": "https://dc.lft.to/lastmile_qr_scan"}, "bike_id": "caba21dba085f14e3aa07f2f8068cf21", "lat": 38.907946, "name": "caba21dba085f14e3aa07f2f8068cf21", "lon": -77.00963716666666, "fusion_lon": 0.0}, {"is_reserved": 0, "type": "electric_scooter", "fusion_lat": 0.0, "is_disabled": 0, "rental_uris": {"ios": "https://dc.lft.to/lastmile_qr_scan", "android": "https://dc.lft.to/lastmile_qr_scan"}, "bike_id": "7410bad315b236dfbeccb11eb336c1f7", "lat": 38.879266666666666, "name": "7410bad315b236dfbeccb11eb336c1f7", "lon": -77.00605383333334, "fusion_lon": 0.0}, {"is_reserved": 0, "type": "electric_scooter", "fusion_lat": 0.0, "is_disabled": 0, "rental_uris": {"ios": "https://dc.lft.to/lastmile_qr_scan", "android": "https://dc.lft.to/lastmile_qr_scan"}, "bike_id": "917a723f99d96f85501381c59686d077", "lat": 38.93423933333333, "name": "917a723f99d96f85501381c59686d077", "lon": -77.0329335, "fusion_lon": 0.0}, {"is_reserved": 0, "type": "electric_scooter", "fusion_lat": 0.0, "is_disabled": 0, "rental_uris": {"ios": "https://dc.lft.to/lastmile_qr_scan", "android": "https://dc.lft.to/lastmile_qr_scan"}, "bike_id": "a15a33475c2338aef41eb4ad6f241229", "lat": 38.9093085, "name": "a15a33475c2338aef41eb4ad6f241229", "lon": -76.99894183333333, "fusion_lon": 0.0}, {"is_reserved": 0, "type": "electric_scooter", "fusion_lat": 0.0, "is_disabled": 0, "rental_uris": {"ios": "https://dc.lft.to/lastmile_qr_scan", "android": "https://dc.lft.to/lastmile_qr_scan"}, "bike_id": "3f7f4f14fd21b6a9c4b9b791e86d474a", "lat": 38.92215383333333, "name": "3f7f4f14fd21b6a9c4b9b791e86d474a", "lon": -77.02029083333333, "fusion_lon": 0.0}, {"is_reserved": 0, "type": "electric_scooter", "fusion_lat": 0.0, "is_disabled": 0, "rental_uris": {"ios": "https://dc.lft.to/lastmile_qr_scan", "android": "https://dc.lft.to/lastmile_qr_scan"}, "bike_id": "d8cdb3427e410c9d9990c2b9d25c3436", "lat": 38.917447, "name": "d8cdb3427e410c9d9990c2b9d25c3436", "lon": -77.010899, "fusion_lon": 0.0}, {"is_reserved": 0, "type": "electric_bike", "fusion_lat": 0.0, "is_disabled": 0, "rental_uris": {"ios": "https://dc.lft.to/lastmile_qr_scan", "android": "https://dc.lft.to/lastmile_qr_scan"}, "bike_id": "06e3e4ab373348e00498d50fda12b675", "lat": 38.9256005, "name": "06e3e4ab373348e00498d50fda12b675", "lon": -77.001359, "fusion_lon": 0.0}, {"is_reserved": 0, "type": "electric_bike", "fusion_lat": 0.0, "is_disabled": 0, "rental_uris": {"ios": "https://dc.lft.to/lastmile_qr_scan", "android": "https://dc.lft.to/lastmile_qr_scan"}, "bike_id": "e574ba2002bd5cb4cbfe05b6b0072dbf", "lat": 38.914510166666666, "name": "e574ba2002bd5cb4cbfe05b6b0072dbf", "lon": -76.97280383333333, "fusion_lon": 0.0}, {"is_reserved": 0, "type": "electric_scooter", "fusion_lat": 0.0, "is_disabled": 0, "rental_uris": {"ios": "https://dc.lft.to/lastmile_qr_scan", "android": "https://dc.lft.to/lastmile_qr_scan"}, "bike_id": "0272d44a9b5f7c178421c5eeedb9a494", "lat": 38.901374, "name": "0272d44a9b5f7c178421c5eeedb9a494", "lon": -76.97417483333334, "fusion_lon": 0.0}, {"is_reserved": 0, "type": "electric_bike", "fusion_lat": 0.0, "is_disabled": 0, "rental_uris": {"ios": "https://dc.lft.to/lastmile_qr_scan", "android": "https://dc.lft.to/lastmile_qr_scan"}, "bike_id": "14c35b27415f6c59e028ae25662a3a28", "lat": 38.83586316666667, "name": "14c35b27415f6c59e028ae25662a3a28", "lon": -76.99020033333333, "fusion_lon": 0.0}, {"is_reserved": 0, "type": "electric_bike", "fusion_lat": 0.0, "is_disabled": 0, "rental_uris": {"ios": "https://dc.lft.to/lastmile_qr_scan", "android": "https://dc.lft.to/lastmile_qr_scan"}, "bike_id": "a502221d3d9d4572d50b49d787311d20", "lat": 38.967360166666666, "name": "a502221d3d9d4572d50b49d787311d20", "lon": -77.0891355, "fusion_lon": 0.0}, {"is_reserved": 0, "type": "electric_bike", "fusion_lat": 0.0, "is_disabled": 0, "rental_uris": {"ios": "https://dc.lft.to/lastmile_qr_scan", "android": "https://dc.lft.to/lastmile_qr_scan"}, "bike_id": "8d456ba85b510d5dfb191ff970669523", "lat": 38.85086733333333, "name": "8d456ba85b510d5dfb191ff970669523", "lon": -76.98160433333334, "fusion_lon": 0.0}, {"is_reserved": 0, "type": "electric_scooter", "fusion_lat": 0.0, "is_disabled": 0, "rental_uris": {"ios": "https://dc.lft.to/lastmile_qr_scan", "android": "https://dc.lft.to/lastmile_qr_scan"}, "bike_id": "4aedbd6ecf4929d06bbabe3780b07ca7", "lat": 38.929543, "name": "4aedbd6ecf4929d06bbabe3780b07ca7", "lon": -77.04408566666666, "fusion_lon": 0.0}, {"is_reserved": 0, "type": "electric_scooter", "fusion_lat": 0.0, "is_disabled": 0, "rental_uris": {"ios": "https://dc.lft.to/lastmile_qr_scan", "android": "https://dc.lft.to/lastmile_qr_scan"}, "bike_id": "536626267efa3aaca7586cc2b92f2086", "lat": 38.887669833333334, "name": "536626267efa3aaca7586cc2b92f2086", "lon": -77.00046833333333, "fusion_lon": 0.0}, {"is_reserved": 0, "type": "electric_scooter", "fusion_lat": 0.0, "is_disabled": 0, "rental_uris": {"ios": "https://dc.lft.to/lastmile_qr_scan", "android": "https://dc.lft.to/lastmile_qr_scan"}, "bike_id": "ffe7033889e1a9ad8fa38b4d4bf1b411", "lat": 38.92234666666667, "name": "ffe7033889e1a9ad8fa38b4d4bf1b411", "lon": -77.0283095, "fusion_lon": 0.0}, {"is_reserved": 0, "type": "electric_scooter", "fusion_lat": 0.0, "is_disabled": 0, "rental_uris": {"ios": "https://dc.lft.to/lastmile_qr_scan", "android": "https://dc.lft.to/lastmile_qr_scan"}, "bike_id": "4d005380c81eda78fa0875c1d4e5cb62", "lat": 38.909991, "name": "4d005380c81eda78fa0875c1d4e5cb62", "lon": -77.02692983333333, "fusion_lon": 0.0}, {"is_reserved": 0, "type": "electric_bike", "fusion_lat": 0.0, "is_disabled": 0, "rental_uris": {"ios": "https://dc.lft.to/lastmile_qr_scan", "android": "https://dc.lft.to/lastmile_qr_scan"}, "bike_id": "ff5f3c0ad24c6aa8d265a5e4bc157060", "lat": 38.925918333333335, "name": "ff5f3c0ad24c6aa8d265a5e4bc157060", "lon": -77.02433066666667, "fusion_lon": 0.0}, {"is_reserved": 0, "type": "electric_scooter", "fusion_lat": 0.0, "is_disabled": 0, "rental_uris": {"ios": "https://dc.lft.to/lastmile_qr_scan", "android": "https://dc.lft.to/lastmile_qr_scan"}, "bike_id": "4e57225b3de7361ecebda618ccea4d2a", "lat": 38.93331116666667, "name": "4e57225b3de7361ecebda618ccea4d2a", "lon": -77.029106, "fusion_lon": 0.0}, {"is_reserved": 0, "type": "electric_scooter", "fusion_lat": 0.0, "is_disabled": 0, "rental_uris": {"ios": "https://dc.lft.to/lastmile_qr_scan", "android": "https://dc.lft.to/lastmile_qr_scan"}, "bike_id": "46f538bfb4763c3a3d2d2a29caf1952e", "lat": 38.92108016666667, "name": "46f538bfb4763c3a3d2d2a29caf1952e", "lon": -77.0363765, "fusion_lon": 0.0}, {"is_reserved": 0, "type": "electric_scooter", "fusion_lat": 0.0, "is_disabled": 0, "rental_uris": {"ios": "https://dc.lft.to/lastmile_qr_scan", "android": "https://dc.lft.to/lastmile_qr_scan"}, "bike_id": "21830a2d04ef70db5e2e8358eeaf14d3", "lat": 38.842789833333335, "name": "21830a2d04ef70db5e2e8358eeaf14d3", "lon": -76.98843516666666, "fusion_lon": 0.0}, {"is_reserved": 0, "type": "electric_scooter", "fusion_lat": 0.0, "is_disabled": 0, "rental_uris": {"ios": "https://dc.lft.to/lastmile_qr_scan", "android": "https://dc.lft.to/lastmile_qr_scan"}, "bike_id": "bc8d14b6e9308026a46f64481315761e", "lat": 38.9020405, "name": "bc8d14b6e9308026a46f64481315761e", "lon": -77.02377566666667, "fusion_lon": 0.0}, {"is_reserved": 0, "type": "electric_scooter", "fusion_lat": 0.0, "is_disabled": 0, "rental_uris": {"ios": "https://dc.lft.to/lastmile_qr_scan", "android": "https://dc.lft.to/lastmile_qr_scan"}, "bike_id": "694dafe1413963aa541245695b936890", "lat": 38.9096065, "name": "694dafe1413963aa541245695b936890", "lon": -77.02284966666667, "fusion_lon": 0.0}, {"is_reserved": 0, "type": "electric_scooter", "fusion_lat": 0.0, "is_disabled": 0, "rental_uris": {"ios": "https://dc.lft.to/lastmile_qr_scan", "android": "https://dc.lft.to/lastmile_qr_scan"}, "bike_id": "520033adef42a27a4d4a038728f7c438", "lat": 38.903130166666664, "name": "520033adef42a27a4d4a038728f7c438", "lon": -76.97799499999999, "fusion_lon": 0.0}, {"is_reserved": 0, "type": "electric_scooter", "fusion_lat": 0.0, "is_disabled": 0, "rental_uris": {"ios": "https://dc.lft.to/lastmile_qr_scan", "android": "https://dc.lft.to/lastmile_qr_scan"}, "bike_id": "54c6d1e07c56441fc8b160090250ec5a", "lat": 38.90062833333333, "name": "54c6d1e07c56441fc8b160090250ec5a", "lon": -76.99344816666667, "fusion_lon": 0.0}, {"is_reserved": 0, "type": "electric_scooter", "fusion_lat": 0.0, "is_disabled": 0, "rental_uris": {"ios": "https://dc.lft.to/lastmile_qr_scan", "android": "https://dc.lft.to/lastmile_qr_scan"}, "bike_id": "5076c1d2d41516650f5262530cf24122", "lat": 38.883804166666664, "name": "5076c1d2d41516650f5262530cf24122", "lon": -76.995274, "fusion_lon": 0.0}, {"is_reserved": 0, "type": "electric_scooter", "fusion_lat": 0.0, "is_disabled": 0, "rental_uris": {"ios": "https://dc.lft.to/lastmile_qr_scan", "android": "https://dc.lft.to/lastmile_qr_scan"}, "bike_id": "6e825d5c7a934ef8d5f4d7bc7c921dbd", "lat": 38.88601583333333, "name": "6e825d5c7a934ef8d5f4d7bc7c921dbd", "lon": -76.9250665, "fusion_lon": 0.0}, {"is_reserved": 0, "type": "electric_scooter", "fusion_lat": 0.0, "is_disabled": 0, "rental_uris": {"ios": "https://dc.lft.to/lastmile_qr_scan", "android": "https://dc.lft.to/lastmile_qr_scan"}, "bike_id": "e9dd7801aceeea21077c285b70c8825d", "lat": 38.95643716666667, "name": "e9dd7801aceeea21077c285b70c8825d", "lon": -77.02815716666667, "fusion_lon": 0.0}, {"is_reserved": 0, "type": "electric_scooter", "fusion_lat": 0.0, "is_disabled": 0, "rental_uris": {"ios": "https://dc.lft.to/lastmile_qr_scan", "android": "https://dc.lft.to/lastmile_qr_scan"}, "bike_id": "51e0e7edb61ef16e008d428a73e7f959", "lat": 38.9050695, "name": "51e0e7edb61ef16e008d428a73e7f959", "lon": -77.02947733333333, "fusion_lon": 0.0}, {"is_reserved": 0, "type": "electric_scooter", "fusion_lat": 0.0, "is_disabled": 0, "rental_uris": {"ios": "https://dc.lft.to/lastmile_qr_scan", "android": "https://dc.lft.to/lastmile_qr_scan"}, "bike_id": "96c78b4bdcc6e570972e3f6b3906cdba", "lat": 38.90962966666667, "name": "96c78b4bdcc6e570972e3f6b3906cdba", "lon": -77.023781, "fusion_lon": 0.0}, {"is_reserved": 0, "type": "electric_scooter", "fusion_lat": 0.0, "is_disabled": 0, "rental_uris": {"ios": "https://dc.lft.to/lastmile_qr_scan", "android": "https://dc.lft.to/lastmile_qr_scan"}, "bike_id": "26370f8556e9ff9879a3991ae5894635", "lat": 38.89734633333333, "name": "26370f8556e9ff9879a3991ae5894635", "lon": -77.04595583333334, "fusion_lon": 0.0}, {"is_reserved": 0, "type": "electric_scooter", "fusion_lat": 0.0, "is_disabled": 0, "rental_uris": {"ios": "https://dc.lft.to/lastmile_qr_scan", "android": "https://dc.lft.to/lastmile_qr_scan"}, "bike_id": "faacabdea805ebefccffb22113d7162c", "lat": 38.855490333333336, "name": "faacabdea805ebefccffb22113d7162c", "lon": -76.98658083333333, "fusion_lon": 0.0}, {"is_reserved": 0, "type": "electric_bike", "fusion_lat": 0.0, "is_disabled": 0, "rental_uris": {"ios": "https://dc.lft.to/lastmile_qr_scan", "android": "https://dc.lft.to/lastmile_qr_scan"}, "bike_id": "9aba5892804e59f75dccdc4f1a8ecd4a", "lat": 38.974402166666664, "name": "9aba5892804e59f75dccdc4f1a8ecd4a", "lon": -77.09615483333333, "fusion_lon": 0.0}, {"is_reserved": 0, "type": "electric_scooter", "fusion_lat": 0.0, "is_disabled": 0, "rental_uris": {"ios": "https://dc.lft.to/lastmile_qr_scan", "android": "https://dc.lft.to/lastmile_qr_scan"}, "bike_id": "45d3d1e875e4528167aff2730ab5c2c5", "lat": 38.95560033333334, "name": "45d3d1e875e4528167aff2730ab5c2c5", "lon": -77.03322533333333, "fusion_lon": 0.0}, {"is_reserved": 0, "type": "electric_scooter", "fusion_lat": 0.0, "is_disabled": 0, "rental_uris": {"ios": "https://dc.lft.to/lastmile_qr_scan", "android": "https://dc.lft.to/lastmile_qr_scan"}, "bike_id": "2d4303607a0a94f8d43bed1933c59719", "lat": 38.920731, "name": "2d4303607a0a94f8d43bed1933c59719", "lon": -77.03203316666666, "fusion_lon": 0.0}, {"is_reserved": 0, "type": "electric_scooter", "fusion_lat": 0.0, "is_disabled": 0, "rental_uris": {"ios": "https://dc.lft.to/lastmile_qr_scan", "android": "https://dc.lft.to/lastmile_qr_scan"}, "bike_id": "643b56b015f75b1d754bf5d64c64c8c9", "lat": 38.92363833333334, "name": "643b56b015f75b1d754bf5d64c64c8c9", "lon": -77.05124966666666, "fusion_lon": 0.0}, {"is_reserved": 0, "type": "electric_scooter", "fusion_lat": 0.0, "is_disabled": 0, "rental_uris": {"ios": "https://dc.lft.to/lastmile_qr_scan", "android": "https://dc.lft.to/lastmile_qr_scan"}, "bike_id": "a8f9eb335b9963816a2b93f98fb14582", "lat": 38.924207, "name": "a8f9eb335b9963816a2b93f98fb14582", "lon": -77.03001033333334, "fusion_lon": 0.0}, {"is_reserved": 0, "type": "electric_scooter", "fusion_lat": 0.0, "is_disabled": 0, "rental_uris": {"ios": "https://dc.lft.to/lastmile_qr_scan", "android": "https://dc.lft.to/lastmile_qr_scan"}, "bike_id": "e91404990f8797f8b6782b2915c11648", "lat": 38.9206445, "name": "e91404990f8797f8b6782b2915c11648", "lon": -77.02821683333333, "fusion_lon": 0.0}, {"is_reserved": 0, "type": "electric_scooter", "fusion_lat": 0.0, "is_disabled": 0, "rental_uris": {"ios": "https://dc.lft.to/lastmile_qr_scan", "android": "https://dc.lft.to/lastmile_qr_scan"}, "bike_id": "c772d5036b123aaf979476b189fa6646", "lat": 38.904566333333335, "name": "c772d5036b123aaf979476b189fa6646", "lon": -77.01685083333334, "fusion_lon": 0.0}, {"is_reserved": 0, "type": "electric_scooter", "fusion_lat": 0.0, "is_disabled": 0, "rental_uris": {"ios": "https://dc.lft.to/lastmile_qr_scan", "android": "https://dc.lft.to/lastmile_qr_scan"}, "bike_id": "2f70312234b6dbef5e1db21fcb4bb317", "lat": 38.937816, "name": "2f70312234b6dbef5e1db21fcb4bb317", "lon": -76.99370733333333, "fusion_lon": 0.0}, {"is_reserved": 0, "type": "electric_scooter", "fusion_lat": 0.0, "is_disabled": 0, "rental_uris": {"ios": "https://dc.lft.to/lastmile_qr_scan", "android": "https://dc.lft.to/lastmile_qr_scan"}, "bike_id": "0ad71165a95091061fe4d6d185fc0770", "lat": 38.90244416666667, "name": "0ad71165a95091061fe4d6d185fc0770", "lon": -77.01680683333333, "fusion_lon": 0.0}, {"is_reserved": 0, "type": "electric_scooter", "fusion_lat": 0.0, "is_disabled": 0, "rental_uris": {"ios": "https://dc.lft.to/lastmile_qr_scan", "android": "https://dc.lft.to/lastmile_qr_scan"}, "bike_id": "5f34756979956b55f02bea7fe265b24c", "lat": 38.88264983333333, "name": "5f34756979956b55f02bea7fe265b24c", "lon": -76.9952245, "fusion_lon": 0.0}, {"is_reserved": 0, "type": "electric_scooter", "fusion_lat": 0.0, "is_disabled": 0, "rental_uris": {"ios": "https://dc.lft.to/lastmile_qr_scan", "android": "https://dc.lft.to/lastmile_qr_scan"}, "bike_id": "79d98c7a4d76daab669b5b2dfe61f747", "lat": 38.903359, "name": "79d98c7a4d76daab669b5b2dfe61f747", "lon": -76.975913, "fusion_lon": 0.0}, {"is_reserved": 0, "type": "electric_scooter", "fusion_lat": 0.0, "is_disabled": 0, "rental_uris": {"ios": "https://dc.lft.to/lastmile_qr_scan", "android": "https://dc.lft.to/lastmile_qr_scan"}, "bike_id": "96cbd0d1d743f8166fdec325cab24ea7", "lat": 38.896685, "name": "96cbd0d1d743f8166fdec325cab24ea7", "lon": -77.01204183333333, "fusion_lon": 0.0}, {"is_reserved": 0, "type": "electric_scooter", "fusion_lat": 0.0, "is_disabled": 0, "rental_uris": {"ios": "https://dc.lft.to/lastmile_qr_scan", "android": "https://dc.lft.to/lastmile_qr_scan"}, "bike_id": "82992cdcd74c28bcce38ff307ee9e8c1", "lat": 38.90956933333333, "name": "82992cdcd74c28bcce38ff307ee9e8c1", "lon": -77.02380316666667, "fusion_lon": 0.0}, {"is_reserved": 0, "type": "electric_scooter", "fusion_lat": 0.0, "is_disabled": 0, "rental_uris": {"ios": "https://dc.lft.to/lastmile_qr_scan", "android": "https://dc.lft.to/lastmile_qr_scan"}, "bike_id": "117bcf960cf09d4e2aaf0efb93934504", "lat": 38.911985666666666, "name": "117bcf960cf09d4e2aaf0efb93934504", "lon": -77.00213833333333, "fusion_lon": 0.0}, {"is_reserved": 0, "type": "electric_scooter", "fusion_lat": 0.0, "is_disabled": 0, "rental_uris": {"ios": "https://dc.lft.to/lastmile_qr_scan", "android": "https://dc.lft.to/lastmile_qr_scan"}, "bike_id": "953b9da4ad3b4f72791f0481abb79ed1", "lat": 38.923869, "name": "953b9da4ad3b4f72791f0481abb79ed1", "lon": -77.051836, "fusion_lon": 0.0}, {"is_reserved": 0, "type": "electric_scooter", "fusion_lat": 0.0, "is_disabled": 0, "rental_uris": {"ios": "https://dc.lft.to/lastmile_qr_scan", "android": "https://dc.lft.to/lastmile_qr_scan"}, "bike_id": "9fd57808339e7eabdd7c224d722297ae", "lat": 38.91238333333333, "name": "9fd57808339e7eabdd7c224d722297ae", "lon": -77.00922116666666, "fusion_lon": 0.0}, {"is_reserved": 0, "type": "electric_scooter", "fusion_lat": 0.0, "is_disabled": 0, "rental_uris": {"ios": "https://dc.lft.to/lastmile_qr_scan", "android": "https://dc.lft.to/lastmile_qr_scan"}, "bike_id": "138b2d1a302f5e28eea79349485cb00f", "lat": 38.9020855, "name": "138b2d1a302f5e28eea79349485cb00f", "lon": -77.015406, "fusion_lon": 0.0}, {"is_reserved": 0, "type": "electric_scooter", "fusion_lat": 0.0, "is_disabled": 0, "rental_uris": {"ios": "https://dc.lft.to/lastmile_qr_scan", "android": "https://dc.lft.to/lastmile_qr_scan"}, "bike_id": "4b844839bcb6c683b34d81965096b15f", "lat": 38.91987966666667, "name": "4b844839bcb6c683b34d81965096b15f", "lon": -76.9730225, "fusion_lon": 0.0}, {"is_reserved": 0, "type": "electric_bike", "fusion_lat": 0.0, "is_disabled": 0, "rental_uris": {"ios": "https://dc.lft.to/lastmile_qr_scan", "android": "https://dc.lft.to/lastmile_qr_scan"}, "bike_id": "936a94b657e85a192b34192c1975ff44", "lat": 38.842971, "name": "936a94b657e85a192b34192c1975ff44", "lon": -76.98842366666666, "fusion_lon": 0.0}, {"is_reserved": 0, "type": "electric_scooter", "fusion_lat": 0.0, "is_disabled": 0, "rental_uris": {"ios": "https://dc.lft.to/lastmile_qr_scan", "android": "https://dc.lft.to/lastmile_qr_scan"}, "bike_id": "61017634ec27b0630267a754d379808d", "lat": 38.8766525, "name": "61017634ec27b0630267a754d379808d", "lon": -77.00090583333333, "fusion_lon": 0.0}, {"is_reserved": 0, "type": "electric_scooter", "fusion_lat": 0.0, "is_disabled": 0, "rental_uris": {"ios": "https://dc.lft.to/lastmile_qr_scan", "android": "https://dc.lft.to/lastmile_qr_scan"}, "bike_id": "e28475eee84f404e04c726ac95034f57", "lat": 38.916157, "name": "e28475eee84f404e04c726ac95034f57", "lon": -77.03190833333333, "fusion_lon": 0.0}, {"is_reserved": 0, "type": "electric_scooter", "fusion_lat": 0.0, "is_disabled": 0, "rental_uris": {"ios": "https://dc.lft.to/lastmile_qr_scan", "android": "https://dc.lft.to/lastmile_qr_scan"}, "bike_id": "95e5b853bd56350cd57d6ac4e9559b5b", "lat": 38.94595783333333, "name": "95e5b853bd56350cd57d6ac4e9559b5b", "lon": -77.0203635, "fusion_lon": 0.0}, {"is_reserved": 0, "type": "electric_scooter", "fusion_lat": 0.0, "is_disabled": 0, "rental_uris": {"ios": "https://dc.lft.to/lastmile_qr_scan", "android": "https://dc.lft.to/lastmile_qr_scan"}, "bike_id": "92fc61ae14b5b32098860326e885efdd", "lat": 38.909497, "name": "92fc61ae14b5b32098860326e885efdd", "lon": -76.9853935, "fusion_lon": 0.0}, {"is_reserved": 0, "type": "electric_scooter", "fusion_lat": 0.0, "is_disabled": 0, "rental_uris": {"ios": "https://dc.lft.to/lastmile_qr_scan", "android": "https://dc.lft.to/lastmile_qr_scan"}, "bike_id": "71204e8ccc6e9e1c1de5ebfa73d5c97c", "lat": 38.8975135, "name": "71204e8ccc6e9e1c1de5ebfa73d5c97c", "lon": -77.0514585, "fusion_lon": 0.0}, {"is_reserved": 0, "type": "electric_scooter", "fusion_lat": 0.0, "is_disabled": 0, "rental_uris": {"ios": "https://dc.lft.to/lastmile_qr_scan", "android": "https://dc.lft.to/lastmile_qr_scan"}, "bike_id": "bef19ae9b7af8f97264a8936103630bd", "lat": 38.90208716666667, "name": "bef19ae9b7af8f97264a8936103630bd", "lon": -76.98704666666667, "fusion_lon": 0.0}, {"is_reserved": 0, "type": "electric_scooter", "fusion_lat": 0.0, "is_disabled": 0, "rental_uris": {"ios": "https://dc.lft.to/lastmile_qr_scan", "android": "https://dc.lft.to/lastmile_qr_scan"}, "bike_id": "f98f17630ab35e2ead3274d4bcd1689a", "lat": 38.912641666666666, "name": "f98f17630ab35e2ead3274d4bcd1689a", "lon": -77.046027, "fusion_lon": 0.0}, {"is_reserved": 0, "type": "electric_scooter", "fusion_lat": 0.0, "is_disabled": 0, "rental_uris": {"ios": "https://dc.lft.to/lastmile_qr_scan", "android": "https://dc.lft.to/lastmile_qr_scan"}, "bike_id": "d208a26a4f54a00e473be236bb0c250a", "lat": 38.918133166666664, "name": "d208a26a4f54a00e473be236bb0c250a", "lon": -77.02476483333334, "fusion_lon": 0.0}, {"is_reserved": 0, "type": "electric_scooter", "fusion_lat": 0.0, "is_disabled": 0, "rental_uris": {"ios": "https://dc.lft.to/lastmile_qr_scan", "android": "https://dc.lft.to/lastmile_qr_scan"}, "bike_id": "83f1fe297a12f36359a715d3776579b0", "lat": 38.90563933333333, "name": "83f1fe297a12f36359a715d3776579b0", "lon": -77.01719683333333, "fusion_lon": 0.0}, {"is_reserved": 0, "type": "electric_scooter", "fusion_lat": 0.0, "is_disabled": 0, "rental_uris": {"ios": "https://dc.lft.to/lastmile_qr_scan", "android": "https://dc.lft.to/lastmile_qr_scan"}, "bike_id": "9b08a222a571e9ae1c31faad41462aa4", "lat": 38.89734283333333, "name": "9b08a222a571e9ae1c31faad41462aa4", "lon": -77.02549083333334, "fusion_lon": 0.0}, {"is_reserved": 0, "type": "electric_scooter", "fusion_lat": 0.0, "is_disabled": 0, "rental_uris": {"ios": "https://dc.lft.to/lastmile_qr_scan", "android": "https://dc.lft.to/lastmile_qr_scan"}, "bike_id": "3049fc9ad26ab639f9e8468ca88969b2", "lat": 38.94265433333333, "name": "3049fc9ad26ab639f9e8468ca88969b2", "lon": -76.98470016666667, "fusion_lon": 0.0}, {"is_reserved": 0, "type": "electric_bike", "fusion_lat": 0.0, "is_disabled": 0, "rental_uris": {"ios": "https://dc.lft.to/lastmile_qr_scan", "android": "https://dc.lft.to/lastmile_qr_scan"}, "bike_id": "4ae53c40f9d21ea4e5d506c93a728f12", "lat": 38.90693533333334, "name": "4ae53c40f9d21ea4e5d506c93a728f12", "lon": -76.952542, "fusion_lon": 0.0}, {"is_reserved": 0, "type": "electric_scooter", "fusion_lat": 0.0, "is_disabled": 0, "rental_uris": {"ios": "https://dc.lft.to/lastmile_qr_scan", "android": "https://dc.lft.to/lastmile_qr_scan"}, "bike_id": "7ed0febd31aab15cb23124cf019c82ef", "lat": 38.88358383333333, "name": "7ed0febd31aab15cb23124cf019c82ef", "lon": -76.95767916666667, "fusion_lon": 0.0}, {"is_reserved": 0, "type": "electric_scooter", "fusion_lat": 0.0, "is_disabled": 0, "rental_uris": {"ios": "https://dc.lft.to/lastmile_qr_scan", "android": "https://dc.lft.to/lastmile_qr_scan"}, "bike_id": "9b23f2ae3d390e1c4fb7f78562af560b", "lat": 38.89661666666667, "name": "9b23f2ae3d390e1c4fb7f78562af560b", "lon": -77.050904, "fusion_lon": 0.0}, {"is_reserved": 0, "type": "electric_scooter", "fusion_lat": 0.0, "is_disabled": 0, "rental_uris": {"ios": "https://dc.lft.to/lastmile_qr_scan", "android": "https://dc.lft.to/lastmile_qr_scan"}, "bike_id": "36ceb77d9b785544730614fb3d57b204", "lat": 38.911911833333335, "name": "36ceb77d9b785544730614fb3d57b204", "lon": -77.06090233333333, "fusion_lon": 0.0}, {"is_reserved": 0, "type": "electric_scooter", "fusion_lat": 0.0, "is_disabled": 0, "rental_uris": {"ios": "https://dc.lft.to/lastmile_qr_scan", "android": "https://dc.lft.to/lastmile_qr_scan"}, "bike_id": "b369bb9ca5ca41c935c5603c050bae5d", "lat": 38.94717383333333, "name": "b369bb9ca5ca41c935c5603c050bae5d", "lon": -77.06803733333334, "fusion_lon": 0.0}, {"is_reserved": 0, "type": "electric_scooter", "fusion_lat": 0.0, "is_disabled": 0, "rental_uris": {"ios": "https://dc.lft.to/lastmile_qr_scan", "android": "https://dc.lft.to/lastmile_qr_scan"}, "bike_id": "8349f6d4a96d0b4fd55e5e594d96bd2e", "lat": 38.89536066666667, "name": "8349f6d4a96d0b4fd55e5e594d96bd2e", "lon": -76.98834866666667, "fusion_lon": 0.0}, {"is_reserved": 0, "type": "electric_scooter", "fusion_lat": 0.0, "is_disabled": 0, "rental_uris": {"ios": "https://dc.lft.to/lastmile_qr_scan", "android": "https://dc.lft.to/lastmile_qr_scan"}, "bike_id": "e045490c7a71db0afdc20a04425e29d4", "lat": 38.899779, "name": "e045490c7a71db0afdc20a04425e29d4", "lon": -77.04486283333334, "fusion_lon": 0.0}, {"is_reserved": 0, "type": "electric_scooter", "fusion_lat": 0.0, "is_disabled": 0, "rental_uris": {"ios": "https://dc.lft.to/lastmile_qr_scan", "android": "https://dc.lft.to/lastmile_qr_scan"}, "bike_id": "f8ee45559cc57372be424e314dbde972", "lat": 38.94823, "name": "f8ee45559cc57372be424e314dbde972", "lon": -77.02613916666667, "fusion_lon": 0.0}, {"is_reserved": 0, "type": "electric_scooter", "fusion_lat": 0.0, "is_disabled": 0, "rental_uris": {"ios": "https://dc.lft.to/lastmile_qr_scan", "android": "https://dc.lft.to/lastmile_qr_scan"}, "bike_id": "5b6603df9fd370b18a5f93bdeb10c47c", "lat": 38.876642833333335, "name": "5b6603df9fd370b18a5f93bdeb10c47c", "lon": -77.00084, "fusion_lon": 0.0}, {"is_reserved": 0, "type": "electric_scooter", "fusion_lat": 0.0, "is_disabled": 0, "rental_uris": {"ios": "https://dc.lft.to/lastmile_qr_scan", "android": "https://dc.lft.to/lastmile_qr_scan"}, "bike_id": "648e1bac752070fdbd3570115f6b40f0", "lat": 38.881388333333334, "name": "648e1bac752070fdbd3570115f6b40f0", "lon": -77.020144, "fusion_lon": 0.0}, {"is_reserved": 0, "type": "electric_scooter", "fusion_lat": 0.0, "is_disabled": 0, "rental_uris": {"ios": "https://dc.lft.to/lastmile_qr_scan", "android": "https://dc.lft.to/lastmile_qr_scan"}, "bike_id": "f24f6d463f77178f80d8678d3bb1454a", "lat": 38.920733, "name": "f24f6d463f77178f80d8678d3bb1454a", "lon": -77.02411916666667, "fusion_lon": 0.0}, {"is_reserved": 0, "type": "electric_bike", "fusion_lat": 0.0, "is_disabled": 0, "rental_uris": {"ios": "https://dc.lft.to/lastmile_qr_scan", "android": "https://dc.lft.to/lastmile_qr_scan"}, "bike_id": "1d73de8430ac9c178624fa1490bec189", "lat": 38.813342666666664, "name": "1d73de8430ac9c178624fa1490bec189", "lon": -77.05110883333333, "fusion_lon": 0.0}, {"is_reserved": 0, "type": "electric_scooter", "fusion_lat": 0.0, "is_disabled": 0, "rental_uris": {"ios": "https://dc.lft.to/lastmile_qr_scan", "android": "https://dc.lft.to/lastmile_qr_scan"}, "bike_id": "c17b2b08b0c192375963aabc0516d695", "lat": 38.89199466666667, "name": "c17b2b08b0c192375963aabc0516d695", "lon": -77.01552283333334, "fusion_lon": 0.0}, {"is_reserved": 0, "type": "electric_scooter", "fusion_lat": 0.0, "is_disabled": 0, "rental_uris": {"ios": "https://dc.lft.to/lastmile_qr_scan", "android": "https://dc.lft.to/lastmile_qr_scan"}, "bike_id": "0dabbcddaa8dfd616d025b8d61aa15f8", "lat": 38.91797666666667, "name": "0dabbcddaa8dfd616d025b8d61aa15f8", "lon": -77.04450466666667, "fusion_lon": 0.0}, {"is_reserved": 0, "type": "electric_scooter", "fusion_lat": 0.0, "is_disabled": 0, "rental_uris": {"ios": "https://dc.lft.to/lastmile_qr_scan", "android": "https://dc.lft.to/lastmile_qr_scan"}, "bike_id": "48f42f6a3d94d94e4a2d846ee3ae0bfe", "lat": 38.90235, "name": "48f42f6a3d94d94e4a2d846ee3ae0bfe", "lon": -77.0006305, "fusion_lon": 0.0}, {"is_reserved": 0, "type": "electric_scooter", "fusion_lat": 0.0, "is_disabled": 0, "rental_uris": {"ios": "https://dc.lft.to/lastmile_qr_scan", "android": "https://dc.lft.to/lastmile_qr_scan"}, "bike_id": "025a838e91f3c5bbd59f2aaeea6e15aa", "lat": 38.89906166666667, "name": "025a838e91f3c5bbd59f2aaeea6e15aa", "lon": -77.023094, "fusion_lon": 0.0}, {"is_reserved": 0, "type": "electric_bike", "fusion_lat": 0.0, "is_disabled": 0, "rental_uris": {"ios": "https://dc.lft.to/lastmile_qr_scan", "android": "https://dc.lft.to/lastmile_qr_scan"}, "bike_id": "a7b2a5683b463f2c1206052ad91e86e6", "lat": 38.95687866666667, "name": "a7b2a5683b463f2c1206052ad91e86e6", "lon": -77.02227516666666, "fusion_lon": 0.0}, {"is_reserved": 0, "type": "electric_scooter", "fusion_lat": 0.0, "is_disabled": 0, "rental_uris": {"ios": "https://dc.lft.to/lastmile_qr_scan", "android": "https://dc.lft.to/lastmile_qr_scan"}, "bike_id": "134a6613d09facb6c9a527be2ab359ac", "lat": 38.912709166666666, "name": "134a6613d09facb6c9a527be2ab359ac", "lon": -77.03649566666667, "fusion_lon": 0.0}, {"is_reserved": 0, "type": "electric_scooter", "fusion_lat": 0.0, "is_disabled": 0, "rental_uris": {"ios": "https://dc.lft.to/lastmile_qr_scan", "android": "https://dc.lft.to/lastmile_qr_scan"}, "bike_id": "1f6717fdfadf7997fdafe3d38f3fcd81", "lat": 38.94325716666667, "name": "1f6717fdfadf7997fdafe3d38f3fcd81", "lon": -77.013198, "fusion_lon": 0.0}, {"is_reserved": 0, "type": "electric_scooter", "fusion_lat": 0.0, "is_disabled": 0, "rental_uris": {"ios": "https://dc.lft.to/lastmile_qr_scan", "android": "https://dc.lft.to/lastmile_qr_scan"}, "bike_id": "f6b6cc9d2e7340ff201f36c347bc27dc", "lat": 38.89989466666667, "name": "f6b6cc9d2e7340ff201f36c347bc27dc", "lon": -77.02608416666666, "fusion_lon": 0.0}, {"is_reserved": 0, "type": "electric_scooter", "fusion_lat": 0.0, "is_disabled": 0, "rental_uris": {"ios": "https://dc.lft.to/lastmile_qr_scan", "android": "https://dc.lft.to/lastmile_qr_scan"}, "bike_id": "c8d1407490aad6c32ec7b02509fec6e8", "lat": 38.93699016666667, "name": "c8d1407490aad6c32ec7b02509fec6e8", "lon": -77.05602333333333, "fusion_lon": 0.0}, {"is_reserved": 0, "type": "electric_scooter", "fusion_lat": 0.0, "is_disabled": 0, "rental_uris": {"ios": "https://dc.lft.to/lastmile_qr_scan", "android": "https://dc.lft.to/lastmile_qr_scan"}, "bike_id": "8834056e12cf532171da66b2027dcc77", "lat": 38.893292333333335, "name": "8834056e12cf532171da66b2027dcc77", "lon": -76.93925616666667, "fusion_lon": 0.0}, {"is_reserved": 0, "type": "electric_scooter", "fusion_lat": 0.0, "is_disabled": 0, "rental_uris": {"ios": "https://dc.lft.to/lastmile_qr_scan", "android": "https://dc.lft.to/lastmile_qr_scan"}, "bike_id": "f38f45f724bd03349eb7be5089db9e9f", "lat": 38.91274583333333, "name": "f38f45f724bd03349eb7be5089db9e9f", "lon": -77.01026566666667, "fusion_lon": 0.0}, {"is_reserved": 0, "type": "electric_scooter", "fusion_lat": 0.0, "is_disabled": 0, "rental_uris": {"ios": "https://dc.lft.to/lastmile_qr_scan", "android": "https://dc.lft.to/lastmile_qr_scan"}, "bike_id": "c763ca510445b0dbed6ba9b70485aeb3", "lat": 38.908601833333336, "name": "c763ca510445b0dbed6ba9b70485aeb3", "lon": -77.0415615, "fusion_lon": 0.0}, {"is_reserved": 0, "type": "electric_scooter", "fusion_lat": 0.0, "is_disabled": 0, "rental_uris": {"ios": "https://dc.lft.to/lastmile_qr_scan", "android": "https://dc.lft.to/lastmile_qr_scan"}, "bike_id": "3b6cebb5326a962a9c8e188e6af2616b", "lat": 38.885813666666664, "name": "3b6cebb5326a962a9c8e188e6af2616b", "lon": -77.01230216666667, "fusion_lon": 0.0}, {"is_reserved": 0, "type": "electric_scooter", "fusion_lat": 0.0, "is_disabled": 0, "rental_uris": {"ios": "https://dc.lft.to/lastmile_qr_scan", "android": "https://dc.lft.to/lastmile_qr_scan"}, "bike_id": "78839707f305062dc094df13a9b9ae94", "lat": 38.95256533333333, "name": "78839707f305062dc094df13a9b9ae94", "lon": -77.02075566666667, "fusion_lon": 0.0}, {"is_reserved": 0, "type": "electric_scooter", "fusion_lat": 0.0, "is_disabled": 0, "rental_uris": {"ios": "https://dc.lft.to/lastmile_qr_scan", "android": "https://dc.lft.to/lastmile_qr_scan"}, "bike_id": "8286677726b7c1b16eb6419149cc5cd7", "lat": 38.92362333333333, "name": "8286677726b7c1b16eb6419149cc5cd7", "lon": -77.05241083333334, "fusion_lon": 0.0}, {"is_reserved": 0, "type": "electric_scooter", "fusion_lat": 0.0, "is_disabled": 0, "rental_uris": {"ios": "https://dc.lft.to/lastmile_qr_scan", "android": "https://dc.lft.to/lastmile_qr_scan"}, "bike_id": "78978b777bce6ecaf8b9cf689a43f566", "lat": 38.9156575, "name": "78978b777bce6ecaf8b9cf689a43f566", "lon": -77.040118, "fusion_lon": 0.0}, {"is_reserved": 0, "type": "electric_scooter", "fusion_lat": 0.0, "is_disabled": 0, "rental_uris": {"ios": "https://dc.lft.to/lastmile_qr_scan", "android": "https://dc.lft.to/lastmile_qr_scan"}, "bike_id": "025c9bfe557dfe950794d36d92e3ce8c", "lat": 38.870702666666666, "name": "025c9bfe557dfe950794d36d92e3ce8c", "lon": -76.98128083333333, "fusion_lon": 0.0}, {"is_reserved": 0, "type": "electric_scooter", "fusion_lat": 0.0, "is_disabled": 0, "rental_uris": {"ios": "https://dc.lft.to/lastmile_qr_scan", "android": "https://dc.lft.to/lastmile_qr_scan"}, "bike_id": "e2bf001deb8a6576dcdfcb3b392d8bca", "lat": 38.91660616666667, "name": "e2bf001deb8a6576dcdfcb3b392d8bca", "lon": -77.022905, "fusion_lon": 0.0}, {"is_reserved": 0, "type": "electric_scooter", "fusion_lat": 0.0, "is_disabled": 0, "rental_uris": {"ios": "https://dc.lft.to/lastmile_qr_scan", "android": "https://dc.lft.to/lastmile_qr_scan"}, "bike_id": "96072ba5243c27a1c0f08df897dfb1cb", "lat": 38.9302935, "name": "96072ba5243c27a1c0f08df897dfb1cb", "lon": -77.06073316666667, "fusion_lon": 0.0}, {"is_reserved": 0, "type": "electric_scooter", "fusion_lat": 0.0, "is_disabled": 0, "rental_uris": {"ios": "https://dc.lft.to/lastmile_qr_scan", "android": "https://dc.lft.to/lastmile_qr_scan"}, "bike_id": "1b25e55c633065ad8eed0f63cea48c9e", "lat": 38.91404033333333, "name": "1b25e55c633065ad8eed0f63cea48c9e", "lon": -77.045093, "fusion_lon": 0.0}, {"is_reserved": 0, "type": "electric_scooter", "fusion_lat": 0.0, "is_disabled": 0, "rental_uris": {"ios": "https://dc.lft.to/lastmile_qr_scan", "android": "https://dc.lft.to/lastmile_qr_scan"}, "bike_id": "4da4d308a16859ac7e01e5e889271540", "lat": 38.90851816666667, "name": "4da4d308a16859ac7e01e5e889271540", "lon": -77.024628, "fusion_lon": 0.0}, {"is_reserved": 0, "type": "electric_scooter", "fusion_lat": 0.0, "is_disabled": 0, "rental_uris": {"ios": "https://dc.lft.to/lastmile_qr_scan", "android": "https://dc.lft.to/lastmile_qr_scan"}, "bike_id": "5185704858efa117ff03415e03871f29", "lat": 38.89481166666667, "name": "5185704858efa117ff03415e03871f29", "lon": -76.94869666666666, "fusion_lon": 0.0}, {"is_reserved": 0, "type": "electric_scooter", "fusion_lat": 0.0, "is_disabled": 0, "rental_uris": {"ios": "https://dc.lft.to/lastmile_qr_scan", "android": "https://dc.lft.to/lastmile_qr_scan"}, "bike_id": "f8efef45404702872210ad48ca8dbc3a", "lat": 38.911588, "name": "f8efef45404702872210ad48ca8dbc3a", "lon": -77.04485466666667, "fusion_lon": 0.0}, {"is_reserved": 0, "type": "electric_scooter", "fusion_lat": 0.0, "is_disabled": 0, "rental_uris": {"ios": "https://dc.lft.to/lastmile_qr_scan", "android": "https://dc.lft.to/lastmile_qr_scan"}, "bike_id": "6778027e36a930f36482c310731e4468", "lat": 38.893287666666666, "name": "6778027e36a930f36482c310731e4468", "lon": -76.93932083333334, "fusion_lon": 0.0}, {"is_reserved": 0, "type": "electric_scooter", "fusion_lat": 0.0, "is_disabled": 0, "rental_uris": {"ios": "https://dc.lft.to/lastmile_qr_scan", "android": "https://dc.lft.to/lastmile_qr_scan"}, "bike_id": "6da60658b234a0194bd0b1f29ffebeda", "lat": 38.917652, "name": "6da60658b234a0194bd0b1f29ffebeda", "lon": -77.004482, "fusion_lon": 0.0}, {"is_reserved": 0, "type": "electric_bike", "fusion_lat": 0.0, "is_disabled": 0, "rental_uris": {"ios": "https://dc.lft.to/lastmile_qr_scan", "android": "https://dc.lft.to/lastmile_qr_scan"}, "bike_id": "39b06a046b51583d355e10b82dadf615", "lat": 38.875776333333334, "name": "39b06a046b51583d355e10b82dadf615", "lon": -77.23411483333334, "fusion_lon": 0.0}, {"is_reserved": 0, "type": "electric_bike", "fusion_lat": 0.0, "is_disabled": 0, "rental_uris": {"ios": "https://dc.lft.to/lastmile_qr_scan", "android": "https://dc.lft.to/lastmile_qr_scan"}, "bike_id": "a2f681e45bb5fe817241f3c1660400e5", "lat": 38.8766625, "name": "a2f681e45bb5fe817241f3c1660400e5", "lon": -77.02093166666667, "fusion_lon": 0.0}, {"is_reserved": 0, "type": "electric_scooter", "fusion_lat": 0.0, "is_disabled": 0, "rental_uris": {"ios": "https://dc.lft.to/lastmile_qr_scan", "android": "https://dc.lft.to/lastmile_qr_scan"}, "bike_id": "be99600c283422d8f1d03c8d77d3767c", "lat": 38.9028165, "name": "be99600c283422d8f1d03c8d77d3767c", "lon": -77.017442, "fusion_lon": 0.0}, {"is_reserved": 0, "type": "electric_scooter", "fusion_lat": 0.0, "is_disabled": 0, "rental_uris": {"ios": "https://dc.lft.to/lastmile_qr_scan", "android": "https://dc.lft.to/lastmile_qr_scan"}, "bike_id": "c506405948bf360a920c56c4d8586b6a", "lat": 38.924360166666666, "name": "c506405948bf360a920c56c4d8586b6a", "lon": -77.04239816666667, "fusion_lon": 0.0}, {"is_reserved": 0, "type": "electric_bike", "fusion_lat": 0.0, "is_disabled": 0, "rental_uris": {"ios": "https://dc.lft.to/lastmile_qr_scan", "android": "https://dc.lft.to/lastmile_qr_scan"}, "bike_id": "5b16fc86c65613c4ea403d2984acfd2c", "lat": 38.903713333333336, "name": "5b16fc86c65613c4ea403d2984acfd2c", "lon": -76.93747583333334, "fusion_lon": 0.0}, {"is_reserved": 0, "type": "electric_scooter", "fusion_lat": 0.0, "is_disabled": 0, "rental_uris": {"ios": "https://dc.lft.to/lastmile_qr_scan", "android": "https://dc.lft.to/lastmile_qr_scan"}, "bike_id": "ebd076e2c1803924934e70b34e2c0c84", "lat": 38.915607666666666, "name": "ebd076e2c1803924934e70b34e2c0c84", "lon": -77.04096833333334, "fusion_lon": 0.0}, {"is_reserved": 0, "type": "electric_scooter", "fusion_lat": 0.0, "is_disabled": 0, "rental_uris": {"ios": "https://dc.lft.to/lastmile_qr_scan", "android": "https://dc.lft.to/lastmile_qr_scan"}, "bike_id": "098765896ab9082bd3953d06234ac4bf", "lat": 38.93601016666667, "name": "098765896ab9082bd3953d06234ac4bf", "lon": -77.05595166666667, "fusion_lon": 0.0}, {"is_reserved": 0, "type": "electric_scooter", "fusion_lat": 0.0, "is_disabled": 0, "rental_uris": {"ios": "https://dc.lft.to/lastmile_qr_scan", "android": "https://dc.lft.to/lastmile_qr_scan"}, "bike_id": "178d9eba28a09d1f9e489cfa3f795ddb", "lat": 38.90376916666666, "name": "178d9eba28a09d1f9e489cfa3f795ddb", "lon": -77.00757116666666, "fusion_lon": 0.0}, {"is_reserved": 0, "type": "electric_scooter", "fusion_lat": 0.0, "is_disabled": 0, "rental_uris": {"ios": "https://dc.lft.to/lastmile_qr_scan", "android": "https://dc.lft.to/lastmile_qr_scan"}, "bike_id": "e1f510c884c6083c8201d857f86a5b18", "lat": 38.921289333333334, "name": "e1f510c884c6083c8201d857f86a5b18", "lon": -77.0442835, "fusion_lon": 0.0}, {"is_reserved": 0, "type": "electric_scooter", "fusion_lat": 0.0, "is_disabled": 0, "rental_uris": {"ios": "https://dc.lft.to/lastmile_qr_scan", "android": "https://dc.lft.to/lastmile_qr_scan"}, "bike_id": "e1cc0d8d288ab901680f1e66fdda4f3f", "lat": 38.90357816666667, "name": "e1cc0d8d288ab901680f1e66fdda4f3f", "lon": -77.060107, "fusion_lon": 0.0}, {"is_reserved": 0, "type": "electric_scooter", "fusion_lat": 0.0, "is_disabled": 0, "rental_uris": {"ios": "https://dc.lft.to/lastmile_qr_scan", "android": "https://dc.lft.to/lastmile_qr_scan"}, "bike_id": "a7753fcb990f439cf32e313015466851", "lat": 38.8993785, "name": "a7753fcb990f439cf32e313015466851", "lon": -77.05398033333333, "fusion_lon": 0.0}, {"is_reserved": 0, "type": "electric_scooter", "fusion_lat": 0.0, "is_disabled": 0, "rental_uris": {"ios": "https://dc.lft.to/lastmile_qr_scan", "android": "https://dc.lft.to/lastmile_qr_scan"}, "bike_id": "41d8f6f9924151ecda4770b63672c696", "lat": 38.8852975, "name": "41d8f6f9924151ecda4770b63672c696", "lon": -76.98054866666666, "fusion_lon": 0.0}, {"is_reserved": 0, "type": "electric_scooter", "fusion_lat": 0.0, "is_disabled": 0, "rental_uris": {"ios": "https://dc.lft.to/lastmile_qr_scan", "android": "https://dc.lft.to/lastmile_qr_scan"}, "bike_id": "857ec6010df50f7ed6d621a498dc2185", "lat": 38.93486383333333, "name": "857ec6010df50f7ed6d621a498dc2185", "lon": -77.03639983333333, "fusion_lon": 0.0}, {"is_reserved": 0, "type": "electric_bike", "fusion_lat": 0.0, "is_disabled": 0, "rental_uris": {"ios": "https://dc.lft.to/lastmile_qr_scan", "android": "https://dc.lft.to/lastmile_qr_scan"}, "bike_id": "156945fc1b2c4ff757bba3340da3f8b1", "lat": 38.83868866666667, "name": "156945fc1b2c4ff757bba3340da3f8b1", "lon": -76.9969575, "fusion_lon": 0.0}, {"is_reserved": 0, "type": "electric_scooter", "fusion_lat": 0.0, "is_disabled": 0, "rental_uris": {"ios": "https://dc.lft.to/lastmile_qr_scan", "android": "https://dc.lft.to/lastmile_qr_scan"}, "bike_id": "d83c7fda16c06d28e6097a75e7c9c756", "lat": 38.910439, "name": "d83c7fda16c06d28e6097a75e7c9c756", "lon": -77.04350983333333, "fusion_lon": 0.0}, {"is_reserved": 0, "type": "electric_scooter", "fusion_lat": 0.0, "is_disabled": 0, "rental_uris": {"ios": "https://dc.lft.to/lastmile_qr_scan", "android": "https://dc.lft.to/lastmile_qr_scan"}, "bike_id": "975509a8a3eb4cf6a656eec2d24ef3b0", "lat": 38.919123166666665, "name": "975509a8a3eb4cf6a656eec2d24ef3b0", "lon": -77.01163216666667, "fusion_lon": 0.0}, {"is_reserved": 0, "type": "electric_scooter", "fusion_lat": 0.0, "is_disabled": 0, "rental_uris": {"ios": "https://dc.lft.to/lastmile_qr_scan", "android": "https://dc.lft.to/lastmile_qr_scan"}, "bike_id": "d89b11287e4c625b77fe0eb089d9be21", "lat": 38.898753666666664, "name": "d89b11287e4c625b77fe0eb089d9be21", "lon": -77.046461, "fusion_lon": 0.0}, {"is_reserved": 0, "type": "electric_scooter", "fusion_lat": 0.0, "is_disabled": 0, "rental_uris": {"ios": "https://dc.lft.to/lastmile_qr_scan", "android": "https://dc.lft.to/lastmile_qr_scan"}, "bike_id": "ebf5f091fc256ff2c3c39984e2b52147", "lat": 38.894345, "name": "ebf5f091fc256ff2c3c39984e2b52147", "lon": -77.044794, "fusion_lon": 0.0}, {"is_reserved": 0, "type": "electric_scooter", "fusion_lat": 0.0, "is_disabled": 0, "rental_uris": {"ios": "https://dc.lft.to/lastmile_qr_scan", "android": "https://dc.lft.to/lastmile_qr_scan"}, "bike_id": "4f94611d137b71efd299f3911281b4cc", "lat": 38.927916833333335, "name": "4f94611d137b71efd299f3911281b4cc", "lon": -77.03151583333333, "fusion_lon": 0.0}, {"is_reserved": 0, "type": "electric_scooter", "fusion_lat": 0.0, "is_disabled": 0, "rental_uris": {"ios": "https://dc.lft.to/lastmile_qr_scan", "android": "https://dc.lft.to/lastmile_qr_scan"}, "bike_id": "e0e6ba218c346675f235bef930bcb96f", "lat": 38.876722, "name": "e0e6ba218c346675f235bef930bcb96f", "lon": -77.00327316666667, "fusion_lon": 0.0}, {"is_reserved": 0, "type": "electric_scooter", "fusion_lat": 0.0, "is_disabled": 0, "rental_uris": {"ios": "https://dc.lft.to/lastmile_qr_scan", "android": "https://dc.lft.to/lastmile_qr_scan"}, "bike_id": "4a7d30bf30ad13d4664a0ad97df014aa", "lat": 38.8861205, "name": "4a7d30bf30ad13d4664a0ad97df014aa", "lon": -77.00336983333334, "fusion_lon": 0.0}, {"is_reserved": 0, "type": "electric_scooter", "fusion_lat": 0.0, "is_disabled": 0, "rental_uris": {"ios": "https://dc.lft.to/lastmile_qr_scan", "android": "https://dc.lft.to/lastmile_qr_scan"}, "bike_id": "c72536201a6b645f1b0df73702a472e9", "lat": 38.931904833333334, "name": "c72536201a6b645f1b0df73702a472e9", "lon": -77.01986166666667, "fusion_lon": 0.0}, {"is_reserved": 0, "type": "electric_scooter", "fusion_lat": 0.0, "is_disabled": 0, "rental_uris": {"ios": "https://dc.lft.to/lastmile_qr_scan", "android": "https://dc.lft.to/lastmile_qr_scan"}, "bike_id": "8bb4b57d687a07fe20c0085b0b03d0f6", "lat": 38.88170383333333, "name": "8bb4b57d687a07fe20c0085b0b03d0f6", "lon": -77.01740366666667, "fusion_lon": 0.0}, {"is_reserved": 0, "type": "electric_scooter", "fusion_lat": 0.0, "is_disabled": 0, "rental_uris": {"ios": "https://dc.lft.to/lastmile_qr_scan", "android": "https://dc.lft.to/lastmile_qr_scan"}, "bike_id": "4d84b9e7c15fcc7b777a40af54aae2ec", "lat": 38.920117833333336, "name": "4d84b9e7c15fcc7b777a40af54aae2ec", "lon": -77.0417335, "fusion_lon": 0.0}, {"is_reserved": 0, "type": "electric_scooter", "fusion_lat": 0.0, "is_disabled": 0, "rental_uris": {"ios": "https://dc.lft.to/lastmile_qr_scan", "android": "https://dc.lft.to/lastmile_qr_scan"}, "bike_id": "134f788f67eb777c347e65e556ff942f", "lat": 38.885411833333336, "name": "134f788f67eb777c347e65e556ff942f", "lon": -76.9544475, "fusion_lon": 0.0}, {"is_reserved": 0, "type": "electric_scooter", "fusion_lat": 0.0, "is_disabled": 0, "rental_uris": {"ios": "https://dc.lft.to/lastmile_qr_scan", "android": "https://dc.lft.to/lastmile_qr_scan"}, "bike_id": "ce51cd6b334ca26be7193ae92a366ead", "lat": 38.9431555, "name": "ce51cd6b334ca26be7193ae92a366ead", "lon": -77.07645133333334, "fusion_lon": 0.0}, {"is_reserved": 0, "type": "electric_scooter", "fusion_lat": 0.0, "is_disabled": 0, "rental_uris": {"ios": "https://dc.lft.to/lastmile_qr_scan", "android": "https://dc.lft.to/lastmile_qr_scan"}, "bike_id": "de87768f8c0abcdf38360c699bad5c52", "lat": 38.89231983333333, "name": "de87768f8c0abcdf38360c699bad5c52", "lon": -77.023834, "fusion_lon": 0.0}, {"is_reserved": 0, "type": "electric_scooter", "fusion_lat": 0.0, "is_disabled": 0, "rental_uris": {"ios": "https://dc.lft.to/lastmile_qr_scan", "android": "https://dc.lft.to/lastmile_qr_scan"}, "bike_id": "a94b42cdcfaf71300fbd96655ef27086", "lat": 38.91973383333333, "name": "a94b42cdcfaf71300fbd96655ef27086", "lon": -77.03965683333334, "fusion_lon": 0.0}, {"is_reserved": 0, "type": "electric_scooter", "fusion_lat": 0.0, "is_disabled": 0, "rental_uris": {"ios": "https://dc.lft.to/lastmile_qr_scan", "android": "https://dc.lft.to/lastmile_qr_scan"}, "bike_id": "30cc480b4343e5cf452c7cb8acb93c4d", "lat": 38.91536716666667, "name": "30cc480b4343e5cf452c7cb8acb93c4d", "lon": -77.044415, "fusion_lon": 0.0}, {"is_reserved": 0, "type": "electric_scooter", "fusion_lat": 0.0, "is_disabled": 0, "rental_uris": {"ios": "https://dc.lft.to/lastmile_qr_scan", "android": "https://dc.lft.to/lastmile_qr_scan"}, "bike_id": "b7aac3ff6293ae04d85b6964498732f2", "lat": 38.902652833333335, "name": "b7aac3ff6293ae04d85b6964498732f2", "lon": -77.039708, "fusion_lon": 0.0}, {"is_reserved": 0, "type": "electric_scooter", "fusion_lat": 0.0, "is_disabled": 0, "rental_uris": {"ios": "https://dc.lft.to/lastmile_qr_scan", "android": "https://dc.lft.to/lastmile_qr_scan"}, "bike_id": "ad9d6d6381ddbfd04763bd53d38acfbf", "lat": 38.909511333333334, "name": "ad9d6d6381ddbfd04763bd53d38acfbf", "lon": -77.04648933333333, "fusion_lon": 0.0}, {"is_reserved": 0, "type": "electric_scooter", "fusion_lat": 0.0, "is_disabled": 0, "rental_uris": {"ios": "https://dc.lft.to/lastmile_qr_scan", "android": "https://dc.lft.to/lastmile_qr_scan"}, "bike_id": "1050911e145739847947ab1d6efa0da1", "lat": 38.92163983333333, "name": "1050911e145739847947ab1d6efa0da1", "lon": -77.04130966666666, "fusion_lon": 0.0}, {"is_reserved": 0, "type": "electric_scooter", "fusion_lat": 0.0, "is_disabled": 0, "rental_uris": {"ios": "https://dc.lft.to/lastmile_qr_scan", "android": "https://dc.lft.to/lastmile_qr_scan"}, "bike_id": "0c5f5b50c43f484ccb0f8e2130ac183b", "lat": 38.88380266666667, "name": "0c5f5b50c43f484ccb0f8e2130ac183b", "lon": -76.99518916666666, "fusion_lon": 0.0}, {"is_reserved": 0, "type": "electric_scooter", "fusion_lat": 0.0, "is_disabled": 0, "rental_uris": {"ios": "https://dc.lft.to/lastmile_qr_scan", "android": "https://dc.lft.to/lastmile_qr_scan"}, "bike_id": "d8c9c2a672b56d6a63dcaa16e42c9d0f", "lat": 38.93104533333333, "name": "d8c9c2a672b56d6a63dcaa16e42c9d0f", "lon": -77.02480283333334, "fusion_lon": 0.0}, {"is_reserved": 0, "type": "electric_scooter", "fusion_lat": 0.0, "is_disabled": 0, "rental_uris": {"ios": "https://dc.lft.to/lastmile_qr_scan", "android": "https://dc.lft.to/lastmile_qr_scan"}, "bike_id": "c8246f49a0c4281dbd5eae1357e4d9e8", "lat": 38.919908, "name": "c8246f49a0c4281dbd5eae1357e4d9e8", "lon": -77.04161433333333, "fusion_lon": 0.0}, {"is_reserved": 0, "type": "electric_scooter", "fusion_lat": 0.0, "is_disabled": 0, "rental_uris": {"ios": "https://dc.lft.to/lastmile_qr_scan", "android": "https://dc.lft.to/lastmile_qr_scan"}, "bike_id": "5bd5be37d1bb0bc80c2a9d9082b91163", "lat": 38.8998, "name": "5bd5be37d1bb0bc80c2a9d9082b91163", "lon": -77.041906, "fusion_lon": 0.0}, {"is_reserved": 0, "type": "electric_scooter", "fusion_lat": 0.0, "is_disabled": 0, "rental_uris": {"ios": "https://dc.lft.to/lastmile_qr_scan", "android": "https://dc.lft.to/lastmile_qr_scan"}, "bike_id": "f6020d351874248964956f407a023dec", "lat": 38.920136666666664, "name": "f6020d351874248964956f407a023dec", "lon": -77.01291, "fusion_lon": 0.0}, {"is_reserved": 0, "type": "electric_bike", "fusion_lat": 0.0, "is_disabled": 0, "rental_uris": {"ios": "https://dc.lft.to/lastmile_qr_scan", "android": "https://dc.lft.to/lastmile_qr_scan"}, "bike_id": "7dcbc6ae481c4c63858d356198f2e998", "lat": 38.916763833333334, "name": "7dcbc6ae481c4c63858d356198f2e998", "lon": -77.00050733333333, "fusion_lon": 0.0}, {"is_reserved": 0, "type": "electric_scooter", "fusion_lat": 0.0, "is_disabled": 0, "rental_uris": {"ios": "https://dc.lft.to/lastmile_qr_scan", "android": "https://dc.lft.to/lastmile_qr_scan"}, "bike_id": "81148ffff429b0f1df054a025cfab4e5", "lat": 38.92406316666667, "name": "81148ffff429b0f1df054a025cfab4e5", "lon": -77.03518433333333, "fusion_lon": 0.0}, {"is_reserved": 0, "type": "electric_scooter", "fusion_lat": 0.0, "is_disabled": 0, "rental_uris": {"ios": "https://dc.lft.to/lastmile_qr_scan", "android": "https://dc.lft.to/lastmile_qr_scan"}, "bike_id": "2f4ff95846cb911cf186cdc47e13fa2d", "lat": 38.930015833333336, "name": "2f4ff95846cb911cf186cdc47e13fa2d", "lon": -77.0217495, "fusion_lon": 0.0}, {"is_reserved": 0, "type": "electric_scooter", "fusion_lat": 0.0, "is_disabled": 0, "rental_uris": {"ios": "https://dc.lft.to/lastmile_qr_scan", "android": "https://dc.lft.to/lastmile_qr_scan"}, "bike_id": "a05f7a404590d1fe90314b1906f8ef0c", "lat": 38.932528166666664, "name": "a05f7a404590d1fe90314b1906f8ef0c", "lon": -77.03286033333333, "fusion_lon": 0.0}, {"is_reserved": 0, "type": "electric_scooter", "fusion_lat": 0.0, "is_disabled": 0, "rental_uris": {"ios": "https://dc.lft.to/lastmile_qr_scan", "android": "https://dc.lft.to/lastmile_qr_scan"}, "bike_id": "e4d31d5c9e7343c6ddee7bd542494160", "lat": 38.923822, "name": "e4d31d5c9e7343c6ddee7bd542494160", "lon": -77.04092633333333, "fusion_lon": 0.0}, {"is_reserved": 0, "type": "electric_scooter", "fusion_lat": 0.0, "is_disabled": 0, "rental_uris": {"ios": "https://dc.lft.to/lastmile_qr_scan", "android": "https://dc.lft.to/lastmile_qr_scan"}, "bike_id": "614215ac775fbc2a2f33ae8be0f49836", "lat": 38.92236033333333, "name": "614215ac775fbc2a2f33ae8be0f49836", "lon": -77.03520866666666, "fusion_lon": 0.0}, {"is_reserved": 0, "type": "electric_scooter", "fusion_lat": 0.0, "is_disabled": 0, "rental_uris": {"ios": "https://dc.lft.to/lastmile_qr_scan", "android": "https://dc.lft.to/lastmile_qr_scan"}, "bike_id": "6156a43968efe06b2105f10dd44a22a7", "lat": 38.917272, "name": "6156a43968efe06b2105f10dd44a22a7", "lon": -77.02604583333333, "fusion_lon": 0.0}, {"is_reserved": 0, "type": "electric_bike", "fusion_lat": 0.0, "is_disabled": 0, "rental_uris": {"ios": "https://dc.lft.to/lastmile_qr_scan", "android": "https://dc.lft.to/lastmile_qr_scan"}, "bike_id": "e8fe2de23b77d81de4e6e73bdd2adac6", "lat": 38.875220166666665, "name": "e8fe2de23b77d81de4e6e73bdd2adac6", "lon": -77.04752683333334, "fusion_lon": 0.0}, {"is_reserved": 0, "type": "electric_scooter", "fusion_lat": 0.0, "is_disabled": 0, "rental_uris": {"ios": "https://dc.lft.to/lastmile_qr_scan", "android": "https://dc.lft.to/lastmile_qr_scan"}, "bike_id": "62cf09dbd6910ea1f870febdd9d90d96", "lat": 38.91274683333333, "name": "62cf09dbd6910ea1f870febdd9d90d96", "lon": -77.04664833333334, "fusion_lon": 0.0}, {"is_reserved": 0, "type": "electric_scooter", "fusion_lat": 0.0, "is_disabled": 0, "rental_uris": {"ios": "https://dc.lft.to/lastmile_qr_scan", "android": "https://dc.lft.to/lastmile_qr_scan"}, "bike_id": "9a7c2c723aa49a05f084ebb5bc9c6fb5", "lat": 38.95960816666667, "name": "9a7c2c723aa49a05f084ebb5bc9c6fb5", "lon": -77.03319583333334, "fusion_lon": 0.0}, {"is_reserved": 0, "type": "electric_scooter", "fusion_lat": 0.0, "is_disabled": 0, "rental_uris": {"ios": "https://dc.lft.to/lastmile_qr_scan", "android": "https://dc.lft.to/lastmile_qr_scan"}, "bike_id": "f9f02944b3fb427ab6879a9d25c2d67d", "lat": 38.892088666666666, "name": "f9f02944b3fb427ab6879a9d25c2d67d", "lon": -76.96118833333334, "fusion_lon": 0.0}, {"is_reserved": 0, "type": "electric_scooter", "fusion_lat": 0.0, "is_disabled": 0, "rental_uris": {"ios": "https://dc.lft.to/lastmile_qr_scan", "android": "https://dc.lft.to/lastmile_qr_scan"}, "bike_id": "fc42796fd17f6f4b95783a80b957ec08", "lat": 38.883826166666665, "name": "fc42796fd17f6f4b95783a80b957ec08", "lon": -77.04605666666667, "fusion_lon": 0.0}, {"is_reserved": 0, "type": "electric_bike", "fusion_lat": 0.0, "is_disabled": 0, "rental_uris": {"ios": "https://dc.lft.to/lastmile_qr_scan", "android": "https://dc.lft.to/lastmile_qr_scan"}, "bike_id": "f8b2751b244b4057e6c711b1de6b60d1", "lat": 38.998290833333336, "name": "f8b2751b244b4057e6c711b1de6b60d1", "lon": -76.9973035, "fusion_lon": 0.0}, {"is_reserved": 0, "type": "electric_scooter", "fusion_lat": 0.0, "is_disabled": 0, "rental_uris": {"ios": "https://dc.lft.to/lastmile_qr_scan", "android": "https://dc.lft.to/lastmile_qr_scan"}, "bike_id": "5a7dffe422c080cd39adaed5a95089bc", "lat": 38.91191166666667, "name": "5a7dffe422c080cd39adaed5a95089bc", "lon": -77.01768833333334, "fusion_lon": 0.0}, {"is_reserved": 0, "type": "electric_bike", "fusion_lat": 0.0, "is_disabled": 0, "rental_uris": {"ios": "https://dc.lft.to/lastmile_qr_scan", "android": "https://dc.lft.to/lastmile_qr_scan"}, "bike_id": "595d451885f9da83c18b9d66fac09891", "lat": 38.94407366666667, "name": "595d451885f9da83c18b9d66fac09891", "lon": -77.02185683333333, "fusion_lon": 0.0}, {"is_reserved": 0, "type": "electric_scooter", "fusion_lat": 0.0, "is_disabled": 0, "rental_uris": {"ios": "https://dc.lft.to/lastmile_qr_scan", "android": "https://dc.lft.to/lastmile_qr_scan"}, "bike_id": "20c49490f057a09fbd5db7c19806cc98", "lat": 38.92887183333333, "name": "20c49490f057a09fbd5db7c19806cc98", "lon": -77.03872416666667, "fusion_lon": 0.0}, {"is_reserved": 0, "type": "electric_scooter", "fusion_lat": 0.0, "is_disabled": 0, "rental_uris": {"ios": "https://dc.lft.to/lastmile_qr_scan", "android": "https://dc.lft.to/lastmile_qr_scan"}, "bike_id": "f19e9f576edd30a305b691f15bc0d4af", "lat": 38.90297066666667, "name": "f19e9f576edd30a305b691f15bc0d4af", "lon": -77.033551, "fusion_lon": 0.0}, {"is_reserved": 0, "type": "electric_scooter", "fusion_lat": 0.0, "is_disabled": 0, "rental_uris": {"ios": "https://dc.lft.to/lastmile_qr_scan", "android": "https://dc.lft.to/lastmile_qr_scan"}, "bike_id": "1a3b83af7388653ebcd23a0984ae3901", "lat": 38.92158116666667, "name": "1a3b83af7388653ebcd23a0984ae3901", "lon": -77.03382216666667, "fusion_lon": 0.0}, {"is_reserved": 0, "type": "electric_scooter", "fusion_lat": 0.0, "is_disabled": 0, "rental_uris": {"ios": "https://dc.lft.to/lastmile_qr_scan", "android": "https://dc.lft.to/lastmile_qr_scan"}, "bike_id": "79d9ef4a82d64731ed91753d089bb79d", "lat": 38.897319, "name": "79d9ef4a82d64731ed91753d089bb79d", "lon": -77.04803316666667, "fusion_lon": 0.0}, {"is_reserved": 0, "type": "electric_scooter", "fusion_lat": 0.0, "is_disabled": 0, "rental_uris": {"ios": "https://dc.lft.to/lastmile_qr_scan", "android": "https://dc.lft.to/lastmile_qr_scan"}, "bike_id": "9af25ec35ea987a7d650fd51866f5c35", "lat": 38.895262333333335, "name": "9af25ec35ea987a7d650fd51866f5c35", "lon": -77.02671233333334, "fusion_lon": 0.0}, {"is_reserved": 0, "type": "electric_scooter", "fusion_lat": 0.0, "is_disabled": 0, "rental_uris": {"ios": "https://dc.lft.to/lastmile_qr_scan", "android": "https://dc.lft.to/lastmile_qr_scan"}, "bike_id": "f7f33508bf329220c033cc6e79dfcf30", "lat": 38.90593116666667, "name": "f7f33508bf329220c033cc6e79dfcf30", "lon": -77.01613583333334, "fusion_lon": 0.0}, {"is_reserved": 0, "type": "electric_bike", "fusion_lat": 0.0, "is_disabled": 0, "rental_uris": {"ios": "https://dc.lft.to/lastmile_qr_scan", "android": "https://dc.lft.to/lastmile_qr_scan"}, "bike_id": "b127f91e5da5b8a78eba677f8ba3f5ce", "lat": 38.846894, "name": "b127f91e5da5b8a78eba677f8ba3f5ce", "lon": -76.98062483333334, "fusion_lon": 0.0}, {"is_reserved": 0, "type": "electric_bike", "fusion_lat": 0.0, "is_disabled": 0, "rental_uris": {"ios": "https://dc.lft.to/lastmile_qr_scan", "android": "https://dc.lft.to/lastmile_qr_scan"}, "bike_id": "f81e06bb0c7561682d64b867d2bda10f", "lat": 38.8876075, "name": "f81e06bb0c7561682d64b867d2bda10f", "lon": -77.156539, "fusion_lon": 0.0}, {"is_reserved": 0, "type": "electric_scooter", "fusion_lat": 0.0, "is_disabled": 0, "rental_uris": {"ios": "https://dc.lft.to/lastmile_qr_scan", "android": "https://dc.lft.to/lastmile_qr_scan"}, "bike_id": "fb5cf92a79da62055bef310c66b546ca", "lat": 38.9090105, "name": "fb5cf92a79da62055bef310c66b546ca", "lon": -76.9978695, "fusion_lon": 0.0}, {"is_reserved": 0, "type": "electric_scooter", "fusion_lat": 0.0, "is_disabled": 0, "rental_uris": {"ios": "https://dc.lft.to/lastmile_qr_scan", "android": "https://dc.lft.to/lastmile_qr_scan"}, "bike_id": "cb61829fc3a5bc58b8fb714deebc9941", "lat": 38.912928, "name": "cb61829fc3a5bc58b8fb714deebc9941", "lon": -76.98697016666667, "fusion_lon": 0.0}, {"is_reserved": 0, "type": "electric_scooter", "fusion_lat": 0.0, "is_disabled": 0, "rental_uris": {"ios": "https://dc.lft.to/lastmile_qr_scan", "android": "https://dc.lft.to/lastmile_qr_scan"}, "bike_id": "33633ed0c4f8e548e8406d3f71bf5145", "lat": 38.930104166666666, "name": "33633ed0c4f8e548e8406d3f71bf5145", "lon": -77.0211545, "fusion_lon": 0.0}, {"is_reserved": 0, "type": "electric_scooter", "fusion_lat": 0.0, "is_disabled": 0, "rental_uris": {"ios": "https://dc.lft.to/lastmile_qr_scan", "android": "https://dc.lft.to/lastmile_qr_scan"}, "bike_id": "6414df3254737b6f7373225061fc09ac", "lat": 38.917980666666665, "name": "6414df3254737b6f7373225061fc09ac", "lon": -77.04433233333333, "fusion_lon": 0.0}, {"is_reserved": 0, "type": "electric_scooter", "fusion_lat": 0.0, "is_disabled": 0, "rental_uris": {"ios": "https://dc.lft.to/lastmile_qr_scan", "android": "https://dc.lft.to/lastmile_qr_scan"}, "bike_id": "28d7ff1a6950a10e178531616d25428c", "lat": 38.9252085, "name": "28d7ff1a6950a10e178531616d25428c", "lon": -76.99835616666667, "fusion_lon": 0.0}, {"is_reserved": 0, "type": "electric_scooter", "fusion_lat": 0.0, "is_disabled": 0, "rental_uris": {"ios": "https://dc.lft.to/lastmile_qr_scan", "android": "https://dc.lft.to/lastmile_qr_scan"}, "bike_id": "9bcca0582177e4975ccef1d5f5f9c6c2", "lat": 38.924181, "name": "9bcca0582177e4975ccef1d5f5f9c6c2", "lon": -77.02011833333333, "fusion_lon": 0.0}, {"is_reserved": 0, "type": "electric_bike", "fusion_lat": 0.0, "is_disabled": 0, "rental_uris": {"ios": "https://dc.lft.to/lastmile_qr_scan", "android": "https://dc.lft.to/lastmile_qr_scan"}, "bike_id": "8b61b35ed7f583561daefab99aeb1531", "lat": 38.85243716666667, "name": "8b61b35ed7f583561daefab99aeb1531", "lon": -77.114022, "fusion_lon": 0.0}, {"is_reserved": 0, "type": "electric_scooter", "fusion_lat": 0.0, "is_disabled": 0, "rental_uris": {"ios": "https://dc.lft.to/lastmile_qr_scan", "android": "https://dc.lft.to/lastmile_qr_scan"}, "bike_id": "b89ed21851b8194655693768d36ecea4", "lat": 38.91142333333333, "name": "b89ed21851b8194655693768d36ecea4", "lon": -77.02808316666666, "fusion_lon": 0.0}, {"is_reserved": 0, "type": "electric_scooter", "fusion_lat": 0.0, "is_disabled": 0, "rental_uris": {"ios": "https://dc.lft.to/lastmile_qr_scan", "android": "https://dc.lft.to/lastmile_qr_scan"}, "bike_id": "ba4bf34a33def051eaf1b94df70d8e43", "lat": 38.9049365, "name": "ba4bf34a33def051eaf1b94df70d8e43", "lon": -77.01688233333333, "fusion_lon": 0.0}, {"is_reserved": 0, "type": "electric_scooter", "fusion_lat": 0.0, "is_disabled": 0, "rental_uris": {"ios": "https://dc.lft.to/lastmile_qr_scan", "android": "https://dc.lft.to/lastmile_qr_scan"}, "bike_id": "6335ecefcad77e0ad7b46b7715be1e22", "lat": 38.8972665, "name": "6335ecefcad77e0ad7b46b7715be1e22", "lon": -77.051309, "fusion_lon": 0.0}, {"is_reserved": 0, "type": "electric_bike", "fusion_lat": 0.0, "is_disabled": 0, "rental_uris": {"ios": "https://dc.lft.to/lastmile_qr_scan", "android": "https://dc.lft.to/lastmile_qr_scan"}, "bike_id": "49c9365f91475824ee1ee6f093493457", "lat": 39.006467, "name": "49c9365f91475824ee1ee6f093493457", "lon": -76.90025183333333, "fusion_lon": 0.0}, {"is_reserved": 0, "type": "electric_scooter", "fusion_lat": 0.0, "is_disabled": 0, "rental_uris": {"ios": "https://dc.lft.to/lastmile_qr_scan", "android": "https://dc.lft.to/lastmile_qr_scan"}, "bike_id": "f18172a98096a869a3de4150602841f5", "lat": 38.90144566666667, "name": "f18172a98096a869a3de4150602841f5", "lon": -76.9298725, "fusion_lon": 0.0}, {"is_reserved": 0, "type": "electric_scooter", "fusion_lat": 0.0, "is_disabled": 0, "rental_uris": {"ios": "https://dc.lft.to/lastmile_qr_scan", "android": "https://dc.lft.to/lastmile_qr_scan"}, "bike_id": "ac3a8bf34a0cfe5e41ec1135c902a35a", "lat": 38.84280366666667, "name": "ac3a8bf34a0cfe5e41ec1135c902a35a", "lon": -76.988458, "fusion_lon": 0.0}, {"is_reserved": 0, "type": "electric_scooter", "fusion_lat": 0.0, "is_disabled": 0, "rental_uris": {"ios": "https://dc.lft.to/lastmile_qr_scan", "android": "https://dc.lft.to/lastmile_qr_scan"}, "bike_id": "f9babebac0c600557b1d95cce2e7b0c6", "lat": 38.88005, "name": "f9babebac0c600557b1d95cce2e7b0c6", "lon": -76.9983635, "fusion_lon": 0.0}, {"is_reserved": 0, "type": "electric_scooter", "fusion_lat": 0.0, "is_disabled": 0, "rental_uris": {"ios": "https://dc.lft.to/lastmile_qr_scan", "android": "https://dc.lft.to/lastmile_qr_scan"}, "bike_id": "a22c58e893a4bca41a9e5a6d4e9c682e", "lat": 38.92322516666667, "name": "a22c58e893a4bca41a9e5a6d4e9c682e", "lon": -77.0291085, "fusion_lon": 0.0}, {"is_reserved": 0, "type": "electric_scooter", "fusion_lat": 0.0, "is_disabled": 0, "rental_uris": {"ios": "https://dc.lft.to/lastmile_qr_scan", "android": "https://dc.lft.to/lastmile_qr_scan"}, "bike_id": "f4196f2c9dfa45fc7905dc26bf74a627", "lat": 38.92424583333333, "name": "f4196f2c9dfa45fc7905dc26bf74a627", "lon": -77.04482283333333, "fusion_lon": 0.0}, {"is_reserved": 0, "type": "electric_scooter", "fusion_lat": 0.0, "is_disabled": 0, "rental_uris": {"ios": "https://dc.lft.to/lastmile_qr_scan", "android": "https://dc.lft.to/lastmile_qr_scan"}, "bike_id": "1f1d29bfa136a47e732f44252d557f56", "lat": 38.91693016666667, "name": "1f1d29bfa136a47e732f44252d557f56", "lon": -77.02600616666666, "fusion_lon": 0.0}, {"is_reserved": 0, "type": "electric_scooter", "fusion_lat": 0.0, "is_disabled": 0, "rental_uris": {"ios": "https://dc.lft.to/lastmile_qr_scan", "android": "https://dc.lft.to/lastmile_qr_scan"}, "bike_id": "abe10dde8b81f409ebbe4be94440750d", "lat": 38.952158833333336, "name": "abe10dde8b81f409ebbe4be94440750d", "lon": -77.0887205, "fusion_lon": 0.0}, {"is_reserved": 0, "type": "electric_scooter", "fusion_lat": 0.0, "is_disabled": 0, "rental_uris": {"ios": "https://dc.lft.to/lastmile_qr_scan", "android": "https://dc.lft.to/lastmile_qr_scan"}, "bike_id": "fa6c632e6fc525fcd908007f3e78435e", "lat": 38.910442833333335, "name": "fa6c632e6fc525fcd908007f3e78435e", "lon": -76.99802816666667, "fusion_lon": 0.0}, {"is_reserved": 0, "type": "electric_scooter", "fusion_lat": 0.0, "is_disabled": 0, "rental_uris": {"ios": "https://dc.lft.to/lastmile_qr_scan", "android": "https://dc.lft.to/lastmile_qr_scan"}, "bike_id": "fc34a9ff45ad64dfdaac990ff124050d", "lat": 38.883081, "name": "fc34a9ff45ad64dfdaac990ff124050d", "lon": -76.93484133333334, "fusion_lon": 0.0}, {"is_reserved": 0, "type": "electric_scooter", "fusion_lat": 0.0, "is_disabled": 0, "rental_uris": {"ios": "https://dc.lft.to/lastmile_qr_scan", "android": "https://dc.lft.to/lastmile_qr_scan"}, "bike_id": "8312bcd647491c01d9709bac5a6aedac", "lat": 38.89961383333333, "name": "8312bcd647491c01d9709bac5a6aedac", "lon": -77.01985866666666, "fusion_lon": 0.0}, {"is_reserved": 0, "type": "electric_scooter", "fusion_lat": 0.0, "is_disabled": 0, "rental_uris": {"ios": "https://dc.lft.to/lastmile_qr_scan", "android": "https://dc.lft.to/lastmile_qr_scan"}, "bike_id": "fafed8fd6dd94289dfcaf4127823d94f", "lat": 38.905079, "name": "fafed8fd6dd94289dfcaf4127823d94f", "lon": -76.95181316666667, "fusion_lon": 0.0}, {"is_reserved": 0, "type": "electric_scooter", "fusion_lat": 0.0, "is_disabled": 0, "rental_uris": {"ios": "https://dc.lft.to/lastmile_qr_scan", "android": "https://dc.lft.to/lastmile_qr_scan"}, "bike_id": "e10ec55efb23cedcbcd6be4db4a10c90", "lat": 38.883629666666664, "name": "e10ec55efb23cedcbcd6be4db4a10c90", "lon": -76.95767466666666, "fusion_lon": 0.0}, {"is_reserved": 0, "type": "electric_scooter", "fusion_lat": 0.0, "is_disabled": 0, "rental_uris": {"ios": "https://dc.lft.to/lastmile_qr_scan", "android": "https://dc.lft.to/lastmile_qr_scan"}, "bike_id": "9c0018b6516b1616174cda73859d5629", "lat": 38.919498, "name": "9c0018b6516b1616174cda73859d5629", "lon": -77.01396766666667, "fusion_lon": 0.0}, {"is_reserved": 0, "type": "electric_scooter", "fusion_lat": 0.0, "is_disabled": 0, "rental_uris": {"ios": "https://dc.lft.to/lastmile_qr_scan", "android": "https://dc.lft.to/lastmile_qr_scan"}, "bike_id": "f8fb6430ccd432a63955458a3f555359", "lat": 38.90264366666667, "name": "f8fb6430ccd432a63955458a3f555359", "lon": -77.02006616666667, "fusion_lon": 0.0}, {"is_reserved": 0, "type": "electric_scooter", "fusion_lat": 0.0, "is_disabled": 0, "rental_uris": {"ios": "https://dc.lft.to/lastmile_qr_scan", "android": "https://dc.lft.to/lastmile_qr_scan"}, "bike_id": "42ded5253e0182abb13b5354dfe6b0b4", "lat": 38.883083666666664, "name": "42ded5253e0182abb13b5354dfe6b0b4", "lon": -76.993709, "fusion_lon": 0.0}, {"is_reserved": 0, "type": "electric_scooter", "fusion_lat": 0.0, "is_disabled": 0, "rental_uris": {"ios": "https://dc.lft.to/lastmile_qr_scan", "android": "https://dc.lft.to/lastmile_qr_scan"}, "bike_id": "5a73a8eb68d55ea880ba9e09a6b10341", "lat": 38.938486166666664, "name": "5a73a8eb68d55ea880ba9e09a6b10341", "lon": -77.01956, "fusion_lon": 0.0}, {"is_reserved": 0, "type": "electric_bike", "fusion_lat": 0.0, "is_disabled": 0, "rental_uris": {"ios": "https://dc.lft.to/lastmile_qr_scan", "android": "https://dc.lft.to/lastmile_qr_scan"}, "bike_id": "a4aedc9285e81bac65d8730904f0e035", "lat": 38.86009033333333, "name": "a4aedc9285e81bac65d8730904f0e035", "lon": -77.06526683333334, "fusion_lon": 0.0}, {"is_reserved": 0, "type": "electric_scooter", "fusion_lat": 0.0, "is_disabled": 0, "rental_uris": {"ios": "https://dc.lft.to/lastmile_qr_scan", "android": "https://dc.lft.to/lastmile_qr_scan"}, "bike_id": "4d750bed72f6ec89af1c82d6b8ee80e4", "lat": 38.8972895, "name": "4d750bed72f6ec89af1c82d6b8ee80e4", "lon": -77.019163, "fusion_lon": 0.0}, {"is_reserved": 0, "type": "electric_scooter", "fusion_lat": 0.0, "is_disabled": 0, "rental_uris": {"ios": "https://dc.lft.to/lastmile_qr_scan", "android": "https://dc.lft.to/lastmile_qr_scan"}, "bike_id": "f227eba5c396cd843ef89b1af5bc3a19", "lat": 38.89672516666667, "name": "f227eba5c396cd843ef89b1af5bc3a19", "lon": -76.93210616666667, "fusion_lon": 0.0}, {"is_reserved": 0, "type": "electric_scooter", "fusion_lat": 0.0, "is_disabled": 0, "rental_uris": {"ios": "https://dc.lft.to/lastmile_qr_scan", "android": "https://dc.lft.to/lastmile_qr_scan"}, "bike_id": "6599dc8a12b91a415911c3d4ee964034", "lat": 38.872057166666664, "name": "6599dc8a12b91a415911c3d4ee964034", "lon": -76.9783325, "fusion_lon": 0.0}, {"is_reserved": 0, "type": "electric_scooter", "fusion_lat": 0.0, "is_disabled": 0, "rental_uris": {"ios": "https://dc.lft.to/lastmile_qr_scan", "android": "https://dc.lft.to/lastmile_qr_scan"}, "bike_id": "cfe678c50a94342f4cf4da6564395d99", "lat": 38.916850333333336, "name": "cfe678c50a94342f4cf4da6564395d99", "lon": -77.01578533333333, "fusion_lon": 0.0}, {"is_reserved": 0, "type": "electric_scooter", "fusion_lat": 0.0, "is_disabled": 0, "rental_uris": {"ios": "https://dc.lft.to/lastmile_qr_scan", "android": "https://dc.lft.to/lastmile_qr_scan"}, "bike_id": "9e96ac05dec18662141a74391e37aa41", "lat": 38.9096245, "name": "9e96ac05dec18662141a74391e37aa41", "lon": -77.023848, "fusion_lon": 0.0}, {"is_reserved": 0, "type": "electric_bike", "fusion_lat": 0.0, "is_disabled": 0, "rental_uris": {"ios": "https://dc.lft.to/lastmile_qr_scan", "android": "https://dc.lft.to/lastmile_qr_scan"}, "bike_id": "3d7b5d43772d2674a79f1698b9e19201", "lat": 38.94257966666667, "name": "3d7b5d43772d2674a79f1698b9e19201", "lon": -76.99074083333333, "fusion_lon": 0.0}, {"is_reserved": 0, "type": "electric_scooter", "fusion_lat": 0.0, "is_disabled": 0, "rental_uris": {"ios": "https://dc.lft.to/lastmile_qr_scan", "android": "https://dc.lft.to/lastmile_qr_scan"}, "bike_id": "469e1035a072141cf87dc56328aa2093", "lat": 38.9172325, "name": "469e1035a072141cf87dc56328aa2093", "lon": -77.029737, "fusion_lon": 0.0}, {"is_reserved": 0, "type": "electric_scooter", "fusion_lat": 0.0, "is_disabled": 0, "rental_uris": {"ios": "https://dc.lft.to/lastmile_qr_scan", "android": "https://dc.lft.to/lastmile_qr_scan"}, "bike_id": "38c57514b4338d2c4162d3c37d4ca6b8", "lat": 38.88145733333333, "name": "38c57514b4338d2c4162d3c37d4ca6b8", "lon": -77.0131995, "fusion_lon": 0.0}, {"is_reserved": 0, "type": "electric_scooter", "fusion_lat": 0.0, "is_disabled": 0, "rental_uris": {"ios": "https://dc.lft.to/lastmile_qr_scan", "android": "https://dc.lft.to/lastmile_qr_scan"}, "bike_id": "09a8e41250997ce1920c1a0e720c8be0", "lat": 38.924669333333334, "name": "09a8e41250997ce1920c1a0e720c8be0", "lon": -77.022448, "fusion_lon": 0.0}, {"is_reserved": 0, "type": "electric_scooter", "fusion_lat": 0.0, "is_disabled": 0, "rental_uris": {"ios": "https://dc.lft.to/lastmile_qr_scan", "android": "https://dc.lft.to/lastmile_qr_scan"}, "bike_id": "bd6b0bc7a1342bf72e67d783b9f63b00", "lat": 38.9009995, "name": "bd6b0bc7a1342bf72e67d783b9f63b00", "lon": -77.04497466666666, "fusion_lon": 0.0}, {"is_reserved": 0, "type": "electric_scooter", "fusion_lat": 0.0, "is_disabled": 0, "rental_uris": {"ios": "https://dc.lft.to/lastmile_qr_scan", "android": "https://dc.lft.to/lastmile_qr_scan"}, "bike_id": "663d292f1a3d35f39de64a78d20f5356", "lat": 38.924235, "name": "663d292f1a3d35f39de64a78d20f5356", "lon": -77.019506, "fusion_lon": 0.0}, {"is_reserved": 0, "type": "electric_scooter", "fusion_lat": 0.0, "is_disabled": 0, "rental_uris": {"ios": "https://dc.lft.to/lastmile_qr_scan", "android": "https://dc.lft.to/lastmile_qr_scan"}, "bike_id": "36fe85f86cea2fbb5130e252e80fb387", "lat": 38.9194725, "name": "36fe85f86cea2fbb5130e252e80fb387", "lon": -77.00218166666667, "fusion_lon": 0.0}, {"is_reserved": 0, "type": "electric_scooter", "fusion_lat": 0.0, "is_disabled": 0, "rental_uris": {"ios": "https://dc.lft.to/lastmile_qr_scan", "android": "https://dc.lft.to/lastmile_qr_scan"}, "bike_id": "7bd71a7a76f37a3748af8b4bb928f112", "lat": 38.93973166666667, "name": "7bd71a7a76f37a3748af8b4bb928f112", "lon": -77.03427533333333, "fusion_lon": 0.0}, {"is_reserved": 0, "type": "electric_scooter", "fusion_lat": 0.0, "is_disabled": 0, "rental_uris": {"ios": "https://dc.lft.to/lastmile_qr_scan", "android": "https://dc.lft.to/lastmile_qr_scan"}, "bike_id": "47e6acdbd011563541842bef6c2d0922", "lat": 38.89725, "name": "47e6acdbd011563541842bef6c2d0922", "lon": -77.04373816666667, "fusion_lon": 0.0}, {"is_reserved": 0, "type": "electric_scooter", "fusion_lat": 0.0, "is_disabled": 0, "rental_uris": {"ios": "https://dc.lft.to/lastmile_qr_scan", "android": "https://dc.lft.to/lastmile_qr_scan"}, "bike_id": "6559f2143044b8e64dfa39af2beaa33e", "lat": 38.917120833333335, "name": "6559f2143044b8e64dfa39af2beaa33e", "lon": -77.0920465, "fusion_lon": 0.0}, {"is_reserved": 0, "type": "electric_scooter", "fusion_lat": 0.0, "is_disabled": 0, "rental_uris": {"ios": "https://dc.lft.to/lastmile_qr_scan", "android": "https://dc.lft.to/lastmile_qr_scan"}, "bike_id": "72fcf71852201df2d7559f7e2ed454bb", "lat": 38.88571866666667, "name": "72fcf71852201df2d7559f7e2ed454bb", "lon": -77.000357, "fusion_lon": 0.0}, {"is_reserved": 0, "type": "electric_bike", "fusion_lat": 0.0, "is_disabled": 0, "rental_uris": {"ios": "https://dc.lft.to/lastmile_qr_scan", "android": "https://dc.lft.to/lastmile_qr_scan"}, "bike_id": "69f89b23f364d5f43efc26af83d06de9", "lat": 38.9451565, "name": "69f89b23f364d5f43efc26af83d06de9", "lon": -76.96808533333333, "fusion_lon": 0.0}, {"is_reserved": 0, "type": "electric_scooter", "fusion_lat": 0.0, "is_disabled": 0, "rental_uris": {"ios": "https://dc.lft.to/lastmile_qr_scan", "android": "https://dc.lft.to/lastmile_qr_scan"}, "bike_id": "3a6445c7c75e0b4bdc385e4a0eafafc8", "lat": 38.910582166666664, "name": "3a6445c7c75e0b4bdc385e4a0eafafc8", "lon": -77.02655216666666, "fusion_lon": 0.0}, {"is_reserved": 0, "type": "electric_scooter", "fusion_lat": 0.0, "is_disabled": 0, "rental_uris": {"ios": "https://dc.lft.to/lastmile_qr_scan", "android": "https://dc.lft.to/lastmile_qr_scan"}, "bike_id": "e02a21ac2b6f79c62e2ae637351584c3", "lat": 38.90222266666667, "name": "e02a21ac2b6f79c62e2ae637351584c3", "lon": -77.048304, "fusion_lon": 0.0}, {"is_reserved": 0, "type": "electric_scooter", "fusion_lat": 0.0, "is_disabled": 0, "rental_uris": {"ios": "https://dc.lft.to/lastmile_qr_scan", "android": "https://dc.lft.to/lastmile_qr_scan"}, "bike_id": "9215e45b16d7d5d0e787afe3e31d6287", "lat": 38.8996195, "name": "9215e45b16d7d5d0e787afe3e31d6287", "lon": -77.02588283333333, "fusion_lon": 0.0}, {"is_reserved": 0, "type": "electric_scooter", "fusion_lat": 0.0, "is_disabled": 0, "rental_uris": {"ios": "https://dc.lft.to/lastmile_qr_scan", "android": "https://dc.lft.to/lastmile_qr_scan"}, "bike_id": "a30d838c4a0ec5d8f81ac057a3d745c7", "lat": 38.89532233333333, "name": "a30d838c4a0ec5d8f81ac057a3d745c7", "lon": -76.948938, "fusion_lon": 0.0}, {"is_reserved": 0, "type": "electric_scooter", "fusion_lat": 0.0, "is_disabled": 0, "rental_uris": {"ios": "https://dc.lft.to/lastmile_qr_scan", "android": "https://dc.lft.to/lastmile_qr_scan"}, "bike_id": "bee19eeb9d6d68e37211f800902a057c", "lat": 38.91488616666667, "name": "bee19eeb9d6d68e37211f800902a057c", "lon": -77.04942, "fusion_lon": 0.0}, {"is_reserved": 0, "type": "electric_scooter", "fusion_lat": 0.0, "is_disabled": 0, "rental_uris": {"ios": "https://dc.lft.to/lastmile_qr_scan", "android": "https://dc.lft.to/lastmile_qr_scan"}, "bike_id": "831b57a832cdeaf58a72c95bedfdcebb", "lat": 38.92028616666666, "name": "831b57a832cdeaf58a72c95bedfdcebb", "lon": -77.02510183333334, "fusion_lon": 0.0}, {"is_reserved": 0, "type": "electric_scooter", "fusion_lat": 0.0, "is_disabled": 0, "rental_uris": {"ios": "https://dc.lft.to/lastmile_qr_scan", "android": "https://dc.lft.to/lastmile_qr_scan"}, "bike_id": "6ec14a6dd43e68f2ccf20f5a5e736d7e", "lat": 38.9192265, "name": "6ec14a6dd43e68f2ccf20f5a5e736d7e", "lon": -77.03426433333334, "fusion_lon": 0.0}, {"is_reserved": 0, "type": "electric_scooter", "fusion_lat": 0.0, "is_disabled": 0, "rental_uris": {"ios": "https://dc.lft.to/lastmile_qr_scan", "android": "https://dc.lft.to/lastmile_qr_scan"}, "bike_id": "f728a074719b0f86b7d3e4f45dc94d1f", "lat": 38.918184333333336, "name": "f728a074719b0f86b7d3e4f45dc94d1f", "lon": -77.01216383333333, "fusion_lon": 0.0}, {"is_reserved": 0, "type": "electric_scooter", "fusion_lat": 0.0, "is_disabled": 0, "rental_uris": {"ios": "https://dc.lft.to/lastmile_qr_scan", "android": "https://dc.lft.to/lastmile_qr_scan"},