{"data": {"bikes": [{"lat": 38.895343, "is_disabled": 0, "type": "electric_scooter", "lon": -76.948913, "bike_id": "50fd2de9e3984038d166b5f964a11dbc", "fusion_lat": 0.0, "name": "50fd2de9e3984038d166b5f964a11dbc", "is_reserved": 0, "rental_uris": {"android": "https://dc.lft.to/lastmile_qr_scan", "ios": "https://dc.lft.to/lastmile_qr_scan"}, "fusion_lon": 0.0}, {"lat": 38.872430666666666, "is_disabled": 0, "type": "electric_scooter", "lon": -76.97723966666666, "bike_id": "931fd248e7d4ecfd2c860be91d24456a", "fusion_lat": 0.0, "name": "931fd248e7d4ecfd2c860be91d24456a", "is_reserved": 0, "rental_uris": {"android": "https://dc.lft.to/lastmile_qr_scan", "ios": "https://dc.lft.to/lastmile_qr_scan"}, "fusion_lon": 0.0}, {"lat": 38.943118166666665, "is_disabled": 0, "type": "electric_scooter", "lon": -77.06137666666666, "bike_id": "21e77ef3b0c30b43adea8787156e532f", "fusion_lat": 0.0, "name": "21e77ef3b0c30b43adea8787156e532f", "is_reserved": 0, "rental_uris": {"android": "https://dc.lft.to/lastmile_qr_scan", "ios": "https://dc.lft.to/lastmile_qr_scan"}, "fusion_lon": 0.0}, {"lat": 38.90737983333333, "is_disabled": 0, "type": "electric_scooter", "lon": -77.0400245, "bike_id": "822d5b2b5cffbc96b196724132d7a781", "fusion_lat": 0.0, "name": "822d5b2b5cffbc96b196724132d7a781", "is_reserved": 0, "rental_uris": {"android": "https://dc.lft.to/lastmile_qr_scan", "ios": "https://dc.lft.to/lastmile_qr_scan"}, "fusion_lon": 0.0}, {"lat": 38.928392333333335, "is_disabled": 0, "type": "electric_scooter", "lon": -77.05423, "bike_id": "9d34181536709284991cde89e49197b3", "fusion_lat": 0.0, "name": "9d34181536709284991cde89e49197b3", "is_reserved": 0, "rental_uris": {"android": "https://dc.lft.to/lastmile_qr_scan", "ios": "https://dc.lft.to/lastmile_qr_scan"}, "fusion_lon": 0.0}, {"lat": 38.879197166666664, "is_disabled": 0, "type": "electric_scooter", "lon": -77.0073745, "bike_id": "fb407a941fc560d1817f45a2787ea8e7", "fusion_lat": 0.0, "name": "fb407a941fc560d1817f45a2787ea8e7", "is_reserved": 0, "rental_uris": {"android": "https://dc.lft.to/lastmile_qr_scan", "ios": "https://dc.lft.to/lastmile_qr_scan"}, "fusion_lon": 0.0}, {"lat": 38.93226083333333, "is_disabled": 0, "type": "electric_scooter", "lon": -77.03385, "bike_id": "79b2a089b16b545f72276eed432ef7b0", "fusion_lat": 0.0, "name": "79b2a089b16b545f72276eed432ef7b0", "is_reserved": 0, "rental_uris": {"android": "https://dc.lft.to/lastmile_qr_scan", "ios": "https://dc.lft.to/lastmile_qr_scan"}, "fusion_lon": 0.0}, {"lat": 38.921513833333336, "is_disabled": 0, "type": "electric_scooter", "lon": -77.018092, "bike_id": "1c5d626bb9c9068f0626ffc66a2d886d", "fusion_lat": 0.0, "name": "1c5d626bb9c9068f0626ffc66a2d886d", "is_reserved": 0, "rental_uris": {"android": "https://dc.lft.to/lastmile_qr_scan", "ios": "https://dc.lft.to/lastmile_qr_scan"}, "fusion_lon": 0.0}, {"lat": 38.91571716666667, "is_disabled": 0, "type": "electric_scooter", "lon": -77.0503355, "bike_id": "081863c40624a98caada76bc44830386", "fusion_lat": 0.0, "name": "081863c40624a98caada76bc44830386", "is_reserved": 0, "rental_uris": {"android": "https://dc.lft.to/lastmile_qr_scan", "ios": "https://dc.lft.to/lastmile_qr_scan"}, "fusion_lon": 0.0}, {"lat": 38.921094833333335, "is_disabled": 0, "type": "electric_scooter", "lon": -77.04688366666667, "bike_id": "59ede870fb13ce41188e695415f34842", "fusion_lat": 0.0, "name": "59ede870fb13ce41188e695415f34842", "is_reserved": 0, "rental_uris": {"android": "https://dc.lft.to/lastmile_qr_scan", "ios": "https://dc.lft.to/lastmile_qr_scan"}, "fusion_lon": 0.0}, {"lat": 38.91829233333333, "is_disabled": 0, "type": "electric_scooter", "lon": -77.03223366666667, "bike_id": "d7b8b5fc44e9ba60edbc451506ed6de7", "fusion_lat": 0.0, "name": "d7b8b5fc44e9ba60edbc451506ed6de7", "is_reserved": 0, "rental_uris": {"android": "https://dc.lft.to/lastmile_qr_scan", "ios": "https://dc.lft.to/lastmile_qr_scan"}, "fusion_lon": 0.0}, {"lat": 38.85324216666667, "is_disabled": 0, "type": "electric_bike", "lon": -76.98018683333333, "bike_id": "a242d9678b0cbe3e80acdfd11c2b8e00", "fusion_lat": 0.0, "name": "a242d9678b0cbe3e80acdfd11c2b8e00", "is_reserved": 0, "rental_uris": {"android": "https://dc.lft.to/lastmile_qr_scan", "ios": "https://dc.lft.to/lastmile_qr_scan"}, "fusion_lon": 0.0}, {"lat": 38.9175915, "is_disabled": 0, "type": "electric_scooter", "lon": -77.01606933333333, "bike_id": "cea33598bdc99da62edf863b5ea8b1fb", "fusion_lat": 0.0, "name": "cea33598bdc99da62edf863b5ea8b1fb", "is_reserved": 0, "rental_uris": {"android": "https://dc.lft.to/lastmile_qr_scan", "ios": "https://dc.lft.to/lastmile_qr_scan"}, "fusion_lon": 0.0}, {"lat": 38.89680583333333, "is_disabled": 0, "type": "electric_scooter", "lon": -76.99628916666667, "bike_id": "dddb01e7713073b554d866614b4efc72", "fusion_lat": 0.0, "name": "dddb01e7713073b554d866614b4efc72", "is_reserved": 0, "rental_uris": {"android": "https://dc.lft.to/lastmile_qr_scan", "ios": "https://dc.lft.to/lastmile_qr_scan"}, "fusion_lon": 0.0}, {"lat": 38.91603716666667, "is_disabled": 0, "type": "electric_scooter", "lon": -77.03209783333334, "bike_id": "6b1498394226f94a13cae7318f800e04", "fusion_lat": 0.0, "name": "6b1498394226f94a13cae7318f800e04", "is_reserved": 0, "rental_uris": {"android": "https://dc.lft.to/lastmile_qr_scan", "ios": "https://dc.lft.to/lastmile_qr_scan"}, "fusion_lon": 0.0}, {"lat": 38.9114395, "is_disabled": 0, "type": "electric_scooter", "lon": -77.04485033333333, "bike_id": "832d97fafd06b030c45f38dd284071df", "fusion_lat": 0.0, "name": "832d97fafd06b030c45f38dd284071df", "is_reserved": 0, "rental_uris": {"android": "https://dc.lft.to/lastmile_qr_scan", "ios": "https://dc.lft.to/lastmile_qr_scan"}, "fusion_lon": 0.0}, {"lat": 38.895856333333334, "is_disabled": 0, "type": "electric_scooter", "lon": -77.02190483333334, "bike_id": "0a21e13aba73dc032c0c53675ee69ad4", "fusion_lat": 0.0, "name": "0a21e13aba73dc032c0c53675ee69ad4", "is_reserved": 0, "rental_uris": {"android": "https://dc.lft.to/lastmile_qr_scan", "ios": "https://dc.lft.to/lastmile_qr_scan"}, "fusion_lon": 0.0}, {"lat": 38.8948335, "is_disabled": 0, "type": "electric_scooter", "lon": -77.0229005, "bike_id": "b0d4558ff50bfd29f93787f9edaa94d6", "fusion_lat": 0.0, "name": "b0d4558ff50bfd29f93787f9edaa94d6", "is_reserved": 0, "rental_uris": {"android": "https://dc.lft.to/lastmile_qr_scan", "ios": "https://dc.lft.to/lastmile_qr_scan"}, "fusion_lon": 0.0}, {"lat": 38.93079183333333, "is_disabled": 0, "type": "electric_scooter", "lon": -77.0165805, "bike_id": "2802cb7ebcc3aef07fe65092dc077a6d", "fusion_lat": 0.0, "name": "2802cb7ebcc3aef07fe65092dc077a6d", "is_reserved": 0, "rental_uris": {"android": "https://dc.lft.to/lastmile_qr_scan", "ios": "https://dc.lft.to/lastmile_qr_scan"}, "fusion_lon": 0.0}, {"lat": 38.92072366666667, "is_disabled": 0, "type": "electric_scooter", "lon": -77.04188566666667, "bike_id": "34e85838ffa4c4c30ab2fd4efbd71cc4", "fusion_lat": 0.0, "name": "34e85838ffa4c4c30ab2fd4efbd71cc4", "is_reserved": 0, "rental_uris": {"android": "https://dc.lft.to/lastmile_qr_scan", "ios": "https://dc.lft.to/lastmile_qr_scan"}, "fusion_lon": 0.0}, {"lat": 38.896840166666664, "is_disabled": 0, "type": "electric_scooter", "lon": -76.93609583333334, "bike_id": "f1ae695a36708dd3803a74933e583c32", "fusion_lat": 0.0, "name": "f1ae695a36708dd3803a74933e583c32", "is_reserved": 0, "rental_uris": {"android": "https://dc.lft.to/lastmile_qr_scan", "ios": "https://dc.lft.to/lastmile_qr_scan"}, "fusion_lon": 0.0}, {"lat": 38.88717183333333, "is_disabled": 0, "type": "electric_scooter", "lon": -76.95481483333333, "bike_id": "5cef904a0495caeb00a0253568329824", "fusion_lat": 0.0, "name": "5cef904a0495caeb00a0253568329824", "is_reserved": 0, "rental_uris": {"android": "https://dc.lft.to/lastmile_qr_scan", "ios": "https://dc.lft.to/lastmile_qr_scan"}, "fusion_lon": 0.0}, {"lat": 38.90705883333333, "is_disabled": 0, "type": "electric_scooter", "lon": -76.987033, "bike_id": "009f4ecb714f27048b81e8dcf2155543", "fusion_lat": 0.0, "name": "009f4ecb714f27048b81e8dcf2155543", "is_reserved": 0, "rental_uris": {"android": "https://dc.lft.to/lastmile_qr_scan", "ios": "https://dc.lft.to/lastmile_qr_scan"}, "fusion_lon": 0.0}, {"lat": 38.929029666666665, "is_disabled": 0, "type": "electric_scooter", "lon": -77.02584833333333, "bike_id": "ff422629db2a4207e7c5d69608e52b56", "fusion_lat": 0.0, "name": "ff422629db2a4207e7c5d69608e52b56", "is_reserved": 0, "rental_uris": {"android": "https://dc.lft.to/lastmile_qr_scan", "ios": "https://dc.lft.to/lastmile_qr_scan"}, "fusion_lon": 0.0}, {"lat": 38.939351333333335, "is_disabled": 0, "type": "electric_scooter", "lon": -77.02222933333333, "bike_id": "eb8fb7bf0ce76977bab1aaa51ca40eef", "fusion_lat": 0.0, "name": "eb8fb7bf0ce76977bab1aaa51ca40eef", "is_reserved": 0, "rental_uris": {"android": "https://dc.lft.to/lastmile_qr_scan", "ios": "https://dc.lft.to/lastmile_qr_scan"}, "fusion_lon": 0.0}, {"lat": 38.9398385, "is_disabled": 0, "type": "electric_scooter", "lon": -77.03269183333333, "bike_id": "4757c9dcf2b6fcb6dcab0c4a9b17883a", "fusion_lat": 0.0, "name": "4757c9dcf2b6fcb6dcab0c4a9b17883a", "is_reserved": 0, "rental_uris": {"android": "https://dc.lft.to/lastmile_qr_scan", "ios": "https://dc.lft.to/lastmile_qr_scan"}, "fusion_lon": 0.0}, {"lat": 38.8830285, "is_disabled": 0, "type": "electric_scooter", "lon": -76.98214666666667, "bike_id": "a63bab44b046a6e5944b9416f7dcc123", "fusion_lat": 0.0, "name": "a63bab44b046a6e5944b9416f7dcc123", "is_reserved": 0, "rental_uris": {"android": "https://dc.lft.to/lastmile_qr_scan", "ios": "https://dc.lft.to/lastmile_qr_scan"}, "fusion_lon": 0.0}, {"lat": 38.9518475, "is_disabled": 0, "type": "electric_bike", "lon": -76.9354655, "bike_id": "21793cf5b43ea47f86dc87b96511f58f", "fusion_lat": 0.0, "name": "21793cf5b43ea47f86dc87b96511f58f", "is_reserved": 0, "rental_uris": {"android": "https://dc.lft.to/lastmile_qr_scan", "ios": "https://dc.lft.to/lastmile_qr_scan"}, "fusion_lon": 0.0}, {"lat": 38.877356, "is_disabled": 0, "type": "electric_bike", "lon": -77.11845083333333, "bike_id": "c6de4e8e6dfcc8870f1e0eca0d3bd378", "fusion_lat": 0.0, "name": "c6de4e8e6dfcc8870f1e0eca0d3bd378", "is_reserved": 0, "rental_uris": {"android": "https://dc.lft.to/lastmile_qr_scan", "ios": "https://dc.lft.to/lastmile_qr_scan"}, "fusion_lon": 0.0}, {"lat": 38.863704, "is_disabled": 0, "type": "electric_scooter", "lon": -76.990485, "bike_id": "90722fff44029f3fbbc08889e0078fc5", "fusion_lat": 0.0, "name": "90722fff44029f3fbbc08889e0078fc5", "is_reserved": 0, "rental_uris": {"android": "https://dc.lft.to/lastmile_qr_scan", "ios": "https://dc.lft.to/lastmile_qr_scan"}, "fusion_lon": 0.0}, {"lat": 38.872890166666664, "is_disabled": 0, "type": "electric_scooter", "lon": -77.009886, "bike_id": "dff5381438e0bb1ed1b68deca275978f", "fusion_lat": 0.0, "name": "dff5381438e0bb1ed1b68deca275978f", "is_reserved": 0, "rental_uris": {"android": "https://dc.lft.to/lastmile_qr_scan", "ios": "https://dc.lft.to/lastmile_qr_scan"}, "fusion_lon": 0.0}, {"lat": 38.9188415, "is_disabled": 0, "type": "electric_scooter", "lon": -77.04159616666666, "bike_id": "9c6e3940e2af0c248bec7942729a99d0", "fusion_lat": 0.0, "name": "9c6e3940e2af0c248bec7942729a99d0", "is_reserved": 0, "rental_uris": {"android": "https://dc.lft.to/lastmile_qr_scan", "ios": "https://dc.lft.to/lastmile_qr_scan"}, "fusion_lon": 0.0}, {"lat": 38.80268783333333, "is_disabled": 0, "type": "electric_bike", "lon": -77.08114933333333, "bike_id": "23d245dab6615d9b0a6c2fda5680b65d", "fusion_lat": 0.0, "name": "23d245dab6615d9b0a6c2fda5680b65d", "is_reserved": 0, "rental_uris": {"android": "https://dc.lft.to/lastmile_qr_scan", "ios": "https://dc.lft.to/lastmile_qr_scan"}, "fusion_lon": 0.0}, {"lat": 38.914849833333335, "is_disabled": 0, "type": "electric_scooter", "lon": -77.03469883333334, "bike_id": "de2c11bc93bff2d2ec4dcff68ed47b2f", "fusion_lat": 0.0, "name": "de2c11bc93bff2d2ec4dcff68ed47b2f", "is_reserved": 0, "rental_uris": {"android": "https://dc.lft.to/lastmile_qr_scan", "ios": "https://dc.lft.to/lastmile_qr_scan"}, "fusion_lon": 0.0}, {"lat": 38.91830983333333, "is_disabled": 0, "type": "electric_scooter", "lon": -77.04539166666666, "bike_id": "221f883478e6430013447cbcb9d27bce", "fusion_lat": 0.0, "name": "221f883478e6430013447cbcb9d27bce", "is_reserved": 0, "rental_uris": {"android": "https://dc.lft.to/lastmile_qr_scan", "ios": "https://dc.lft.to/lastmile_qr_scan"}, "fusion_lon": 0.0}, {"lat": 38.91714416666667, "is_disabled": 0, "type": "electric_scooter", "lon": -77.030997, "bike_id": "26992e545887612205a508ba2285dbe2", "fusion_lat": 0.0, "name": "26992e545887612205a508ba2285dbe2", "is_reserved": 0, "rental_uris": {"android": "https://dc.lft.to/lastmile_qr_scan", "ios": "https://dc.lft.to/lastmile_qr_scan"}, "fusion_lon": 0.0}, {"lat": 38.954042, "is_disabled": 0, "type": "electric_scooter", "lon": -77.027481, "bike_id": "e95b3bd65b4ab922f28307514d2ba70f", "fusion_lat": 0.0, "name": "e95b3bd65b4ab922f28307514d2ba70f", "is_reserved": 0, "rental_uris": {"android": "https://dc.lft.to/lastmile_qr_scan", "ios": "https://dc.lft.to/lastmile_qr_scan"}, "fusion_lon": 0.0}, {"lat": 38.90560716666667, "is_disabled": 0, "type": "electric_scooter", "lon": -77.05693883333333, "bike_id": "517408216c5fc17bcf3b77031a3b8e23", "fusion_lat": 0.0, "name": "517408216c5fc17bcf3b77031a3b8e23", "is_reserved": 0, "rental_uris": {"android": "https://dc.lft.to/lastmile_qr_scan", "ios": "https://dc.lft.to/lastmile_qr_scan"}, "fusion_lon": 0.0}, {"lat": 38.9197855, "is_disabled": 0, "type": "electric_scooter", "lon": -77.04129916666666, "bike_id": "496ff9ae70c65bb205d5a3eef8029af9", "fusion_lat": 0.0, "name": "496ff9ae70c65bb205d5a3eef8029af9", "is_reserved": 0, "rental_uris": {"android": "https://dc.lft.to/lastmile_qr_scan", "ios": "https://dc.lft.to/lastmile_qr_scan"}, "fusion_lon": 0.0}, {"lat": 38.954935, "is_disabled": 0, "type": "electric_scooter", "lon": -77.06568666666666, "bike_id": "14da843007d6ca4404ec0ef5d85cf188", "fusion_lat": 0.0, "name": "14da843007d6ca4404ec0ef5d85cf188", "is_reserved": 0, "rental_uris": {"android": "https://dc.lft.to/lastmile_qr_scan", "ios": "https://dc.lft.to/lastmile_qr_scan"}, "fusion_lon": 0.0}, {"lat": 38.91559483333333, "is_disabled": 0, "type": "electric_scooter", "lon": -77.03238666666667, "bike_id": "7be6a8a17133ae1222ba2b724fd4be01", "fusion_lat": 0.0, "name": "7be6a8a17133ae1222ba2b724fd4be01", "is_reserved": 0, "rental_uris": {"android": "https://dc.lft.to/lastmile_qr_scan", "ios": "https://dc.lft.to/lastmile_qr_scan"}, "fusion_lon": 0.0}, {"lat": 38.908851166666665, "is_disabled": 0, "type": "electric_scooter", "lon": -77.043396, "bike_id": "9086a9327d5506ad0ef6e9ee8bc9f0e4", "fusion_lat": 0.0, "name": "9086a9327d5506ad0ef6e9ee8bc9f0e4", "is_reserved": 0, "rental_uris": {"android": "https://dc.lft.to/lastmile_qr_scan", "ios": "https://dc.lft.to/lastmile_qr_scan"}, "fusion_lon": 0.0}, {"lat": 38.91569966666667, "is_disabled": 0, "type": "electric_scooter", "lon": -77.03469366666667, "bike_id": "1ccb28bcd4be28b88d8619e51ba7cd0a", "fusion_lat": 0.0, "name": "1ccb28bcd4be28b88d8619e51ba7cd0a", "is_reserved": 0, "rental_uris": {"android": "https://dc.lft.to/lastmile_qr_scan", "ios": "https://dc.lft.to/lastmile_qr_scan"}, "fusion_lon": 0.0}, {"lat": 38.91849783333333, "is_disabled": 0, "type": "electric_scooter", "lon": -77.03194883333333, "bike_id": "ba8b2c1c7cc12367c2cfb309393095b2", "fusion_lat": 0.0, "name": "ba8b2c1c7cc12367c2cfb309393095b2", "is_reserved": 0, "rental_uris": {"android": "https://dc.lft.to/lastmile_qr_scan", "ios": "https://dc.lft.to/lastmile_qr_scan"}, "fusion_lon": 0.0}, {"lat": 38.89763816666667, "is_disabled": 0, "type": "electric_scooter", "lon": -77.03221333333333, "bike_id": "2d245cc91b440609a9992b36df9ca7d4", "fusion_lat": 0.0, "name": "2d245cc91b440609a9992b36df9ca7d4", "is_reserved": 0, "rental_uris": {"android": "https://dc.lft.to/lastmile_qr_scan", "ios": "https://dc.lft.to/lastmile_qr_scan"}, "fusion_lon": 0.0}, {"lat": 38.8666005, "is_disabled": 0, "type": "electric_scooter", "lon": -76.988826, "bike_id": "665c1aec45308fbce8e446043ec9b5d9", "fusion_lat": 0.0, "name": "665c1aec45308fbce8e446043ec9b5d9", "is_reserved": 0, "rental_uris": {"android": "https://dc.lft.to/lastmile_qr_scan", "ios": "https://dc.lft.to/lastmile_qr_scan"}, "fusion_lon": 0.0}, {"lat": 38.89518983333333, "is_disabled": 0, "type": "electric_scooter", "lon": -76.97733433333333, "bike_id": "f3201e457d229c6598333af613839c39", "fusion_lat": 0.0, "name": "f3201e457d229c6598333af613839c39", "is_reserved": 0, "rental_uris": {"android": "https://dc.lft.to/lastmile_qr_scan", "ios": "https://dc.lft.to/lastmile_qr_scan"}, "fusion_lon": 0.0}, {"lat": 38.900537, "is_disabled": 0, "type": "electric_scooter", "lon": -77.029361, "bike_id": "56fda36ccb01b1501d046744ebe0a598", "fusion_lat": 0.0, "name": "56fda36ccb01b1501d046744ebe0a598", "is_reserved": 0, "rental_uris": {"android": "https://dc.lft.to/lastmile_qr_scan", "ios": "https://dc.lft.to/lastmile_qr_scan"}, "fusion_lon": 0.0}, {"lat": 38.904186333333335, "is_disabled": 0, "type": "electric_scooter", "lon": -76.990715, "bike_id": "a0b612fc1ad3159cefb8d140727dc9fe", "fusion_lat": 0.0, "name": "a0b612fc1ad3159cefb8d140727dc9fe", "is_reserved": 0, "rental_uris": {"android": "https://dc.lft.to/lastmile_qr_scan", "ios": "https://dc.lft.to/lastmile_qr_scan"}, "fusion_lon": 0.0}, {"lat": 38.84609833333333, "is_disabled": 0, "type": "electric_bike", "lon": -76.96900016666666, "bike_id": "35ec1dbc5dd5cb8f76c83db5f6892f2b", "fusion_lat": 0.0, "name": "35ec1dbc5dd5cb8f76c83db5f6892f2b", "is_reserved": 0, "rental_uris": {"android": "https://dc.lft.to/lastmile_qr_scan", "ios": "https://dc.lft.to/lastmile_qr_scan"}, "fusion_lon": 0.0}, {"lat": 38.960226166666665, "is_disabled": 0, "type": "electric_scooter", "lon": -77.02832283333333, "bike_id": "95aa8d66104a1b7151fd4e821c81911a", "fusion_lat": 0.0, "name": "95aa8d66104a1b7151fd4e821c81911a", "is_reserved": 0, "rental_uris": {"android": "https://dc.lft.to/lastmile_qr_scan", "ios": "https://dc.lft.to/lastmile_qr_scan"}, "fusion_lon": 0.0}, {"lat": 38.92024633333333, "is_disabled": 0, "type": "electric_scooter", "lon": -77.04202883333333, "bike_id": "3ae8d2543370ebac7e2b5c5bf3a44481", "fusion_lat": 0.0, "name": "3ae8d2543370ebac7e2b5c5bf3a44481", "is_reserved": 0, "rental_uris": {"android": "https://dc.lft.to/lastmile_qr_scan", "ios": "https://dc.lft.to/lastmile_qr_scan"}, "fusion_lon": 0.0}, {"lat": 38.919783833333334, "is_disabled": 0, "type": "electric_scooter", "lon": -77.00022633333333, "bike_id": "ca40cb5e498b70df1672b7a7c37711c8", "fusion_lat": 0.0, "name": "ca40cb5e498b70df1672b7a7c37711c8", "is_reserved": 0, "rental_uris": {"android": "https://dc.lft.to/lastmile_qr_scan", "ios": "https://dc.lft.to/lastmile_qr_scan"}, "fusion_lon": 0.0}, {"lat": 38.93409966666667, "is_disabled": 0, "type": "electric_bike", "lon": -77.02506983333333, "bike_id": "3499f0942faa033aa6ab0c61ee764025", "fusion_lat": 0.0, "name": "3499f0942faa033aa6ab0c61ee764025", "is_reserved": 0, "rental_uris": {"android": "https://dc.lft.to/lastmile_qr_scan", "ios": "https://dc.lft.to/lastmile_qr_scan"}, "fusion_lon": 0.0}, {"lat": 38.931192333333335, "is_disabled": 0, "type": "electric_scooter", "lon": -77.03030133333333, "bike_id": "b5783f0cd8e5cb07296571c1979adb31", "fusion_lat": 0.0, "name": "b5783f0cd8e5cb07296571c1979adb31", "is_reserved": 0, "rental_uris": {"android": "https://dc.lft.to/lastmile_qr_scan", "ios": "https://dc.lft.to/lastmile_qr_scan"}, "fusion_lon": 0.0}, {"lat": 38.9146325, "is_disabled": 0, "type": "electric_scooter", "lon": -77.03190416666666, "bike_id": "740108637abb3f2113822a4840f6a215", "fusion_lat": 0.0, "name": "740108637abb3f2113822a4840f6a215", "is_reserved": 0, "rental_uris": {"android": "https://dc.lft.to/lastmile_qr_scan", "ios": "https://dc.lft.to/lastmile_qr_scan"}, "fusion_lon": 0.0}, {"lat": 38.886751833333335, "is_disabled": 0, "type": "electric_scooter", "lon": -76.98565416666666, "bike_id": "ce25ad2437976157e0fb6fc1ac5820b4", "fusion_lat": 0.0, "name": "ce25ad2437976157e0fb6fc1ac5820b4", "is_reserved": 0, "rental_uris": {"android": "https://dc.lft.to/lastmile_qr_scan", "ios": "https://dc.lft.to/lastmile_qr_scan"}, "fusion_lon": 0.0}, {"lat": 38.90141783333333, "is_disabled": 0, "type": "electric_scooter", "lon": -76.98058233333333, "bike_id": "bfee0b3a75d4d1f01feca78c73f7c50b", "fusion_lat": 0.0, "name": "bfee0b3a75d4d1f01feca78c73f7c50b", "is_reserved": 0, "rental_uris": {"android": "https://dc.lft.to/lastmile_qr_scan", "ios": "https://dc.lft.to/lastmile_qr_scan"}, "fusion_lon": 0.0}, {"lat": 38.94228283333333, "is_disabled": 0, "type": "electric_scooter", "lon": -77.01390066666667, "bike_id": "944e0d851b3002aadbcb6f26836c2d4b", "fusion_lat": 0.0, "name": "944e0d851b3002aadbcb6f26836c2d4b", "is_reserved": 0, "rental_uris": {"android": "https://dc.lft.to/lastmile_qr_scan", "ios": "https://dc.lft.to/lastmile_qr_scan"}, "fusion_lon": 0.0}, {"lat": 38.908543333333334, "is_disabled": 0, "type": "electric_scooter", "lon": -77.0386105, "bike_id": "c1a4301f425dd880c03f4c437c4c30f0", "fusion_lat": 0.0, "name": "c1a4301f425dd880c03f4c437c4c30f0", "is_reserved": 0, "rental_uris": {"android": "https://dc.lft.to/lastmile_qr_scan", "ios": "https://dc.lft.to/lastmile_qr_scan"}, "fusion_lon": 0.0}, {"lat": 38.91351516666667, "is_disabled": 0, "type": "electric_scooter", "lon": -77.0152565, "bike_id": "d1e2ee93ee52cd0e06e80ace527495a9", "fusion_lat": 0.0, "name": "d1e2ee93ee52cd0e06e80ace527495a9", "is_reserved": 0, "rental_uris": {"android": "https://dc.lft.to/lastmile_qr_scan", "ios": "https://dc.lft.to/lastmile_qr_scan"}, "fusion_lon": 0.0}, {"lat": 38.912673833333336, "is_disabled": 0, "type": "electric_scooter", "lon": -77.00488433333334, "bike_id": "bf41ac5df9246f74912f4fdf243bc804", "fusion_lat": 0.0, "name": "bf41ac5df9246f74912f4fdf243bc804", "is_reserved": 0, "rental_uris": {"android": "https://dc.lft.to/lastmile_qr_scan", "ios": "https://dc.lft.to/lastmile_qr_scan"}, "fusion_lon": 0.0}, {"lat": 38.9046815, "is_disabled": 0, "type": "electric_scooter", "lon": -77.00736983333333, "bike_id": "911d6fc523d51bdb8afe5716ef5eade7", "fusion_lat": 0.0, "name": "911d6fc523d51bdb8afe5716ef5eade7", "is_reserved": 0, "rental_uris": {"android": "https://dc.lft.to/lastmile_qr_scan", "ios": "https://dc.lft.to/lastmile_qr_scan"}, "fusion_lon": 0.0}, {"lat": 38.881680833333334, "is_disabled": 0, "type": "electric_scooter", "lon": -76.99495116666667, "bike_id": "3e006f016cfa3f4f25075362f56a8023", "fusion_lat": 0.0, "name": "3e006f016cfa3f4f25075362f56a8023", "is_reserved": 0, "rental_uris": {"android": "https://dc.lft.to/lastmile_qr_scan", "ios": "https://dc.lft.to/lastmile_qr_scan"}, "fusion_lon": 0.0}, {"lat": 38.909037833333336, "is_disabled": 0, "type": "electric_scooter", "lon": -77.046589, "bike_id": "33ef95f98ac2c91567e90185faa4cc02", "fusion_lat": 0.0, "name": "33ef95f98ac2c91567e90185faa4cc02", "is_reserved": 0, "rental_uris": {"android": "https://dc.lft.to/lastmile_qr_scan", "ios": "https://dc.lft.to/lastmile_qr_scan"}, "fusion_lon": 0.0}, {"lat": 38.842919333333334, "is_disabled": 0, "type": "electric_scooter", "lon": -76.9994655, "bike_id": "0a3efc4d1834b05fbc11a8eff529ced0", "fusion_lat": 0.0, "name": "0a3efc4d1834b05fbc11a8eff529ced0", "is_reserved": 0, "rental_uris": {"android": "https://dc.lft.to/lastmile_qr_scan", "ios": "https://dc.lft.to/lastmile_qr_scan"}, "fusion_lon": 0.0}, {"lat": 38.91983166666667, "is_disabled": 0, "type": "electric_scooter", "lon": -77.04161366666666, "bike_id": "3b4b63855358d048b5140686aa0c8146", "fusion_lat": 0.0, "name": "3b4b63855358d048b5140686aa0c8146", "is_reserved": 0, "rental_uris": {"android": "https://dc.lft.to/lastmile_qr_scan", "ios": "https://dc.lft.to/lastmile_qr_scan"}, "fusion_lon": 0.0}, {"lat": 38.9226105, "is_disabled": 0, "type": "electric_scooter", "lon": -77.019209, "bike_id": "3445e9f709cb4b6ef6b19da8e8e79127", "fusion_lat": 0.0, "name": "3445e9f709cb4b6ef6b19da8e8e79127", "is_reserved": 0, "rental_uris": {"android": "https://dc.lft.to/lastmile_qr_scan", "ios": "https://dc.lft.to/lastmile_qr_scan"}, "fusion_lon": 0.0}, {"lat": 38.91667483333333, "is_disabled": 0, "type": "electric_scooter", "lon": -77.006683, "bike_id": "22508a203c1aeb1d77e85c82a2686b6e", "fusion_lat": 0.0, "name": "22508a203c1aeb1d77e85c82a2686b6e", "is_reserved": 0, "rental_uris": {"android": "https://dc.lft.to/lastmile_qr_scan", "ios": "https://dc.lft.to/lastmile_qr_scan"}, "fusion_lon": 0.0}, {"lat": 38.92531316666667, "is_disabled": 0, "type": "electric_scooter", "lon": -77.007655, "bike_id": "18fa2cccba1b0c30181188d40698fc4d", "fusion_lat": 0.0, "name": "18fa2cccba1b0c30181188d40698fc4d", "is_reserved": 0, "rental_uris": {"android": "https://dc.lft.to/lastmile_qr_scan", "ios": "https://dc.lft.to/lastmile_qr_scan"}, "fusion_lon": 0.0}, {"lat": 38.902536833333336, "is_disabled": 0, "type": "electric_scooter", "lon": -77.0176, "bike_id": "26bfb954b78bc59a0bf0d82ee88f4388", "fusion_lat": 0.0, "name": "26bfb954b78bc59a0bf0d82ee88f4388", "is_reserved": 0, "rental_uris": {"android": "https://dc.lft.to/lastmile_qr_scan", "ios": "https://dc.lft.to/lastmile_qr_scan"}, "fusion_lon": 0.0}, {"lat": 38.86730266666667, "is_disabled": 0, "type": "electric_scooter", "lon": -76.98777983333333, "bike_id": "e08d95ede5661e7c29034dac99c57bdb", "fusion_lat": 0.0, "name": "e08d95ede5661e7c29034dac99c57bdb", "is_reserved": 0, "rental_uris": {"android": "https://dc.lft.to/lastmile_qr_scan", "ios": "https://dc.lft.to/lastmile_qr_scan"}, "fusion_lon": 0.0}, {"lat": 38.90159883333333, "is_disabled": 0, "type": "electric_scooter", "lon": -76.98044833333333, "bike_id": "fca4fc8bf3edd4d98a15fc1c075ba3ba", "fusion_lat": 0.0, "name": "fca4fc8bf3edd4d98a15fc1c075ba3ba", "is_reserved": 0, "rental_uris": {"android": "https://dc.lft.to/lastmile_qr_scan", "ios": "https://dc.lft.to/lastmile_qr_scan"}, "fusion_lon": 0.0}, {"lat": 38.913289666666664, "is_disabled": 0, "type": "electric_bike", "lon": -77.018702, "bike_id": "df4bcd1a34c1b5d4f92552f6b49a8754", "fusion_lat": 0.0, "name": "df4bcd1a34c1b5d4f92552f6b49a8754", "is_reserved": 0, "rental_uris": {"android": "https://dc.lft.to/lastmile_qr_scan", "ios": "https://dc.lft.to/lastmile_qr_scan"}, "fusion_lon": 0.0}, {"lat": 38.8585035, "is_disabled": 0, "type": "electric_scooter", "lon": -76.99568916666666, "bike_id": "fc2657728b5da34de0050593c1209f2c", "fusion_lat": 0.0, "name": "fc2657728b5da34de0050593c1209f2c", "is_reserved": 0, "rental_uris": {"android": "https://dc.lft.to/lastmile_qr_scan", "ios": "https://dc.lft.to/lastmile_qr_scan"}, "fusion_lon": 0.0}, {"lat": 38.8766995, "is_disabled": 0, "type": "electric_scooter", "lon": -77.01758966666667, "bike_id": "688b4446d14c2fae3c6f4243933506df", "fusion_lat": 0.0, "name": "688b4446d14c2fae3c6f4243933506df", "is_reserved": 0, "rental_uris": {"android": "https://dc.lft.to/lastmile_qr_scan", "ios": "https://dc.lft.to/lastmile_qr_scan"}, "fusion_lon": 0.0}, {"lat": 38.91961333333333, "is_disabled": 0, "type": "electric_scooter", "lon": -77.01445883333334, "bike_id": "87d8f9e19ee7a8f22576b1c2a8b2d688", "fusion_lat": 0.0, "name": "87d8f9e19ee7a8f22576b1c2a8b2d688", "is_reserved": 0, "rental_uris": {"android": "https://dc.lft.to/lastmile_qr_scan", "ios": "https://dc.lft.to/lastmile_qr_scan"}, "fusion_lon": 0.0}, {"lat": 38.89847, "is_disabled": 0, "type": "electric_scooter", "lon": -77.03324466666666, "bike_id": "d8639dedacd7bf98cc005c0a0749cffb", "fusion_lat": 0.0, "name": "d8639dedacd7bf98cc005c0a0749cffb", "is_reserved": 0, "rental_uris": {"android": "https://dc.lft.to/lastmile_qr_scan", "ios": "https://dc.lft.to/lastmile_qr_scan"}, "fusion_lon": 0.0}, {"lat": 38.8846495, "is_disabled": 0, "type": "electric_scooter", "lon": -76.92956116666667, "bike_id": "f8cd986f2b4b4dc82be05192ef9ec56a", "fusion_lat": 0.0, "name": "f8cd986f2b4b4dc82be05192ef9ec56a", "is_reserved": 0, "rental_uris": {"android": "https://dc.lft.to/lastmile_qr_scan", "ios": "https://dc.lft.to/lastmile_qr_scan"}, "fusion_lon": 0.0}, {"lat": 38.99910366666667, "is_disabled": 0, "type": "electric_bike", "lon": -77.0289225, "bike_id": "d9e83766bda28625b9d601310bad8f03", "fusion_lat": 0.0, "name": "d9e83766bda28625b9d601310bad8f03", "is_reserved": 0, "rental_uris": {"android": "https://dc.lft.to/lastmile_qr_scan", "ios": "https://dc.lft.to/lastmile_qr_scan"}, "fusion_lon": 0.0}, {"lat": 38.887164, "is_disabled": 0, "type": "electric_bike", "lon": -77.13301783333333, "bike_id": "f8a0e4ec087c0b25364c6652f75953c5", "fusion_lat": 0.0, "name": "f8a0e4ec087c0b25364c6652f75953c5", "is_reserved": 0, "rental_uris": {"android": "https://dc.lft.to/lastmile_qr_scan", "ios": "https://dc.lft.to/lastmile_qr_scan"}, "fusion_lon": 0.0}, {"lat": 38.957193, "is_disabled": 0, "type": "electric_scooter", "lon": -77.02406483333333, "bike_id": "3cdb1ed19b7311cb25b3d32deb4eec25", "fusion_lat": 0.0, "name": "3cdb1ed19b7311cb25b3d32deb4eec25", "is_reserved": 0, "rental_uris": {"android": "https://dc.lft.to/lastmile_qr_scan", "ios": "https://dc.lft.to/lastmile_qr_scan"}, "fusion_lon": 0.0}, {"lat": 38.93757866666667, "is_disabled": 0, "type": "electric_scooter", "lon": -77.03292083333334, "bike_id": "f6c92af3af44f39fb0748ed5a3bdc6fd", "fusion_lat": 0.0, "name": "f6c92af3af44f39fb0748ed5a3bdc6fd", "is_reserved": 0, "rental_uris": {"android": "https://dc.lft.to/lastmile_qr_scan", "ios": "https://dc.lft.to/lastmile_qr_scan"}, "fusion_lon": 0.0}, {"lat": 38.9343105, "is_disabled": 0, "type": "electric_scooter", "lon": -76.9650765, "bike_id": "4f911c9e8581a706c85778b266d36122", "fusion_lat": 0.0, "name": "4f911c9e8581a706c85778b266d36122", "is_reserved": 0, "rental_uris": {"android": "https://dc.lft.to/lastmile_qr_scan", "ios": "https://dc.lft.to/lastmile_qr_scan"}, "fusion_lon": 0.0}, {"lat": 38.8854575, "is_disabled": 0, "type": "electric_bike", "lon": -77.11785866666666, "bike_id": "7dcf19f1ff47db0ce2fe45da7eb4306a", "fusion_lat": 0.0, "name": "7dcf19f1ff47db0ce2fe45da7eb4306a", "is_reserved": 0, "rental_uris": {"android": "https://dc.lft.to/lastmile_qr_scan", "ios": "https://dc.lft.to/lastmile_qr_scan"}, "fusion_lon": 0.0}, {"lat": 38.93875216666667, "is_disabled": 0, "type": "electric_scooter", "lon": -77.0244655, "bike_id": "83a1b65185b7e9c784d1c1dc8db496dc", "fusion_lat": 0.0, "name": "83a1b65185b7e9c784d1c1dc8db496dc", "is_reserved": 0, "rental_uris": {"android": "https://dc.lft.to/lastmile_qr_scan", "ios": "https://dc.lft.to/lastmile_qr_scan"}, "fusion_lon": 0.0}, {"lat": 38.92507533333333, "is_disabled": 0, "type": "electric_scooter", "lon": -77.03790183333334, "bike_id": "eaca5001978e65c51eb4b19944a51c6d", "fusion_lat": 0.0, "name": "eaca5001978e65c51eb4b19944a51c6d", "is_reserved": 0, "rental_uris": {"android": "https://dc.lft.to/lastmile_qr_scan", "ios": "https://dc.lft.to/lastmile_qr_scan"}, "fusion_lon": 0.0}, {"lat": 38.92594883333334, "is_disabled": 0, "type": "electric_scooter", "lon": -77.03224583333333, "bike_id": "9d46d80dff6c1c63756bf6b490da74dc", "fusion_lat": 0.0, "name": "9d46d80dff6c1c63756bf6b490da74dc", "is_reserved": 0, "rental_uris": {"android": "https://dc.lft.to/lastmile_qr_scan", "ios": "https://dc.lft.to/lastmile_qr_scan"}, "fusion_lon": 0.0}, {"lat": 38.909562, "is_disabled": 0, "type": "electric_scooter", "lon": -77.0366315, "bike_id": "4aa6cfe29b80efe4f56b0a23071e35fc", "fusion_lat": 0.0, "name": "4aa6cfe29b80efe4f56b0a23071e35fc", "is_reserved": 0, "rental_uris": {"android": "https://dc.lft.to/lastmile_qr_scan", "ios": "https://dc.lft.to/lastmile_qr_scan"}, "fusion_lon": 0.0}, {"lat": 38.884637833333336, "is_disabled": 0, "type": "electric_scooter", "lon": -76.92620716666667, "bike_id": "e179161cab3bbf36b967fa798e4a40cc", "fusion_lat": 0.0, "name": "e179161cab3bbf36b967fa798e4a40cc", "is_reserved": 0, "rental_uris": {"android": "https://dc.lft.to/lastmile_qr_scan", "ios": "https://dc.lft.to/lastmile_qr_scan"}, "fusion_lon": 0.0}, {"lat": 38.92855016666667, "is_disabled": 0, "type": "electric_bike", "lon": -77.10680516666666, "bike_id": "e583cb461db90ec99fce953c83cf9aaf", "fusion_lat": 0.0, "name": "e583cb461db90ec99fce953c83cf9aaf", "is_reserved": 0, "rental_uris": {"android": "https://dc.lft.to/lastmile_qr_scan", "ios": "https://dc.lft.to/lastmile_qr_scan"}, "fusion_lon": 0.0}, {"lat": 38.90004416666667, "is_disabled": 0, "type": "electric_scooter", "lon": -76.99819116666667, "bike_id": "deb336f23934fcdd8b18fd93e1b77447", "fusion_lat": 0.0, "name": "deb336f23934fcdd8b18fd93e1b77447", "is_reserved": 0, "rental_uris": {"android": "https://dc.lft.to/lastmile_qr_scan", "ios": "https://dc.lft.to/lastmile_qr_scan"}, "fusion_lon": 0.0}, {"lat": 38.908796333333335, "is_disabled": 0, "type": "electric_scooter", "lon": -77.06434416666667, "bike_id": "bd78d827bb046ae0ea22b57d407467de", "fusion_lat": 0.0, "name": "bd78d827bb046ae0ea22b57d407467de", "is_reserved": 0, "rental_uris": {"android": "https://dc.lft.to/lastmile_qr_scan", "ios": "https://dc.lft.to/lastmile_qr_scan"}, "fusion_lon": 0.0}, {"lat": 38.9061055, "is_disabled": 0, "type": "electric_scooter", "lon": -77.065251, "bike_id": "dabbccd763c7912371175dd757879112", "fusion_lat": 0.0, "name": "dabbccd763c7912371175dd757879112", "is_reserved": 0, "rental_uris": {"android": "https://dc.lft.to/lastmile_qr_scan", "ios": "https://dc.lft.to/lastmile_qr_scan"}, "fusion_lon": 0.0}, {"lat": 38.934241, "is_disabled": 0, "type": "electric_scooter", "lon": -77.04410866666667, "bike_id": "1d211afc5be9dec62d5c26a4fb0f710c", "fusion_lat": 0.0, "name": "1d211afc5be9dec62d5c26a4fb0f710c", "is_reserved": 0, "rental_uris": {"android": "https://dc.lft.to/lastmile_qr_scan", "ios": "https://dc.lft.to/lastmile_qr_scan"}, "fusion_lon": 0.0}, {"lat": 38.93192716666667, "is_disabled": 0, "type": "electric_scooter", "lon": -77.03156416666667, "bike_id": "b9e08a15366042b19260fdf5785ccc7b", "fusion_lat": 0.0, "name": "b9e08a15366042b19260fdf5785ccc7b", "is_reserved": 0, "rental_uris": {"android": "https://dc.lft.to/lastmile_qr_scan", "ios": "https://dc.lft.to/lastmile_qr_scan"}, "fusion_lon": 0.0}, {"lat": 38.937638, "is_disabled": 0, "type": "electric_scooter", "lon": -77.03141566666666, "bike_id": "a23c869a8733157ff9ea43ccac36eee0", "fusion_lat": 0.0, "name": "a23c869a8733157ff9ea43ccac36eee0", "is_reserved": 0, "rental_uris": {"android": "https://dc.lft.to/lastmile_qr_scan", "ios": "https://dc.lft.to/lastmile_qr_scan"}, "fusion_lon": 0.0}, {"lat": 38.896345333333336, "is_disabled": 0, "type": "electric_scooter", "lon": -77.04481333333334, "bike_id": "a3d25ca1abe5acf678567eb8dfa41e3b", "fusion_lat": 0.0, "name": "a3d25ca1abe5acf678567eb8dfa41e3b", "is_reserved": 0, "rental_uris": {"android": "https://dc.lft.to/lastmile_qr_scan", "ios": "https://dc.lft.to/lastmile_qr_scan"}, "fusion_lon": 0.0}, {"lat": 38.80745566666667, "is_disabled": 0, "type": "electric_bike", "lon": -77.09430033333334, "bike_id": "b6c0e00b83ac86c634fc066ab3771a8f", "fusion_lat": 0.0, "name": "b6c0e00b83ac86c634fc066ab3771a8f", "is_reserved": 0, "rental_uris": {"android": "https://dc.lft.to/lastmile_qr_scan", "ios": "https://dc.lft.to/lastmile_qr_scan"}, "fusion_lon": 0.0}, {"lat": 38.954045, "is_disabled": 0, "type": "electric_scooter", "lon": -77.02749833333333, "bike_id": "5b474697201aa057cf33980bb8e2faf9", "fusion_lat": 0.0, "name": "5b474697201aa057cf33980bb8e2faf9", "is_reserved": 0, "rental_uris": {"android": "https://dc.lft.to/lastmile_qr_scan", "ios": "https://dc.lft.to/lastmile_qr_scan"}, "fusion_lon": 0.0}, {"lat": 38.912984333333334, "is_disabled": 0, "type": "electric_scooter", "lon": -77.045502, "bike_id": "5d535625925edf44df451ca8b6f066c8", "fusion_lat": 0.0, "name": "5d535625925edf44df451ca8b6f066c8", "is_reserved": 0, "rental_uris": {"android": "https://dc.lft.to/lastmile_qr_scan", "ios": "https://dc.lft.to/lastmile_qr_scan"}, "fusion_lon": 0.0}, {"lat": 38.86518216666666, "is_disabled": 0, "type": "electric_scooter", "lon": -76.99044316666667, "bike_id": "c2dcdf9c7a9a47c316e6f3513071772f", "fusion_lat": 0.0, "name": "c2dcdf9c7a9a47c316e6f3513071772f", "is_reserved": 0, "rental_uris": {"android": "https://dc.lft.to/lastmile_qr_scan", "ios": "https://dc.lft.to/lastmile_qr_scan"}, "fusion_lon": 0.0}, {"lat": 38.930041833333334, "is_disabled": 0, "type": "electric_scooter", "lon": -77.056635, "bike_id": "20240b38932f29f052cd3a5345071508", "fusion_lat": 0.0, "name": "20240b38932f29f052cd3a5345071508", "is_reserved": 0, "rental_uris": {"android": "https://dc.lft.to/lastmile_qr_scan", "ios": "https://dc.lft.to/lastmile_qr_scan"}, "fusion_lon": 0.0}, {"lat": 38.890495666666666, "is_disabled": 0, "type": "electric_scooter", "lon": -76.93757266666667, "bike_id": "71adb152b19b5608bae669742acd8351", "fusion_lat": 0.0, "name": "71adb152b19b5608bae669742acd8351", "is_reserved": 0, "rental_uris": {"android": "https://dc.lft.to/lastmile_qr_scan", "ios": "https://dc.lft.to/lastmile_qr_scan"}, "fusion_lon": 0.0}, {"lat": 38.869972, "is_disabled": 0, "type": "electric_bike", "lon": -77.06566366666667, "bike_id": "d4c77195288cedf1f81125dbfa966815", "fusion_lat": 0.0, "name": "d4c77195288cedf1f81125dbfa966815", "is_reserved": 0, "rental_uris": {"android": "https://dc.lft.to/lastmile_qr_scan", "ios": "https://dc.lft.to/lastmile_qr_scan"}, "fusion_lon": 0.0}, {"lat": 38.83810583333333, "is_disabled": 0, "type": "electric_bike", "lon": -77.09524666666667, "bike_id": "ef4c7ee150d56ddb364e859daeae3aca", "fusion_lat": 0.0, "name": "ef4c7ee150d56ddb364e859daeae3aca", "is_reserved": 0, "rental_uris": {"android": "https://dc.lft.to/lastmile_qr_scan", "ios": "https://dc.lft.to/lastmile_qr_scan"}, "fusion_lon": 0.0}, {"lat": 38.896183666666666, "is_disabled": 0, "type": "electric_scooter", "lon": -77.03005483333334, "bike_id": "e28f0de5c4a4a1e7bbd9ff90cf092dea", "fusion_lat": 0.0, "name": "e28f0de5c4a4a1e7bbd9ff90cf092dea", "is_reserved": 0, "rental_uris": {"android": "https://dc.lft.to/lastmile_qr_scan", "ios": "https://dc.lft.to/lastmile_qr_scan"}, "fusion_lon": 0.0}, {"lat": 38.8763025, "is_disabled": 0, "type": "electric_scooter", "lon": -76.96528833333333, "bike_id": "f9ac3d1a4f526d620d276b875f021cfb", "fusion_lat": 0.0, "name": "f9ac3d1a4f526d620d276b875f021cfb", "is_reserved": 0, "rental_uris": {"android": "https://dc.lft.to/lastmile_qr_scan", "ios": "https://dc.lft.to/lastmile_qr_scan"}, "fusion_lon": 0.0}, {"lat": 38.90261983333333, "is_disabled": 0, "type": "electric_scooter", "lon": -77.04054816666667, "bike_id": "68ec7e3b0cbbc3c7cae8ef99f2dfa27d", "fusion_lat": 0.0, "name": "68ec7e3b0cbbc3c7cae8ef99f2dfa27d", "is_reserved": 0, "rental_uris": {"android": "https://dc.lft.to/lastmile_qr_scan", "ios": "https://dc.lft.to/lastmile_qr_scan"}, "fusion_lon": 0.0}, {"lat": 38.90256216666667, "is_disabled": 0, "type": "electric_scooter", "lon": -77.01760916666667, "bike_id": "fb1698dea4502a8728cc0ef46ea8ab37", "fusion_lat": 0.0, "name": "fb1698dea4502a8728cc0ef46ea8ab37", "is_reserved": 0, "rental_uris": {"android": "https://dc.lft.to/lastmile_qr_scan", "ios": "https://dc.lft.to/lastmile_qr_scan"}, "fusion_lon": 0.0}, {"lat": 38.904416166666664, "is_disabled": 0, "type": "electric_scooter", "lon": -77.036724, "bike_id": "8d68fab7861e379f0cd433e87fbe3f9d", "fusion_lat": 0.0, "name": "8d68fab7861e379f0cd433e87fbe3f9d", "is_reserved": 0, "rental_uris": {"android": "https://dc.lft.to/lastmile_qr_scan", "ios": "https://dc.lft.to/lastmile_qr_scan"}, "fusion_lon": 0.0}, {"lat": 38.946281166666665, "is_disabled": 0, "type": "electric_scooter", "lon": -77.01845566666667, "bike_id": "d9cec9b2a46e8268d37725d30f33d04d", "fusion_lat": 0.0, "name": "d9cec9b2a46e8268d37725d30f33d04d", "is_reserved": 0, "rental_uris": {"android": "https://dc.lft.to/lastmile_qr_scan", "ios": "https://dc.lft.to/lastmile_qr_scan"}, "fusion_lon": 0.0}, {"lat": 38.900870833333336, "is_disabled": 0, "type": "electric_scooter", "lon": -77.02448583333333, "bike_id": "0ba4190bf5a8d17bfc5532188ce4de77", "fusion_lat": 0.0, "name": "0ba4190bf5a8d17bfc5532188ce4de77", "is_reserved": 0, "rental_uris": {"android": "https://dc.lft.to/lastmile_qr_scan", "ios": "https://dc.lft.to/lastmile_qr_scan"}, "fusion_lon": 0.0}, {"lat": 38.908380333333334, "is_disabled": 0, "type": "electric_scooter", "lon": -77.028147, "bike_id": "1bc936d51899e8614e8873eaad03aaac", "fusion_lat": 0.0, "name": "1bc936d51899e8614e8873eaad03aaac", "is_reserved": 0, "rental_uris": {"android": "https://dc.lft.to/lastmile_qr_scan", "ios": "https://dc.lft.to/lastmile_qr_scan"}, "fusion_lon": 0.0}, {"lat": 38.886462333333334, "is_disabled": 0, "type": "electric_bike", "lon": -77.16233116666666, "bike_id": "ff028c17055a92f91a61f74093f764d3", "fusion_lat": 0.0, "name": "ff028c17055a92f91a61f74093f764d3", "is_reserved": 0, "rental_uris": {"android": "https://dc.lft.to/lastmile_qr_scan", "ios": "https://dc.lft.to/lastmile_qr_scan"}, "fusion_lon": 0.0}, {"lat": 38.92149783333333, "is_disabled": 0, "type": "electric_scooter", "lon": -77.04219516666667, "bike_id": "7c5e37c555e734470bed03c7304489e8", "fusion_lat": 0.0, "name": "7c5e37c555e734470bed03c7304489e8", "is_reserved": 0, "rental_uris": {"android": "https://dc.lft.to/lastmile_qr_scan", "ios": "https://dc.lft.to/lastmile_qr_scan"}, "fusion_lon": 0.0}, {"lat": 38.91887366666667, "is_disabled": 0, "type": "electric_scooter", "lon": -77.03903, "bike_id": "5275ff0944b9af4fce99cdc0d6bf57de", "fusion_lat": 0.0, "name": "5275ff0944b9af4fce99cdc0d6bf57de", "is_reserved": 0, "rental_uris": {"android": "https://dc.lft.to/lastmile_qr_scan", "ios": "https://dc.lft.to/lastmile_qr_scan"}, "fusion_lon": 0.0}, {"lat": 38.90145533333333, "is_disabled": 0, "type": "electric_scooter", "lon": -77.041538, "bike_id": "315dd3fdca53994bdcbc9d356290ac3a", "fusion_lat": 0.0, "name": "315dd3fdca53994bdcbc9d356290ac3a", "is_reserved": 0, "rental_uris": {"android": "https://dc.lft.to/lastmile_qr_scan", "ios": "https://dc.lft.to/lastmile_qr_scan"}, "fusion_lon": 0.0}, {"lat": 38.920224, "is_disabled": 0, "type": "electric_scooter", "lon": -77.04183033333334, "bike_id": "2b978da6b03037e51b1979bda304f26c", "fusion_lat": 0.0, "name": "2b978da6b03037e51b1979bda304f26c", "is_reserved": 0, "rental_uris": {"android": "https://dc.lft.to/lastmile_qr_scan", "ios": "https://dc.lft.to/lastmile_qr_scan"}, "fusion_lon": 0.0}, {"lat": 38.90256516666667, "is_disabled": 0, "type": "electric_scooter", "lon": -77.04658166666667, "bike_id": "fc7cca212b9930ea513e91b9401e6121", "fusion_lat": 0.0, "name": "fc7cca212b9930ea513e91b9401e6121", "is_reserved": 0, "rental_uris": {"android": "https://dc.lft.to/lastmile_qr_scan", "ios": "https://dc.lft.to/lastmile_qr_scan"}, "fusion_lon": 0.0}, {"lat": 38.9211015, "is_disabled": 0, "type": "electric_scooter", "lon": -77.01758666666667, "bike_id": "2258d6c63505d57a7183b7399bedc9f6", "fusion_lat": 0.0, "name": "2258d6c63505d57a7183b7399bedc9f6", "is_reserved": 0, "rental_uris": {"android": "https://dc.lft.to/lastmile_qr_scan", "ios": "https://dc.lft.to/lastmile_qr_scan"}, "fusion_lon": 0.0}, {"lat": 38.91400183333333, "is_disabled": 0, "type": "electric_scooter", "lon": -77.03066916666667, "bike_id": "ae95440042346237d6a4cf9644ff407e", "fusion_lat": 0.0, "name": "ae95440042346237d6a4cf9644ff407e", "is_reserved": 0, "rental_uris": {"android": "https://dc.lft.to/lastmile_qr_scan", "ios": "https://dc.lft.to/lastmile_qr_scan"}, "fusion_lon": 0.0}, {"lat": 38.904605333333336, "is_disabled": 0, "type": "electric_scooter", "lon": -77.007811, "bike_id": "feafdfe87039936870e4937387e02501", "fusion_lat": 0.0, "name": "feafdfe87039936870e4937387e02501", "is_reserved": 0, "rental_uris": {"android": "https://dc.lft.to/lastmile_qr_scan", "ios": "https://dc.lft.to/lastmile_qr_scan"}, "fusion_lon": 0.0}, {"lat": 38.90476066666667, "is_disabled": 0, "type": "electric_scooter", "lon": -77.0090935, "bike_id": "805d0ca4f684261ef7ea256b3e976d06", "fusion_lat": 0.0, "name": "805d0ca4f684261ef7ea256b3e976d06", "is_reserved": 0, "rental_uris": {"android": "https://dc.lft.to/lastmile_qr_scan", "ios": "https://dc.lft.to/lastmile_qr_scan"}, "fusion_lon": 0.0}, {"lat": 38.94270383333333, "is_disabled": 0, "type": "electric_scooter", "lon": -77.03261516666667, "bike_id": "07ec673f6209243c7e170461f83396a0", "fusion_lat": 0.0, "name": "07ec673f6209243c7e170461f83396a0", "is_reserved": 0, "rental_uris": {"android": "https://dc.lft.to/lastmile_qr_scan", "ios": "https://dc.lft.to/lastmile_qr_scan"}, "fusion_lon": 0.0}, {"lat": 38.89604333333333, "is_disabled": 0, "type": "electric_scooter", "lon": -76.95591783333333, "bike_id": "9d50ddb079480f43886bdd623174ed56", "fusion_lat": 0.0, "name": "9d50ddb079480f43886bdd623174ed56", "is_reserved": 0, "rental_uris": {"android": "https://dc.lft.to/lastmile_qr_scan", "ios": "https://dc.lft.to/lastmile_qr_scan"}, "fusion_lon": 0.0}, {"lat": 38.91056366666667, "is_disabled": 0, "type": "electric_scooter", "lon": -77.0460655, "bike_id": "317d6070239c8e550b8e19a73a2511a6", "fusion_lat": 0.0, "name": "317d6070239c8e550b8e19a73a2511a6", "is_reserved": 0, "rental_uris": {"android": "https://dc.lft.to/lastmile_qr_scan", "ios": "https://dc.lft.to/lastmile_qr_scan"}, "fusion_lon": 0.0}, {"lat": 38.924173, "is_disabled": 0, "type": "electric_scooter", "lon": -77.03548916666666, "bike_id": "e767186238206fc6ae47cdff6a2c2988", "fusion_lat": 0.0, "name": "e767186238206fc6ae47cdff6a2c2988", "is_reserved": 0, "rental_uris": {"android": "https://dc.lft.to/lastmile_qr_scan", "ios": "https://dc.lft.to/lastmile_qr_scan"}, "fusion_lon": 0.0}, {"lat": 38.928400333333336, "is_disabled": 0, "type": "electric_scooter", "lon": -77.05419433333333, "bike_id": "166897e88bd43a5583f2a57b7ca2e57c", "fusion_lat": 0.0, "name": "166897e88bd43a5583f2a57b7ca2e57c", "is_reserved": 0, "rental_uris": {"android": "https://dc.lft.to/lastmile_qr_scan", "ios": "https://dc.lft.to/lastmile_qr_scan"}, "fusion_lon": 0.0}, {"lat": 38.9353295, "is_disabled": 0, "type": "electric_scooter", "lon": -77.023522, "bike_id": "56d5b851492fab69076f72965c4ad430", "fusion_lat": 0.0, "name": "56d5b851492fab69076f72965c4ad430", "is_reserved": 0, "rental_uris": {"android": "https://dc.lft.to/lastmile_qr_scan", "ios": "https://dc.lft.to/lastmile_qr_scan"}, "fusion_lon": 0.0}, {"lat": 39.02432233333333, "is_disabled": 0, "type": "electric_bike", "lon": -77.13102933333333, "bike_id": "9c2ba806d8292b4bdb1902d00a5e5e37", "fusion_lat": 0.0, "name": "9c2ba806d8292b4bdb1902d00a5e5e37", "is_reserved": 0, "rental_uris": {"android": "https://dc.lft.to/lastmile_qr_scan", "ios": "https://dc.lft.to/lastmile_qr_scan"}, "fusion_lon": 0.0}, {"lat": 38.998254333333335, "is_disabled": 0, "type": "electric_bike", "lon": -76.8837515, "bike_id": "1f1d2c64aad60ddf293729d2f208d645", "fusion_lat": 0.0, "name": "1f1d2c64aad60ddf293729d2f208d645", "is_reserved": 0, "rental_uris": {"android": "https://dc.lft.to/lastmile_qr_scan", "ios": "https://dc.lft.to/lastmile_qr_scan"}, "fusion_lon": 0.0}, {"lat": 38.90538683333333, "is_disabled": 0, "type": "electric_scooter", "lon": -77.02244933333333, "bike_id": "f48a6fb3986c27f043b28f60a59b2068", "fusion_lat": 0.0, "name": "f48a6fb3986c27f043b28f60a59b2068", "is_reserved": 0, "rental_uris": {"android": "https://dc.lft.to/lastmile_qr_scan", "ios": "https://dc.lft.to/lastmile_qr_scan"}, "fusion_lon": 0.0}, {"lat": 38.885800833333334, "is_disabled": 0, "type": "electric_scooter", "lon": -77.01226183333333, "bike_id": "f5dd2c9e36a5a94d17081146018cd39c", "fusion_lat": 0.0, "name": "f5dd2c9e36a5a94d17081146018cd39c", "is_reserved": 0, "rental_uris": {"android": "https://dc.lft.to/lastmile_qr_scan", "ios": "https://dc.lft.to/lastmile_qr_scan"}, "fusion_lon": 0.0}, {"lat": 38.936162833333334, "is_disabled": 0, "type": "electric_scooter", "lon": -77.03217066666667, "bike_id": "a34a97ae80f081ba8002295446cbdf19", "fusion_lat": 0.0, "name": "a34a97ae80f081ba8002295446cbdf19", "is_reserved": 0, "rental_uris": {"android": "https://dc.lft.to/lastmile_qr_scan", "ios": "https://dc.lft.to/lastmile_qr_scan"}, "fusion_lon": 0.0}, {"lat": 39.030483833333335, "is_disabled": 0, "type": "electric_bike", "lon": -77.09479366666666, "bike_id": "90764a8abc16da35c31a1b1d8492eba4", "fusion_lat": 0.0, "name": "90764a8abc16da35c31a1b1d8492eba4", "is_reserved": 0, "rental_uris": {"android": "https://dc.lft.to/lastmile_qr_scan", "ios": "https://dc.lft.to/lastmile_qr_scan"}, "fusion_lon": 0.0}, {"lat": 38.9105655, "is_disabled": 0, "type": "electric_scooter", "lon": -77.04126116666667, "bike_id": "7830717e4b424b1478b0d5b1d295e84f", "fusion_lat": 0.0, "name": "7830717e4b424b1478b0d5b1d295e84f", "is_reserved": 0, "rental_uris": {"android": "https://dc.lft.to/lastmile_qr_scan", "ios": "https://dc.lft.to/lastmile_qr_scan"}, "fusion_lon": 0.0}, {"lat": 38.914198666666664, "is_disabled": 0, "type": "electric_scooter", "lon": -77.032588, "bike_id": "70e84676127b28ce3a816a3dab228f03", "fusion_lat": 0.0, "name": "70e84676127b28ce3a816a3dab228f03", "is_reserved": 0, "rental_uris": {"android": "https://dc.lft.to/lastmile_qr_scan", "ios": "https://dc.lft.to/lastmile_qr_scan"}, "fusion_lon": 0.0}, {"lat": 38.93087033333333, "is_disabled": 0, "type": "electric_scooter", "lon": -76.96723233333333, "bike_id": "e81fc166b0dde8cc0c8bccc4d70e7762", "fusion_lat": 0.0, "name": "e81fc166b0dde8cc0c8bccc4d70e7762", "is_reserved": 0, "rental_uris": {"android": "https://dc.lft.to/lastmile_qr_scan", "ios": "https://dc.lft.to/lastmile_qr_scan"}, "fusion_lon": 0.0}, {"lat": 38.9602175, "is_disabled": 0, "type": "electric_bike", "lon": -77.01726166666667, "bike_id": "5c27d4426f45829b7b56076ab5e3a786", "fusion_lat": 0.0, "name": "5c27d4426f45829b7b56076ab5e3a786", "is_reserved": 0, "rental_uris": {"android": "https://dc.lft.to/lastmile_qr_scan", "ios": "https://dc.lft.to/lastmile_qr_scan"}, "fusion_lon": 0.0}, {"lat": 39.029352, "is_disabled": 0, "type": "electric_bike", "lon": -77.04931666666667, "bike_id": "874a1be12bdf6328dab51fbcd23c2cbd", "fusion_lat": 0.0, "name": "874a1be12bdf6328dab51fbcd23c2cbd", "is_reserved": 0, "rental_uris": {"android": "https://dc.lft.to/lastmile_qr_scan", "ios": "https://dc.lft.to/lastmile_qr_scan"}, "fusion_lon": 0.0}, {"lat": 38.917216, "is_disabled": 0, "type": "electric_scooter", "lon": -77.041032, "bike_id": "e5b93efd7a1f848fcc9a4a20072cedfa", "fusion_lat": 0.0, "name": "e5b93efd7a1f848fcc9a4a20072cedfa", "is_reserved": 0, "rental_uris": {"android": "https://dc.lft.to/lastmile_qr_scan", "ios": "https://dc.lft.to/lastmile_qr_scan"}, "fusion_lon": 0.0}, {"lat": 38.950732, "is_disabled": 0, "type": "electric_scooter", "lon": -77.0087855, "bike_id": "b92d713a6ae77e24d103888ea60d6609", "fusion_lat": 0.0, "name": "b92d713a6ae77e24d103888ea60d6609", "is_reserved": 0, "rental_uris": {"android": "https://dc.lft.to/lastmile_qr_scan", "ios": "https://dc.lft.to/lastmile_qr_scan"}, "fusion_lon": 0.0}, {"lat": 38.92320433333333, "is_disabled": 0, "type": "electric_scooter", "lon": -77.04122616666666, "bike_id": "7c607ea3652d55833ac5aca64eb3cda9", "fusion_lat": 0.0, "name": "7c607ea3652d55833ac5aca64eb3cda9", "is_reserved": 0, "rental_uris": {"android": "https://dc.lft.to/lastmile_qr_scan", "ios": "https://dc.lft.to/lastmile_qr_scan"}, "fusion_lon": 0.0}, {"lat": 38.875849, "is_disabled": 0, "type": "electric_scooter", "lon": -77.01331333333333, "bike_id": "305d99af3e888b825a3383ceda7484c3", "fusion_lat": 0.0, "name": "305d99af3e888b825a3383ceda7484c3", "is_reserved": 0, "rental_uris": {"android": "https://dc.lft.to/lastmile_qr_scan", "ios": "https://dc.lft.to/lastmile_qr_scan"}, "fusion_lon": 0.0}, {"lat": 38.88470316666667, "is_disabled": 0, "type": "electric_scooter", "lon": -76.99264783333334, "bike_id": "9a8e80109c539fa595a8b94c83fc0075", "fusion_lat": 0.0, "name": "9a8e80109c539fa595a8b94c83fc0075", "is_reserved": 0, "rental_uris": {"android": "https://dc.lft.to/lastmile_qr_scan", "ios": "https://dc.lft.to/lastmile_qr_scan"}, "fusion_lon": 0.0}, {"lat": 38.899763166666666, "is_disabled": 0, "type": "electric_scooter", "lon": -77.02298366666666, "bike_id": "51e7a923aaacec95f369799c074d6844", "fusion_lat": 0.0, "name": "51e7a923aaacec95f369799c074d6844", "is_reserved": 0, "rental_uris": {"android": "https://dc.lft.to/lastmile_qr_scan", "ios": "https://dc.lft.to/lastmile_qr_scan"}, "fusion_lon": 0.0}, {"lat": 38.88081416666667, "is_disabled": 0, "type": "electric_scooter", "lon": -76.98534866666667, "bike_id": "e49fb328e92dc0f9dca57d9e764fd718", "fusion_lat": 0.0, "name": "e49fb328e92dc0f9dca57d9e764fd718", "is_reserved": 0, "rental_uris": {"android": "https://dc.lft.to/lastmile_qr_scan", "ios": "https://dc.lft.to/lastmile_qr_scan"}, "fusion_lon": 0.0}, {"lat": 38.9592425, "is_disabled": 0, "type": "electric_bike", "lon": -77.03119116666667, "bike_id": "70a283466157e152cb06834a2c94bc2d", "fusion_lat": 0.0, "name": "70a283466157e152cb06834a2c94bc2d", "is_reserved": 0, "rental_uris": {"android": "https://dc.lft.to/lastmile_qr_scan", "ios": "https://dc.lft.to/lastmile_qr_scan"}, "fusion_lon": 0.0}, {"lat": 38.919812, "is_disabled": 0, "type": "electric_scooter", "lon": -76.97306083333334, "bike_id": "5a3651c12c7320b8345b53ce9e278a25", "fusion_lat": 0.0, "name": "5a3651c12c7320b8345b53ce9e278a25", "is_reserved": 0, "rental_uris": {"android": "https://dc.lft.to/lastmile_qr_scan", "ios": "https://dc.lft.to/lastmile_qr_scan"}, "fusion_lon": 0.0}, {"lat": 38.90859416666667, "is_disabled": 0, "type": "electric_bike", "lon": -77.08082433333334, "bike_id": "83684a4f26543efd6b3aa38d0b15b20a", "fusion_lat": 0.0, "name": "83684a4f26543efd6b3aa38d0b15b20a", "is_reserved": 0, "rental_uris": {"android": "https://dc.lft.to/lastmile_qr_scan", "ios": "https://dc.lft.to/lastmile_qr_scan"}, "fusion_lon": 0.0}, {"lat": 38.954053, "is_disabled": 0, "type": "electric_scooter", "lon": -77.02752983333333, "bike_id": "b389960b44b489d09b3c50ad52befa50", "fusion_lat": 0.0, "name": "b389960b44b489d09b3c50ad52befa50", "is_reserved": 0, "rental_uris": {"android": "https://dc.lft.to/lastmile_qr_scan", "ios": "https://dc.lft.to/lastmile_qr_scan"}, "fusion_lon": 0.0}, {"lat": 38.902431, "is_disabled": 0, "type": "electric_scooter", "lon": -77.00204633333334, "bike_id": "5f768c70ee92dfcef2afca016d30819b", "fusion_lat": 0.0, "name": "5f768c70ee92dfcef2afca016d30819b", "is_reserved": 0, "rental_uris": {"android": "https://dc.lft.to/lastmile_qr_scan", "ios": "https://dc.lft.to/lastmile_qr_scan"}, "fusion_lon": 0.0}, {"lat": 38.91696, "is_disabled": 0, "type": "electric_scooter", "lon": -77.01064316666667, "bike_id": "fe414f5054ec872e8154df62c9eee5d2", "fusion_lat": 0.0, "name": "fe414f5054ec872e8154df62c9eee5d2", "is_reserved": 0, "rental_uris": {"android": "https://dc.lft.to/lastmile_qr_scan", "ios": "https://dc.lft.to/lastmile_qr_scan"}, "fusion_lon": 0.0}, {"lat": 38.88086583333333, "is_disabled": 0, "type": "electric_scooter", "lon": -76.92725816666666, "bike_id": "7c0d0b757d42cde97e3af63388f60d94", "fusion_lat": 0.0, "name": "7c0d0b757d42cde97e3af63388f60d94", "is_reserved": 0, "rental_uris": {"android": "https://dc.lft.to/lastmile_qr_scan", "ios": "https://dc.lft.to/lastmile_qr_scan"}, "fusion_lon": 0.0}, {"lat": 38.92500283333333, "is_disabled": 0, "type": "electric_scooter", "lon": -77.00892983333334, "bike_id": "db735c770434dd16636aa76ed7ae08d5", "fusion_lat": 0.0, "name": "db735c770434dd16636aa76ed7ae08d5", "is_reserved": 0, "rental_uris": {"android": "https://dc.lft.to/lastmile_qr_scan", "ios": "https://dc.lft.to/lastmile_qr_scan"}, "fusion_lon": 0.0}, {"lat": 38.9156485, "is_disabled": 0, "type": "electric_scooter", "lon": -77.03239016666667, "bike_id": "cd1af748b42b7f626a9c7042cb4932bb", "fusion_lat": 0.0, "name": "cd1af748b42b7f626a9c7042cb4932bb", "is_reserved": 0, "rental_uris": {"android": "https://dc.lft.to/lastmile_qr_scan", "ios": "https://dc.lft.to/lastmile_qr_scan"}, "fusion_lon": 0.0}, {"lat": 38.83936333333333, "is_disabled": 0, "type": "electric_bike", "lon": -77.0791385, "bike_id": "e7de9c8b60a89c5470430524d4b20a53", "fusion_lat": 0.0, "name": "e7de9c8b60a89c5470430524d4b20a53", "is_reserved": 0, "rental_uris": {"android": "https://dc.lft.to/lastmile_qr_scan", "ios": "https://dc.lft.to/lastmile_qr_scan"}, "fusion_lon": 0.0}, {"lat": 38.9278785, "is_disabled": 0, "type": "electric_scooter", "lon": -77.02582316666667, "bike_id": "ab558ae78b52c0cb26f2a2a137389dcf", "fusion_lat": 0.0, "name": "ab558ae78b52c0cb26f2a2a137389dcf", "is_reserved": 0, "rental_uris": {"android": "https://dc.lft.to/lastmile_qr_scan", "ios": "https://dc.lft.to/lastmile_qr_scan"}, "fusion_lon": 0.0}, {"lat": 38.893716833333336, "is_disabled": 0, "type": "electric_scooter", "lon": -76.9499145, "bike_id": "37f6909361fb85fe640c21c512e3ccc4", "fusion_lat": 0.0, "name": "37f6909361fb85fe640c21c512e3ccc4", "is_reserved": 0, "rental_uris": {"android": "https://dc.lft.to/lastmile_qr_scan", "ios": "https://dc.lft.to/lastmile_qr_scan"}, "fusion_lon": 0.0}, {"lat": 38.90538683333333, "is_disabled": 0, "type": "electric_scooter", "lon": -77.05027383333334, "bike_id": "768b9fe3dbcd4e26a17a32181a8e6ef7", "fusion_lat": 0.0, "name": "768b9fe3dbcd4e26a17a32181a8e6ef7", "is_reserved": 0, "rental_uris": {"android": "https://dc.lft.to/lastmile_qr_scan", "ios": "https://dc.lft.to/lastmile_qr_scan"}, "fusion_lon": 0.0}, {"lat": 38.919509166666664, "is_disabled": 0, "type": "electric_scooter", "lon": -76.98082616666667, "bike_id": "8da84e2757e52464eeae75d376be7213", "fusion_lat": 0.0, "name": "8da84e2757e52464eeae75d376be7213", "is_reserved": 0, "rental_uris": {"android": "https://dc.lft.to/lastmile_qr_scan", "ios": "https://dc.lft.to/lastmile_qr_scan"}, "fusion_lon": 0.0}, {"lat": 38.914085666666665, "is_disabled": 0, "type": "electric_scooter", "lon": -77.03257266666667, "bike_id": "dcfff3f8fd2cb037e46d514fa4d9363d", "fusion_lat": 0.0, "name": "dcfff3f8fd2cb037e46d514fa4d9363d", "is_reserved": 0, "rental_uris": {"android": "https://dc.lft.to/lastmile_qr_scan", "ios": "https://dc.lft.to/lastmile_qr_scan"}, "fusion_lon": 0.0}, {"lat": 38.922724333333335, "is_disabled": 0, "type": "electric_scooter", "lon": -77.029607, "bike_id": "d23c817a2475f991638ad9467bdb2fc5", "fusion_lat": 0.0, "name": "d23c817a2475f991638ad9467bdb2fc5", "is_reserved": 0, "rental_uris": {"android": "https://dc.lft.to/lastmile_qr_scan", "ios": "https://dc.lft.to/lastmile_qr_scan"}, "fusion_lon": 0.0}, {"lat": 38.90616216666667, "is_disabled": 0, "type": "electric_scooter", "lon": -77.03965783333334, "bike_id": "3244b42c0b0632bab342093176775c2b", "fusion_lat": 0.0, "name": "3244b42c0b0632bab342093176775c2b", "is_reserved": 0, "rental_uris": {"android": "https://dc.lft.to/lastmile_qr_scan", "ios": "https://dc.lft.to/lastmile_qr_scan"}, "fusion_lon": 0.0}, {"lat": 38.86049833333333, "is_disabled": 0, "type": "electric_scooter", "lon": -77.05745166666667, "bike_id": "061056315bfa35360b3a5bc2484fed3e", "fusion_lat": 0.0, "name": "061056315bfa35360b3a5bc2484fed3e", "is_reserved": 0, "rental_uris": {"android": "https://dc.lft.to/lastmile_qr_scan", "ios": "https://dc.lft.to/lastmile_qr_scan"}, "fusion_lon": 0.0}, {"lat": 38.9032915, "is_disabled": 0, "type": "electric_scooter", "lon": -77.0378445, "bike_id": "5a0812f23457db546dd285c9db12ee8c", "fusion_lat": 0.0, "name": "5a0812f23457db546dd285c9db12ee8c", "is_reserved": 0, "rental_uris": {"android": "https://dc.lft.to/lastmile_qr_scan", "ios": "https://dc.lft.to/lastmile_qr_scan"}, "fusion_lon": 0.0}, {"lat": 38.91879866666667, "is_disabled": 0, "type": "electric_scooter", "lon": -77.0425735, "bike_id": "425ed0ce35e1cc453cefba572943001a", "fusion_lat": 0.0, "name": "425ed0ce35e1cc453cefba572943001a", "is_reserved": 0, "rental_uris": {"android": "https://dc.lft.to/lastmile_qr_scan", "ios": "https://dc.lft.to/lastmile_qr_scan"}, "fusion_lon": 0.0}, {"lat": 38.91907116666667, "is_disabled": 0, "type": "electric_scooter", "lon": -77.035455, "bike_id": "e6ac225dd8d04275772b4b38bf02c799", "fusion_lat": 0.0, "name": "e6ac225dd8d04275772b4b38bf02c799", "is_reserved": 0, "rental_uris": {"android": "https://dc.lft.to/lastmile_qr_scan", "ios": "https://dc.lft.to/lastmile_qr_scan"}, "fusion_lon": 0.0}, {"lat": 38.972316, "is_disabled": 0, "type": "electric_bike", "lon": -76.9934015, "bike_id": "a095791a3f9153db6c2b91e0211f1451", "fusion_lat": 0.0, "name": "a095791a3f9153db6c2b91e0211f1451", "is_reserved": 0, "rental_uris": {"android": "https://dc.lft.to/lastmile_qr_scan", "ios": "https://dc.lft.to/lastmile_qr_scan"}, "fusion_lon": 0.0}, {"lat": 38.91604366666667, "is_disabled": 0, "type": "electric_scooter", "lon": -77.03842533333334, "bike_id": "72ec898494ef475ed8f8ff05eb10d3a7", "fusion_lat": 0.0, "name": "72ec898494ef475ed8f8ff05eb10d3a7", "is_reserved": 0, "rental_uris": {"android": "https://dc.lft.to/lastmile_qr_scan", "ios": "https://dc.lft.to/lastmile_qr_scan"}, "fusion_lon": 0.0}, {"lat": 38.90628516666666, "is_disabled": 0, "type": "electric_scooter", "lon": -77.04351816666667, "bike_id": "a92fdfb2de8eacec95667de3f310c234", "fusion_lat": 0.0, "name": "a92fdfb2de8eacec95667de3f310c234", "is_reserved": 0, "rental_uris": {"android": "https://dc.lft.to/lastmile_qr_scan", "ios": "https://dc.lft.to/lastmile_qr_scan"}, "fusion_lon": 0.0}, {"lat": 38.9005475, "is_disabled": 0, "type": "electric_scooter", "lon": -77.033769, "bike_id": "eec1e2ba418d8ab63d29f0e4d9851741", "fusion_lat": 0.0, "name": "eec1e2ba418d8ab63d29f0e4d9851741", "is_reserved": 0, "rental_uris": {"android": "https://dc.lft.to/lastmile_qr_scan", "ios": "https://dc.lft.to/lastmile_qr_scan"}, "fusion_lon": 0.0}, {"lat": 38.91700383333333, "is_disabled": 0, "type": "electric_scooter", "lon": -77.027394, "bike_id": "5d7003b7deb2ca4b94f2fa9035bdc7b7", "fusion_lat": 0.0, "name": "5d7003b7deb2ca4b94f2fa9035bdc7b7", "is_reserved": 0, "rental_uris": {"android": "https://dc.lft.to/lastmile_qr_scan", "ios": "https://dc.lft.to/lastmile_qr_scan"}, "fusion_lon": 0.0}, {"lat": 38.8953835, "is_disabled": 0, "type": "electric_scooter", "lon": -77.01126783333333, "bike_id": "00800cca2fc02a9218dbb3cc4b72c0c8", "fusion_lat": 0.0, "name": "00800cca2fc02a9218dbb3cc4b72c0c8", "is_reserved": 0, "rental_uris": {"android": "https://dc.lft.to/lastmile_qr_scan", "ios": "https://dc.lft.to/lastmile_qr_scan"}, "fusion_lon": 0.0}, {"lat": 38.92487116666667, "is_disabled": 0, "type": "electric_scooter", "lon": -77.05214883333333, "bike_id": "ac1d58777831084710c69b24675ea4f2", "fusion_lat": 0.0, "name": "ac1d58777831084710c69b24675ea4f2", "is_reserved": 0, "rental_uris": {"android": "https://dc.lft.to/lastmile_qr_scan", "ios": "https://dc.lft.to/lastmile_qr_scan"}, "fusion_lon": 0.0}, {"lat": 38.89747333333333, "is_disabled": 0, "type": "electric_scooter", "lon": -77.03216466666667, "bike_id": "aee9f1920441293fde11b2df13fc9543", "fusion_lat": 0.0, "name": "aee9f1920441293fde11b2df13fc9543", "is_reserved": 0, "rental_uris": {"android": "https://dc.lft.to/lastmile_qr_scan", "ios": "https://dc.lft.to/lastmile_qr_scan"}, "fusion_lon": 0.0}, {"lat": 38.9185805, "is_disabled": 0, "type": "electric_scooter", "lon": -77.04167483333333, "bike_id": "8a92fd768c06a231195fcb73ad3169cd", "fusion_lat": 0.0, "name": "8a92fd768c06a231195fcb73ad3169cd", "is_reserved": 0, "rental_uris": {"android": "https://dc.lft.to/lastmile_qr_scan", "ios": "https://dc.lft.to/lastmile_qr_scan"}, "fusion_lon": 0.0}, {"lat": 38.8977175, "is_disabled": 0, "type": "electric_scooter", "lon": -77.05149416666667, "bike_id": "c7edf83539e94b1acf6fc3d3d704e263", "fusion_lat": 0.0, "name": "c7edf83539e94b1acf6fc3d3d704e263", "is_reserved": 0, "rental_uris": {"android": "https://dc.lft.to/lastmile_qr_scan", "ios": "https://dc.lft.to/lastmile_qr_scan"}, "fusion_lon": 0.0}, {"lat": 38.91173916666666, "is_disabled": 0, "type": "electric_scooter", "lon": -77.03859516666667, "bike_id": "d5fea1935b5a4cba56b2baa103560062", "fusion_lat": 0.0, "name": "d5fea1935b5a4cba56b2baa103560062", "is_reserved": 0, "rental_uris": {"android": "https://dc.lft.to/lastmile_qr_scan", "ios": "https://dc.lft.to/lastmile_qr_scan"}, "fusion_lon": 0.0}, {"lat": 38.90573466666667, "is_disabled": 0, "type": "electric_scooter", "lon": -76.98868983333334, "bike_id": "62c242a044cc80af32fe53b62182244a", "fusion_lat": 0.0, "name": "62c242a044cc80af32fe53b62182244a", "is_reserved": 0, "rental_uris": {"android": "https://dc.lft.to/lastmile_qr_scan", "ios": "https://dc.lft.to/lastmile_qr_scan"}, "fusion_lon": 0.0}, {"lat": 38.86657533333333, "is_disabled": 0, "type": "electric_scooter", "lon": -76.98889033333333, "bike_id": "6ce481127424e5c82cf53021279ba2d5", "fusion_lat": 0.0, "name": "6ce481127424e5c82cf53021279ba2d5", "is_reserved": 0, "rental_uris": {"android": "https://dc.lft.to/lastmile_qr_scan", "ios": "https://dc.lft.to/lastmile_qr_scan"}, "fusion_lon": 0.0}, {"lat": 38.92251666666667, "is_disabled": 0, "type": "electric_scooter", "lon": -77.04258233333333, "bike_id": "a198ec044beb01f5f5dc04803f275974", "fusion_lat": 0.0, "name": "a198ec044beb01f5f5dc04803f275974", "is_reserved": 0, "rental_uris": {"android": "https://dc.lft.to/lastmile_qr_scan", "ios": "https://dc.lft.to/lastmile_qr_scan"}, "fusion_lon": 0.0}, {"lat": 38.93350366666667, "is_disabled": 0, "type": "electric_scooter", "lon": -77.0586195, "bike_id": "e9806a6e5198433e187eb6460b705b38", "fusion_lat": 0.0, "name": "e9806a6e5198433e187eb6460b705b38", "is_reserved": 0, "rental_uris": {"android": "https://dc.lft.to/lastmile_qr_scan", "ios": "https://dc.lft.to/lastmile_qr_scan"}, "fusion_lon": 0.0}, {"lat": 38.923072, "is_disabled": 0, "type": "electric_scooter", "lon": -77.03968333333333, "bike_id": "00925770b254719a86d841bafa3ec26f", "fusion_lat": 0.0, "name": "00925770b254719a86d841bafa3ec26f", "is_reserved": 0, "rental_uris": {"android": "https://dc.lft.to/lastmile_qr_scan", "ios": "https://dc.lft.to/lastmile_qr_scan"}, "fusion_lon": 0.0}, {"lat": 38.90064183333333, "is_disabled": 0, "type": "electric_scooter", "lon": -76.93385816666667, "bike_id": "a7e50ebc7ae87a0a80dd6a0458b0c03f", "fusion_lat": 0.0, "name": "a7e50ebc7ae87a0a80dd6a0458b0c03f", "is_reserved": 0, "rental_uris": {"android": "https://dc.lft.to/lastmile_qr_scan", "ios": "https://dc.lft.to/lastmile_qr_scan"}, "fusion_lon": 0.0}, {"lat": 38.8910385, "is_disabled": 0, "type": "electric_scooter", "lon": -76.95240316666667, "bike_id": "92087ef984691d90de96c4da09286e08", "fusion_lat": 0.0, "name": "92087ef984691d90de96c4da09286e08", "is_reserved": 0, "rental_uris": {"android": "https://dc.lft.to/lastmile_qr_scan", "ios": "https://dc.lft.to/lastmile_qr_scan"}, "fusion_lon": 0.0}, {"lat": 38.90083966666667, "is_disabled": 0, "type": "electric_scooter", "lon": -77.04996633333333, "bike_id": "c617ee04ab63e39d1cbc709d158dff71", "fusion_lat": 0.0, "name": "c617ee04ab63e39d1cbc709d158dff71", "is_reserved": 0, "rental_uris": {"android": "https://dc.lft.to/lastmile_qr_scan", "ios": "https://dc.lft.to/lastmile_qr_scan"}, "fusion_lon": 0.0}, {"lat": 38.919345666666665, "is_disabled": 0, "type": "electric_scooter", "lon": -77.08131833333333, "bike_id": "64197c60e5317f255a51c057c25294a6", "fusion_lat": 0.0, "name": "64197c60e5317f255a51c057c25294a6", "is_reserved": 0, "rental_uris": {"android": "https://dc.lft.to/lastmile_qr_scan", "ios": "https://dc.lft.to/lastmile_qr_scan"}, "fusion_lon": 0.0}, {"lat": 38.913056833333336, "is_disabled": 0, "type": "electric_scooter", "lon": -77.04168633333333, "bike_id": "8e43094d5856d84685f500ccf4010f64", "fusion_lat": 0.0, "name": "8e43094d5856d84685f500ccf4010f64", "is_reserved": 0, "rental_uris": {"android": "https://dc.lft.to/lastmile_qr_scan", "ios": "https://dc.lft.to/lastmile_qr_scan"}, "fusion_lon": 0.0}, {"lat": 38.914184166666665, "is_disabled": 0, "type": "electric_scooter", "lon": -77.03213083333333, "bike_id": "7bc707d95839a99e988b04eed97dc5c7", "fusion_lat": 0.0, "name": "7bc707d95839a99e988b04eed97dc5c7", "is_reserved": 0, "rental_uris": {"android": "https://dc.lft.to/lastmile_qr_scan", "ios": "https://dc.lft.to/lastmile_qr_scan"}, "fusion_lon": 0.0}, {"lat": 38.89670016666667, "is_disabled": 0, "type": "electric_bike", "lon": -77.04487616666667, "bike_id": "f35ededde4a969e726377336bbd00be8", "fusion_lat": 0.0, "name": "f35ededde4a969e726377336bbd00be8", "is_reserved": 0, "rental_uris": {"android": "https://dc.lft.to/lastmile_qr_scan", "ios": "https://dc.lft.to/lastmile_qr_scan"}, "fusion_lon": 0.0}, {"lat": 38.916783833333334, "is_disabled": 0, "type": "electric_scooter", "lon": -77.02976033333333, "bike_id": "2242145da75c9c3de0e1912859beeab4", "fusion_lat": 0.0, "name": "2242145da75c9c3de0e1912859beeab4", "is_reserved": 0, "rental_uris": {"android": "https://dc.lft.to/lastmile_qr_scan", "ios": "https://dc.lft.to/lastmile_qr_scan"}, "fusion_lon": 0.0}, {"lat": 38.999987833333336, "is_disabled": 0, "type": "electric_bike", "lon": -76.92496633333333, "bike_id": "69af70de23f5e06425561dcfaad27a3b", "fusion_lat": 0.0, "name": "69af70de23f5e06425561dcfaad27a3b", "is_reserved": 0, "rental_uris": {"android": "https://dc.lft.to/lastmile_qr_scan", "ios": "https://dc.lft.to/lastmile_qr_scan"}, "fusion_lon": 0.0}, {"lat": 38.9097125, "is_disabled": 0, "type": "electric_scooter", "lon": -77.04507533333333, "bike_id": "e7ff6c05e25ff3b0faca39afba7c006f", "fusion_lat": 0.0, "name": "e7ff6c05e25ff3b0faca39afba7c006f", "is_reserved": 0, "rental_uris": {"android": "https://dc.lft.to/lastmile_qr_scan", "ios": "https://dc.lft.to/lastmile_qr_scan"}, "fusion_lon": 0.0}, {"lat": 38.9319585, "is_disabled": 0, "type": "electric_scooter", "lon": -77.028374, "bike_id": "e7d2699629c05c5978cfa0c17f3609b5", "fusion_lat": 0.0, "name": "e7d2699629c05c5978cfa0c17f3609b5", "is_reserved": 0, "rental_uris": {"android": "https://dc.lft.to/lastmile_qr_scan", "ios": "https://dc.lft.to/lastmile_qr_scan"}, "fusion_lon": 0.0}, {"lat": 38.86105716666667, "is_disabled": 0, "type": "electric_scooter", "lon": -76.98336183333333, "bike_id": "192b07ff3fd211ffeef970fe6cc4e78b", "fusion_lat": 0.0, "name": "192b07ff3fd211ffeef970fe6cc4e78b", "is_reserved": 0, "rental_uris": {"android": "https://dc.lft.to/lastmile_qr_scan", "ios": "https://dc.lft.to/lastmile_qr_scan"}, "fusion_lon": 0.0}, {"lat": 38.892918, "is_disabled": 0, "type": "electric_scooter", "lon": -77.00207083333333, "bike_id": "686180eee604405049bc4b27bb7a0f99", "fusion_lat": 0.0, "name": "686180eee604405049bc4b27bb7a0f99", "is_reserved": 0, "rental_uris": {"android": "https://dc.lft.to/lastmile_qr_scan", "ios": "https://dc.lft.to/lastmile_qr_scan"}, "fusion_lon": 0.0}, {"lat": 38.91760383333333, "is_disabled": 0, "type": "electric_scooter", "lon": -77.02405583333334, "bike_id": "19f9e30a76249fa199e91ef6e30dd0d9", "fusion_lat": 0.0, "name": "19f9e30a76249fa199e91ef6e30dd0d9", "is_reserved": 0, "rental_uris": {"android": "https://dc.lft.to/lastmile_qr_scan", "ios": "https://dc.lft.to/lastmile_qr_scan"}, "fusion_lon": 0.0}, {"lat": 38.91220833333333, "is_disabled": 0, "type": "electric_scooter", "lon": -77.0045025, "bike_id": "21fe749a592a6b23ef8c33c8cdf5a129", "fusion_lat": 0.0, "name": "21fe749a592a6b23ef8c33c8cdf5a129", "is_reserved": 0, "rental_uris": {"android": "https://dc.lft.to/lastmile_qr_scan", "ios": "https://dc.lft.to/lastmile_qr_scan"}, "fusion_lon": 0.0}, {"lat": 38.898702, "is_disabled": 0, "type": "electric_scooter", "lon": -77.02293466666667, "bike_id": "d9fa3d6d1645d46e9722c8aa2301b5bb", "fusion_lat": 0.0, "name": "d9fa3d6d1645d46e9722c8aa2301b5bb", "is_reserved": 0, "rental_uris": {"android": "https://dc.lft.to/lastmile_qr_scan", "ios": "https://dc.lft.to/lastmile_qr_scan"}, "fusion_lon": 0.0}, {"lat": 38.914683, "is_disabled": 0, "type": "electric_scooter", "lon": -77.032112, "bike_id": "1abb130f5bb23c5c1d829f1345bd15ad", "fusion_lat": 0.0, "name": "1abb130f5bb23c5c1d829f1345bd15ad", "is_reserved": 0, "rental_uris": {"android": "https://dc.lft.to/lastmile_qr_scan", "ios": "https://dc.lft.to/lastmile_qr_scan"}, "fusion_lon": 0.0}, {"lat": 38.898509, "is_disabled": 0, "type": "electric_scooter", "lon": -77.0335425, "bike_id": "f9e1c3bc0b286fb9beef170a33e71ba0", "fusion_lat": 0.0, "name": "f9e1c3bc0b286fb9beef170a33e71ba0", "is_reserved": 0, "rental_uris": {"android": "https://dc.lft.to/lastmile_qr_scan", "ios": "https://dc.lft.to/lastmile_qr_scan"}, "fusion_lon": 0.0}, {"lat": 38.91725916666667, "is_disabled": 0, "type": "electric_scooter", "lon": -77.02812116666666, "bike_id": "a8e9158b9a6e6842c797d30336c77c33", "fusion_lat": 0.0, "name": "a8e9158b9a6e6842c797d30336c77c33", "is_reserved": 0, "rental_uris": {"android": "https://dc.lft.to/lastmile_qr_scan", "ios": "https://dc.lft.to/lastmile_qr_scan"}, "fusion_lon": 0.0}, {"lat": 38.802278666666666, "is_disabled": 0, "type": "electric_bike", "lon": -77.0791695, "bike_id": "d134d82688ee9b7e6b98e7e94b533c36", "fusion_lat": 0.0, "name": "d134d82688ee9b7e6b98e7e94b533c36", "is_reserved": 0, "rental_uris": {"android": "https://dc.lft.to/lastmile_qr_scan", "ios": "https://dc.lft.to/lastmile_qr_scan"}, "fusion_lon": 0.0}, {"lat": 38.88034616666667, "is_disabled": 0, "type": "electric_scooter", "lon": -77.01764683333333, "bike_id": "ecb87bdc92e57e44142c9f7d1143324e", "fusion_lat": 0.0, "name": "ecb87bdc92e57e44142c9f7d1143324e", "is_reserved": 0, "rental_uris": {"android": "https://dc.lft.to/lastmile_qr_scan", "ios": "https://dc.lft.to/lastmile_qr_scan"}, "fusion_lon": 0.0}, {"lat": 38.85795066666667, "is_disabled": 0, "type": "electric_bike", "lon": -76.9874555, "bike_id": "1f8cbbbc482fb720281b6343a0033f63", "fusion_lat": 0.0, "name": "1f8cbbbc482fb720281b6343a0033f63", "is_reserved": 0, "rental_uris": {"android": "https://dc.lft.to/lastmile_qr_scan", "ios": "https://dc.lft.to/lastmile_qr_scan"}, "fusion_lon": 0.0}, {"lat": 38.91121966666667, "is_disabled": 0, "type": "electric_scooter", "lon": -77.03836116666666, "bike_id": "9c258ccee4a767292bcf3508f1409373", "fusion_lat": 0.0, "name": "9c258ccee4a767292bcf3508f1409373", "is_reserved": 0, "rental_uris": {"android": "https://dc.lft.to/lastmile_qr_scan", "ios": "https://dc.lft.to/lastmile_qr_scan"}, "fusion_lon": 0.0}, {"lat": 38.905812, "is_disabled": 0, "type": "electric_scooter", "lon": -77.04513666666666, "bike_id": "092883387cfc453fc58297d9b7815fce", "fusion_lat": 0.0, "name": "092883387cfc453fc58297d9b7815fce", "is_reserved": 0, "rental_uris": {"android": "https://dc.lft.to/lastmile_qr_scan", "ios": "https://dc.lft.to/lastmile_qr_scan"}, "fusion_lon": 0.0}, {"lat": 38.92391683333334, "is_disabled": 0, "type": "electric_scooter", "lon": -77.027609, "bike_id": "0d7fc968c51be17d1b8de5245ee5d531", "fusion_lat": 0.0, "name": "0d7fc968c51be17d1b8de5245ee5d531", "is_reserved": 0, "rental_uris": {"android": "https://dc.lft.to/lastmile_qr_scan", "ios": "https://dc.lft.to/lastmile_qr_scan"}, "fusion_lon": 0.0}, {"lat": 38.90388166666666, "is_disabled": 0, "type": "electric_scooter", "lon": -77.05315933333333, "bike_id": "8054fea9710099da3065537edeb5df3e", "fusion_lat": 0.0, "name": "8054fea9710099da3065537edeb5df3e", "is_reserved": 0, "rental_uris": {"android": "https://dc.lft.to/lastmile_qr_scan", "ios": "https://dc.lft.to/lastmile_qr_scan"}, "fusion_lon": 0.0}, {"lat": 38.91563466666667, "is_disabled": 0, "type": "electric_scooter", "lon": -77.0097335, "bike_id": "a0b10f92e96cd446d202ed13d2e2b4d6", "fusion_lat": 0.0, "name": "a0b10f92e96cd446d202ed13d2e2b4d6", "is_reserved": 0, "rental_uris": {"android": "https://dc.lft.to/lastmile_qr_scan", "ios": "https://dc.lft.to/lastmile_qr_scan"}, "fusion_lon": 0.0}, {"lat": 38.902726, "is_disabled": 0, "type": "electric_scooter", "lon": -77.03636566666667, "bike_id": "368f25ec818a14e83abfc6d14d44b763", "fusion_lat": 0.0, "name": "368f25ec818a14e83abfc6d14d44b763", "is_reserved": 0, "rental_uris": {"android": "https://dc.lft.to/lastmile_qr_scan", "ios": "https://dc.lft.to/lastmile_qr_scan"}, "fusion_lon": 0.0}, {"lat": 38.904894, "is_disabled": 0, "type": "electric_scooter", "lon": -76.99543916666667, "bike_id": "c1167cd56604e83da320221318f293d0", "fusion_lat": 0.0, "name": "c1167cd56604e83da320221318f293d0", "is_reserved": 0, "rental_uris": {"android": "https://dc.lft.to/lastmile_qr_scan", "ios": "https://dc.lft.to/lastmile_qr_scan"}, "fusion_lon": 0.0}, {"lat": 38.87748583333333, "is_disabled": 0, "type": "electric_bike", "lon": -76.99521483333334, "bike_id": "a4694cb36a9a2bf40977f855bac4f7f0", "fusion_lat": 0.0, "name": "a4694cb36a9a2bf40977f855bac4f7f0", "is_reserved": 0, "rental_uris": {"android": "https://dc.lft.to/lastmile_qr_scan", "ios": "https://dc.lft.to/lastmile_qr_scan"}, "fusion_lon": 0.0}, {"lat": 38.85426866666667, "is_disabled": 0, "type": "electric_bike", "lon": -76.90970133333333, "bike_id": "f564621ee268280ef6684c58c4f8f331", "fusion_lat": 0.0, "name": "f564621ee268280ef6684c58c4f8f331", "is_reserved": 0, "rental_uris": {"android": "https://dc.lft.to/lastmile_qr_scan", "ios": "https://dc.lft.to/lastmile_qr_scan"}, "fusion_lon": 0.0}, {"lat": 38.8104845, "is_disabled": 0, "type": "electric_bike", "lon": -77.08510566666666, "bike_id": "a52f4b19f9b633b8539739a3892047ee", "fusion_lat": 0.0, "name": "a52f4b19f9b633b8539739a3892047ee", "is_reserved": 0, "rental_uris": {"android": "https://dc.lft.to/lastmile_qr_scan", "ios": "https://dc.lft.to/lastmile_qr_scan"}, "fusion_lon": 0.0}, {"lat": 38.92111233333333, "is_disabled": 0, "type": "electric_scooter", "lon": -77.042211, "bike_id": "a511e4366b3f0850fc4c4e8f7f6ae357", "fusion_lat": 0.0, "name": "a511e4366b3f0850fc4c4e8f7f6ae357", "is_reserved": 0, "rental_uris": {"android": "https://dc.lft.to/lastmile_qr_scan", "ios": "https://dc.lft.to/lastmile_qr_scan"}, "fusion_lon": 0.0}, {"lat": 38.94601266666667, "is_disabled": 0, "type": "electric_scooter", "lon": -77.070367, "bike_id": "67e1099ace7f3af5cf41441dbb82fcab", "fusion_lat": 0.0, "name": "67e1099ace7f3af5cf41441dbb82fcab", "is_reserved": 0, "rental_uris": {"android": "https://dc.lft.to/lastmile_qr_scan", "ios": "https://dc.lft.to/lastmile_qr_scan"}, "fusion_lon": 0.0}, {"lat": 38.89971033333333, "is_disabled": 0, "type": "electric_scooter", "lon": -76.99486066666667, "bike_id": "c85cd56a4d72435e5ff68246c03574da", "fusion_lat": 0.0, "name": "c85cd56a4d72435e5ff68246c03574da", "is_reserved": 0, "rental_uris": {"android": "https://dc.lft.to/lastmile_qr_scan", "ios": "https://dc.lft.to/lastmile_qr_scan"}, "fusion_lon": 0.0}, {"lat": 38.89965683333333, "is_disabled": 0, "type": "electric_scooter", "lon": -77.051456, "bike_id": "0ab09c68a4d3d3e9601f578a7aa73d27", "fusion_lat": 0.0, "name": "0ab09c68a4d3d3e9601f578a7aa73d27", "is_reserved": 0, "rental_uris": {"android": "https://dc.lft.to/lastmile_qr_scan", "ios": "https://dc.lft.to/lastmile_qr_scan"}, "fusion_lon": 0.0}, {"lat": 38.926080666666664, "is_disabled": 0, "type": "electric_scooter", "lon": -77.0569595, "bike_id": "c6bca266e8ff29bffaa99ed14780aa35", "fusion_lat": 0.0, "name": "c6bca266e8ff29bffaa99ed14780aa35", "is_reserved": 0, "rental_uris": {"android": "https://dc.lft.to/lastmile_qr_scan", "ios": "https://dc.lft.to/lastmile_qr_scan"}, "fusion_lon": 0.0}, {"lat": 38.844257666666664, "is_disabled": 0, "type": "electric_scooter", "lon": -76.997802, "bike_id": "bac5ee4254dc6128de13b2bb044b0960", "fusion_lat": 0.0, "name": "bac5ee4254dc6128de13b2bb044b0960", "is_reserved": 0, "rental_uris": {"android": "https://dc.lft.to/lastmile_qr_scan", "ios": "https://dc.lft.to/lastmile_qr_scan"}, "fusion_lon": 0.0}, {"lat": 38.909417, "is_disabled": 0, "type": "electric_scooter", "lon": -77.04489366666667, "bike_id": "a3b2b65426a4aa74a3a4cadb4c8df567", "fusion_lat": 0.0, "name": "a3b2b65426a4aa74a3a4cadb4c8df567", "is_reserved": 0, "rental_uris": {"android": "https://dc.lft.to/lastmile_qr_scan", "ios": "https://dc.lft.to/lastmile_qr_scan"}, "fusion_lon": 0.0}, {"lat": 38.935331166666664, "is_disabled": 0, "type": "electric_scooter", "lon": -77.02354033333333, "bike_id": "7901fbbab191e9b2e693cd9acc288b41", "fusion_lat": 0.0, "name": "7901fbbab191e9b2e693cd9acc288b41", "is_reserved": 0, "rental_uris": {"android": "https://dc.lft.to/lastmile_qr_scan", "ios": "https://dc.lft.to/lastmile_qr_scan"}, "fusion_lon": 0.0}, {"lat": 38.882185166666666, "is_disabled": 0, "type": "electric_scooter", "lon": -77.029314, "bike_id": "bcc502e9fd09334acc551f49585443d0", "fusion_lat": 0.0, "name": "bcc502e9fd09334acc551f49585443d0", "is_reserved": 0, "rental_uris": {"android": "https://dc.lft.to/lastmile_qr_scan", "ios": "https://dc.lft.to/lastmile_qr_scan"}, "fusion_lon": 0.0}, {"lat": 38.93259966666667, "is_disabled": 0, "type": "electric_scooter", "lon": -77.01883716666667, "bike_id": "0067e569cc6768a6a00106369b6513ea", "fusion_lat": 0.0, "name": "0067e569cc6768a6a00106369b6513ea", "is_reserved": 0, "rental_uris": {"android": "https://dc.lft.to/lastmile_qr_scan", "ios": "https://dc.lft.to/lastmile_qr_scan"}, "fusion_lon": 0.0}, {"lat": 38.89777616666667, "is_disabled": 0, "type": "electric_scooter", "lon": -77.032154, "bike_id": "3bae91f14b31fb4034311d0b3beb39cc", "fusion_lat": 0.0, "name": "3bae91f14b31fb4034311d0b3beb39cc", "is_reserved": 0, "rental_uris": {"android": "https://dc.lft.to/lastmile_qr_scan", "ios": "https://dc.lft.to/lastmile_qr_scan"}, "fusion_lon": 0.0}, {"lat": 38.91189, "is_disabled": 0, "type": "electric_scooter", "lon": -77.0384045, "bike_id": "f581ad147f16a6b473a5f8922d4c2fcc", "fusion_lat": 0.0, "name": "f581ad147f16a6b473a5f8922d4c2fcc", "is_reserved": 0, "rental_uris": {"android": "https://dc.lft.to/lastmile_qr_scan", "ios": "https://dc.lft.to/lastmile_qr_scan"}, "fusion_lon": 0.0}, {"lat": 38.973281166666666, "is_disabled": 0, "type": "electric_bike", "lon": -77.02148683333333, "bike_id": "7cb53d3a8f56a2b6ce3a140b6ca3d3b5", "fusion_lat": 0.0, "name": "7cb53d3a8f56a2b6ce3a140b6ca3d3b5", "is_reserved": 0, "rental_uris": {"android": "https://dc.lft.to/lastmile_qr_scan", "ios": "https://dc.lft.to/lastmile_qr_scan"}, "fusion_lon": 0.0}, {"lat": 38.90961333333333, "is_disabled": 0, "type": "electric_scooter", "lon": -77.03234533333334, "bike_id": "4b64e2aced489d5ff07d88be92899de2", "fusion_lat": 0.0, "name": "4b64e2aced489d5ff07d88be92899de2", "is_reserved": 0, "rental_uris": {"android": "https://dc.lft.to/lastmile_qr_scan", "ios": "https://dc.lft.to/lastmile_qr_scan"}, "fusion_lon": 0.0}, {"lat": 38.945476166666666, "is_disabled": 0, "type": "electric_bike", "lon": -76.89539066666667, "bike_id": "5667334786e64c407bb02ad28e6debc6", "fusion_lat": 0.0, "name": "5667334786e64c407bb02ad28e6debc6", "is_reserved": 0, "rental_uris": {"android": "https://dc.lft.to/lastmile_qr_scan", "ios": "https://dc.lft.to/lastmile_qr_scan"}, "fusion_lon": 0.0}, {"lat": 38.89739333333333, "is_disabled": 0, "type": "electric_scooter", "lon": -77.0309655, "bike_id": "747e7c7e3356122e14e2dca46246cee3", "fusion_lat": 0.0, "name": "747e7c7e3356122e14e2dca46246cee3", "is_reserved": 0, "rental_uris": {"android": "https://dc.lft.to/lastmile_qr_scan", "ios": "https://dc.lft.to/lastmile_qr_scan"}, "fusion_lon": 0.0}, {"lat": 38.918501666666664, "is_disabled": 0, "type": "electric_scooter", "lon": -77.04503233333334, "bike_id": "5ad1562094b99bfc081491ac9bb25ab9", "fusion_lat": 0.0, "name": "5ad1562094b99bfc081491ac9bb25ab9", "is_reserved": 0, "rental_uris": {"android": "https://dc.lft.to/lastmile_qr_scan", "ios": "https://dc.lft.to/lastmile_qr_scan"}, "fusion_lon": 0.0}, {"lat": 38.943714666666665, "is_disabled": 0, "type": "electric_bike", "lon": -77.0774585, "bike_id": "476edc65d2811371a785e3180335f2c4", "fusion_lat": 0.0, "name": "476edc65d2811371a785e3180335f2c4", "is_reserved": 0, "rental_uris": {"android": "https://dc.lft.to/lastmile_qr_scan", "ios": "https://dc.lft.to/lastmile_qr_scan"}, "fusion_lon": 0.0}, {"lat": 38.84425733333333, "is_disabled": 0, "type": "electric_scooter", "lon": -76.99775166666667, "bike_id": "fa6699a5f997a2b3726694097fe12794", "fusion_lat": 0.0, "name": "fa6699a5f997a2b3726694097fe12794", "is_reserved": 0, "rental_uris": {"android": "https://dc.lft.to/lastmile_qr_scan", "ios": "https://dc.lft.to/lastmile_qr_scan"}, "fusion_lon": 0.0}, {"lat": 38.914157, "is_disabled": 0, "type": "electric_scooter", "lon": -77.01121566666667, "bike_id": "b933e6949b21984d139396e5da3bc4e5", "fusion_lat": 0.0, "name": "b933e6949b21984d139396e5da3bc4e5", "is_reserved": 0, "rental_uris": {"android": "https://dc.lft.to/lastmile_qr_scan", "ios": "https://dc.lft.to/lastmile_qr_scan"}, "fusion_lon": 0.0}, {"lat": 38.900727833333335, "is_disabled": 0, "type": "electric_scooter", "lon": -77.05028233333333, "bike_id": "5ea57a0f63c0e077811a72cd7514d93b", "fusion_lat": 0.0, "name": "5ea57a0f63c0e077811a72cd7514d93b", "is_reserved": 0, "rental_uris": {"android": "https://dc.lft.to/lastmile_qr_scan", "ios": "https://dc.lft.to/lastmile_qr_scan"}, "fusion_lon": 0.0}, {"lat": 38.916858166666664, "is_disabled": 0, "type": "electric_scooter", "lon": -77.024403, "bike_id": "1519d522c7a31fb88b5acdba0ced9129", "fusion_lat": 0.0, "name": "1519d522c7a31fb88b5acdba0ced9129", "is_reserved": 0, "rental_uris": {"android": "https://dc.lft.to/lastmile_qr_scan", "ios": "https://dc.lft.to/lastmile_qr_scan"}, "fusion_lon": 0.0}, {"lat": 38.88099866666667, "is_disabled": 0, "type": "electric_scooter", "lon": -76.99259366666666, "bike_id": "085b37cfb5053870f6b71b85083a9e0f", "fusion_lat": 0.0, "name": "085b37cfb5053870f6b71b85083a9e0f", "is_reserved": 0, "rental_uris": {"android": "https://dc.lft.to/lastmile_qr_scan", "ios": "https://dc.lft.to/lastmile_qr_scan"}, "fusion_lon": 0.0}, {"lat": 38.93659533333334, "is_disabled": 0, "type": "electric_bike", "lon": -76.9521825, "bike_id": "32cd26540ab92f2ad415bc8ac855f94e", "fusion_lat": 0.0, "name": "32cd26540ab92f2ad415bc8ac855f94e", "is_reserved": 0, "rental_uris": {"android": "https://dc.lft.to/lastmile_qr_scan", "ios": "https://dc.lft.to/lastmile_qr_scan"}, "fusion_lon": 0.0}, {"lat": 38.927791666666664, "is_disabled": 0, "type": "electric_scooter", "lon": -77.03600683333333, "bike_id": "4a4b55ea350ffb268506d3a4d6f22f59", "fusion_lat": 0.0, "name": "4a4b55ea350ffb268506d3a4d6f22f59", "is_reserved": 0, "rental_uris": {"android": "https://dc.lft.to/lastmile_qr_scan", "ios": "https://dc.lft.to/lastmile_qr_scan"}, "fusion_lon": 0.0}, {"lat": 38.904963333333335, "is_disabled": 0, "type": "electric_scooter", "lon": -77.04650916666667, "bike_id": "26431af13bd754e9196484be92746837", "fusion_lat": 0.0, "name": "26431af13bd754e9196484be92746837", "is_reserved": 0, "rental_uris": {"android": "https://dc.lft.to/lastmile_qr_scan", "ios": "https://dc.lft.to/lastmile_qr_scan"}, "fusion_lon": 0.0}, {"lat": 38.92327933333333, "is_disabled": 0, "type": "electric_scooter", "lon": -77.03904483333334, "bike_id": "84afaa415662df3ab3cbc76c9ca13fe6", "fusion_lat": 0.0, "name": "84afaa415662df3ab3cbc76c9ca13fe6", "is_reserved": 0, "rental_uris": {"android": "https://dc.lft.to/lastmile_qr_scan", "ios": "https://dc.lft.to/lastmile_qr_scan"}, "fusion_lon": 0.0}, {"lat": 39.03044933333334, "is_disabled": 0, "type": "electric_bike", "lon": -77.09483883333333, "bike_id": "503ab677260a80cb56410826f04b43c8", "fusion_lat": 0.0, "name": "503ab677260a80cb56410826f04b43c8", "is_reserved": 0, "rental_uris": {"android": "https://dc.lft.to/lastmile_qr_scan", "ios": "https://dc.lft.to/lastmile_qr_scan"}, "fusion_lon": 0.0}, {"lat": 38.909683, "is_disabled": 0, "type": "electric_scooter", "lon": -77.045148, "bike_id": "3c30f76e4bce7d36a46536cd66609003", "fusion_lat": 0.0, "name": "3c30f76e4bce7d36a46536cd66609003", "is_reserved": 0, "rental_uris": {"android": "https://dc.lft.to/lastmile_qr_scan", "ios": "https://dc.lft.to/lastmile_qr_scan"}, "fusion_lon": 0.0}, {"lat": 38.92184483333333, "is_disabled": 0, "type": "electric_scooter", "lon": -77.04228516666667, "bike_id": "48bba9d3a40a2680fbf52aa80cd78f1b", "fusion_lat": 0.0, "name": "48bba9d3a40a2680fbf52aa80cd78f1b", "is_reserved": 0, "rental_uris": {"android": "https://dc.lft.to/lastmile_qr_scan", "ios": "https://dc.lft.to/lastmile_qr_scan"}, "fusion_lon": 0.0}, {"lat": 38.90136616666667, "is_disabled": 0, "type": "electric_scooter", "lon": -77.0007205, "bike_id": "1d5d157c3945e7611c08bf846df78bc1", "fusion_lat": 0.0, "name": "1d5d157c3945e7611c08bf846df78bc1", "is_reserved": 0, "rental_uris": {"android": "https://dc.lft.to/lastmile_qr_scan", "ios": "https://dc.lft.to/lastmile_qr_scan"}, "fusion_lon": 0.0}, {"lat": 38.91718566666667, "is_disabled": 0, "type": "electric_scooter", "lon": -77.028939, "bike_id": "2b10a571fb2820a56e806c16e55bce4d", "fusion_lat": 0.0, "name": "2b10a571fb2820a56e806c16e55bce4d", "is_reserved": 0, "rental_uris": {"android": "https://dc.lft.to/lastmile_qr_scan", "ios": "https://dc.lft.to/lastmile_qr_scan"}, "fusion_lon": 0.0}, {"lat": 38.90072683333333, "is_disabled": 0, "type": "electric_scooter", "lon": -77.05313233333334, "bike_id": "18d2a48a48bc4a6e3a90bd0070c86b06", "fusion_lat": 0.0, "name": "18d2a48a48bc4a6e3a90bd0070c86b06", "is_reserved": 0, "rental_uris": {"android": "https://dc.lft.to/lastmile_qr_scan", "ios": "https://dc.lft.to/lastmile_qr_scan"}, "fusion_lon": 0.0}, {"lat": 38.9463205, "is_disabled": 0, "type": "electric_scooter", "lon": -77.01849633333333, "bike_id": "6f981cd48cbfbc5ada403d0d974b281a", "fusion_lat": 0.0, "name": "6f981cd48cbfbc5ada403d0d974b281a", "is_reserved": 0, "rental_uris": {"android": "https://dc.lft.to/lastmile_qr_scan", "ios": "https://dc.lft.to/lastmile_qr_scan"}, "fusion_lon": 0.0}, {"lat": 38.887057, "is_disabled": 0, "type": "electric_scooter", "lon": -77.00153716666667, "bike_id": "e90fb0b13ab0ba8dd4c4f587010ac97e", "fusion_lat": 0.0, "name": "e90fb0b13ab0ba8dd4c4f587010ac97e", "is_reserved": 0, "rental_uris": {"android": "https://dc.lft.to/lastmile_qr_scan", "ios": "https://dc.lft.to/lastmile_qr_scan"}, "fusion_lon": 0.0}, {"lat": 38.930235833333334, "is_disabled": 0, "type": "electric_scooter", "lon": -77.027896, "bike_id": "a66aa2aee94517c9e52b2b08ee4499bc", "fusion_lat": 0.0, "name": "a66aa2aee94517c9e52b2b08ee4499bc", "is_reserved": 0, "rental_uris": {"android": "https://dc.lft.to/lastmile_qr_scan", "ios": "https://dc.lft.to/lastmile_qr_scan"}, "fusion_lon": 0.0}, {"lat": 38.89517216666667, "is_disabled": 0, "type": "electric_scooter", "lon": -77.043631, "bike_id": "7e568cbbef750619a87ea9180e5681ac", "fusion_lat": 0.0, "name": "7e568cbbef750619a87ea9180e5681ac", "is_reserved": 0, "rental_uris": {"android": "https://dc.lft.to/lastmile_qr_scan", "ios": "https://dc.lft.to/lastmile_qr_scan"}, "fusion_lon": 0.0}, {"lat": 38.922029333333334, "is_disabled": 0, "type": "electric_scooter", "lon": -77.04254266666666, "bike_id": "961c7644371765a6e30e1b8e171cb30a", "fusion_lat": 0.0, "name": "961c7644371765a6e30e1b8e171cb30a", "is_reserved": 0, "rental_uris": {"android": "https://dc.lft.to/lastmile_qr_scan", "ios": "https://dc.lft.to/lastmile_qr_scan"}, "fusion_lon": 0.0}, {"lat": 38.936824666666666, "is_disabled": 0, "type": "electric_scooter", "lon": -77.03575383333333, "bike_id": "d5f2569367f3e51c528df77ee0a954f8", "fusion_lat": 0.0, "name": "d5f2569367f3e51c528df77ee0a954f8", "is_reserved": 0, "rental_uris": {"android": "https://dc.lft.to/lastmile_qr_scan", "ios": "https://dc.lft.to/lastmile_qr_scan"}, "fusion_lon": 0.0}, {"lat": 38.91705866666667, "is_disabled": 0, "type": "electric_scooter", "lon": -77.028941, "bike_id": "d1e8777a36ce96797c2242aca8b99890", "fusion_lat": 0.0, "name": "d1e8777a36ce96797c2242aca8b99890", "is_reserved": 0, "rental_uris": {"android": "https://dc.lft.to/lastmile_qr_scan", "ios": "https://dc.lft.to/lastmile_qr_scan"}, "fusion_lon": 0.0}, {"lat": 38.92283183333333, "is_disabled": 0, "type": "electric_scooter", "lon": -77.03666216666667, "bike_id": "94740f62186ca8cb6c61cd6463a172bf", "fusion_lat": 0.0, "name": "94740f62186ca8cb6c61cd6463a172bf", "is_reserved": 0, "rental_uris": {"android": "https://dc.lft.to/lastmile_qr_scan", "ios": "https://dc.lft.to/lastmile_qr_scan"}, "fusion_lon": 0.0}, {"lat": 38.90967466666667, "is_disabled": 0, "type": "electric_scooter", "lon": -76.98469483333334, "bike_id": "c67fcca24e5abb7b26eea2caa6578a93", "fusion_lat": 0.0, "name": "c67fcca24e5abb7b26eea2caa6578a93", "is_reserved": 0, "rental_uris": {"android": "https://dc.lft.to/lastmile_qr_scan", "ios": "https://dc.lft.to/lastmile_qr_scan"}, "fusion_lon": 0.0}, {"lat": 38.8932925, "is_disabled": 0, "type": "electric_scooter", "lon": -76.9299205, "bike_id": "e02fc17fc345fb53a44ae68593166c30", "fusion_lat": 0.0, "name": "e02fc17fc345fb53a44ae68593166c30", "is_reserved": 0, "rental_uris": {"android": "https://dc.lft.to/lastmile_qr_scan", "ios": "https://dc.lft.to/lastmile_qr_scan"}, "fusion_lon": 0.0}, {"lat": 38.87382733333333, "is_disabled": 0, "type": "electric_scooter", "lon": -77.00090033333333, "bike_id": "5ca7d34318ce261d834925b9be1e3f66", "fusion_lat": 0.0, "name": "5ca7d34318ce261d834925b9be1e3f66", "is_reserved": 0, "rental_uris": {"android": "https://dc.lft.to/lastmile_qr_scan", "ios": "https://dc.lft.to/lastmile_qr_scan"}, "fusion_lon": 0.0}, {"lat": 38.87630033333333, "is_disabled": 0, "type": "electric_scooter", "lon": -76.965273, "bike_id": "82c7023786734a0ea893841c3056b747", "fusion_lat": 0.0, "name": "82c7023786734a0ea893841c3056b747", "is_reserved": 0, "rental_uris": {"android": "https://dc.lft.to/lastmile_qr_scan", "ios": "https://dc.lft.to/lastmile_qr_scan"}, "fusion_lon": 0.0}, {"lat": 39.0341795, "is_disabled": 0, "type": "electric_bike", "lon": -77.04215516666666, "bike_id": "fb477bf8a44ddbe46a8b00492a418b41", "fusion_lat": 0.0, "name": "fb477bf8a44ddbe46a8b00492a418b41", "is_reserved": 0, "rental_uris": {"android": "https://dc.lft.to/lastmile_qr_scan", "ios": "https://dc.lft.to/lastmile_qr_scan"}, "fusion_lon": 0.0}, {"lat": 38.94639033333333, "is_disabled": 0, "type": "electric_scooter", "lon": -77.0193655, "bike_id": "ab59dd33a9583d1fcf50774e47dc5409", "fusion_lat": 0.0, "name": "ab59dd33a9583d1fcf50774e47dc5409", "is_reserved": 0, "rental_uris": {"android": "https://dc.lft.to/lastmile_qr_scan", "ios": "https://dc.lft.to/lastmile_qr_scan"}, "fusion_lon": 0.0}, {"lat": 38.8961485, "is_disabled": 0, "type": "electric_scooter", "lon": -76.9984485, "bike_id": "cca385bebd4c635debc7e8de4ef41a4d", "fusion_lat": 0.0, "name": "cca385bebd4c635debc7e8de4ef41a4d", "is_reserved": 0, "rental_uris": {"android": "https://dc.lft.to/lastmile_qr_scan", "ios": "https://dc.lft.to/lastmile_qr_scan"}, "fusion_lon": 0.0}, {"lat": 38.90099416666666, "is_disabled": 0, "type": "electric_scooter", "lon": -77.01364133333334, "bike_id": "9bb6fb918e4199e76833faf659e04689", "fusion_lat": 0.0, "name": "9bb6fb918e4199e76833faf659e04689", "is_reserved": 0, "rental_uris": {"android": "https://dc.lft.to/lastmile_qr_scan", "ios": "https://dc.lft.to/lastmile_qr_scan"}, "fusion_lon": 0.0}, {"lat": 38.89222683333333, "is_disabled": 0, "type": "electric_scooter", "lon": -77.0468155, "bike_id": "7a36153a0523cad8c176cf30d7d463a2", "fusion_lat": 0.0, "name": "7a36153a0523cad8c176cf30d7d463a2", "is_reserved": 0, "rental_uris": {"android": "https://dc.lft.to/lastmile_qr_scan", "ios": "https://dc.lft.to/lastmile_qr_scan"}, "fusion_lon": 0.0}, {"lat": 38.903087166666666, "is_disabled": 0, "type": "electric_scooter", "lon": -77.02058483333333, "bike_id": "0a2894896ac148f0dee42e068985ebce", "fusion_lat": 0.0, "name": "0a2894896ac148f0dee42e068985ebce", "is_reserved": 0, "rental_uris": {"android": "https://dc.lft.to/lastmile_qr_scan", "ios": "https://dc.lft.to/lastmile_qr_scan"}, "fusion_lon": 0.0}, {"lat": 38.9112725, "is_disabled": 0, "type": "electric_bike", "lon": -77.03205216666667, "bike_id": "ea03ee0dc6aabd6e1da9a716b9d5ef9b", "fusion_lat": 0.0, "name": "ea03ee0dc6aabd6e1da9a716b9d5ef9b", "is_reserved": 0, "rental_uris": {"android": "https://dc.lft.to/lastmile_qr_scan", "ios": "https://dc.lft.to/lastmile_qr_scan"}, "fusion_lon": 0.0}, {"lat": 38.917837166666665, "is_disabled": 0, "type": "electric_scooter", "lon": -77.04100116666666, "bike_id": "7a84d68090d93ab98e654d0f382ea96d", "fusion_lat": 0.0, "name": "7a84d68090d93ab98e654d0f382ea96d", "is_reserved": 0, "rental_uris": {"android": "https://dc.lft.to/lastmile_qr_scan", "ios": "https://dc.lft.to/lastmile_qr_scan"}, "fusion_lon": 0.0}, {"lat": 38.965571833333335, "is_disabled": 0, "type": "electric_bike", "lon": -77.022998, "bike_id": "bffc04e20d9a2281ba680170bc0dff98", "fusion_lat": 0.0, "name": "bffc04e20d9a2281ba680170bc0dff98", "is_reserved": 0, "rental_uris": {"android": "https://dc.lft.to/lastmile_qr_scan", "ios": "https://dc.lft.to/lastmile_qr_scan"}, "fusion_lon": 0.0}, {"lat": 38.91989783333333, "is_disabled": 0, "type": "electric_scooter", "lon": -76.97304783333334, "bike_id": "2cc63d470ce89771d3ff18150b05b62e", "fusion_lat": 0.0, "name": "2cc63d470ce89771d3ff18150b05b62e", "is_reserved": 0, "rental_uris": {"android": "https://dc.lft.to/lastmile_qr_scan", "ios": "https://dc.lft.to/lastmile_qr_scan"}, "fusion_lon": 0.0}, {"lat": 38.91407183333333, "is_disabled": 0, "type": "electric_scooter", "lon": -77.02057866666667, "bike_id": "71b37ffd5c0f7ef3b76df5448b496dfa", "fusion_lat": 0.0, "name": "71b37ffd5c0f7ef3b76df5448b496dfa", "is_reserved": 0, "rental_uris": {"android": "https://dc.lft.to/lastmile_qr_scan", "ios": "https://dc.lft.to/lastmile_qr_scan"}, "fusion_lon": 0.0}, {"lat": 38.91601, "is_disabled": 0, "type": "electric_scooter", "lon": -77.0239465, "bike_id": "3886b293efa4a0fa9c8d8bc6a2fa0a94", "fusion_lat": 0.0, "name": "3886b293efa4a0fa9c8d8bc6a2fa0a94", "is_reserved": 0, "rental_uris": {"android": "https://dc.lft.to/lastmile_qr_scan", "ios": "https://dc.lft.to/lastmile_qr_scan"}, "fusion_lon": 0.0}, {"lat": 38.90868433333333, "is_disabled": 0, "type": "electric_scooter", "lon": -77.04677066666666, "bike_id": "8a0edf2edf7ec56dde8b7c541ec99f83", "fusion_lat": 0.0, "name": "8a0edf2edf7ec56dde8b7c541ec99f83", "is_reserved": 0, "rental_uris": {"android": "https://dc.lft.to/lastmile_qr_scan", "ios": "https://dc.lft.to/lastmile_qr_scan"}, "fusion_lon": 0.0}, {"lat": 38.860554, "is_disabled": 0, "type": "electric_bike", "lon": -77.05628266666666, "bike_id": "f73f7118d333c11684cd2d543d36fa75", "fusion_lat": 0.0, "name": "f73f7118d333c11684cd2d543d36fa75", "is_reserved": 0, "rental_uris": {"android": "https://dc.lft.to/lastmile_qr_scan", "ios": "https://dc.lft.to/lastmile_qr_scan"}, "fusion_lon": 0.0}, {"lat": 38.928686, "is_disabled": 0, "type": "electric_bike", "lon": -77.03701466666666, "bike_id": "0ba9e89dd0b440d6534c8438a9db4b5a", "fusion_lat": 0.0, "name": "0ba9e89dd0b440d6534c8438a9db4b5a", "is_reserved": 0, "rental_uris": {"android": "https://dc.lft.to/lastmile_qr_scan", "ios": "https://dc.lft.to/lastmile_qr_scan"}, "fusion_lon": 0.0}, {"lat": 38.807545166666664, "is_disabled": 0, "type": "electric_bike", "lon": -77.0945245, "bike_id": "0e376ae660285470bc6db3a5fa9248ed", "fusion_lat": 0.0, "name": "0e376ae660285470bc6db3a5fa9248ed", "is_reserved": 0, "rental_uris": {"android": "https://dc.lft.to/lastmile_qr_scan", "ios": "https://dc.lft.to/lastmile_qr_scan"}, "fusion_lon": 0.0}, {"lat": 38.909447666666665, "is_disabled": 0, "type": "electric_scooter", "lon": -77.0441565, "bike_id": "a3044bf8c0faefef961f8daa04b69572", "fusion_lat": 0.0, "name": "a3044bf8c0faefef961f8daa04b69572", "is_reserved": 0, "rental_uris": {"android": "https://dc.lft.to/lastmile_qr_scan", "ios": "https://dc.lft.to/lastmile_qr_scan"}, "fusion_lon": 0.0}, {"lat": 38.937613166666665, "is_disabled": 0, "type": "electric_scooter", "lon": -77.03285433333333, "bike_id": "449ff463a8391f4f613f3a5276e92222", "fusion_lat": 0.0, "name": "449ff463a8391f4f613f3a5276e92222", "is_reserved": 0, "rental_uris": {"android": "https://dc.lft.to/lastmile_qr_scan", "ios": "https://dc.lft.to/lastmile_qr_scan"}, "fusion_lon": 0.0}, {"lat": 38.90767966666667, "is_disabled": 0, "type": "electric_scooter", "lon": -77.02069383333334, "bike_id": "62040a04746bcde3326e2a4f9893b175", "fusion_lat": 0.0, "name": "62040a04746bcde3326e2a4f9893b175", "is_reserved": 0, "rental_uris": {"android": "https://dc.lft.to/lastmile_qr_scan", "ios": "https://dc.lft.to/lastmile_qr_scan"}, "fusion_lon": 0.0}, {"lat": 38.896335, "is_disabled": 0, "type": "electric_bike", "lon": -76.9498355, "bike_id": "ee4548784babac2372be619849c641f2", "fusion_lat": 0.0, "name": "ee4548784babac2372be619849c641f2", "is_reserved": 0, "rental_uris": {"android": "https://dc.lft.to/lastmile_qr_scan", "ios": "https://dc.lft.to/lastmile_qr_scan"}, "fusion_lon": 0.0},