{"data": {"bikes": [{"name": "4cc4ca56463dd772767c408b2473d139", "type": "electric_scooter", "lat": 38.916877, "is_reserved": 0, "lon": -77.02908716666667, "fusion_lon": 0.0, "is_disabled": 0, "fusion_lat": 0.0, "bike_id": "4cc4ca56463dd772767c408b2473d139", "rental_uris": {"ios": "https://dc.lft.to/lastmile_qr_scan", "android": "https://dc.lft.to/lastmile_qr_scan"}}, {"name": "a0988c2c1d3ce6a1fb0081286b40ca39", "type": "electric_scooter", "lat": 38.89353416666667, "is_reserved": 0, "lon": -77.02003516666667, "fusion_lon": 0.0, "is_disabled": 0, "fusion_lat": 0.0, "bike_id": "a0988c2c1d3ce6a1fb0081286b40ca39", "rental_uris": {"ios": "https://dc.lft.to/lastmile_qr_scan", "android": "https://dc.lft.to/lastmile_qr_scan"}}, {"name": "b2c0b77cf4c6e5704b4c6125f3844dc1", "type": "electric_bike", "lat": 38.8922625, "is_reserved": 0, "lon": -76.97026166666667, "fusion_lon": 0.0, "is_disabled": 0, "fusion_lat": 0.0, "bike_id": "b2c0b77cf4c6e5704b4c6125f3844dc1", "rental_uris": {"ios": "https://dc.lft.to/lastmile_qr_scan", "android": "https://dc.lft.to/lastmile_qr_scan"}}, {"name": "649fe3227d1d6cec3394f423c20ae662", "type": "electric_scooter", "lat": 38.89761516666667, "is_reserved": 0, "lon": -76.97724716666667, "fusion_lon": 0.0, "is_disabled": 0, "fusion_lat": 0.0, "bike_id": "649fe3227d1d6cec3394f423c20ae662", "rental_uris": {"ios": "https://dc.lft.to/lastmile_qr_scan", "android": "https://dc.lft.to/lastmile_qr_scan"}}, {"name": "9627faf4124484f6626722075774e5a4", "type": "electric_scooter", "lat": 38.9426835, "is_reserved": 0, "lon": -77.032583, "fusion_lon": 0.0, "is_disabled": 0, "fusion_lat": 0.0, "bike_id": "9627faf4124484f6626722075774e5a4", "rental_uris": {"ios": "https://dc.lft.to/lastmile_qr_scan", "android": "https://dc.lft.to/lastmile_qr_scan"}}, {"name": "4e755d35bad93f843d51b82a667e615c", "type": "electric_bike", "lat": 38.8537265, "is_reserved": 0, "lon": -77.11785033333334, "fusion_lon": 0.0, "is_disabled": 0, "fusion_lat": 0.0, "bike_id": "4e755d35bad93f843d51b82a667e615c", "rental_uris": {"ios": "https://dc.lft.to/lastmile_qr_scan", "android": "https://dc.lft.to/lastmile_qr_scan"}}, {"name": "c6694a2a6ab772e3ff06279483a335ca", "type": "electric_scooter", "lat": 38.94051233333333, "is_reserved": 0, "lon": -77.03292933333333, "fusion_lon": 0.0, "is_disabled": 0, "fusion_lat": 0.0, "bike_id": "c6694a2a6ab772e3ff06279483a335ca", "rental_uris": {"ios": "https://dc.lft.to/lastmile_qr_scan", "android": "https://dc.lft.to/lastmile_qr_scan"}}, {"name": "2f45b066f93225cdb92abdf891744592", "type": "electric_scooter", "lat": 38.86372183333334, "is_reserved": 0, "lon": -76.990571, "fusion_lon": 0.0, "is_disabled": 0, "fusion_lat": 0.0, "bike_id": "2f45b066f93225cdb92abdf891744592", "rental_uris": {"ios": "https://dc.lft.to/lastmile_qr_scan", "android": "https://dc.lft.to/lastmile_qr_scan"}}, {"name": "197b7c691548444431a0b323f69a2f38", "type": "electric_scooter", "lat": 38.9037725, "is_reserved": 0, "lon": -77.05042916666666, "fusion_lon": 0.0, "is_disabled": 0, "fusion_lat": 0.0, "bike_id": "197b7c691548444431a0b323f69a2f38", "rental_uris": {"ios": "https://dc.lft.to/lastmile_qr_scan", "android": "https://dc.lft.to/lastmile_qr_scan"}}, {"name": "2dc70789aec7131f65bf2e36a47cd476", "type": "electric_scooter", "lat": 38.920796333333335, "is_reserved": 0, "lon": -77.031695, "fusion_lon": 0.0, "is_disabled": 0, "fusion_lat": 0.0, "bike_id": "2dc70789aec7131f65bf2e36a47cd476", "rental_uris": {"ios": "https://dc.lft.to/lastmile_qr_scan", "android": "https://dc.lft.to/lastmile_qr_scan"}}, {"name": "6c13b62022fd2a0080418262ba7cb2cc", "type": "electric_scooter", "lat": 38.903784, "is_reserved": 0, "lon": -77.03182533333333, "fusion_lon": 0.0, "is_disabled": 0, "fusion_lat": 0.0, "bike_id": "6c13b62022fd2a0080418262ba7cb2cc", "rental_uris": {"ios": "https://dc.lft.to/lastmile_qr_scan", "android": "https://dc.lft.to/lastmile_qr_scan"}}, {"name": "ba948c98b75478d55823fe36dd2c7417", "type": "electric_scooter", "lat": 38.89628016666666, "is_reserved": 0, "lon": -77.02972783333334, "fusion_lon": 0.0, "is_disabled": 0, "fusion_lat": 0.0, "bike_id": "ba948c98b75478d55823fe36dd2c7417", "rental_uris": {"ios": "https://dc.lft.to/lastmile_qr_scan", "android": "https://dc.lft.to/lastmile_qr_scan"}}, {"name": "1cd5cf33b5e69d398f223f47e80f8324", "type": "electric_scooter", "lat": 38.894771166666665, "is_reserved": 0, "lon": -77.00136833333333, "fusion_lon": 0.0, "is_disabled": 0, "fusion_lat": 0.0, "bike_id": "1cd5cf33b5e69d398f223f47e80f8324", "rental_uris": {"ios": "https://dc.lft.to/lastmile_qr_scan", "android": "https://dc.lft.to/lastmile_qr_scan"}}, {"name": "816547f73e3fa9813a9b62ead12dae4b", "type": "electric_scooter", "lat": 38.92613716666666, "is_reserved": 0, "lon": -77.02162716666666, "fusion_lon": 0.0, "is_disabled": 0, "fusion_lat": 0.0, "bike_id": "816547f73e3fa9813a9b62ead12dae4b", "rental_uris": {"ios": "https://dc.lft.to/lastmile_qr_scan", "android": "https://dc.lft.to/lastmile_qr_scan"}}, {"name": "3c775c11fa8db81f08913cf968b211c3", "type": "electric_scooter", "lat": 38.905845, "is_reserved": 0, "lon": -77.04397583333333, "fusion_lon": 0.0, "is_disabled": 0, "fusion_lat": 0.0, "bike_id": "3c775c11fa8db81f08913cf968b211c3", "rental_uris": {"ios": "https://dc.lft.to/lastmile_qr_scan", "android": "https://dc.lft.to/lastmile_qr_scan"}}, {"name": "eece0a209b469cef33e9514912a571ac", "type": "electric_bike", "lat": 38.964948, "is_reserved": 0, "lon": -77.06499483333333, "fusion_lon": 0.0, "is_disabled": 0, "fusion_lat": 0.0, "bike_id": "eece0a209b469cef33e9514912a571ac", "rental_uris": {"ios": "https://dc.lft.to/lastmile_qr_scan", "android": "https://dc.lft.to/lastmile_qr_scan"}}, {"name": "8badfb926f116d5a092a2b9df8dfc1f4", "type": "electric_scooter", "lat": 38.90586183333333, "is_reserved": 0, "lon": -77.006059, "fusion_lon": 0.0, "is_disabled": 0, "fusion_lat": 0.0, "bike_id": "8badfb926f116d5a092a2b9df8dfc1f4", "rental_uris": {"ios": "https://dc.lft.to/lastmile_qr_scan", "android": "https://dc.lft.to/lastmile_qr_scan"}}, {"name": "63454b5c263959ad97f4405baf272ca4", "type": "electric_scooter", "lat": 38.90038933333334, "is_reserved": 0, "lon": -77.03713816666667, "fusion_lon": 0.0, "is_disabled": 0, "fusion_lat": 0.0, "bike_id": "63454b5c263959ad97f4405baf272ca4", "rental_uris": {"ios": "https://dc.lft.to/lastmile_qr_scan", "android": "https://dc.lft.to/lastmile_qr_scan"}}, {"name": "5cfffba1e31a8bc95e733773d67a74d9", "type": "electric_scooter", "lat": 38.914996, "is_reserved": 0, "lon": -77.01225816666667, "fusion_lon": 0.0, "is_disabled": 0, "fusion_lat": 0.0, "bike_id": "5cfffba1e31a8bc95e733773d67a74d9", "rental_uris": {"ios": "https://dc.lft.to/lastmile_qr_scan", "android": "https://dc.lft.to/lastmile_qr_scan"}}, {"name": "b637be2a77d38a5432332d75a12bb357", "type": "electric_scooter", "lat": 38.90090383333333, "is_reserved": 0, "lon": -77.04679966666667, "fusion_lon": 0.0, "is_disabled": 0, "fusion_lat": 0.0, "bike_id": "b637be2a77d38a5432332d75a12bb357", "rental_uris": {"ios": "https://dc.lft.to/lastmile_qr_scan", "android": "https://dc.lft.to/lastmile_qr_scan"}}, {"name": "1d6782ea040075c21a59d551efa6ad0d", "type": "electric_scooter", "lat": 38.918464166666666, "is_reserved": 0, "lon": -77.06145666666667, "fusion_lon": 0.0, "is_disabled": 0, "fusion_lat": 0.0, "bike_id": "1d6782ea040075c21a59d551efa6ad0d", "rental_uris": {"ios": "https://dc.lft.to/lastmile_qr_scan", "android": "https://dc.lft.to/lastmile_qr_scan"}}, {"name": "c4fbd5ea2066b2d2e5ff60ca4156e8d0", "type": "electric_scooter", "lat": 38.922921333333335, "is_reserved": 0, "lon": -77.03196066666666, "fusion_lon": 0.0, "is_disabled": 0, "fusion_lat": 0.0, "bike_id": "c4fbd5ea2066b2d2e5ff60ca4156e8d0", "rental_uris": {"ios": "https://dc.lft.to/lastmile_qr_scan", "android": "https://dc.lft.to/lastmile_qr_scan"}}, {"name": "726755cd1e6b3729a13283dfe5d24f5d", "type": "electric_bike", "lat": 39.03047766666667, "is_reserved": 0, "lon": -77.094829, "fusion_lon": 0.0, "is_disabled": 0, "fusion_lat": 0.0, "bike_id": "726755cd1e6b3729a13283dfe5d24f5d", "rental_uris": {"ios": "https://dc.lft.to/lastmile_qr_scan", "android": "https://dc.lft.to/lastmile_qr_scan"}}, {"name": "5c452ad93a05b63fbc66d9221af9624c", "type": "electric_scooter", "lat": 38.920494, "is_reserved": 0, "lon": -77.0338735, "fusion_lon": 0.0, "is_disabled": 0, "fusion_lat": 0.0, "bike_id": "5c452ad93a05b63fbc66d9221af9624c", "rental_uris": {"ios": "https://dc.lft.to/lastmile_qr_scan", "android": "https://dc.lft.to/lastmile_qr_scan"}}, {"name": "dc9923f84fe5850a47fd5cdcc13f0962", "type": "electric_scooter", "lat": 38.90434033333333, "is_reserved": 0, "lon": -77.02842366666667, "fusion_lon": 0.0, "is_disabled": 0, "fusion_lat": 0.0, "bike_id": "dc9923f84fe5850a47fd5cdcc13f0962", "rental_uris": {"ios": "https://dc.lft.to/lastmile_qr_scan", "android": "https://dc.lft.to/lastmile_qr_scan"}}, {"name": "d2412941a74cc451536602b9343a4bf8", "type": "electric_scooter", "lat": 38.923142, "is_reserved": 0, "lon": -77.02978316666666, "fusion_lon": 0.0, "is_disabled": 0, "fusion_lat": 0.0, "bike_id": "d2412941a74cc451536602b9343a4bf8", "rental_uris": {"ios": "https://dc.lft.to/lastmile_qr_scan", "android": "https://dc.lft.to/lastmile_qr_scan"}}, {"name": "2962f7df5f155bf9b296627a0a9411bc", "type": "electric_scooter", "lat": 38.90520216666667, "is_reserved": 0, "lon": -77.05197816666667, "fusion_lon": 0.0, "is_disabled": 0, "fusion_lat": 0.0, "bike_id": "2962f7df5f155bf9b296627a0a9411bc", "rental_uris": {"ios": "https://dc.lft.to/lastmile_qr_scan", "android": "https://dc.lft.to/lastmile_qr_scan"}}, {"name": "eaaad795ffc49ba9c3da5e9805d8835b", "type": "electric_bike", "lat": 38.97052733333334, "is_reserved": 0, "lon": -76.93622, "fusion_lon": 0.0, "is_disabled": 0, "fusion_lat": 0.0, "bike_id": "eaaad795ffc49ba9c3da5e9805d8835b", "rental_uris": {"ios": "https://dc.lft.to/lastmile_qr_scan", "android": "https://dc.lft.to/lastmile_qr_scan"}}, {"name": "bad104001f00483030a6004ca0daa8db", "type": "electric_scooter", "lat": 38.9540485, "is_reserved": 0, "lon": -77.02751183333334, "fusion_lon": 0.0, "is_disabled": 0, "fusion_lat": 0.0, "bike_id": "bad104001f00483030a6004ca0daa8db", "rental_uris": {"ios": "https://dc.lft.to/lastmile_qr_scan", "android": "https://dc.lft.to/lastmile_qr_scan"}}, {"name": "1bba71502124c487d02e36e020702b4e", "type": "electric_scooter", "lat": 38.9371325, "is_reserved": 0, "lon": -77.0365135, "fusion_lon": 0.0, "is_disabled": 0, "fusion_lat": 0.0, "bike_id": "1bba71502124c487d02e36e020702b4e", "rental_uris": {"ios": "https://dc.lft.to/lastmile_qr_scan", "android": "https://dc.lft.to/lastmile_qr_scan"}}, {"name": "67543b12c42a2c5baab9f397b700c357", "type": "electric_scooter", "lat": 38.913111, "is_reserved": 0, "lon": -77.01433433333334, "fusion_lon": 0.0, "is_disabled": 0, "fusion_lat": 0.0, "bike_id": "67543b12c42a2c5baab9f397b700c357", "rental_uris": {"ios": "https://dc.lft.to/lastmile_qr_scan", "android": "https://dc.lft.to/lastmile_qr_scan"}}, {"name": "08759b0feefcb74401ca915da13e9083", "type": "electric_scooter", "lat": 38.917838833333334, "is_reserved": 0, "lon": -77.02305883333334, "fusion_lon": 0.0, "is_disabled": 0, "fusion_lat": 0.0, "bike_id": "08759b0feefcb74401ca915da13e9083", "rental_uris": {"ios": "https://dc.lft.to/lastmile_qr_scan", "android": "https://dc.lft.to/lastmile_qr_scan"}}, {"name": "bc9e942c32444a79a98ba9285a7059b9", "type": "electric_scooter", "lat": 38.884120333333335, "is_reserved": 0, "lon": -76.976044, "fusion_lon": 0.0, "is_disabled": 0, "fusion_lat": 0.0, "bike_id": "bc9e942c32444a79a98ba9285a7059b9", "rental_uris": {"ios": "https://dc.lft.to/lastmile_qr_scan", "android": "https://dc.lft.to/lastmile_qr_scan"}}, {"name": "be542f3fb7d78d3b10c7eb1a44155d1a", "type": "electric_scooter", "lat": 38.903132666666664, "is_reserved": 0, "lon": -77.03822566666666, "fusion_lon": 0.0, "is_disabled": 0, "fusion_lat": 0.0, "bike_id": "be542f3fb7d78d3b10c7eb1a44155d1a", "rental_uris": {"ios": "https://dc.lft.to/lastmile_qr_scan", "android": "https://dc.lft.to/lastmile_qr_scan"}}, {"name": "57f1da094074cfa35aaef074de15656a", "type": "electric_scooter", "lat": 38.9023125, "is_reserved": 0, "lon": -77.02694883333334, "fusion_lon": 0.0, "is_disabled": 0, "fusion_lat": 0.0, "bike_id": "57f1da094074cfa35aaef074de15656a", "rental_uris": {"ios": "https://dc.lft.to/lastmile_qr_scan", "android": "https://dc.lft.to/lastmile_qr_scan"}}, {"name": "bb4b85d699a5e39322e513160158efc9", "type": "electric_scooter", "lat": 38.9071585, "is_reserved": 0, "lon": -77.04493533333333, "fusion_lon": 0.0, "is_disabled": 0, "fusion_lat": 0.0, "bike_id": "bb4b85d699a5e39322e513160158efc9", "rental_uris": {"ios": "https://dc.lft.to/lastmile_qr_scan", "android": "https://dc.lft.to/lastmile_qr_scan"}}, {"name": "4b25c9039d87b3cfdf75d6953b300889", "type": "electric_scooter", "lat": 38.90957, "is_reserved": 0, "lon": -76.98536466666667, "fusion_lon": 0.0, "is_disabled": 0, "fusion_lat": 0.0, "bike_id": "4b25c9039d87b3cfdf75d6953b300889", "rental_uris": {"ios": "https://dc.lft.to/lastmile_qr_scan", "android": "https://dc.lft.to/lastmile_qr_scan"}}, {"name": "eb0e287296ca36bacc01bf9193c54315", "type": "electric_scooter", "lat": 38.91543566666667, "is_reserved": 0, "lon": -77.04433116666667, "fusion_lon": 0.0, "is_disabled": 0, "fusion_lat": 0.0, "bike_id": "eb0e287296ca36bacc01bf9193c54315", "rental_uris": {"ios": "https://dc.lft.to/lastmile_qr_scan", "android": "https://dc.lft.to/lastmile_qr_scan"}}, {"name": "0564726b86211415d8c041eec20bff17", "type": "electric_scooter", "lat": 38.90270866666667, "is_reserved": 0, "lon": -77.01893733333333, "fusion_lon": 0.0, "is_disabled": 0, "fusion_lat": 0.0, "bike_id": "0564726b86211415d8c041eec20bff17", "rental_uris": {"ios": "https://dc.lft.to/lastmile_qr_scan", "android": "https://dc.lft.to/lastmile_qr_scan"}}, {"name": "818ce1a7771d8cc75e0834928ae2b945", "type": "electric_scooter", "lat": 38.90319433333333, "is_reserved": 0, "lon": -77.053245, "fusion_lon": 0.0, "is_disabled": 0, "fusion_lat": 0.0, "bike_id": "818ce1a7771d8cc75e0834928ae2b945", "rental_uris": {"ios": "https://dc.lft.to/lastmile_qr_scan", "android": "https://dc.lft.to/lastmile_qr_scan"}}, {"name": "27b81456025410915ef8816dc80b4ac4", "type": "electric_scooter", "lat": 38.920184666666664, "is_reserved": 0, "lon": -77.02597483333334, "fusion_lon": 0.0, "is_disabled": 0, "fusion_lat": 0.0, "bike_id": "27b81456025410915ef8816dc80b4ac4", "rental_uris": {"ios": "https://dc.lft.to/lastmile_qr_scan", "android": "https://dc.lft.to/lastmile_qr_scan"}}, {"name": "d341f1d00a470446e5d9684a6ace9e59", "type": "electric_bike", "lat": 38.965298, "is_reserved": 0, "lon": -77.03516666666667, "fusion_lon": 0.0, "is_disabled": 0, "fusion_lat": 0.0, "bike_id": "d341f1d00a470446e5d9684a6ace9e59", "rental_uris": {"ios": "https://dc.lft.to/lastmile_qr_scan", "android": "https://dc.lft.to/lastmile_qr_scan"}}, {"name": "07c02c234fe49edec493edd2e5539c72", "type": "electric_scooter", "lat": 38.87673383333333, "is_reserved": 0, "lon": -77.0006085, "fusion_lon": 0.0, "is_disabled": 0, "fusion_lat": 0.0, "bike_id": "07c02c234fe49edec493edd2e5539c72", "rental_uris": {"ios": "https://dc.lft.to/lastmile_qr_scan", "android": "https://dc.lft.to/lastmile_qr_scan"}}, {"name": "7d584156c1f005df8e43a717518e869e", "type": "electric_scooter", "lat": 38.9355285, "is_reserved": 0, "lon": -77.08177183333333, "fusion_lon": 0.0, "is_disabled": 0, "fusion_lat": 0.0, "bike_id": "7d584156c1f005df8e43a717518e869e", "rental_uris": {"ios": "https://dc.lft.to/lastmile_qr_scan", "android": "https://dc.lft.to/lastmile_qr_scan"}}, {"name": "bd92a514c1fcf2061aa37534bd69627b", "type": "electric_scooter", "lat": 38.92042266666667, "is_reserved": 0, "lon": -77.03179316666667, "fusion_lon": 0.0, "is_disabled": 0, "fusion_lat": 0.0, "bike_id": "bd92a514c1fcf2061aa37534bd69627b", "rental_uris": {"ios": "https://dc.lft.to/lastmile_qr_scan", "android": "https://dc.lft.to/lastmile_qr_scan"}}, {"name": "9ce58047a8dd12dfa140337725ea0a2b", "type": "electric_scooter", "lat": 38.92381183333333, "is_reserved": 0, "lon": -77.0431725, "fusion_lon": 0.0, "is_disabled": 0, "fusion_lat": 0.0, "bike_id": "9ce58047a8dd12dfa140337725ea0a2b", "rental_uris": {"ios": "https://dc.lft.to/lastmile_qr_scan", "android": "https://dc.lft.to/lastmile_qr_scan"}}, {"name": "d2916df050b846e45c51c109a4194b4d", "type": "electric_scooter", "lat": 38.877059333333335, "is_reserved": 0, "lon": -76.99386933333334, "fusion_lon": 0.0, "is_disabled": 0, "fusion_lat": 0.0, "bike_id": "d2916df050b846e45c51c109a4194b4d", "rental_uris": {"ios": "https://dc.lft.to/lastmile_qr_scan", "android": "https://dc.lft.to/lastmile_qr_scan"}}, {"name": "7a70750efd1bfe0af59f3c341d5a5161", "type": "electric_scooter", "lat": 38.909160166666666, "is_reserved": 0, "lon": -77.03666716666666, "fusion_lon": 0.0, "is_disabled": 0, "fusion_lat": 0.0, "bike_id": "7a70750efd1bfe0af59f3c341d5a5161", "rental_uris": {"ios": "https://dc.lft.to/lastmile_qr_scan", "android": "https://dc.lft.to/lastmile_qr_scan"}}, {"name": "f46aa19b5741b95e07a917b86f1ae8f6", "type": "electric_scooter", "lat": 38.87498, "is_reserved": 0, "lon": -76.99794833333333, "fusion_lon": 0.0, "is_disabled": 0, "fusion_lat": 0.0, "bike_id": "f46aa19b5741b95e07a917b86f1ae8f6", "rental_uris": {"ios": "https://dc.lft.to/lastmile_qr_scan", "android": "https://dc.lft.to/lastmile_qr_scan"}}, {"name": "ebf49d61b54b8fcf9e704f392fe51383", "type": "electric_scooter", "lat": 38.90033533333333, "is_reserved": 0, "lon": -77.001064, "fusion_lon": 0.0, "is_disabled": 0, "fusion_lat": 0.0, "bike_id": "ebf49d61b54b8fcf9e704f392fe51383", "rental_uris": {"ios": "https://dc.lft.to/lastmile_qr_scan", "android": "https://dc.lft.to/lastmile_qr_scan"}}, {"name": "1b6009283488da1003a83e52ba2824fd", "type": "electric_scooter", "lat": 38.919139, "is_reserved": 0, "lon": -77.01981616666667, "fusion_lon": 0.0, "is_disabled": 0, "fusion_lat": 0.0, "bike_id": "1b6009283488da1003a83e52ba2824fd", "rental_uris": {"ios": "https://dc.lft.to/lastmile_qr_scan", "android": "https://dc.lft.to/lastmile_qr_scan"}}, {"name": "e0103ef2a26a937875f6b1d764bfba59", "type": "electric_scooter", "lat": 38.92247483333333, "is_reserved": 0, "lon": -77.03473316666667, "fusion_lon": 0.0, "is_disabled": 0, "fusion_lat": 0.0, "bike_id": "e0103ef2a26a937875f6b1d764bfba59", "rental_uris": {"ios": "https://dc.lft.to/lastmile_qr_scan", "android": "https://dc.lft.to/lastmile_qr_scan"}}, {"name": "7519d2d23588e6ef3492205b5031d218", "type": "electric_scooter", "lat": 38.887723666666666, "is_reserved": 0, "lon": -76.93264383333333, "fusion_lon": 0.0, "is_disabled": 0, "fusion_lat": 0.0, "bike_id": "7519d2d23588e6ef3492205b5031d218", "rental_uris": {"ios": "https://dc.lft.to/lastmile_qr_scan", "android": "https://dc.lft.to/lastmile_qr_scan"}}, {"name": "559d11091008b042d66ecf1703a3e13b", "type": "electric_scooter", "lat": 38.929662, "is_reserved": 0, "lon": -77.0053825, "fusion_lon": 0.0, "is_disabled": 0, "fusion_lat": 0.0, "bike_id": "559d11091008b042d66ecf1703a3e13b", "rental_uris": {"ios": "https://dc.lft.to/lastmile_qr_scan", "android": "https://dc.lft.to/lastmile_qr_scan"}}, {"name": "23a06ed6bfb98b2576157b3cd9586b41", "type": "electric_scooter", "lat": 38.92637716666667, "is_reserved": 0, "lon": -77.0347205, "fusion_lon": 0.0, "is_disabled": 0, "fusion_lat": 0.0, "bike_id": "23a06ed6bfb98b2576157b3cd9586b41", "rental_uris": {"ios": "https://dc.lft.to/lastmile_qr_scan", "android": "https://dc.lft.to/lastmile_qr_scan"}}, {"name": "b9cd50ed510e7613c75d702682ae0fd1", "type": "electric_scooter", "lat": 38.90662233333333, "is_reserved": 0, "lon": -77.03852683333334, "fusion_lon": 0.0, "is_disabled": 0, "fusion_lat": 0.0, "bike_id": "b9cd50ed510e7613c75d702682ae0fd1", "rental_uris": {"ios": "https://dc.lft.to/lastmile_qr_scan", "android": "https://dc.lft.to/lastmile_qr_scan"}}, {"name": "4e723587f4226c856a7cca16a89c52d2", "type": "electric_scooter", "lat": 38.89670366666667, "is_reserved": 0, "lon": -77.02632733333333, "fusion_lon": 0.0, "is_disabled": 0, "fusion_lat": 0.0, "bike_id": "4e723587f4226c856a7cca16a89c52d2", "rental_uris": {"ios": "https://dc.lft.to/lastmile_qr_scan", "android": "https://dc.lft.to/lastmile_qr_scan"}}, {"name": "bb09a6abfd39e496da13c0ce233a4f0f", "type": "electric_scooter", "lat": 38.918138, "is_reserved": 0, "lon": -77.03451866666667, "fusion_lon": 0.0, "is_disabled": 0, "fusion_lat": 0.0, "bike_id": "bb09a6abfd39e496da13c0ce233a4f0f", "rental_uris": {"ios": "https://dc.lft.to/lastmile_qr_scan", "android": "https://dc.lft.to/lastmile_qr_scan"}}, {"name": "27116bd97afc22e61fee1473114f2f43", "type": "electric_scooter", "lat": 38.929075, "is_reserved": 0, "lon": -77.02167366666667, "fusion_lon": 0.0, "is_disabled": 0, "fusion_lat": 0.0, "bike_id": "27116bd97afc22e61fee1473114f2f43", "rental_uris": {"ios": "https://dc.lft.to/lastmile_qr_scan", "android": "https://dc.lft.to/lastmile_qr_scan"}}, {"name": "c202168205dc382893cc9b2f328c540f", "type": "electric_scooter", "lat": 38.880372, "is_reserved": 0, "lon": -77.00339866666667, "fusion_lon": 0.0, "is_disabled": 0, "fusion_lat": 0.0, "bike_id": "c202168205dc382893cc9b2f328c540f", "rental_uris": {"ios": "https://dc.lft.to/lastmile_qr_scan", "android": "https://dc.lft.to/lastmile_qr_scan"}}, {"name": "6bc0ee20b6c2ab4eb91cc8d3ac0dc2ae", "type": "electric_scooter", "lat": 38.912695666666664, "is_reserved": 0, "lon": -77.03148283333333, "fusion_lon": 0.0, "is_disabled": 0, "fusion_lat": 0.0, "bike_id": "6bc0ee20b6c2ab4eb91cc8d3ac0dc2ae", "rental_uris": {"ios": "https://dc.lft.to/lastmile_qr_scan", "android": "https://dc.lft.to/lastmile_qr_scan"}}, {"name": "e1d3a4ed36fb63135eb054a14d5d51f8", "type": "electric_bike", "lat": 38.854334333333334, "is_reserved": 0, "lon": -76.909605, "fusion_lon": 0.0, "is_disabled": 0, "fusion_lat": 0.0, "bike_id": "e1d3a4ed36fb63135eb054a14d5d51f8", "rental_uris": {"ios": "https://dc.lft.to/lastmile_qr_scan", "android": "https://dc.lft.to/lastmile_qr_scan"}}, {"name": "6dc5f715b8ef72ce214bfdb8af25d428", "type": "electric_scooter", "lat": 38.885649, "is_reserved": 0, "lon": -76.9487, "fusion_lon": 0.0, "is_disabled": 0, "fusion_lat": 0.0, "bike_id": "6dc5f715b8ef72ce214bfdb8af25d428", "rental_uris": {"ios": "https://dc.lft.to/lastmile_qr_scan", "android": "https://dc.lft.to/lastmile_qr_scan"}}, {"name": "70f0273ab47ae84fd72b15c0d3da33ce", "type": "electric_scooter", "lat": 38.93530283333333, "is_reserved": 0, "lon": -77.03413533333334, "fusion_lon": 0.0, "is_disabled": 0, "fusion_lat": 0.0, "bike_id": "70f0273ab47ae84fd72b15c0d3da33ce", "rental_uris": {"ios": "https://dc.lft.to/lastmile_qr_scan", "android": "https://dc.lft.to/lastmile_qr_scan"}}, {"name": "d33b02d72a4050c8528089dbf52fc334", "type": "electric_bike", "lat": 38.810508166666665, "is_reserved": 0, "lon": -77.0851335, "fusion_lon": 0.0, "is_disabled": 0, "fusion_lat": 0.0, "bike_id": "d33b02d72a4050c8528089dbf52fc334", "rental_uris": {"ios": "https://dc.lft.to/lastmile_qr_scan", "android": "https://dc.lft.to/lastmile_qr_scan"}}, {"name": "bfc86cd792b67ffbf80f4b2c488ecda0", "type": "electric_scooter", "lat": 38.90428683333333, "is_reserved": 0, "lon": -77.05334383333333, "fusion_lon": 0.0, "is_disabled": 0, "fusion_lat": 0.0, "bike_id": "bfc86cd792b67ffbf80f4b2c488ecda0", "rental_uris": {"ios": "https://dc.lft.to/lastmile_qr_scan", "android": "https://dc.lft.to/lastmile_qr_scan"}}, {"name": "3a9a908ac63511130a3162949cf2bf2a", "type": "electric_scooter", "lat": 38.911914, "is_reserved": 0, "lon": -77.0077945, "fusion_lon": 0.0, "is_disabled": 0, "fusion_lat": 0.0, "bike_id": "3a9a908ac63511130a3162949cf2bf2a", "rental_uris": {"ios": "https://dc.lft.to/lastmile_qr_scan", "android": "https://dc.lft.to/lastmile_qr_scan"}}, {"name": "8f913d8771877d3ff400ee6e55a71e17", "type": "electric_scooter", "lat": 38.89905566666667, "is_reserved": 0, "lon": -77.0328205, "fusion_lon": 0.0, "is_disabled": 0, "fusion_lat": 0.0, "bike_id": "8f913d8771877d3ff400ee6e55a71e17", "rental_uris": {"ios": "https://dc.lft.to/lastmile_qr_scan", "android": "https://dc.lft.to/lastmile_qr_scan"}}, {"name": "43c360f0fc44fdfb47c43c55bbd4904a", "type": "electric_bike", "lat": 39.02682816666667, "is_reserved": 0, "lon": -77.12605916666666, "fusion_lon": 0.0, "is_disabled": 0, "fusion_lat": 0.0, "bike_id": "43c360f0fc44fdfb47c43c55bbd4904a", "rental_uris": {"ios": "https://dc.lft.to/lastmile_qr_scan", "android": "https://dc.lft.to/lastmile_qr_scan"}}, {"name": "9c00aa8265ba36e4a99e3e6509240245", "type": "electric_scooter", "lat": 38.89352083333333, "is_reserved": 0, "lon": -77.00336616666667, "fusion_lon": 0.0, "is_disabled": 0, "fusion_lat": 0.0, "bike_id": "9c00aa8265ba36e4a99e3e6509240245", "rental_uris": {"ios": "https://dc.lft.to/lastmile_qr_scan", "android": "https://dc.lft.to/lastmile_qr_scan"}}, {"name": "d51fcfcc34805799a756ff45e356fe37", "type": "electric_scooter", "lat": 38.89222933333333, "is_reserved": 0, "lon": -77.04542733333334, "fusion_lon": 0.0, "is_disabled": 0, "fusion_lat": 0.0, "bike_id": "d51fcfcc34805799a756ff45e356fe37", "rental_uris": {"ios": "https://dc.lft.to/lastmile_qr_scan", "android": "https://dc.lft.to/lastmile_qr_scan"}}, {"name": "a2d10351234ccd0077741d0da2d80765", "type": "electric_scooter", "lat": 38.92160966666667, "is_reserved": 0, "lon": -76.99399666666666, "fusion_lon": 0.0, "is_disabled": 0, "fusion_lat": 0.0, "bike_id": "a2d10351234ccd0077741d0da2d80765", "rental_uris": {"ios": "https://dc.lft.to/lastmile_qr_scan", "android": "https://dc.lft.to/lastmile_qr_scan"}}, {"name": "1414e16d71a23bba17413fc9f9022568", "type": "electric_scooter", "lat": 38.9124925, "is_reserved": 0, "lon": -77.03647116666667, "fusion_lon": 0.0, "is_disabled": 0, "fusion_lat": 0.0, "bike_id": "1414e16d71a23bba17413fc9f9022568", "rental_uris": {"ios": "https://dc.lft.to/lastmile_qr_scan", "android": "https://dc.lft.to/lastmile_qr_scan"}}, {"name": "b6e0a9a04cbb482f5ea86a02925fd0e0", "type": "electric_scooter", "lat": 38.90038533333333, "is_reserved": 0, "lon": -77.0169655, "fusion_lon": 0.0, "is_disabled": 0, "fusion_lat": 0.0, "bike_id": "b6e0a9a04cbb482f5ea86a02925fd0e0", "rental_uris": {"ios": "https://dc.lft.to/lastmile_qr_scan", "android": "https://dc.lft.to/lastmile_qr_scan"}}, {"name": "4f9f7cd5187c828ab642ca4c78930787", "type": "electric_scooter", "lat": 38.880365833333336, "is_reserved": 0, "lon": -77.0034835, "fusion_lon": 0.0, "is_disabled": 0, "fusion_lat": 0.0, "bike_id": "4f9f7cd5187c828ab642ca4c78930787", "rental_uris": {"ios": "https://dc.lft.to/lastmile_qr_scan", "android": "https://dc.lft.to/lastmile_qr_scan"}}, {"name": "c908f38125731a30303a5a974f415c3d", "type": "electric_scooter", "lat": 38.8442015, "is_reserved": 0, "lon": -76.99779283333334, "fusion_lon": 0.0, "is_disabled": 0, "fusion_lat": 0.0, "bike_id": "c908f38125731a30303a5a974f415c3d", "rental_uris": {"ios": "https://dc.lft.to/lastmile_qr_scan", "android": "https://dc.lft.to/lastmile_qr_scan"}}, {"name": "e27adc20ffe6d85f1d17108f4d37b5bf", "type": "electric_scooter", "lat": 38.91795316666666, "is_reserved": 0, "lon": -77.028117, "fusion_lon": 0.0, "is_disabled": 0, "fusion_lat": 0.0, "bike_id": "e27adc20ffe6d85f1d17108f4d37b5bf", "rental_uris": {"ios": "https://dc.lft.to/lastmile_qr_scan", "android": "https://dc.lft.to/lastmile_qr_scan"}}, {"name": "8bd5178862c6c54610c99a5e025a8fff", "type": "electric_scooter", "lat": 38.89220866666667, "is_reserved": 0, "lon": -77.04264516666667, "fusion_lon": 0.0, "is_disabled": 0, "fusion_lat": 0.0, "bike_id": "8bd5178862c6c54610c99a5e025a8fff", "rental_uris": {"ios": "https://dc.lft.to/lastmile_qr_scan", "android": "https://dc.lft.to/lastmile_qr_scan"}}, {"name": "e428e69e70985bbb354ecb40d2c9ebcc", "type": "electric_scooter", "lat": 38.92616616666667, "is_reserved": 0, "lon": -77.00578, "fusion_lon": 0.0, "is_disabled": 0, "fusion_lat": 0.0, "bike_id": "e428e69e70985bbb354ecb40d2c9ebcc", "rental_uris": {"ios": "https://dc.lft.to/lastmile_qr_scan", "android": "https://dc.lft.to/lastmile_qr_scan"}}, {"name": "3755d3b3a622181a060c67c95a9bfcbd", "type": "electric_scooter", "lat": 38.92513533333333, "is_reserved": 0, "lon": -77.023637, "fusion_lon": 0.0, "is_disabled": 0, "fusion_lat": 0.0, "bike_id": "3755d3b3a622181a060c67c95a9bfcbd", "rental_uris": {"ios": "https://dc.lft.to/lastmile_qr_scan", "android": "https://dc.lft.to/lastmile_qr_scan"}}, {"name": "a1dc23d1d791934aa784ac925b892781", "type": "electric_scooter", "lat": 38.900807, "is_reserved": 0, "lon": -77.02596083333333, "fusion_lon": 0.0, "is_disabled": 0, "fusion_lat": 0.0, "bike_id": "a1dc23d1d791934aa784ac925b892781", "rental_uris": {"ios": "https://dc.lft.to/lastmile_qr_scan", "android": "https://dc.lft.to/lastmile_qr_scan"}}, {"name": "55136e962225bdf0da3cc0ac5689b298", "type": "electric_scooter", "lat": 38.89372483333333, "is_reserved": 0, "lon": -76.9499355, "fusion_lon": 0.0, "is_disabled": 0, "fusion_lat": 0.0, "bike_id": "55136e962225bdf0da3cc0ac5689b298", "rental_uris": {"ios": "https://dc.lft.to/lastmile_qr_scan", "android": "https://dc.lft.to/lastmile_qr_scan"}}, {"name": "4788cfc8bfd2bf5bacf0b67ae0fa2a52", "type": "electric_scooter", "lat": 38.912718166666664, "is_reserved": 0, "lon": -77.03811633333333, "fusion_lon": 0.0, "is_disabled": 0, "fusion_lat": 0.0, "bike_id": "4788cfc8bfd2bf5bacf0b67ae0fa2a52", "rental_uris": {"ios": "https://dc.lft.to/lastmile_qr_scan", "android": "https://dc.lft.to/lastmile_qr_scan"}}, {"name": "812528f02e77c71f571ff422d2aabcf5", "type": "electric_scooter", "lat": 38.89974483333334, "is_reserved": 0, "lon": -77.03173016666666, "fusion_lon": 0.0, "is_disabled": 0, "fusion_lat": 0.0, "bike_id": "812528f02e77c71f571ff422d2aabcf5", "rental_uris": {"ios": "https://dc.lft.to/lastmile_qr_scan", "android": "https://dc.lft.to/lastmile_qr_scan"}}, {"name": "b16d5cd8876639d9c0302d0d12859c4d", "type": "electric_scooter", "lat": 38.906412833333334, "is_reserved": 0, "lon": -76.9857885, "fusion_lon": 0.0, "is_disabled": 0, "fusion_lat": 0.0, "bike_id": "b16d5cd8876639d9c0302d0d12859c4d", "rental_uris": {"ios": "https://dc.lft.to/lastmile_qr_scan", "android": "https://dc.lft.to/lastmile_qr_scan"}}, {"name": "f3292780e4a0db60c63c1ecc626aa2be", "type": "electric_scooter", "lat": 38.89219683333334, "is_reserved": 0, "lon": -77.01373366666667, "fusion_lon": 0.0, "is_disabled": 0, "fusion_lat": 0.0, "bike_id": "f3292780e4a0db60c63c1ecc626aa2be", "rental_uris": {"ios": "https://dc.lft.to/lastmile_qr_scan", "android": "https://dc.lft.to/lastmile_qr_scan"}}, {"name": "5a8ff29fecb7571363ae1e3ce107ed76", "type": "electric_scooter", "lat": 38.8961145, "is_reserved": 0, "lon": -77.0283365, "fusion_lon": 0.0, "is_disabled": 0, "fusion_lat": 0.0, "bike_id": "5a8ff29fecb7571363ae1e3ce107ed76", "rental_uris": {"ios": "https://dc.lft.to/lastmile_qr_scan", "android": "https://dc.lft.to/lastmile_qr_scan"}}, {"name": "164e61afd91508d3b0ddc6facf1ac235", "type": "electric_bike", "lat": 38.869082166666665, "is_reserved": 0, "lon": -77.1317675, "fusion_lon": 0.0, "is_disabled": 0, "fusion_lat": 0.0, "bike_id": "164e61afd91508d3b0ddc6facf1ac235", "rental_uris": {"ios": "https://dc.lft.to/lastmile_qr_scan", "android": "https://dc.lft.to/lastmile_qr_scan"}}, {"name": "33339855ac008cc6745517252ad729b6", "type": "electric_scooter", "lat": 38.9110735, "is_reserved": 0, "lon": -77.037199, "fusion_lon": 0.0, "is_disabled": 0, "fusion_lat": 0.0, "bike_id": "33339855ac008cc6745517252ad729b6", "rental_uris": {"ios": "https://dc.lft.to/lastmile_qr_scan", "android": "https://dc.lft.to/lastmile_qr_scan"}}, {"name": "c9a625b3c00fcd5aded413914701c599", "type": "electric_scooter", "lat": 38.912364, "is_reserved": 0, "lon": -77.00109116666667, "fusion_lon": 0.0, "is_disabled": 0, "fusion_lat": 0.0, "bike_id": "c9a625b3c00fcd5aded413914701c599", "rental_uris": {"ios": "https://dc.lft.to/lastmile_qr_scan", "android": "https://dc.lft.to/lastmile_qr_scan"}}, {"name": "c808960505213c262ab350e529090dfc", "type": "electric_scooter", "lat": 38.93714, "is_reserved": 0, "lon": -77.03653916666667, "fusion_lon": 0.0, "is_disabled": 0, "fusion_lat": 0.0, "bike_id": "c808960505213c262ab350e529090dfc", "rental_uris": {"ios": "https://dc.lft.to/lastmile_qr_scan", "android": "https://dc.lft.to/lastmile_qr_scan"}}, {"name": "75b8e16b3eb62db3a76d8558a9be13bd", "type": "electric_scooter", "lat": 38.918588166666666, "is_reserved": 0, "lon": -77.04433216666666, "fusion_lon": 0.0, "is_disabled": 0, "fusion_lat": 0.0, "bike_id": "75b8e16b3eb62db3a76d8558a9be13bd", "rental_uris": {"ios": "https://dc.lft.to/lastmile_qr_scan", "android": "https://dc.lft.to/lastmile_qr_scan"}}, {"name": "99fc51772df232f5a7739932ba60d109", "type": "electric_bike", "lat": 38.90531983333333, "is_reserved": 0, "lon": -76.99815766666667, "fusion_lon": 0.0, "is_disabled": 0, "fusion_lat": 0.0, "bike_id": "99fc51772df232f5a7739932ba60d109", "rental_uris": {"ios": "https://dc.lft.to/lastmile_qr_scan", "android": "https://dc.lft.to/lastmile_qr_scan"}}, {"name": "0f18407c15164e0c93d8b51840db89e9", "type": "electric_scooter", "lat": 38.91556966666667, "is_reserved": 0, "lon": -77.0256105, "fusion_lon": 0.0, "is_disabled": 0, "fusion_lat": 0.0, "bike_id": "0f18407c15164e0c93d8b51840db89e9", "rental_uris": {"ios": "https://dc.lft.to/lastmile_qr_scan", "android": "https://dc.lft.to/lastmile_qr_scan"}}, {"name": "558e6088fd8c17939e70cad5e945a43f", "type": "electric_scooter", "lat": 38.9086285, "is_reserved": 0, "lon": -77.02708733333333, "fusion_lon": 0.0, "is_disabled": 0, "fusion_lat": 0.0, "bike_id": "558e6088fd8c17939e70cad5e945a43f", "rental_uris": {"ios": "https://dc.lft.to/lastmile_qr_scan", "android": "https://dc.lft.to/lastmile_qr_scan"}}, {"name": "85417c8bb2bf84a07c2240362134427d", "type": "electric_bike", "lat": 38.990898666666666, "is_reserved": 0, "lon": -76.87497283333333, "fusion_lon": 0.0, "is_disabled": 0, "fusion_lat": 0.0, "bike_id": "85417c8bb2bf84a07c2240362134427d", "rental_uris": {"ios": "https://dc.lft.to/lastmile_qr_scan", "android": "https://dc.lft.to/lastmile_qr_scan"}}, {"name": "e68176ec1b8348844ec6ed64f1426a60", "type": "electric_scooter", "lat": 38.90978533333333, "is_reserved": 0, "lon": -77.03178733333333, "fusion_lon": 0.0, "is_disabled": 0, "fusion_lat": 0.0, "bike_id": "e68176ec1b8348844ec6ed64f1426a60", "rental_uris": {"ios": "https://dc.lft.to/lastmile_qr_scan", "android": "https://dc.lft.to/lastmile_qr_scan"}}, {"name": "36a7d4d4660f4e6201b7b9f3d082c56b", "type": "electric_scooter", "lat": 38.9228825, "is_reserved": 0, "lon": -77.02070633333334, "fusion_lon": 0.0, "is_disabled": 0, "fusion_lat": 0.0, "bike_id": "36a7d4d4660f4e6201b7b9f3d082c56b", "rental_uris": {"ios": "https://dc.lft.to/lastmile_qr_scan", "android": "https://dc.lft.to/lastmile_qr_scan"}}, {"name": "f223340d40ef37a69b02501f6274bd1f", "type": "electric_scooter", "lat": 38.91201733333333, "is_reserved": 0, "lon": -77.0447155, "fusion_lon": 0.0, "is_disabled": 0, "fusion_lat": 0.0, "bike_id": "f223340d40ef37a69b02501f6274bd1f", "rental_uris": {"ios": "https://dc.lft.to/lastmile_qr_scan", "android": "https://dc.lft.to/lastmile_qr_scan"}}, {"name": "dbb58467d041b62d72b88f86039d6e7f", "type": "electric_scooter", "lat": 38.898923, "is_reserved": 0, "lon": -76.931791, "fusion_lon": 0.0, "is_disabled": 0, "fusion_lat": 0.0, "bike_id": "dbb58467d041b62d72b88f86039d6e7f", "rental_uris": {"ios": "https://dc.lft.to/lastmile_qr_scan", "android": "https://dc.lft.to/lastmile_qr_scan"}}, {"name": "d0bae977308f1f539a523a5d1fd88093", "type": "electric_scooter", "lat": 38.917631, "is_reserved": 0, "lon": -77.0271305, "fusion_lon": 0.0, "is_disabled": 0, "fusion_lat": 0.0, "bike_id": "d0bae977308f1f539a523a5d1fd88093", "rental_uris": {"ios": "https://dc.lft.to/lastmile_qr_scan", "android": "https://dc.lft.to/lastmile_qr_scan"}}, {"name": "8c513a4ba31ec2af30b6aa8477e368aa", "type": "electric_scooter", "lat": 38.89217716666667, "is_reserved": 0, "lon": -77.0436605, "fusion_lon": 0.0, "is_disabled": 0, "fusion_lat": 0.0, "bike_id": "8c513a4ba31ec2af30b6aa8477e368aa", "rental_uris": {"ios": "https://dc.lft.to/lastmile_qr_scan", "android": "https://dc.lft.to/lastmile_qr_scan"}}, {"name": "89ba363a8d270812a2f18adb8a8e5395", "type": "electric_scooter", "lat": 38.895138333333335, "is_reserved": 0, "lon": -77.04853933333334, "fusion_lon": 0.0, "is_disabled": 0, "fusion_lat": 0.0, "bike_id": "89ba363a8d270812a2f18adb8a8e5395", "rental_uris": {"ios": "https://dc.lft.to/lastmile_qr_scan", "android": "https://dc.lft.to/lastmile_qr_scan"}}, {"name": "c42ab2fe0085f3de311ac33bd61913a9", "type": "electric_scooter", "lat": 38.911883, "is_reserved": 0, "lon": -77.04009133333334, "fusion_lon": 0.0, "is_disabled": 0, "fusion_lat": 0.0, "bike_id": "c42ab2fe0085f3de311ac33bd61913a9", "rental_uris": {"ios": "https://dc.lft.to/lastmile_qr_scan", "android": "https://dc.lft.to/lastmile_qr_scan"}}, {"name": "5fe629ccbe59e003d8c42548042511e8", "type": "electric_bike", "lat": 38.89678133333334, "is_reserved": 0, "lon": -77.050011, "fusion_lon": 0.0, "is_disabled": 0, "fusion_lat": 0.0, "bike_id": "5fe629ccbe59e003d8c42548042511e8", "rental_uris": {"ios": "https://dc.lft.to/lastmile_qr_scan", "android": "https://dc.lft.to/lastmile_qr_scan"}}, {"name": "4dc71294ce439bb6b0ff508ae652f128", "type": "electric_scooter", "lat": 38.8985585, "is_reserved": 0, "lon": -77.03174933333334, "fusion_lon": 0.0, "is_disabled": 0, "fusion_lat": 0.0, "bike_id": "4dc71294ce439bb6b0ff508ae652f128", "rental_uris": {"ios": "https://dc.lft.to/lastmile_qr_scan", "android": "https://dc.lft.to/lastmile_qr_scan"}}, {"name": "bd51d24939c9c3b53105c82b551ca95e", "type": "electric_scooter", "lat": 38.90356233333333, "is_reserved": 0, "lon": -77.03378233333333, "fusion_lon": 0.0, "is_disabled": 0, "fusion_lat": 0.0, "bike_id": "bd51d24939c9c3b53105c82b551ca95e", "rental_uris": {"ios": "https://dc.lft.to/lastmile_qr_scan", "android": "https://dc.lft.to/lastmile_qr_scan"}}, {"name": "930bb9ed28db506639316b4fbaf8bf07", "type": "electric_scooter", "lat": 38.87430033333333, "is_reserved": 0, "lon": -77.0206625, "fusion_lon": 0.0, "is_disabled": 0, "fusion_lat": 0.0, "bike_id": "930bb9ed28db506639316b4fbaf8bf07", "rental_uris": {"ios": "https://dc.lft.to/lastmile_qr_scan", "android": "https://dc.lft.to/lastmile_qr_scan"}}, {"name": "8788b879c79026c17f445a8a0a22238d", "type": "electric_scooter", "lat": 38.89559066666666, "is_reserved": 0, "lon": -77.0500565, "fusion_lon": 0.0, "is_disabled": 0, "fusion_lat": 0.0, "bike_id": "8788b879c79026c17f445a8a0a22238d", "rental_uris": {"ios": "https://dc.lft.to/lastmile_qr_scan", "android": "https://dc.lft.to/lastmile_qr_scan"}}, {"name": "8491292af3e759d7e0bc96727cc35365", "type": "electric_scooter", "lat": 38.914107, "is_reserved": 0, "lon": -77.0390175, "fusion_lon": 0.0, "is_disabled": 0, "fusion_lat": 0.0, "bike_id": "8491292af3e759d7e0bc96727cc35365", "rental_uris": {"ios": "https://dc.lft.to/lastmile_qr_scan", "android": "https://dc.lft.to/lastmile_qr_scan"}}, {"name": "a60504158579066d1cf89be79b24c228", "type": "electric_scooter", "lat": 38.89185366666667, "is_reserved": 0, "lon": -77.00293483333333, "fusion_lon": 0.0, "is_disabled": 0, "fusion_lat": 0.0, "bike_id": "a60504158579066d1cf89be79b24c228", "rental_uris": {"ios": "https://dc.lft.to/lastmile_qr_scan", "android": "https://dc.lft.to/lastmile_qr_scan"}}, {"name": "6f02ff5e5a2324c1c31e2ea5ea0e6c52", "type": "electric_scooter", "lat": 38.8999535, "is_reserved": 0, "lon": -76.98552783333334, "fusion_lon": 0.0, "is_disabled": 0, "fusion_lat": 0.0, "bike_id": "6f02ff5e5a2324c1c31e2ea5ea0e6c52", "rental_uris": {"ios": "https://dc.lft.to/lastmile_qr_scan", "android": "https://dc.lft.to/lastmile_qr_scan"}}, {"name": "857a02f51a88fa8e74ffa22c2fe71770", "type": "electric_scooter", "lat": 38.9125935, "is_reserved": 0, "lon": -77.0314055, "fusion_lon": 0.0, "is_disabled": 0, "fusion_lat": 0.0, "bike_id": "857a02f51a88fa8e74ffa22c2fe71770", "rental_uris": {"ios": "https://dc.lft.to/lastmile_qr_scan", "android": "https://dc.lft.to/lastmile_qr_scan"}}, {"name": "17d74e2522a2c769feca9aeb67b4954a", "type": "electric_scooter", "lat": 38.9248685, "is_reserved": 0, "lon": -77.0271765, "fusion_lon": 0.0, "is_disabled": 0, "fusion_lat": 0.0, "bike_id": "17d74e2522a2c769feca9aeb67b4954a", "rental_uris": {"ios": "https://dc.lft.to/lastmile_qr_scan", "android": "https://dc.lft.to/lastmile_qr_scan"}}, {"name": "5afe1ca250a200b77ea0155a714b6045", "type": "electric_scooter", "lat": 38.90078883333334, "is_reserved": 0, "lon": -77.059123, "fusion_lon": 0.0, "is_disabled": 0, "fusion_lat": 0.0, "bike_id": "5afe1ca250a200b77ea0155a714b6045", "rental_uris": {"ios": "https://dc.lft.to/lastmile_qr_scan", "android": "https://dc.lft.to/lastmile_qr_scan"}}, {"name": "40216e9789b8479f35080a223ea21a18", "type": "electric_scooter", "lat": 38.8991675, "is_reserved": 0, "lon": -76.93383733333333, "fusion_lon": 0.0, "is_disabled": 0, "fusion_lat": 0.0, "bike_id": "40216e9789b8479f35080a223ea21a18", "rental_uris": {"ios": "https://dc.lft.to/lastmile_qr_scan", "android": "https://dc.lft.to/lastmile_qr_scan"}}, {"name": "c11819dc66f753b54556c91546c66007", "type": "electric_bike", "lat": 38.880322, "is_reserved": 0, "lon": -77.025304, "fusion_lon": 0.0, "is_disabled": 0, "fusion_lat": 0.0, "bike_id": "c11819dc66f753b54556c91546c66007", "rental_uris": {"ios": "https://dc.lft.to/lastmile_qr_scan", "android": "https://dc.lft.to/lastmile_qr_scan"}}, {"name": "0778df97c770c4add4969c46f3adc985", "type": "electric_scooter", "lat": 38.86573083333333, "is_reserved": 0, "lon": -76.98950816666667, "fusion_lon": 0.0, "is_disabled": 0, "fusion_lat": 0.0, "bike_id": "0778df97c770c4add4969c46f3adc985", "rental_uris": {"ios": "https://dc.lft.to/lastmile_qr_scan", "android": "https://dc.lft.to/lastmile_qr_scan"}}, {"name": "5ce2db5ea994497974781f4362ab08d3", "type": "electric_bike", "lat": 38.8515705, "is_reserved": 0, "lon": -77.12877866666666, "fusion_lon": 0.0, "is_disabled": 0, "fusion_lat": 0.0, "bike_id": "5ce2db5ea994497974781f4362ab08d3", "rental_uris": {"ios": "https://dc.lft.to/lastmile_qr_scan", "android": "https://dc.lft.to/lastmile_qr_scan"}}, {"name": "4530bf952826fa4c54e70a0b5497734a", "type": "electric_scooter", "lat": 38.92512966666666, "is_reserved": 0, "lon": -77.03558883333334, "fusion_lon": 0.0, "is_disabled": 0, "fusion_lat": 0.0, "bike_id": "4530bf952826fa4c54e70a0b5497734a", "rental_uris": {"ios": "https://dc.lft.to/lastmile_qr_scan", "android": "https://dc.lft.to/lastmile_qr_scan"}}, {"name": "d632ea0c41f2104fd7bade5bf62b84e5", "type": "electric_scooter", "lat": 38.936726, "is_reserved": 0, "lon": -77.035936, "fusion_lon": 0.0, "is_disabled": 0, "fusion_lat": 0.0, "bike_id": "d632ea0c41f2104fd7bade5bf62b84e5", "rental_uris": {"ios": "https://dc.lft.to/lastmile_qr_scan", "android": "https://dc.lft.to/lastmile_qr_scan"}}, {"name": "b0a0b609909886d409fc68303867987c", "type": "electric_scooter", "lat": 38.902025333333334, "is_reserved": 0, "lon": -76.9819305, "fusion_lon": 0.0, "is_disabled": 0, "fusion_lat": 0.0, "bike_id": "b0a0b609909886d409fc68303867987c", "rental_uris": {"ios": "https://dc.lft.to/lastmile_qr_scan", "android": "https://dc.lft.to/lastmile_qr_scan"}}, {"name": "566c132946139d141aaa89abe156b4e3", "type": "electric_scooter", "lat": 38.96113033333334, "is_reserved": 0, "lon": -77.02815333333334, "fusion_lon": 0.0, "is_disabled": 0, "fusion_lat": 0.0, "bike_id": "566c132946139d141aaa89abe156b4e3", "rental_uris": {"ios": "https://dc.lft.to/lastmile_qr_scan", "android": "https://dc.lft.to/lastmile_qr_scan"}}, {"name": "6b41585e18f3c841b2614358463b7726", "type": "electric_scooter", "lat": 38.894756666666666, "is_reserved": 0, "lon": -76.984031, "fusion_lon": 0.0, "is_disabled": 0, "fusion_lat": 0.0, "bike_id": "6b41585e18f3c841b2614358463b7726", "rental_uris": {"ios": "https://dc.lft.to/lastmile_qr_scan", "android": "https://dc.lft.to/lastmile_qr_scan"}}, {"name": "61796e9029672788f8e495625f960a47", "type": "electric_scooter", "lat": 38.90238733333333, "is_reserved": 0, "lon": -77.0019855, "fusion_lon": 0.0, "is_disabled": 0, "fusion_lat": 0.0, "bike_id": "61796e9029672788f8e495625f960a47", "rental_uris": {"ios": "https://dc.lft.to/lastmile_qr_scan", "android": "https://dc.lft.to/lastmile_qr_scan"}}, {"name": "c6ab21a263d5607a40fd8c3fd3774307", "type": "electric_bike", "lat": 38.872643, "is_reserved": 0, "lon": -77.01688316666667, "fusion_lon": 0.0, "is_disabled": 0, "fusion_lat": 0.0, "bike_id": "c6ab21a263d5607a40fd8c3fd3774307", "rental_uris": {"ios": "https://dc.lft.to/lastmile_qr_scan", "android": "https://dc.lft.to/lastmile_qr_scan"}}, {"name": "86378afdc66ecf4af12e1a313fbe4dac", "type": "electric_scooter", "lat": 38.943164333333335, "is_reserved": 0, "lon": -77.0591615, "fusion_lon": 0.0, "is_disabled": 0, "fusion_lat": 0.0, "bike_id": "86378afdc66ecf4af12e1a313fbe4dac", "rental_uris": {"ios": "https://dc.lft.to/lastmile_qr_scan", "android": "https://dc.lft.to/lastmile_qr_scan"}}, {"name": "cf73dee44617852a697bbae44ac4f76c", "type": "electric_scooter", "lat": 38.86942483333333, "is_reserved": 0, "lon": -76.97859916666667, "fusion_lon": 0.0, "is_disabled": 0, "fusion_lat": 0.0, "bike_id": "cf73dee44617852a697bbae44ac4f76c", "rental_uris": {"ios": "https://dc.lft.to/lastmile_qr_scan", "android": "https://dc.lft.to/lastmile_qr_scan"}}, {"name": "a11142066aa8eaa43e2195f023395c61", "type": "electric_scooter", "lat": 38.901281, "is_reserved": 0, "lon": -77.04483016666667, "fusion_lon": 0.0, "is_disabled": 0, "fusion_lat": 0.0, "bike_id": "a11142066aa8eaa43e2195f023395c61", "rental_uris": {"ios": "https://dc.lft.to/lastmile_qr_scan", "android": "https://dc.lft.to/lastmile_qr_scan"}}, {"name": "3618cb6ebbdc0a811cd903ab6a685289", "type": "electric_scooter", "lat": 38.930780666666664, "is_reserved": 0, "lon": -77.03400066666667, "fusion_lon": 0.0, "is_disabled": 0, "fusion_lat": 0.0, "bike_id": "3618cb6ebbdc0a811cd903ab6a685289", "rental_uris": {"ios": "https://dc.lft.to/lastmile_qr_scan", "android": "https://dc.lft.to/lastmile_qr_scan"}}, {"name": "0f8cf1ad85eae33030908ae6805cf40c", "type": "electric_scooter", "lat": 38.94270316666667, "is_reserved": 0, "lon": -77.0250905, "fusion_lon": 0.0, "is_disabled": 0, "fusion_lat": 0.0, "bike_id": "0f8cf1ad85eae33030908ae6805cf40c", "rental_uris": {"ios": "https://dc.lft.to/lastmile_qr_scan", "android": "https://dc.lft.to/lastmile_qr_scan"}}, {"name": "533d84fae9a859564a0a5402e9470c7d", "type": "electric_scooter", "lat": 38.93323616666667, "is_reserved": 0, "lon": -77.03442233333334, "fusion_lon": 0.0, "is_disabled": 0, "fusion_lat": 0.0, "bike_id": "533d84fae9a859564a0a5402e9470c7d", "rental_uris": {"ios": "https://dc.lft.to/lastmile_qr_scan", "android": "https://dc.lft.to/lastmile_qr_scan"}}, {"name": "3e243e74079d6afe0434c618147635af", "type": "electric_bike", "lat": 38.839331333333334, "is_reserved": 0, "lon": -77.07903916666666, "fusion_lon": 0.0, "is_disabled": 0, "fusion_lat": 0.0, "bike_id": "3e243e74079d6afe0434c618147635af", "rental_uris": {"ios": "https://dc.lft.to/lastmile_qr_scan", "android": "https://dc.lft.to/lastmile_qr_scan"}}, {"name": "72055aafb966f9665025dfc6a88dfdb5", "type": "electric_scooter", "lat": 38.8923205, "is_reserved": 0, "lon": -77.03340083333333, "fusion_lon": 0.0, "is_disabled": 0, "fusion_lat": 0.0, "bike_id": "72055aafb966f9665025dfc6a88dfdb5", "rental_uris": {"ios": "https://dc.lft.to/lastmile_qr_scan", "android": "https://dc.lft.to/lastmile_qr_scan"}}, {"name": "aac283760c90198c5fa54a9a79f74bf4", "type": "electric_scooter", "lat": 38.905077166666665, "is_reserved": 0, "lon": -77.0414895, "fusion_lon": 0.0, "is_disabled": 0, "fusion_lat": 0.0, "bike_id": "aac283760c90198c5fa54a9a79f74bf4", "rental_uris": {"ios": "https://dc.lft.to/lastmile_qr_scan", "android": "https://dc.lft.to/lastmile_qr_scan"}}, {"name": "83e31e5643f670d2d85fffd294fcf831", "type": "electric_scooter", "lat": 38.892240666666666, "is_reserved": 0, "lon": -77.0464335, "fusion_lon": 0.0, "is_disabled": 0, "fusion_lat": 0.0, "bike_id": "83e31e5643f670d2d85fffd294fcf831", "rental_uris": {"ios": "https://dc.lft.to/lastmile_qr_scan", "android": "https://dc.lft.to/lastmile_qr_scan"}}, {"name": "7dda8914ee151ce1f1324c4a7910df45", "type": "electric_scooter", "lat": 38.94951966666667, "is_reserved": 0, "lon": -77.02725566666666, "fusion_lon": 0.0, "is_disabled": 0, "fusion_lat": 0.0, "bike_id": "7dda8914ee151ce1f1324c4a7910df45", "rental_uris": {"ios": "https://dc.lft.to/lastmile_qr_scan", "android": "https://dc.lft.to/lastmile_qr_scan"}}, {"name": "bc4063cb74f4846a4bdefabe0080bba3", "type": "electric_scooter", "lat": 38.905303833333335, "is_reserved": 0, "lon": -77.04555616666667, "fusion_lon": 0.0, "is_disabled": 0, "fusion_lat": 0.0, "bike_id": "bc4063cb74f4846a4bdefabe0080bba3", "rental_uris": {"ios": "https://dc.lft.to/lastmile_qr_scan", "android": "https://dc.lft.to/lastmile_qr_scan"}}, {"name": "6157479a591a9ddca244fa01df64df41", "type": "electric_scooter", "lat": 38.900472666666666, "is_reserved": 0, "lon": -77.01874166666667, "fusion_lon": 0.0, "is_disabled": 0, "fusion_lat": 0.0, "bike_id": "6157479a591a9ddca244fa01df64df41", "rental_uris": {"ios": "https://dc.lft.to/lastmile_qr_scan", "android": "https://dc.lft.to/lastmile_qr_scan"}}, {"name": "98cc986d5232223832ae0c4038bf9cf5", "type": "electric_scooter", "lat": 38.91013616666667, "is_reserved": 0, "lon": -77.04876266666666, "fusion_lon": 0.0, "is_disabled": 0, "fusion_lat": 0.0, "bike_id": "98cc986d5232223832ae0c4038bf9cf5", "rental_uris": {"ios": "https://dc.lft.to/lastmile_qr_scan", "android": "https://dc.lft.to/lastmile_qr_scan"}}, {"name": "cc6100b8454c75e15f6257f8954e94cb", "type": "electric_scooter", "lat": 38.9343895, "is_reserved": 0, "lon": -77.02985816666667, "fusion_lon": 0.0, "is_disabled": 0, "fusion_lat": 0.0, "bike_id": "cc6100b8454c75e15f6257f8954e94cb", "rental_uris": {"ios": "https://dc.lft.to/lastmile_qr_scan", "android": "https://dc.lft.to/lastmile_qr_scan"}}, {"name": "947927fa2dcfb823f493464120763312", "type": "electric_scooter", "lat": 38.92179566666667, "is_reserved": 0, "lon": -77.0428825, "fusion_lon": 0.0, "is_disabled": 0, "fusion_lat": 0.0, "bike_id": "947927fa2dcfb823f493464120763312", "rental_uris": {"ios": "https://dc.lft.to/lastmile_qr_scan", "android": "https://dc.lft.to/lastmile_qr_scan"}}, {"name": "7091445998483cc041939365745e049e", "type": "electric_scooter", "lat": 38.928595666666666, "is_reserved": 0, "lon": -77.03101033333333, "fusion_lon": 0.0, "is_disabled": 0, "fusion_lat": 0.0, "bike_id": "7091445998483cc041939365745e049e", "rental_uris": {"ios": "https://dc.lft.to/lastmile_qr_scan", "android": "https://dc.lft.to/lastmile_qr_scan"}}, {"name": "5441875f2de38e123c142327109f16b1", "type": "electric_scooter", "lat": 38.883528166666665, "is_reserved": 0, "lon": -76.98554483333334, "fusion_lon": 0.0, "is_disabled": 0, "fusion_lat": 0.0, "bike_id": "5441875f2de38e123c142327109f16b1", "rental_uris": {"ios": "https://dc.lft.to/lastmile_qr_scan", "android": "https://dc.lft.to/lastmile_qr_scan"}}, {"name": "8f28fb6b64db47876d90e2000516616c", "type": "electric_scooter", "lat": 38.91406516666667, "is_reserved": 0, "lon": -77.04135333333333, "fusion_lon": 0.0, "is_disabled": 0, "fusion_lat": 0.0, "bike_id": "8f28fb6b64db47876d90e2000516616c", "rental_uris": {"ios": "https://dc.lft.to/lastmile_qr_scan", "android": "https://dc.lft.to/lastmile_qr_scan"}}, {"name": "e0e65a71a8aec8d7076a471bb1e6f07e", "type": "electric_scooter", "lat": 38.935792166666666, "is_reserved": 0, "lon": -77.02845266666667, "fusion_lon": 0.0, "is_disabled": 0, "fusion_lat": 0.0, "bike_id": "e0e65a71a8aec8d7076a471bb1e6f07e", "rental_uris": {"ios": "https://dc.lft.to/lastmile_qr_scan", "android": "https://dc.lft.to/lastmile_qr_scan"}}, {"name": "36f9676ce9e335f2304dc4806940bbb4", "type": "electric_scooter", "lat": 38.909594, "is_reserved": 0, "lon": -77.0168235, "fusion_lon": 0.0, "is_disabled": 0, "fusion_lat": 0.0, "bike_id": "36f9676ce9e335f2304dc4806940bbb4", "rental_uris": {"ios": "https://dc.lft.to/lastmile_qr_scan", "android": "https://dc.lft.to/lastmile_qr_scan"}}, {"name": "7d29e93331718075fd462df01a861626", "type": "electric_scooter", "lat": 38.927701166666665, "is_reserved": 0, "lon": -77.02711283333333, "fusion_lon": 0.0, "is_disabled": 0, "fusion_lat": 0.0, "bike_id": "7d29e93331718075fd462df01a861626", "rental_uris": {"ios": "https://dc.lft.to/lastmile_qr_scan", "android": "https://dc.lft.to/lastmile_qr_scan"}}, {"name": "69960fe92a5d1b3bb93f555dfd6b1fda", "type": "electric_bike", "lat": 38.87728366666666, "is_reserved": 0, "lon": -77.11844016666667, "fusion_lon": 0.0, "is_disabled": 0, "fusion_lat": 0.0, "bike_id": "69960fe92a5d1b3bb93f555dfd6b1fda", "rental_uris": {"ios": "https://dc.lft.to/lastmile_qr_scan", "android": "https://dc.lft.to/lastmile_qr_scan"}}, {"name": "e1402ea69eeba0051a7812706bcfdfad", "type": "electric_scooter", "lat": 38.89949216666667, "is_reserved": 0, "lon": -77.04674683333333, "fusion_lon": 0.0, "is_disabled": 0, "fusion_lat": 0.0, "bike_id": "e1402ea69eeba0051a7812706bcfdfad", "rental_uris": {"ios": "https://dc.lft.to/lastmile_qr_scan", "android": "https://dc.lft.to/lastmile_qr_scan"}}, {"name": "da9f8904048833b78ea57e7e7b18fe01", "type": "electric_scooter", "lat": 38.901769333333334, "is_reserved": 0, "lon": -77.04635316666666, "fusion_lon": 0.0, "is_disabled": 0, "fusion_lat": 0.0, "bike_id": "da9f8904048833b78ea57e7e7b18fe01", "rental_uris": {"ios": "https://dc.lft.to/lastmile_qr_scan", "android": "https://dc.lft.to/lastmile_qr_scan"}}, {"name": "f02548a3b91a11ac6068afc681dd0782", "type": "electric_scooter", "lat": 38.9221345, "is_reserved": 0, "lon": -77.042368, "fusion_lon": 0.0, "is_disabled": 0, "fusion_lat": 0.0, "bike_id": "f02548a3b91a11ac6068afc681dd0782", "rental_uris": {"ios": "https://dc.lft.to/lastmile_qr_scan", "android": "https://dc.lft.to/lastmile_qr_scan"}}, {"name": "441f4f2bc53d7e17bd6569ced6f689ea", "type": "electric_scooter", "lat": 38.918148, "is_reserved": 0, "lon": -77.0328805, "fusion_lon": 0.0, "is_disabled": 0, "fusion_lat": 0.0, "bike_id": "441f4f2bc53d7e17bd6569ced6f689ea", "rental_uris": {"ios": "https://dc.lft.to/lastmile_qr_scan", "android": "https://dc.lft.to/lastmile_qr_scan"}}, {"name": "f4ede19a2f5735b7841efb22a6a5d566", "type": "electric_scooter", "lat": 38.90411, "is_reserved": 0, "lon": -77.044915, "fusion_lon": 0.0, "is_disabled": 0, "fusion_lat": 0.0, "bike_id": "f4ede19a2f5735b7841efb22a6a5d566", "rental_uris": {"ios": "https://dc.lft.to/lastmile_qr_scan", "android": "https://dc.lft.to/lastmile_qr_scan"}}, {"name": "ecafa04be709164da2c237a97bf874da", "type": "electric_scooter", "lat": 38.893547166666664, "is_reserved": 0, "lon": -77.00341466666667, "fusion_lon": 0.0, "is_disabled": 0, "fusion_lat": 0.0, "bike_id": "ecafa04be709164da2c237a97bf874da", "rental_uris": {"ios": "https://dc.lft.to/lastmile_qr_scan", "android": "https://dc.lft.to/lastmile_qr_scan"}}, {"name": "d511192581d1446b01e2010a415ffc9c", "type": "electric_scooter", "lat": 38.938939166666664, "is_reserved": 0, "lon": -77.01757916666666, "fusion_lon": 0.0, "is_disabled": 0, "fusion_lat": 0.0, "bike_id": "d511192581d1446b01e2010a415ffc9c", "rental_uris": {"ios": "https://dc.lft.to/lastmile_qr_scan", "android": "https://dc.lft.to/lastmile_qr_scan"}}, {"name": "45ab64f20e76bcdbf2fe94f7f7498b57", "type": "electric_scooter", "lat": 38.91213783333333, "is_reserved": 0, "lon": -77.028053, "fusion_lon": 0.0, "is_disabled": 0, "fusion_lat": 0.0, "bike_id": "45ab64f20e76bcdbf2fe94f7f7498b57", "rental_uris": {"ios": "https://dc.lft.to/lastmile_qr_scan", "android": "https://dc.lft.to/lastmile_qr_scan"}}, {"name": "e182342346bb3ba055acedab906ae504", "type": "electric_scooter", "lat": 38.900317, "is_reserved": 0, "lon": -76.9882235, "fusion_lon": 0.0, "is_disabled": 0, "fusion_lat": 0.0, "bike_id": "e182342346bb3ba055acedab906ae504", "rental_uris": {"ios": "https://dc.lft.to/lastmile_qr_scan", "android": "https://dc.lft.to/lastmile_qr_scan"}}, {"name": "3ff1e77ac376158e6a0497f06d68f1dd", "type": "electric_scooter", "lat": 38.89488733333334, "is_reserved": 0, "lon": -77.0109455, "fusion_lon": 0.0, "is_disabled": 0, "fusion_lat": 0.0, "bike_id": "3ff1e77ac376158e6a0497f06d68f1dd", "rental_uris": {"ios": "https://dc.lft.to/lastmile_qr_scan", "android": "https://dc.lft.to/lastmile_qr_scan"}}, {"name": "82c8da4d1e6b1dc9f88b6de03705a97e", "type": "electric_scooter", "lat": 38.9013105, "is_reserved": 0, "lon": -77.04485233333334, "fusion_lon": 0.0, "is_disabled": 0, "fusion_lat": 0.0, "bike_id": "82c8da4d1e6b1dc9f88b6de03705a97e", "rental_uris": {"ios": "https://dc.lft.to/lastmile_qr_scan", "android": "https://dc.lft.to/lastmile_qr_scan"}}, {"name": "293fe399e29571f185f478a72a3f5741", "type": "electric_scooter", "lat": 38.92208566666667, "is_reserved": 0, "lon": -77.042396, "fusion_lon": 0.0, "is_disabled": 0, "fusion_lat": 0.0, "bike_id": "293fe399e29571f185f478a72a3f5741", "rental_uris": {"ios": "https://dc.lft.to/lastmile_qr_scan", "android": "https://dc.lft.to/lastmile_qr_scan"}}, {"name": "9e53a7af73cd919675a1904ea8b165bb", "type": "electric_scooter", "lat": 38.93153816666667, "is_reserved": 0, "lon": -77.038888, "fusion_lon": 0.0, "is_disabled": 0, "fusion_lat": 0.0, "bike_id": "9e53a7af73cd919675a1904ea8b165bb", "rental_uris": {"ios": "https://dc.lft.to/lastmile_qr_scan", "android": "https://dc.lft.to/lastmile_qr_scan"}}, {"name": "d2a19a81d297262c80c9cfe7f60970d9", "type": "electric_scooter", "lat": 38.930571, "is_reserved": 0, "lon": -77.02321933333333, "fusion_lon": 0.0, "is_disabled": 0, "fusion_lat": 0.0, "bike_id": "d2a19a81d297262c80c9cfe7f60970d9", "rental_uris": {"ios": "https://dc.lft.to/lastmile_qr_scan", "android": "https://dc.lft.to/lastmile_qr_scan"}}, {"name": "8b9721b1fdb83079d95bca930df45979", "type": "electric_scooter", "lat": 38.86371333333334, "is_reserved": 0, "lon": -77.01362433333334, "fusion_lon": 0.0, "is_disabled": 0, "fusion_lat": 0.0, "bike_id": "8b9721b1fdb83079d95bca930df45979", "rental_uris": {"ios": "https://dc.lft.to/lastmile_qr_scan", "android": "https://dc.lft.to/lastmile_qr_scan"}}, {"name": "c3236e975e1ff79c46ba24d1361eb757", "type": "electric_scooter", "lat": 38.92444733333333, "is_reserved": 0, "lon": -77.02980516666666, "fusion_lon": 0.0, "is_disabled": 0, "fusion_lat": 0.0, "bike_id": "c3236e975e1ff79c46ba24d1361eb757", "rental_uris": {"ios": "https://dc.lft.to/lastmile_qr_scan", "android": "https://dc.lft.to/lastmile_qr_scan"}}, {"name": "15d8f845b0d12e557c018644ff7485ff", "type": "electric_scooter", "lat": 38.89224983333333, "is_reserved": 0, "lon": -77.04642733333333, "fusion_lon": 0.0, "is_disabled": 0, "fusion_lat": 0.0, "bike_id": "15d8f845b0d12e557c018644ff7485ff", "rental_uris": {"ios": "https://dc.lft.to/lastmile_qr_scan", "android": "https://dc.lft.to/lastmile_qr_scan"}}, {"name": "a58e16baa512d7568bb137c6dc49639d", "type": "electric_scooter", "lat": 38.88348033333333, "is_reserved": 0, "lon": -76.94938766666667, "fusion_lon": 0.0, "is_disabled": 0, "fusion_lat": 0.0, "bike_id": "a58e16baa512d7568bb137c6dc49639d", "rental_uris": {"ios": "https://dc.lft.to/lastmile_qr_scan", "android": "https://dc.lft.to/lastmile_qr_scan"}}, {"name": "52e309c0536cc2430d2da70543366ce6", "type": "electric_scooter", "lat": 38.8922125, "is_reserved": 0, "lon": -77.04262283333334, "fusion_lon": 0.0, "is_disabled": 0, "fusion_lat": 0.0, "bike_id": "52e309c0536cc2430d2da70543366ce6", "rental_uris": {"ios": "https://dc.lft.to/lastmile_qr_scan", "android": "https://dc.lft.to/lastmile_qr_scan"}}, {"name": "63d8a7ef4f2f76075ca74dc27b4a9676", "type": "electric_scooter", "lat": 38.92557866666667, "is_reserved": 0, "lon": -77.0628325, "fusion_lon": 0.0, "is_disabled": 0, "fusion_lat": 0.0, "bike_id": "63d8a7ef4f2f76075ca74dc27b4a9676", "rental_uris": {"ios": "https://dc.lft.to/lastmile_qr_scan", "android": "https://dc.lft.to/lastmile_qr_scan"}}, {"name": "8334d4034ca4f91f2371c3701cb572c7", "type": "electric_scooter", "lat": 38.92309, "is_reserved": 0, "lon": -77.04764383333334, "fusion_lon": 0.0, "is_disabled": 0, "fusion_lat": 0.0, "bike_id": "8334d4034ca4f91f2371c3701cb572c7", "rental_uris": {"ios": "https://dc.lft.to/lastmile_qr_scan", "android": "https://dc.lft.to/lastmile_qr_scan"}}, {"name": "121057f5923ee2d60604e9c0615fd5b8", "type": "electric_scooter", "lat": 38.92772633333333, "is_reserved": 0, "lon": -77.02708966666667, "fusion_lon": 0.0, "is_disabled": 0, "fusion_lat": 0.0, "bike_id": "121057f5923ee2d60604e9c0615fd5b8", "rental_uris": {"ios": "https://dc.lft.to/lastmile_qr_scan", "android": "https://dc.lft.to/lastmile_qr_scan"}}, {"name": "3eb1a6c9634acffbaa43f19aedd38d00", "type": "electric_scooter", "lat": 38.912587333333335, "is_reserved": 0, "lon": -77.00766066666667, "fusion_lon": 0.0, "is_disabled": 0, "fusion_lat": 0.0, "bike_id": "3eb1a6c9634acffbaa43f19aedd38d00", "rental_uris": {"ios": "https://dc.lft.to/lastmile_qr_scan", "android": "https://dc.lft.to/lastmile_qr_scan"}}, {"name": "a9c8309f6d40d1e8cdee8feb20acda0e", "type": "electric_bike", "lat": 38.92851366666667, "is_reserved": 0, "lon": -77.1068065, "fusion_lon": 0.0, "is_disabled": 0, "fusion_lat": 0.0, "bike_id": "a9c8309f6d40d1e8cdee8feb20acda0e", "rental_uris": {"ios": "https://dc.lft.to/lastmile_qr_scan", "android": "https://dc.lft.to/lastmile_qr_scan"}}, {"name": "44f0c670c295cc0824cc05407a8b238f", "type": "electric_scooter", "lat": 38.883615, "is_reserved": 0, "lon": -77.03178083333333, "fusion_lon": 0.0, "is_disabled": 0, "fusion_lat": 0.0, "bike_id": "44f0c670c295cc0824cc05407a8b238f", "rental_uris": {"ios": "https://dc.lft.to/lastmile_qr_scan", "android": "https://dc.lft.to/lastmile_qr_scan"}}, {"name": "fd37d06629cc80958bb9f27dd7b34400", "type": "electric_bike", "lat": 38.95084883333333, "is_reserved": 0, "lon": -77.01234, "fusion_lon": 0.0, "is_disabled": 0, "fusion_lat": 0.0, "bike_id": "fd37d06629cc80958bb9f27dd7b34400", "rental_uris": {"ios": "https://dc.lft.to/lastmile_qr_scan", "android": "https://dc.lft.to/lastmile_qr_scan"}}, {"name": "d08bcebf4f3c9a22922b2fd49e14d8d5", "type": "electric_scooter", "lat": 38.892333666666666, "is_reserved": 0, "lon": -77.02802566666666, "fusion_lon": 0.0, "is_disabled": 0, "fusion_lat": 0.0, "bike_id": "d08bcebf4f3c9a22922b2fd49e14d8d5", "rental_uris": {"ios": "https://dc.lft.to/lastmile_qr_scan", "android": "https://dc.lft.to/lastmile_qr_scan"}}, {"name": "004e979199a722ece1165161d903f6a3", "type": "electric_scooter", "lat": 38.92150133333333, "is_reserved": 0, "lon": -77.03437083333333, "fusion_lon": 0.0, "is_disabled": 0, "fusion_lat": 0.0, "bike_id": "004e979199a722ece1165161d903f6a3", "rental_uris": {"ios": "https://dc.lft.to/lastmile_qr_scan", "android": "https://dc.lft.to/lastmile_qr_scan"}}, {"name": "b96421214c54b005f1f6627d33adbcf2", "type": "electric_scooter", "lat": 38.935279, "is_reserved": 0, "lon": -77.028576, "fusion_lon": 0.0, "is_disabled": 0, "fusion_lat": 0.0, "bike_id": "b96421214c54b005f1f6627d33adbcf2", "rental_uris": {"ios": "https://dc.lft.to/lastmile_qr_scan", "android": "https://dc.lft.to/lastmile_qr_scan"}}, {"name": "139c206631608f1a86a36eaf9123b832", "type": "electric_scooter", "lat": 38.9124945, "is_reserved": 0, "lon": -77.00960666666667, "fusion_lon": 0.0, "is_disabled": 0, "fusion_lat": 0.0, "bike_id": "139c206631608f1a86a36eaf9123b832", "rental_uris": {"ios": "https://dc.lft.to/lastmile_qr_scan", "android": "https://dc.lft.to/lastmile_qr_scan"}}, {"name": "f65ed7f1bb69940165131c703712f53e", "type": "electric_scooter", "lat": 38.89231683333333, "is_reserved": 0, "lon": -77.05001033333333, "fusion_lon": 0.0, "is_disabled": 0, "fusion_lat": 0.0, "bike_id": "f65ed7f1bb69940165131c703712f53e", "rental_uris": {"ios": "https://dc.lft.to/lastmile_qr_scan", "android": "https://dc.lft.to/lastmile_qr_scan"}}, {"name": "aba615ccc288e0d85bd98a621fa045fe", "type": "electric_scooter", "lat": 38.931519, "is_reserved": 0, "lon": -77.03895883333334, "fusion_lon": 0.0, "is_disabled": 0, "fusion_lat": 0.0, "bike_id": "aba615ccc288e0d85bd98a621fa045fe", "rental_uris": {"ios": "https://dc.lft.to/lastmile_qr_scan", "android": "https://dc.lft.to/lastmile_qr_scan"}}, {"name": "2f0760bfd7967d139b5f66220397b0cc", "type": "electric_scooter", "lat": 38.892224, "is_reserved": 0, "lon": -77.04333533333333, "fusion_lon": 0.0, "is_disabled": 0, "fusion_lat": 0.0, "bike_id": "2f0760bfd7967d139b5f66220397b0cc", "rental_uris": {"ios": "https://dc.lft.to/lastmile_qr_scan", "android": "https://dc.lft.to/lastmile_qr_scan"}}, {"name": "3541ca58583e5759fc34519f32f7ed0d", "type": "electric_scooter", "lat": 38.8739355, "is_reserved": 0, "lon": -77.0007855, "fusion_lon": 0.0, "is_disabled": 0, "fusion_lat": 0.0, "bike_id": "3541ca58583e5759fc34519f32f7ed0d", "rental_uris": {"ios": "https://dc.lft.to/lastmile_qr_scan", "android": "https://dc.lft.to/lastmile_qr_scan"}}, {"name": "ce6a7797bccc45cf8841ca33c10ca160", "type": "electric_scooter", "lat": 38.89965733333333, "is_reserved": 0, "lon": -77.00939866666667, "fusion_lon": 0.0, "is_disabled": 0, "fusion_lat": 0.0, "bike_id": "ce6a7797bccc45cf8841ca33c10ca160", "rental_uris": {"ios": "https://dc.lft.to/lastmile_qr_scan", "android": "https://dc.lft.to/lastmile_qr_scan"}}, {"name": "c3cb6bb32cc65ba6c11332ba4e4f6cac", "type": "electric_bike", "lat": 38.8935195, "is_reserved": 0, "lon": -77.18739383333333, "fusion_lon": 0.0, "is_disabled": 0, "fusion_lat": 0.0, "bike_id": "c3cb6bb32cc65ba6c11332ba4e4f6cac", "rental_uris": {"ios": "https://dc.lft.to/lastmile_qr_scan", "android": "https://dc.lft.to/lastmile_qr_scan"}}, {"name": "84dc5ca5e64233f265e0837d395e2d59", "type": "electric_scooter", "lat": 38.93117683333333, "is_reserved": 0, "lon": -77.03807683333334, "fusion_lon": 0.0, "is_disabled": 0, "fusion_lat": 0.0, "bike_id": "84dc5ca5e64233f265e0837d395e2d59", "rental_uris": {"ios": "https://dc.lft.to/lastmile_qr_scan", "android": "https://dc.lft.to/lastmile_qr_scan"}}, {"name": "3441a6d9891bc2a5319c8ec9f32365dc", "type": "electric_scooter", "lat": 38.943085833333335, "is_reserved": 0, "lon": -77.05933866666666, "fusion_lon": 0.0, "is_disabled": 0, "fusion_lat": 0.0, "bike_id": "3441a6d9891bc2a5319c8ec9f32365dc", "rental_uris": {"ios": "https://dc.lft.to/lastmile_qr_scan", "android": "https://dc.lft.to/lastmile_qr_scan"}}, {"name": "cdd50a2459c7d22e15a8993722239db0", "type": "electric_scooter", "lat": 38.909833, "is_reserved": 0, "lon": -77.04875816666667, "fusion_lon": 0.0, "is_disabled": 0, "fusion_lat": 0.0, "bike_id": "cdd50a2459c7d22e15a8993722239db0", "rental_uris": {"ios": "https://dc.lft.to/lastmile_qr_scan", "android": "https://dc.lft.to/lastmile_qr_scan"}}, {"name": "25aedc4accc5876d8c940b6d09e2c509", "type": "electric_scooter", "lat": 38.90157266666667, "is_reserved": 0, "lon": -77.02034716666667, "fusion_lon": 0.0, "is_disabled": 0, "fusion_lat": 0.0, "bike_id": "25aedc4accc5876d8c940b6d09e2c509", "rental_uris": {"ios": "https://dc.lft.to/lastmile_qr_scan", "android": "https://dc.lft.to/lastmile_qr_scan"}}, {"name": "87cfb82521ace52545de0edc7ebdae41", "type": "electric_scooter", "lat": 38.939612, "is_reserved": 0, "lon": -77.0275145, "fusion_lon": 0.0, "is_disabled": 0, "fusion_lat": 0.0, "bike_id": "87cfb82521ace52545de0edc7ebdae41", "rental_uris": {"ios": "https://dc.lft.to/lastmile_qr_scan", "android": "https://dc.lft.to/lastmile_qr_scan"}}, {"name": "a13ecf9db3a7c591853a5043638e3e09", "type": "electric_scooter", "lat": 38.88721, "is_reserved": 0, "lon": -76.953726, "fusion_lon": 0.0, "is_disabled": 0, "fusion_lat": 0.0, "bike_id": "a13ecf9db3a7c591853a5043638e3e09", "rental_uris": {"ios": "https://dc.lft.to/lastmile_qr_scan", "android": "https://dc.lft.to/lastmile_qr_scan"}}, {"name": "a7f99f4682d05a665a0c4dace255da2b", "type": "electric_bike", "lat": 38.83232116666667, "is_reserved": 0, "lon": -76.94623566666667, "fusion_lon": 0.0, "is_disabled": 0, "fusion_lat": 0.0, "bike_id": "a7f99f4682d05a665a0c4dace255da2b", "rental_uris": {"ios": "https://dc.lft.to/lastmile_qr_scan", "android": "https://dc.lft.to/lastmile_qr_scan"}}, {"name": "5c40c8f01c9dac3422dfb88c63393b6d", "type": "electric_scooter", "lat": 38.885789833333334, "is_reserved": 0, "lon": -76.99499683333333, "fusion_lon": 0.0, "is_disabled": 0, "fusion_lat": 0.0, "bike_id": "5c40c8f01c9dac3422dfb88c63393b6d", "rental_uris": {"ios": "https://dc.lft.to/lastmile_qr_scan", "android": "https://dc.lft.to/lastmile_qr_scan"}}, {"name": "85a21920ee3ca0b0cc5be84c3be2fed9", "type": "electric_scooter", "lat": 38.923108666666664, "is_reserved": 0, "lon": -77.03523116666666, "fusion_lon": 0.0, "is_disabled": 0, "fusion_lat": 0.0, "bike_id": "85a21920ee3ca0b0cc5be84c3be2fed9", "rental_uris": {"ios": "https://dc.lft.to/lastmile_qr_scan", "android": "https://dc.lft.to/lastmile_qr_scan"}}, {"name": "16fb278f101fb864b27e1440d7bd4faa", "type": "electric_scooter", "lat": 38.915866666666666, "is_reserved": 0, "lon": -77.042607, "fusion_lon": 0.0, "is_disabled": 0, "fusion_lat": 0.0, "bike_id": "16fb278f101fb864b27e1440d7bd4faa", "rental_uris": {"ios": "https://dc.lft.to/lastmile_qr_scan", "android": "https://dc.lft.to/lastmile_qr_scan"}}, {"name": "e9b716dd39bee789ac42f2146729f5f0", "type": "electric_scooter", "lat": 38.907777333333335, "is_reserved": 0, "lon": -77.07166116666667, "fusion_lon": 0.0, "is_disabled": 0, "fusion_lat": 0.0, "bike_id": "e9b716dd39bee789ac42f2146729f5f0", "rental_uris": {"ios": "https://dc.lft.to/lastmile_qr_scan", "android": "https://dc.lft.to/lastmile_qr_scan"}}, {"name": "8026d97ca9456b0c642114e62be445d2", "type": "electric_scooter", "lat": 38.92834933333334, "is_reserved": 0, "lon": -77.01403616666667, "fusion_lon": 0.0, "is_disabled": 0, "fusion_lat": 0.0, "bike_id": "8026d97ca9456b0c642114e62be445d2", "rental_uris": {"ios": "https://dc.lft.to/lastmile_qr_scan", "android": "https://dc.lft.to/lastmile_qr_scan"}}, {"name": "12e64e3b329efeaccfbd3cd964e1ff3b", "type": "electric_scooter", "lat": 38.900410666666666, "is_reserved": 0, "lon": -77.00199016666667, "fusion_lon": 0.0, "is_disabled": 0, "fusion_lat": 0.0, "bike_id": "12e64e3b329efeaccfbd3cd964e1ff3b", "rental_uris": {"ios": "https://dc.lft.to/lastmile_qr_scan", "android": "https://dc.lft.to/lastmile_qr_scan"}}, {"name": "28e022a6c170b74569cdcf3ee6b472c6", "type": "electric_scooter", "lat": 38.86827133333333, "is_reserved": 0, "lon": -76.9861705, "fusion_lon": 0.0, "is_disabled": 0, "fusion_lat": 0.0, "bike_id": "28e022a6c170b74569cdcf3ee6b472c6", "rental_uris": {"ios": "https://dc.lft.to/lastmile_qr_scan", "android": "https://dc.lft.to/lastmile_qr_scan"}}, {"name": "221873bddcb41ceca78690c559506080", "type": "electric_scooter", "lat": 38.9247875, "is_reserved": 0, "lon": -77.02999983333333, "fusion_lon": 0.0, "is_disabled": 0, "fusion_lat": 0.0, "bike_id": "221873bddcb41ceca78690c559506080", "rental_uris": {"ios": "https://dc.lft.to/lastmile_qr_scan", "android": "https://dc.lft.to/lastmile_qr_scan"}}, {"name": "9002f786110d05d186f6be6758ecb1c1", "type": "electric_scooter", "lat": 38.927449333333335, "is_reserved": 0, "lon": -77.02307166666667, "fusion_lon": 0.0, "is_disabled": 0, "fusion_lat": 0.0, "bike_id": "9002f786110d05d186f6be6758ecb1c1", "rental_uris": {"ios": "https://dc.lft.to/lastmile_qr_scan", "android": "https://dc.lft.to/lastmile_qr_scan"}}, {"name": "d82b0dcfbc62520f56601a51429b8706", "type": "electric_scooter", "lat": 38.93608433333333, "is_reserved": 0, "lon": -77.055842, "fusion_lon": 0.0, "is_disabled": 0, "fusion_lat": 0.0, "bike_id": "d82b0dcfbc62520f56601a51429b8706", "rental_uris": {"ios": "https://dc.lft.to/lastmile_qr_scan", "android": "https://dc.lft.to/lastmile_qr_scan"}}, {"name": "e1f31bffd25e5ee280895798e9b2f24a", "type": "electric_scooter", "lat": 38.911174333333335, "is_reserved": 0, "lon": -77.04353266666666, "fusion_lon": 0.0, "is_disabled": 0, "fusion_lat": 0.0, "bike_id": "e1f31bffd25e5ee280895798e9b2f24a", "rental_uris": {"ios": "https://dc.lft.to/lastmile_qr_scan", "android": "https://dc.lft.to/lastmile_qr_scan"}}, {"name": "68bcd516ec8ab4454250ea3c54152e0f", "type": "electric_scooter", "lat": 38.8960815, "is_reserved": 0, "lon": -76.999706, "fusion_lon": 0.0, "is_disabled": 0, "fusion_lat": 0.0, "bike_id": "68bcd516ec8ab4454250ea3c54152e0f", "rental_uris": {"ios": "https://dc.lft.to/lastmile_qr_scan", "android": "https://dc.lft.to/lastmile_qr_scan"}}, {"name": "752624fa205c41afac37d151c5b96aa4", "type": "electric_scooter", "lat": 38.87457466666667, "is_reserved": 0, "lon": -77.00764133333334, "fusion_lon": 0.0, "is_disabled": 0, "fusion_lat": 0.0, "bike_id": "752624fa205c41afac37d151c5b96aa4", "rental_uris": {"ios": "https://dc.lft.to/lastmile_qr_scan", "android": "https://dc.lft.to/lastmile_qr_scan"}}, {"name": "c350b1a935952a971a31aadea4c7fc14", "type": "electric_scooter", "lat": 38.88710866666667, "is_reserved": 0, "lon": -77.028325, "fusion_lon": 0.0, "is_disabled": 0, "fusion_lat": 0.0, "bike_id": "c350b1a935952a971a31aadea4c7fc14", "rental_uris": {"ios": "https://dc.lft.to/lastmile_qr_scan", "android": "https://dc.lft.to/lastmile_qr_scan"}}, {"name": "08b497b75719b2c3e29c663509cf4323", "type": "electric_scooter", "lat": 38.942021833333335, "is_reserved": 0, "lon": -77.0251765, "fusion_lon": 0.0, "is_disabled": 0, "fusion_lat": 0.0, "bike_id": "08b497b75719b2c3e29c663509cf4323", "rental_uris": {"ios": "https://dc.lft.to/lastmile_qr_scan", "android": "https://dc.lft.to/lastmile_qr_scan"}}, {"name": "20f9ddb2091744a657f641428d307d3f", "type": "electric_bike", "lat": 38.945848, "is_reserved": 0, "lon": -77.00273283333334, "fusion_lon": 0.0, "is_disabled": 0, "fusion_lat": 0.0, "bike_id": "20f9ddb2091744a657f641428d307d3f", "rental_uris": {"ios": "https://dc.lft.to/lastmile_qr_scan", "android": "https://dc.lft.to/lastmile_qr_scan"}}, {"name": "6d4d6de7f2a194740c837257147bdc02", "type": "electric_scooter", "lat": 38.900266333333335, "is_reserved": 0, "lon": -76.998708, "fusion_lon": 0.0, "is_disabled": 0, "fusion_lat": 0.0, "bike_id": "6d4d6de7f2a194740c837257147bdc02", "rental_uris": {"ios": "https://dc.lft.to/lastmile_qr_scan", "android": "https://dc.lft.to/lastmile_qr_scan"}}, {"name": "dfa7155ced13b856989d94345f87ecb1", "type": "electric_scooter", "lat": 38.8935235, "is_reserved": 0, "lon": -77.00337116666667, "fusion_lon": 0.0, "is_disabled": 0, "fusion_lat": 0.0, "bike_id": "dfa7155ced13b856989d94345f87ecb1", "rental_uris": {"ios": "https://dc.lft.to/lastmile_qr_scan", "android": "https://dc.lft.to/lastmile_qr_scan"}}, {"name": "feaf37a73a9152bf4fd3cd070a0516ff", "type": "electric_scooter", "lat": 38.90041633333333, "is_reserved": 0, "lon": -77.03214483333333, "fusion_lon": 0.0, "is_disabled": 0, "fusion_lat": 0.0, "bike_id": "feaf37a73a9152bf4fd3cd070a0516ff", "rental_uris": {"ios": "https://dc.lft.to/lastmile_qr_scan", "android": "https://dc.lft.to/lastmile_qr_scan"}}, {"name": "92008df62d4005ff3ab5e06b8dcafc67", "type": "electric_scooter", "lat": 38.92061266666666, "is_reserved": 0, "lon": -76.97812183333333, "fusion_lon": 0.0, "is_disabled": 0, "fusion_lat": 0.0, "bike_id": "92008df62d4005ff3ab5e06b8dcafc67", "rental_uris": {"ios": "https://dc.lft.to/lastmile_qr_scan", "android": "https://dc.lft.to/lastmile_qr_scan"}}, {"name": "372086d00f1273913801ad7a35a4cfec", "type": "electric_scooter", "lat": 38.902388, "is_reserved": 0, "lon": -77.04341733333334, "fusion_lon": 0.0, "is_disabled": 0, "fusion_lat": 0.0, "bike_id": "372086d00f1273913801ad7a35a4cfec", "rental_uris": {"ios": "https://dc.lft.to/lastmile_qr_scan", "android": "https://dc.lft.to/lastmile_qr_scan"}}, {"name": "b80bff4c183174ad822011e93f33575c", "type": "electric_scooter", "lat": 38.865360833333334, "is_reserved": 0, "lon": -76.98709316666667, "fusion_lon": 0.0, "is_disabled": 0, "fusion_lat": 0.0, "bike_id": "b80bff4c183174ad822011e93f33575c", "rental_uris": {"ios": "https://dc.lft.to/lastmile_qr_scan", "android": "https://dc.lft.to/lastmile_qr_scan"}}, {"name": "77b2a0342d65157b7446b416a53db389", "type": "electric_scooter", "lat": 38.88330583333333, "is_reserved": 0, "lon": -77.0154895, "fusion_lon": 0.0, "is_disabled": 0, "fusion_lat": 0.0, "bike_id": "77b2a0342d65157b7446b416a53db389", "rental_uris": {"ios": "https://dc.lft.to/lastmile_qr_scan", "android": "https://dc.lft.to/lastmile_qr_scan"}}, {"name": "140992099dc2b20a772596bb9d4410ae", "type": "electric_scooter", "lat": 38.92337633333333, "is_reserved": 0, "lon": -77.01911433333333, "fusion_lon": 0.0, "is_disabled": 0, "fusion_lat": 0.0, "bike_id": "140992099dc2b20a772596bb9d4410ae", "rental_uris": {"ios": "https://dc.lft.to/lastmile_qr_scan", "android": "https://dc.lft.to/lastmile_qr_scan"}}, {"name": "34eb8f00ecfd49b0a22ce547f5a5fb80", "type": "electric_scooter", "lat": 38.931672166666665, "is_reserved": 0, "lon": -77.0363975, "fusion_lon": 0.0, "is_disabled": 0, "fusion_lat": 0.0, "bike_id": "34eb8f00ecfd49b0a22ce547f5a5fb80", "rental_uris": {"ios": "https://dc.lft.to/lastmile_qr_scan", "android": "https://dc.lft.to/lastmile_qr_scan"}}, {"name": "d0733583f9ca34eedd821b9669bbdfcc", "type": "electric_scooter", "lat": 38.9192775, "is_reserved": 0, "lon": -77.00161116666666, "fusion_lon": 0.0, "is_disabled": 0, "fusion_lat": 0.0, "bike_id": "d0733583f9ca34eedd821b9669bbdfcc", "rental_uris": {"ios": "https://dc.lft.to/lastmile_qr_scan", "android": "https://dc.lft.to/lastmile_qr_scan"}}, {"name": "7fa8f23947ad53255a278ca95c6b1db2", "type": "electric_scooter", "lat": 38.926257666666665, "is_reserved": 0, "lon": -77.03508116666667, "fusion_lon": 0.0, "is_disabled": 0, "fusion_lat": 0.0, "bike_id": "7fa8f23947ad53255a278ca95c6b1db2", "rental_uris": {"ios": "https://dc.lft.to/lastmile_qr_scan", "android": "https://dc.lft.to/lastmile_qr_scan"}}, {"name": "c6c64586f0154337b92988587ef38045", "type": "electric_scooter", "lat": 38.91176516666667, "is_reserved": 0, "lon": -77.06930966666667, "fusion_lon": 0.0, "is_disabled": 0, "fusion_lat": 0.0, "bike_id": "c6c64586f0154337b92988587ef38045", "rental_uris": {"ios": "https://dc.lft.to/lastmile_qr_scan", "android": "https://dc.lft.to/lastmile_qr_scan"}}, {"name": "998d559bff7946d10f20ba958350f208", "type": "electric_scooter", "lat": 38.8991035, "is_reserved": 0, "lon": -77.03330966666667, "fusion_lon": 0.0, "is_disabled": 0, "fusion_lat": 0.0, "bike_id": "998d559bff7946d10f20ba958350f208", "rental_uris": {"ios": "https://dc.lft.to/lastmile_qr_scan", "android": "https://dc.lft.to/lastmile_qr_scan"}}, {"name": "e408a04617d84fe424bc3cd90f987ac8", "type": "electric_scooter", "lat": 38.909721, "is_reserved": 0, "lon": -77.01129383333334, "fusion_lon": 0.0, "is_disabled": 0, "fusion_lat": 0.0, "bike_id": "e408a04617d84fe424bc3cd90f987ac8", "rental_uris": {"ios": "https://dc.lft.to/lastmile_qr_scan", "android": "https://dc.lft.to/lastmile_qr_scan"}}, {"name": "c808ce272766ea2d23aa1d6ef1c0d8b8", "type": "electric_scooter", "lat": 38.91718066666667, "is_reserved": 0, "lon": -77.0081375, "fusion_lon": 0.0, "is_disabled": 0, "fusion_lat": 0.0, "bike_id": "c808ce272766ea2d23aa1d6ef1c0d8b8", "rental_uris": {"ios": "https://dc.lft.to/lastmile_qr_scan", "android": "https://dc.lft.to/lastmile_qr_scan"}}, {"name": "a200d38d7b04f609bfe02477da056fa0", "type": "electric_scooter", "lat": 38.909629, "is_reserved": 0, "lon": -77.04547, "fusion_lon": 0.0, "is_disabled": 0, "fusion_lat": 0.0, "bike_id": "a200d38d7b04f609bfe02477da056fa0", "rental_uris": {"ios": "https://dc.lft.to/lastmile_qr_scan", "android": "https://dc.lft.to/lastmile_qr_scan"}}, {"name": "7cb7fceec35371bdcd18a1d494803292", "type": "electric_scooter", "lat": 38.896694833333335, "is_reserved": 0, "lon": -77.048797, "fusion_lon": 0.0, "is_disabled": 0, "fusion_lat": 0.0, "bike_id": "7cb7fceec35371bdcd18a1d494803292", "rental_uris": {"ios": "https://dc.lft.to/lastmile_qr_scan", "android": "https://dc.lft.to/lastmile_qr_scan"}}, {"name": "d6b99c168b632a2a60ebe7d27a75aabb", "type": "electric_scooter", "lat": 38.924215833333335, "is_reserved": 0, "lon": -77.01950933333333, "fusion_lon": 0.0, "is_disabled": 0, "fusion_lat": 0.0, "bike_id": "d6b99c168b632a2a60ebe7d27a75aabb", "rental_uris": {"ios": "https://dc.lft.to/lastmile_qr_scan", "android": "https://dc.lft.to/lastmile_qr_scan"}}, {"name": "b7b587d1e998bff7d6c9cf795cec8377", "type": "electric_scooter", "lat": 38.892224166666665, "is_reserved": 0, "lon": -77.04331716666667, "fusion_lon": 0.0, "is_disabled": 0, "fusion_lat": 0.0, "bike_id": "b7b587d1e998bff7d6c9cf795cec8377", "rental_uris": {"ios": "https://dc.lft.to/lastmile_qr_scan", "android": "https://dc.lft.to/lastmile_qr_scan"}}, {"name": "d26f46121c6495f746d993a15c22a3ff", "type": "electric_scooter", "lat": 38.928767666666666, "is_reserved": 0, "lon": -77.04130883333333, "fusion_lon": 0.0, "is_disabled": 0, "fusion_lat": 0.0, "bike_id": "d26f46121c6495f746d993a15c22a3ff", "rental_uris": {"ios": "https://dc.lft.to/lastmile_qr_scan", "android": "https://dc.lft.to/lastmile_qr_scan"}}, {"name": "f746d6db42ecdd2af92f57e25d449f1d", "type": "electric_scooter", "lat": 38.895519666666665, "is_reserved": 0, "lon": -77.0468425, "fusion_lon": 0.0, "is_disabled": 0, "fusion_lat": 0.0, "bike_id": "f746d6db42ecdd2af92f57e25d449f1d", "rental_uris": {"ios": "https://dc.lft.to/lastmile_qr_scan", "android": "https://dc.lft.to/lastmile_qr_scan"}}, {"name": "47775f5a8f6558fdd5220b93c55b6165", "type": "electric_scooter", "lat": 38.91919266666667, "is_reserved": 0, "lon": -77.02401466666667, "fusion_lon": 0.0, "is_disabled": 0, "fusion_lat": 0.0, "bike_id": "47775f5a8f6558fdd5220b93c55b6165", "rental_uris": {"ios": "https://dc.lft.to/lastmile_qr_scan", "android": "https://dc.lft.to/lastmile_qr_scan"}}, {"name": "a8df3cfc50cdeb6aa08c1a5b5e56e266", "type": "electric_bike", "lat": 38.95477366666667, "is_reserved": 0, "lon": -77.082421, "fusion_lon": 0.0, "is_disabled": 0, "fusion_lat": 0.0, "bike_id": "a8df3cfc50cdeb6aa08c1a5b5e56e266", "rental_uris": {"ios": "https://dc.lft.to/lastmile_qr_scan", "android": "https://dc.lft.to/lastmile_qr_scan"}}, {"name": "a6aa6df5da1767f903bb71d5d3683fb2", "type": "electric_scooter", "lat": 38.914752666666665, "is_reserved": 0, "lon": -77.00982583333334, "fusion_lon": 0.0, "is_disabled": 0, "fusion_lat": 0.0, "bike_id": "a6aa6df5da1767f903bb71d5d3683fb2", "rental_uris": {"ios": "https://dc.lft.to/lastmile_qr_scan", "android": "https://dc.lft.to/lastmile_qr_scan"}}, {"name": "9cc5072658628d681a4733f316141846", "type": "electric_scooter", "lat": 38.933665166666664, "is_reserved": 0, "lon": -77.05728033333334, "fusion_lon": 0.0, "is_disabled": 0, "fusion_lat": 0.0, "bike_id": "9cc5072658628d681a4733f316141846", "rental_uris": {"ios": "https://dc.lft.to/lastmile_qr_scan", "android": "https://dc.lft.to/lastmile_qr_scan"}}, {"name": "668379b581cf9c336e34b8330f440a30", "type": "electric_scooter", "lat": 38.90473266666667, "is_reserved": 0, "lon": -77.04153583333333, "fusion_lon": 0.0, "is_disabled": 0, "fusion_lat": 0.0, "bike_id": "668379b581cf9c336e34b8330f440a30", "rental_uris": {"ios": "https://dc.lft.to/lastmile_qr_scan", "android": "https://dc.lft.to/lastmile_qr_scan"}}, {"name": "b7a9b3830cf2f1091fd7d97d275ffd91", "type": "electric_bike", "lat": 38.87502033333333, "is_reserved": 0, "lon": -77.000319, "fusion_lon": 0.0, "is_disabled": 0, "fusion_lat": 0.0, "bike_id": "b7a9b3830cf2f1091fd7d97d275ffd91", "rental_uris": {"ios": "https://dc.lft.to/lastmile_qr_scan", "android": "https://dc.lft.to/lastmile_qr_scan"}}, {"name": "559024050342e967548096851f2391e1", "type": "electric_scooter", "lat": 38.942865833333336, "is_reserved": 0, "lon": -77.02790966666667, "fusion_lon": 0.0, "is_disabled": 0, "fusion_lat": 0.0, "bike_id": "559024050342e967548096851f2391e1", "rental_uris": {"ios": "https://dc.lft.to/lastmile_qr_scan", "android": "https://dc.lft.to/lastmile_qr_scan"}}, {"name": "d5f1620e1ad898f509d40ced9eb224fd", "type": "electric_scooter", "lat": 38.924616666666665, "is_reserved": 0, "lon": -77.0520305, "fusion_lon": 0.0, "is_disabled": 0, "fusion_lat": 0.0, "bike_id": "d5f1620e1ad898f509d40ced9eb224fd", "rental_uris": {"ios": "https://dc.lft.to/lastmile_qr_scan", "android": "https://dc.lft.to/lastmile_qr_scan"}}, {"name": "0b298a111b4e14bcc024ec43de3f7cd2", "type": "electric_scooter", "lat": 38.9066865, "is_reserved": 0, "lon": -77.03760083333333, "fusion_lon": 0.0, "is_disabled": 0, "fusion_lat": 0.0, "bike_id": "0b298a111b4e14bcc024ec43de3f7cd2", "rental_uris": {"ios": "https://dc.lft.to/lastmile_qr_scan", "android": "https://dc.lft.to/lastmile_qr_scan"}}, {"name": "861412b09a1b921d0a67e3d8094529b9", "type": "electric_scooter", "lat": 38.90321516666667, "is_reserved": 0, "lon": -77.038175, "fusion_lon": 0.0, "is_disabled": 0, "fusion_lat": 0.0, "bike_id": "861412b09a1b921d0a67e3d8094529b9", "rental_uris": {"ios": "https://dc.lft.to/lastmile_qr_scan", "android": "https://dc.lft.to/lastmile_qr_scan"}}, {"name": "bc8e89d97cc3dd8a4a8090123cc8d42a", "type": "electric_scooter", "lat": 38.927968166666666, "is_reserved": 0, "lon": -77.04359016666666, "fusion_lon": 0.0, "is_disabled": 0, "fusion_lat": 0.0, "bike_id": "bc8e89d97cc3dd8a4a8090123cc8d42a", "rental_uris": {"ios": "https://dc.lft.to/lastmile_qr_scan", "android": "https://dc.lft.to/lastmile_qr_scan"}}, {"name": "b3e0b1aa09797271434fd6dbc6b5efd1", "type": "electric_scooter", "lat": 38.94943633333333, "is_reserved": 0, "lon": -77.01625166666666, "fusion_lon": 0.0, "is_disabled": 0, "fusion_lat": 0.0, "bike_id": "b3e0b1aa09797271434fd6dbc6b5efd1", "rental_uris": {"ios": "https://dc.lft.to/lastmile_qr_scan", "android": "https://dc.lft.to/lastmile_qr_scan"}}, {"name": "6a9b0637e10e361e23dc4a5acdd893a3", "type": "electric_scooter", "lat": 38.92925616666667, "is_reserved": 0, "lon": -77.02337, "fusion_lon": 0.0, "is_disabled": 0, "fusion_lat": 0.0, "bike_id": "6a9b0637e10e361e23dc4a5acdd893a3", "rental_uris": {"ios": "https://dc.lft.to/lastmile_qr_scan", "android": "https://dc.lft.to/lastmile_qr_scan"}}, {"name": "0341a4394b777965e43ea0cc1ded1464", "type": "electric_scooter", "lat": 38.903374, "is_reserved": 0, "lon": -76.98974516666667, "fusion_lon": 0.0, "is_disabled": 0, "fusion_lat": 0.0, "bike_id": "0341a4394b777965e43ea0cc1ded1464", "rental_uris": {"ios": "https://dc.lft.to/lastmile_qr_scan", "android": "https://dc.lft.to/lastmile_qr_scan"}}, {"name": "dca7418a2e082fd042c9ba189d76b1b5", "type": "electric_scooter", "lat": 38.91018616666667, "is_reserved": 0, "lon": -77.064817, "fusion_lon": 0.0, "is_disabled": 0, "fusion_lat": 0.0, "bike_id": "dca7418a2e082fd042c9ba189d76b1b5", "rental_uris": {"ios": "https://dc.lft.to/lastmile_qr_scan", "android": "https://dc.lft.to/lastmile_qr_scan"}}, {"name": "ff37ec6535e55cdef1cc11520e8b4bf2", "type": "electric_scooter", "lat": 38.9162605, "is_reserved": 0, "lon": -77.03597683333334, "fusion_lon": 0.0, "is_disabled": 0, "fusion_lat": 0.0, "bike_id": "ff37ec6535e55cdef1cc11520e8b4bf2", "rental_uris": {"ios": "https://dc.lft.to/lastmile_qr_scan", "android": "https://dc.lft.to/lastmile_qr_scan"}}, {"name": "767d1a2dc319632f60bdbcd04f6db6f6", "type": "electric_scooter", "lat": 38.897119333333336, "is_reserved": 0, "lon": -77.02182883333333, "fusion_lon": 0.0, "is_disabled": 0, "fusion_lat": 0.0, "bike_id": "767d1a2dc319632f60bdbcd04f6db6f6", "rental_uris": {"ios": "https://dc.lft.to/lastmile_qr_scan", "android": "https://dc.lft.to/lastmile_qr_scan"}}, {"name": "e493238bb335badc23b71c20838cc82a", "type": "electric_scooter", "lat": 38.91279816666667, "is_reserved": 0, "lon": -77.03182433333333, "fusion_lon": 0.0, "is_disabled": 0, "fusion_lat": 0.0, "bike_id": "e493238bb335badc23b71c20838cc82a", "rental_uris": {"ios": "https://dc.lft.to/lastmile_qr_scan", "android": "https://dc.lft.to/lastmile_qr_scan"}}, {"name": "61e42a3c94e3114195228a7d02582826", "type": "electric_scooter", "lat": 38.924663, "is_reserved": 0, "lon": -77.03056066666667, "fusion_lon": 0.0, "is_disabled": 0, "fusion_lat": 0.0, "bike_id": "61e42a3c94e3114195228a7d02582826", "rental_uris": {"ios": "https://dc.lft.to/lastmile_qr_scan", "android": "https://dc.lft.to/lastmile_qr_scan"}}, {"name": "b9873ff25e26bb8c5c344d03cc3ecef8", "type": "electric_scooter", "lat": 38.88219083333333, "is_reserved": 0, "lon": -76.94178266666667, "fusion_lon": 0.0, "is_disabled": 0, "fusion_lat": 0.0, "bike_id": "b9873ff25e26bb8c5c344d03cc3ecef8", "rental_uris": {"ios": "https://dc.lft.to/lastmile_qr_scan", "android": "https://dc.lft.to/lastmile_qr_scan"}}, {"name": "3cb770eee399a5bc2ad52fd2bd6840c5", "type": "electric_scooter", "lat": 38.90728566666667, "is_reserved": 0, "lon": -77.01148883333333, "fusion_lon": 0.0, "is_disabled": 0, "fusion_lat": 0.0, "bike_id": "3cb770eee399a5bc2ad52fd2bd6840c5", "rental_uris": {"ios": "https://dc.lft.to/lastmile_qr_scan", "android": "https://dc.lft.to/lastmile_qr_scan"}}, {"name": "c1a539076b46e4414c7ecca24842711d", "type": "electric_scooter", "lat": 38.916512, "is_reserved": 0, "lon": -77.0229805, "fusion_lon": 0.0, "is_disabled": 0, "fusion_lat": 0.0, "bike_id": "c1a539076b46e4414c7ecca24842711d", "rental_uris": {"ios": "https://dc.lft.to/lastmile_qr_scan", "android": "https://dc.lft.to/lastmile_qr_scan"}}, {"name": "b94d2b381899dee6f2b474c237d96fc1", "type": "electric_scooter", "lat": 38.947282666666666, "is_reserved": 0, "lon": -77.00026116666666, "fusion_lon": 0.0, "is_disabled": 0, "fusion_lat": 0.0, "bike_id": "b94d2b381899dee6f2b474c237d96fc1", "rental_uris": {"ios": "https://dc.lft.to/lastmile_qr_scan", "android": "https://dc.lft.to/lastmile_qr_scan"}}, {"name": "68d069a5491454e0d5193d2dc7370703", "type": "electric_scooter", "lat": 38.89883666666667, "is_reserved": 0, "lon": -77.00922766666666, "fusion_lon": 0.0, "is_disabled": 0, "fusion_lat": 0.0, "bike_id": "68d069a5491454e0d5193d2dc7370703", "rental_uris": {"ios": "https://dc.lft.to/lastmile_qr_scan", "android": "https://dc.lft.to/lastmile_qr_scan"}}, {"name": "34ac0100566d576d0a23cf6640764e51", "type": "electric_scooter", "lat": 38.907079333333336, "is_reserved": 0, "lon": -77.02510216666667, "fusion_lon": 0.0, "is_disabled": 0, "fusion_lat": 0.0, "bike_id": "34ac0100566d576d0a23cf6640764e51", "rental_uris": {"ios": "https://dc.lft.to/lastmile_qr_scan", "android": "https://dc.lft.to/lastmile_qr_scan"}}, {"name": "6b3606a34394e38e5bd74f489195c6ed", "type": "electric_scooter", "lat": 38.89623316666667, "is_reserved": 0, "lon": -77.04666416666667, "fusion_lon": 0.0, "is_disabled": 0, "fusion_lat": 0.0, "bike_id": "6b3606a34394e38e5bd74f489195c6ed", "rental_uris": {"ios": "https://dc.lft.to/lastmile_qr_scan", "android": "https://dc.lft.to/lastmile_qr_scan"}}, {"name": "25dfa1612ed82a23364864ff7e1e19b3", "type": "electric_scooter", "lat": 38.902362, "is_reserved": 0, "lon": -77.046247, "fusion_lon": 0.0, "is_disabled": 0, "fusion_lat": 0.0, "bike_id": "25dfa1612ed82a23364864ff7e1e19b3", "rental_uris": {"ios": "https://dc.lft.to/lastmile_qr_scan", "android": "https://dc.lft.to/lastmile_qr_scan"}}, {"name": "0331d4ce1ec308fc071c8c26b063ac54", "type": "electric_scooter", "lat": 38.896875333333334, "is_reserved": 0, "lon": -76.9962555, "fusion_lon": 0.0, "is_disabled": 0, "fusion_lat": 0.0, "bike_id": "0331d4ce1ec308fc071c8c26b063ac54", "rental_uris": {"ios": "https://dc.lft.to/lastmile_qr_scan", "android": "https://dc.lft.to/lastmile_qr_scan"}}, {"name": "451fa0250f111496e5718e7fb6febf9e", "type": "electric_scooter", "lat": 38.91153283333333, "is_reserved": 0, "lon": -77.03204416666667, "fusion_lon": 0.0, "is_disabled": 0, "fusion_lat": 0.0, "bike_id": "451fa0250f111496e5718e7fb6febf9e", "rental_uris": {"ios": "https://dc.lft.to/lastmile_qr_scan", "android": "https://dc.lft.to/lastmile_qr_scan"}}, {"name": "64cefe8b92303a2f0f0ac2e6ab97913a", "type": "electric_scooter", "lat": 38.909646333333335, "is_reserved": 0, "lon": -77.03821916666666, "fusion_lon": 0.0, "is_disabled": 0, "fusion_lat": 0.0, "bike_id": "64cefe8b92303a2f0f0ac2e6ab97913a", "rental_uris": {"ios": "https://dc.lft.to/lastmile_qr_scan", "android": "https://dc.lft.to/lastmile_qr_scan"}}, {"name": "402ae660a49f17a5f560fff9d2a2de2d", "type": "electric_scooter", "lat": 38.894311, "is_reserved": 0, "lon": -76.93260383333333, "fusion_lon": 0.0, "is_disabled": 0, "fusion_lat": 0.0, "bike_id": "402ae660a49f17a5f560fff9d2a2de2d", "rental_uris": {"ios": "https://dc.lft.to/lastmile_qr_scan", "android": "https://dc.lft.to/lastmile_qr_scan"}}, {"name": "14c03a055dc391465e456ca12713db4c", "type": "electric_bike", "lat": 39.003852333333334, "is_reserved": 0, "lon": -77.01294083333333, "fusion_lon": 0.0, "is_disabled": 0, "fusion_lat": 0.0, "bike_id": "14c03a055dc391465e456ca12713db4c", "rental_uris": {"ios": "https://dc.lft.to/lastmile_qr_scan", "android": "https://dc.lft.to/lastmile_qr_scan"}}, {"name": "33caf839cf935a5d6a1c842ebee80f9a", "type": "electric_scooter", "lat": 38.95643883333334, "is_reserved": 0, "lon": -77.03292183333333, "fusion_lon": 0.0, "is_disabled": 0, "fusion_lat": 0.0, "bike_id": "33caf839cf935a5d6a1c842ebee80f9a", "rental_uris": {"ios": "https://dc.lft.to/lastmile_qr_scan", "android": "https://dc.lft.to/lastmile_qr_scan"}}, {"name": "f7be599ae43bd013d88a91e8c3cccb55", "type": "electric_scooter", "lat": 38.92480366666667, "is_reserved": 0, "lon": -77.05218666666667, "fusion_lon": 0.0, "is_disabled": 0, "fusion_lat": 0.0, "bike_id": "f7be599ae43bd013d88a91e8c3cccb55", "rental_uris": {"ios": "https://dc.lft.to/lastmile_qr_scan", "android": "https://dc.lft.to/lastmile_qr_scan"}}, {"name": "63bd218ec26c85ab75daf1e310b340a0", "type": "electric_scooter", "lat": 38.94875583333334, "is_reserved": 0, "lon": -77.08009416666667, "fusion_lon": 0.0, "is_disabled": 0, "fusion_lat": 0.0, "bike_id": "63bd218ec26c85ab75daf1e310b340a0", "rental_uris": {"ios": "https://dc.lft.to/lastmile_qr_scan", "android": "https://dc.lft.to/lastmile_qr_scan"}}, {"name": "287563d20dc1e46d10e546e653469cea", "type": "electric_scooter", "lat": 38.90284466666667, "is_reserved": 0, "lon": -77.0363295, "fusion_lon": 0.0, "is_disabled": 0, "fusion_lat": 0.0, "bike_id": "287563d20dc1e46d10e546e653469cea", "rental_uris": {"ios": "https://dc.lft.to/lastmile_qr_scan", "android": "https://dc.lft.to/lastmile_qr_scan"}}, {"name": "aaaae74b3f7ae8c9e77bc3fb2045065d", "type": "electric_scooter", "lat": 38.902802, "is_reserved": 0, "lon": -77.03838683333333, "fusion_lon": 0.0, "is_disabled": 0, "fusion_lat": 0.0, "bike_id": "aaaae74b3f7ae8c9e77bc3fb2045065d", "rental_uris": {"ios": "https://dc.lft.to/lastmile_qr_scan", "android": "https://dc.lft.to/lastmile_qr_scan"}}, {"name": "4aa47425b2c70b7709d66b45dfabbe87", "type": "electric_scooter", "lat": 38.85804783333333, "is_reserved": 0, "lon": -76.991208, "fusion_lon": 0.0, "is_disabled": 0, "fusion_lat": 0.0, "bike_id": "4aa47425b2c70b7709d66b45dfabbe87", "rental_uris": {"ios": "https://dc.lft.to/lastmile_qr_scan", "android": "https://dc.lft.to/lastmile_qr_scan"}}, {"name": "2f924fd910af6e97eb230de4f72c57fc", "type": "electric_scooter", "lat": 38.91579566666667, "is_reserved": 0, "lon": -77.03171333333333, "fusion_lon": 0.0, "is_disabled": 0, "fusion_lat": 0.0, "bike_id": "2f924fd910af6e97eb230de4f72c57fc", "rental_uris": {"ios": "https://dc.lft.to/lastmile_qr_scan", "android": "https://dc.lft.to/lastmile_qr_scan"}}, {"name": "f76de3486878f24c41ebadec6a42518a", "type": "electric_scooter", "lat": 38.902368, "is_reserved": 0, "lon": -77.00052116666667, "fusion_lon": 0.0, "is_disabled": 0, "fusion_lat": 0.0, "bike_id": "f76de3486878f24c41ebadec6a42518a", "rental_uris": {"ios": "https://dc.lft.to/lastmile_qr_scan", "android": "https://dc.lft.to/lastmile_qr_scan"}}, {"name": "e8435a22eadcc2885ff911d2d379bf36", "type": "electric_bike", "lat": 38.90363683333333, "is_reserved": 0, "lon": -76.98101566666666, "fusion_lon": 0.0, "is_disabled": 0, "fusion_lat": 0.0, "bike_id": "e8435a22eadcc2885ff911d2d379bf36", "rental_uris": {"ios": "https://dc.lft.to/lastmile_qr_scan", "android": "https://dc.lft.to/lastmile_qr_scan"}}, {"name": "9c6f979d915cc4eb971c06b2d0d771d7", "type": "electric_scooter", "lat": 38.939618, "is_reserved": 0, "lon": -77.03284766666667, "fusion_lon": 0.0, "is_disabled": 0, "fusion_lat": 0.0, "bike_id": "9c6f979d915cc4eb971c06b2d0d771d7", "rental_uris": {"ios": "https://dc.lft.to/lastmile_qr_scan", "android": "https://dc.lft.to/lastmile_qr_scan"}}, {"name": "d1523fe801e0e3f6c7376bd1677b4310", "type": "electric_scooter", "lat": 38.9307525, "is_reserved": 0, "lon": -77.02402333333333, "fusion_lon": 0.0, "is_disabled": 0, "fusion_lat": 0.0, "bike_id": "d1523fe801e0e3f6c7376bd1677b4310", "rental_uris": {"ios": "https://dc.lft.to/lastmile_qr_scan", "android": "https://dc.lft.to/lastmile_qr_scan"}}, {"name": "3cb2f0272414cc5f5342062c6d6bc668", "type": "electric_scooter", "lat": 38.8892915, "is_reserved": 0, "lon": -76.94783833333334, "fusion_lon": 0.0, "is_disabled": 0, "fusion_lat": 0.0, "bike_id": "3cb2f0272414cc5f5342062c6d6bc668", "rental_uris": {"ios": "https://dc.lft.to/lastmile_qr_scan", "android": "https://dc.lft.to/lastmile_qr_scan"}}, {"name": "48770a1ef4c10e316cddf2b7d88e1222", "type": "electric_scooter", "lat": 38.903824666666665, "is_reserved": 0, "lon": -77.04500016666667, "fusion_lon": 0.0, "is_disabled": 0, "fusion_lat": 0.0, "bike_id": "48770a1ef4c10e316cddf2b7d88e1222", "rental_uris": {"ios": "https://dc.lft.to/lastmile_qr_scan", "android": "https://dc.lft.to/lastmile_qr_scan"}}, {"name": "421061fb9b05e808aebed6694fedff9c", "type": "electric_bike", "lat": 38.97321983333333, "is_reserved": 0, "lon": -77.021551, "fusion_lon": 0.0, "is_disabled": 0, "fusion_lat": 0.0, "bike_id": "421061fb9b05e808aebed6694fedff9c", "rental_uris": {"ios": "https://dc.lft.to/lastmile_qr_scan", "android": "https://dc.lft.to/lastmile_qr_scan"}}, {"name": "6a040bd359e286931a17192f94d2c51b", "type": "electric_bike", "lat": 38.83859783333333, "is_reserved": 0, "lon": -77.0886545, "fusion_lon": 0.0, "is_disabled": 0, "fusion_lat": 0.0, "bike_id": "6a040bd359e286931a17192f94d2c51b", "rental_uris": {"ios": "https://dc.lft.to/lastmile_qr_scan", "android": "https://dc.lft.to/lastmile_qr_scan"}}, {"name": "c22813bdc230ef1bd0f52115492b474d", "type": "electric_scooter", "lat": 38.88491116666667, "is_reserved": 0, "lon": -77.00718266666667, "fusion_lon": 0.0, "is_disabled": 0, "fusion_lat": 0.0, "bike_id": "c22813bdc230ef1bd0f52115492b474d", "rental_uris": {"ios": "https://dc.lft.to/lastmile_qr_scan", "android": "https://dc.lft.to/lastmile_qr_scan"}}, {"name": "2a5736aab17abda0fd8a48d308358b68", "type": "electric_scooter", "lat": 38.90315116666667, "is_reserved": 0, "lon": -77.03812383333333, "fusion_lon": 0.0, "is_disabled": 0, "fusion_lat": 0.0, "bike_id": "2a5736aab17abda0fd8a48d308358b68", "rental_uris": {"ios": "https://dc.lft.to/lastmile_qr_scan", "android": "https://dc.lft.to/lastmile_qr_scan"}}, {"name": "6bc3d86f65b1e20c864a7ce1249d7121", "type": "electric_scooter", "lat": 38.922097666666666, "is_reserved": 0, "lon": -77.04240466666667, "fusion_lon": 0.0, "is_disabled": 0, "fusion_lat": 0.0, "bike_id": "6bc3d86f65b1e20c864a7ce1249d7121", "rental_uris": {"ios": "https://dc.lft.to/lastmile_qr_scan", "android": "https://dc.lft.to/lastmile_qr_scan"}}, {"name": "59b7ad2563d2200aac6fc57037c4eef2", "type": "electric_scooter", "lat": 38.90260516666667, "is_reserved": 0, "lon": -77.02654866666667, "fusion_lon": 0.0, "is_disabled": 0, "fusion_lat": 0.0, "bike_id": "59b7ad2563d2200aac6fc57037c4eef2", "rental_uris": {"ios": "https://dc.lft.to/lastmile_qr_scan", "android": "https://dc.lft.to/lastmile_qr_scan"}}, {"name": "8cd1e953ada79f26f05dceb07a3e8dcf", "type": "electric_scooter", "lat": 38.905810333333335, "is_reserved": 0, "lon": -77.04025283333333, "fusion_lon": 0.0, "is_disabled": 0, "fusion_lat": 0.0, "bike_id": "8cd1e953ada79f26f05dceb07a3e8dcf", "rental_uris": {"ios": "https://dc.lft.to/lastmile_qr_scan", "android": "https://dc.lft.to/lastmile_qr_scan"}}, {"name": "eed43113edd40f114fd5a1124c9a148e", "type": "electric_scooter", "lat": 38.9337835, "is_reserved": 0, "lon": -77.03467716666667, "fusion_lon": 0.0, "is_disabled": 0, "fusion_lat": 0.0, "bike_id": "eed43113edd40f114fd5a1124c9a148e", "rental_uris": {"ios": "https://dc.lft.to/lastmile_qr_scan", "android": "https://dc.lft.to/lastmile_qr_scan"}},