{"data": {"bikes": [{"bike_id": "72a585be51f48dcc6fcdf57e9453efc6", "type": "electric_scooter", "is_disabled": 0, "lat": 38.907314166666666, "rental_uris": {"ios": "https://dc.lft.to/lastmile_qr_scan", "android": "https://dc.lft.to/lastmile_qr_scan"}, "is_reserved": 0, "fusion_lon": 0.0, "fusion_lat": 0.0, "lon": -77.02799966666667, "name": "72a585be51f48dcc6fcdf57e9453efc6"}, {"bike_id": "f9e964dd180ac0554d166d438cc149d1", "type": "electric_scooter", "is_disabled": 0, "lat": 38.88712983333333, "rental_uris": {"ios": "https://dc.lft.to/lastmile_qr_scan", "android": "https://dc.lft.to/lastmile_qr_scan"}, "is_reserved": 0, "fusion_lon": 0.0, "fusion_lat": 0.0, "lon": -77.02830866666666, "name": "f9e964dd180ac0554d166d438cc149d1"}, {"bike_id": "5bae46a1fd9dea819a283fefa4f576ad", "type": "electric_scooter", "is_disabled": 0, "lat": 38.956345, "rental_uris": {"ios": "https://dc.lft.to/lastmile_qr_scan", "android": "https://dc.lft.to/lastmile_qr_scan"}, "is_reserved": 0, "fusion_lon": 0.0, "fusion_lat": 0.0, "lon": -77.01152266666666, "name": "5bae46a1fd9dea819a283fefa4f576ad"}, {"bike_id": "74178a5d6222f09aae91d75e21ae5519", "type": "electric_scooter", "is_disabled": 0, "lat": 38.90081216666667, "rental_uris": {"ios": "https://dc.lft.to/lastmile_qr_scan", "android": "https://dc.lft.to/lastmile_qr_scan"}, "is_reserved": 0, "fusion_lon": 0.0, "fusion_lat": 0.0, "lon": -77.0191065, "name": "74178a5d6222f09aae91d75e21ae5519"}, {"bike_id": "a2e5bb5c392bf9504c545f3db8b4f914", "type": "electric_scooter", "is_disabled": 0, "lat": 38.87639633333333, "rental_uris": {"ios": "https://dc.lft.to/lastmile_qr_scan", "android": "https://dc.lft.to/lastmile_qr_scan"}, "is_reserved": 0, "fusion_lon": 0.0, "fusion_lat": 0.0, "lon": -77.00834483333334, "name": "a2e5bb5c392bf9504c545f3db8b4f914"}, {"bike_id": "8c7fb52d9a26050270bca7e9a4cfb712", "type": "electric_scooter", "is_disabled": 0, "lat": 38.88715333333333, "rental_uris": {"ios": "https://dc.lft.to/lastmile_qr_scan", "android": "https://dc.lft.to/lastmile_qr_scan"}, "is_reserved": 0, "fusion_lon": 0.0, "fusion_lat": 0.0, "lon": -77.02834733333333, "name": "8c7fb52d9a26050270bca7e9a4cfb712"}, {"bike_id": "f24a2bd5291713ee6d4acaaa9424d796", "type": "electric_scooter", "is_disabled": 0, "lat": 38.92408783333333, "rental_uris": {"ios": "https://dc.lft.to/lastmile_qr_scan", "android": "https://dc.lft.to/lastmile_qr_scan"}, "is_reserved": 0, "fusion_lon": 0.0, "fusion_lat": 0.0, "lon": -77.0506695, "name": "f24a2bd5291713ee6d4acaaa9424d796"}, {"bike_id": "5f69980b355ea4df720b8ad9cdc0eb05", "type": "electric_bike", "is_disabled": 0, "lat": 38.8747745, "rental_uris": {"ios": "https://dc.lft.to/lastmile_qr_scan", "android": "https://dc.lft.to/lastmile_qr_scan"}, "is_reserved": 0, "fusion_lon": 0.0, "fusion_lat": 0.0, "lon": -76.96539166666666, "name": "5f69980b355ea4df720b8ad9cdc0eb05"}, {"bike_id": "0473337808ac7b3f1a4a3064db2bf378", "type": "electric_scooter", "is_disabled": 0, "lat": 38.90392166666667, "rental_uris": {"ios": "https://dc.lft.to/lastmile_qr_scan", "android": "https://dc.lft.to/lastmile_qr_scan"}, "is_reserved": 0, "fusion_lon": 0.0, "fusion_lat": 0.0, "lon": -77.0055445, "name": "0473337808ac7b3f1a4a3064db2bf378"}, {"bike_id": "87692886cca351eb0fd237233210d1c8", "type": "electric_scooter", "is_disabled": 0, "lat": 38.89742733333333, "rental_uris": {"ios": "https://dc.lft.to/lastmile_qr_scan", "android": "https://dc.lft.to/lastmile_qr_scan"}, "is_reserved": 0, "fusion_lon": 0.0, "fusion_lat": 0.0, "lon": -77.0485025, "name": "87692886cca351eb0fd237233210d1c8"}, {"bike_id": "9b8e62990cec4ba064d1b7c0d06e9d51", "type": "electric_scooter", "is_disabled": 0, "lat": 38.931951166666664, "rental_uris": {"ios": "https://dc.lft.to/lastmile_qr_scan", "android": "https://dc.lft.to/lastmile_qr_scan"}, "is_reserved": 0, "fusion_lon": 0.0, "fusion_lat": 0.0, "lon": -77.0453705, "name": "9b8e62990cec4ba064d1b7c0d06e9d51"}, {"bike_id": "a4bb136c1b47ffae21a817011fed82b6", "type": "electric_scooter", "is_disabled": 0, "lat": 38.89733616666667, "rental_uris": {"ios": "https://dc.lft.to/lastmile_qr_scan", "android": "https://dc.lft.to/lastmile_qr_scan"}, "is_reserved": 0, "fusion_lon": 0.0, "fusion_lat": 0.0, "lon": -76.997545, "name": "a4bb136c1b47ffae21a817011fed82b6"}, {"bike_id": "7a09fd523240383d35f21243ffe5d141", "type": "electric_scooter", "is_disabled": 0, "lat": 38.90035066666667, "rental_uris": {"ios": "https://dc.lft.to/lastmile_qr_scan", "android": "https://dc.lft.to/lastmile_qr_scan"}, "is_reserved": 0, "fusion_lon": 0.0, "fusion_lat": 0.0, "lon": -77.00196066666666, "name": "7a09fd523240383d35f21243ffe5d141"}, {"bike_id": "4d0a0f42c9db5970048387df885da610", "type": "electric_scooter", "is_disabled": 0, "lat": 38.90168083333333, "rental_uris": {"ios": "https://dc.lft.to/lastmile_qr_scan", "android": "https://dc.lft.to/lastmile_qr_scan"}, "is_reserved": 0, "fusion_lon": 0.0, "fusion_lat": 0.0, "lon": -76.93024316666667, "name": "4d0a0f42c9db5970048387df885da610"}, {"bike_id": "ddf024dd9983d07ffce3466118437c3a", "type": "electric_bike", "is_disabled": 0, "lat": 38.813035, "rental_uris": {"ios": "https://dc.lft.to/lastmile_qr_scan", "android": "https://dc.lft.to/lastmile_qr_scan"}, "is_reserved": 0, "fusion_lon": 0.0, "fusion_lat": 0.0, "lon": -77.1095675, "name": "ddf024dd9983d07ffce3466118437c3a"}, {"bike_id": "449f11e3aebcf168647c440d6d2bd92a", "type": "electric_scooter", "is_disabled": 0, "lat": 38.91738333333333, "rental_uris": {"ios": "https://dc.lft.to/lastmile_qr_scan", "android": "https://dc.lft.to/lastmile_qr_scan"}, "is_reserved": 0, "fusion_lon": 0.0, "fusion_lat": 0.0, "lon": -77.04072433333333, "name": "449f11e3aebcf168647c440d6d2bd92a"}, {"bike_id": "c0f9aa0e56d74b15560736884ab094f4", "type": "electric_scooter", "is_disabled": 0, "lat": 38.90265816666667, "rental_uris": {"ios": "https://dc.lft.to/lastmile_qr_scan", "android": "https://dc.lft.to/lastmile_qr_scan"}, "is_reserved": 0, "fusion_lon": 0.0, "fusion_lat": 0.0, "lon": -77.02107883333333, "name": "c0f9aa0e56d74b15560736884ab094f4"}, {"bike_id": "362da2b22f2788e110f259257cead4e9", "type": "electric_scooter", "is_disabled": 0, "lat": 38.91371316666667, "rental_uris": {"ios": "https://dc.lft.to/lastmile_qr_scan", "android": "https://dc.lft.to/lastmile_qr_scan"}, "is_reserved": 0, "fusion_lon": 0.0, "fusion_lat": 0.0, "lon": -77.07215466666666, "name": "362da2b22f2788e110f259257cead4e9"}, {"bike_id": "a29c469174ebd09bde8c798236076eeb", "type": "electric_bike", "is_disabled": 0, "lat": 38.956186333333335, "rental_uris": {"ios": "https://dc.lft.to/lastmile_qr_scan", "android": "https://dc.lft.to/lastmile_qr_scan"}, "is_reserved": 0, "fusion_lon": 0.0, "fusion_lat": 0.0, "lon": -77.02592633333333, "name": "a29c469174ebd09bde8c798236076eeb"}, {"bike_id": "c27521ed8de4965f295caaff80a2fe79", "type": "electric_scooter", "is_disabled": 0, "lat": 38.8709175, "rental_uris": {"ios": "https://dc.lft.to/lastmile_qr_scan", "android": "https://dc.lft.to/lastmile_qr_scan"}, "is_reserved": 0, "fusion_lon": 0.0, "fusion_lat": 0.0, "lon": -77.00804933333333, "name": "c27521ed8de4965f295caaff80a2fe79"}, {"bike_id": "4899ad7ad3e9816e81a9416088afd8ca", "type": "electric_scooter", "is_disabled": 0, "lat": 38.9212365, "rental_uris": {"ios": "https://dc.lft.to/lastmile_qr_scan", "android": "https://dc.lft.to/lastmile_qr_scan"}, "is_reserved": 0, "fusion_lon": 0.0, "fusion_lat": 0.0, "lon": -77.04427316666667, "name": "4899ad7ad3e9816e81a9416088afd8ca"}, {"bike_id": "70898351f21e9e6293bb7dce0b8eb0e1", "type": "electric_scooter", "is_disabled": 0, "lat": 38.91198966666666, "rental_uris": {"ios": "https://dc.lft.to/lastmile_qr_scan", "android": "https://dc.lft.to/lastmile_qr_scan"}, "is_reserved": 0, "fusion_lon": 0.0, "fusion_lat": 0.0, "lon": -77.03848216666667, "name": "70898351f21e9e6293bb7dce0b8eb0e1"}, {"bike_id": "d66aa7ea0b2849812f7ae77a7ee56763", "type": "electric_scooter", "is_disabled": 0, "lat": 38.885149166666665, "rental_uris": {"ios": "https://dc.lft.to/lastmile_qr_scan", "android": "https://dc.lft.to/lastmile_qr_scan"}, "is_reserved": 0, "fusion_lon": 0.0, "fusion_lat": 0.0, "lon": -77.0282385, "name": "d66aa7ea0b2849812f7ae77a7ee56763"}, {"bike_id": "5babd38d986385c0654453a06ced655d", "type": "electric_scooter", "is_disabled": 0, "lat": 38.865041, "rental_uris": {"ios": "https://dc.lft.to/lastmile_qr_scan", "android": "https://dc.lft.to/lastmile_qr_scan"}, "is_reserved": 0, "fusion_lon": 0.0, "fusion_lat": 0.0, "lon": -76.97428883333333, "name": "5babd38d986385c0654453a06ced655d"}, {"bike_id": "3b5d634899f408efd571e9979329a204", "type": "electric_scooter", "is_disabled": 0, "lat": 38.899998833333335, "rental_uris": {"ios": "https://dc.lft.to/lastmile_qr_scan", "android": "https://dc.lft.to/lastmile_qr_scan"}, "is_reserved": 0, "fusion_lon": 0.0, "fusion_lat": 0.0, "lon": -77.0067785, "name": "3b5d634899f408efd571e9979329a204"}, {"bike_id": "00c7ded44ff237179ad348660643ef4d", "type": "electric_scooter", "is_disabled": 0, "lat": 38.923427, "rental_uris": {"ios": "https://dc.lft.to/lastmile_qr_scan", "android": "https://dc.lft.to/lastmile_qr_scan"}, "is_reserved": 0, "fusion_lon": 0.0, "fusion_lat": 0.0, "lon": -77.05050233333333, "name": "00c7ded44ff237179ad348660643ef4d"}, {"bike_id": "d20ef9386b6740a932cbc49b971cf45d", "type": "electric_scooter", "is_disabled": 0, "lat": 38.8688755, "rental_uris": {"ios": "https://dc.lft.to/lastmile_qr_scan", "android": "https://dc.lft.to/lastmile_qr_scan"}, "is_reserved": 0, "fusion_lon": 0.0, "fusion_lat": 0.0, "lon": -76.98443166666667, "name": "d20ef9386b6740a932cbc49b971cf45d"}, {"bike_id": "d6d5e020f483321a8f51f42bfa6f0cd9", "type": "electric_bike", "is_disabled": 0, "lat": 38.838081333333335, "rental_uris": {"ios": "https://dc.lft.to/lastmile_qr_scan", "android": "https://dc.lft.to/lastmile_qr_scan"}, "is_reserved": 0, "fusion_lon": 0.0, "fusion_lat": 0.0, "lon": -77.09521233333334, "name": "d6d5e020f483321a8f51f42bfa6f0cd9"}, {"bike_id": "75b0a570682276e83b701c87507ca7d2", "type": "electric_scooter", "is_disabled": 0, "lat": 38.87780133333333, "rental_uris": {"ios": "https://dc.lft.to/lastmile_qr_scan", "android": "https://dc.lft.to/lastmile_qr_scan"}, "is_reserved": 0, "fusion_lon": 0.0, "fusion_lat": 0.0, "lon": -77.00731866666666, "name": "75b0a570682276e83b701c87507ca7d2"}, {"bike_id": "b11804cd2c4e1ed6faa6e06b67a2beea", "type": "electric_scooter", "is_disabled": 0, "lat": 38.9223215, "rental_uris": {"ios": "https://dc.lft.to/lastmile_qr_scan", "android": "https://dc.lft.to/lastmile_qr_scan"}, "is_reserved": 0, "fusion_lon": 0.0, "fusion_lat": 0.0, "lon": -77.03903766666667, "name": "b11804cd2c4e1ed6faa6e06b67a2beea"}, {"bike_id": "a08a63461328bd96cb3ea435352a5099", "type": "electric_scooter", "is_disabled": 0, "lat": 38.95526433333333, "rental_uris": {"ios": "https://dc.lft.to/lastmile_qr_scan", "android": "https://dc.lft.to/lastmile_qr_scan"}, "is_reserved": 0, "fusion_lon": 0.0, "fusion_lat": 0.0, "lon": -77.02785016666667, "name": "a08a63461328bd96cb3ea435352a5099"}, {"bike_id": "664737598560b2c1a9587708d141f419", "type": "electric_scooter", "is_disabled": 0, "lat": 38.909615333333335, "rental_uris": {"ios": "https://dc.lft.to/lastmile_qr_scan", "android": "https://dc.lft.to/lastmile_qr_scan"}, "is_reserved": 0, "fusion_lon": 0.0, "fusion_lat": 0.0, "lon": -77.038128, "name": "664737598560b2c1a9587708d141f419"}, {"bike_id": "399f0559e3c5a442536442caf9178705", "type": "electric_scooter", "is_disabled": 0, "lat": 38.907611833333334, "rental_uris": {"ios": "https://dc.lft.to/lastmile_qr_scan", "android": "https://dc.lft.to/lastmile_qr_scan"}, "is_reserved": 0, "fusion_lon": 0.0, "fusion_lat": 0.0, "lon": -77.04334783333333, "name": "399f0559e3c5a442536442caf9178705"}, {"bike_id": "dd5a32bc7d49a4b256a81727c972969c", "type": "electric_scooter", "is_disabled": 0, "lat": 38.906899, "rental_uris": {"ios": "https://dc.lft.to/lastmile_qr_scan", "android": "https://dc.lft.to/lastmile_qr_scan"}, "is_reserved": 0, "fusion_lon": 0.0, "fusion_lat": 0.0, "lon": -77.0651365, "name": "dd5a32bc7d49a4b256a81727c972969c"}, {"bike_id": "2295c1ba70a9b2fe12111145a1478223", "type": "electric_scooter", "is_disabled": 0, "lat": 38.964073, "rental_uris": {"ios": "https://dc.lft.to/lastmile_qr_scan", "android": "https://dc.lft.to/lastmile_qr_scan"}, "is_reserved": 0, "fusion_lon": 0.0, "fusion_lat": 0.0, "lon": -77.02766166666666, "name": "2295c1ba70a9b2fe12111145a1478223"}, {"bike_id": "35d0c31d480f61bbd8b7118c61687c21", "type": "electric_scooter", "is_disabled": 0, "lat": 38.93474633333334, "rental_uris": {"ios": "https://dc.lft.to/lastmile_qr_scan", "android": "https://dc.lft.to/lastmile_qr_scan"}, "is_reserved": 0, "fusion_lon": 0.0, "fusion_lat": 0.0, "lon": -77.02605633333333, "name": "35d0c31d480f61bbd8b7118c61687c21"}, {"bike_id": "d8924685a24089669a8e3f0fe073b190", "type": "electric_scooter", "is_disabled": 0, "lat": 38.9124435, "rental_uris": {"ios": "https://dc.lft.to/lastmile_qr_scan", "android": "https://dc.lft.to/lastmile_qr_scan"}, "is_reserved": 0, "fusion_lon": 0.0, "fusion_lat": 0.0, "lon": -77.0386385, "name": "d8924685a24089669a8e3f0fe073b190"}, {"bike_id": "88669a6c4ed1d4ecffa86526aee0e9c9", "type": "electric_scooter", "is_disabled": 0, "lat": 38.90642616666667, "rental_uris": {"ios": "https://dc.lft.to/lastmile_qr_scan", "android": "https://dc.lft.to/lastmile_qr_scan"}, "is_reserved": 0, "fusion_lon": 0.0, "fusion_lat": 0.0, "lon": -77.01727216666667, "name": "88669a6c4ed1d4ecffa86526aee0e9c9"}, {"bike_id": "2d7f9fc7642dd6e3bbb9a49be2095ba9", "type": "electric_bike", "is_disabled": 0, "lat": 38.88160283333333, "rental_uris": {"ios": "https://dc.lft.to/lastmile_qr_scan", "android": "https://dc.lft.to/lastmile_qr_scan"}, "is_reserved": 0, "fusion_lon": 0.0, "fusion_lat": 0.0, "lon": -77.11466666666666, "name": "2d7f9fc7642dd6e3bbb9a49be2095ba9"}, {"bike_id": "99ec0823db95db29859b95bfabf765a9", "type": "electric_scooter", "is_disabled": 0, "lat": 38.9041815, "rental_uris": {"ios": "https://dc.lft.to/lastmile_qr_scan", "android": "https://dc.lft.to/lastmile_qr_scan"}, "is_reserved": 0, "fusion_lon": 0.0, "fusion_lat": 0.0, "lon": -77.03430316666666, "name": "99ec0823db95db29859b95bfabf765a9"}, {"bike_id": "bf7c12087590b5bc5efa3a4c0a5e8d0f", "type": "electric_scooter", "is_disabled": 0, "lat": 38.900816, "rental_uris": {"ios": "https://dc.lft.to/lastmile_qr_scan", "android": "https://dc.lft.to/lastmile_qr_scan"}, "is_reserved": 0, "fusion_lon": 0.0, "fusion_lat": 0.0, "lon": -77.03076516666667, "name": "bf7c12087590b5bc5efa3a4c0a5e8d0f"}, {"bike_id": "bd7f55dea98504eef50deb7b9db030a2", "type": "electric_bike", "is_disabled": 0, "lat": 38.924457833333335, "rental_uris": {"ios": "https://dc.lft.to/lastmile_qr_scan", "android": "https://dc.lft.to/lastmile_qr_scan"}, "is_reserved": 0, "fusion_lon": 0.0, "fusion_lat": 0.0, "lon": -77.22564183333333, "name": "bd7f55dea98504eef50deb7b9db030a2"}, {"bike_id": "4f2eda09fdd3261302654aaf4eedd709", "type": "electric_scooter", "is_disabled": 0, "lat": 38.9139715, "rental_uris": {"ios": "https://dc.lft.to/lastmile_qr_scan", "android": "https://dc.lft.to/lastmile_qr_scan"}, "is_reserved": 0, "fusion_lon": 0.0, "fusion_lat": 0.0, "lon": -77.03155566666666, "name": "4f2eda09fdd3261302654aaf4eedd709"}, {"bike_id": "16b641409f37c8ba538affc411f1dc5f", "type": "electric_bike", "is_disabled": 0, "lat": 38.83672416666667, "rental_uris": {"ios": "https://dc.lft.to/lastmile_qr_scan", "android": "https://dc.lft.to/lastmile_qr_scan"}, "is_reserved": 0, "fusion_lon": 0.0, "fusion_lat": 0.0, "lon": -76.99361883333333, "name": "16b641409f37c8ba538affc411f1dc5f"}, {"bike_id": "bbd6ed7185615fdc68b57c172ea07417", "type": "electric_scooter", "is_disabled": 0, "lat": 38.91877383333333, "rental_uris": {"ios": "https://dc.lft.to/lastmile_qr_scan", "android": "https://dc.lft.to/lastmile_qr_scan"}, "is_reserved": 0, "fusion_lon": 0.0, "fusion_lat": 0.0, "lon": -77.02950366666667, "name": "bbd6ed7185615fdc68b57c172ea07417"}, {"bike_id": "649567dae35401c8a27d981a288da13a", "type": "electric_scooter", "is_disabled": 0, "lat": 38.9071905, "rental_uris": {"ios": "https://dc.lft.to/lastmile_qr_scan", "android": "https://dc.lft.to/lastmile_qr_scan"}, "is_reserved": 0, "fusion_lon": 0.0, "fusion_lat": 0.0, "lon": -77.02968633333333, "name": "649567dae35401c8a27d981a288da13a"}, {"bike_id": "e36ed064821afdd605d93a0fa2c111c7", "type": "electric_scooter", "is_disabled": 0, "lat": 38.924595833333335, "rental_uris": {"ios": "https://dc.lft.to/lastmile_qr_scan", "android": "https://dc.lft.to/lastmile_qr_scan"}, "is_reserved": 0, "fusion_lon": 0.0, "fusion_lat": 0.0, "lon": -77.02960483333334, "name": "e36ed064821afdd605d93a0fa2c111c7"}, {"bike_id": "fb01fcc663ab320e943ceac6a88b08b1", "type": "electric_scooter", "is_disabled": 0, "lat": 38.9354155, "rental_uris": {"ios": "https://dc.lft.to/lastmile_qr_scan", "android": "https://dc.lft.to/lastmile_qr_scan"}, "is_reserved": 0, "fusion_lon": 0.0, "fusion_lat": 0.0, "lon": -77.05821583333334, "name": "fb01fcc663ab320e943ceac6a88b08b1"}, {"bike_id": "1558206d124b8688977cd48dc5e6b853", "type": "electric_scooter", "is_disabled": 0, "lat": 38.870686166666665, "rental_uris": {"ios": "https://dc.lft.to/lastmile_qr_scan", "android": "https://dc.lft.to/lastmile_qr_scan"}, "is_reserved": 0, "fusion_lon": 0.0, "fusion_lat": 0.0, "lon": -76.98129133333333, "name": "1558206d124b8688977cd48dc5e6b853"}, {"bike_id": "b4a4718970cd2d0376775aa4b2b6f577", "type": "electric_scooter", "is_disabled": 0, "lat": 38.91833483333333, "rental_uris": {"ios": "https://dc.lft.to/lastmile_qr_scan", "android": "https://dc.lft.to/lastmile_qr_scan"}, "is_reserved": 0, "fusion_lon": 0.0, "fusion_lat": 0.0, "lon": -77.03154533333333, "name": "b4a4718970cd2d0376775aa4b2b6f577"}, {"bike_id": "faf66bd441da345399c88d20bd087f7a", "type": "electric_bike", "is_disabled": 0, "lat": 38.8039615, "rental_uris": {"ios": "https://dc.lft.to/lastmile_qr_scan", "android": "https://dc.lft.to/lastmile_qr_scan"}, "is_reserved": 0, "fusion_lon": 0.0, "fusion_lat": 0.0, "lon": -77.05559933333333, "name": "faf66bd441da345399c88d20bd087f7a"}, {"bike_id": "a4d5cdd3e5c2907191f7f67f4f843716", "type": "electric_scooter", "is_disabled": 0, "lat": 38.898550666666665, "rental_uris": {"ios": "https://dc.lft.to/lastmile_qr_scan", "android": "https://dc.lft.to/lastmile_qr_scan"}, "is_reserved": 0, "fusion_lon": 0.0, "fusion_lat": 0.0, "lon": -76.98175016666667, "name": "a4d5cdd3e5c2907191f7f67f4f843716"}, {"bike_id": "c9e0cbec67f12a14f76f38b77f060546", "type": "electric_scooter", "is_disabled": 0, "lat": 38.9261715, "rental_uris": {"ios": "https://dc.lft.to/lastmile_qr_scan", "android": "https://dc.lft.to/lastmile_qr_scan"}, "is_reserved": 0, "fusion_lon": 0.0, "fusion_lat": 0.0, "lon": -77.0419395, "name": "c9e0cbec67f12a14f76f38b77f060546"}, {"bike_id": "611bd710e8f9dd0105ce2e4d173a9a02", "type": "electric_scooter", "is_disabled": 0, "lat": 38.92889983333333, "rental_uris": {"ios": "https://dc.lft.to/lastmile_qr_scan", "android": "https://dc.lft.to/lastmile_qr_scan"}, "is_reserved": 0, "fusion_lon": 0.0, "fusion_lat": 0.0, "lon": -77.014118, "name": "611bd710e8f9dd0105ce2e4d173a9a02"}, {"bike_id": "6085aa2441c9e6bac4a4b4491620f827", "type": "electric_scooter", "is_disabled": 0, "lat": 38.858062833333335, "rental_uris": {"ios": "https://dc.lft.to/lastmile_qr_scan", "android": "https://dc.lft.to/lastmile_qr_scan"}, "is_reserved": 0, "fusion_lon": 0.0, "fusion_lat": 0.0, "lon": -76.98919966666666, "name": "6085aa2441c9e6bac4a4b4491620f827"}, {"bike_id": "2c63a3492818636677ce46e8809e9b32", "type": "electric_scooter", "is_disabled": 0, "lat": 38.93254066666667, "rental_uris": {"ios": "https://dc.lft.to/lastmile_qr_scan", "android": "https://dc.lft.to/lastmile_qr_scan"}, "is_reserved": 0, "fusion_lon": 0.0, "fusion_lat": 0.0, "lon": -77.03282616666667, "name": "2c63a3492818636677ce46e8809e9b32"}, {"bike_id": "824edb141033b286297885e5ee31a7b4", "type": "electric_scooter", "is_disabled": 0, "lat": 38.895214, "rental_uris": {"ios": "https://dc.lft.to/lastmile_qr_scan", "android": "https://dc.lft.to/lastmile_qr_scan"}, "is_reserved": 0, "fusion_lon": 0.0, "fusion_lat": 0.0, "lon": -77.0108645, "name": "824edb141033b286297885e5ee31a7b4"}, {"bike_id": "123baa414df8621a2b19f9eba70b90c6", "type": "electric_scooter", "is_disabled": 0, "lat": 38.880202, "rental_uris": {"ios": "https://dc.lft.to/lastmile_qr_scan", "android": "https://dc.lft.to/lastmile_qr_scan"}, "is_reserved": 0, "fusion_lon": 0.0, "fusion_lat": 0.0, "lon": -77.02487416666666, "name": "123baa414df8621a2b19f9eba70b90c6"}, {"bike_id": "95187fcbe19fe62252068dfc60feedcb", "type": "electric_scooter", "is_disabled": 0, "lat": 38.90323433333333, "rental_uris": {"ios": "https://dc.lft.to/lastmile_qr_scan", "android": "https://dc.lft.to/lastmile_qr_scan"}, "is_reserved": 0, "fusion_lon": 0.0, "fusion_lat": 0.0, "lon": -76.97547633333333, "name": "95187fcbe19fe62252068dfc60feedcb"}, {"bike_id": "573a53b4ac4ff29824d1d6ad7ebcc32b", "type": "electric_scooter", "is_disabled": 0, "lat": 38.900103666666666, "rental_uris": {"ios": "https://dc.lft.to/lastmile_qr_scan", "android": "https://dc.lft.to/lastmile_qr_scan"}, "is_reserved": 0, "fusion_lon": 0.0, "fusion_lat": 0.0, "lon": -76.99410216666666, "name": "573a53b4ac4ff29824d1d6ad7ebcc32b"}, {"bike_id": "de795e41559247a4ad04c5bfcffa0922", "type": "electric_scooter", "is_disabled": 0, "lat": 38.929621166666664, "rental_uris": {"ios": "https://dc.lft.to/lastmile_qr_scan", "android": "https://dc.lft.to/lastmile_qr_scan"}, "is_reserved": 0, "fusion_lon": 0.0, "fusion_lat": 0.0, "lon": -77.02822166666667, "name": "de795e41559247a4ad04c5bfcffa0922"}, {"bike_id": "2f3e6c0657efdaea0939485077732aef", "type": "electric_bike", "is_disabled": 0, "lat": 38.80894216666667, "rental_uris": {"ios": "https://dc.lft.to/lastmile_qr_scan", "android": "https://dc.lft.to/lastmile_qr_scan"}, "is_reserved": 0, "fusion_lon": 0.0, "fusion_lat": 0.0, "lon": -77.08646116666667, "name": "2f3e6c0657efdaea0939485077732aef"}, {"bike_id": "5e2bcf9848a1ec971b84c72babe5e491", "type": "electric_scooter", "is_disabled": 0, "lat": 38.8874795, "rental_uris": {"ios": "https://dc.lft.to/lastmile_qr_scan", "android": "https://dc.lft.to/lastmile_qr_scan"}, "is_reserved": 0, "fusion_lon": 0.0, "fusion_lat": 0.0, "lon": -77.027274, "name": "5e2bcf9848a1ec971b84c72babe5e491"}, {"bike_id": "a2478b20fa76457bbb45860c33511a21", "type": "electric_scooter", "is_disabled": 0, "lat": 38.90022466666667, "rental_uris": {"ios": "https://dc.lft.to/lastmile_qr_scan", "android": "https://dc.lft.to/lastmile_qr_scan"}, "is_reserved": 0, "fusion_lon": 0.0, "fusion_lat": 0.0, "lon": -76.99850983333333, "name": "a2478b20fa76457bbb45860c33511a21"}, {"bike_id": "e37bd5145500b8d7a4a65ca803676195", "type": "electric_scooter", "is_disabled": 0, "lat": 38.934226833333334, "rental_uris": {"ios": "https://dc.lft.to/lastmile_qr_scan", "android": "https://dc.lft.to/lastmile_qr_scan"}, "is_reserved": 0, "fusion_lon": 0.0, "fusion_lat": 0.0, "lon": -77.04001283333334, "name": "e37bd5145500b8d7a4a65ca803676195"}, {"bike_id": "21ab04119c004518c66f002e0b2fe136", "type": "electric_bike", "is_disabled": 0, "lat": 38.933352166666666, "rental_uris": {"ios": "https://dc.lft.to/lastmile_qr_scan", "android": "https://dc.lft.to/lastmile_qr_scan"}, "is_reserved": 0, "fusion_lon": 0.0, "fusion_lat": 0.0, "lon": -77.03963916666666, "name": "21ab04119c004518c66f002e0b2fe136"}, {"bike_id": "50a059276594e55c9dcf69da8004d6d8", "type": "electric_scooter", "is_disabled": 0, "lat": 38.941853, "rental_uris": {"ios": "https://dc.lft.to/lastmile_qr_scan", "android": "https://dc.lft.to/lastmile_qr_scan"}, "is_reserved": 0, "fusion_lon": 0.0, "fusion_lat": 0.0, "lon": -77.0248505, "name": "50a059276594e55c9dcf69da8004d6d8"}, {"bike_id": "92ee859d006ce6033610e243879c09cd", "type": "electric_scooter", "is_disabled": 0, "lat": 38.89970816666667, "rental_uris": {"ios": "https://dc.lft.to/lastmile_qr_scan", "android": "https://dc.lft.to/lastmile_qr_scan"}, "is_reserved": 0, "fusion_lon": 0.0, "fusion_lat": 0.0, "lon": -77.04768816666666, "name": "92ee859d006ce6033610e243879c09cd"}, {"bike_id": "fc1ed62a0c567ddb4419a7b325b81868", "type": "electric_scooter", "is_disabled": 0, "lat": 38.92216616666666, "rental_uris": {"ios": "https://dc.lft.to/lastmile_qr_scan", "android": "https://dc.lft.to/lastmile_qr_scan"}, "is_reserved": 0, "fusion_lon": 0.0, "fusion_lat": 0.0, "lon": -77.03460766666667, "name": "fc1ed62a0c567ddb4419a7b325b81868"}, {"bike_id": "e3079a4a497389c1cf0f6a516c77a139", "type": "electric_bike", "is_disabled": 0, "lat": 38.864830166666664, "rental_uris": {"ios": "https://dc.lft.to/lastmile_qr_scan", "android": "https://dc.lft.to/lastmile_qr_scan"}, "is_reserved": 0, "fusion_lon": 0.0, "fusion_lat": 0.0, "lon": -76.977488, "name": "e3079a4a497389c1cf0f6a516c77a139"}, {"bike_id": "75a9aff8c0b6d79becf52ccc46c2f16b", "type": "electric_scooter", "is_disabled": 0, "lat": 38.901328166666666, "rental_uris": {"ios": "https://dc.lft.to/lastmile_qr_scan", "android": "https://dc.lft.to/lastmile_qr_scan"}, "is_reserved": 0, "fusion_lon": 0.0, "fusion_lat": 0.0, "lon": -77.01834233333334, "name": "75a9aff8c0b6d79becf52ccc46c2f16b"}, {"bike_id": "abc9495e6bffdafea7929552f4ed8bea", "type": "electric_scooter", "is_disabled": 0, "lat": 38.8623975, "rental_uris": {"ios": "https://dc.lft.to/lastmile_qr_scan", "android": "https://dc.lft.to/lastmile_qr_scan"}, "is_reserved": 0, "fusion_lon": 0.0, "fusion_lat": 0.0, "lon": -76.9949365, "name": "abc9495e6bffdafea7929552f4ed8bea"}, {"bike_id": "4917d0e1513cbb0b3b6617e9a02a1dd4", "type": "electric_scooter", "is_disabled": 0, "lat": 38.9180675, "rental_uris": {"ios": "https://dc.lft.to/lastmile_qr_scan", "android": "https://dc.lft.to/lastmile_qr_scan"}, "is_reserved": 0, "fusion_lon": 0.0, "fusion_lat": 0.0, "lon": -77.04555733333333, "name": "4917d0e1513cbb0b3b6617e9a02a1dd4"}, {"bike_id": "96f918627e02e58cbac00eb6a7effe77", "type": "electric_scooter", "is_disabled": 0, "lat": 38.9272555, "rental_uris": {"ios": "https://dc.lft.to/lastmile_qr_scan", "android": "https://dc.lft.to/lastmile_qr_scan"}, "is_reserved": 0, "fusion_lon": 0.0, "fusion_lat": 0.0, "lon": -77.034949, "name": "96f918627e02e58cbac00eb6a7effe77"}, {"bike_id": "f1490f043ad2febe2b1be04e63001e64", "type": "electric_scooter", "is_disabled": 0, "lat": 38.876364333333335, "rental_uris": {"ios": "https://dc.lft.to/lastmile_qr_scan", "android": "https://dc.lft.to/lastmile_qr_scan"}, "is_reserved": 0, "fusion_lon": 0.0, "fusion_lat": 0.0, "lon": -77.00453366666666, "name": "f1490f043ad2febe2b1be04e63001e64"}, {"bike_id": "54c004fa687f93d4fa8bb826ab3537a4", "type": "electric_scooter", "is_disabled": 0, "lat": 38.89605916666667, "rental_uris": {"ios": "https://dc.lft.to/lastmile_qr_scan", "android": "https://dc.lft.to/lastmile_qr_scan"}, "is_reserved": 0, "fusion_lon": 0.0, "fusion_lat": 0.0, "lon": -77.03123483333333, "name": "54c004fa687f93d4fa8bb826ab3537a4"}, {"bike_id": "ccedde8ae27c8a11e419b252793b65a1", "type": "electric_scooter", "is_disabled": 0, "lat": 38.90433866666667, "rental_uris": {"ios": "https://dc.lft.to/lastmile_qr_scan", "android": "https://dc.lft.to/lastmile_qr_scan"}, "is_reserved": 0, "fusion_lon": 0.0, "fusion_lat": 0.0, "lon": -77.03456466666667, "name": "ccedde8ae27c8a11e419b252793b65a1"}, {"bike_id": "e6961343ce39e4957f4f5347f3a3bad9", "type": "electric_scooter", "is_disabled": 0, "lat": 38.83205516666666, "rental_uris": {"ios": "https://dc.lft.to/lastmile_qr_scan", "android": "https://dc.lft.to/lastmile_qr_scan"}, "is_reserved": 0, "fusion_lon": 0.0, "fusion_lat": 0.0, "lon": -77.00797, "name": "e6961343ce39e4957f4f5347f3a3bad9"}, {"bike_id": "c560368d8d8e25337589f855c4c12e10", "type": "electric_scooter", "is_disabled": 0, "lat": 38.923233, "rental_uris": {"ios": "https://dc.lft.to/lastmile_qr_scan", "android": "https://dc.lft.to/lastmile_qr_scan"}, "is_reserved": 0, "fusion_lon": 0.0, "fusion_lat": 0.0, "lon": -77.03909783333333, "name": "c560368d8d8e25337589f855c4c12e10"}, {"bike_id": "8a95c85e7091fa36fac9fef670f081f4", "type": "electric_scooter", "is_disabled": 0, "lat": 38.8862355, "rental_uris": {"ios": "https://dc.lft.to/lastmile_qr_scan", "android": "https://dc.lft.to/lastmile_qr_scan"}, "is_reserved": 0, "fusion_lon": 0.0, "fusion_lat": 0.0, "lon": -76.99608, "name": "8a95c85e7091fa36fac9fef670f081f4"}, {"bike_id": "b21ab9ac288cc23e6645f330beadfeea", "type": "electric_scooter", "is_disabled": 0, "lat": 38.91116616666667, "rental_uris": {"ios": "https://dc.lft.to/lastmile_qr_scan", "android": "https://dc.lft.to/lastmile_qr_scan"}, "is_reserved": 0, "fusion_lon": 0.0, "fusion_lat": 0.0, "lon": -77.02131366666667, "name": "b21ab9ac288cc23e6645f330beadfeea"}, {"bike_id": "11d4f99b69bc46eb0e000ee480741040", "type": "electric_scooter", "is_disabled": 0, "lat": 38.90790466666667, "rental_uris": {"ios": "https://dc.lft.to/lastmile_qr_scan", "android": "https://dc.lft.to/lastmile_qr_scan"}, "is_reserved": 0, "fusion_lon": 0.0, "fusion_lat": 0.0, "lon": -77.03808266666667, "name": "11d4f99b69bc46eb0e000ee480741040"}, {"bike_id": "a6c35a829580e74e185205adb44046b4", "type": "electric_scooter", "is_disabled": 0, "lat": 38.87882666666667, "rental_uris": {"ios": "https://dc.lft.to/lastmile_qr_scan", "android": "https://dc.lft.to/lastmile_qr_scan"}, "is_reserved": 0, "fusion_lon": 0.0, "fusion_lat": 0.0, "lon": -77.02323083333333, "name": "a6c35a829580e74e185205adb44046b4"}, {"bike_id": "787463a50e5af5b28879600c88cefca2", "type": "electric_scooter", "is_disabled": 0, "lat": 38.89459166666666, "rental_uris": {"ios": "https://dc.lft.to/lastmile_qr_scan", "android": "https://dc.lft.to/lastmile_qr_scan"}, "is_reserved": 0, "fusion_lon": 0.0, "fusion_lat": 0.0, "lon": -77.02828933333333, "name": "787463a50e5af5b28879600c88cefca2"}, {"bike_id": "154a0e159c17306db10e20344b3ad893", "type": "electric_scooter", "is_disabled": 0, "lat": 38.897703, "rental_uris": {"ios": "https://dc.lft.to/lastmile_qr_scan", "android": "https://dc.lft.to/lastmile_qr_scan"}, "is_reserved": 0, "fusion_lon": 0.0, "fusion_lat": 0.0, "lon": -76.92575416666666, "name": "154a0e159c17306db10e20344b3ad893"}, {"bike_id": "51169cc8eb54334f332fbd7ed4087294", "type": "electric_scooter", "is_disabled": 0, "lat": 38.905290666666666, "rental_uris": {"ios": "https://dc.lft.to/lastmile_qr_scan", "android": "https://dc.lft.to/lastmile_qr_scan"}, "is_reserved": 0, "fusion_lon": 0.0, "fusion_lat": 0.0, "lon": -76.9810285, "name": "51169cc8eb54334f332fbd7ed4087294"}, {"bike_id": "ab47a3914d295b64f388892d1f846960", "type": "electric_scooter", "is_disabled": 0, "lat": 38.91408633333333, "rental_uris": {"ios": "https://dc.lft.to/lastmile_qr_scan", "android": "https://dc.lft.to/lastmile_qr_scan"}, "is_reserved": 0, "fusion_lon": 0.0, "fusion_lat": 0.0, "lon": -77.0242275, "name": "ab47a3914d295b64f388892d1f846960"}, {"bike_id": "17127c91f737765d8c6bcd4c9f10ed51", "type": "electric_scooter", "is_disabled": 0, "lat": 38.89256133333333, "rental_uris": {"ios": "https://dc.lft.to/lastmile_qr_scan", "android": "https://dc.lft.to/lastmile_qr_scan"}, "is_reserved": 0, "fusion_lon": 0.0, "fusion_lat": 0.0, "lon": -77.003512, "name": "17127c91f737765d8c6bcd4c9f10ed51"}, {"bike_id": "e1bbceac5df6629b040faf5b225c13fc", "type": "electric_scooter", "is_disabled": 0, "lat": 38.844385, "rental_uris": {"ios": "https://dc.lft.to/lastmile_qr_scan", "android": "https://dc.lft.to/lastmile_qr_scan"}, "is_reserved": 0, "fusion_lon": 0.0, "fusion_lat": 0.0, "lon": -76.99778633333334, "name": "e1bbceac5df6629b040faf5b225c13fc"}, {"bike_id": "6f1266e7f5e4f9ba9443b5f59ae41d80", "type": "electric_scooter", "is_disabled": 0, "lat": 38.918459666666664, "rental_uris": {"ios": "https://dc.lft.to/lastmile_qr_scan", "android": "https://dc.lft.to/lastmile_qr_scan"}, "is_reserved": 0, "fusion_lon": 0.0, "fusion_lat": 0.0, "lon": -77.038818, "name": "6f1266e7f5e4f9ba9443b5f59ae41d80"}, {"bike_id": "204ee198f228fb476ae99202152ee758", "type": "electric_scooter", "is_disabled": 0, "lat": 38.91968266666667, "rental_uris": {"ios": "https://dc.lft.to/lastmile_qr_scan", "android": "https://dc.lft.to/lastmile_qr_scan"}, "is_reserved": 0, "fusion_lon": 0.0, "fusion_lat": 0.0, "lon": -77.04237066666667, "name": "204ee198f228fb476ae99202152ee758"}, {"bike_id": "321db3dfc24871aaeb393cc3a633ee2c", "type": "electric_scooter", "is_disabled": 0, "lat": 38.887093166666666, "rental_uris": {"ios": "https://dc.lft.to/lastmile_qr_scan", "android": "https://dc.lft.to/lastmile_qr_scan"}, "is_reserved": 0, "fusion_lon": 0.0, "fusion_lat": 0.0, "lon": -77.02207633333333, "name": "321db3dfc24871aaeb393cc3a633ee2c"}, {"bike_id": "ad720d1e940d73a917b8268653268521", "type": "electric_scooter", "is_disabled": 0, "lat": 38.914869, "rental_uris": {"ios": "https://dc.lft.to/lastmile_qr_scan", "android": "https://dc.lft.to/lastmile_qr_scan"}, "is_reserved": 0, "fusion_lon": 0.0, "fusion_lat": 0.0, "lon": -76.98575516666666, "name": "ad720d1e940d73a917b8268653268521"}, {"bike_id": "76c7ed4f2c3189cbed1083e5d8688dc4", "type": "electric_scooter", "is_disabled": 0, "lat": 38.90021333333333, "rental_uris": {"ios": "https://dc.lft.to/lastmile_qr_scan", "android": "https://dc.lft.to/lastmile_qr_scan"}, "is_reserved": 0, "fusion_lon": 0.0, "fusion_lat": 0.0, "lon": -76.98060983333333, "name": "76c7ed4f2c3189cbed1083e5d8688dc4"}, {"bike_id": "4c570fa6a5328171e276ebaae06cc890", "type": "electric_scooter", "is_disabled": 0, "lat": 38.907300166666666, "rental_uris": {"ios": "https://dc.lft.to/lastmile_qr_scan", "android": "https://dc.lft.to/lastmile_qr_scan"}, "is_reserved": 0, "fusion_lon": 0.0, "fusion_lat": 0.0, "lon": -77.063451, "name": "4c570fa6a5328171e276ebaae06cc890"}, {"bike_id": "bf746c6e31177e34c65278f16cc74a4e", "type": "electric_scooter", "is_disabled": 0, "lat": 38.925933, "rental_uris": {"ios": "https://dc.lft.to/lastmile_qr_scan", "android": "https://dc.lft.to/lastmile_qr_scan"}, "is_reserved": 0, "fusion_lon": 0.0, "fusion_lat": 0.0, "lon": -77.00834116666667, "name": "bf746c6e31177e34c65278f16cc74a4e"}, {"bike_id": "9241441110a75f448cd0e64a9ab021e5", "type": "electric_scooter", "is_disabled": 0, "lat": 38.931769833333334, "rental_uris": {"ios": "https://dc.lft.to/lastmile_qr_scan", "android": "https://dc.lft.to/lastmile_qr_scan"}, "is_reserved": 0, "fusion_lon": 0.0, "fusion_lat": 0.0, "lon": -77.04305, "name": "9241441110a75f448cd0e64a9ab021e5"}, {"bike_id": "960cadc7a4ad2d512b56a38c54575d5a", "type": "electric_scooter", "is_disabled": 0, "lat": 38.909546, "rental_uris": {"ios": "https://dc.lft.to/lastmile_qr_scan", "android": "https://dc.lft.to/lastmile_qr_scan"}, "is_reserved": 0, "fusion_lon": 0.0, "fusion_lat": 0.0, "lon": -77.040445, "name": "960cadc7a4ad2d512b56a38c54575d5a"}, {"bike_id": "44e5e3209886cb3c63948aaab79e1f04", "type": "electric_scooter", "is_disabled": 0, "lat": 38.9026195, "rental_uris": {"ios": "https://dc.lft.to/lastmile_qr_scan", "android": "https://dc.lft.to/lastmile_qr_scan"}, "is_reserved": 0, "fusion_lon": 0.0, "fusion_lat": 0.0, "lon": -77.0382745, "name": "44e5e3209886cb3c63948aaab79e1f04"}, {"bike_id": "094d37f74fc64b7e50fa278c1cf042d7", "type": "electric_scooter", "is_disabled": 0, "lat": 38.92049383333333, "rental_uris": {"ios": "https://dc.lft.to/lastmile_qr_scan", "android": "https://dc.lft.to/lastmile_qr_scan"}, "is_reserved": 0, "fusion_lon": 0.0, "fusion_lat": 0.0, "lon": -77.0343845, "name": "094d37f74fc64b7e50fa278c1cf042d7"}, {"bike_id": "b4bf14fec5e02ec3f2c464752f67170e", "type": "electric_scooter", "is_disabled": 0, "lat": 38.902348333333336, "rental_uris": {"ios": "https://dc.lft.to/lastmile_qr_scan", "android": "https://dc.lft.to/lastmile_qr_scan"}, "is_reserved": 0, "fusion_lon": 0.0, "fusion_lat": 0.0, "lon": -76.9740995, "name": "b4bf14fec5e02ec3f2c464752f67170e"}, {"bike_id": "d85fe9d1b9654e6649973d2a6cc5ac9d", "type": "electric_scooter", "is_disabled": 0, "lat": 38.902704166666666, "rental_uris": {"ios": "https://dc.lft.to/lastmile_qr_scan", "android": "https://dc.lft.to/lastmile_qr_scan"}, "is_reserved": 0, "fusion_lon": 0.0, "fusion_lat": 0.0, "lon": -77.01904916666666, "name": "d85fe9d1b9654e6649973d2a6cc5ac9d"}, {"bike_id": "02e0bb97e4834a85319ca4595a9b49d8", "type": "electric_scooter", "is_disabled": 0, "lat": 38.937023, "rental_uris": {"ios": "https://dc.lft.to/lastmile_qr_scan", "android": "https://dc.lft.to/lastmile_qr_scan"}, "is_reserved": 0, "fusion_lon": 0.0, "fusion_lat": 0.0, "lon": -77.03280233333334, "name": "02e0bb97e4834a85319ca4595a9b49d8"}, {"bike_id": "8f8018fc23250183e28678cc20a49ffa", "type": "electric_scooter", "is_disabled": 0, "lat": 38.917726333333334, "rental_uris": {"ios": "https://dc.lft.to/lastmile_qr_scan", "android": "https://dc.lft.to/lastmile_qr_scan"}, "is_reserved": 0, "fusion_lon": 0.0, "fusion_lat": 0.0, "lon": -77.015064, "name": "8f8018fc23250183e28678cc20a49ffa"}, {"bike_id": "2d3a7062e2668024578c399774c7e748", "type": "electric_scooter", "is_disabled": 0, "lat": 38.906086333333334, "rental_uris": {"ios": "https://dc.lft.to/lastmile_qr_scan", "android": "https://dc.lft.to/lastmile_qr_scan"}, "is_reserved": 0, "fusion_lon": 0.0, "fusion_lat": 0.0, "lon": -77.01204466666667, "name": "2d3a7062e2668024578c399774c7e748"}, {"bike_id": "dde94280e3e9a1f1115d485dfaee3700", "type": "electric_scooter", "is_disabled": 0, "lat": 38.8953275, "rental_uris": {"ios": "https://dc.lft.to/lastmile_qr_scan", "android": "https://dc.lft.to/lastmile_qr_scan"}, "is_reserved": 0, "fusion_lon": 0.0, "fusion_lat": 0.0, "lon": -77.01088816666666, "name": "dde94280e3e9a1f1115d485dfaee3700"}, {"bike_id": "d2a3cd98b7a694e88769fc1ae59e61f8", "type": "electric_scooter", "is_disabled": 0, "lat": 38.94105833333333, "rental_uris": {"ios": "https://dc.lft.to/lastmile_qr_scan", "android": "https://dc.lft.to/lastmile_qr_scan"}, "is_reserved": 0, "fusion_lon": 0.0, "fusion_lat": 0.0, "lon": -77.077223, "name": "d2a3cd98b7a694e88769fc1ae59e61f8"}, {"bike_id": "516759222c6a224343f4014996801f1b", "type": "electric_scooter", "is_disabled": 0, "lat": 38.94270066666667, "rental_uris": {"ios": "https://dc.lft.to/lastmile_qr_scan", "android": "https://dc.lft.to/lastmile_qr_scan"}, "is_reserved": 0, "fusion_lon": 0.0, "fusion_lat": 0.0, "lon": -77.03257233333333, "name": "516759222c6a224343f4014996801f1b"}, {"bike_id": "dc418f0ed52821dc394151a87dc7379e", "type": "electric_scooter", "is_disabled": 0, "lat": 38.863721166666664, "rental_uris": {"ios": "https://dc.lft.to/lastmile_qr_scan", "android": "https://dc.lft.to/lastmile_qr_scan"}, "is_reserved": 0, "fusion_lon": 0.0, "fusion_lat": 0.0, "lon": -76.99057333333333, "name": "dc418f0ed52821dc394151a87dc7379e"}, {"bike_id": "7ee5fdd39ec83f4156f33f7cb5ade540", "type": "electric_scooter", "is_disabled": 0, "lat": 38.90818516666667, "rental_uris": {"ios": "https://dc.lft.to/lastmile_qr_scan", "android": "https://dc.lft.to/lastmile_qr_scan"}, "is_reserved": 0, "fusion_lon": 0.0, "fusion_lat": 0.0, "lon": -77.02372333333334, "name": "7ee5fdd39ec83f4156f33f7cb5ade540"}, {"bike_id": "f15eee2dc26d3ea0a1424d7f13913367", "type": "electric_scooter", "is_disabled": 0, "lat": 38.90371, "rental_uris": {"ios": "https://dc.lft.to/lastmile_qr_scan", "android": "https://dc.lft.to/lastmile_qr_scan"}, "is_reserved": 0, "fusion_lon": 0.0, "fusion_lat": 0.0, "lon": -77.00727666666667, "name": "f15eee2dc26d3ea0a1424d7f13913367"}, {"bike_id": "512fad2011dd3a97a84f4b01c3e43c4e", "type": "electric_scooter", "is_disabled": 0, "lat": 38.92243916666666, "rental_uris": {"ios": "https://dc.lft.to/lastmile_qr_scan", "android": "https://dc.lft.to/lastmile_qr_scan"}, "is_reserved": 0, "fusion_lon": 0.0, "fusion_lat": 0.0, "lon": -77.07471933333333, "name": "512fad2011dd3a97a84f4b01c3e43c4e"}, {"bike_id": "31b5e9bb81a8401647ffdddaf4d7916a", "type": "electric_scooter", "is_disabled": 0, "lat": 38.93868716666667, "rental_uris": {"ios": "https://dc.lft.to/lastmile_qr_scan", "android": "https://dc.lft.to/lastmile_qr_scan"}, "is_reserved": 0, "fusion_lon": 0.0, "fusion_lat": 0.0, "lon": -77.02441933333333, "name": "31b5e9bb81a8401647ffdddaf4d7916a"}, {"bike_id": "0b1906cf7f5deffc59b4012dda05ea4e", "type": "electric_scooter", "is_disabled": 0, "lat": 38.91417533333333, "rental_uris": {"ios": "https://dc.lft.to/lastmile_qr_scan", "android": "https://dc.lft.to/lastmile_qr_scan"}, "is_reserved": 0, "fusion_lon": 0.0, "fusion_lat": 0.0, "lon": -77.022842, "name": "0b1906cf7f5deffc59b4012dda05ea4e"}, {"bike_id": "122b8133cf121ef77a327c1f22ee0984", "type": "electric_scooter", "is_disabled": 0, "lat": 38.920882166666665, "rental_uris": {"ios": "https://dc.lft.to/lastmile_qr_scan", "android": "https://dc.lft.to/lastmile_qr_scan"}, "is_reserved": 0, "fusion_lon": 0.0, "fusion_lat": 0.0, "lon": -77.02241, "name": "122b8133cf121ef77a327c1f22ee0984"}, {"bike_id": "97565808bae0468287eaef01a09d4d50", "type": "electric_scooter", "is_disabled": 0, "lat": 38.88267866666666, "rental_uris": {"ios": "https://dc.lft.to/lastmile_qr_scan", "android": "https://dc.lft.to/lastmile_qr_scan"}, "is_reserved": 0, "fusion_lon": 0.0, "fusion_lat": 0.0, "lon": -76.99250566666667, "name": "97565808bae0468287eaef01a09d4d50"}, {"bike_id": "342546f6a4d070502926ffb427a8568a", "type": "electric_scooter", "is_disabled": 0, "lat": 38.91630283333333, "rental_uris": {"ios": "https://dc.lft.to/lastmile_qr_scan", "android": "https://dc.lft.to/lastmile_qr_scan"}, "is_reserved": 0, "fusion_lon": 0.0, "fusion_lat": 0.0, "lon": -77.03989566666667, "name": "342546f6a4d070502926ffb427a8568a"}, {"bike_id": "80dd019432eedac4db557869bdab130b", "type": "electric_scooter", "is_disabled": 0, "lat": 38.93679433333333, "rental_uris": {"ios": "https://dc.lft.to/lastmile_qr_scan", "android": "https://dc.lft.to/lastmile_qr_scan"}, "is_reserved": 0, "fusion_lon": 0.0, "fusion_lat": 0.0, "lon": -77.03624383333333, "name": "80dd019432eedac4db557869bdab130b"}, {"bike_id": "45bf303c455b8f1c3e50e36c5946d216", "type": "electric_scooter", "is_disabled": 0, "lat": 38.906803, "rental_uris": {"ios": "https://dc.lft.to/lastmile_qr_scan", "android": "https://dc.lft.to/lastmile_qr_scan"}, "is_reserved": 0, "fusion_lon": 0.0, "fusion_lat": 0.0, "lon": -77.06339483333333, "name": "45bf303c455b8f1c3e50e36c5946d216"}, {"bike_id": "634d6e86b5032c87aeb9ec37515a691f", "type": "electric_scooter", "is_disabled": 0, "lat": 38.9067235, "rental_uris": {"ios": "https://dc.lft.to/lastmile_qr_scan", "android": "https://dc.lft.to/lastmile_qr_scan"}, "is_reserved": 0, "fusion_lon": 0.0, "fusion_lat": 0.0, "lon": -77.04626116666667, "name": "634d6e86b5032c87aeb9ec37515a691f"}, {"bike_id": "04ba0f93ed01bd13d8f992239d9e3c05", "type": "electric_scooter", "is_disabled": 0, "lat": 38.91917333333333, "rental_uris": {"ios": "https://dc.lft.to/lastmile_qr_scan", "android": "https://dc.lft.to/lastmile_qr_scan"}, "is_reserved": 0, "fusion_lon": 0.0, "fusion_lat": 0.0, "lon": -77.03417383333333, "name": "04ba0f93ed01bd13d8f992239d9e3c05"}, {"bike_id": "d443d05ee56f10a30c63f9061b090c75", "type": "electric_scooter", "is_disabled": 0, "lat": 38.91888633333333, "rental_uris": {"ios": "https://dc.lft.to/lastmile_qr_scan", "android": "https://dc.lft.to/lastmile_qr_scan"}, "is_reserved": 0, "fusion_lon": 0.0, "fusion_lat": 0.0, "lon": -77.014594, "name": "d443d05ee56f10a30c63f9061b090c75"}, {"bike_id": "f4a54ac8599c96d15940150a8886cc33", "type": "electric_scooter", "is_disabled": 0, "lat": 38.91082683333333, "rental_uris": {"ios": "https://dc.lft.to/lastmile_qr_scan", "android": "https://dc.lft.to/lastmile_qr_scan"}, "is_reserved": 0, "fusion_lon": 0.0, "fusion_lat": 0.0, "lon": -77.01508433333333, "name": "f4a54ac8599c96d15940150a8886cc33"}, {"bike_id": "ae2abe1cee62f3eac4d140d9b2d1f80d", "type": "electric_scooter", "is_disabled": 0, "lat": 38.928756166666666, "rental_uris": {"ios": "https://dc.lft.to/lastmile_qr_scan", "android": "https://dc.lft.to/lastmile_qr_scan"}, "is_reserved": 0, "fusion_lon": 0.0, "fusion_lat": 0.0, "lon": -77.01230366666667, "name": "ae2abe1cee62f3eac4d140d9b2d1f80d"}, {"bike_id": "25719b56d9410b6ce86ae742fe3f286a", "type": "electric_scooter", "is_disabled": 0, "lat": 38.90193133333333, "rental_uris": {"ios": "https://dc.lft.to/lastmile_qr_scan", "android": "https://dc.lft.to/lastmile_qr_scan"}, "is_reserved": 0, "fusion_lon": 0.0, "fusion_lat": 0.0, "lon": -77.012961, "name": "25719b56d9410b6ce86ae742fe3f286a"}, {"bike_id": "e9176e57e516c93cccaf5158267a8000", "type": "electric_scooter", "is_disabled": 0, "lat": 38.900262166666664, "rental_uris": {"ios": "https://dc.lft.to/lastmile_qr_scan", "android": "https://dc.lft.to/lastmile_qr_scan"}, "is_reserved": 0, "fusion_lon": 0.0, "fusion_lat": 0.0, "lon": -77.0177355, "name": "e9176e57e516c93cccaf5158267a8000"}, {"bike_id": "0627a48901d45836e637558389add99e", "type": "electric_bike", "is_disabled": 0, "lat": 39.01477666666667, "rental_uris": {"ios": "https://dc.lft.to/lastmile_qr_scan", "android": "https://dc.lft.to/lastmile_qr_scan"}, "is_reserved": 0, "fusion_lon": 0.0, "fusion_lat": 0.0, "lon": -77.05493816666667, "name": "0627a48901d45836e637558389add99e"}, {"bike_id": "c4f3ce0f743d9be70f500e4345f19020", "type": "electric_scooter", "is_disabled": 0, "lat": 38.93081733333333, "rental_uris": {"ios": "https://dc.lft.to/lastmile_qr_scan", "android": "https://dc.lft.to/lastmile_qr_scan"}, "is_reserved": 0, "fusion_lon": 0.0, "fusion_lat": 0.0, "lon": -77.0278995, "name": "c4f3ce0f743d9be70f500e4345f19020"}, {"bike_id": "0ed2fd29462fc8d6383987cdc879696f", "type": "electric_scooter", "is_disabled": 0, "lat": 38.87076283333333, "rental_uris": {"ios": "https://dc.lft.to/lastmile_qr_scan", "android": "https://dc.lft.to/lastmile_qr_scan"}, "is_reserved": 0, "fusion_lon": 0.0, "fusion_lat": 0.0, "lon": -77.011823, "name": "0ed2fd29462fc8d6383987cdc879696f"}, {"bike_id": "5e8d96854b536eca4d130a3a8f07e9c3", "type": "electric_scooter", "is_disabled": 0, "lat": 38.9589515, "rental_uris": {"ios": "https://dc.lft.to/lastmile_qr_scan", "android": "https://dc.lft.to/lastmile_qr_scan"}, "is_reserved": 0, "fusion_lon": 0.0, "fusion_lat": 0.0, "lon": -77.08595816666667, "name": "5e8d96854b536eca4d130a3a8f07e9c3"}, {"bike_id": "bf2dac0ceaf9e5cfc313b469f24a01c3", "type": "electric_scooter", "is_disabled": 0, "lat": 38.93195383333333, "rental_uris": {"ios": "https://dc.lft.to/lastmile_qr_scan", "android": "https://dc.lft.to/lastmile_qr_scan"}, "is_reserved": 0, "fusion_lon": 0.0, "fusion_lat": 0.0, "lon": -77.01957633333333, "name": "bf2dac0ceaf9e5cfc313b469f24a01c3"}, {"bike_id": "34fdadeccd477209bdf59cb8b9979626", "type": "electric_scooter", "is_disabled": 0, "lat": 38.871273333333335, "rental_uris": {"ios": "https://dc.lft.to/lastmile_qr_scan", "android": "https://dc.lft.to/lastmile_qr_scan"}, "is_reserved": 0, "fusion_lon": 0.0, "fusion_lat": 0.0, "lon": -77.0076815, "name": "34fdadeccd477209bdf59cb8b9979626"}, {"bike_id": "728cf4be569ee5df75672d80c21e09a9", "type": "electric_scooter", "is_disabled": 0, "lat": 38.91479783333333, "rental_uris": {"ios": "https://dc.lft.to/lastmile_qr_scan", "android": "https://dc.lft.to/lastmile_qr_scan"}, "is_reserved": 0, "fusion_lon": 0.0, "fusion_lat": 0.0, "lon": -77.0218265, "name": "728cf4be569ee5df75672d80c21e09a9"}, {"bike_id": "fca9ac63fabf0fcd8240439d24b3f3ee", "type": "electric_scooter", "is_disabled": 0, "lat": 38.9163525, "rental_uris": {"ios": "https://dc.lft.to/lastmile_qr_scan", "android": "https://dc.lft.to/lastmile_qr_scan"}, "is_reserved": 0, "fusion_lon": 0.0, "fusion_lat": 0.0, "lon": -77.000509, "name": "fca9ac63fabf0fcd8240439d24b3f3ee"}, {"bike_id": "9cbf3721c6c2bdaa16f88a32385c8d41", "type": "electric_scooter", "is_disabled": 0, "lat": 38.90951733333333, "rental_uris": {"ios": "https://dc.lft.to/lastmile_qr_scan", "android": "https://dc.lft.to/lastmile_qr_scan"}, "is_reserved": 0, "fusion_lon": 0.0, "fusion_lat": 0.0, "lon": -77.02683216666667, "name": "9cbf3721c6c2bdaa16f88a32385c8d41"}, {"bike_id": "e3d66eb76ce8d15d09c4e35e71414958", "type": "electric_scooter", "is_disabled": 0, "lat": 38.923371333333336, "rental_uris": {"ios": "https://dc.lft.to/lastmile_qr_scan", "android": "https://dc.lft.to/lastmile_qr_scan"}, "is_reserved": 0, "fusion_lon": 0.0, "fusion_lat": 0.0, "lon": -77.05049, "name": "e3d66eb76ce8d15d09c4e35e71414958"}, {"bike_id": "96d781a842365bb187f4eb52034fd25c", "type": "electric_scooter", "is_disabled": 0, "lat": 38.939583, "rental_uris": {"ios": "https://dc.lft.to/lastmile_qr_scan", "android": "https://dc.lft.to/lastmile_qr_scan"}, "is_reserved": 0, "fusion_lon": 0.0, "fusion_lat": 0.0, "lon": -77.024732, "name": "96d781a842365bb187f4eb52034fd25c"}, {"bike_id": "b2171d716ec829a160ea5f7bc7641954", "type": "electric_scooter", "is_disabled": 0, "lat": 38.908976333333335, "rental_uris": {"ios": "https://dc.lft.to/lastmile_qr_scan", "android": "https://dc.lft.to/lastmile_qr_scan"}, "is_reserved": 0, "fusion_lon": 0.0, "fusion_lat": 0.0, "lon": -77.08619116666667, "name": "b2171d716ec829a160ea5f7bc7641954"}, {"bike_id": "318b439aa9fd4bc7bcc4ba65f0c5bd85", "type": "electric_scooter", "is_disabled": 0, "lat": 38.925487333333336, "rental_uris": {"ios": "https://dc.lft.to/lastmile_qr_scan", "android": "https://dc.lft.to/lastmile_qr_scan"}, "is_reserved": 0, "fusion_lon": 0.0, "fusion_lat": 0.0, "lon": -77.02284733333333, "name": "318b439aa9fd4bc7bcc4ba65f0c5bd85"}, {"bike_id": "6f13a28af001463f9a96f7c30edb8cf9", "type": "electric_scooter", "is_disabled": 0, "lat": 38.906982666666664, "rental_uris": {"ios": "https://dc.lft.to/lastmile_qr_scan", "android": "https://dc.lft.to/lastmile_qr_scan"}, "is_reserved": 0, "fusion_lon": 0.0, "fusion_lat": 0.0, "lon": -77.034503, "name": "6f13a28af001463f9a96f7c30edb8cf9"}, {"bike_id": "7f616976baa629fdd778088cf00cdb12", "type": "electric_scooter", "is_disabled": 0, "lat": 38.923208, "rental_uris": {"ios": "https://dc.lft.to/lastmile_qr_scan", "android": "https://dc.lft.to/lastmile_qr_scan"}, "is_reserved": 0, "fusion_lon": 0.0, "fusion_lat": 0.0, "lon": -77.03590333333334, "name": "7f616976baa629fdd778088cf00cdb12"}, {"bike_id": "9907554cf3f3d996e01615ae3aca640a", "type": "electric_bike", "is_disabled": 0, "lat": 38.801122666666664, "rental_uris": {"ios": "https://dc.lft.to/lastmile_qr_scan", "android": "https://dc.lft.to/lastmile_qr_scan"}, "is_reserved": 0, "fusion_lon": 0.0, "fusion_lat": 0.0, "lon": -77.07048566666667, "name": "9907554cf3f3d996e01615ae3aca640a"}, {"bike_id": "f07268098f71764f793990b716603f02", "type": "electric_scooter", "is_disabled": 0, "lat": 38.91764533333333, "rental_uris": {"ios": "https://dc.lft.to/lastmile_qr_scan", "android": "https://dc.lft.to/lastmile_qr_scan"}, "is_reserved": 0, "fusion_lon": 0.0, "fusion_lat": 0.0, "lon": -77.034528, "name": "f07268098f71764f793990b716603f02"}, {"bike_id": "fda17415a9fe432874be31058bf5a6dc", "type": "electric_scooter", "is_disabled": 0, "lat": 38.8315455, "rental_uris": {"ios": "https://dc.lft.to/lastmile_qr_scan", "android": "https://dc.lft.to/lastmile_qr_scan"}, "is_reserved": 0, "fusion_lon": 0.0, "fusion_lat": 0.0, "lon": -77.0513105, "name": "fda17415a9fe432874be31058bf5a6dc"}, {"bike_id": "20c6aeda26348039c58070d0ccba161d", "type": "electric_scooter", "is_disabled": 0, "lat": 38.907332833333335, "rental_uris": {"ios": "https://dc.lft.to/lastmile_qr_scan", "android": "https://dc.lft.to/lastmile_qr_scan"}, "is_reserved": 0, "fusion_lon": 0.0, "fusion_lat": 0.0, "lon": -76.979698, "name": "20c6aeda26348039c58070d0ccba161d"}, {"bike_id": "617c950313c4e1e3b821436d80ff97f0", "type": "electric_scooter", "is_disabled": 0, "lat": 38.879344833333334, "rental_uris": {"ios": "https://dc.lft.to/lastmile_qr_scan", "android": "https://dc.lft.to/lastmile_qr_scan"}, "is_reserved": 0, "fusion_lon": 0.0, "fusion_lat": 0.0, "lon": -77.00061216666667, "name": "617c950313c4e1e3b821436d80ff97f0"}, {"bike_id": "122aad15fe056e31610d0c83f6996dc1", "type": "electric_scooter", "is_disabled": 0, "lat": 38.867323166666665, "rental_uris": {"ios": "https://dc.lft.to/lastmile_qr_scan", "android": "https://dc.lft.to/lastmile_qr_scan"}, "is_reserved": 0, "fusion_lon": 0.0, "fusion_lat": 0.0, "lon": -76.97863416666667, "name": "122aad15fe056e31610d0c83f6996dc1"}, {"bike_id": "7d8672f55a517e46e751138c6c6beb59", "type": "electric_scooter", "is_disabled": 0, "lat": 38.93319866666667, "rental_uris": {"ios": "https://dc.lft.to/lastmile_qr_scan", "android": "https://dc.lft.to/lastmile_qr_scan"}, "is_reserved": 0, "fusion_lon": 0.0, "fusion_lat": 0.0, "lon": -77.03254316666667, "name": "7d8672f55a517e46e751138c6c6beb59"}, {"bike_id": "868cce15de9197cfc35b6a8678486025", "type": "electric_scooter", "is_disabled": 0, "lat": 38.893213833333334, "rental_uris": {"ios": "https://dc.lft.to/lastmile_qr_scan", "android": "https://dc.lft.to/lastmile_qr_scan"}, "is_reserved": 0, "fusion_lon": 0.0, "fusion_lat": 0.0, "lon": -76.93966583333334, "name": "868cce15de9197cfc35b6a8678486025"}, {"bike_id": "298a506efc53504f9df36f26039f6af5", "type": "electric_scooter", "is_disabled": 0, "lat": 38.879676333333336, "rental_uris": {"ios": "https://dc.lft.to/lastmile_qr_scan", "android": "https://dc.lft.to/lastmile_qr_scan"}, "is_reserved": 0, "fusion_lon": 0.0, "fusion_lat": 0.0, "lon": -76.98531083333333, "name": "298a506efc53504f9df36f26039f6af5"}, {"bike_id": "d0665690c5c6d116f501f9cf87cd371c", "type": "electric_scooter", "is_disabled": 0, "lat": 38.91617883333333, "rental_uris": {"ios": "https://dc.lft.to/lastmile_qr_scan", "android": "https://dc.lft.to/lastmile_qr_scan"}, "is_reserved": 0, "fusion_lon": 0.0, "fusion_lat": 0.0, "lon": -77.04509683333333, "name": "d0665690c5c6d116f501f9cf87cd371c"}, {"bike_id": "0da95789f1c12b67b2da8c6157b80e1f", "type": "electric_scooter", "is_disabled": 0, "lat": 38.903824166666666, "rental_uris": {"ios": "https://dc.lft.to/lastmile_qr_scan", "android": "https://dc.lft.to/lastmile_qr_scan"}, "is_reserved": 0, "fusion_lon": 0.0, "fusion_lat": 0.0, "lon": -77.03306983333333, "name": "0da95789f1c12b67b2da8c6157b80e1f"}, {"bike_id": "ead3f082a0a1115a6352adec8bd55c2c", "type": "electric_scooter", "is_disabled": 0, "lat": 38.87710283333333, "rental_uris": {"ios": "https://dc.lft.to/lastmile_qr_scan", "android": "https://dc.lft.to/lastmile_qr_scan"}, "is_reserved": 0, "fusion_lon": 0.0, "fusion_lat": 0.0, "lon": -77.017826, "name": "ead3f082a0a1115a6352adec8bd55c2c"}, {"bike_id": "5874ba535a046840340e55cc705f2f8e", "type": "electric_scooter", "is_disabled": 0, "lat": 38.92046933333334, "rental_uris": {"ios": "https://dc.lft.to/lastmile_qr_scan", "android": "https://dc.lft.to/lastmile_qr_scan"}, "is_reserved": 0, "fusion_lon": 0.0, "fusion_lat": 0.0, "lon": -77.01729216666666, "name": "5874ba535a046840340e55cc705f2f8e"}, {"bike_id": "b49cdd8dd9dde2e6cf9888ceee352489", "type": "electric_scooter", "is_disabled": 0, "lat": 38.9096175, "rental_uris": {"ios": "https://dc.lft.to/lastmile_qr_scan", "android": "https://dc.lft.to/lastmile_qr_scan"}, "is_reserved": 0, "fusion_lon": 0.0, "fusion_lat": 0.0, "lon": -77.0230935, "name": "b49cdd8dd9dde2e6cf9888ceee352489"}, {"bike_id": "577697ceb46b249d738e1ddaf8845fcf", "type": "electric_scooter", "is_disabled": 0, "lat": 38.916341333333335, "rental_uris": {"ios": "https://dc.lft.to/lastmile_qr_scan", "android": "https://dc.lft.to/lastmile_qr_scan"}, "is_reserved": 0, "fusion_lon": 0.0, "fusion_lat": 0.0, "lon": -77.04798283333334, "name": "577697ceb46b249d738e1ddaf8845fcf"}, {"bike_id": "23103da9147bf561fe4d4e79323a53d6", "type": "electric_scooter", "is_disabled": 0, "lat": 38.92481433333333, "rental_uris": {"ios": "https://dc.lft.to/lastmile_qr_scan", "android": "https://dc.lft.to/lastmile_qr_scan"}, "is_reserved": 0, "fusion_lon": 0.0, "fusion_lat": 0.0, "lon": -77.05760733333334, "name": "23103da9147bf561fe4d4e79323a53d6"}, {"bike_id": "d24ce872757b2966f392fbc7bad30f5e", "type": "electric_scooter", "is_disabled": 0, "lat": 38.90910933333333, "rental_uris": {"ios": "https://dc.lft.to/lastmile_qr_scan", "android": "https://dc.lft.to/lastmile_qr_scan"}, "is_reserved": 0, "fusion_lon": 0.0, "fusion_lat": 0.0, "lon": -76.98424866666667, "name": "d24ce872757b2966f392fbc7bad30f5e"}, {"bike_id": "5849e7929425438a72a7dcc1e6b8a05c", "type": "electric_scooter", "is_disabled": 0, "lat": 38.91401583333333, "rental_uris": {"ios": "https://dc.lft.to/lastmile_qr_scan", "android": "https://dc.lft.to/lastmile_qr_scan"}, "is_reserved": 0, "fusion_lon": 0.0, "fusion_lat": 0.0, "lon": -77.0155195, "name": "5849e7929425438a72a7dcc1e6b8a05c"}, {"bike_id": "158393f62e1a82f83891f16d9e655cc1", "type": "electric_scooter", "is_disabled": 0, "lat": 38.924395833333335, "rental_uris": {"ios": "https://dc.lft.to/lastmile_qr_scan", "android": "https://dc.lft.to/lastmile_qr_scan"}, "is_reserved": 0, "fusion_lon": 0.0, "fusion_lat": 0.0, "lon": -77.03345616666667, "name": "158393f62e1a82f83891f16d9e655cc1"}, {"bike_id": "c1d6238d0c114ce02710cf09bc46f10c", "type": "electric_scooter", "is_disabled": 0, "lat": 38.86967933333333, "rental_uris": {"ios": "https://dc.lft.to/lastmile_qr_scan", "android": "https://dc.lft.to/lastmile_qr_scan"}, "is_reserved": 0, "fusion_lon": 0.0, "fusion_lat": 0.0, "lon": -76.98168016666666, "name": "c1d6238d0c114ce02710cf09bc46f10c"}, {"bike_id": "2a1ffb4ef7b3d84e49aa51c74a5e95c1", "type": "electric_scooter", "is_disabled": 0, "lat": 38.900975333333335, "rental_uris": {"ios": "https://dc.lft.to/lastmile_qr_scan", "android": "https://dc.lft.to/lastmile_qr_scan"}, "is_reserved": 0, "fusion_lon": 0.0, "fusion_lat": 0.0, "lon": -77.05779116666666, "name": "2a1ffb4ef7b3d84e49aa51c74a5e95c1"}, {"bike_id": "3a3332ea1675fb0996b137daa436df48", "type": "electric_scooter", "is_disabled": 0, "lat": 38.925898333333336, "rental_uris": {"ios": "https://dc.lft.to/lastmile_qr_scan", "android": "https://dc.lft.to/lastmile_qr_scan"}, "is_reserved": 0, "fusion_lon": 0.0, "fusion_lat": 0.0, "lon": -77.02492066666667, "name": "3a3332ea1675fb0996b137daa436df48"}, {"bike_id": "c64edccf2ab55e0df44b5477caf63e9b", "type": "electric_scooter", "is_disabled": 0, "lat": 38.928540166666664, "rental_uris": {"ios": "https://dc.lft.to/lastmile_qr_scan", "android": "https://dc.lft.to/lastmile_qr_scan"}, "is_reserved": 0, "fusion_lon": 0.0, "fusion_lat": 0.0, "lon": -77.01946833333334, "name": "c64edccf2ab55e0df44b5477caf63e9b"}, {"bike_id": "61008e1a0f4abefa45edd733922d99a3", "type": "electric_scooter", "is_disabled": 0, "lat": 38.86441633333333, "rental_uris": {"ios": "https://dc.lft.to/lastmile_qr_scan", "android": "https://dc.lft.to/lastmile_qr_scan"}, "is_reserved": 0, "fusion_lon": 0.0, "fusion_lat": 0.0, "lon": -76.98991533333333, "name": "61008e1a0f4abefa45edd733922d99a3"}, {"bike_id": "f60e4601efeb7d0cc96527e0a809cbce", "type": "electric_scooter", "is_disabled": 0, "lat": 38.916558333333334, "rental_uris": {"ios": "https://dc.lft.to/lastmile_qr_scan", "android": "https://dc.lft.to/lastmile_qr_scan"}, "is_reserved": 0, "fusion_lon": 0.0, "fusion_lat": 0.0, "lon": -77.038547, "name": "f60e4601efeb7d0cc96527e0a809cbce"}, {"bike_id": "f3d501bcebbdf5de2e158da8b27d61a8", "type": "electric_bike", "is_disabled": 0, "lat": 38.880612666666664, "rental_uris": {"ios": "https://dc.lft.to/lastmile_qr_scan", "android": "https://dc.lft.to/lastmile_qr_scan"}, "is_reserved": 0, "fusion_lon": 0.0, "fusion_lat": 0.0, "lon": -76.96239433333334, "name": "f3d501bcebbdf5de2e158da8b27d61a8"}, {"bike_id": "2e9ec7766f3303aa98e33ec96e3901f9", "type": "electric_scooter", "is_disabled": 0, "lat": 38.919290833333335, "rental_uris": {"ios": "https://dc.lft.to/lastmile_qr_scan", "android": "https://dc.lft.to/lastmile_qr_scan"}, "is_reserved": 0, "fusion_lon": 0.0, "fusion_lat": 0.0, "lon": -77.04500583333333, "name": "2e9ec7766f3303aa98e33ec96e3901f9"}, {"bike_id": "8f8a6959590daaf617a0a580bfeb877e", "type": "electric_scooter", "is_disabled": 0, "lat": 38.910042, "rental_uris": {"ios": "https://dc.lft.to/lastmile_qr_scan", "android": "https://dc.lft.to/lastmile_qr_scan"}, "is_reserved": 0, "fusion_lon": 0.0, "fusion_lat": 0.0, "lon": -76.98634183333333, "name": "8f8a6959590daaf617a0a580bfeb877e"}, {"bike_id": "6ae90ef53615281237b8bd0c9c34d19b", "type": "electric_scooter", "is_disabled": 0, "lat": 38.921511833333334, "rental_uris": {"ios": "https://dc.lft.to/lastmile_qr_scan", "android": "https://dc.lft.to/lastmile_qr_scan"}, "is_reserved": 0, "fusion_lon": 0.0, "fusion_lat": 0.0, "lon": -77.03530466666666, "name": "6ae90ef53615281237b8bd0c9c34d19b"}, {"bike_id": "60e65ba6a8a9de61ee6ce85366445dd6", "type": "electric_scooter", "is_disabled": 0, "lat": 38.9478875, "rental_uris": {"ios": "https://dc.lft.to/lastmile_qr_scan", "android": "https://dc.lft.to/lastmile_qr_scan"}, "is_reserved": 0, "fusion_lon": 0.0, "fusion_lat": 0.0, "lon": -77.021308, "name": "60e65ba6a8a9de61ee6ce85366445dd6"}, {"bike_id": "31fc27f44a0c3ea334a853eede3e8946", "type": "electric_scooter", "is_disabled": 0, "lat": 38.91376016666667, "rental_uris": {"ios": "https://dc.lft.to/lastmile_qr_scan", "android": "https://dc.lft.to/lastmile_qr_scan"}, "is_reserved": 0, "fusion_lon": 0.0, "fusion_lat": 0.0, "lon": -77.07268166666667, "name": "31fc27f44a0c3ea334a853eede3e8946"}, {"bike_id": "96d4157b2809ea0b37dbeadbe0497f4d", "type": "electric_bike", "is_disabled": 0, "lat": 38.87280416666667, "rental_uris": {"ios": "https://dc.lft.to/lastmile_qr_scan", "android": "https://dc.lft.to/lastmile_qr_scan"}, "is_reserved": 0, "fusion_lon": 0.0, "fusion_lat": 0.0, "lon": -77.233171, "name": "96d4157b2809ea0b37dbeadbe0497f4d"}, {"bike_id": "52766e2d841cbf8e20c304ab6741e2c9", "type": "electric_scooter", "is_disabled": 0, "lat": 38.916168666666664, "rental_uris": {"ios": "https://dc.lft.to/lastmile_qr_scan", "android": "https://dc.lft.to/lastmile_qr_scan"}, "is_reserved": 0, "fusion_lon": 0.0, "fusion_lat": 0.0, "lon": -77.0485865, "name": "52766e2d841cbf8e20c304ab6741e2c9"}, {"bike_id": "97769fcc7f59d7c6938347d7137124f2", "type": "electric_scooter", "is_disabled": 0, "lat": 38.873019166666666, "rental_uris": {"ios": "https://dc.lft.to/lastmile_qr_scan", "android": "https://dc.lft.to/lastmile_qr_scan"}, "is_reserved": 0, "fusion_lon": 0.0, "fusion_lat": 0.0, "lon": -77.00978716666667, "name": "97769fcc7f59d7c6938347d7137124f2"}, {"bike_id": "8bc0943b3d212a60306677b557124903", "type": "electric_bike", "is_disabled": 0, "lat": 38.91010566666667, "rental_uris": {"ios": "https://dc.lft.to/lastmile_qr_scan", "android": "https://dc.lft.to/lastmile_qr_scan"}, "is_reserved": 0, "fusion_lon": 0.0, "fusion_lat": 0.0, "lon": -77.227951, "name": "8bc0943b3d212a60306677b557124903"}, {"bike_id": "32fc22db8a202497fe614bc6fa615f72", "type": "electric_scooter", "is_disabled": 0, "lat": 38.92137916666667, "rental_uris": {"ios": "https://dc.lft.to/lastmile_qr_scan", "android": "https://dc.lft.to/lastmile_qr_scan"}, "is_reserved": 0, "fusion_lon": 0.0, "fusion_lat": 0.0, "lon": -77.04574366666667, "name": "32fc22db8a202497fe614bc6fa615f72"}, {"bike_id": "4d4fd85eb8bebafad01e4bd730bef103", "type": "electric_scooter", "is_disabled": 0, "lat": 38.919165166666666, "rental_uris": {"ios": "https://dc.lft.to/lastmile_qr_scan", "android": "https://dc.lft.to/lastmile_qr_scan"}, "is_reserved": 0, "fusion_lon": 0.0, "fusion_lat": 0.0, "lon": -77.01407683333333, "name": "4d4fd85eb8bebafad01e4bd730bef103"}, {"bike_id": "cd13d9711264c87cc5db9344ed0ce640", "type": "electric_scooter", "is_disabled": 0, "lat": 38.936751, "rental_uris": {"ios": "https://dc.lft.to/lastmile_qr_scan", "android": "https://dc.lft.to/lastmile_qr_scan"}, "is_reserved": 0, "fusion_lon": 0.0, "fusion_lat": 0.0, "lon": -77.03625316666667, "name": "cd13d9711264c87cc5db9344ed0ce640"}, {"bike_id": "91ca7f5fa87e1eb4af4f816942d84cbe", "type": "electric_scooter", "is_disabled": 0, "lat": 38.947018, "rental_uris": {"ios": "https://dc.lft.to/lastmile_qr_scan", "android": "https://dc.lft.to/lastmile_qr_scan"}, "is_reserved": 0, "fusion_lon": 0.0, "fusion_lat": 0.0, "lon": -77.01936066666667, "name": "91ca7f5fa87e1eb4af4f816942d84cbe"}, {"bike_id": "a8a59dfecb4102f8bacd911a90ff02c1", "type": "electric_scooter", "is_disabled": 0, "lat": 38.91048766666667, "rental_uris": {"ios": "https://dc.lft.to/lastmile_qr_scan", "android": "https://dc.lft.to/lastmile_qr_scan"}, "is_reserved": 0, "fusion_lon": 0.0, "fusion_lat": 0.0, "lon": -77.02684033333334, "name": "a8a59dfecb4102f8bacd911a90ff02c1"}, {"bike_id": "d39c39f19707bb4c7da35cc2823914a3", "type": "electric_scooter", "is_disabled": 0, "lat": 38.922408833333336, "rental_uris": {"ios": "https://dc.lft.to/lastmile_qr_scan", "android": "https://dc.lft.to/lastmile_qr_scan"}, "is_reserved": 0, "fusion_lon": 0.0, "fusion_lat": 0.0, "lon": -77.0423825, "name": "d39c39f19707bb4c7da35cc2823914a3"}, {"bike_id": "05e49df9e812411e2086c84f80fca07f", "type": "electric_scooter", "is_disabled": 0, "lat": 38.874338, "rental_uris": {"ios": "https://dc.lft.to/lastmile_qr_scan", "android": "https://dc.lft.to/lastmile_qr_scan"}, "is_reserved": 0, "fusion_lon": 0.0, "fusion_lat": 0.0, "lon": -77.00024, "name": "05e49df9e812411e2086c84f80fca07f"}, {"bike_id": "4852614c0a8258a72e522ad52c3eff1e", "type": "electric_scooter", "is_disabled": 0, "lat": 38.940825833333335, "rental_uris": {"ios": "https://dc.lft.to/lastmile_qr_scan", "android": "https://dc.lft.to/lastmile_qr_scan"}, "is_reserved": 0, "fusion_lon": 0.0, "fusion_lat": 0.0, "lon": -77.0271955, "name": "4852614c0a8258a72e522ad52c3eff1e"}, {"bike_id": "358f3cb8fcf8a2ac353cf6d799b6178f", "type": "electric_scooter", "is_disabled": 0, "lat": 38.87089183333333, "rental_uris": {"ios": "https://dc.lft.to/lastmile_qr_scan", "android": "https://dc.lft.to/lastmile_qr_scan"}, "is_reserved": 0, "fusion_lon": 0.0, "fusion_lat": 0.0, "lon": -76.96588483333333, "name": "358f3cb8fcf8a2ac353cf6d799b6178f"}, {"bike_id": "1eb15e9ac3ee2a0451958d601104b4b2", "type": "electric_scooter", "is_disabled": 0, "lat": 38.8669835, "rental_uris": {"ios": "https://dc.lft.to/lastmile_qr_scan", "android": "https://dc.lft.to/lastmile_qr_scan"}, "is_reserved": 0, "fusion_lon": 0.0, "fusion_lat": 0.0, "lon": -76.98713533333333, "name": "1eb15e9ac3ee2a0451958d601104b4b2"}, {"bike_id": "b2792e640042e5a56ccac3e4b8d343c7", "type": "electric_bike", "is_disabled": 0, "lat": 39.052762333333334, "rental_uris": {"ios": "https://dc.lft.to/lastmile_qr_scan", "android": "https://dc.lft.to/lastmile_qr_scan"}, "is_reserved": 0, "fusion_lon": 0.0, "fusion_lat": 0.0, "lon": -77.08068583333333, "name": "b2792e640042e5a56ccac3e4b8d343c7"}, {"bike_id": "354eb54cc5f9ba02f0469d616315b735", "type": "electric_scooter", "is_disabled": 0, "lat": 38.914622666666666, "rental_uris": {"ios": "https://dc.lft.to/lastmile_qr_scan", "android": "https://dc.lft.to/lastmile_qr_scan"}, "is_reserved": 0, "fusion_lon": 0.0, "fusion_lat": 0.0, "lon": -76.98411166666666, "name": "354eb54cc5f9ba02f0469d616315b735"}, {"bike_id": "1828bb87aead7878c2d93822e90d6784", "type": "electric_scooter", "is_disabled": 0, "lat": 38.918238833333334, "rental_uris": {"ios": "https://dc.lft.to/lastmile_qr_scan", "android": "https://dc.lft.to/lastmile_qr_scan"}, "is_reserved": 0, "fusion_lon": 0.0, "fusion_lat": 0.0, "lon": -77.049405, "name": "1828bb87aead7878c2d93822e90d6784"}, {"bike_id": "48e6bba86545facc88f8f26562347f69", "type": "electric_scooter", "is_disabled": 0, "lat": 38.91542666666667, "rental_uris": {"ios": "https://dc.lft.to/lastmile_qr_scan", "android": "https://dc.lft.to/lastmile_qr_scan"}, "is_reserved": 0, "fusion_lon": 0.0, "fusion_lat": 0.0, "lon": -76.98347833333334, "name": "48e6bba86545facc88f8f26562347f69"}, {"bike_id": "6ea57816b31368b67494674fa7908db4", "type": "electric_scooter", "is_disabled": 0, "lat": 38.9170335, "rental_uris": {"ios": "https://dc.lft.to/lastmile_qr_scan", "android": "https://dc.lft.to/lastmile_qr_scan"}, "is_reserved": 0, "fusion_lon": 0.0, "fusion_lat": 0.0, "lon": -77.00656316666667, "name": "6ea57816b31368b67494674fa7908db4"}, {"bike_id": "4a7754c560531c88934bc4c13c595b36", "type": "electric_scooter", "is_disabled": 0, "lat": 38.900097333333335, "rental_uris": {"ios": "https://dc.lft.to/lastmile_qr_scan", "android": "https://dc.lft.to/lastmile_qr_scan"}, "is_reserved": 0, "fusion_lon": 0.0, "fusion_lat": 0.0, "lon": -77.041444, "name": "4a7754c560531c88934bc4c13c595b36"}, {"bike_id": "726bb8984648d4e1685137f3210bb407", "type": "electric_bike", "is_disabled": 0, "lat": 38.99089433333333, "rental_uris": {"ios": "https://dc.lft.to/lastmile_qr_scan", "android": "https://dc.lft.to/lastmile_qr_scan"}, "is_reserved": 0, "fusion_lon": 0.0, "fusion_lat": 0.0, "lon": -76.87495983333334, "name": "726bb8984648d4e1685137f3210bb407"}, {"bike_id": "0fca53868184ad3aec672a0565ed333f", "type": "electric_scooter", "is_disabled": 0, "lat": 38.900317, "rental_uris": {"ios": "https://dc.lft.to/lastmile_qr_scan", "android": "https://dc.lft.to/lastmile_qr_scan"}, "is_reserved": 0, "fusion_lon": 0.0, "fusion_lat": 0.0, "lon": -76.99728266666666, "name": "0fca53868184ad3aec672a0565ed333f"}, {"bike_id": "62f6ad969aba195fa7286d8afd7657f4", "type": "electric_scooter", "is_disabled": 0, "lat": 38.925186, "rental_uris": {"ios": "https://dc.lft.to/lastmile_qr_scan", "android": "https://dc.lft.to/lastmile_qr_scan"}, "is_reserved": 0, "fusion_lon": 0.0, "fusion_lat": 0.0, "lon": -77.0771685, "name": "62f6ad969aba195fa7286d8afd7657f4"}, {"bike_id": "ba4dbb47be4adcf7dc59de671a029c51", "type": "electric_scooter", "is_disabled": 0, "lat": 38.917814, "rental_uris": {"ios": "https://dc.lft.to/lastmile_qr_scan", "android": "https://dc.lft.to/lastmile_qr_scan"}, "is_reserved": 0, "fusion_lon": 0.0, "fusion_lat": 0.0, "lon": -77.02372933333334, "name": "ba4dbb47be4adcf7dc59de671a029c51"}, {"bike_id": "9274e6a1691f053202fa82686c55886d", "type": "electric_scooter", "is_disabled": 0, "lat": 38.901285333333334, "rental_uris": {"ios": "https://dc.lft.to/lastmile_qr_scan", "android": "https://dc.lft.to/lastmile_qr_scan"}, "is_reserved": 0, "fusion_lon": 0.0, "fusion_lat": 0.0, "lon": -77.02357633333334, "name": "9274e6a1691f053202fa82686c55886d"}, {"bike_id": "c9a92d28ad8f8e7667fe014ec2c4f460", "type": "electric_scooter", "is_disabled": 0, "lat": 38.900387333333335, "rental_uris": {"ios": "https://dc.lft.to/lastmile_qr_scan", "android": "https://dc.lft.to/lastmile_qr_scan"}, "is_reserved": 0, "fusion_lon": 0.0, "fusion_lat": 0.0, "lon": -76.919133, "name": "c9a92d28ad8f8e7667fe014ec2c4f460"}, {"bike_id": "71d02158de9d810448ebecd84db74d4b", "type": "electric_bike", "is_disabled": 0, "lat": 38.865157833333335, "rental_uris": {"ios": "https://dc.lft.to/lastmile_qr_scan", "android": "https://dc.lft.to/lastmile_qr_scan"}, "is_reserved": 0, "fusion_lon": 0.0, "fusion_lat": 0.0, "lon": -76.97348033333333, "name": "71d02158de9d810448ebecd84db74d4b"}, {"bike_id": "7ca816fb6fdc39db3df45c95aee6be46", "type": "electric_scooter", "is_disabled": 0, "lat": 38.892268666666666, "rental_uris": {"ios": "https://dc.lft.to/lastmile_qr_scan", "android": "https://dc.lft.to/lastmile_qr_scan"}, "is_reserved": 0, "fusion_lon": 0.0, "fusion_lat": 0.0, "lon": -77.04996616666666, "name": "7ca816fb6fdc39db3df45c95aee6be46"}, {"bike_id": "372375dd1f1d64f904051ac02d2302c0", "type": "electric_scooter", "is_disabled": 0, "lat": 38.888834333333335, "rental_uris": {"ios": "https://dc.lft.to/lastmile_qr_scan", "android": "https://dc.lft.to/lastmile_qr_scan"}, "is_reserved": 0, "fusion_lon": 0.0, "fusion_lat": 0.0, "lon": -76.99028516666667, "name": "372375dd1f1d64f904051ac02d2302c0"}, {"bike_id": "c27c7bfcc915177f7ca856f0eb1e64b1", "type": "electric_scooter", "is_disabled": 0, "lat": 38.874711166666664, "rental_uris": {"ios": "https://dc.lft.to/lastmile_qr_scan", "android": "https://dc.lft.to/lastmile_qr_scan"}, "is_reserved": 0, "fusion_lon": 0.0, "fusion_lat": 0.0, "lon": -77.0093775, "name": "c27c7bfcc915177f7ca856f0eb1e64b1"}, {"bike_id": "428c4a8e81eb5e4bc615f0a103547489", "type": "electric_scooter", "is_disabled": 0, "lat": 38.9049945, "rental_uris": {"ios": "https://dc.lft.to/lastmile_qr_scan", "android": "https://dc.lft.to/lastmile_qr_scan"}, "is_reserved": 0, "fusion_lon": 0.0, "fusion_lat": 0.0, "lon": -77.0600425, "name": "428c4a8e81eb5e4bc615f0a103547489"}, {"bike_id": "a12eb715f4f201ee7a8665a737cecc00", "type": "electric_scooter", "is_disabled": 0, "lat": 38.89493316666667, "rental_uris": {"ios": "https://dc.lft.to/lastmile_qr_scan", "android": "https://dc.lft.to/lastmile_qr_scan"}, "is_reserved": 0, "fusion_lon": 0.0, "fusion_lat": 0.0, "lon": -76.98841283333333, "name": "a12eb715f4f201ee7a8665a737cecc00"}, {"bike_id": "f7a45856940e14f570e9312b7bc909fc", "type": "electric_scooter", "is_disabled": 0, "lat": 38.84312766666667, "rental_uris": {"ios": "https://dc.lft.to/lastmile_qr_scan", "android": "https://dc.lft.to/lastmile_qr_scan"}, "is_reserved": 0, "fusion_lon": 0.0, "fusion_lat": 0.0, "lon": -76.99927416666667, "name": "f7a45856940e14f570e9312b7bc909fc"}, {"bike_id": "55b0ea587405ab388b0435f5d3d56161", "type": "electric_scooter", "is_disabled": 0, "lat": 38.938726833333334, "rental_uris": {"ios": "https://dc.lft.to/lastmile_qr_scan", "android": "https://dc.lft.to/lastmile_qr_scan"}, "is_reserved": 0, "fusion_lon": 0.0, "fusion_lat": 0.0, "lon": -77.02917083333334, "name": "55b0ea587405ab388b0435f5d3d56161"}, {"bike_id": "41355cb9f08423f4cc705802240c2c8d", "type": "electric_scooter", "is_disabled": 0, "lat": 38.91108666666667, "rental_uris": {"ios": "https://dc.lft.to/lastmile_qr_scan", "android": "https://dc.lft.to/lastmile_qr_scan"}, "is_reserved": 0, "fusion_lon": 0.0, "fusion_lat": 0.0, "lon": -77.0391815, "name": "41355cb9f08423f4cc705802240c2c8d"}, {"bike_id": "0c3f36d7beaa5f5f036da3703d7ed3ae", "type": "electric_scooter", "is_disabled": 0, "lat": 38.906609, "rental_uris": {"ios": "https://dc.lft.to/lastmile_qr_scan", "android": "https://dc.lft.to/lastmile_qr_scan"}, "is_reserved": 0, "fusion_lon": 0.0, "fusion_lat": 0.0, "lon": -77.01016666666666, "name": "0c3f36d7beaa5f5f036da3703d7ed3ae"}, {"bike_id": "60c240c7ac3dc0f0cb65c11ffd4193c2", "type": "electric_scooter", "is_disabled": 0, "lat": 38.893390833333335, "rental_uris": {"ios": "https://dc.lft.to/lastmile_qr_scan", "android": "https://dc.lft.to/lastmile_qr_scan"}, "is_reserved": 0, "fusion_lon": 0.0, "fusion_lat": 0.0, "lon": -77.02424983333333, "name": "60c240c7ac3dc0f0cb65c11ffd4193c2"}, {"bike_id": "fd61451bf32471dbd2f37b08770f717a", "type": "electric_scooter", "is_disabled": 0, "lat": 38.93525283333334, "rental_uris": {"ios": "https://dc.lft.to/lastmile_qr_scan", "android": "https://dc.lft.to/lastmile_qr_scan"}, "is_reserved": 0, "fusion_lon": 0.0, "fusion_lat": 0.0, "lon": -77.02965933333333, "name": "fd61451bf32471dbd2f37b08770f717a"}, {"bike_id": "38c30dce32c693a9727c142e5f1a4da0", "type": "electric_bike", "is_disabled": 0, "lat": 38.949149, "rental_uris": {"ios": "https://dc.lft.to/lastmile_qr_scan", "android": "https://dc.lft.to/lastmile_qr_scan"}, "is_reserved": 0, "fusion_lon": 0.0, "fusion_lat": 0.0, "lon": -77.00794566666667, "name": "38c30dce32c693a9727c142e5f1a4da0"}, {"bike_id": "0f1b546bd3a1fe967208f3cdaddf4012", "type": "electric_scooter", "is_disabled": 0, "lat": 38.905434, "rental_uris": {"ios": "https://dc.lft.to/lastmile_qr_scan", "android": "https://dc.lft.to/lastmile_qr_scan"}, "is_reserved": 0, "fusion_lon": 0.0, "fusion_lat": 0.0, "lon": -77.05, "name": "0f1b546bd3a1fe967208f3cdaddf4012"}, {"bike_id": "9467385497c28704c9a2665080714768", "type": "electric_scooter", "is_disabled": 0, "lat": 38.935392666666665, "rental_uris": {"ios": "https://dc.lft.to/lastmile_qr_scan", "android": "https://dc.lft.to/lastmile_qr_scan"}, "is_reserved": 0, "fusion_lon": 0.0, "fusion_lat": 0.0, "lon": -77.05825366666667, "name": "9467385497c28704c9a2665080714768"}, {"bike_id": "24233e8b1e512277c027b1561ea39e05", "type": "electric_scooter", "is_disabled": 0, "lat": 38.97207183333333, "rental_uris": {"ios": "https://dc.lft.to/lastmile_qr_scan", "android": "https://dc.lft.to/lastmile_qr_scan"}, "is_reserved": 0, "fusion_lon": 0.0, "fusion_lat": 0.0, "lon": -77.02672916666667, "name": "24233e8b1e512277c027b1561ea39e05"}, {"bike_id": "2f69e813e814f02bf88c09027c8df5ee", "type": "electric_bike", "is_disabled": 0, "lat": 38.95248133333333, "rental_uris": {"ios": "https://dc.lft.to/lastmile_qr_scan", "android": "https://dc.lft.to/lastmile_qr_scan"}, "is_reserved": 0, "fusion_lon": 0.0, "fusion_lat": 0.0, "lon": -76.97676083333333, "name": "2f69e813e814f02bf88c09027c8df5ee"}, {"bike_id": "d185d60d81a0cc85fd17c403d1f8338a", "type": "electric_scooter", "is_disabled": 0, "lat": 38.904959, "rental_uris": {"ios": "https://dc.lft.to/lastmile_qr_scan", "android": "https://dc.lft.to/lastmile_qr_scan"}, "is_reserved": 0, "fusion_lon": 0.0, "fusion_lat": 0.0, "lon": -76.9495425, "name": "d185d60d81a0cc85fd17c403d1f8338a"}, {"bike_id": "f06a96862744d6bcb161db8f1b93d348", "type": "electric_bike", "is_disabled": 0, "lat": 38.951736333333336, "rental_uris": {"ios": "https://dc.lft.to/lastmile_qr_scan", "android": "https://dc.lft.to/lastmile_qr_scan"}, "is_reserved": 0, "fusion_lon": 0.0, "fusion_lat": 0.0, "lon": -76.97732566666667, "name": "f06a96862744d6bcb161db8f1b93d348"}, {"bike_id": "987ff22b5994657408fa02b3b4e78cc6", "type": "electric_scooter", "is_disabled": 0, "lat": 38.92849016666667, "rental_uris": {"ios": "https://dc.lft.to/lastmile_qr_scan", "android": "https://dc.lft.to/lastmile_qr_scan"}, "is_reserved": 0, "fusion_lon": 0.0, "fusion_lat": 0.0, "lon": -77.01948866666666, "name": "987ff22b5994657408fa02b3b4e78cc6"}, {"bike_id": "1784d963425b478510e17a57e0d15154", "type": "electric_scooter", "is_disabled": 0, "lat": 38.9286065, "rental_uris": {"ios": "https://dc.lft.to/lastmile_qr_scan", "android": "https://dc.lft.to/lastmile_qr_scan"}, "is_reserved": 0, "fusion_lon": 0.0, "fusion_lat": 0.0, "lon": -77.0138615, "name": "1784d963425b478510e17a57e0d15154"}, {"bike_id": "14895fc6e4434b21f4058fdf920286aa", "type": "electric_scooter", "is_disabled": 0, "lat": 38.90485533333333, "rental_uris": {"ios": "https://dc.lft.to/lastmile_qr_scan", "android": "https://dc.lft.to/lastmile_qr_scan"}, "is_reserved": 0, "fusion_lon": 0.0, "fusion_lat": 0.0, "lon": -77.04114983333334, "name": "14895fc6e4434b21f4058fdf920286aa"}, {"bike_id": "0d20f19b33d4551d0f19e2cb6a693e6b", "type": "electric_scooter", "is_disabled": 0, "lat": 38.94114166666667, "rental_uris": {"ios": "https://dc.lft.to/lastmile_qr_scan", "android": "https://dc.lft.to/lastmile_qr_scan"}, "is_reserved": 0, "fusion_lon": 0.0, "fusion_lat": 0.0, "lon": -77.0254185, "name": "0d20f19b33d4551d0f19e2cb6a693e6b"}, {"bike_id": "055b1e249bef2c3e7461bde3a55c2962", "type": "electric_scooter", "is_disabled": 0, "lat": 38.871525, "rental_uris": {"ios": "https://dc.lft.to/lastmile_qr_scan", "android": "https://dc.lft.to/lastmile_qr_scan"}, "is_reserved": 0, "fusion_lon": 0.0, "fusion_lat": 0.0, "lon": -76.97747216666667, "name": "055b1e249bef2c3e7461bde3a55c2962"}, {"bike_id": "4172b10cc898f21f9b883b4ba50fe9ce", "type": "electric_scooter", "is_disabled": 0, "lat": 38.9103615, "rental_uris": {"ios": "https://dc.lft.to/lastmile_qr_scan", "android": "https://dc.lft.to/lastmile_qr_scan"}, "is_reserved": 0, "fusion_lon": 0.0, "fusion_lat": 0.0, "lon": -77.01282166666667, "name": "4172b10cc898f21f9b883b4ba50fe9ce"}, {"bike_id": "934a7a5fc7a8ffcbfd652fb8d1a198b7", "type": "electric_scooter", "is_disabled": 0, "lat": 38.935841, "rental_uris": {"ios": "https://dc.lft.to/lastmile_qr_scan", "android": "https://dc.lft.to/lastmile_qr_scan"}, "is_reserved": 0, "fusion_lon": 0.0, "fusion_lat": 0.0, "lon": -77.03804683333334, "name": "934a7a5fc7a8ffcbfd652fb8d1a198b7"}, {"bike_id": "94adadd0d3ff26ceb857582cf4192718", "type": "electric_scooter", "is_disabled": 0, "lat": 38.89984466666667, "rental_uris": {"ios": "https://dc.lft.to/lastmile_qr_scan", "android": "https://dc.lft.to/lastmile_qr_scan"}, "is_reserved": 0, "fusion_lon": 0.0, "fusion_lat": 0.0, "lon": -77.0554975, "name": "94adadd0d3ff26ceb857582cf4192718"}, {"bike_id": "b378ca0b90a084917822eef616e739f7", "type": "electric_scooter", "is_disabled": 0, "lat": 38.911880333333336, "rental_uris": {"ios": "https://dc.lft.to/lastmile_qr_scan", "android": "https://dc.lft.to/lastmile_qr_scan"}, "is_reserved": 0, "fusion_lon": 0.0, "fusion_lat": 0.0, "lon": -77.01892866666667, "name": "b378ca0b90a084917822eef616e739f7"}, {"bike_id": "3e903fbd383de260174e599547d3e0c4", "type": "electric_bike", "is_disabled": 0, "lat": 38.89205483333333, "rental_uris": {"ios": "https://dc.lft.to/lastmile_qr_scan", "android": "https://dc.lft.to/lastmile_qr_scan"}, "is_reserved": 0, "fusion_lon": 0.0, "fusion_lat": 0.0, "lon": -76.97680816666667, "name": "3e903fbd383de260174e599547d3e0c4"}, {"bike_id": "a264a42512d2a3cb30cb3a75fff0b389", "type": "electric_scooter", "is_disabled": 0, "lat": 38.93542466666667, "rental_uris": {"ios": "https://dc.lft.to/lastmile_qr_scan", "android": "https://dc.lft.to/lastmile_qr_scan"}, "is_reserved": 0, "fusion_lon": 0.0, "fusion_lat": 0.0, "lon": -77.054263, "name": "a264a42512d2a3cb30cb3a75fff0b389"}, {"bike_id": "153ad2b9f09636455ed0c383e8edf336", "type": "electric_scooter", "is_disabled": 0, "lat": 38.951129, "rental_uris": {"ios": "https://dc.lft.to/lastmile_qr_scan", "android": "https://dc.lft.to/lastmile_qr_scan"}, "is_reserved": 0, "fusion_lon": 0.0, "fusion_lat": 0.0, "lon": -77.01432716666666, "name": "153ad2b9f09636455ed0c383e8edf336"}, {"bike_id": "7cb573e85dad85dfa8e6bde0bf903bf1", "type": "electric_scooter", "is_disabled": 0, "lat": 38.866955, "rental_uris": {"ios": "https://dc.lft.to/lastmile_qr_scan", "android": "https://dc.lft.to/lastmile_qr_scan"}, "is_reserved": 0, "fusion_lon": 0.0, "fusion_lat": 0.0, "lon": -76.98575433333333, "name": "7cb573e85dad85dfa8e6bde0bf903bf1"}, {"bike_id": "a601bb046d1b26bdede1ef3a5557a099", "type": "electric_bike", "is_disabled": 0, "lat": 38.858722666666665, "rental_uris": {"ios": "https://dc.lft.to/lastmile_qr_scan", "android": "https://dc.lft.to/lastmile_qr_scan"}, "is_reserved": 0, "fusion_lon": 0.0, "fusion_lat": 0.0, "lon": -77.09558266666667, "name": "a601bb046d1b26bdede1ef3a5557a099"}, {"bike_id": "471454f0f19b4cd2365e8c5d4efcf060", "type": "electric_scooter", "is_disabled": 0, "lat": 38.926143, "rental_uris": {"ios": "https://dc.lft.to/lastmile_qr_scan", "android": "https://dc.lft.to/lastmile_qr_scan"}, "is_reserved": 0, "fusion_lon": 0.0, "fusion_lat": 0.0, "lon": -77.04325516666667, "name": "471454f0f19b4cd2365e8c5d4efcf060"}, {"bike_id": "1d4af2d2dca0c32909439028364d8ef7", "type": "electric_scooter", "is_disabled": 0, "lat": 38.91250516666667, "rental_uris": {"ios": "https://dc.lft.to/lastmile_qr_scan", "android": "https://dc.lft.to/lastmile_qr_scan"}, "is_reserved": 0, "fusion_lon": 0.0, "fusion_lat": 0.0, "lon": -77.038604, "name": "1d4af2d2dca0c32909439028364d8ef7"}, {"bike_id": "9b56d028671c94fb38aeb3739e481329", "type": "electric_scooter", "is_disabled": 0, "lat": 38.8949785, "rental_uris": {"ios": "https://dc.lft.to/lastmile_qr_scan", "android": "https://dc.lft.to/lastmile_qr_scan"}, "is_reserved": 0, "fusion_lon": 0.0, "fusion_lat": 0.0, "lon": -76.934825, "name": "9b56d028671c94fb38aeb3739e481329"}, {"bike_id": "cae835720caa8753f5b500e58ea1d3ef", "type": "electric_scooter", "is_disabled": 0, "lat": 38.9253715, "rental_uris": {"ios": "https://dc.lft.to/lastmile_qr_scan", "android": "https://dc.lft.to/lastmile_qr_scan"}, "is_reserved": 0, "fusion_lon": 0.0, "fusion_lat": 0.0, "lon": -77.03357333333334, "name": "cae835720caa8753f5b500e58ea1d3ef"}, {"bike_id": "3c27d367fd47084fb7c4f0742890088b", "type": "electric_scooter", "is_disabled": 0, "lat": 38.914948333333335, "rental_uris": {"ios": "https://dc.lft.to/lastmile_qr_scan", "android": "https://dc.lft.to/lastmile_qr_scan"}, "is_reserved": 0, "fusion_lon": 0.0, "fusion_lat": 0.0, "lon": -76.98359416666666, "name": "3c27d367fd47084fb7c4f0742890088b"}, {"bike_id": "11446044ff300ec0ba9202e3e0388ae5", "type": "electric_scooter", "is_disabled": 0, "lat": 38.915128333333335, "rental_uris": {"ios": "https://dc.lft.to/lastmile_qr_scan", "android": "https://dc.lft.to/lastmile_qr_scan"}, "is_reserved": 0, "fusion_lon": 0.0, "fusion_lat": 0.0, "lon": -77.02290116666667, "name": "11446044ff300ec0ba9202e3e0388ae5"}, {"bike_id": "22c810a33f5d6ac97f2582281f82e0ed", "type": "electric_bike", "is_disabled": 0, "lat": 38.99531733333333, "rental_uris": {"ios": "https://dc.lft.to/lastmile_qr_scan", "android": "https://dc.lft.to/lastmile_qr_scan"}, "is_reserved": 0, "fusion_lon": 0.0, "fusion_lat": 0.0, "lon": -77.06945066666667, "name": "22c810a33f5d6ac97f2582281f82e0ed"}, {"bike_id": "873c01a1712490ffc65b0cf51f304209", "type": "electric_scooter", "is_disabled": 0, "lat": 38.90820766666667, "rental_uris": {"ios": "https://dc.lft.to/lastmile_qr_scan", "android": "https://dc.lft.to/lastmile_qr_scan"}, "is_reserved": 0, "fusion_lon": 0.0, "fusion_lat": 0.0, "lon": -77.03860733333333, "name": "873c01a1712490ffc65b0cf51f304209"}, {"bike_id": "e34956c4f13b674ff0284975f72dda85", "type": "electric_scooter", "is_disabled": 0, "lat": 38.902949166666666, "rental_uris": {"ios": "https://dc.lft.to/lastmile_qr_scan", "android": "https://dc.lft.to/lastmile_qr_scan"}, "is_reserved": 0, "fusion_lon": 0.0, "fusion_lat": 0.0, "lon": -77.024371, "name": "e34956c4f13b674ff0284975f72dda85"}, {"bike_id": "a61b5b2687bf0ce51615a908f7bf916b", "type": "electric_scooter", "is_disabled": 0, "lat": 38.92076816666667, "rental_uris": {"ios": "https://dc.lft.to/lastmile_qr_scan", "android": "https://dc.lft.to/lastmile_qr_scan"}, "is_reserved": 0, "fusion_lon": 0.0, "fusion_lat": 0.0, "lon": -77.01451416666667, "name": "a61b5b2687bf0ce51615a908f7bf916b"}, {"bike_id": "c1f6f6151923fd1ddf11d3d8a3cd48ad", "type": "electric_scooter", "is_disabled": 0, "lat": 38.866852333333334, "rental_uris": {"ios": "https://dc.lft.to/lastmile_qr_scan", "android": "https://dc.lft.to/lastmile_qr_scan"}, "is_reserved": 0, "fusion_lon": 0.0, "fusion_lat": 0.0, "lon": -76.98588366666667, "name": "c1f6f6151923fd1ddf11d3d8a3cd48ad"}, {"bike_id": "17d518e0f5e1918594eda751117f7992", "type": "electric_scooter", "is_disabled": 0, "lat": 38.908871, "rental_uris": {"ios": "https://dc.lft.to/lastmile_qr_scan", "android": "https://dc.lft.to/lastmile_qr_scan"}, "is_reserved": 0, "fusion_lon": 0.0, "fusion_lat": 0.0, "lon": -76.99854783333333, "name": "17d518e0f5e1918594eda751117f7992"}, {"bike_id": "955c4e4eb461d621276d6f43a6be566a", "type": "electric_scooter", "is_disabled": 0, "lat": 38.905653, "rental_uris": {"ios": "https://dc.lft.to/lastmile_qr_scan", "android": "https://dc.lft.to/lastmile_qr_scan"}, "is_reserved": 0, "fusion_lon": 0.0, "fusion_lat": 0.0, "lon": -77.02833483333333, "name": "955c4e4eb461d621276d6f43a6be566a"}, {"bike_id": "8904c793eca804983fecaebef51b183d", "type": "electric_scooter", "is_disabled": 0, "lat": 38.937047, "rental_uris": {"ios": "https://dc.lft.to/lastmile_qr_scan", "android": "https://dc.lft.to/lastmile_qr_scan"}, "is_reserved": 0, "fusion_lon": 0.0, "fusion_lat": 0.0, "lon": -77.032804, "name": "8904c793eca804983fecaebef51b183d"}, {"bike_id": "a1226faa9c13d726a6c31631d6f193d0", "type": "electric_scooter", "is_disabled": 0, "lat": 38.8847815, "rental_uris": {"ios": "https://dc.lft.to/lastmile_qr_scan", "android": "https://dc.lft.to/lastmile_qr_scan"}, "is_reserved": 0, "fusion_lon": 0.0, "fusion_lat": 0.0, "lon": -77.02366833333333, "name": "a1226faa9c13d726a6c31631d6f193d0"}, {"bike_id": "773d5e7df7d988b15eada8c14365706a", "type": "electric_scooter", "is_disabled": 0, "lat": 38.90265633333333, "rental_uris": {"ios": "https://dc.lft.to/lastmile_qr_scan", "android": "https://dc.lft.to/lastmile_qr_scan"}, "is_reserved": 0, "fusion_lon": 0.0, "fusion_lat": 0.0, "lon": -77.00329766666667, "name": "773d5e7df7d988b15eada8c14365706a"}, {"bike_id": "47dcf35d1a118970af0b84115f03b761", "type": "electric_scooter", "is_disabled": 0, "lat": 38.902718166666666, "rental_uris": {"ios": "https://dc.lft.to/lastmile_qr_scan", "android": "https://dc.lft.to/lastmile_qr_scan"}, "is_reserved": 0, "fusion_lon": 0.0, "fusion_lat": 0.0, "lon": -77.0383915, "name": "47dcf35d1a118970af0b84115f03b761"}, {"bike_id": "f869cadde642b4d98f3b2aa420c9e6d6", "type": "electric_bike", "is_disabled": 0, "lat": 38.9411555, "rental_uris": {"ios": "https://dc.lft.to/lastmile_qr_scan", "android": "https://dc.lft.to/lastmile_qr_scan"}, "is_reserved": 0, "fusion_lon": 0.0, "fusion_lat": 0.0, "lon": -77.06195233333334, "name": "f869cadde642b4d98f3b2aa420c9e6d6"}, {"bike_id": "4843cedbc724120e9ba9d375707a6b14", "type": "electric_scooter", "is_disabled": 0, "lat": 38.90024233333333, "rental_uris": {"ios": "https://dc.lft.to/lastmile_qr_scan", "android": "https://dc.lft.to/lastmile_qr_scan"}, "is_reserved": 0, "fusion_lon": 0.0, "fusion_lat": 0.0, "lon": -77.03509233333334, "name": "4843cedbc724120e9ba9d375707a6b14"}, {"bike_id": "9d17fc4038cc5d1f4f8869a07189977c", "type": "electric_scooter", "is_disabled": 0, "lat": 38.90599316666667, "rental_uris": {"ios": "https://dc.lft.to/lastmile_qr_scan", "android": "https://dc.lft.to/lastmile_qr_scan"}, "is_reserved": 0, "fusion_lon": 0.0, "fusion_lat": 0.0, "lon": -77.0411645, "name": "9d17fc4038cc5d1f4f8869a07189977c"}, {"bike_id": "471759f5418b926c264781417420794c", "type": "electric_scooter", "is_disabled": 0, "lat": 38.929714, "rental_uris": {"ios": "https://dc.lft.to/lastmile_qr_scan", "android": "https://dc.lft.to/lastmile_qr_scan"}, "is_reserved": 0, "fusion_lon": 0.0, "fusion_lat": 0.0, "lon": -77.0168385, "name": "471759f5418b926c264781417420794c"}, {"bike_id": "a9d60333a853e453b104b012a236e223", "type": "electric_scooter", "is_disabled": 0, "lat": 38.905811666666665, "rental_uris": {"ios": "https://dc.lft.to/lastmile_qr_scan", "android": "https://dc.lft.to/lastmile_qr_scan"}, "is_reserved": 0, "fusion_lon": 0.0, "fusion_lat": 0.0, "lon": -77.0301955, "name": "a9d60333a853e453b104b012a236e223"}, {"bike_id": "952c37b1aeed479eea849bde55a44c8a", "type": "electric_scooter", "is_disabled": 0, "lat": 38.92322433333333, "rental_uris": {"ios": "https://dc.lft.to/lastmile_qr_scan", "android": "https://dc.lft.to/lastmile_qr_scan"}, "is_reserved": 0, "fusion_lon": 0.0, "fusion_lat": 0.0, "lon": -77.0358975, "name": "952c37b1aeed479eea849bde55a44c8a"}, {"bike_id": "95db3e9409270f9d94b7fed0f4ed9d40", "type": "electric_scooter", "is_disabled": 0, "lat": 38.92040766666667, "rental_uris": {"ios": "https://dc.lft.to/lastmile_qr_scan", "android": "https://dc.lft.to/lastmile_qr_scan"}, "is_reserved": 0, "fusion_lon": 0.0, "fusion_lat": 0.0, "lon": -77.02437366666666, "name": "95db3e9409270f9d94b7fed0f4ed9d40"}, {"bike_id": "811c25beec63bed6e2147c62a92dc0ac", "type": "electric_scooter", "is_disabled": 0, "lat": 38.8707145, "rental_uris": {"ios": "https://dc.lft.to/lastmile_qr_scan", "android": "https://dc.lft.to/lastmile_qr_scan"}, "is_reserved": 0, "fusion_lon": 0.0, "fusion_lat": 0.0, "lon": -76.9890435, "name": "811c25beec63bed6e2147c62a92dc0ac"}, {"bike_id": "d1968cf0f758bdbab8a840a5a70f4ed4", "type": "electric_scooter", "is_disabled": 0, "lat": 38.91349666666667, "rental_uris": {"ios": "https://dc.lft.to/lastmile_qr_scan", "android": "https://dc.lft.to/lastmile_qr_scan"}, "is_reserved": 0, "fusion_lon": 0.0, "fusion_lat": 0.0, "lon": -77.045097, "name": "d1968cf0f758bdbab8a840a5a70f4ed4"}, {"bike_id": "1cbe951feee91348998795aeca696027", "type": "electric_scooter", "is_disabled": 0, "lat": 38.89713616666667, "rental_uris": {"ios": "https://dc.lft.to/lastmile_qr_scan", "android": "https://dc.lft.to/lastmile_qr_scan"}, "is_reserved": 0, "fusion_lon": 0.0, "fusion_lat": 0.0, "lon": -77.03313383333334, "name": "1cbe951feee91348998795aeca696027"}, {"bike_id": "05e198d2dcf03ecf59aa23b77bf4632c", "type": "electric_scooter", "is_disabled": 0, "lat": 38.92524016666667, "rental_uris": {"ios": "https://dc.lft.to/lastmile_qr_scan", "android": "https://dc.lft.to/lastmile_qr_scan"}, "is_reserved": 0, "fusion_lon": 0.0, "fusion_lat": 0.0, "lon": -77.04096533333333, "name": "05e198d2dcf03ecf59aa23b77bf4632c"}, {"bike_id": "4a1a8f4a212cfb4d63a936862752b4b4", "type": "electric_scooter", "is_disabled": 0, "lat": 38.90330816666667, "rental_uris": {"ios": "https://dc.lft.to/lastmile_qr_scan", "android": "https://dc.lft.to/lastmile_qr_scan"}, "is_reserved": 0, "fusion_lon": 0.0, "fusion_lat": 0.0, "lon": -76.97586166666666, "name": "4a1a8f4a212cfb4d63a936862752b4b4"}, {"bike_id": "33c8f16edecbd832db0890cb0942bfee", "type": "electric_scooter", "is_disabled": 0, "lat": 38.93232066666667, "rental_uris": {"ios": "https://dc.lft.to/lastmile_qr_scan", "android": "https://dc.lft.to/lastmile_qr_scan"}, "is_reserved": 0, "fusion_lon": 0.0, "fusion_lat": 0.0, "lon": -77.03387616666667, "name": "33c8f16edecbd832db0890cb0942bfee"}, {"bike_id": "f089e7fec98424241f1982c08f18344e", "type": "electric_scooter", "is_disabled": 0, "lat": 38.9207635, "rental_uris": {"ios": "https://dc.lft.to/lastmile_qr_scan", "android": "https://dc.lft.to/lastmile_qr_scan"}, "is_reserved": 0, "fusion_lon": 0.0, "fusion_lat": 0.0, "lon": -77.025367, "name": "f089e7fec98424241f1982c08f18344e"}, {"bike_id": "df30e55a21072792370c19df40c12711", "type": "electric_scooter", "is_disabled": 0, "lat": 38.90307166666667, "rental_uris": {"ios": "https://dc.lft.to/lastmile_qr_scan", "android": "https://dc.lft.to/lastmile_qr_scan"}, "is_reserved": 0, "fusion_lon": 0.0, "fusion_lat": 0.0, "lon": -76.98356116666666, "name": "df30e55a21072792370c19df40c12711"}, {"bike_id": "ddae5cdae8234d973d54f1d62426432e", "type": "electric_scooter", "is_disabled": 0, "lat": 38.900388666666665, "rental_uris": {"ios": "https://dc.lft.to/lastmile_qr_scan", "android": "https://dc.lft.to/lastmile_qr_scan"}, "is_reserved": 0, "fusion_lon": 0.0, "fusion_lat": 0.0, "lon": -77.00097266666667, "name": "ddae5cdae8234d973d54f1d62426432e"}, {"bike_id": "43a43d35b084a9ad9b79eefdc9e63ae0", "type": "electric_scooter", "is_disabled": 0, "lat": 38.9073815, "rental_uris": {"ios": "https://dc.lft.to/lastmile_qr_scan", "android": "https://dc.lft.to/lastmile_qr_scan"}, "is_reserved": 0, "fusion_lon": 0.0, "fusion_lat": 0.0, "lon": -77.04494016666666, "name": "43a43d35b084a9ad9b79eefdc9e63ae0"}, {"bike_id": "139b96ac81a856589476f311b3545881", "type": "electric_scooter", "is_disabled": 0, "lat": 38.9233025, "rental_uris": {"ios": "https://dc.lft.to/lastmile_qr_scan", "android": "https://dc.lft.to/lastmile_qr_scan"}, "is_reserved": 0, "fusion_lon": 0.0, "fusion_lat": 0.0, "lon": -77.04306133333333, "name": "139b96ac81a856589476f311b3545881"}, {"bike_id": "90938c727346d7962392b974130acd9c", "type": "electric_scooter", "is_disabled": 0, "lat": 38.91036783333333, "rental_uris": {"ios": "https://dc.lft.to/lastmile_qr_scan", "android": "https://dc.lft.to/lastmile_qr_scan"}, "is_reserved": 0, "fusion_lon": 0.0, "fusion_lat": 0.0, "lon": -77.03825383333333, "name": "90938c727346d7962392b974130acd9c"}, {"bike_id": "254779288afe4791487b7701d85cc828", "type": "electric_scooter", "is_disabled": 0, "lat": 38.935300166666664, "rental_uris": {"ios": "https://dc.lft.to/lastmile_qr_scan", "android": "https://dc.lft.to/lastmile_qr_scan"}, "is_reserved": 0, "fusion_lon": 0.0, "fusion_lat": 0.0, "lon": -77.023468, "name": "254779288afe4791487b7701d85cc828"}, {"bike_id": "85c9c1e9d2e741c2aa671b28e9f537ab", "type": "electric_scooter", "is_disabled": 0, "lat": 38.896679166666665, "rental_uris": {"ios": "https://dc.lft.to/lastmile_qr_scan", "android": "https://dc.lft.to/lastmile_qr_scan"}, "is_reserved": 0, "fusion_lon": 0.0, "fusion_lat": 0.0, "lon": -76.988156, "name": "85c9c1e9d2e741c2aa671b28e9f537ab"}, {"bike_id": "6d6a5f5cf2a8d24d701bfd247125b776", "type": "electric_scooter", "is_disabled": 0, "lat": 38.91706583333333, "rental_uris": {"ios": "https://dc.lft.to/lastmile_qr_scan", "android": "https://dc.lft.to/lastmile_qr_scan"}, "is_reserved": 0, "fusion_lon": 0.0, "fusion_lat": 0.0, "lon": -77.027353, "name": "6d6a5f5cf2a8d24d701bfd247125b776"}, {"bike_id": "ce2bc05c881b08d68ec1b329d5afa9b9", "type": "electric_scooter", "is_disabled": 0, "lat": 38.88129983333333, "rental_uris": {"ios": "https://dc.lft.to/lastmile_qr_scan", "android": "https://dc.lft.to/lastmile_qr_scan"}, "is_reserved": 0, "fusion_lon": 0.0, "fusion_lat": 0.0, "lon": -77.01652033333333, "name": "ce2bc05c881b08d68ec1b329d5afa9b9"}, {"bike_id": "fc4ea48e61f6ebeb84906b6e4deaabbd", "type": "electric_scooter", "is_disabled": 0, "lat": 38.934510333333336, "rental_uris": {"ios": "https://dc.lft.to/lastmile_qr_scan", "android": "https://dc.lft.to/lastmile_qr_scan"}, "is_reserved": 0, "fusion_lon": 0.0, "fusion_lat": 0.0, "lon": -77.03048666666666, "name": "fc4ea48e61f6ebeb84906b6e4deaabbd"}, {"bike_id": "84aaf54ea5ba1210169642783a2bad06", "type": "electric_scooter", "is_disabled": 0, "lat": 38.91691566666667, "rental_uris": {"ios": "https://dc.lft.to/lastmile_qr_scan", "android": "https://dc.lft.to/lastmile_qr_scan"}, "is_reserved": 0, "fusion_lon": 0.0, "fusion_lat": 0.0, "lon": -77.0398185, "name": "84aaf54ea5ba1210169642783a2bad06"}, {"bike_id": "3d095ad12fab6ed47ca97e65d90aeee2", "type": "electric_scooter", "is_disabled": 0, "lat": 38.906718, "rental_uris": {"ios": "https://dc.lft.to/lastmile_qr_scan", "android": "https://dc.lft.to/lastmile_qr_scan"}, "is_reserved": 0, "fusion_lon": 0.0, "fusion_lat": 0.0, "lon": -77.07170516666666, "name": "3d095ad12fab6ed47ca97e65d90aeee2"}, {"bike_id": "09b3febc69b57de82e08ffc3172bb743", "type": "electric_bike", "is_disabled": 0, "lat": 38.934603, "rental_uris": {"ios": "https://dc.lft.to/lastmile_qr_scan", "android": "https://dc.lft.to/lastmile_qr_scan"}, "is_reserved": 0, "fusion_lon": 0.0, "fusion_lat": 0.0, "lon": -77.02720766666667, "name": "09b3febc69b57de82e08ffc3172bb743"}, {"bike_id": "920e68d370be8bfff2a16190922489bd", "type": "electric_scooter", "is_disabled": 0, "lat": 38.9032975, "rental_uris": {"ios": "https://dc.lft.to/lastmile_qr_scan", "android": "https://dc.lft.to/lastmile_qr_scan"}, "is_reserved": 0, "fusion_lon": 0.0, "fusion_lat": 0.0, "lon": -77.036642, "name": "920e68d370be8bfff2a16190922489bd"}, {"bike_id": "f79c333ce49818496795a5394075c603", "type": "electric_scooter", "is_disabled": 0, "lat": 38.9052975, "rental_uris": {"ios": "https://dc.lft.to/lastmile_qr_scan", "android": "https://dc.lft.to/lastmile_qr_scan"}, "is_reserved": 0, "fusion_lon": 0.0, "fusion_lat": 0.0, "lon": -77.059347, "name": "f79c333ce49818496795a5394075c603"}, {"bike_id": "69394f26d051f1fd80b945bf6836c234", "type": "electric_scooter", "is_disabled": 0, "lat": 38.90341316666667, "rental_uris": {"ios": "https://dc.lft.to/lastmile_qr_scan", "android": "https://dc.lft.to/lastmile_qr_scan"}, "is_reserved": 0, "fusion_lon": 0.0, "fusion_lat": 0.0, "lon": -77.05299416666666, "name": "69394f26d051f1fd80b945bf6836c234"}, {"bike_id": "4c5fe9d49f1ca8794f1dcc2bae8a4ff4", "type": "electric_scooter", "is_disabled": 0, "lat": 38.909501166666665, "rental_uris": {"ios": "https://dc.lft.to/lastmile_qr_scan", "android": "https://dc.lft.to/lastmile_qr_scan"}, "is_reserved": 0, "fusion_lon": 0.0, "fusion_lat": 0.0, "lon": -77.04498766666667, "name": "4c5fe9d49f1ca8794f1dcc2bae8a4ff4"}, {"bike_id": "2f3d4a8190c7263e1f600e76fe9a9572", "type": "electric_scooter", "is_disabled": 0, "lat": 38.8970195, "rental_uris": {"ios": "https://dc.lft.to/lastmile_qr_scan", "android": "https://dc.lft.to/lastmile_qr_scan"}, "is_reserved": 0, "fusion_lon": 0.0, "fusion_lat": 0.0, "lon": -76.92999983333333, "name": "2f3d4a8190c7263e1f600e76fe9a9572"}, {"bike_id": "26e06c3fca303e4efd7597ebbf48e970", "type": "electric_scooter", "is_disabled": 0, "lat": 38.901471666666666, "rental_uris": {"ios": "https://dc.lft.to/lastmile_qr_scan", "android": "https://dc.lft.to/lastmile_qr_scan"}, "is_reserved": 0, "fusion_lon": 0.0, "fusion_lat": 0.0, "lon": -76.99026083333334, "name": "26e06c3fca303e4efd7597ebbf48e970"}, {"bike_id": "782ac98e24274fbebb339428df1ebe5c", "type": "electric_scooter", "is_disabled": 0, "lat": 38.914538666666665, "rental_uris": {"ios": "https://dc.lft.to/lastmile_qr_scan", "android": "https://dc.lft.to/lastmile_qr_scan"}, "is_reserved": 0, "fusion_lon": 0.0, "fusion_lat": 0.0, "lon": -77.022021, "name": "782ac98e24274fbebb339428df1ebe5c"},