{"data": {"bikes": [{"bike_id": "1d4b382f7933bea03f906b91b6c78b2f", "is_reserved": 0, "fusion_lon": 0.0, "lat": 38.917080166666665, "is_disabled": 0, "name": "1d4b382f7933bea03f906b91b6c78b2f", "fusion_lat": 0.0, "rental_uris": {"ios": "https://dc.lft.to/lastmile_qr_scan", "android": "https://dc.lft.to/lastmile_qr_scan"}, "lon": -77.03214183333333, "type": "electric_scooter"}, {"bike_id": "90928a2aa0430bafd8987d710b70de6f", "is_reserved": 0, "fusion_lon": 0.0, "lat": 38.89548, "is_disabled": 0, "name": "90928a2aa0430bafd8987d710b70de6f", "fusion_lat": 0.0, "rental_uris": {"ios": "https://dc.lft.to/lastmile_qr_scan", "android": "https://dc.lft.to/lastmile_qr_scan"}, "lon": -77.011018, "type": "electric_scooter"}, {"bike_id": "7fc0b281cc1baa07a01567d03e9af7a4", "is_reserved": 0, "fusion_lon": 0.0, "lat": 38.90639433333333, "is_disabled": 0, "name": "7fc0b281cc1baa07a01567d03e9af7a4", "fusion_lat": 0.0, "rental_uris": {"ios": "https://dc.lft.to/lastmile_qr_scan", "android": "https://dc.lft.to/lastmile_qr_scan"}, "lon": -77.04644333333333, "type": "electric_scooter"}, {"bike_id": "d1e337ace2721945552f814b94b643e6", "is_reserved": 0, "fusion_lon": 0.0, "lat": 38.92364083333333, "is_disabled": 0, "name": "d1e337ace2721945552f814b94b643e6", "fusion_lat": 0.0, "rental_uris": {"ios": "https://dc.lft.to/lastmile_qr_scan", "android": "https://dc.lft.to/lastmile_qr_scan"}, "lon": -77.041255, "type": "electric_scooter"}, {"bike_id": "a1da860f983a90aa42b669e64de0cd63", "is_reserved": 0, "fusion_lon": 0.0, "lat": 39.056344333333335, "is_disabled": 0, "name": "a1da860f983a90aa42b669e64de0cd63", "fusion_lat": 0.0, "rental_uris": {"ios": "https://dc.lft.to/lastmile_qr_scan", "android": "https://dc.lft.to/lastmile_qr_scan"}, "lon": -77.125289, "type": "electric_bike"}, {"bike_id": "05ddca870a7837cc9e6b8041bdee3ce0", "is_reserved": 0, "fusion_lon": 0.0, "lat": 38.892359166666665, "is_disabled": 0, "name": "05ddca870a7837cc9e6b8041bdee3ce0", "fusion_lat": 0.0, "rental_uris": {"ios": "https://dc.lft.to/lastmile_qr_scan", "android": "https://dc.lft.to/lastmile_qr_scan"}, "lon": -77.02174866666667, "type": "electric_scooter"}, {"bike_id": "c9c7b55f59190cf7033097c7020bd4af", "is_reserved": 0, "fusion_lon": 0.0, "lat": 38.88513833333333, "is_disabled": 0, "name": "c9c7b55f59190cf7033097c7020bd4af", "fusion_lat": 0.0, "rental_uris": {"ios": "https://dc.lft.to/lastmile_qr_scan", "android": "https://dc.lft.to/lastmile_qr_scan"}, "lon": -77.00572883333334, "type": "electric_scooter"}, {"bike_id": "e31712d1218ca2df3321dc911d73c71f", "is_reserved": 0, "fusion_lon": 0.0, "lat": 38.916807, "is_disabled": 0, "name": "e31712d1218ca2df3321dc911d73c71f", "fusion_lat": 0.0, "rental_uris": {"ios": "https://dc.lft.to/lastmile_qr_scan", "android": "https://dc.lft.to/lastmile_qr_scan"}, "lon": -77.03185733333333, "type": "electric_scooter"}, {"bike_id": "8b68cf629eb2b2ab03413e5bc7346013", "is_reserved": 0, "fusion_lon": 0.0, "lat": 38.896217166666666, "is_disabled": 0, "name": "8b68cf629eb2b2ab03413e5bc7346013", "fusion_lat": 0.0, "rental_uris": {"ios": "https://dc.lft.to/lastmile_qr_scan", "android": "https://dc.lft.to/lastmile_qr_scan"}, "lon": -76.99847566666666, "type": "electric_scooter"}, {"bike_id": "649cb953b95ac8beaf99d889a5044cc2", "is_reserved": 0, "fusion_lon": 0.0, "lat": 38.8974445, "is_disabled": 0, "name": "649cb953b95ac8beaf99d889a5044cc2", "fusion_lat": 0.0, "rental_uris": {"ios": "https://dc.lft.to/lastmile_qr_scan", "android": "https://dc.lft.to/lastmile_qr_scan"}, "lon": -77.04495683333333, "type": "electric_scooter"}, {"bike_id": "ae6b8db3e26afbe4f96865b046e74b77", "is_reserved": 0, "fusion_lon": 0.0, "lat": 38.905050333333335, "is_disabled": 0, "name": "ae6b8db3e26afbe4f96865b046e74b77", "fusion_lat": 0.0, "rental_uris": {"ios": "https://dc.lft.to/lastmile_qr_scan", "android": "https://dc.lft.to/lastmile_qr_scan"}, "lon": -76.990185, "type": "electric_scooter"}, {"bike_id": "0272cd31597c0c7609d8ad21ecb12c4a", "is_reserved": 0, "fusion_lon": 0.0, "lat": 38.920253833333334, "is_disabled": 0, "name": "0272cd31597c0c7609d8ad21ecb12c4a", "fusion_lat": 0.0, "rental_uris": {"ios": "https://dc.lft.to/lastmile_qr_scan", "android": "https://dc.lft.to/lastmile_qr_scan"}, "lon": -77.018007, "type": "electric_scooter"}, {"bike_id": "8ea01d8a55772f69bdcf75c63befbaf6", "is_reserved": 0, "fusion_lon": 0.0, "lat": 38.90675533333334, "is_disabled": 0, "name": "8ea01d8a55772f69bdcf75c63befbaf6", "fusion_lat": 0.0, "rental_uris": {"ios": "https://dc.lft.to/lastmile_qr_scan", "android": "https://dc.lft.to/lastmile_qr_scan"}, "lon": -77.0003765, "type": "electric_scooter"}, {"bike_id": "8942577c4d658c1e2b421a76c5cf57b1", "is_reserved": 0, "fusion_lon": 0.0, "lat": 38.892238, "is_disabled": 0, "name": "8942577c4d658c1e2b421a76c5cf57b1", "fusion_lat": 0.0, "rental_uris": {"ios": "https://dc.lft.to/lastmile_qr_scan", "android": "https://dc.lft.to/lastmile_qr_scan"}, "lon": -77.0465575, "type": "electric_scooter"}, {"bike_id": "a370a476a67ef12175261bb442756aaf", "is_reserved": 0, "fusion_lon": 0.0, "lat": 38.90406483333334, "is_disabled": 0, "name": "a370a476a67ef12175261bb442756aaf", "fusion_lat": 0.0, "rental_uris": {"ios": "https://dc.lft.to/lastmile_qr_scan", "android": "https://dc.lft.to/lastmile_qr_scan"}, "lon": -77.02061416666666, "type": "electric_scooter"}, {"bike_id": "8a3359f019f4e8f8a78d8c2f9fb31684", "is_reserved": 0, "fusion_lon": 0.0, "lat": 38.935377833333334, "is_disabled": 0, "name": "8a3359f019f4e8f8a78d8c2f9fb31684", "fusion_lat": 0.0, "rental_uris": {"ios": "https://dc.lft.to/lastmile_qr_scan", "android": "https://dc.lft.to/lastmile_qr_scan"}, "lon": -77.02366383333333, "type": "electric_scooter"}, {"bike_id": "d4cd8027c6040dde17f3a3412f898dbb", "is_reserved": 0, "fusion_lon": 0.0, "lat": 38.9202745, "is_disabled": 0, "name": "d4cd8027c6040dde17f3a3412f898dbb", "fusion_lat": 0.0, "rental_uris": {"ios": "https://dc.lft.to/lastmile_qr_scan", "android": "https://dc.lft.to/lastmile_qr_scan"}, "lon": -77.03122833333333, "type": "electric_scooter"}, {"bike_id": "76b5c8875154ffddee9fb9e67b8bd254", "is_reserved": 0, "fusion_lon": 0.0, "lat": 38.904202833333336, "is_disabled": 0, "name": "76b5c8875154ffddee9fb9e67b8bd254", "fusion_lat": 0.0, "rental_uris": {"ios": "https://dc.lft.to/lastmile_qr_scan", "android": "https://dc.lft.to/lastmile_qr_scan"}, "lon": -77.0323745, "type": "electric_scooter"}, {"bike_id": "0cc7990cfdf6139f5c0060afde295f34", "is_reserved": 0, "fusion_lon": 0.0, "lat": 38.89196783333333, "is_disabled": 0, "name": "0cc7990cfdf6139f5c0060afde295f34", "fusion_lat": 0.0, "rental_uris": {"ios": "https://dc.lft.to/lastmile_qr_scan", "android": "https://dc.lft.to/lastmile_qr_scan"}, "lon": -77.02839783333333, "type": "electric_scooter"}, {"bike_id": "7502223891702aa3e580df6cde7a9700", "is_reserved": 0, "fusion_lon": 0.0, "lat": 38.897319333333336, "is_disabled": 0, "name": "7502223891702aa3e580df6cde7a9700", "fusion_lat": 0.0, "rental_uris": {"ios": "https://dc.lft.to/lastmile_qr_scan", "android": "https://dc.lft.to/lastmile_qr_scan"}, "lon": -77.054741, "type": "electric_scooter"}, {"bike_id": "11c720f401e4c6f80e96a65a16c583b4", "is_reserved": 0, "fusion_lon": 0.0, "lat": 38.959349833333334, "is_disabled": 0, "name": "11c720f401e4c6f80e96a65a16c583b4", "fusion_lat": 0.0, "rental_uris": {"ios": "https://dc.lft.to/lastmile_qr_scan", "android": "https://dc.lft.to/lastmile_qr_scan"}, "lon": -77.03121666666667, "type": "electric_scooter"}, {"bike_id": "251c6de8b6d440fd0515d4e707c1f29a", "is_reserved": 0, "fusion_lon": 0.0, "lat": 38.92257083333333, "is_disabled": 0, "name": "251c6de8b6d440fd0515d4e707c1f29a", "fusion_lat": 0.0, "rental_uris": {"ios": "https://dc.lft.to/lastmile_qr_scan", "android": "https://dc.lft.to/lastmile_qr_scan"}, "lon": -77.04298816666666, "type": "electric_scooter"}, {"bike_id": "dd29060b4c00c32983dab12c09e4ee3a", "is_reserved": 0, "fusion_lon": 0.0, "lat": 38.9250915, "is_disabled": 0, "name": "dd29060b4c00c32983dab12c09e4ee3a", "fusion_lat": 0.0, "rental_uris": {"ios": "https://dc.lft.to/lastmile_qr_scan", "android": "https://dc.lft.to/lastmile_qr_scan"}, "lon": -77.03885666666666, "type": "electric_scooter"}, {"bike_id": "59f451abc410f46a0c944a74f8ac4c8e", "is_reserved": 0, "fusion_lon": 0.0, "lat": 38.9262205, "is_disabled": 0, "name": "59f451abc410f46a0c944a74f8ac4c8e", "fusion_lat": 0.0, "rental_uris": {"ios": "https://dc.lft.to/lastmile_qr_scan", "android": "https://dc.lft.to/lastmile_qr_scan"}, "lon": -77.0393375, "type": "electric_bike"}, {"bike_id": "0c4a7a8698ba6f90c71412e5b0978edf", "is_reserved": 0, "fusion_lon": 0.0, "lat": 38.865097, "is_disabled": 0, "name": "0c4a7a8698ba6f90c71412e5b0978edf", "fusion_lat": 0.0, "rental_uris": {"ios": "https://dc.lft.to/lastmile_qr_scan", "android": "https://dc.lft.to/lastmile_qr_scan"}, "lon": -76.989736, "type": "electric_scooter"}, {"bike_id": "fa21c4f1f43b4836d7aa4b73a805e43d", "is_reserved": 0, "fusion_lon": 0.0, "lat": 38.90060116666667, "is_disabled": 0, "name": "fa21c4f1f43b4836d7aa4b73a805e43d", "fusion_lat": 0.0, "rental_uris": {"ios": "https://dc.lft.to/lastmile_qr_scan", "android": "https://dc.lft.to/lastmile_qr_scan"}, "lon": -77.001936, "type": "electric_scooter"}, {"bike_id": "7d1b1437f1b20ffe5ad952a80204d1cc", "is_reserved": 0, "fusion_lon": 0.0, "lat": 38.916803, "is_disabled": 0, "name": "7d1b1437f1b20ffe5ad952a80204d1cc", "fusion_lat": 0.0, "rental_uris": {"ios": "https://dc.lft.to/lastmile_qr_scan", "android": "https://dc.lft.to/lastmile_qr_scan"}, "lon": -77.02978, "type": "electric_scooter"}, {"bike_id": "92fb36ede18f226c38373f71a5cd80ea", "is_reserved": 0, "fusion_lon": 0.0, "lat": 38.97095216666666, "is_disabled": 0, "name": "92fb36ede18f226c38373f71a5cd80ea", "fusion_lat": 0.0, "rental_uris": {"ios": "https://dc.lft.to/lastmile_qr_scan", "android": "https://dc.lft.to/lastmile_qr_scan"}, "lon": -77.06962083333333, "type": "electric_bike"}, {"bike_id": "e358a6a7c1d855acb2b20662fa642607", "is_reserved": 0, "fusion_lon": 0.0, "lat": 38.89899833333333, "is_disabled": 0, "name": "e358a6a7c1d855acb2b20662fa642607", "fusion_lat": 0.0, "rental_uris": {"ios": "https://dc.lft.to/lastmile_qr_scan", "android": "https://dc.lft.to/lastmile_qr_scan"}, "lon": -77.03276333333334, "type": "electric_scooter"}, {"bike_id": "121ac35bff7047a67c5b9219b63779eb", "is_reserved": 0, "fusion_lon": 0.0, "lat": 38.902714333333336, "is_disabled": 0, "name": "121ac35bff7047a67c5b9219b63779eb", "fusion_lat": 0.0, "rental_uris": {"ios": "https://dc.lft.to/lastmile_qr_scan", "android": "https://dc.lft.to/lastmile_qr_scan"}, "lon": -77.043426, "type": "electric_scooter"}, {"bike_id": "4024bfc67e3ba2732e88cfe1675959d5", "is_reserved": 0, "fusion_lon": 0.0, "lat": 38.91330716666667, "is_disabled": 0, "name": "4024bfc67e3ba2732e88cfe1675959d5", "fusion_lat": 0.0, "rental_uris": {"ios": "https://dc.lft.to/lastmile_qr_scan", "android": "https://dc.lft.to/lastmile_qr_scan"}, "lon": -77.04879333333334, "type": "electric_scooter"}, {"bike_id": "59a762043d4345232e715d31b49065c6", "is_reserved": 0, "fusion_lon": 0.0, "lat": 38.925874, "is_disabled": 0, "name": "59a762043d4345232e715d31b49065c6", "fusion_lat": 0.0, "rental_uris": {"ios": "https://dc.lft.to/lastmile_qr_scan", "android": "https://dc.lft.to/lastmile_qr_scan"}, "lon": -77.00468616666667, "type": "electric_scooter"}, {"bike_id": "697e64b1149c3ae5f0a08e94c9d2eaba", "is_reserved": 0, "fusion_lon": 0.0, "lat": 38.885025666666664, "is_disabled": 0, "name": "697e64b1149c3ae5f0a08e94c9d2eaba", "fusion_lat": 0.0, "rental_uris": {"ios": "https://dc.lft.to/lastmile_qr_scan", "android": "https://dc.lft.to/lastmile_qr_scan"}, "lon": -77.01560183333333, "type": "electric_scooter"}, {"bike_id": "c5a50f79b13e443fc9c63c1bd06df065", "is_reserved": 0, "fusion_lon": 0.0, "lat": 38.893437166666665, "is_disabled": 0, "name": "c5a50f79b13e443fc9c63c1bd06df065", "fusion_lat": 0.0, "rental_uris": {"ios": "https://dc.lft.to/lastmile_qr_scan", "android": "https://dc.lft.to/lastmile_qr_scan"}, "lon": -76.98447316666666, "type": "electric_scooter"}, {"bike_id": "149412547e8f95d82ff9cf6fe6015c66", "is_reserved": 0, "fusion_lon": 0.0, "lat": 38.890285, "is_disabled": 0, "name": "149412547e8f95d82ff9cf6fe6015c66", "fusion_lat": 0.0, "rental_uris": {"ios": "https://dc.lft.to/lastmile_qr_scan", "android": "https://dc.lft.to/lastmile_qr_scan"}, "lon": -76.93598416666667, "type": "electric_scooter"}, {"bike_id": "8c4f9b8737091a009c447f1dbf651053", "is_reserved": 0, "fusion_lon": 0.0, "lat": 38.926353, "is_disabled": 0, "name": "8c4f9b8737091a009c447f1dbf651053", "fusion_lat": 0.0, "rental_uris": {"ios": "https://dc.lft.to/lastmile_qr_scan", "android": "https://dc.lft.to/lastmile_qr_scan"}, "lon": -77.037875, "type": "electric_scooter"}, {"bike_id": "c6c0ea436d513fe7807b87c4bdd1949f", "is_reserved": 0, "fusion_lon": 0.0, "lat": 38.90043416666666, "is_disabled": 0, "name": "c6c0ea436d513fe7807b87c4bdd1949f", "fusion_lat": 0.0, "rental_uris": {"ios": "https://dc.lft.to/lastmile_qr_scan", "android": "https://dc.lft.to/lastmile_qr_scan"}, "lon": -76.92472983333333, "type": "electric_scooter"}, {"bike_id": "df83f33bd9f9935cd4ecd0fe3dd39c68", "is_reserved": 0, "fusion_lon": 0.0, "lat": 38.9206395, "is_disabled": 0, "name": "df83f33bd9f9935cd4ecd0fe3dd39c68", "fusion_lat": 0.0, "rental_uris": {"ios": "https://dc.lft.to/lastmile_qr_scan", "android": "https://dc.lft.to/lastmile_qr_scan"}, "lon": -77.0425365, "type": "electric_scooter"}, {"bike_id": "5fa97885d2449c6d190d24686816df6b", "is_reserved": 0, "fusion_lon": 0.0, "lat": 38.900148, "is_disabled": 0, "name": "5fa97885d2449c6d190d24686816df6b", "fusion_lat": 0.0, "rental_uris": {"ios": "https://dc.lft.to/lastmile_qr_scan", "android": "https://dc.lft.to/lastmile_qr_scan"}, "lon": -77.0402715, "type": "electric_scooter"}, {"bike_id": "f73cd6678d88336c64909e9df19731ad", "is_reserved": 0, "fusion_lon": 0.0, "lat": 38.916726, "is_disabled": 0, "name": "f73cd6678d88336c64909e9df19731ad", "fusion_lat": 0.0, "rental_uris": {"ios": "https://dc.lft.to/lastmile_qr_scan", "android": "https://dc.lft.to/lastmile_qr_scan"}, "lon": -77.03175783333333, "type": "electric_scooter"}, {"bike_id": "29ed7ed0d868337a76e18d6191d0f6c8", "is_reserved": 0, "fusion_lon": 0.0, "lat": 38.9036165, "is_disabled": 0, "name": "29ed7ed0d868337a76e18d6191d0f6c8", "fusion_lat": 0.0, "rental_uris": {"ios": "https://dc.lft.to/lastmile_qr_scan", "android": "https://dc.lft.to/lastmile_qr_scan"}, "lon": -77.04008966666666, "type": "electric_scooter"}, {"bike_id": "5533ee43622d8c8e5a88b14ad699878b", "is_reserved": 0, "fusion_lon": 0.0, "lat": 38.887433333333334, "is_disabled": 0, "name": "5533ee43622d8c8e5a88b14ad699878b", "fusion_lat": 0.0, "rental_uris": {"ios": "https://dc.lft.to/lastmile_qr_scan", "android": "https://dc.lft.to/lastmile_qr_scan"}, "lon": -77.02583733333333, "type": "electric_scooter"}, {"bike_id": "f51d5051dfd7d3161be5a65e09821be9", "is_reserved": 0, "fusion_lon": 0.0, "lat": 38.904447166666664, "is_disabled": 0, "name": "f51d5051dfd7d3161be5a65e09821be9", "fusion_lat": 0.0, "rental_uris": {"ios": "https://dc.lft.to/lastmile_qr_scan", "android": "https://dc.lft.to/lastmile_qr_scan"}, "lon": -77.048768, "type": "electric_scooter"}, {"bike_id": "bd9c53135c01105c98c486074a765897", "is_reserved": 0, "fusion_lon": 0.0, "lat": 38.884259, "is_disabled": 0, "name": "bd9c53135c01105c98c486074a765897", "fusion_lat": 0.0, "rental_uris": {"ios": "https://dc.lft.to/lastmile_qr_scan", "android": "https://dc.lft.to/lastmile_qr_scan"}, "lon": -76.9574745, "type": "electric_scooter"}, {"bike_id": "1da65fd47bc8b49811fe732fdf7c3818", "is_reserved": 0, "fusion_lon": 0.0, "lat": 38.924627666666666, "is_disabled": 0, "name": "1da65fd47bc8b49811fe732fdf7c3818", "fusion_lat": 0.0, "rental_uris": {"ios": "https://dc.lft.to/lastmile_qr_scan", "android": "https://dc.lft.to/lastmile_qr_scan"}, "lon": -77.0215755, "type": "electric_scooter"}, {"bike_id": "60bc8a3c4763c7da86a71bdd5a2ee0a5", "is_reserved": 0, "fusion_lon": 0.0, "lat": 38.89762366666667, "is_disabled": 0, "name": "60bc8a3c4763c7da86a71bdd5a2ee0a5", "fusion_lat": 0.0, "rental_uris": {"ios": "https://dc.lft.to/lastmile_qr_scan", "android": "https://dc.lft.to/lastmile_qr_scan"}, "lon": -76.94185966666667, "type": "electric_scooter"}, {"bike_id": "8f8d8888d7d79723978267909a8042f9", "is_reserved": 0, "fusion_lon": 0.0, "lat": 38.931191, "is_disabled": 0, "name": "8f8d8888d7d79723978267909a8042f9", "fusion_lat": 0.0, "rental_uris": {"ios": "https://dc.lft.to/lastmile_qr_scan", "android": "https://dc.lft.to/lastmile_qr_scan"}, "lon": -77.02086783333333, "type": "electric_scooter"}, {"bike_id": "201405044bd19e998bd8b7c826f6236b", "is_reserved": 0, "fusion_lon": 0.0, "lat": 38.91663583333333, "is_disabled": 0, "name": "201405044bd19e998bd8b7c826f6236b", "fusion_lat": 0.0, "rental_uris": {"ios": "https://dc.lft.to/lastmile_qr_scan", "android": "https://dc.lft.to/lastmile_qr_scan"}, "lon": -77.02704383333334, "type": "electric_scooter"}, {"bike_id": "cabb2929c402d9fae22f98be2b8393b4", "is_reserved": 0, "fusion_lon": 0.0, "lat": 38.898406, "is_disabled": 0, "name": "cabb2929c402d9fae22f98be2b8393b4", "fusion_lat": 0.0, "rental_uris": {"ios": "https://dc.lft.to/lastmile_qr_scan", "android": "https://dc.lft.to/lastmile_qr_scan"}, "lon": -77.0327525, "type": "electric_scooter"}, {"bike_id": "b4904fe59c40507f076955da89053a2b", "is_reserved": 0, "fusion_lon": 0.0, "lat": 38.92368583333333, "is_disabled": 0, "name": "b4904fe59c40507f076955da89053a2b", "fusion_lat": 0.0, "rental_uris": {"ios": "https://dc.lft.to/lastmile_qr_scan", "android": "https://dc.lft.to/lastmile_qr_scan"}, "lon": -77.01955583333333, "type": "electric_scooter"}, {"bike_id": "3871b370376726830d627901a9e19731", "is_reserved": 0, "fusion_lon": 0.0, "lat": 38.905295333333335, "is_disabled": 0, "name": "3871b370376726830d627901a9e19731", "fusion_lat": 0.0, "rental_uris": {"ios": "https://dc.lft.to/lastmile_qr_scan", "android": "https://dc.lft.to/lastmile_qr_scan"}, "lon": -77.06105783333334, "type": "electric_bike"}, {"bike_id": "6e80df278e53a76b3a91a2f7246a8576", "is_reserved": 0, "fusion_lon": 0.0, "lat": 38.926671666666664, "is_disabled": 0, "name": "6e80df278e53a76b3a91a2f7246a8576", "fusion_lat": 0.0, "rental_uris": {"ios": "https://dc.lft.to/lastmile_qr_scan", "android": "https://dc.lft.to/lastmile_qr_scan"}, "lon": -76.99550716666667, "type": "electric_scooter"}, {"bike_id": "a57f17497fad24c54d1c5e9c2f1ac3f2", "is_reserved": 0, "fusion_lon": 0.0, "lat": 38.903783, "is_disabled": 0, "name": "a57f17497fad24c54d1c5e9c2f1ac3f2", "fusion_lat": 0.0, "rental_uris": {"ios": "https://dc.lft.to/lastmile_qr_scan", "android": "https://dc.lft.to/lastmile_qr_scan"}, "lon": -77.04321, "type": "electric_scooter"}, {"bike_id": "72684c6a5852caface1031584c71d200", "is_reserved": 0, "fusion_lon": 0.0, "lat": 38.896117, "is_disabled": 0, "name": "72684c6a5852caface1031584c71d200", "fusion_lat": 0.0, "rental_uris": {"ios": "https://dc.lft.to/lastmile_qr_scan", "android": "https://dc.lft.to/lastmile_qr_scan"}, "lon": -77.04600366666666, "type": "electric_scooter"}, {"bike_id": "25a5808645fac7498dd1f7fe13898f8f", "is_reserved": 0, "fusion_lon": 0.0, "lat": 38.89843416666667, "is_disabled": 0, "name": "25a5808645fac7498dd1f7fe13898f8f", "fusion_lat": 0.0, "rental_uris": {"ios": "https://dc.lft.to/lastmile_qr_scan", "android": "https://dc.lft.to/lastmile_qr_scan"}, "lon": -77.00740983333333, "type": "electric_scooter"}, {"bike_id": "be947c14d828a747e918cf210ec54504", "is_reserved": 0, "fusion_lon": 0.0, "lat": 38.87392116666667, "is_disabled": 0, "name": "be947c14d828a747e918cf210ec54504", "fusion_lat": 0.0, "rental_uris": {"ios": "https://dc.lft.to/lastmile_qr_scan", "android": "https://dc.lft.to/lastmile_qr_scan"}, "lon": -77.00089683333333, "type": "electric_scooter"}, {"bike_id": "aae3b82473e50152646ed6eddd16e69c", "is_reserved": 0, "fusion_lon": 0.0, "lat": 38.8762955, "is_disabled": 0, "name": "aae3b82473e50152646ed6eddd16e69c", "fusion_lat": 0.0, "rental_uris": {"ios": "https://dc.lft.to/lastmile_qr_scan", "android": "https://dc.lft.to/lastmile_qr_scan"}, "lon": -76.96526566666667, "type": "electric_scooter"}, {"bike_id": "8dd0c1f51dab4e768017f8632abea66d", "is_reserved": 0, "fusion_lon": 0.0, "lat": 38.893299166666665, "is_disabled": 0, "name": "8dd0c1f51dab4e768017f8632abea66d", "fusion_lat": 0.0, "rental_uris": {"ios": "https://dc.lft.to/lastmile_qr_scan", "android": "https://dc.lft.to/lastmile_qr_scan"}, "lon": -76.92992583333333, "type": "electric_scooter"}, {"bike_id": "9eec257cad6d8f43af656620e1ecf156", "is_reserved": 0, "fusion_lon": 0.0, "lat": 38.90537366666667, "is_disabled": 0, "name": "9eec257cad6d8f43af656620e1ecf156", "fusion_lat": 0.0, "rental_uris": {"ios": "https://dc.lft.to/lastmile_qr_scan", "android": "https://dc.lft.to/lastmile_qr_scan"}, "lon": -77.050103, "type": "electric_scooter"}, {"bike_id": "8ef77778f3e08574e2062a5935c2cc12", "is_reserved": 0, "fusion_lon": 0.0, "lat": 38.9051315, "is_disabled": 0, "name": "8ef77778f3e08574e2062a5935c2cc12", "fusion_lat": 0.0, "rental_uris": {"ios": "https://dc.lft.to/lastmile_qr_scan", "android": "https://dc.lft.to/lastmile_qr_scan"}, "lon": -77.05142316666667, "type": "electric_scooter"}, {"bike_id": "0fcf91b450efc7d0b26639a186038373", "is_reserved": 0, "fusion_lon": 0.0, "lat": 38.91718483333333, "is_disabled": 0, "name": "0fcf91b450efc7d0b26639a186038373", "fusion_lat": 0.0, "rental_uris": {"ios": "https://dc.lft.to/lastmile_qr_scan", "android": "https://dc.lft.to/lastmile_qr_scan"}, "lon": -77.03187316666667, "type": "electric_scooter"}, {"bike_id": "6c4d488c38b4c36b21f9f662bfed0ed4", "is_reserved": 0, "fusion_lon": 0.0, "lat": 38.915559, "is_disabled": 0, "name": "6c4d488c38b4c36b21f9f662bfed0ed4", "fusion_lat": 0.0, "rental_uris": {"ios": "https://dc.lft.to/lastmile_qr_scan", "android": "https://dc.lft.to/lastmile_qr_scan"}, "lon": -77.02159916666666, "type": "electric_scooter"}, {"bike_id": "b669ee64f4d2849ee670e4f3031316fb", "is_reserved": 0, "fusion_lon": 0.0, "lat": 38.90446216666667, "is_disabled": 0, "name": "b669ee64f4d2849ee670e4f3031316fb", "fusion_lat": 0.0, "rental_uris": {"ios": "https://dc.lft.to/lastmile_qr_scan", "android": "https://dc.lft.to/lastmile_qr_scan"}, "lon": -77.04030766666666, "type": "electric_scooter"}, {"bike_id": "c62d3a85386fa182bf99863a562f9beb", "is_reserved": 0, "fusion_lon": 0.0, "lat": 38.926529333333335, "is_disabled": 0, "name": "c62d3a85386fa182bf99863a562f9beb", "fusion_lat": 0.0, "rental_uris": {"ios": "https://dc.lft.to/lastmile_qr_scan", "android": "https://dc.lft.to/lastmile_qr_scan"}, "lon": -77.03717033333334, "type": "electric_scooter"}, {"bike_id": "5a64ab28c11defc1405d749e1887a3b1", "is_reserved": 0, "fusion_lon": 0.0, "lat": 38.90130516666667, "is_disabled": 0, "name": "5a64ab28c11defc1405d749e1887a3b1", "fusion_lat": 0.0, "rental_uris": {"ios": "https://dc.lft.to/lastmile_qr_scan", "android": "https://dc.lft.to/lastmile_qr_scan"}, "lon": -77.0447325, "type": "electric_scooter"}, {"bike_id": "dc1a78f53d8f5737a4db58fce79a8f1b", "is_reserved": 0, "fusion_lon": 0.0, "lat": 38.92089516666667, "is_disabled": 0, "name": "dc1a78f53d8f5737a4db58fce79a8f1b", "fusion_lat": 0.0, "rental_uris": {"ios": "https://dc.lft.to/lastmile_qr_scan", "android": "https://dc.lft.to/lastmile_qr_scan"}, "lon": -77.074803, "type": "electric_scooter"}, {"bike_id": "0abc251ab614c1099126db41dcb3d8c8", "is_reserved": 0, "fusion_lon": 0.0, "lat": 38.9051435, "is_disabled": 0, "name": "0abc251ab614c1099126db41dcb3d8c8", "fusion_lat": 0.0, "rental_uris": {"ios": "https://dc.lft.to/lastmile_qr_scan", "android": "https://dc.lft.to/lastmile_qr_scan"}, "lon": -77.04148816666667, "type": "electric_scooter"}, {"bike_id": "7e8c6388e4ff4b5fde76fe06fed2235f", "is_reserved": 0, "fusion_lon": 0.0, "lat": 38.8982625, "is_disabled": 0, "name": "7e8c6388e4ff4b5fde76fe06fed2235f", "fusion_lat": 0.0, "rental_uris": {"ios": "https://dc.lft.to/lastmile_qr_scan", "android": "https://dc.lft.to/lastmile_qr_scan"}, "lon": -77.03342783333333, "type": "electric_scooter"}, {"bike_id": "f64c5f434022446faac752c67bece8d3", "is_reserved": 0, "fusion_lon": 0.0, "lat": 38.926349, "is_disabled": 0, "name": "f64c5f434022446faac752c67bece8d3", "fusion_lat": 0.0, "rental_uris": {"ios": "https://dc.lft.to/lastmile_qr_scan", "android": "https://dc.lft.to/lastmile_qr_scan"}, "lon": -77.0350195, "type": "electric_scooter"}, {"bike_id": "3279310b63aa4e121475c1a683483a55", "is_reserved": 0, "fusion_lon": 0.0, "lat": 38.93349666666667, "is_disabled": 0, "name": "3279310b63aa4e121475c1a683483a55", "fusion_lat": 0.0, "rental_uris": {"ios": "https://dc.lft.to/lastmile_qr_scan", "android": "https://dc.lft.to/lastmile_qr_scan"}, "lon": -77.0587025, "type": "electric_scooter"}, {"bike_id": "5a623e3ec0cbe6fd4dd4db505e5b67ca", "is_reserved": 0, "fusion_lon": 0.0, "lat": 38.921837333333336, "is_disabled": 0, "name": "5a623e3ec0cbe6fd4dd4db505e5b67ca", "fusion_lat": 0.0, "rental_uris": {"ios": "https://dc.lft.to/lastmile_qr_scan", "android": "https://dc.lft.to/lastmile_qr_scan"}, "lon": -77.01830816666667, "type": "electric_scooter"}, {"bike_id": "a5bc3281236ef221adf758b21f3881ec", "is_reserved": 0, "fusion_lon": 0.0, "lat": 38.904811, "is_disabled": 0, "name": "a5bc3281236ef221adf758b21f3881ec", "fusion_lat": 0.0, "rental_uris": {"ios": "https://dc.lft.to/lastmile_qr_scan", "android": "https://dc.lft.to/lastmile_qr_scan"}, "lon": -77.06024033333334, "type": "electric_scooter"}, {"bike_id": "8026f9f8568ede5a72f63dd8b5acc6d2", "is_reserved": 0, "fusion_lon": 0.0, "lat": 38.901401666666665, "is_disabled": 0, "name": "8026f9f8568ede5a72f63dd8b5acc6d2", "fusion_lat": 0.0, "rental_uris": {"ios": "https://dc.lft.to/lastmile_qr_scan", "android": "https://dc.lft.to/lastmile_qr_scan"}, "lon": -76.99808966666667, "type": "electric_scooter"}, {"bike_id": "8339bc991d036d13beb529c4993a613d", "is_reserved": 0, "fusion_lon": 0.0, "lat": 38.924812, "is_disabled": 0, "name": "8339bc991d036d13beb529c4993a613d", "fusion_lat": 0.0, "rental_uris": {"ios": "https://dc.lft.to/lastmile_qr_scan", "android": "https://dc.lft.to/lastmile_qr_scan"}, "lon": -77.05209216666667, "type": "electric_scooter"}, {"bike_id": "6e84d66686027c82da2af615d7e7130d", "is_reserved": 0, "fusion_lon": 0.0, "lat": 39.03043383333333, "is_disabled": 0, "name": "6e84d66686027c82da2af615d7e7130d", "fusion_lat": 0.0, "rental_uris": {"ios": "https://dc.lft.to/lastmile_qr_scan", "android": "https://dc.lft.to/lastmile_qr_scan"}, "lon": -77.09481933333333, "type": "electric_bike"}, {"bike_id": "aca72754f24b4991e584fbfa47c72b44", "is_reserved": 0, "fusion_lon": 0.0, "lat": 38.9927155, "is_disabled": 0, "name": "aca72754f24b4991e584fbfa47c72b44", "fusion_lat": 0.0, "rental_uris": {"ios": "https://dc.lft.to/lastmile_qr_scan", "android": "https://dc.lft.to/lastmile_qr_scan"}, "lon": -76.87702366666667, "type": "electric_bike"}, {"bike_id": "d176622f544ea56adc5b88c24644d1da", "is_reserved": 0, "fusion_lon": 0.0, "lat": 38.90766333333333, "is_disabled": 0, "name": "d176622f544ea56adc5b88c24644d1da", "fusion_lat": 0.0, "rental_uris": {"ios": "https://dc.lft.to/lastmile_qr_scan", "android": "https://dc.lft.to/lastmile_qr_scan"}, "lon": -77.06922116666667, "type": "electric_scooter"}, {"bike_id": "65f30f191045c3eb6afc936a55174eda", "is_reserved": 0, "fusion_lon": 0.0, "lat": 38.9308875, "is_disabled": 0, "name": "65f30f191045c3eb6afc936a55174eda", "fusion_lat": 0.0, "rental_uris": {"ios": "https://dc.lft.to/lastmile_qr_scan", "android": "https://dc.lft.to/lastmile_qr_scan"}, "lon": -76.96715433333334, "type": "electric_scooter"}, {"bike_id": "a66e4e2f702d316ae6a1d193e0fd9d2f", "is_reserved": 0, "fusion_lon": 0.0, "lat": 38.9247075, "is_disabled": 0, "name": "a66e4e2f702d316ae6a1d193e0fd9d2f", "fusion_lat": 0.0, "rental_uris": {"ios": "https://dc.lft.to/lastmile_qr_scan", "android": "https://dc.lft.to/lastmile_qr_scan"}, "lon": -77.03535333333333, "type": "electric_scooter"}, {"bike_id": "0b2d7c14ec073d6eb969e1aeffff60af", "is_reserved": 0, "fusion_lon": 0.0, "lat": 38.90023633333333, "is_disabled": 0, "name": "0b2d7c14ec073d6eb969e1aeffff60af", "fusion_lat": 0.0, "rental_uris": {"ios": "https://dc.lft.to/lastmile_qr_scan", "android": "https://dc.lft.to/lastmile_qr_scan"}, "lon": -76.995348, "type": "electric_scooter"}, {"bike_id": "0be01d1ec335c401a9bc4b0cd78715ff", "is_reserved": 0, "fusion_lon": 0.0, "lat": 38.916606, "is_disabled": 0, "name": "0be01d1ec335c401a9bc4b0cd78715ff", "fusion_lat": 0.0, "rental_uris": {"ios": "https://dc.lft.to/lastmile_qr_scan", "android": "https://dc.lft.to/lastmile_qr_scan"}, "lon": -77.02713466666667, "type": "electric_scooter"}, {"bike_id": "985b459bc1e0d307e6b269b0595d418e", "is_reserved": 0, "fusion_lon": 0.0, "lat": 38.84272133333333, "is_disabled": 0, "name": "985b459bc1e0d307e6b269b0595d418e", "fusion_lat": 0.0, "rental_uris": {"ios": "https://dc.lft.to/lastmile_qr_scan", "android": "https://dc.lft.to/lastmile_qr_scan"}, "lon": -76.988421, "type": "electric_bike"}, {"bike_id": "03abb370f49fe2ecd5447800795f6dd1", "is_reserved": 0, "fusion_lon": 0.0, "lat": 38.88041116666667, "is_disabled": 0, "name": "03abb370f49fe2ecd5447800795f6dd1", "fusion_lat": 0.0, "rental_uris": {"ios": "https://dc.lft.to/lastmile_qr_scan", "android": "https://dc.lft.to/lastmile_qr_scan"}, "lon": -77.01322383333333, "type": "electric_bike"}, {"bike_id": "d43e3fa2a0c8fd1bb72f94008d4ffd43", "is_reserved": 0, "fusion_lon": 0.0, "lat": 38.89818283333334, "is_disabled": 0, "name": "d43e3fa2a0c8fd1bb72f94008d4ffd43", "fusion_lat": 0.0, "rental_uris": {"ios": "https://dc.lft.to/lastmile_qr_scan", "android": "https://dc.lft.to/lastmile_qr_scan"}, "lon": -77.0330465, "type": "electric_scooter"}, {"bike_id": "8a809ad68b751f0130c903bdafc203b8", "is_reserved": 0, "fusion_lon": 0.0, "lat": 38.91678316666667, "is_disabled": 0, "name": "8a809ad68b751f0130c903bdafc203b8", "fusion_lat": 0.0, "rental_uris": {"ios": "https://dc.lft.to/lastmile_qr_scan", "android": "https://dc.lft.to/lastmile_qr_scan"}, "lon": -77.0317965, "type": "electric_scooter"}, {"bike_id": "aea5541e9d57fae38ea7ddae54e1afbe", "is_reserved": 0, "fusion_lon": 0.0, "lat": 38.903044333333334, "is_disabled": 0, "name": "aea5541e9d57fae38ea7ddae54e1afbe", "fusion_lat": 0.0, "rental_uris": {"ios": "https://dc.lft.to/lastmile_qr_scan", "android": "https://dc.lft.to/lastmile_qr_scan"}, "lon": -77.03313, "type": "electric_scooter"}, {"bike_id": "118498e2f0ad258af78496a46039a1e0", "is_reserved": 0, "fusion_lon": 0.0, "lat": 38.8849155, "is_disabled": 0, "name": "118498e2f0ad258af78496a46039a1e0", "fusion_lat": 0.0, "rental_uris": {"ios": "https://dc.lft.to/lastmile_qr_scan", "android": "https://dc.lft.to/lastmile_qr_scan"}, "lon": -77.00724633333333, "type": "electric_scooter"}, {"bike_id": "d7b47a82cf48b79790b6803cd7ff2644", "is_reserved": 0, "fusion_lon": 0.0, "lat": 38.917033, "is_disabled": 0, "name": "d7b47a82cf48b79790b6803cd7ff2644", "fusion_lat": 0.0, "rental_uris": {"ios": "https://dc.lft.to/lastmile_qr_scan", "android": "https://dc.lft.to/lastmile_qr_scan"}, "lon": -77.03248416666666, "type": "electric_scooter"}, {"bike_id": "4fdd9e445b3a09c0c2c2d78a9710f4b7", "is_reserved": 0, "fusion_lon": 0.0, "lat": 38.898261833333336, "is_disabled": 0, "name": "4fdd9e445b3a09c0c2c2d78a9710f4b7", "fusion_lat": 0.0, "rental_uris": {"ios": "https://dc.lft.to/lastmile_qr_scan", "android": "https://dc.lft.to/lastmile_qr_scan"}, "lon": -77.03344833333334, "type": "electric_scooter"}, {"bike_id": "d9c481662cd3a027e48a803fe7274182", "is_reserved": 0, "fusion_lon": 0.0, "lat": 38.9035455, "is_disabled": 0, "name": "d9c481662cd3a027e48a803fe7274182", "fusion_lat": 0.0, "rental_uris": {"ios": "https://dc.lft.to/lastmile_qr_scan", "android": "https://dc.lft.to/lastmile_qr_scan"}, "lon": -77.03185133333334, "type": "electric_scooter"}, {"bike_id": "a740f2069aa7e0edf958580376e635b2", "is_reserved": 0, "fusion_lon": 0.0, "lat": 38.89235816666667, "is_disabled": 0, "name": "a740f2069aa7e0edf958580376e635b2", "fusion_lat": 0.0, "rental_uris": {"ios": "https://dc.lft.to/lastmile_qr_scan", "android": "https://dc.lft.to/lastmile_qr_scan"}, "lon": -77.02207566666667, "type": "electric_scooter"}, {"bike_id": "b5718958dc4a5c9a1aab92b28b4590dc", "is_reserved": 0, "fusion_lon": 0.0, "lat": 38.839348, "is_disabled": 0, "name": "b5718958dc4a5c9a1aab92b28b4590dc", "fusion_lat": 0.0, "rental_uris": {"ios": "https://dc.lft.to/lastmile_qr_scan", "android": "https://dc.lft.to/lastmile_qr_scan"}, "lon": -77.07901633333333, "type": "electric_bike"}, {"bike_id": "969ebe4d22f807dfcb9601a6736664a4", "is_reserved": 0, "fusion_lon": 0.0, "lat": 38.88081783333333, "is_disabled": 0, "name": "969ebe4d22f807dfcb9601a6736664a4", "fusion_lat": 0.0, "rental_uris": {"ios": "https://dc.lft.to/lastmile_qr_scan", "android": "https://dc.lft.to/lastmile_qr_scan"}, "lon": -76.98534466666666, "type": "electric_scooter"}, {"bike_id": "0698b70646c8e823a4aae88632b95970", "is_reserved": 0, "fusion_lon": 0.0, "lat": 38.89621483333333, "is_disabled": 0, "name": "0698b70646c8e823a4aae88632b95970", "fusion_lat": 0.0, "rental_uris": {"ios": "https://dc.lft.to/lastmile_qr_scan", "android": "https://dc.lft.to/lastmile_qr_scan"}, "lon": -76.99063433333333, "type": "electric_scooter"}, {"bike_id": "811dda4f4f5214ff8ef7abffb0545fc5", "is_reserved": 0, "fusion_lon": 0.0, "lat": 38.892209, "is_disabled": 0, "name": "811dda4f4f5214ff8ef7abffb0545fc5", "fusion_lat": 0.0, "rental_uris": {"ios": "https://dc.lft.to/lastmile_qr_scan", "android": "https://dc.lft.to/lastmile_qr_scan"}, "lon": -77.02774533333333, "type": "electric_scooter"}, {"bike_id": "7d749cdb39e34306f0db67b0439f65ae", "is_reserved": 0, "fusion_lon": 0.0, "lat": 38.93882466666667, "is_disabled": 0, "name": "7d749cdb39e34306f0db67b0439f65ae", "fusion_lat": 0.0, "rental_uris": {"ios": "https://dc.lft.to/lastmile_qr_scan", "android": "https://dc.lft.to/lastmile_qr_scan"}, "lon": -77.03272233333334, "type": "electric_scooter"}, {"bike_id": "e107a518cdb46557b29875bc77020a2b", "is_reserved": 0, "fusion_lon": 0.0, "lat": 38.921365, "is_disabled": 0, "name": "e107a518cdb46557b29875bc77020a2b", "fusion_lat": 0.0, "rental_uris": {"ios": "https://dc.lft.to/lastmile_qr_scan", "android": "https://dc.lft.to/lastmile_qr_scan"}, "lon": -77.01790933333334, "type": "electric_scooter"}, {"bike_id": "b72bc0f15edac92a6a70aac2df9368f6", "is_reserved": 0, "fusion_lon": 0.0, "lat": 38.90245616666667, "is_disabled": 0, "name": "b72bc0f15edac92a6a70aac2df9368f6", "fusion_lat": 0.0, "rental_uris": {"ios": "https://dc.lft.to/lastmile_qr_scan", "android": "https://dc.lft.to/lastmile_qr_scan"}, "lon": -77.040682, "type": "electric_scooter"}, {"bike_id": "19da9c9f6cf22d9878e147cf406fac56", "is_reserved": 0, "fusion_lon": 0.0, "lat": 38.92654983333333, "is_disabled": 0, "name": "19da9c9f6cf22d9878e147cf406fac56", "fusion_lat": 0.0, "rental_uris": {"ios": "https://dc.lft.to/lastmile_qr_scan", "android": "https://dc.lft.to/lastmile_qr_scan"}, "lon": -77.037144, "type": "electric_scooter"}, {"bike_id": "f558043f21b4fa4f7c8be9aa6284aa65", "is_reserved": 0, "fusion_lon": 0.0, "lat": 38.923428, "is_disabled": 0, "name": "f558043f21b4fa4f7c8be9aa6284aa65", "fusion_lat": 0.0, "rental_uris": {"ios": "https://dc.lft.to/lastmile_qr_scan", "android": "https://dc.lft.to/lastmile_qr_scan"}, "lon": -77.019133, "type": "electric_scooter"}, {"bike_id": "90406dab1cb8ff4d635a2cbcac2592ed", "is_reserved": 0, "fusion_lon": 0.0, "lat": 38.9275905, "is_disabled": 0, "name": "90406dab1cb8ff4d635a2cbcac2592ed", "fusion_lat": 0.0, "rental_uris": {"ios": "https://dc.lft.to/lastmile_qr_scan", "android": "https://dc.lft.to/lastmile_qr_scan"}, "lon": -77.053781, "type": "electric_scooter"}, {"bike_id": "68a5c8116b2509eda58e365d86f6c16c", "is_reserved": 0, "fusion_lon": 0.0, "lat": 38.984630833333334, "is_disabled": 0, "name": "68a5c8116b2509eda58e365d86f6c16c", "fusion_lat": 0.0, "rental_uris": {"ios": "https://dc.lft.to/lastmile_qr_scan", "android": "https://dc.lft.to/lastmile_qr_scan"}, "lon": -76.95525733333334, "type": "electric_bike"}, {"bike_id": "754522d36f71fe61c14c3efd8fb901fb", "is_reserved": 0, "fusion_lon": 0.0, "lat": 38.90369533333333, "is_disabled": 0, "name": "754522d36f71fe61c14c3efd8fb901fb", "fusion_lat": 0.0, "rental_uris": {"ios": "https://dc.lft.to/lastmile_qr_scan", "android": "https://dc.lft.to/lastmile_qr_scan"}, "lon": -77.04458516666666, "type": "electric_scooter"}, {"bike_id": "ade6d3da9d766a896b5c7a20548a93ca", "is_reserved": 0, "fusion_lon": 0.0, "lat": 38.852238666666665, "is_disabled": 0, "name": "ade6d3da9d766a896b5c7a20548a93ca", "fusion_lat": 0.0, "rental_uris": {"ios": "https://dc.lft.to/lastmile_qr_scan", "android": "https://dc.lft.to/lastmile_qr_scan"}, "lon": -77.12959783333334, "type": "electric_bike"}, {"bike_id": "8f65f26f75633e3fb331218c7c9da09c", "is_reserved": 0, "fusion_lon": 0.0, "lat": 38.9005585, "is_disabled": 0, "name": "8f65f26f75633e3fb331218c7c9da09c", "fusion_lat": 0.0, "rental_uris": {"ios": "https://dc.lft.to/lastmile_qr_scan", "android": "https://dc.lft.to/lastmile_qr_scan"}, "lon": -77.00745983333333, "type": "electric_scooter"}, {"bike_id": "14a31e722ec0b2e3872b2d80c080f1ed", "is_reserved": 0, "fusion_lon": 0.0, "lat": 38.86562633333333, "is_disabled": 0, "name": "14a31e722ec0b2e3872b2d80c080f1ed", "fusion_lat": 0.0, "rental_uris": {"ios": "https://dc.lft.to/lastmile_qr_scan", "android": "https://dc.lft.to/lastmile_qr_scan"}, "lon": -76.9895475, "type": "electric_scooter"}, {"bike_id": "5bdc51b82943e9b7e2dfc44de4814f33", "is_reserved": 0, "fusion_lon": 0.0, "lat": 38.865973, "is_disabled": 0, "name": "5bdc51b82943e9b7e2dfc44de4814f33", "fusion_lat": 0.0, "rental_uris": {"ios": "https://dc.lft.to/lastmile_qr_scan", "android": "https://dc.lft.to/lastmile_qr_scan"}, "lon": -76.9322615, "type": "electric_bike"}, {"bike_id": "e71dd668e02a7bbfdc4b80df1d28ee20", "is_reserved": 0, "fusion_lon": 0.0, "lat": 38.93952066666667, "is_disabled": 0, "name": "e71dd668e02a7bbfdc4b80df1d28ee20", "fusion_lat": 0.0, "rental_uris": {"ios": "https://dc.lft.to/lastmile_qr_scan", "android": "https://dc.lft.to/lastmile_qr_scan"}, "lon": -77.0326855, "type": "electric_scooter"}, {"bike_id": "b98fb3a929d5dbe75c1e375a1787ec08", "is_reserved": 0, "fusion_lon": 0.0, "lat": 38.892272, "is_disabled": 0, "name": "b98fb3a929d5dbe75c1e375a1787ec08", "fusion_lat": 0.0, "rental_uris": {"ios": "https://dc.lft.to/lastmile_qr_scan", "android": "https://dc.lft.to/lastmile_qr_scan"}, "lon": -77.02607866666666, "type": "electric_scooter"}, {"bike_id": "f90e6879e92704b1d5d8bf12600f4b34", "is_reserved": 0, "fusion_lon": 0.0, "lat": 38.921124166666665, "is_disabled": 0, "name": "f90e6879e92704b1d5d8bf12600f4b34", "fusion_lat": 0.0, "rental_uris": {"ios": "https://dc.lft.to/lastmile_qr_scan", "android": "https://dc.lft.to/lastmile_qr_scan"}, "lon": -77.04207483333333, "type": "electric_scooter"}, {"bike_id": "cd02e26eaf7d4a6fdf27a57b5a0ed773", "is_reserved": 0, "fusion_lon": 0.0, "lat": 38.985999166666666, "is_disabled": 0, "name": "cd02e26eaf7d4a6fdf27a57b5a0ed773", "fusion_lat": 0.0, "rental_uris": {"ios": "https://dc.lft.to/lastmile_qr_scan", "android": "https://dc.lft.to/lastmile_qr_scan"}, "lon": -77.03754033333334, "type": "electric_bike"}, {"bike_id": "1c1a3dcc5d685883fbefbc688b9d797c", "is_reserved": 0, "fusion_lon": 0.0, "lat": 38.9370955, "is_disabled": 0, "name": "1c1a3dcc5d685883fbefbc688b9d797c", "fusion_lat": 0.0, "rental_uris": {"ios": "https://dc.lft.to/lastmile_qr_scan", "android": "https://dc.lft.to/lastmile_qr_scan"}, "lon": -77.06862433333333, "type": "electric_bike"}, {"bike_id": "28568bc5c270e8619dbda08f44f010cb", "is_reserved": 0, "fusion_lon": 0.0, "lat": 38.9336355, "is_disabled": 0, "name": "28568bc5c270e8619dbda08f44f010cb", "fusion_lat": 0.0, "rental_uris": {"ios": "https://dc.lft.to/lastmile_qr_scan", "android": "https://dc.lft.to/lastmile_qr_scan"}, "lon": -77.05717366666667, "type": "electric_scooter"}, {"bike_id": "832cf780db4c3b6a6274de4b5c6645df", "is_reserved": 0, "fusion_lon": 0.0, "lat": 38.90025883333333, "is_disabled": 0, "name": "832cf780db4c3b6a6274de4b5c6645df", "fusion_lat": 0.0, "rental_uris": {"ios": "https://dc.lft.to/lastmile_qr_scan", "android": "https://dc.lft.to/lastmile_qr_scan"}, "lon": -76.987915, "type": "electric_scooter"}, {"bike_id": "893102807f166f351396e96051594fd4", "is_reserved": 0, "fusion_lon": 0.0, "lat": 38.88015983333333, "is_disabled": 0, "name": "893102807f166f351396e96051594fd4", "fusion_lat": 0.0, "rental_uris": {"ios": "https://dc.lft.to/lastmile_qr_scan", "android": "https://dc.lft.to/lastmile_qr_scan"}, "lon": -76.99498066666666, "type": "electric_scooter"}, {"bike_id": "5bc2a2e991e09be7c6af330ca825cc7d", "is_reserved": 0, "fusion_lon": 0.0, "lat": 38.90507816666667, "is_disabled": 0, "name": "5bc2a2e991e09be7c6af330ca825cc7d", "fusion_lat": 0.0, "rental_uris": {"ios": "https://dc.lft.to/lastmile_qr_scan", "android": "https://dc.lft.to/lastmile_qr_scan"}, "lon": -77.06657816666667, "type": "electric_scooter"}, {"bike_id": "c1a280a65c364b6c901d9217bb48b584", "is_reserved": 0, "fusion_lon": 0.0, "lat": 38.903684166666665, "is_disabled": 0, "name": "c1a280a65c364b6c901d9217bb48b584", "fusion_lat": 0.0, "rental_uris": {"ios": "https://dc.lft.to/lastmile_qr_scan", "android": "https://dc.lft.to/lastmile_qr_scan"}, "lon": -77.05411933333333, "type": "electric_scooter"}, {"bike_id": "b5cf4837baad12495b258787fd4d6231", "is_reserved": 0, "fusion_lon": 0.0, "lat": 38.900531, "is_disabled": 0, "name": "b5cf4837baad12495b258787fd4d6231", "fusion_lat": 0.0, "rental_uris": {"ios": "https://dc.lft.to/lastmile_qr_scan", "android": "https://dc.lft.to/lastmile_qr_scan"}, "lon": -77.05021383333333, "type": "electric_scooter"}, {"bike_id": "df5d7e752f84275cc0a2385590bd96f3", "is_reserved": 0, "fusion_lon": 0.0, "lat": 38.898393666666664, "is_disabled": 0, "name": "df5d7e752f84275cc0a2385590bd96f3", "fusion_lat": 0.0, "rental_uris": {"ios": "https://dc.lft.to/lastmile_qr_scan", "android": "https://dc.lft.to/lastmile_qr_scan"}, "lon": -77.0328795, "type": "electric_scooter"}, {"bike_id": "17c06465bbc771fc03117662a7901b72", "is_reserved": 0, "fusion_lon": 0.0, "lat": 38.90488116666667, "is_disabled": 0, "name": "17c06465bbc771fc03117662a7901b72", "fusion_lat": 0.0, "rental_uris": {"ios": "https://dc.lft.to/lastmile_qr_scan", "android": "https://dc.lft.to/lastmile_qr_scan"}, "lon": -77.06791766666667, "type": "electric_scooter"}, {"bike_id": "744424f1f25fb2d3a43f73c8f5588873", "is_reserved": 0, "fusion_lon": 0.0, "lat": 38.903712666666664, "is_disabled": 0, "name": "744424f1f25fb2d3a43f73c8f5588873", "fusion_lat": 0.0, "rental_uris": {"ios": "https://dc.lft.to/lastmile_qr_scan", "android": "https://dc.lft.to/lastmile_qr_scan"}, "lon": -77.04346916666667, "type": "electric_scooter"}, {"bike_id": "cb48669b94cdbf7eadd1c5f8bfb1a00a", "is_reserved": 0, "fusion_lon": 0.0, "lat": 38.90217916666667, "is_disabled": 0, "name": "cb48669b94cdbf7eadd1c5f8bfb1a00a", "fusion_lat": 0.0, "rental_uris": {"ios": "https://dc.lft.to/lastmile_qr_scan", "android": "https://dc.lft.to/lastmile_qr_scan"}, "lon": -77.06070666666666, "type": "electric_scooter"}, {"bike_id": "f689e853d75c0caaea8815de2cc9608a", "is_reserved": 0, "fusion_lon": 0.0, "lat": 38.90270916666667, "is_disabled": 0, "name": "f689e853d75c0caaea8815de2cc9608a", "fusion_lat": 0.0, "rental_uris": {"ios": "https://dc.lft.to/lastmile_qr_scan", "android": "https://dc.lft.to/lastmile_qr_scan"}, "lon": -77.028169, "type": "electric_scooter"}, {"bike_id": "ef5320a623d066b10fc27c49e3597fb0", "is_reserved": 0, "fusion_lon": 0.0, "lat": 38.935365166666664, "is_disabled": 0, "name": "ef5320a623d066b10fc27c49e3597fb0", "fusion_lat": 0.0, "rental_uris": {"ios": "https://dc.lft.to/lastmile_qr_scan", "android": "https://dc.lft.to/lastmile_qr_scan"}, "lon": -77.02353266666667, "type": "electric_scooter"}, {"bike_id": "9bf82d867defdaf71c5c8de7d7c5838e", "is_reserved": 0, "fusion_lon": 0.0, "lat": 38.90093516666666, "is_disabled": 0, "name": "9bf82d867defdaf71c5c8de7d7c5838e", "fusion_lat": 0.0, "rental_uris": {"ios": "https://dc.lft.to/lastmile_qr_scan", "android": "https://dc.lft.to/lastmile_qr_scan"}, "lon": -77.025455, "type": "electric_scooter"}, {"bike_id": "dbef6a204ca9011e235e85fbc3c784c7", "is_reserved": 0, "fusion_lon": 0.0, "lat": 38.88368716666667, "is_disabled": 0, "name": "dbef6a204ca9011e235e85fbc3c784c7", "fusion_lat": 0.0, "rental_uris": {"ios": "https://dc.lft.to/lastmile_qr_scan", "android": "https://dc.lft.to/lastmile_qr_scan"}, "lon": -76.99531016666667, "type": "electric_scooter"}, {"bike_id": "d275fd6bab9efdf45d66341ad7e4a4d1", "is_reserved": 0, "fusion_lon": 0.0, "lat": 38.912578, "is_disabled": 0, "name": "d275fd6bab9efdf45d66341ad7e4a4d1", "fusion_lat": 0.0, "rental_uris": {"ios": "https://dc.lft.to/lastmile_qr_scan", "android": "https://dc.lft.to/lastmile_qr_scan"}, "lon": -77.012044, "type": "electric_scooter"}, {"bike_id": "d72034333b77edd763f4b04b7bbf69e9", "is_reserved": 0, "fusion_lon": 0.0, "lat": 38.9538385, "is_disabled": 0, "name": "d72034333b77edd763f4b04b7bbf69e9", "fusion_lat": 0.0, "rental_uris": {"ios": "https://dc.lft.to/lastmile_qr_scan", "android": "https://dc.lft.to/lastmile_qr_scan"}, "lon": -76.9992355, "type": "electric_scooter"}, {"bike_id": "7f44cdd5380bba786b46e688e89590fb", "is_reserved": 0, "fusion_lon": 0.0, "lat": 38.88230333333333, "is_disabled": 0, "name": "7f44cdd5380bba786b46e688e89590fb", "fusion_lat": 0.0, "rental_uris": {"ios": "https://dc.lft.to/lastmile_qr_scan", "android": "https://dc.lft.to/lastmile_qr_scan"}, "lon": -76.99087383333334, "type": "electric_scooter"}, {"bike_id": "554490feb45b2bc56018f7ebdc3e1bef", "is_reserved": 0, "fusion_lon": 0.0, "lat": 38.919878833333335, "is_disabled": 0, "name": "554490feb45b2bc56018f7ebdc3e1bef", "fusion_lat": 0.0, "rental_uris": {"ios": "https://dc.lft.to/lastmile_qr_scan", "android": "https://dc.lft.to/lastmile_qr_scan"}, "lon": -76.97309333333334, "type": "electric_scooter"}, {"bike_id": "10e109d7b20ba854b6fca09bf7ddd801", "is_reserved": 0, "fusion_lon": 0.0, "lat": 38.88758816666667, "is_disabled": 0, "name": "10e109d7b20ba854b6fca09bf7ddd801", "fusion_lat": 0.0, "rental_uris": {"ios": "https://dc.lft.to/lastmile_qr_scan", "android": "https://dc.lft.to/lastmile_qr_scan"}, "lon": -77.02019366666667, "type": "electric_scooter"}, {"bike_id": "be80046ad4582bc6321e63aad4644b8c", "is_reserved": 0, "fusion_lon": 0.0, "lat": 38.950873666666666, "is_disabled": 0, "name": "be80046ad4582bc6321e63aad4644b8c", "fusion_lat": 0.0, "rental_uris": {"ios": "https://dc.lft.to/lastmile_qr_scan", "android": "https://dc.lft.to/lastmile_qr_scan"}, "lon": -77.01256833333333, "type": "electric_bike"}, {"bike_id": "a90a2ecb0dc504ee7a4596ce8159e967", "is_reserved": 0, "fusion_lon": 0.0, "lat": 38.8873875, "is_disabled": 0, "name": "a90a2ecb0dc504ee7a4596ce8159e967", "fusion_lat": 0.0, "rental_uris": {"ios": "https://dc.lft.to/lastmile_qr_scan", "android": "https://dc.lft.to/lastmile_qr_scan"}, "lon": -77.0313035, "type": "electric_scooter"}, {"bike_id": "d9cc1456253a14dfbf9ed8cff0736a09", "is_reserved": 0, "fusion_lon": 0.0, "lat": 38.90601233333334, "is_disabled": 0, "name": "d9cc1456253a14dfbf9ed8cff0736a09", "fusion_lat": 0.0, "rental_uris": {"ios": "https://dc.lft.to/lastmile_qr_scan", "android": "https://dc.lft.to/lastmile_qr_scan"}, "lon": -77.06297, "type": "electric_scooter"}, {"bike_id": "c6ecdf05fb636d373eba4c70bae95333", "is_reserved": 0, "fusion_lon": 0.0, "lat": 38.8877235, "is_disabled": 0, "name": "c6ecdf05fb636d373eba4c70bae95333", "fusion_lat": 0.0, "rental_uris": {"ios": "https://dc.lft.to/lastmile_qr_scan", "android": "https://dc.lft.to/lastmile_qr_scan"}, "lon": -77.030168, "type": "electric_scooter"}, {"bike_id": "f5786282ddfe020d79f28602b29aea58", "is_reserved": 0, "fusion_lon": 0.0, "lat": 38.909596, "is_disabled": 0, "name": "f5786282ddfe020d79f28602b29aea58", "fusion_lat": 0.0, "rental_uris": {"ios": "https://dc.lft.to/lastmile_qr_scan", "android": "https://dc.lft.to/lastmile_qr_scan"}, "lon": -77.048627, "type": "electric_scooter"}, {"bike_id": "2a462432839d9171e856fa8fe02efff3", "is_reserved": 0, "fusion_lon": 0.0, "lat": 38.85807916666667, "is_disabled": 0, "name": "2a462432839d9171e856fa8fe02efff3", "fusion_lat": 0.0, "rental_uris": {"ios": "https://dc.lft.to/lastmile_qr_scan", "android": "https://dc.lft.to/lastmile_qr_scan"}, "lon": -76.98649933333333, "type": "electric_scooter"}, {"bike_id": "70223a8af72d62bddf5360d76fc24186", "is_reserved": 0, "fusion_lon": 0.0, "lat": 38.88835383333333, "is_disabled": 0, "name": "70223a8af72d62bddf5360d76fc24186", "fusion_lat": 0.0, "rental_uris": {"ios": "https://dc.lft.to/lastmile_qr_scan", "android": "https://dc.lft.to/lastmile_qr_scan"}, "lon": -76.9773365, "type": "electric_scooter"}, {"bike_id": "633d98957e97d30094ea5f988ad52a12", "is_reserved": 0, "fusion_lon": 0.0, "lat": 38.89216583333334, "is_disabled": 0, "name": "633d98957e97d30094ea5f988ad52a12", "fusion_lat": 0.0, "rental_uris": {"ios": "https://dc.lft.to/lastmile_qr_scan", "android": "https://dc.lft.to/lastmile_qr_scan"}, "lon": -77.024421, "type": "electric_scooter"}, {"bike_id": "39a847f4e8ca55d15f54501a36a5476a", "is_reserved": 0, "fusion_lon": 0.0, "lat": 38.93722183333333, "is_disabled": 0, "name": "39a847f4e8ca55d15f54501a36a5476a", "fusion_lat": 0.0, "rental_uris": {"ios": "https://dc.lft.to/lastmile_qr_scan", "android": "https://dc.lft.to/lastmile_qr_scan"}, "lon": -77.03262283333333, "type": "electric_scooter"}, {"bike_id": "581565707ef6c6fff412ea6d3ae43a1a", "is_reserved": 0, "fusion_lon": 0.0, "lat": 38.904870833333334, "is_disabled": 0, "name": "581565707ef6c6fff412ea6d3ae43a1a", "fusion_lat": 0.0, "rental_uris": {"ios": "https://dc.lft.to/lastmile_qr_scan", "android": "https://dc.lft.to/lastmile_qr_scan"}, "lon": -77.0601085, "type": "electric_scooter"}, {"bike_id": "e1f1020e5fb50cf913d7f4a277d2ec7e", "is_reserved": 0, "fusion_lon": 0.0, "lat": 38.86561583333334, "is_disabled": 0, "name": "e1f1020e5fb50cf913d7f4a277d2ec7e", "fusion_lat": 0.0, "rental_uris": {"ios": "https://dc.lft.to/lastmile_qr_scan", "android": "https://dc.lft.to/lastmile_qr_scan"}, "lon": -76.98950633333334, "type": "electric_scooter"}, {"bike_id": "3c239746b0e3523aa99f817fad67eb40", "is_reserved": 0, "fusion_lon": 0.0, "lat": 38.900559, "is_disabled": 0, "name": "3c239746b0e3523aa99f817fad67eb40", "fusion_lat": 0.0, "rental_uris": {"ios": "https://dc.lft.to/lastmile_qr_scan", "android": "https://dc.lft.to/lastmile_qr_scan"}, "lon": -77.0021095, "type": "electric_scooter"}, {"bike_id": "f4a691309d41ed1f332fb298871e30a3", "is_reserved": 0, "fusion_lon": 0.0, "lat": 38.9323825, "is_disabled": 0, "name": "f4a691309d41ed1f332fb298871e30a3", "fusion_lat": 0.0, "rental_uris": {"ios": "https://dc.lft.to/lastmile_qr_scan", "android": "https://dc.lft.to/lastmile_qr_scan"}, "lon": -77.03264933333334, "type": "electric_scooter"}, {"bike_id": "69aeb5477379d81360efcf187ccc0b43", "is_reserved": 0, "fusion_lon": 0.0, "lat": 38.910550666666666, "is_disabled": 0, "name": "69aeb5477379d81360efcf187ccc0b43", "fusion_lat": 0.0, "rental_uris": {"ios": "https://dc.lft.to/lastmile_qr_scan", "android": "https://dc.lft.to/lastmile_qr_scan"}, "lon": -77.01980366666666, "type": "electric_scooter"}, {"bike_id": "72cad6aa2bc4515f84f01851194f0ae7", "is_reserved": 0, "fusion_lon": 0.0, "lat": 38.905575, "is_disabled": 0, "name": "72cad6aa2bc4515f84f01851194f0ae7", "fusion_lat": 0.0, "rental_uris": {"ios": "https://dc.lft.to/lastmile_qr_scan", "android": "https://dc.lft.to/lastmile_qr_scan"}, "lon": -77.02488366666667, "type": "electric_scooter"}, {"bike_id": "2ae3c3b382fef566a8659e07a9ef5c64", "is_reserved": 0, "fusion_lon": 0.0, "lat": 38.959259333333335, "is_disabled": 0, "name": "2ae3c3b382fef566a8659e07a9ef5c64", "fusion_lat": 0.0, "rental_uris": {"ios": "https://dc.lft.to/lastmile_qr_scan", "android": "https://dc.lft.to/lastmile_qr_scan"}, "lon": -77.03323883333333, "type": "electric_scooter"}, {"bike_id": "6ff5fac7c00adbdea6f219fda6b413b7", "is_reserved": 0, "fusion_lon": 0.0, "lat": 38.90388766666667, "is_disabled": 0, "name": "6ff5fac7c00adbdea6f219fda6b413b7", "fusion_lat": 0.0, "rental_uris": {"ios": "https://dc.lft.to/lastmile_qr_scan", "android": "https://dc.lft.to/lastmile_qr_scan"}, "lon": -77.04374066666666, "type": "electric_scooter"}, {"bike_id": "ddf12b0c02078c9634afbc11ebf0d767", "is_reserved": 0, "fusion_lon": 0.0, "lat": 38.92878233333333, "is_disabled": 0, "name": "ddf12b0c02078c9634afbc11ebf0d767", "fusion_lat": 0.0, "rental_uris": {"ios": "https://dc.lft.to/lastmile_qr_scan", "android": "https://dc.lft.to/lastmile_qr_scan"}, "lon": -77.0404995, "type": "electric_scooter"}, {"bike_id": "bc7585211735ed5a8456094551ac2373", "is_reserved": 0, "fusion_lon": 0.0, "lat": 38.836931666666665, "is_disabled": 0, "name": "bc7585211735ed5a8456094551ac2373", "fusion_lat": 0.0, "rental_uris": {"ios": "https://dc.lft.to/lastmile_qr_scan", "android": "https://dc.lft.to/lastmile_qr_scan"}, "lon": -77.005845, "type": "electric_scooter"}, {"bike_id": "577b9a67b1a89d3488c52628af0c3aa3", "is_reserved": 0, "fusion_lon": 0.0, "lat": 38.92764966666667, "is_disabled": 0, "name": "577b9a67b1a89d3488c52628af0c3aa3", "fusion_lat": 0.0, "rental_uris": {"ios": "https://dc.lft.to/lastmile_qr_scan", "android": "https://dc.lft.to/lastmile_qr_scan"}, "lon": -77.02848116666667, "type": "electric_scooter"}, {"bike_id": "97b49d55096f6c8acf0c12b3cd615ff0", "is_reserved": 0, "fusion_lon": 0.0, "lat": 38.880512, "is_disabled": 0, "name": "97b49d55096f6c8acf0c12b3cd615ff0", "fusion_lat": 0.0, "rental_uris": {"ios": "https://dc.lft.to/lastmile_qr_scan", "android": "https://dc.lft.to/lastmile_qr_scan"}, "lon": -77.01938, "type": "electric_scooter"}, {"bike_id": "9c2779aafe6ed18291691aedf509c4e8", "is_reserved": 0, "fusion_lon": 0.0, "lat": 38.900219, "is_disabled": 0, "name": "9c2779aafe6ed18291691aedf509c4e8", "fusion_lat": 0.0, "rental_uris": {"ios": "https://dc.lft.to/lastmile_qr_scan", "android": "https://dc.lft.to/lastmile_qr_scan"}, "lon": -76.99758466666667, "type": "electric_scooter"}, {"bike_id": "9c836b051834bbb8e23eeab1a21ee09e", "is_reserved": 0, "fusion_lon": 0.0, "lat": 38.904580333333335, "is_disabled": 0, "name": "9c836b051834bbb8e23eeab1a21ee09e", "fusion_lat": 0.0, "rental_uris": {"ios": "https://dc.lft.to/lastmile_qr_scan", "android": "https://dc.lft.to/lastmile_qr_scan"}, "lon": -77.05334333333333, "type": "electric_scooter"}, {"bike_id": "224de749f7622554f0aa2ac27b8da4df", "is_reserved": 0, "fusion_lon": 0.0, "lat": 38.934964666666666, "is_disabled": 0, "name": "224de749f7622554f0aa2ac27b8da4df", "fusion_lat": 0.0, "rental_uris": {"ios": "https://dc.lft.to/lastmile_qr_scan", "android": "https://dc.lft.to/lastmile_qr_scan"}, "lon": -77.05801733333334, "type": "electric_scooter"}, {"bike_id": "b8ecb929112697e36f063952578ce562", "is_reserved": 0, "fusion_lon": 0.0, "lat": 38.93673716666667, "is_disabled": 0, "name": "b8ecb929112697e36f063952578ce562", "fusion_lat": 0.0, "rental_uris": {"ios": "https://dc.lft.to/lastmile_qr_scan", "android": "https://dc.lft.to/lastmile_qr_scan"}, "lon": -76.95226683333334, "type": "electric_bike"}, {"bike_id": "c4a7ed8db1f644bdc7c6eb686a47290c", "is_reserved": 0, "fusion_lon": 0.0, "lat": 38.9170675, "is_disabled": 0, "name": "c4a7ed8db1f644bdc7c6eb686a47290c", "fusion_lat": 0.0, "rental_uris": {"ios": "https://dc.lft.to/lastmile_qr_scan", "android": "https://dc.lft.to/lastmile_qr_scan"}, "lon": -77.00713883333333, "type": "electric_scooter"}, {"bike_id": "222e5b1396e07c8313bb624f7fd694fc", "is_reserved": 0, "fusion_lon": 0.0, "lat": 38.9237275, "is_disabled": 0, "name": "222e5b1396e07c8313bb624f7fd694fc", "fusion_lat": 0.0, "rental_uris": {"ios": "https://dc.lft.to/lastmile_qr_scan", "android": "https://dc.lft.to/lastmile_qr_scan"}, "lon": -77.01912, "type": "electric_scooter"}, {"bike_id": "d4a00a327597857a402e5549e06adef8", "is_reserved": 0, "fusion_lon": 0.0, "lat": 38.86451433333333, "is_disabled": 0, "name": "d4a00a327597857a402e5549e06adef8", "fusion_lat": 0.0, "rental_uris": {"ios": "https://dc.lft.to/lastmile_qr_scan", "android": "https://dc.lft.to/lastmile_qr_scan"}, "lon": -76.94540483333333, "type": "electric_bike"}, {"bike_id": "d620571632fdd5174aa1ec159daa8d5b", "is_reserved": 0, "fusion_lon": 0.0, "lat": 38.89982, "is_disabled": 0, "name": "d620571632fdd5174aa1ec159daa8d5b", "fusion_lat": 0.0, "rental_uris": {"ios": "https://dc.lft.to/lastmile_qr_scan", "android": "https://dc.lft.to/lastmile_qr_scan"}, "lon": -77.05574216666666, "type": "electric_scooter"}, {"bike_id": "68cc6b46320fca8cb4082efd1e6e32d4", "is_reserved": 0, "fusion_lon": 0.0, "lat": 38.93751266666666, "is_disabled": 0, "name": "68cc6b46320fca8cb4082efd1e6e32d4", "fusion_lat": 0.0, "rental_uris": {"ios": "https://dc.lft.to/lastmile_qr_scan", "android": "https://dc.lft.to/lastmile_qr_scan"}, "lon": -77.024814, "type": "electric_scooter"}, {"bike_id": "c3b9587c1df08d79aec66005854e5c0c", "is_reserved": 0, "fusion_lon": 0.0, "lat": 38.92210433333333, "is_disabled": 0, "name": "c3b9587c1df08d79aec66005854e5c0c", "fusion_lat": 0.0, "rental_uris": {"ios": "https://dc.lft.to/lastmile_qr_scan", "android": "https://dc.lft.to/lastmile_qr_scan"}, "lon": -77.03664633333334, "type": "electric_scooter"}, {"bike_id": "f50b6eba6f312a3a3811bc5c7cbe885c", "is_reserved": 0, "fusion_lon": 0.0, "lat": 38.93087833333333, "is_disabled": 0, "name": "f50b6eba6f312a3a3811bc5c7cbe885c", "fusion_lat": 0.0, "rental_uris": {"ios": "https://dc.lft.to/lastmile_qr_scan", "android": "https://dc.lft.to/lastmile_qr_scan"}, "lon": -77.07789066666666, "type": "electric_scooter"}, {"bike_id": "010e131db9cea6a89ff4a44c396a7524", "is_reserved": 0, "fusion_lon": 0.0, "lat": 38.874849166666664, "is_disabled": 0, "name": "010e131db9cea6a89ff4a44c396a7524", "fusion_lat": 0.0, "rental_uris": {"ios": "https://dc.lft.to/lastmile_qr_scan", "android": "https://dc.lft.to/lastmile_qr_scan"}, "lon": -76.96527416666666, "type": "electric_bike"}, {"bike_id": "ddffe087292e7fc58d1aeb4a9ccb4fdc", "is_reserved": 0, "fusion_lon": 0.0, "lat": 38.92614616666667, "is_disabled": 0, "name": "ddffe087292e7fc58d1aeb4a9ccb4fdc", "fusion_lat": 0.0, "rental_uris": {"ios": "https://dc.lft.to/lastmile_qr_scan", "android": "https://dc.lft.to/lastmile_qr_scan"}, "lon": -77.02164366666666, "type": "electric_scooter"}, {"bike_id": "0f3a4dc87e8c801548cc03e705d0d0ef", "is_reserved": 0, "fusion_lon": 0.0, "lat": 38.914063166666665, "is_disabled": 0, "name": "0f3a4dc87e8c801548cc03e705d0d0ef", "fusion_lat": 0.0, "rental_uris": {"ios": "https://dc.lft.to/lastmile_qr_scan", "android": "https://dc.lft.to/lastmile_qr_scan"}, "lon": -77.028351, "type": "electric_scooter"}, {"bike_id": "de1cb4a38d8fb599da030436e7a751c4", "is_reserved": 0, "fusion_lon": 0.0, "lat": 38.91630966666666, "is_disabled": 0, "name": "de1cb4a38d8fb599da030436e7a751c4", "fusion_lat": 0.0, "rental_uris": {"ios": "https://dc.lft.to/lastmile_qr_scan", "android": "https://dc.lft.to/lastmile_qr_scan"}, "lon": -77.04624483333333, "type": "electric_scooter"}, {"bike_id": "a461e14cd6406b90283a3b5384c2db91", "is_reserved": 0, "fusion_lon": 0.0, "lat": 38.86525916666667, "is_disabled": 0, "name": "a461e14cd6406b90283a3b5384c2db91", "fusion_lat": 0.0, "rental_uris": {"ios": "https://dc.lft.to/lastmile_qr_scan", "android": "https://dc.lft.to/lastmile_qr_scan"}, "lon": -76.99034983333334, "type": "electric_scooter"}, {"bike_id": "5853eedf98b33fcebfce801c78aa65c1", "is_reserved": 0, "fusion_lon": 0.0, "lat": 38.897398, "is_disabled": 0, "name": "5853eedf98b33fcebfce801c78aa65c1", "fusion_lat": 0.0, "rental_uris": {"ios": "https://dc.lft.to/lastmile_qr_scan", "android": "https://dc.lft.to/lastmile_qr_scan"}, "lon": -77.04625483333334, "type": "electric_scooter"}, {"bike_id": "b0bcc6ebddfd922964d8a63f569a56d2", "is_reserved": 0, "fusion_lon": 0.0, "lat": 38.8928115, "is_disabled": 0, "name": "b0bcc6ebddfd922964d8a63f569a56d2", "fusion_lat": 0.0, "rental_uris": {"ios": "https://dc.lft.to/lastmile_qr_scan", "android": "https://dc.lft.to/lastmile_qr_scan"}, "lon": -77.02605733333333, "type": "electric_scooter"}, {"bike_id": "40bd5885c4c5efc56ee346b2ab63fdd8", "is_reserved": 0, "fusion_lon": 0.0, "lat": 38.9161285, "is_disabled": 0, "name": "40bd5885c4c5efc56ee346b2ab63fdd8", "fusion_lat": 0.0, "rental_uris": {"ios": "https://dc.lft.to/lastmile_qr_scan", "android": "https://dc.lft.to/lastmile_qr_scan"}, "lon": -77.04571733333333, "type": "electric_scooter"}, {"bike_id": "a6593f6a6a3556578a5d7d42f9534159", "is_reserved": 0, "fusion_lon": 0.0, "lat": 38.861858166666664, "is_disabled": 0, "name": "a6593f6a6a3556578a5d7d42f9534159", "fusion_lat": 0.0, "rental_uris": {"ios": "https://dc.lft.to/lastmile_qr_scan", "android": "https://dc.lft.to/lastmile_qr_scan"}, "lon": -76.99428933333333, "type": "electric_scooter"}, {"bike_id": "afa51431434f0417984c304f553f72b3", "is_reserved": 0, "fusion_lon": 0.0, "lat": 38.904778, "is_disabled": 0, "name": "afa51431434f0417984c304f553f72b3", "fusion_lat": 0.0, "rental_uris": {"ios": "https://dc.lft.to/lastmile_qr_scan", "android": "https://dc.lft.to/lastmile_qr_scan"}, "lon": -77.04647933333334, "type": "electric_scooter"}, {"bike_id": "49275dfe757315181fe9d27bc1301670", "is_reserved": 0, "fusion_lon": 0.0, "lat": 38.93940833333333, "is_disabled": 0, "name": "49275dfe757315181fe9d27bc1301670", "fusion_lat": 0.0, "rental_uris": {"ios": "https://dc.lft.to/lastmile_qr_scan", "android": "https://dc.lft.to/lastmile_qr_scan"}, "lon": -77.061143, "type": "electric_scooter"}, {"bike_id": "385447ca4cb5b9c9c670baefb81ded5d", "is_reserved": 0, "fusion_lon": 0.0, "lat": 38.89224683333333, "is_disabled": 0, "name": "385447ca4cb5b9c9c670baefb81ded5d", "fusion_lat": 0.0, "rental_uris": {"ios": "https://dc.lft.to/lastmile_qr_scan", "android": "https://dc.lft.to/lastmile_qr_scan"}, "lon": -77.048693, "type": "electric_scooter"}, {"bike_id": "592cffc840813c88b179f68e7b3c51dd", "is_reserved": 0, "fusion_lon": 0.0, "lat": 38.8666255, "is_disabled": 0, "name": "592cffc840813c88b179f68e7b3c51dd", "fusion_lat": 0.0, "rental_uris": {"ios": "https://dc.lft.to/lastmile_qr_scan", "android": "https://dc.lft.to/lastmile_qr_scan"}, "lon": -76.98898083333333, "type": "electric_scooter"}, {"bike_id": "495c3d9ac138da7e90208546d7be9d80", "is_reserved": 0, "fusion_lon": 0.0, "lat": 38.946318833333336, "is_disabled": 0, "name": "495c3d9ac138da7e90208546d7be9d80", "fusion_lat": 0.0, "rental_uris": {"ios": "https://dc.lft.to/lastmile_qr_scan", "android": "https://dc.lft.to/lastmile_qr_scan"}, "lon": -77.018435, "type": "electric_scooter"}, {"bike_id": "6bf7dd3557e41538393150a5c39db8d1", "is_reserved": 0, "fusion_lon": 0.0, "lat": 38.83866116666667, "is_disabled": 0, "name": "6bf7dd3557e41538393150a5c39db8d1", "fusion_lat": 0.0, "rental_uris": {"ios": "https://dc.lft.to/lastmile_qr_scan", "android": "https://dc.lft.to/lastmile_qr_scan"}, "lon": -76.99696883333333, "type": "electric_bike"}, {"bike_id": "36de008fd12daff320ff12cc17235dd2", "is_reserved": 0, "fusion_lon": 0.0, "lat": 38.91187266666667, "is_disabled": 0, "name": "36de008fd12daff320ff12cc17235dd2", "fusion_lat": 0.0, "rental_uris": {"ios": "https://dc.lft.to/lastmile_qr_scan", "android": "https://dc.lft.to/lastmile_qr_scan"}, "lon": -77.03128883333333, "type": "electric_scooter"}, {"bike_id": "3e2fc9dd593a633ab6d975edff192424", "is_reserved": 0, "fusion_lon": 0.0, "lat": 38.83812233333333, "is_disabled": 0, "name": "3e2fc9dd593a633ab6d975edff192424", "fusion_lat": 0.0, "rental_uris": {"ios": "https://dc.lft.to/lastmile_qr_scan", "android": "https://dc.lft.to/lastmile_qr_scan"}, "lon": -77.095235, "type": "electric_bike"}, {"bike_id": "74a9437476075623bc1bd1220c739e72", "is_reserved": 0, "fusion_lon": 0.0, "lat": 38.93293166666667, "is_disabled": 0, "name": "74a9437476075623bc1bd1220c739e72", "fusion_lat": 0.0, "rental_uris": {"ios": "https://dc.lft.to/lastmile_qr_scan", "android": "https://dc.lft.to/lastmile_qr_scan"}, "lon": -77.03980666666666, "type": "electric_scooter"}, {"bike_id": "a8f36741e4ce63d30d77691daeec0823", "is_reserved": 0, "fusion_lon": 0.0, "lat": 38.92124833333333, "is_disabled": 0, "name": "a8f36741e4ce63d30d77691daeec0823", "fusion_lat": 0.0, "rental_uris": {"ios": "https://dc.lft.to/lastmile_qr_scan", "android": "https://dc.lft.to/lastmile_qr_scan"}, "lon": -77.04583033333333, "type": "electric_scooter"}, {"bike_id": "1643ce4a8a525e6edfdae965a553122e", "is_reserved": 0, "fusion_lon": 0.0, "lat": 38.865274, "is_disabled": 0, "name": "1643ce4a8a525e6edfdae965a553122e", "fusion_lat": 0.0, "rental_uris": {"ios": "https://dc.lft.to/lastmile_qr_scan", "android": "https://dc.lft.to/lastmile_qr_scan"}, "lon": -76.99027666666667, "type": "electric_scooter"}, {"bike_id": "604eb6242c758e74d8a0b1dca0433ce7", "is_reserved": 0, "fusion_lon": 0.0, "lat": 38.897431166666664, "is_disabled": 0, "name": "604eb6242c758e74d8a0b1dca0433ce7", "fusion_lat": 0.0, "rental_uris": {"ios": "https://dc.lft.to/lastmile_qr_scan", "android": "https://dc.lft.to/lastmile_qr_scan"}, "lon": -76.9384765, "type": "electric_scooter"}, {"bike_id": "c792503a2a41a2b1ba3de607fc615cc7", "is_reserved": 0, "fusion_lon": 0.0, "lat": 38.89611083333333, "is_disabled": 0, "name": "c792503a2a41a2b1ba3de607fc615cc7", "fusion_lat": 0.0, "rental_uris": {"ios": "https://dc.lft.to/lastmile_qr_scan", "android": "https://dc.lft.to/lastmile_qr_scan"}, "lon": -77.0445895, "type": "electric_scooter"}, {"bike_id": "6f498d20cc4bf1235752b4439a85d530", "is_reserved": 0, "fusion_lon": 0.0, "lat": 38.9127365, "is_disabled": 0, "name": "6f498d20cc4bf1235752b4439a85d530", "fusion_lat": 0.0, "rental_uris": {"ios": "https://dc.lft.to/lastmile_qr_scan", "android": "https://dc.lft.to/lastmile_qr_scan"}, "lon": -77.0312795, "type": "electric_scooter"}, {"bike_id": "43af944279069de5e3000d16cb8e2bc4", "is_reserved": 0, "fusion_lon": 0.0, "lat": 38.914744, "is_disabled": 0, "name": "43af944279069de5e3000d16cb8e2bc4", "fusion_lat": 0.0, "rental_uris": {"ios": "https://dc.lft.to/lastmile_qr_scan", "android": "https://dc.lft.to/lastmile_qr_scan"}, "lon": -76.98433366666667, "type": "electric_scooter"}, {"bike_id": "591000de92dc4bab0f5d2a6b524ff635", "is_reserved": 0, "fusion_lon": 0.0, "lat": 38.904643666666665, "is_disabled": 0, "name": "591000de92dc4bab0f5d2a6b524ff635", "fusion_lat": 0.0, "rental_uris": {"ios": "https://dc.lft.to/lastmile_qr_scan", "android": "https://dc.lft.to/lastmile_qr_scan"}, "lon": -77.02979416666666, "type": "electric_scooter"}, {"bike_id": "2bb6bcd97861582dbc9aa05b454f6acf", "is_reserved": 0, "fusion_lon": 0.0, "lat": 38.876295999999996, "is_disabled": 0, "name": "2bb6bcd97861582dbc9aa05b454f6acf", "fusion_lat": 0.0, "rental_uris": {"ios": "https://dc.lft.to/lastmile_qr_scan", "android": "https://dc.lft.to/lastmile_qr_scan"}, "lon": -76.96526316666667, "type": "electric_scooter"}, {"bike_id": "84a1136239df0b355f8db3c541a1c100", "is_reserved": 0, "fusion_lon": 0.0, "lat": 38.94016383333334, "is_disabled": 0, "name": "84a1136239df0b355f8db3c541a1c100", "fusion_lat": 0.0, "rental_uris": {"ios": "https://dc.lft.to/lastmile_qr_scan", "android": "https://dc.lft.to/lastmile_qr_scan"}, "lon": -77.07171616666666, "type": "electric_scooter"}, {"bike_id": "0f5cdde877b80f3cbb111db5cf350142", "is_reserved": 0, "fusion_lon": 0.0, "lat": 38.9027395, "is_disabled": 0, "name": "0f5cdde877b80f3cbb111db5cf350142", "fusion_lat": 0.0, "rental_uris": {"ios": "https://dc.lft.to/lastmile_qr_scan", "android": "https://dc.lft.to/lastmile_qr_scan"}, "lon": -77.0397735, "type": "electric_scooter"}, {"bike_id": "bdf2279e783dbe5c18ad0bf1f1117220", "is_reserved": 0, "fusion_lon": 0.0, "lat": 38.850652833333335, "is_disabled": 0, "name": "bdf2279e783dbe5c18ad0bf1f1117220", "fusion_lat": 0.0, "rental_uris": {"ios": "https://dc.lft.to/lastmile_qr_scan", "android": "https://dc.lft.to/lastmile_qr_scan"}, "lon": -76.97331916666667, "type": "electric_bike"}, {"bike_id": "3ea2cee6e112430247ae89cf56f076a0", "is_reserved": 0, "fusion_lon": 0.0, "lat": 38.8982795, "is_disabled": 0, "name": "3ea2cee6e112430247ae89cf56f076a0", "fusion_lat": 0.0, "rental_uris": {"ios": "https://dc.lft.to/lastmile_qr_scan", "android": "https://dc.lft.to/lastmile_qr_scan"}, "lon": -77.03350616666667, "type": "electric_scooter"}, {"bike_id": "f87f0484b84e49e118be17825ae68608", "is_reserved": 0, "fusion_lon": 0.0, "lat": 38.90212566666667, "is_disabled": 0, "name": "f87f0484b84e49e118be17825ae68608", "fusion_lat": 0.0, "rental_uris": {"ios": "https://dc.lft.to/lastmile_qr_scan", "android": "https://dc.lft.to/lastmile_qr_scan"}, "lon": -77.04631666666667, "type": "electric_scooter"}, {"bike_id": "2835f90baa42e75d4b79d729ab425d88", "is_reserved": 0, "fusion_lon": 0.0, "lat": 38.903798, "is_disabled": 0, "name": "2835f90baa42e75d4b79d729ab425d88", "fusion_lat": 0.0, "rental_uris": {"ios": "https://dc.lft.to/lastmile_qr_scan", "android": "https://dc.lft.to/lastmile_qr_scan"}, "lon": -77.0451585, "type": "electric_scooter"}, {"bike_id": "d6267e57f44bfa1c67d2c6d954a02175", "is_reserved": 0, "fusion_lon": 0.0, "lat": 38.92067733333333, "is_disabled": 0, "name": "d6267e57f44bfa1c67d2c6d954a02175", "fusion_lat": 0.0, "rental_uris": {"ios": "https://dc.lft.to/lastmile_qr_scan", "android": "https://dc.lft.to/lastmile_qr_scan"}, "lon": -77.04380416666666, "type": "electric_scooter"}, {"bike_id": "e3afebb8f7f06f06459c6cad654b9c84", "is_reserved": 0, "fusion_lon": 0.0, "lat": 38.95110016666667, "is_disabled": 0, "name": "e3afebb8f7f06f06459c6cad654b9c84", "fusion_lat": 0.0, "rental_uris": {"ios": "https://dc.lft.to/lastmile_qr_scan", "android": "https://dc.lft.to/lastmile_qr_scan"}, "lon": -77.01576166666666, "type": "electric_scooter"}, {"bike_id": "9fa030ab1ec3d2b7c1da6c30de4b19dd", "is_reserved": 0, "fusion_lon": 0.0, "lat": 38.936783166666665, "is_disabled": 0, "name": "9fa030ab1ec3d2b7c1da6c30de4b19dd", "fusion_lat": 0.0, "rental_uris": {"ios": "https://dc.lft.to/lastmile_qr_scan", "android": "https://dc.lft.to/lastmile_qr_scan"}, "lon": -77.03624933333333, "type": "electric_scooter"}, {"bike_id": "056280f2c6afc8853c2cd8912f4bcb54", "is_reserved": 0, "fusion_lon": 0.0, "lat": 38.941718, "is_disabled": 0, "name": "056280f2c6afc8853c2cd8912f4bcb54", "fusion_lat": 0.0, "rental_uris": {"ios": "https://dc.lft.to/lastmile_qr_scan", "android": "https://dc.lft.to/lastmile_qr_scan"}, "lon": -77.03280283333334, "type": "electric_scooter"}, {"bike_id": "f128e011a6f1c03b6753fd223ab12705", "is_reserved": 0, "fusion_lon": 0.0, "lat": 38.90957816666667, "is_disabled": 0, "name": "f128e011a6f1c03b6753fd223ab12705", "fusion_lat": 0.0, "rental_uris": {"ios": "https://dc.lft.to/lastmile_qr_scan", "android": "https://dc.lft.to/lastmile_qr_scan"}, "lon": -77.03774, "type": "electric_scooter"}, {"bike_id": "ec64efe13dc832f1f2d001999f708328", "is_reserved": 0, "fusion_lon": 0.0, "lat": 38.898060666666666, "is_disabled": 0, "name": "ec64efe13dc832f1f2d001999f708328", "fusion_lat": 0.0, "rental_uris": {"ios": "https://dc.lft.to/lastmile_qr_scan", "android": "https://dc.lft.to/lastmile_qr_scan"}, "lon": -77.00601366666666, "type": "electric_bike"}, {"bike_id": "c1864045ef89d44d99efeaae50d5540b", "is_reserved": 0, "fusion_lon": 0.0, "lat": 38.865257666666665, "is_disabled": 0, "name": "c1864045ef89d44d99efeaae50d5540b", "fusion_lat": 0.0, "rental_uris": {"ios": "https://dc.lft.to/lastmile_qr_scan", "android": "https://dc.lft.to/lastmile_qr_scan"}, "lon": -76.99033816666666, "type": "electric_scooter"}, {"bike_id": "51cee616f8d02784091a51c97007b215", "is_reserved": 0, "fusion_lon": 0.0, "lat": 38.90031066666667, "is_disabled": 0, "name": "51cee616f8d02784091a51c97007b215", "fusion_lat": 0.0, "rental_uris": {"ios": "https://dc.lft.to/lastmile_qr_scan", "android": "https://dc.lft.to/lastmile_qr_scan"}, "lon": -76.99837466666666, "type": "electric_scooter"}, {"bike_id": "1570bd22b189cb982f27176ed525f614", "is_reserved": 0, "fusion_lon": 0.0, "lat": 38.918201, "is_disabled": 0, "name": "1570bd22b189cb982f27176ed525f614", "fusion_lat": 0.0, "rental_uris": {"ios": "https://dc.lft.to/lastmile_qr_scan", "android": "https://dc.lft.to/lastmile_qr_scan"}, "lon": -77.03203766666667, "type": "electric_scooter"}, {"bike_id": "0375f883d862ab83f2620cb192c6b630", "is_reserved": 0, "fusion_lon": 0.0, "lat": 38.8837335, "is_disabled": 0, "name": "0375f883d862ab83f2620cb192c6b630", "fusion_lat": 0.0, "rental_uris": {"ios": "https://dc.lft.to/lastmile_qr_scan", "android": "https://dc.lft.to/lastmile_qr_scan"}, "lon": -76.99522066666667, "type": "electric_scooter"}, {"bike_id": "8b655abb2ae87b5a11b2c77cbb19e2da", "is_reserved": 0, "fusion_lon": 0.0, "lat": 38.910314, "is_disabled": 0, "name": "8b655abb2ae87b5a11b2c77cbb19e2da", "fusion_lat": 0.0, "rental_uris": {"ios": "https://dc.lft.to/lastmile_qr_scan", "android": "https://dc.lft.to/lastmile_qr_scan"}, "lon": -77.0385015, "type": "electric_scooter"}, {"bike_id": "7cf1a230bbbae93aa98564ce27c01cd5", "is_reserved": 0, "fusion_lon": 0.0, "lat": 38.928741333333335, "is_disabled": 0, "name": "7cf1a230bbbae93aa98564ce27c01cd5", "fusion_lat": 0.0, "rental_uris": {"ios": "https://dc.lft.to/lastmile_qr_scan", "android": "https://dc.lft.to/lastmile_qr_scan"}, "lon": -77.03266783333333, "type": "electric_scooter"}, {"bike_id": "22393a1471090c6f85c2116db40c6eb5", "is_reserved": 0, "fusion_lon": 0.0, "lat": 38.95646816666667, "is_disabled": 0, "name": "22393a1471090c6f85c2116db40c6eb5", "fusion_lat": 0.0, "rental_uris": {"ios": "https://dc.lft.to/lastmile_qr_scan", "android": "https://dc.lft.to/lastmile_qr_scan"}, "lon": -77.022618, "type": "electric_scooter"}, {"bike_id": "56cc7693766f46658b6d874286b9c794", "is_reserved": 0, "fusion_lon": 0.0, "lat": 38.92480583333333, "is_disabled": 0, "name": "56cc7693766f46658b6d874286b9c794", "fusion_lat": 0.0, "rental_uris": {"ios": "https://dc.lft.to/lastmile_qr_scan", "android": "https://dc.lft.to/lastmile_qr_scan"}, "lon": -77.05210466666666, "type": "electric_scooter"}, {"bike_id": "c7108b80624c9e6c31e0c2d8a6aa7008", "is_reserved": 0, "fusion_lon": 0.0, "lat": 38.898349, "is_disabled": 0, "name": "c7108b80624c9e6c31e0c2d8a6aa7008", "fusion_lat": 0.0, "rental_uris": {"ios": "https://dc.lft.to/lastmile_qr_scan", "android": "https://dc.lft.to/lastmile_qr_scan"}, "lon": -77.03283466666667, "type": "electric_scooter"}, {"bike_id": "474ae59d70113531243e5dd3642a76ed", "is_reserved": 0, "fusion_lon": 0.0, "lat": 38.85290966666667, "is_disabled": 0, "name": "474ae59d70113531243e5dd3642a76ed", "fusion_lat": 0.0, "rental_uris": {"ios": "https://dc.lft.to/lastmile_qr_scan", "android": "https://dc.lft.to/lastmile_qr_scan"}, "lon": -77.05279916666667, "type": "electric_bike"}, {"bike_id": "84d17baee033dfdc92c6bfaa2733f6c2", "is_reserved": 0, "fusion_lon": 0.0, "lat": 38.85682633333333, "is_disabled": 0, "name": "84d17baee033dfdc92c6bfaa2733f6c2", "fusion_lat": 0.0, "rental_uris": {"ios": "https://dc.lft.to/lastmile_qr_scan", "android": "https://dc.lft.to/lastmile_qr_scan"}, "lon": -77.08568616666666, "type": "electric_bike"}, {"bike_id": "44f576cbac3e1d48fc6368aee634fda2", "is_reserved": 0, "fusion_lon": 0.0, "lat": 38.871169333333334, "is_disabled": 0, "name": "44f576cbac3e1d48fc6368aee634fda2", "fusion_lat": 0.0, "rental_uris": {"ios": "https://dc.lft.to/lastmile_qr_scan", "android": "https://dc.lft.to/lastmile_qr_scan"}, "lon": -76.977431, "type": "electric_scooter"}, {"bike_id": "9d1c90e52115409604e4bd9963c8e427", "is_reserved": 0, "fusion_lon": 0.0, "lat": 38.863797, "is_disabled": 0, "name": "9d1c90e52115409604e4bd9963c8e427", "fusion_lat": 0.0, "rental_uris": {"ios": "https://dc.lft.to/lastmile_qr_scan", "android": "https://dc.lft.to/lastmile_qr_scan"}, "lon": -76.99054466666666, "type": "electric_scooter"}, {"bike_id": "30696f9edb13eb6d95de0492c93ae6b2", "is_reserved": 0, "fusion_lon": 0.0, "lat": 38.96490266666667, "is_disabled": 0, "name": "30696f9edb13eb6d95de0492c93ae6b2", "fusion_lat": 0.0, "rental_uris": {"ios": "https://dc.lft.to/lastmile_qr_scan", "android": "https://dc.lft.to/lastmile_qr_scan"}, "lon": -77.0875095, "type": "electric_bike"}, {"bike_id": "11035d456ad653a0ba61c4d3bec34098", "is_reserved": 0, "fusion_lon": 0.0, "lat": 38.90050816666667, "is_disabled": 0, "name": "11035d456ad653a0ba61c4d3bec34098", "fusion_lat": 0.0, "rental_uris": {"ios": "https://dc.lft.to/lastmile_qr_scan", "android": "https://dc.lft.to/lastmile_qr_scan"}, "lon": -77.00767, "type": "electric_scooter"}, {"bike_id": "82e7a6e397dbb422bce5de8a005b8b83", "is_reserved": 0, "fusion_lon": 0.0, "lat": 38.95651433333333, "is_disabled": 0, "name": "82e7a6e397dbb422bce5de8a005b8b83", "fusion_lat": 0.0, "rental_uris": {"ios": "https://dc.lft.to/lastmile_qr_scan", "android": "https://dc.lft.to/lastmile_qr_scan"}, "lon": -77.03284883333333, "type": "electric_scooter"}, {"bike_id": "8e3bddcf8095ba05840e0f3e9add14ce", "is_reserved": 0, "fusion_lon": 0.0, "lat": 38.89220533333334, "is_disabled": 0, "name": "8e3bddcf8095ba05840e0f3e9add14ce", "fusion_lat": 0.0, "rental_uris": {"ios": "https://dc.lft.to/lastmile_qr_scan", "android": "https://dc.lft.to/lastmile_qr_scan"}, "lon": -77.031679, "type": "electric_scooter"}, {"bike_id": "57d0f8e0830f3830e33dcee096dad50e", "is_reserved": 0, "fusion_lon": 0.0, "lat": 38.827861666666664, "is_disabled": 0, "name": "57d0f8e0830f3830e33dcee096dad50e", "fusion_lat": 0.0, "rental_uris": {"ios": "https://dc.lft.to/lastmile_qr_scan", "android": "https://dc.lft.to/lastmile_qr_scan"}, "lon": -77.0092005, "type": "electric_bike"}, {"bike_id": "08899b0e5c1b796f0aec580ddab4435a", "is_reserved": 0, "fusion_lon": 0.0, "lat": 38.927603166666664, "is_disabled": 0, "name": "08899b0e5c1b796f0aec580ddab4435a", "fusion_lat": 0.0, "rental_uris": {"ios": "https://dc.lft.to/lastmile_qr_scan", "android": "https://dc.lft.to/lastmile_qr_scan"}, "lon": -77.03286016666667, "type": "electric_scooter"}, {"bike_id": "01be34f36b816ea0db0cf51bc1064c1f", "is_reserved": 0, "fusion_lon": 0.0, "lat": 38.9010325, "is_disabled": 0, "name": "01be34f36b816ea0db0cf51bc1064c1f", "fusion_lat": 0.0, "rental_uris": {"ios": "https://dc.lft.to/lastmile_qr_scan", "android": "https://dc.lft.to/lastmile_qr_scan"}, "lon": -77.04813033333333, "type": "electric_scooter"}, {"bike_id": "fe67b5431cb36f34e5f6004f43d33baa", "is_reserved": 0, "fusion_lon": 0.0, "lat": 38.899077, "is_disabled": 0, "name": "fe67b5431cb36f34e5f6004f43d33baa", "fusion_lat": 0.0, "rental_uris": {"ios": "https://dc.lft.to/lastmile_qr_scan", "android": "https://dc.lft.to/lastmile_qr_scan"}, "lon": -77.032773, "type": "electric_scooter"}, {"bike_id": "0c9ca21e0f76ad4cfa81cb17ce945e0f", "is_reserved": 0, "fusion_lon": 0.0, "lat": 38.9843385, "is_disabled": 0, "name": "0c9ca21e0f76ad4cfa81cb17ce945e0f", "fusion_lat": 0.0, "rental_uris": {"ios": "https://dc.lft.to/lastmile_qr_scan", "android": "https://dc.lft.to/lastmile_qr_scan"}, "lon": -77.02674416666666, "type": "electric_scooter"}, {"bike_id": "c2a8e6aaa9a40d9d67bd3f4cafa65214", "is_reserved": 0, "fusion_lon": 0.0, "lat": 38.8848925, "is_disabled": 0, "name": "c2a8e6aaa9a40d9d67bd3f4cafa65214", "fusion_lat": 0.0, "rental_uris": {"ios": "https://dc.lft.to/lastmile_qr_scan", "android": "https://dc.lft.to/lastmile_qr_scan"}, "lon": -77.0072775, "type": "electric_scooter"}, {"bike_id": "2566be46f6a56c0e37245dbe104b21e4", "is_reserved": 0, "fusion_lon": 0.0, "lat": 38.89195866666667, "is_disabled": 0, "name": "2566be46f6a56c0e37245dbe104b21e4", "fusion_lat": 0.0, "rental_uris": {"ios": "https://dc.lft.to/lastmile_qr_scan", "android": "https://dc.lft.to/lastmile_qr_scan"}, "lon": -77.0283355, "type": "electric_scooter"}, {"bike_id": "ae8ea73d5ab1a4bbc532777e2ac8d3db", "is_reserved": 0, "fusion_lon": 0.0, "lat": 39.0014265, "is_disabled": 0, "name": "ae8ea73d5ab1a4bbc532777e2ac8d3db", "fusion_lat": 0.0, "rental_uris": {"ios": "https://dc.lft.to/lastmile_qr_scan", "android": "https://dc.lft.to/lastmile_qr_scan"}, "lon": -77.05694016666666, "type": "electric_bike"}, {"bike_id": "45fc2b2348b104078f67da3cd344c70a", "is_reserved": 0, "fusion_lon": 0.0, "lat": 38.937095166666666, "is_disabled": 0, "name": "45fc2b2348b104078f67da3cd344c70a", "fusion_lat": 0.0, "rental_uris": {"ios": "https://dc.lft.to/lastmile_qr_scan", "android": "https://dc.lft.to/lastmile_qr_scan"}, "lon": -77.029359, "type": "electric_scooter"}, {"bike_id": "d59f9ef4df25382aadf723834733be19", "is_reserved": 0, "fusion_lon": 0.0, "lat": 38.8983425, "is_disabled": 0, "name": "d59f9ef4df25382aadf723834733be19", "fusion_lat": 0.0, "rental_uris": {"ios": "https://dc.lft.to/lastmile_qr_scan", "android": "https://dc.lft.to/lastmile_qr_scan"}, "lon": -77.00748683333333, "type": "electric_scooter"}, {"bike_id": "ad859df5cd61f87f59b2b4c96947ce53", "is_reserved": 0, "fusion_lon": 0.0, "lat": 38.92176116666667, "is_disabled": 0, "name": "ad859df5cd61f87f59b2b4c96947ce53", "fusion_lat": 0.0, "rental_uris": {"ios": "https://dc.lft.to/lastmile_qr_scan", "android": "https://dc.lft.to/lastmile_qr_scan"}, "lon": -77.04016, "type": "electric_scooter"}, {"bike_id": "7c21868df619aec68f9fd46edd54d965", "is_reserved": 0, "fusion_lon": 0.0, "lat": 38.928482333333335, "is_disabled": 0, "name": "7c21868df619aec68f9fd46edd54d965", "fusion_lat": 0.0, "rental_uris": {"ios": "https://dc.lft.to/lastmile_qr_scan", "android": "https://dc.lft.to/lastmile_qr_scan"}, "lon": -77.0135935, "type": "electric_scooter"}, {"bike_id": "914cb472717109c3c09f898bafd4d972", "is_reserved": 0, "fusion_lon": 0.0, "lat": 38.90477883333333, "is_disabled": 0, "name": "914cb472717109c3c09f898bafd4d972", "fusion_lat": 0.0, "rental_uris": {"ios": "https://dc.lft.to/lastmile_qr_scan", "android": "https://dc.lft.to/lastmile_qr_scan"}, "lon": -77.040196, "type": "electric_scooter"}, {"bike_id": "04808da76bb50fee9d88593e7c54e1da", "is_reserved": 0, "fusion_lon": 0.0, "lat": 38.9074575, "is_disabled": 0, "name": "04808da76bb50fee9d88593e7c54e1da", "fusion_lat": 0.0, "rental_uris": {"ios": "https://dc.lft.to/lastmile_qr_scan", "android": "https://dc.lft.to/lastmile_qr_scan"}, "lon": -77.021917, "type": "electric_scooter"}, {"bike_id": "1f5e3ce900a400388248da1d6bb548f8", "is_reserved": 0, "fusion_lon": 0.0, "lat": 38.894026833333335, "is_disabled": 0, "name": "1f5e3ce900a400388248da1d6bb548f8", "fusion_lat": 0.0, "rental_uris": {"ios": "https://dc.lft.to/lastmile_qr_scan", "android": "https://dc.lft.to/lastmile_qr_scan"}, "lon": -77.02253966666666, "type": "electric_scooter"}, {"bike_id": "ef68d9b01ac0e44e97f05686002fe79d", "is_reserved": 0, "fusion_lon": 0.0, "lat": 38.9397215, "is_disabled": 0, "name": "ef68d9b01ac0e44e97f05686002fe79d", "fusion_lat": 0.0, "rental_uris": {"ios": "https://dc.lft.to/lastmile_qr_scan", "android": "https://dc.lft.to/lastmile_qr_scan"}, "lon": -77.032607, "type": "electric_scooter"}, {"bike_id": "ea832bccedd8996fa3e58414c843b43f", "is_reserved": 0, "fusion_lon": 0.0, "lat": 38.9247965, "is_disabled": 0, "name": "ea832bccedd8996fa3e58414c843b43f", "fusion_lat": 0.0, "rental_uris": {"ios": "https://dc.lft.to/lastmile_qr_scan", "android": "https://dc.lft.to/lastmile_qr_scan"}, "lon": -77.02650366666667, "type": "electric_scooter"}, {"bike_id": "df10ff306a9949f10586edbe74a305ff", "is_reserved": 0, "fusion_lon": 0.0, "lat": 38.88517683333333, "is_disabled": 0, "name": "df10ff306a9949f10586edbe74a305ff", "fusion_lat": 0.0, "rental_uris": {"ios": "https://dc.lft.to/lastmile_qr_scan", "android": "https://dc.lft.to/lastmile_qr_scan"}, "lon": -77.0057185, "type": "electric_scooter"}, {"bike_id": "33fd10e641b18ea367f273bf9dc666a9", "is_reserved": 0, "fusion_lon": 0.0, "lat": 38.934343166666665, "is_disabled": 0, "name": "33fd10e641b18ea367f273bf9dc666a9", "fusion_lat": 0.0, "rental_uris": {"ios": "https://dc.lft.to/lastmile_qr_scan", "android": "https://dc.lft.to/lastmile_qr_scan"}, "lon": -77.04001533333333, "type": "electric_scooter"}, {"bike_id": "80e8cfcfcceb5f934ec6f408fa4e563b", "is_reserved": 0, "fusion_lon": 0.0, "lat": 38.950807166666664, "is_disabled": 0, "name": "80e8cfcfcceb5f934ec6f408fa4e563b", "fusion_lat": 0.0, "rental_uris": {"ios": "https://dc.lft.to/lastmile_qr_scan", "android": "https://dc.lft.to/lastmile_qr_scan"}, "lon": -77.01233033333334, "type": "electric_bike"}, {"bike_id": "0c8ca693eb0af5930d3a61a75bdebfad", "is_reserved": 0, "fusion_lon": 0.0, "lat": 38.837266, "is_disabled": 0, "name": "0c8ca693eb0af5930d3a61a75bdebfad", "fusion_lat": 0.0, "rental_uris": {"ios": "https://dc.lft.to/lastmile_qr_scan", "android": "https://dc.lft.to/lastmile_qr_scan"}, "lon": -76.99759866666666, "type": "electric_bike"}, {"bike_id": "d160b6619ffbfe4e9ed68b5da2f84cf5", "is_reserved": 0, "fusion_lon": 0.0, "lat": 38.855120666666664, "is_disabled": 0, "name": "d160b6619ffbfe4e9ed68b5da2f84cf5", "fusion_lat": 0.0, "rental_uris": {"ios": "https://dc.lft.to/lastmile_qr_scan", "android": "https://dc.lft.to/lastmile_qr_scan"}, "lon": -76.98413183333334, "type": "electric_bike"}, {"bike_id": "ec0645b028cd739d5eee67d0d5fcf057", "is_reserved": 0, "fusion_lon": 0.0, "lat": 38.913857666666665, "is_disabled": 0, "name": "ec0645b028cd739d5eee67d0d5fcf057", "fusion_lat": 0.0, "rental_uris": {"ios": "https://dc.lft.to/lastmile_qr_scan", "android": "https://dc.lft.to/lastmile_qr_scan"}, "lon": -77.01703083333334, "type": "electric_scooter"}, {"bike_id": "d1c3d8efd8c6215c97882df65e9aa225", "is_reserved": 0, "fusion_lon": 0.0, "lat": 38.884957666666665, "is_disabled": 0, "name": "d1c3d8efd8c6215c97882df65e9aa225", "fusion_lat": 0.0, "rental_uris": {"ios": "https://dc.lft.to/lastmile_qr_scan", "android": "https://dc.lft.to/lastmile_qr_scan"}, "lon": -77.00348583333333, "type": "electric_scooter"}, {"bike_id": "f261cd62122f9c546008d176183c364b", "is_reserved": 0, "fusion_lon": 0.0, "lat": 38.911743, "is_disabled": 0, "name": "f261cd62122f9c546008d176183c364b", "fusion_lat": 0.0, "rental_uris": {"ios": "https://dc.lft.to/lastmile_qr_scan", "android": "https://dc.lft.to/lastmile_qr_scan"}, "lon": -77.02970566666667, "type": "electric_scooter"}, {"bike_id": "ca4ce2011cab740d893fa6ceb523a54f", "is_reserved": 0, "fusion_lon": 0.0, "lat": 38.89377366666667, "is_disabled": 0, "name": "ca4ce2011cab740d893fa6ceb523a54f", "fusion_lat": 0.0, "rental_uris": {"ios": "https://dc.lft.to/lastmile_qr_scan", "android": "https://dc.lft.to/lastmile_qr_scan"}, "lon": -76.94957233333334, "type": "electric_scooter"}, {"bike_id": "aed40c487d0206df09447fe8e91c8ad1", "is_reserved": 0, "fusion_lon": 0.0, "lat": 38.92861166666667, "is_disabled": 0, "name": "aed40c487d0206df09447fe8e91c8ad1", "fusion_lat": 0.0, "rental_uris": {"ios": "https://dc.lft.to/lastmile_qr_scan", "android": "https://dc.lft.to/lastmile_qr_scan"}, "lon": -77.01374716666666, "type": "electric_scooter"}, {"bike_id": "65be400e776365be6f9d6a419d24428e", "is_reserved": 0, "fusion_lon": 0.0, "lat": 38.89687966666666, "is_disabled": 0, "name": "65be400e776365be6f9d6a419d24428e", "fusion_lat": 0.0, "rental_uris": {"ios": "https://dc.lft.to/lastmile_qr_scan", "android": "https://dc.lft.to/lastmile_qr_scan"}, "lon": -76.99627983333333, "type": "electric_scooter"}, {"bike_id": "4ecfaba8597b17f57f7e2a4475a58b3d", "is_reserved": 0, "fusion_lon": 0.0, "lat": 38.87919516666667, "is_disabled": 0, "name": "4ecfaba8597b17f57f7e2a4475a58b3d", "fusion_lat": 0.0, "rental_uris": {"ios": "https://dc.lft.to/lastmile_qr_scan", "android": "https://dc.lft.to/lastmile_qr_scan"}, "lon": -76.99511516666666, "type": "electric_scooter"}, {"bike_id": "fdc09517397c7951ea3b7980a6f6302b", "is_reserved": 0, "fusion_lon": 0.0, "lat": 38.892223333333334, "is_disabled": 0, "name": "fdc09517397c7951ea3b7980a6f6302b", "fusion_lat": 0.0, "rental_uris": {"ios": "https://dc.lft.to/lastmile_qr_scan", "android": "https://dc.lft.to/lastmile_qr_scan"}, "lon": -77.0419685, "type": "electric_scooter"}, {"bike_id": "571431b2f347f8e1932265d461cd499a", "is_reserved": 0, "fusion_lon": 0.0, "lat": 38.92004566666667, "is_disabled": 0, "name": "571431b2f347f8e1932265d461cd499a", "fusion_lat": 0.0, "rental_uris": {"ios": "https://dc.lft.to/lastmile_qr_scan", "android": "https://dc.lft.to/lastmile_qr_scan"}, "lon": -77.02168133333333, "type": "electric_scooter"}, {"bike_id": "5e91ece2ae0a21039a711ee0b3f39df5", "is_reserved": 0, "fusion_lon": 0.0, "lat": 38.89107116666667, "is_disabled": 0, "name": "5e91ece2ae0a21039a711ee0b3f39df5", "fusion_lat": 0.0, "rental_uris": {"ios": "https://dc.lft.to/lastmile_qr_scan", "android": "https://dc.lft.to/lastmile_qr_scan"}, "lon": -76.987078, "type": "electric_scooter"}, {"bike_id": "77817c59e627181a09038385e5825fa4", "is_reserved": 0, "fusion_lon": 0.0, "lat": 38.895362, "is_disabled": 0, "name": "77817c59e627181a09038385e5825fa4", "fusion_lat": 0.0, "rental_uris": {"ios": "https://dc.lft.to/lastmile_qr_scan", "android": "https://dc.lft.to/lastmile_qr_scan"}, "lon": -77.01904666666667, "type": "electric_scooter"}, {"bike_id": "10c1c9c1288363a902dfdaf6aee2a762", "is_reserved": 0, "fusion_lon": 0.0, "lat": 38.870828833333334, "is_disabled": 0, "name": "10c1c9c1288363a902dfdaf6aee2a762", "fusion_lat": 0.0, "rental_uris": {"ios": "https://dc.lft.to/lastmile_qr_scan", "android": "https://dc.lft.to/lastmile_qr_scan"}, "lon": -77.01212283333334, "type": "electric_bike"}, {"bike_id": "8517ba49792490727357264b11af4926", "is_reserved": 0, "fusion_lon": 0.0, "lat": 38.90820033333333, "is_disabled": 0, "name": "8517ba49792490727357264b11af4926", "fusion_lat": 0.0, "rental_uris": {"ios": "https://dc.lft.to/lastmile_qr_scan", "android": "https://dc.lft.to/lastmile_qr_scan"}, "lon": -77.03939766666667, "type": "electric_scooter"}, {"bike_id": "c48010e04dedaea2077f27811ac33306", "is_reserved": 0, "fusion_lon": 0.0, "lat": 38.949459166666664, "is_disabled": 0, "name": "c48010e04dedaea2077f27811ac33306", "fusion_lat": 0.0, "rental_uris": {"ios": "https://dc.lft.to/lastmile_qr_scan", "android": "https://dc.lft.to/lastmile_qr_scan"}, "lon": -77.01623783333334, "type": "electric_scooter"}, {"bike_id": "e8eba43b31f11fd33b928babea4a8b03", "is_reserved": 0, "fusion_lon": 0.0, "lat": 38.90092666666666, "is_disabled": 0, "name": "e8eba43b31f11fd33b928babea4a8b03", "fusion_lat": 0.0, "rental_uris": {"ios": "https://dc.lft.to/lastmile_qr_scan", "android": "https://dc.lft.to/lastmile_qr_scan"}, "lon": -77.04509933333334, "type": "electric_scooter"}, {"bike_id": "c544036051587568616944b06c607782", "is_reserved": 0, "fusion_lon": 0.0, "lat": 38.89625366666667, "is_disabled": 0, "name": "c544036051587568616944b06c607782", "fusion_lat": 0.0, "rental_uris": {"ios": "https://dc.lft.to/lastmile_qr_scan", "android": "https://dc.lft.to/lastmile_qr_scan"}, "lon": -77.009181, "type": "electric_scooter"}, {"bike_id": "513b1c96d57dce69ba6ee95e4d7e844f", "is_reserved": 0, "fusion_lon": 0.0, "lat": 38.92437283333334, "is_disabled": 0, "name": "513b1c96d57dce69ba6ee95e4d7e844f", "fusion_lat": 0.0, "rental_uris": {"ios": "https://dc.lft.to/lastmile_qr_scan", "android": "https://dc.lft.to/lastmile_qr_scan"}, "lon": -77.04009533333333, "type": "electric_scooter"}, {"bike_id": "734ed2340c6ba5e1199bdc85d34678e5", "is_reserved": 0, "fusion_lon": 0.0, "lat": 38.861991, "is_disabled": 0, "name": "734ed2340c6ba5e1199bdc85d34678e5", "fusion_lat": 0.0, "rental_uris": {"ios": "https://dc.lft.to/lastmile_qr_scan", "android": "https://dc.lft.to/lastmile_qr_scan"}, "lon": -76.99462516666667, "type": "electric_scooter"}, {"bike_id": "1067191d8d3f9eaa2997fd38b0ba26a2", "is_reserved": 0, "fusion_lon": 0.0, "lat": 38.919642833333334, "is_disabled": 0, "name": "1067191d8d3f9eaa2997fd38b0ba26a2", "fusion_lat": 0.0, "rental_uris": {"ios": "https://dc.lft.to/lastmile_qr_scan", "android": "https://dc.lft.to/lastmile_qr_scan"}, "lon": -76.9726445, "type": "electric_bike"}, {"bike_id": "080059430801fabc3416e3ed76c80390", "is_reserved": 0, "fusion_lon": 0.0, "lat": 38.96175933333333, "is_disabled": 0, "name": "080059430801fabc3416e3ed76c80390", "fusion_lat": 0.0, "rental_uris": {"ios": "https://dc.lft.to/lastmile_qr_scan", "android": "https://dc.lft.to/lastmile_qr_scan"}, "lon": -76.99589033333334, "type": "electric_bike"}, {"bike_id": "2c5043fe761814f5205645abc88d22dc", "is_reserved": 0, "fusion_lon": 0.0, "lat": 38.929736166666665, "is_disabled": 0, "name": "2c5043fe761814f5205645abc88d22dc", "fusion_lat": 0.0, "rental_uris": {"ios": "https://dc.lft.to/lastmile_qr_scan", "android": "https://dc.lft.to/lastmile_qr_scan"}, "lon": -77.22577166666666, "type": "electric_bike"}, {"bike_id": "3c51835b6f4b1671e3c4ac5cd2d1e512", "is_reserved": 0, "fusion_lon": 0.0, "lat": 38.91707316666667, "is_disabled": 0, "name": "3c51835b6f4b1671e3c4ac5cd2d1e512", "fusion_lat": 0.0, "rental_uris": {"ios": "https://dc.lft.to/lastmile_qr_scan", "android": "https://dc.lft.to/lastmile_qr_scan"}, "lon": -77.02380916666667, "type": "electric_scooter"}, {"bike_id": "26f35d859fab69e484caf21dca8c9aad", "is_reserved": 0, "fusion_lon": 0.0, "lat": 38.915759333333334, "is_disabled": 0, "name": "26f35d859fab69e484caf21dca8c9aad", "fusion_lat": 0.0, "rental_uris": {"ios": "https://dc.lft.to/lastmile_qr_scan", "android": "https://dc.lft.to/lastmile_qr_scan"}, "lon": -77.04665966666667, "type": "electric_scooter"}, {"bike_id": "66e4b3322e7e67b3bffb9f62d599fd7b", "is_reserved": 0, "fusion_lon": 0.0, "lat": 38.90216216666666, "is_disabled": 0, "name": "66e4b3322e7e67b3bffb9f62d599fd7b", "fusion_lat": 0.0, "rental_uris": {"ios": "https://dc.lft.to/lastmile_qr_scan", "android": "https://dc.lft.to/lastmile_qr_scan"}, "lon": -76.94585283333333, "type": "electric_scooter"}, {"bike_id": "9ca6fd0cd0e264c18c5b0109b0543663", "is_reserved": 0, "fusion_lon": 0.0, "lat": 38.955314, "is_disabled": 0, "name": "9ca6fd0cd0e264c18c5b0109b0543663", "fusion_lat": 0.0, "rental_uris": {"ios": "https://dc.lft.to/lastmile_qr_scan", "android": "https://dc.lft.to/lastmile_qr_scan"}, "lon": -77.02414166666667, "type": "electric_bike"}, {"bike_id": "caea2bd66c9e51fc6f7577469f76448e", "is_reserved": 0, "fusion_lon": 0.0, "lat": 38.9057615, "is_disabled": 0, "name": "caea2bd66c9e51fc6f7577469f76448e", "fusion_lat": 0.0, "rental_uris": {"ios": "https://dc.lft.to/lastmile_qr_scan", "android": "https://dc.lft.to/lastmile_qr_scan"}, "lon": -77.0396945, "type": "electric_scooter"}, {"bike_id": "4a63f919f108ced67901678f36a05090", "is_reserved": 0, "fusion_lon": 0.0, "lat": 38.9126665, "is_disabled": 0, "name": "4a63f919f108ced67901678f36a05090", "fusion_lat": 0.0, "rental_uris": {"ios": "https://dc.lft.to/lastmile_qr_scan", "android": "https://dc.lft.to/lastmile_qr_scan"}, "lon": -77.00264966666667, "type": "electric_scooter"}, {"bike_id": "91312528232d6061bf4a7ea4b61e317b", "is_reserved": 0, "fusion_lon": 0.0, "lat": 38.92237866666667, "is_disabled": 0, "name": "91312528232d6061bf4a7ea4b61e317b", "fusion_lat": 0.0, "rental_uris": {"ios": "https://dc.lft.to/lastmile_qr_scan", "android": "https://dc.lft.to/lastmile_qr_scan"}, "lon": -77.02715633333334, "type": "electric_scooter"}, {"bike_id": "82088f64b1179d85ec7c630702d5bc76", "is_reserved": 0, "fusion_lon": 0.0, "lat": 38.8840385, "is_disabled": 0, "name": "82088f64b1179d85ec7c630702d5bc76", "fusion_lat": 0.0, "rental_uris": {"ios": "https://dc.lft.to/lastmile_qr_scan", "android": "https://dc.lft.to/lastmile_qr_scan"}, "lon": -77.01541933333333, "type": "electric_scooter"}, {"bike_id": "bb1d3f62be1ae001cc134ebc895199a5", "is_reserved": 0, "fusion_lon": 0.0, "lat": 38.936084666666666, "is_disabled": 0, "name": "bb1d3f62be1ae001cc134ebc895199a5", "fusion_lat": 0.0, "rental_uris": {"ios": "https://dc.lft.to/lastmile_qr_scan", "android": "https://dc.lft.to/lastmile_qr_scan"}, "lon": -77.05862366666666, "type": "electric_scooter"}, {"bike_id": "e402cdf2ffedf0db9f5f57429869c229", "is_reserved": 0, "fusion_lon": 0.0, "lat": 38.8922435, "is_disabled": 0, "name": "e402cdf2ffedf0db9f5f57429869c229", "fusion_lat": 0.0, "rental_uris": {"ios": "https://dc.lft.to/lastmile_qr_scan", "android": "https://dc.lft.to/lastmile_qr_scan"}, "lon": -77.0262265, "type": "electric_scooter"}, {"bike_id": "cdf2029fbe89a8ee2d402bd2e46dd276", "is_reserved": 0, "fusion_lon": 0.0, "lat": 38.9907695, "is_disabled": 0, "name": "cdf2029fbe89a8ee2d402bd2e46dd276", "fusion_lat": 0.0, "rental_uris": {"ios": "https://dc.lft.to/lastmile_qr_scan", "android": "https://dc.lft.to/lastmile_qr_scan"}, "lon": -76.87469333333334, "type": "electric_bike"}, {"bike_id": "2d4faa955733f08ee63f6d45fbc9beb1", "is_reserved": 0, "fusion_lon": 0.0, "lat": 38.82867616666667, "is_disabled": 0, "name": "2d4faa955733f08ee63f6d45fbc9beb1", "fusion_lat": 0.0, "rental_uris": {"ios": "https://dc.lft.to/lastmile_qr_scan", "android": "https://dc.lft.to/lastmile_qr_scan"}, "lon": -77.1122815, "type": "electric_bike"}, {"bike_id": "15c8bb8777b29d5d412c1572bdc12705", "is_reserved": 0, "fusion_lon": 0.0, "lat": 38.902676, "is_disabled": 0, "name": "15c8bb8777b29d5d412c1572bdc12705", "fusion_lat": 0.0, "rental_uris": {"ios": "https://dc.lft.to/lastmile_qr_scan", "android": "https://dc.lft.to/lastmile_qr_scan"}, "lon": -77.02648233333333, "type": "electric_scooter"}, {"bike_id": "9572dc7df30e61c7c551f90039926dd3", "is_reserved": 0, "fusion_lon": 0.0, "lat": 38.91764916666666, "is_disabled": 0, "name": "9572dc7df30e61c7c551f90039926dd3", "fusion_lat": 0.0, "rental_uris": {"ios": "https://dc.lft.to/lastmile_qr_scan", "android": "https://dc.lft.to/lastmile_qr_scan"}, "lon": -77.0220025, "type": "electric_scooter"}, {"bike_id": "c054ce63ddd3500f982567129ac2173f", "is_reserved": 0, "fusion_lon": 0.0, "lat": 38.90773683333333, "is_disabled": 0, "name": "c054ce63ddd3500f982567129ac2173f", "fusion_lat": 0.0, "rental_uris": {"ios": "https://dc.lft.to/lastmile_qr_scan", "android": "https://dc.lft.to/lastmile_qr_scan"}, "lon": -77.03175933333333, "type": "electric_scooter"}, {"bike_id": "318f6fb4a56cabf705441d4aa86d49f9", "is_reserved": 0, "fusion_lon": 0.0, "lat": 38.90345583333333, "is_disabled": 0, "name": "318f6fb4a56cabf705441d4aa86d49f9", "fusion_lat": 0.0, "rental_uris": {"ios": "https://dc.lft.to/lastmile_qr_scan", "android": "https://dc.lft.to/lastmile_qr_scan"}, "lon": -77.04348433333334, "type": "electric_scooter"}, {"bike_id": "e385dad4e180733e94924d532e55e43a", "is_reserved": 0, "fusion_lon": 0.0, "lat": 38.9105135, "is_disabled": 0, "name": "e385dad4e180733e94924d532e55e43a", "fusion_lat": 0.0, "rental_uris": {"ios": "https://dc.lft.to/lastmile_qr_scan", "android": "https://dc.lft.to/lastmile_qr_scan"}, "lon": -77.0268455, "type": "electric_scooter"}, {"bike_id": "f0d02c2f79486fda3eafb94f4b326070", "is_reserved": 0, "fusion_lon": 0.0, "lat": 38.920406166666666, "is_disabled": 0, "name": "f0d02c2f79486fda3eafb94f4b326070", "fusion_lat": 0.0, "rental_uris": {"ios": "https://dc.lft.to/lastmile_qr_scan", "android": "https://dc.lft.to/lastmile_qr_scan"}, "lon": -76.9790755, "type": "electric_scooter"}, {"bike_id": "bc7c2882d57eb185de640b3480150290", "is_reserved": 0, "fusion_lon": 0.0, "lat": 38.90621316666667, "is_disabled": 0, "name": "bc7c2882d57eb185de640b3480150290", "fusion_lat": 0.0, "rental_uris": {"ios": "https://dc.lft.to/lastmile_qr_scan", "android": "https://dc.lft.to/lastmile_qr_scan"}, "lon": -77.0395955, "type": "electric_scooter"}, {"bike_id": "db981e36f039a6247359e9e13c4ef778", "is_reserved": 0, "fusion_lon": 0.0, "lat": 38.902773, "is_disabled": 0, "name": "db981e36f039a6247359e9e13c4ef778", "fusion_lat": 0.0, "rental_uris": {"ios": "https://dc.lft.to/lastmile_qr_scan", "android": "https://dc.lft.to/lastmile_qr_scan"}, "lon": -77.03839366666666, "type": "electric_scooter"}, {"bike_id": "6da26ce66ceaa0c7f080297d4bd528a5", "is_reserved": 0, "fusion_lon": 0.0, "lat": 38.88493866666666, "is_disabled": 0, "name": "6da26ce66ceaa0c7f080297d4bd528a5", "fusion_lat": 0.0, "rental_uris": {"ios": "https://dc.lft.to/lastmile_qr_scan", "android": "https://dc.lft.to/lastmile_qr_scan"}, "lon": -77.0071085, "type": "electric_scooter"},