{"data": {"bikes": [{"lat": 38.901241, "is_disabled": 0, "type": "electric_scooter", "lon": -77.039931, "bike_id": "541385236a2f4ea91ad84d2dab786e0a", "fusion_lat": 0.0, "name": "541385236a2f4ea91ad84d2dab786e0a", "is_reserved": 0, "rental_uris": {"android": "https://dc.lft.to/lastmile_qr_scan", "ios": "https://dc.lft.to/lastmile_qr_scan"}, "fusion_lon": 0.0}, {"lat": 38.94716583333334, "is_disabled": 0, "type": "electric_scooter", "lon": -77.0226095, "bike_id": "fac1ee71fdf01097ef181874dc8e3077", "fusion_lat": 0.0, "name": "fac1ee71fdf01097ef181874dc8e3077", "is_reserved": 0, "rental_uris": {"android": "https://dc.lft.to/lastmile_qr_scan", "ios": "https://dc.lft.to/lastmile_qr_scan"}, "fusion_lon": 0.0}, {"lat": 38.923641, "is_disabled": 0, "type": "electric_scooter", "lon": -77.05175, "bike_id": "1ed43ad6e681624214ddc2f1da432e78", "fusion_lat": 0.0, "name": "1ed43ad6e681624214ddc2f1da432e78", "is_reserved": 0, "rental_uris": {"android": "https://dc.lft.to/lastmile_qr_scan", "ios": "https://dc.lft.to/lastmile_qr_scan"}, "fusion_lon": 0.0}, {"lat": 38.91957416666666, "is_disabled": 0, "type": "electric_bike", "lon": -76.97269816666666, "bike_id": "d877a047cd2614acbaa62abbfedfbd85", "fusion_lat": 0.0, "name": "d877a047cd2614acbaa62abbfedfbd85", "is_reserved": 0, "rental_uris": {"android": "https://dc.lft.to/lastmile_qr_scan", "ios": "https://dc.lft.to/lastmile_qr_scan"}, "fusion_lon": 0.0}, {"lat": 38.91212383333333, "is_disabled": 0, "type": "electric_scooter", "lon": -77.02750266666666, "bike_id": "a7c3abc406eb5df1fbe2a81c55ca8be5", "fusion_lat": 0.0, "name": "a7c3abc406eb5df1fbe2a81c55ca8be5", "is_reserved": 0, "rental_uris": {"android": "https://dc.lft.to/lastmile_qr_scan", "ios": "https://dc.lft.to/lastmile_qr_scan"}, "fusion_lon": 0.0}, {"lat": 38.93011166666667, "is_disabled": 0, "type": "electric_bike", "lon": -77.21646233333334, "bike_id": "3bd2a22356d93ae61fe93eccb0c9eee3", "fusion_lat": 0.0, "name": "3bd2a22356d93ae61fe93eccb0c9eee3", "is_reserved": 0, "rental_uris": {"android": "https://dc.lft.to/lastmile_qr_scan", "ios": "https://dc.lft.to/lastmile_qr_scan"}, "fusion_lon": 0.0}, {"lat": 38.914183333333334, "is_disabled": 0, "type": "electric_scooter", "lon": -77.00504883333333, "bike_id": "c135e7ba65d90aefba9a030a51cf86d5", "fusion_lat": 0.0, "name": "c135e7ba65d90aefba9a030a51cf86d5", "is_reserved": 0, "rental_uris": {"android": "https://dc.lft.to/lastmile_qr_scan", "ios": "https://dc.lft.to/lastmile_qr_scan"}, "fusion_lon": 0.0}, {"lat": 38.932812166666665, "is_disabled": 0, "type": "electric_scooter", "lon": -77.02544733333333, "bike_id": "85f5f1acbc79d300ade5fbff4da3753b", "fusion_lat": 0.0, "name": "85f5f1acbc79d300ade5fbff4da3753b", "is_reserved": 0, "rental_uris": {"android": "https://dc.lft.to/lastmile_qr_scan", "ios": "https://dc.lft.to/lastmile_qr_scan"}, "fusion_lon": 0.0}, {"lat": 38.9175335, "is_disabled": 0, "type": "electric_scooter", "lon": -77.03188983333334, "bike_id": "218a7ea92d6fd2b9f3b81f7d85b7b956", "fusion_lat": 0.0, "name": "218a7ea92d6fd2b9f3b81f7d85b7b956", "is_reserved": 0, "rental_uris": {"android": "https://dc.lft.to/lastmile_qr_scan", "ios": "https://dc.lft.to/lastmile_qr_scan"}, "fusion_lon": 0.0}, {"lat": 38.90221916666667, "is_disabled": 0, "type": "electric_scooter", "lon": -76.945872, "bike_id": "60255e70be659a3984f710cd15346e57", "fusion_lat": 0.0, "name": "60255e70be659a3984f710cd15346e57", "is_reserved": 0, "rental_uris": {"android": "https://dc.lft.to/lastmile_qr_scan", "ios": "https://dc.lft.to/lastmile_qr_scan"}, "fusion_lon": 0.0}, {"lat": 38.8772565, "is_disabled": 0, "type": "electric_scooter", "lon": -77.0036005, "bike_id": "1680e0276713766a04bbd86043879fb4", "fusion_lat": 0.0, "name": "1680e0276713766a04bbd86043879fb4", "is_reserved": 0, "rental_uris": {"android": "https://dc.lft.to/lastmile_qr_scan", "ios": "https://dc.lft.to/lastmile_qr_scan"}, "fusion_lon": 0.0}, {"lat": 38.93293583333333, "is_disabled": 0, "type": "electric_scooter", "lon": -77.04534066666666, "bike_id": "deba76f4537c1ed68d1b5fe22430790b", "fusion_lat": 0.0, "name": "deba76f4537c1ed68d1b5fe22430790b", "is_reserved": 0, "rental_uris": {"android": "https://dc.lft.to/lastmile_qr_scan", "ios": "https://dc.lft.to/lastmile_qr_scan"}, "fusion_lon": 0.0}, {"lat": 38.909739, "is_disabled": 0, "type": "electric_scooter", "lon": -77.03871966666667, "bike_id": "d437fb103c245192f8e8075deef7de16", "fusion_lat": 0.0, "name": "d437fb103c245192f8e8075deef7de16", "is_reserved": 0, "rental_uris": {"android": "https://dc.lft.to/lastmile_qr_scan", "ios": "https://dc.lft.to/lastmile_qr_scan"}, "fusion_lon": 0.0}, {"lat": 38.914609666666664, "is_disabled": 0, "type": "electric_scooter", "lon": -77.014299, "bike_id": "979fa40ed9684578c10989df0879c3cd", "fusion_lat": 0.0, "name": "979fa40ed9684578c10989df0879c3cd", "is_reserved": 0, "rental_uris": {"android": "https://dc.lft.to/lastmile_qr_scan", "ios": "https://dc.lft.to/lastmile_qr_scan"}, "fusion_lon": 0.0}, {"lat": 38.88202533333333, "is_disabled": 0, "type": "electric_scooter", "lon": -76.98930466666667, "bike_id": "b54d9113f75e9a3c538e9a23c3a236db", "fusion_lat": 0.0, "name": "b54d9113f75e9a3c538e9a23c3a236db", "is_reserved": 0, "rental_uris": {"android": "https://dc.lft.to/lastmile_qr_scan", "ios": "https://dc.lft.to/lastmile_qr_scan"}, "fusion_lon": 0.0}, {"lat": 38.88800483333333, "is_disabled": 0, "type": "electric_scooter", "lon": -76.93362033333334, "bike_id": "33e24c043b76b59485d1cdb99af767a5", "fusion_lat": 0.0, "name": "33e24c043b76b59485d1cdb99af767a5", "is_reserved": 0, "rental_uris": {"android": "https://dc.lft.to/lastmile_qr_scan", "ios": "https://dc.lft.to/lastmile_qr_scan"}, "fusion_lon": 0.0}, {"lat": 38.8706615, "is_disabled": 0, "type": "electric_bike", "lon": -76.97835216666667, "bike_id": "987397fc50c1b0eb63870c64f167d6f5", "fusion_lat": 0.0, "name": "987397fc50c1b0eb63870c64f167d6f5", "is_reserved": 0, "rental_uris": {"android": "https://dc.lft.to/lastmile_qr_scan", "ios": "https://dc.lft.to/lastmile_qr_scan"}, "fusion_lon": 0.0}, {"lat": 38.92052533333333, "is_disabled": 0, "type": "electric_scooter", "lon": -77.041908, "bike_id": "0153400ac10a8fa7cec88d2a579f9485", "fusion_lat": 0.0, "name": "0153400ac10a8fa7cec88d2a579f9485", "is_reserved": 0, "rental_uris": {"android": "https://dc.lft.to/lastmile_qr_scan", "ios": "https://dc.lft.to/lastmile_qr_scan"}, "fusion_lon": 0.0}, {"lat": 38.90127733333333, "is_disabled": 0, "type": "electric_scooter", "lon": -77.03162216666666, "bike_id": "2f3c845d4ebb5e925cfb0f3eb3971fdb", "fusion_lat": 0.0, "name": "2f3c845d4ebb5e925cfb0f3eb3971fdb", "is_reserved": 0, "rental_uris": {"android": "https://dc.lft.to/lastmile_qr_scan", "ios": "https://dc.lft.to/lastmile_qr_scan"}, "fusion_lon": 0.0}, {"lat": 38.8762805, "is_disabled": 0, "type": "electric_scooter", "lon": -76.965254, "bike_id": "2af38ab2d63679c5f5fccb6d8575509a", "fusion_lat": 0.0, "name": "2af38ab2d63679c5f5fccb6d8575509a", "is_reserved": 0, "rental_uris": {"android": "https://dc.lft.to/lastmile_qr_scan", "ios": "https://dc.lft.to/lastmile_qr_scan"}, "fusion_lon": 0.0}, {"lat": 38.906033666666666, "is_disabled": 0, "type": "electric_scooter", "lon": -76.98982433333333, "bike_id": "e52f5fbf806e5dbf61c16906ed15ee0b", "fusion_lat": 0.0, "name": "e52f5fbf806e5dbf61c16906ed15ee0b", "is_reserved": 0, "rental_uris": {"android": "https://dc.lft.to/lastmile_qr_scan", "ios": "https://dc.lft.to/lastmile_qr_scan"}, "fusion_lon": 0.0}, {"lat": 38.85928783333333, "is_disabled": 0, "type": "electric_scooter", "lon": -76.99717833333334, "bike_id": "432c0e9e14d207d6c7459c2501f66b78", "fusion_lat": 0.0, "name": "432c0e9e14d207d6c7459c2501f66b78", "is_reserved": 0, "rental_uris": {"android": "https://dc.lft.to/lastmile_qr_scan", "ios": "https://dc.lft.to/lastmile_qr_scan"}, "fusion_lon": 0.0}, {"lat": 38.8651955, "is_disabled": 0, "type": "electric_scooter", "lon": -76.9903125, "bike_id": "cf5b8bca559944e9b47ad5bb2b0256b6", "fusion_lat": 0.0, "name": "cf5b8bca559944e9b47ad5bb2b0256b6", "is_reserved": 0, "rental_uris": {"android": "https://dc.lft.to/lastmile_qr_scan", "ios": "https://dc.lft.to/lastmile_qr_scan"}, "fusion_lon": 0.0}, {"lat": 38.934438166666666, "is_disabled": 0, "type": "electric_scooter", "lon": -77.03090466666667, "bike_id": "54bed0ba9d5c4651b677113861803e53", "fusion_lat": 0.0, "name": "54bed0ba9d5c4651b677113861803e53", "is_reserved": 0, "rental_uris": {"android": "https://dc.lft.to/lastmile_qr_scan", "ios": "https://dc.lft.to/lastmile_qr_scan"}, "fusion_lon": 0.0}, {"lat": 38.9198745, "is_disabled": 0, "type": "electric_scooter", "lon": -77.02387566666667, "bike_id": "dd6919f61d79c99bb6176abf039dbd94", "fusion_lat": 0.0, "name": "dd6919f61d79c99bb6176abf039dbd94", "is_reserved": 0, "rental_uris": {"android": "https://dc.lft.to/lastmile_qr_scan", "ios": "https://dc.lft.to/lastmile_qr_scan"}, "fusion_lon": 0.0}, {"lat": 38.90530016666666, "is_disabled": 0, "type": "electric_scooter", "lon": -77.0624295, "bike_id": "20c2a6549ebba696e2f83d284c11d66f", "fusion_lat": 0.0, "name": "20c2a6549ebba696e2f83d284c11d66f", "is_reserved": 0, "rental_uris": {"android": "https://dc.lft.to/lastmile_qr_scan", "ios": "https://dc.lft.to/lastmile_qr_scan"}, "fusion_lon": 0.0}, {"lat": 38.90378833333333, "is_disabled": 0, "type": "electric_scooter", "lon": -77.0425885, "bike_id": "a26368aa352747a1525ee2715f782642", "fusion_lat": 0.0, "name": "a26368aa352747a1525ee2715f782642", "is_reserved": 0, "rental_uris": {"android": "https://dc.lft.to/lastmile_qr_scan", "ios": "https://dc.lft.to/lastmile_qr_scan"}, "fusion_lon": 0.0}, {"lat": 38.9169115, "is_disabled": 0, "type": "electric_scooter", "lon": -77.02689133333334, "bike_id": "8ea6a8dab2554fbf7f193af7ced9c882", "fusion_lat": 0.0, "name": "8ea6a8dab2554fbf7f193af7ced9c882", "is_reserved": 0, "rental_uris": {"android": "https://dc.lft.to/lastmile_qr_scan", "ios": "https://dc.lft.to/lastmile_qr_scan"}, "fusion_lon": 0.0}, {"lat": 38.924150166666664, "is_disabled": 0, "type": "electric_scooter", "lon": -77.0274245, "bike_id": "67cde19e0eb0ba25db8782bb7a660594", "fusion_lat": 0.0, "name": "67cde19e0eb0ba25db8782bb7a660594", "is_reserved": 0, "rental_uris": {"android": "https://dc.lft.to/lastmile_qr_scan", "ios": "https://dc.lft.to/lastmile_qr_scan"}, "fusion_lon": 0.0}, {"lat": 38.893992833333336, "is_disabled": 0, "type": "electric_scooter", "lon": -76.98662116666667, "bike_id": "b36c46cb6500dc46fed3977c4a2c1dde", "fusion_lat": 0.0, "name": "b36c46cb6500dc46fed3977c4a2c1dde", "is_reserved": 0, "rental_uris": {"android": "https://dc.lft.to/lastmile_qr_scan", "ios": "https://dc.lft.to/lastmile_qr_scan"}, "fusion_lon": 0.0}, {"lat": 38.869981333333335, "is_disabled": 0, "type": "electric_bike", "lon": -77.06567566666666, "bike_id": "db0f11735135874a2f7978ab2a1d8fac", "fusion_lat": 0.0, "name": "db0f11735135874a2f7978ab2a1d8fac", "is_reserved": 0, "rental_uris": {"android": "https://dc.lft.to/lastmile_qr_scan", "ios": "https://dc.lft.to/lastmile_qr_scan"}, "fusion_lon": 0.0}, {"lat": 38.91679933333333, "is_disabled": 0, "type": "electric_scooter", "lon": -77.03190833333333, "bike_id": "b246453253509c5e802a42c1c77f29fb", "fusion_lat": 0.0, "name": "b246453253509c5e802a42c1c77f29fb", "is_reserved": 0, "rental_uris": {"android": "https://dc.lft.to/lastmile_qr_scan", "ios": "https://dc.lft.to/lastmile_qr_scan"}, "fusion_lon": 0.0}, {"lat": 38.921591166666666, "is_disabled": 0, "type": "electric_scooter", "lon": -77.04023616666667, "bike_id": "766b598d481ce76a674366154c0675da", "fusion_lat": 0.0, "name": "766b598d481ce76a674366154c0675da", "is_reserved": 0, "rental_uris": {"android": "https://dc.lft.to/lastmile_qr_scan", "ios": "https://dc.lft.to/lastmile_qr_scan"}, "fusion_lon": 0.0}, {"lat": 38.902787000000004, "is_disabled": 0, "type": "electric_scooter", "lon": -77.03640633333333, "bike_id": "ecba56a50213471ec6aee7af25516d9f", "fusion_lat": 0.0, "name": "ecba56a50213471ec6aee7af25516d9f", "is_reserved": 0, "rental_uris": {"android": "https://dc.lft.to/lastmile_qr_scan", "ios": "https://dc.lft.to/lastmile_qr_scan"}, "fusion_lon": 0.0}, {"lat": 38.91485183333333, "is_disabled": 0, "type": "electric_scooter", "lon": -77.02177616666667, "bike_id": "2f5294e3d5c91960aa9b96cc1c368f6e", "fusion_lat": 0.0, "name": "2f5294e3d5c91960aa9b96cc1c368f6e", "is_reserved": 0, "rental_uris": {"android": "https://dc.lft.to/lastmile_qr_scan", "ios": "https://dc.lft.to/lastmile_qr_scan"}, "fusion_lon": 0.0}, {"lat": 38.892219, "is_disabled": 0, "type": "electric_scooter", "lon": -77.048625, "bike_id": "23218edbcd70b2b94ca5abfa802df418", "fusion_lat": 0.0, "name": "23218edbcd70b2b94ca5abfa802df418", "is_reserved": 0, "rental_uris": {"android": "https://dc.lft.to/lastmile_qr_scan", "ios": "https://dc.lft.to/lastmile_qr_scan"}, "fusion_lon": 0.0}, {"lat": 38.8948595, "is_disabled": 0, "type": "electric_scooter", "lon": -77.00226366666666, "bike_id": "e57f540f260ce70c819df41caa0ab878", "fusion_lat": 0.0, "name": "e57f540f260ce70c819df41caa0ab878", "is_reserved": 0, "rental_uris": {"android": "https://dc.lft.to/lastmile_qr_scan", "ios": "https://dc.lft.to/lastmile_qr_scan"}, "fusion_lon": 0.0}, {"lat": 38.92106533333333, "is_disabled": 0, "type": "electric_scooter", "lon": -77.04185716666667, "bike_id": "980ce3d2863118f58b7130f361c34715", "fusion_lat": 0.0, "name": "980ce3d2863118f58b7130f361c34715", "is_reserved": 0, "rental_uris": {"android": "https://dc.lft.to/lastmile_qr_scan", "ios": "https://dc.lft.to/lastmile_qr_scan"}, "fusion_lon": 0.0}, {"lat": 38.92669016666667, "is_disabled": 0, "type": "electric_scooter", "lon": -77.0152575, "bike_id": "a620baa926359a8ba012bed34189c841", "fusion_lat": 0.0, "name": "a620baa926359a8ba012bed34189c841", "is_reserved": 0, "rental_uris": {"android": "https://dc.lft.to/lastmile_qr_scan", "ios": "https://dc.lft.to/lastmile_qr_scan"}, "fusion_lon": 0.0}, {"lat": 38.904845333333334, "is_disabled": 0, "type": "electric_scooter", "lon": -76.9732005, "bike_id": "a18d0b4fc122fde49510887c702cbe84", "fusion_lat": 0.0, "name": "a18d0b4fc122fde49510887c702cbe84", "is_reserved": 0, "rental_uris": {"android": "https://dc.lft.to/lastmile_qr_scan", "ios": "https://dc.lft.to/lastmile_qr_scan"}, "fusion_lon": 0.0}, {"lat": 38.9430885, "is_disabled": 0, "type": "electric_scooter", "lon": -77.06134533333334, "bike_id": "ab9d675020234394550c16a2d05cd079", "fusion_lat": 0.0, "name": "ab9d675020234394550c16a2d05cd079", "is_reserved": 0, "rental_uris": {"android": "https://dc.lft.to/lastmile_qr_scan", "ios": "https://dc.lft.to/lastmile_qr_scan"}, "fusion_lon": 0.0}, {"lat": 38.9157605, "is_disabled": 0, "type": "electric_scooter", "lon": -77.05015416666667, "bike_id": "3b3570de31108923d325fbe8add453e3", "fusion_lat": 0.0, "name": "3b3570de31108923d325fbe8add453e3", "is_reserved": 0, "rental_uris": {"android": "https://dc.lft.to/lastmile_qr_scan", "ios": "https://dc.lft.to/lastmile_qr_scan"}, "fusion_lon": 0.0}, {"lat": 38.98217416666667, "is_disabled": 0, "type": "electric_scooter", "lon": -77.02641316666667, "bike_id": "bf6b407122623e0cee4a2437d35eb005", "fusion_lat": 0.0, "name": "bf6b407122623e0cee4a2437d35eb005", "is_reserved": 0, "rental_uris": {"android": "https://dc.lft.to/lastmile_qr_scan", "ios": "https://dc.lft.to/lastmile_qr_scan"}, "fusion_lon": 0.0}, {"lat": 38.92483816666667, "is_disabled": 0, "type": "electric_scooter", "lon": -77.03476516666667, "bike_id": "0e36ea14a45ba74cdebdc899a70137a2", "fusion_lat": 0.0, "name": "0e36ea14a45ba74cdebdc899a70137a2", "is_reserved": 0, "rental_uris": {"android": "https://dc.lft.to/lastmile_qr_scan", "ios": "https://dc.lft.to/lastmile_qr_scan"}, "fusion_lon": 0.0}, {"lat": 38.8861965, "is_disabled": 0, "type": "electric_scooter", "lon": -76.95515316666666, "bike_id": "189a216268ecaba59dd10b680e2afc56", "fusion_lat": 0.0, "name": "189a216268ecaba59dd10b680e2afc56", "is_reserved": 0, "rental_uris": {"android": "https://dc.lft.to/lastmile_qr_scan", "ios": "https://dc.lft.to/lastmile_qr_scan"}, "fusion_lon": 0.0}, {"lat": 38.9072735, "is_disabled": 0, "type": "electric_scooter", "lon": -77.0450335, "bike_id": "cafc9b53c2890de109e1938eccb83c71", "fusion_lat": 0.0, "name": "cafc9b53c2890de109e1938eccb83c71", "is_reserved": 0, "rental_uris": {"android": "https://dc.lft.to/lastmile_qr_scan", "ios": "https://dc.lft.to/lastmile_qr_scan"}, "fusion_lon": 0.0}, {"lat": 38.92686966666667, "is_disabled": 0, "type": "electric_scooter", "lon": -77.01518233333333, "bike_id": "245a78bd45e4ae76e8dc241b302239c5", "fusion_lat": 0.0, "name": "245a78bd45e4ae76e8dc241b302239c5", "is_reserved": 0, "rental_uris": {"android": "https://dc.lft.to/lastmile_qr_scan", "ios": "https://dc.lft.to/lastmile_qr_scan"}, "fusion_lon": 0.0}, {"lat": 38.93119683333333, "is_disabled": 0, "type": "electric_scooter", "lon": -77.02089866666667, "bike_id": "94e6352824387da1bc1c56ef5bff0042", "fusion_lat": 0.0, "name": "94e6352824387da1bc1c56ef5bff0042", "is_reserved": 0, "rental_uris": {"android": "https://dc.lft.to/lastmile_qr_scan", "ios": "https://dc.lft.to/lastmile_qr_scan"}, "fusion_lon": 0.0}, {"lat": 38.90267566666667, "is_disabled": 0, "type": "electric_scooter", "lon": -77.03633783333333, "bike_id": "7f04c7ccb7969647a806409ffa272034", "fusion_lat": 0.0, "name": "7f04c7ccb7969647a806409ffa272034", "is_reserved": 0, "rental_uris": {"android": "https://dc.lft.to/lastmile_qr_scan", "ios": "https://dc.lft.to/lastmile_qr_scan"}, "fusion_lon": 0.0}, {"lat": 38.902766166666666, "is_disabled": 0, "type": "electric_scooter", "lon": -77.043829, "bike_id": "240fd9f21eedca1f2dbf7df364d7bac5", "fusion_lat": 0.0, "name": "240fd9f21eedca1f2dbf7df364d7bac5", "is_reserved": 0, "rental_uris": {"android": "https://dc.lft.to/lastmile_qr_scan", "ios": "https://dc.lft.to/lastmile_qr_scan"}, "fusion_lon": 0.0}, {"lat": 38.916855166666664, "is_disabled": 0, "type": "electric_scooter", "lon": -77.0374755, "bike_id": "58f48ea5690ec67c95cb164805ab5e6d", "fusion_lat": 0.0, "name": "58f48ea5690ec67c95cb164805ab5e6d", "is_reserved": 0, "rental_uris": {"android": "https://dc.lft.to/lastmile_qr_scan", "ios": "https://dc.lft.to/lastmile_qr_scan"}, "fusion_lon": 0.0}, {"lat": 38.911711333333336, "is_disabled": 0, "type": "electric_scooter", "lon": -77.03187466666667, "bike_id": "0ddba23f56fae36d5a67dc3d28cbe2ef", "fusion_lat": 0.0, "name": "0ddba23f56fae36d5a67dc3d28cbe2ef", "is_reserved": 0, "rental_uris": {"android": "https://dc.lft.to/lastmile_qr_scan", "ios": "https://dc.lft.to/lastmile_qr_scan"}, "fusion_lon": 0.0}, {"lat": 38.913109166666665, "is_disabled": 0, "type": "electric_scooter", "lon": -77.0448695, "bike_id": "e769ffddc367a3dcd9ad33818cc31127", "fusion_lat": 0.0, "name": "e769ffddc367a3dcd9ad33818cc31127", "is_reserved": 0, "rental_uris": {"android": "https://dc.lft.to/lastmile_qr_scan", "ios": "https://dc.lft.to/lastmile_qr_scan"}, "fusion_lon": 0.0}, {"lat": 38.93386016666667, "is_disabled": 0, "type": "electric_scooter", "lon": -77.0325415, "bike_id": "a03473a8fd474d4a5ae9dc03e7faa1a6", "fusion_lat": 0.0, "name": "a03473a8fd474d4a5ae9dc03e7faa1a6", "is_reserved": 0, "rental_uris": {"android": "https://dc.lft.to/lastmile_qr_scan", "ios": "https://dc.lft.to/lastmile_qr_scan"}, "fusion_lon": 0.0}, {"lat": 38.923081333333336, "is_disabled": 0, "type": "electric_scooter", "lon": -77.03653666666666, "bike_id": "9bb38741ee9090b66002c8c24996dbfa", "fusion_lat": 0.0, "name": "9bb38741ee9090b66002c8c24996dbfa", "is_reserved": 0, "rental_uris": {"android": "https://dc.lft.to/lastmile_qr_scan", "ios": "https://dc.lft.to/lastmile_qr_scan"}, "fusion_lon": 0.0}, {"lat": 38.9273035, "is_disabled": 0, "type": "electric_scooter", "lon": -77.022463, "bike_id": "809b6841a2820048b90c54d60ece899d", "fusion_lat": 0.0, "name": "809b6841a2820048b90c54d60ece899d", "is_reserved": 0, "rental_uris": {"android": "https://dc.lft.to/lastmile_qr_scan", "ios": "https://dc.lft.to/lastmile_qr_scan"}, "fusion_lon": 0.0}, {"lat": 38.88593816666667, "is_disabled": 0, "type": "electric_scooter", "lon": -77.021989, "bike_id": "0495305bd0b01c3c210c44589be0a3b7", "fusion_lat": 0.0, "name": "0495305bd0b01c3c210c44589be0a3b7", "is_reserved": 0, "rental_uris": {"android": "https://dc.lft.to/lastmile_qr_scan", "ios": "https://dc.lft.to/lastmile_qr_scan"}, "fusion_lon": 0.0}, {"lat": 38.917489, "is_disabled": 0, "type": "electric_scooter", "lon": -77.03191883333334, "bike_id": "8816ae3d0e88b13a0d4b2ee5d3bde795", "fusion_lat": 0.0, "name": "8816ae3d0e88b13a0d4b2ee5d3bde795", "is_reserved": 0, "rental_uris": {"android": "https://dc.lft.to/lastmile_qr_scan", "ios": "https://dc.lft.to/lastmile_qr_scan"}, "fusion_lon": 0.0}, {"lat": 38.9067435, "is_disabled": 0, "type": "electric_scooter", "lon": -77.02711216666667, "bike_id": "a09262005894fcf8a8152f2a37aabebe", "fusion_lat": 0.0, "name": "a09262005894fcf8a8152f2a37aabebe", "is_reserved": 0, "rental_uris": {"android": "https://dc.lft.to/lastmile_qr_scan", "ios": "https://dc.lft.to/lastmile_qr_scan"}, "fusion_lon": 0.0}, {"lat": 38.91543133333333, "is_disabled": 0, "type": "electric_scooter", "lon": -77.07418133333333, "bike_id": "b5788b24585e3c2d750628671bd3267a", "fusion_lat": 0.0, "name": "b5788b24585e3c2d750628671bd3267a", "is_reserved": 0, "rental_uris": {"android": "https://dc.lft.to/lastmile_qr_scan", "ios": "https://dc.lft.to/lastmile_qr_scan"}, "fusion_lon": 0.0}, {"lat": 38.90963216666667, "is_disabled": 0, "type": "electric_scooter", "lon": -76.99605616666666, "bike_id": "110ad64140aa0c716692b252f050961e", "fusion_lat": 0.0, "name": "110ad64140aa0c716692b252f050961e", "is_reserved": 0, "rental_uris": {"android": "https://dc.lft.to/lastmile_qr_scan", "ios": "https://dc.lft.to/lastmile_qr_scan"}, "fusion_lon": 0.0}, {"lat": 38.89281116666667, "is_disabled": 0, "type": "electric_scooter", "lon": -76.95851866666666, "bike_id": "1f1ffc1bfe9f87d152e3691a4fca5c75", "fusion_lat": 0.0, "name": "1f1ffc1bfe9f87d152e3691a4fca5c75", "is_reserved": 0, "rental_uris": {"android": "https://dc.lft.to/lastmile_qr_scan", "ios": "https://dc.lft.to/lastmile_qr_scan"}, "fusion_lon": 0.0}, {"lat": 38.917085666666665, "is_disabled": 0, "type": "electric_scooter", "lon": -77.0349765, "bike_id": "79d2b06bd1c0a8132ba4c1d50b2b071b", "fusion_lat": 0.0, "name": "79d2b06bd1c0a8132ba4c1d50b2b071b", "is_reserved": 0, "rental_uris": {"android": "https://dc.lft.to/lastmile_qr_scan", "ios": "https://dc.lft.to/lastmile_qr_scan"}, "fusion_lon": 0.0}, {"lat": 38.887192666666664, "is_disabled": 0, "type": "electric_scooter", "lon": -76.99617583333334, "bike_id": "666c6c9c362d124b60caf58e5306aaba", "fusion_lat": 0.0, "name": "666c6c9c362d124b60caf58e5306aaba", "is_reserved": 0, "rental_uris": {"android": "https://dc.lft.to/lastmile_qr_scan", "ios": "https://dc.lft.to/lastmile_qr_scan"}, "fusion_lon": 0.0}, {"lat": 38.90004283333333, "is_disabled": 0, "type": "electric_scooter", "lon": -76.99951366666667, "bike_id": "13f1974ad53089b37737c2d610308156", "fusion_lat": 0.0, "name": "13f1974ad53089b37737c2d610308156", "is_reserved": 0, "rental_uris": {"android": "https://dc.lft.to/lastmile_qr_scan", "ios": "https://dc.lft.to/lastmile_qr_scan"}, "fusion_lon": 0.0}, {"lat": 38.929535333333334, "is_disabled": 0, "type": "electric_scooter", "lon": -76.99088083333334, "bike_id": "15a283b24705fa18f22a0c0c9c62c69a", "fusion_lat": 0.0, "name": "15a283b24705fa18f22a0c0c9c62c69a", "is_reserved": 0, "rental_uris": {"android": "https://dc.lft.to/lastmile_qr_scan", "ios": "https://dc.lft.to/lastmile_qr_scan"}, "fusion_lon": 0.0}, {"lat": 38.91421033333334, "is_disabled": 0, "type": "electric_scooter", "lon": -77.03903933333333, "bike_id": "787c01933709af3ac0278cfa71a6611c", "fusion_lat": 0.0, "name": "787c01933709af3ac0278cfa71a6611c", "is_reserved": 0, "rental_uris": {"android": "https://dc.lft.to/lastmile_qr_scan", "ios": "https://dc.lft.to/lastmile_qr_scan"}, "fusion_lon": 0.0}, {"lat": 38.90035683333333, "is_disabled": 0, "type": "electric_scooter", "lon": -76.99499183333333, "bike_id": "043d5fb38b4cba22d58e79ff09dc9423", "fusion_lat": 0.0, "name": "043d5fb38b4cba22d58e79ff09dc9423", "is_reserved": 0, "rental_uris": {"android": "https://dc.lft.to/lastmile_qr_scan", "ios": "https://dc.lft.to/lastmile_qr_scan"}, "fusion_lon": 0.0}, {"lat": 38.926815166666664, "is_disabled": 0, "type": "electric_scooter", "lon": -77.02116983333333, "bike_id": "8ba94827163a0b32d38b615154a0c017", "fusion_lat": 0.0, "name": "8ba94827163a0b32d38b615154a0c017", "is_reserved": 0, "rental_uris": {"android": "https://dc.lft.to/lastmile_qr_scan", "ios": "https://dc.lft.to/lastmile_qr_scan"}, "fusion_lon": 0.0}, {"lat": 38.83987483333333, "is_disabled": 0, "type": "electric_bike", "lon": -77.005672, "bike_id": "979d51d768c603eb19419c15974df17a", "fusion_lat": 0.0, "name": "979d51d768c603eb19419c15974df17a", "is_reserved": 0, "rental_uris": {"android": "https://dc.lft.to/lastmile_qr_scan", "ios": "https://dc.lft.to/lastmile_qr_scan"}, "fusion_lon": 0.0}, {"lat": 38.904038666666665, "is_disabled": 0, "type": "electric_scooter", "lon": -77.05924483333334, "bike_id": "a8efede98a20cf00869dd5a63977b12b", "fusion_lat": 0.0, "name": "a8efede98a20cf00869dd5a63977b12b", "is_reserved": 0, "rental_uris": {"android": "https://dc.lft.to/lastmile_qr_scan", "ios": "https://dc.lft.to/lastmile_qr_scan"}, "fusion_lon": 0.0}, {"lat": 38.9168985, "is_disabled": 0, "type": "electric_scooter", "lon": -77.03718883333333, "bike_id": "438d63e9fb3d801516400c7acc145c30", "fusion_lat": 0.0, "name": "438d63e9fb3d801516400c7acc145c30", "is_reserved": 0, "rental_uris": {"android": "https://dc.lft.to/lastmile_qr_scan", "ios": "https://dc.lft.to/lastmile_qr_scan"}, "fusion_lon": 0.0}, {"lat": 38.923934, "is_disabled": 0, "type": "electric_scooter", "lon": -77.052642, "bike_id": "02e055f07675dca89cdd3e85ddfe75fe", "fusion_lat": 0.0, "name": "02e055f07675dca89cdd3e85ddfe75fe", "is_reserved": 0, "rental_uris": {"android": "https://dc.lft.to/lastmile_qr_scan", "ios": "https://dc.lft.to/lastmile_qr_scan"}, "fusion_lon": 0.0}, {"lat": 38.909822, "is_disabled": 0, "type": "electric_scooter", "lon": -76.98463366666667, "bike_id": "e3b529bbf8aca0632f14950dd5a5be0c", "fusion_lat": 0.0, "name": "e3b529bbf8aca0632f14950dd5a5be0c", "is_reserved": 0, "rental_uris": {"android": "https://dc.lft.to/lastmile_qr_scan", "ios": "https://dc.lft.to/lastmile_qr_scan"}, "fusion_lon": 0.0}, {"lat": 38.908478833333334, "is_disabled": 0, "type": "electric_scooter", "lon": -76.9995665, "bike_id": "6da4d2044d74b4068746f4dbc323a92d", "fusion_lat": 0.0, "name": "6da4d2044d74b4068746f4dbc323a92d", "is_reserved": 0, "rental_uris": {"android": "https://dc.lft.to/lastmile_qr_scan", "ios": "https://dc.lft.to/lastmile_qr_scan"}, "fusion_lon": 0.0}, {"lat": 38.93335166666667, "is_disabled": 0, "type": "electric_scooter", "lon": -77.02620566666667, "bike_id": "cb95066fdf1958ba1e2fec875f731d82", "fusion_lat": 0.0, "name": "cb95066fdf1958ba1e2fec875f731d82", "is_reserved": 0, "rental_uris": {"android": "https://dc.lft.to/lastmile_qr_scan", "ios": "https://dc.lft.to/lastmile_qr_scan"}, "fusion_lon": 0.0}, {"lat": 38.880128, "is_disabled": 0, "type": "electric_scooter", "lon": -77.02481866666666, "bike_id": "b9ddd312a68fc0aca1d38c7fdc75bde0", "fusion_lat": 0.0, "name": "b9ddd312a68fc0aca1d38c7fdc75bde0", "is_reserved": 0, "rental_uris": {"android": "https://dc.lft.to/lastmile_qr_scan", "ios": "https://dc.lft.to/lastmile_qr_scan"}, "fusion_lon": 0.0}, {"lat": 38.876832666666665, "is_disabled": 0, "type": "electric_bike", "lon": -77.0175655, "bike_id": "9a508f61cd1730a6d49f726a6f84df0a", "fusion_lat": 0.0, "name": "9a508f61cd1730a6d49f726a6f84df0a", "is_reserved": 0, "rental_uris": {"android": "https://dc.lft.to/lastmile_qr_scan", "ios": "https://dc.lft.to/lastmile_qr_scan"}, "fusion_lon": 0.0}, {"lat": 39.07501583333333, "is_disabled": 0, "type": "electric_bike", "lon": -77.118998, "bike_id": "75bb740b3bf9f8cc36bcb8acbe271e3e", "fusion_lat": 0.0, "name": "75bb740b3bf9f8cc36bcb8acbe271e3e", "is_reserved": 0, "rental_uris": {"android": "https://dc.lft.to/lastmile_qr_scan", "ios": "https://dc.lft.to/lastmile_qr_scan"}, "fusion_lon": 0.0}, {"lat": 38.921075, "is_disabled": 0, "type": "electric_scooter", "lon": -77.0457325, "bike_id": "1b52073e03bdf58d75b9504990e60070", "fusion_lat": 0.0, "name": "1b52073e03bdf58d75b9504990e60070", "is_reserved": 0, "rental_uris": {"android": "https://dc.lft.to/lastmile_qr_scan", "ios": "https://dc.lft.to/lastmile_qr_scan"}, "fusion_lon": 0.0}, {"lat": 38.903779, "is_disabled": 0, "type": "electric_scooter", "lon": -77.04331533333334, "bike_id": "8c1ce2ecff6aee5169133bfefff94b10", "fusion_lat": 0.0, "name": "8c1ce2ecff6aee5169133bfefff94b10", "is_reserved": 0, "rental_uris": {"android": "https://dc.lft.to/lastmile_qr_scan", "ios": "https://dc.lft.to/lastmile_qr_scan"}, "fusion_lon": 0.0}, {"lat": 38.900089333333334, "is_disabled": 0, "type": "electric_bike", "lon": -77.05129883333333, "bike_id": "80f26b7769b7a4b0dd8db22220c0c705", "fusion_lat": 0.0, "name": "80f26b7769b7a4b0dd8db22220c0c705", "is_reserved": 0, "rental_uris": {"android": "https://dc.lft.to/lastmile_qr_scan", "ios": "https://dc.lft.to/lastmile_qr_scan"}, "fusion_lon": 0.0}, {"lat": 38.906734, "is_disabled": 0, "type": "electric_scooter", "lon": -77.02400233333333, "bike_id": "e5d2bef38c5e2fa1f72a5b2a87e15177", "fusion_lat": 0.0, "name": "e5d2bef38c5e2fa1f72a5b2a87e15177", "is_reserved": 0, "rental_uris": {"android": "https://dc.lft.to/lastmile_qr_scan", "ios": "https://dc.lft.to/lastmile_qr_scan"}, "fusion_lon": 0.0}, {"lat": 38.911023166666666, "is_disabled": 0, "type": "electric_scooter", "lon": -77.0385475, "bike_id": "8f5f788b4e001fc4fbc78206f8783786", "fusion_lat": 0.0, "name": "8f5f788b4e001fc4fbc78206f8783786", "is_reserved": 0, "rental_uris": {"android": "https://dc.lft.to/lastmile_qr_scan", "ios": "https://dc.lft.to/lastmile_qr_scan"}, "fusion_lon": 0.0}, {"lat": 38.912680333333334, "is_disabled": 0, "type": "electric_scooter", "lon": -77.0225035, "bike_id": "5d561f75bbe5acdd36d43ce96faa698a", "fusion_lat": 0.0, "name": "5d561f75bbe5acdd36d43ce96faa698a", "is_reserved": 0, "rental_uris": {"android": "https://dc.lft.to/lastmile_qr_scan", "ios": "https://dc.lft.to/lastmile_qr_scan"}, "fusion_lon": 0.0}, {"lat": 38.88670666666667, "is_disabled": 0, "type": "electric_scooter", "lon": -76.99036016666666, "bike_id": "f23c7e8ead3f4c63ca98e288b433e026", "fusion_lat": 0.0, "name": "f23c7e8ead3f4c63ca98e288b433e026", "is_reserved": 0, "rental_uris": {"android": "https://dc.lft.to/lastmile_qr_scan", "ios": "https://dc.lft.to/lastmile_qr_scan"}, "fusion_lon": 0.0}, {"lat": 38.916424166666665, "is_disabled": 0, "type": "electric_scooter", "lon": -77.04787083333333, "bike_id": "955bccc2a7353ab5cbbb73dd895ecf47", "fusion_lat": 0.0, "name": "955bccc2a7353ab5cbbb73dd895ecf47", "is_reserved": 0, "rental_uris": {"android": "https://dc.lft.to/lastmile_qr_scan", "ios": "https://dc.lft.to/lastmile_qr_scan"}, "fusion_lon": 0.0}, {"lat": 38.91493233333333, "is_disabled": 0, "type": "electric_scooter", "lon": -77.03264033333333, "bike_id": "ebcb0368d87a96f490e5b6bf0087150b", "fusion_lat": 0.0, "name": "ebcb0368d87a96f490e5b6bf0087150b", "is_reserved": 0, "rental_uris": {"android": "https://dc.lft.to/lastmile_qr_scan", "ios": "https://dc.lft.to/lastmile_qr_scan"}, "fusion_lon": 0.0}, {"lat": 38.916874666666665, "is_disabled": 0, "type": "electric_scooter", "lon": -77.0255515, "bike_id": "54efa6eebc43bccc75f9b816ed984dc9", "fusion_lat": 0.0, "name": "54efa6eebc43bccc75f9b816ed984dc9", "is_reserved": 0, "rental_uris": {"android": "https://dc.lft.to/lastmile_qr_scan", "ios": "https://dc.lft.to/lastmile_qr_scan"}, "fusion_lon": 0.0}, {"lat": 38.925468333333335, "is_disabled": 0, "type": "electric_scooter", "lon": -77.04428766666666, "bike_id": "91cf203ad75efca96e7e4f689edddb7e", "fusion_lat": 0.0, "name": "91cf203ad75efca96e7e4f689edddb7e", "is_reserved": 0, "rental_uris": {"android": "https://dc.lft.to/lastmile_qr_scan", "ios": "https://dc.lft.to/lastmile_qr_scan"}, "fusion_lon": 0.0}, {"lat": 38.93205, "is_disabled": 0, "type": "electric_scooter", "lon": -77.03664233333333, "bike_id": "5769fc32ff84cf496ae462662f2f2487", "fusion_lat": 0.0, "name": "5769fc32ff84cf496ae462662f2f2487", "is_reserved": 0, "rental_uris": {"android": "https://dc.lft.to/lastmile_qr_scan", "ios": "https://dc.lft.to/lastmile_qr_scan"}, "fusion_lon": 0.0}, {"lat": 38.90032266666667, "is_disabled": 0, "type": "electric_scooter", "lon": -76.99370116666667, "bike_id": "2c5957fbb3bd1c785e1f765571f5d564", "fusion_lat": 0.0, "name": "2c5957fbb3bd1c785e1f765571f5d564", "is_reserved": 0, "rental_uris": {"android": "https://dc.lft.to/lastmile_qr_scan", "ios": "https://dc.lft.to/lastmile_qr_scan"}, "fusion_lon": 0.0}, {"lat": 38.900805166666665, "is_disabled": 0, "type": "electric_scooter", "lon": -77.01818166666666, "bike_id": "c147d5656afbd1562223bf324f83ffd8", "fusion_lat": 0.0, "name": "c147d5656afbd1562223bf324f83ffd8", "is_reserved": 0, "rental_uris": {"android": "https://dc.lft.to/lastmile_qr_scan", "ios": "https://dc.lft.to/lastmile_qr_scan"}, "fusion_lon": 0.0}, {"lat": 38.93637283333333, "is_disabled": 0, "type": "electric_scooter", "lon": -77.02494816666666, "bike_id": "501d264ff650db959486ead9a5c30b68", "fusion_lat": 0.0, "name": "501d264ff650db959486ead9a5c30b68", "is_reserved": 0, "rental_uris": {"android": "https://dc.lft.to/lastmile_qr_scan", "ios": "https://dc.lft.to/lastmile_qr_scan"}, "fusion_lon": 0.0}, {"lat": 38.92251483333333, "is_disabled": 0, "type": "electric_scooter", "lon": -77.04290716666667, "bike_id": "d74565c320c09a235a87a1f9b0320a9f", "fusion_lat": 0.0, "name": "d74565c320c09a235a87a1f9b0320a9f", "is_reserved": 0, "rental_uris": {"android": "https://dc.lft.to/lastmile_qr_scan", "ios": "https://dc.lft.to/lastmile_qr_scan"}, "fusion_lon": 0.0}, {"lat": 38.8934855, "is_disabled": 0, "type": "electric_scooter", "lon": -77.04137616666667, "bike_id": "dbd5076e75852f27bef80990b462693c", "fusion_lat": 0.0, "name": "dbd5076e75852f27bef80990b462693c", "is_reserved": 0, "rental_uris": {"android": "https://dc.lft.to/lastmile_qr_scan", "ios": "https://dc.lft.to/lastmile_qr_scan"}, "fusion_lon": 0.0}, {"lat": 38.92850083333333, "is_disabled": 0, "type": "electric_bike", "lon": -77.10676566666666, "bike_id": "125bfff3bca29a9749ec843f6fc7f620", "fusion_lat": 0.0, "name": "125bfff3bca29a9749ec843f6fc7f620", "is_reserved": 0, "rental_uris": {"android": "https://dc.lft.to/lastmile_qr_scan", "ios": "https://dc.lft.to/lastmile_qr_scan"}, "fusion_lon": 0.0}, {"lat": 38.90360833333333, "is_disabled": 0, "type": "electric_scooter", "lon": -76.97653883333334, "bike_id": "f90acf90bd667ff80e22688d2e6f16ca", "fusion_lat": 0.0, "name": "f90acf90bd667ff80e22688d2e6f16ca", "is_reserved": 0, "rental_uris": {"android": "https://dc.lft.to/lastmile_qr_scan", "ios": "https://dc.lft.to/lastmile_qr_scan"}, "fusion_lon": 0.0}, {"lat": 38.91716666666667, "is_disabled": 0, "type": "electric_scooter", "lon": -77.03973483333333, "bike_id": "14a45b569b41762295e272dae5289369", "fusion_lat": 0.0, "name": "14a45b569b41762295e272dae5289369", "is_reserved": 0, "rental_uris": {"android": "https://dc.lft.to/lastmile_qr_scan", "ios": "https://dc.lft.to/lastmile_qr_scan"}, "fusion_lon": 0.0}, {"lat": 38.9293635, "is_disabled": 0, "type": "electric_scooter", "lon": -77.03246066666667, "bike_id": "e0869b5d3517a2b37ca6cbab873a8ee7", "fusion_lat": 0.0, "name": "e0869b5d3517a2b37ca6cbab873a8ee7", "is_reserved": 0, "rental_uris": {"android": "https://dc.lft.to/lastmile_qr_scan", "ios": "https://dc.lft.to/lastmile_qr_scan"}, "fusion_lon": 0.0}, {"lat": 38.9025715, "is_disabled": 0, "type": "electric_bike", "lon": -77.00777966666666, "bike_id": "aaa6b3b4439b61bbac0ccac16c8fa704", "fusion_lat": 0.0, "name": "aaa6b3b4439b61bbac0ccac16c8fa704", "is_reserved": 0, "rental_uris": {"android": "https://dc.lft.to/lastmile_qr_scan", "ios": "https://dc.lft.to/lastmile_qr_scan"}, "fusion_lon": 0.0}, {"lat": 38.91477, "is_disabled": 0, "type": "electric_scooter", "lon": -77.032161, "bike_id": "462ab00779aba620982f5458f2861914", "fusion_lat": 0.0, "name": "462ab00779aba620982f5458f2861914", "is_reserved": 0, "rental_uris": {"android": "https://dc.lft.to/lastmile_qr_scan", "ios": "https://dc.lft.to/lastmile_qr_scan"}, "fusion_lon": 0.0}, {"lat": 38.9005565, "is_disabled": 0, "type": "electric_scooter", "lon": -77.04536483333334, "bike_id": "7ea659c8e6fa7da6883200a0b38b5aa4", "fusion_lat": 0.0, "name": "7ea659c8e6fa7da6883200a0b38b5aa4", "is_reserved": 0, "rental_uris": {"android": "https://dc.lft.to/lastmile_qr_scan", "ios": "https://dc.lft.to/lastmile_qr_scan"}, "fusion_lon": 0.0}, {"lat": 38.91797616666667, "is_disabled": 0, "type": "electric_scooter", "lon": -77.0334195, "bike_id": "0d690ac173e6ddc70a0d7ed0dc8a5e43", "fusion_lat": 0.0, "name": "0d690ac173e6ddc70a0d7ed0dc8a5e43", "is_reserved": 0, "rental_uris": {"android": "https://dc.lft.to/lastmile_qr_scan", "ios": "https://dc.lft.to/lastmile_qr_scan"}, "fusion_lon": 0.0}, {"lat": 38.92095616666667, "is_disabled": 0, "type": "electric_scooter", "lon": -77.0315735, "bike_id": "99ee795ada7e53e799edc455595b1786", "fusion_lat": 0.0, "name": "99ee795ada7e53e799edc455595b1786", "is_reserved": 0, "rental_uris": {"android": "https://dc.lft.to/lastmile_qr_scan", "ios": "https://dc.lft.to/lastmile_qr_scan"}, "fusion_lon": 0.0}, {"lat": 38.917052166666664, "is_disabled": 0, "type": "electric_scooter", "lon": -77.03246066666667, "bike_id": "6beadd3fa8e7623dcf75021aea82234a", "fusion_lat": 0.0, "name": "6beadd3fa8e7623dcf75021aea82234a", "is_reserved": 0, "rental_uris": {"android": "https://dc.lft.to/lastmile_qr_scan", "ios": "https://dc.lft.to/lastmile_qr_scan"}, "fusion_lon": 0.0}, {"lat": 38.947663, "is_disabled": 0, "type": "electric_scooter", "lon": -77.06542516666667, "bike_id": "8deab1a1f1f36febab1477cbfe12d5a7", "fusion_lat": 0.0, "name": "8deab1a1f1f36febab1477cbfe12d5a7", "is_reserved": 0, "rental_uris": {"android": "https://dc.lft.to/lastmile_qr_scan", "ios": "https://dc.lft.to/lastmile_qr_scan"}, "fusion_lon": 0.0}, {"lat": 38.917077666666664, "is_disabled": 0, "type": "electric_scooter", "lon": -77.0241575, "bike_id": "32536c7f9cb2aab6561bd6d0a61b88dd", "fusion_lat": 0.0, "name": "32536c7f9cb2aab6561bd6d0a61b88dd", "is_reserved": 0, "rental_uris": {"android": "https://dc.lft.to/lastmile_qr_scan", "ios": "https://dc.lft.to/lastmile_qr_scan"}, "fusion_lon": 0.0}, {"lat": 38.873423, "is_disabled": 0, "type": "electric_scooter", "lon": -76.99165583333334, "bike_id": "b1a8edd39ea9570e992883383259438e", "fusion_lat": 0.0, "name": "b1a8edd39ea9570e992883383259438e", "is_reserved": 0, "rental_uris": {"android": "https://dc.lft.to/lastmile_qr_scan", "ios": "https://dc.lft.to/lastmile_qr_scan"}, "fusion_lon": 0.0}, {"lat": 38.93707166666667, "is_disabled": 0, "type": "electric_scooter", "lon": -77.03228866666667, "bike_id": "9a3ca6d969b0fc67786353b7f2f1830d", "fusion_lat": 0.0, "name": "9a3ca6d969b0fc67786353b7f2f1830d", "is_reserved": 0, "rental_uris": {"android": "https://dc.lft.to/lastmile_qr_scan", "ios": "https://dc.lft.to/lastmile_qr_scan"}, "fusion_lon": 0.0}, {"lat": 38.916973, "is_disabled": 0, "type": "electric_scooter", "lon": -77.04677733333334, "bike_id": "ec5e6a9095eaf4093a89ad86ca3f6301", "fusion_lat": 0.0, "name": "ec5e6a9095eaf4093a89ad86ca3f6301", "is_reserved": 0, "rental_uris": {"android": "https://dc.lft.to/lastmile_qr_scan", "ios": "https://dc.lft.to/lastmile_qr_scan"}, "fusion_lon": 0.0}, {"lat": 38.89554416666667, "is_disabled": 0, "type": "electric_scooter", "lon": -76.9337235, "bike_id": "e842f9b2551dc6f56d58ba3e4dca53e6", "fusion_lat": 0.0, "name": "e842f9b2551dc6f56d58ba3e4dca53e6", "is_reserved": 0, "rental_uris": {"android": "https://dc.lft.to/lastmile_qr_scan", "ios": "https://dc.lft.to/lastmile_qr_scan"}, "fusion_lon": 0.0}, {"lat": 38.926581, "is_disabled": 0, "type": "electric_scooter", "lon": -77.05596883333334, "bike_id": "9736f85b21d0e84739707428e02f9095", "fusion_lat": 0.0, "name": "9736f85b21d0e84739707428e02f9095", "is_reserved": 0, "rental_uris": {"android": "https://dc.lft.to/lastmile_qr_scan", "ios": "https://dc.lft.to/lastmile_qr_scan"}, "fusion_lon": 0.0}, {"lat": 38.938808333333334, "is_disabled": 0, "type": "electric_scooter", "lon": -77.03261916666666, "bike_id": "792fa212763f8ca3b655b5da6b95202c", "fusion_lat": 0.0, "name": "792fa212763f8ca3b655b5da6b95202c", "is_reserved": 0, "rental_uris": {"android": "https://dc.lft.to/lastmile_qr_scan", "ios": "https://dc.lft.to/lastmile_qr_scan"}, "fusion_lon": 0.0}, {"lat": 38.87679716666667, "is_disabled": 0, "type": "electric_scooter", "lon": -77.01789666666667, "bike_id": "0265e7e486fdf79886d54644a304df68", "fusion_lat": 0.0, "name": "0265e7e486fdf79886d54644a304df68", "is_reserved": 0, "rental_uris": {"android": "https://dc.lft.to/lastmile_qr_scan", "ios": "https://dc.lft.to/lastmile_qr_scan"}, "fusion_lon": 0.0}, {"lat": 38.90631283333333, "is_disabled": 0, "type": "electric_scooter", "lon": -77.024994, "bike_id": "2d64d77ac4a6e66dd280213d1581a3dc", "fusion_lat": 0.0, "name": "2d64d77ac4a6e66dd280213d1581a3dc", "is_reserved": 0, "rental_uris": {"android": "https://dc.lft.to/lastmile_qr_scan", "ios": "https://dc.lft.to/lastmile_qr_scan"}, "fusion_lon": 0.0}, {"lat": 38.90097566666667, "is_disabled": 0, "type": "electric_scooter", "lon": -77.05054333333334, "bike_id": "a3c0f3680d92b20be487f6717cebdc73", "fusion_lat": 0.0, "name": "a3c0f3680d92b20be487f6717cebdc73", "is_reserved": 0, "rental_uris": {"android": "https://dc.lft.to/lastmile_qr_scan", "ios": "https://dc.lft.to/lastmile_qr_scan"}, "fusion_lon": 0.0}, {"lat": 38.871421833333336, "is_disabled": 0, "type": "electric_bike", "lon": -76.93701483333334, "bike_id": "a4e956d345c11bf303a4b15a740eefac", "fusion_lat": 0.0, "name": "a4e956d345c11bf303a4b15a740eefac", "is_reserved": 0, "rental_uris": {"android": "https://dc.lft.to/lastmile_qr_scan", "ios": "https://dc.lft.to/lastmile_qr_scan"}, "fusion_lon": 0.0}, {"lat": 38.83693783333333, "is_disabled": 0, "type": "electric_scooter", "lon": -77.10303333333333, "bike_id": "b4e51daf0fe10c46bca9bf86f4e9eb77", "fusion_lat": 0.0, "name": "b4e51daf0fe10c46bca9bf86f4e9eb77", "is_reserved": 0, "rental_uris": {"android": "https://dc.lft.to/lastmile_qr_scan", "ios": "https://dc.lft.to/lastmile_qr_scan"}, "fusion_lon": 0.0}, {"lat": 38.916175, "is_disabled": 0, "type": "electric_scooter", "lon": -77.0327935, "bike_id": "be7704e9251b084c714aaa8e201c88a4", "fusion_lat": 0.0, "name": "be7704e9251b084c714aaa8e201c88a4", "is_reserved": 0, "rental_uris": {"android": "https://dc.lft.to/lastmile_qr_scan", "ios": "https://dc.lft.to/lastmile_qr_scan"}, "fusion_lon": 0.0}, {"lat": 38.88110433333333, "is_disabled": 0, "type": "electric_scooter", "lon": -76.98335583333333, "bike_id": "f83f99e671342e565c30f1689cd6468f", "fusion_lat": 0.0, "name": "f83f99e671342e565c30f1689cd6468f", "is_reserved": 0, "rental_uris": {"android": "https://dc.lft.to/lastmile_qr_scan", "ios": "https://dc.lft.to/lastmile_qr_scan"}, "fusion_lon": 0.0}, {"lat": 38.86828116666667, "is_disabled": 0, "type": "electric_scooter", "lon": -76.97740116666667, "bike_id": "f0b3c2115a09256d345e5f7842aa1511", "fusion_lat": 0.0, "name": "f0b3c2115a09256d345e5f7842aa1511", "is_reserved": 0, "rental_uris": {"android": "https://dc.lft.to/lastmile_qr_scan", "ios": "https://dc.lft.to/lastmile_qr_scan"}, "fusion_lon": 0.0}, {"lat": 38.927045166666666, "is_disabled": 0, "type": "electric_scooter", "lon": -77.020967, "bike_id": "0c4e50d2cb4ef73d4acbd90942ded395", "fusion_lat": 0.0, "name": "0c4e50d2cb4ef73d4acbd90942ded395", "is_reserved": 0, "rental_uris": {"android": "https://dc.lft.to/lastmile_qr_scan", "ios": "https://dc.lft.to/lastmile_qr_scan"}, "fusion_lon": 0.0}, {"lat": 38.91614333333333, "is_disabled": 0, "type": "electric_scooter", "lon": -77.04863183333333, "bike_id": "b26470dec65932e92ed7df4708c25d54", "fusion_lat": 0.0, "name": "b26470dec65932e92ed7df4708c25d54", "is_reserved": 0, "rental_uris": {"android": "https://dc.lft.to/lastmile_qr_scan", "ios": "https://dc.lft.to/lastmile_qr_scan"}, "fusion_lon": 0.0}, {"lat": 38.914173, "is_disabled": 0, "type": "electric_scooter", "lon": -77.046304, "bike_id": "a29b173b0ea41385ee4d97c05bc5c0c2", "fusion_lat": 0.0, "name": "a29b173b0ea41385ee4d97c05bc5c0c2", "is_reserved": 0, "rental_uris": {"android": "https://dc.lft.to/lastmile_qr_scan", "ios": "https://dc.lft.to/lastmile_qr_scan"}, "fusion_lon": 0.0}, {"lat": 38.91123866666667, "is_disabled": 0, "type": "electric_scooter", "lon": -77.03212066666667, "bike_id": "12cdbeaa1cf24d57d566d60d9a5450f7", "fusion_lat": 0.0, "name": "12cdbeaa1cf24d57d566d60d9a5450f7", "is_reserved": 0, "rental_uris": {"android": "https://dc.lft.to/lastmile_qr_scan", "ios": "https://dc.lft.to/lastmile_qr_scan"}, "fusion_lon": 0.0}, {"lat": 38.9335815, "is_disabled": 0, "type": "electric_bike", "lon": -77.09960966666667, "bike_id": "50cdbdc9fd57501d16a4851187ddc3b3", "fusion_lat": 0.0, "name": "50cdbdc9fd57501d16a4851187ddc3b3", "is_reserved": 0, "rental_uris": {"android": "https://dc.lft.to/lastmile_qr_scan", "ios": "https://dc.lft.to/lastmile_qr_scan"}, "fusion_lon": 0.0}, {"lat": 38.881493, "is_disabled": 0, "type": "electric_scooter", "lon": -77.02735416666667, "bike_id": "f23da39ade8e6ec46228d6d95e2cc0f6", "fusion_lat": 0.0, "name": "f23da39ade8e6ec46228d6d95e2cc0f6", "is_reserved": 0, "rental_uris": {"android": "https://dc.lft.to/lastmile_qr_scan", "ios": "https://dc.lft.to/lastmile_qr_scan"}, "fusion_lon": 0.0}, {"lat": 38.928485333333334, "is_disabled": 0, "type": "electric_scooter", "lon": -77.01387266666667, "bike_id": "b50dde36ab336312aa3ba2ad1ec18749", "fusion_lat": 0.0, "name": "b50dde36ab336312aa3ba2ad1ec18749", "is_reserved": 0, "rental_uris": {"android": "https://dc.lft.to/lastmile_qr_scan", "ios": "https://dc.lft.to/lastmile_qr_scan"}, "fusion_lon": 0.0}, {"lat": 38.95170733333333, "is_disabled": 0, "type": "electric_bike", "lon": -76.96893916666667, "bike_id": "9417c8de6e63309aecd3b71e6071a926", "fusion_lat": 0.0, "name": "9417c8de6e63309aecd3b71e6071a926", "is_reserved": 0, "rental_uris": {"android": "https://dc.lft.to/lastmile_qr_scan", "ios": "https://dc.lft.to/lastmile_qr_scan"}, "fusion_lon": 0.0}, {"lat": 38.91873066666667, "is_disabled": 0, "type": "electric_scooter", "lon": -77.01212883333334, "bike_id": "ccd02b53a42e76df9a16caa9c4da9fe9", "fusion_lat": 0.0, "name": "ccd02b53a42e76df9a16caa9c4da9fe9", "is_reserved": 0, "rental_uris": {"android": "https://dc.lft.to/lastmile_qr_scan", "ios": "https://dc.lft.to/lastmile_qr_scan"}, "fusion_lon": 0.0}, {"lat": 38.90075266666667, "is_disabled": 0, "type": "electric_scooter", "lon": -77.00214266666667, "bike_id": "d95f9e2fa0db20ad9c406cd3ae2fe46c", "fusion_lat": 0.0, "name": "d95f9e2fa0db20ad9c406cd3ae2fe46c", "is_reserved": 0, "rental_uris": {"android": "https://dc.lft.to/lastmile_qr_scan", "ios": "https://dc.lft.to/lastmile_qr_scan"}, "fusion_lon": 0.0}, {"lat": 38.913086, "is_disabled": 0, "type": "electric_scooter", "lon": -77.0240515, "bike_id": "6392a8d723a3bd3fbda3f2c6c6fbe5d8", "fusion_lat": 0.0, "name": "6392a8d723a3bd3fbda3f2c6c6fbe5d8", "is_reserved": 0, "rental_uris": {"android": "https://dc.lft.to/lastmile_qr_scan", "ios": "https://dc.lft.to/lastmile_qr_scan"}, "fusion_lon": 0.0}, {"lat": 38.90745066666667, "is_disabled": 0, "type": "electric_scooter", "lon": -77.03445033333334, "bike_id": "ffdc79326440cc21e661d229f33dea27", "fusion_lat": 0.0, "name": "ffdc79326440cc21e661d229f33dea27", "is_reserved": 0, "rental_uris": {"android": "https://dc.lft.to/lastmile_qr_scan", "ios": "https://dc.lft.to/lastmile_qr_scan"}, "fusion_lon": 0.0}, {"lat": 38.9034975, "is_disabled": 0, "type": "electric_scooter", "lon": -77.0447905, "bike_id": "563fdb3f286239ada447a35cdfd2e96b", "fusion_lat": 0.0, "name": "563fdb3f286239ada447a35cdfd2e96b", "is_reserved": 0, "rental_uris": {"android": "https://dc.lft.to/lastmile_qr_scan", "ios": "https://dc.lft.to/lastmile_qr_scan"}, "fusion_lon": 0.0}, {"lat": 38.90266666666667, "is_disabled": 0, "type": "electric_scooter", "lon": -77.0397615, "bike_id": "db97b3c11e6d7c12c0466438342debcb", "fusion_lat": 0.0, "name": "db97b3c11e6d7c12c0466438342debcb", "is_reserved": 0, "rental_uris": {"android": "https://dc.lft.to/lastmile_qr_scan", "ios": "https://dc.lft.to/lastmile_qr_scan"}, "fusion_lon": 0.0}, {"lat": 38.933368333333334, "is_disabled": 0, "type": "electric_scooter", "lon": -76.99306816666666, "bike_id": "77fbe77459d6f085177405ddb45ec9ee", "fusion_lat": 0.0, "name": "77fbe77459d6f085177405ddb45ec9ee", "is_reserved": 0, "rental_uris": {"android": "https://dc.lft.to/lastmile_qr_scan", "ios": "https://dc.lft.to/lastmile_qr_scan"}, "fusion_lon": 0.0}, {"lat": 38.9183345, "is_disabled": 0, "type": "electric_scooter", "lon": -77.023138, "bike_id": "93e358e5cb9b5de8c53e88f00aaf76c5", "fusion_lat": 0.0, "name": "93e358e5cb9b5de8c53e88f00aaf76c5", "is_reserved": 0, "rental_uris": {"android": "https://dc.lft.to/lastmile_qr_scan", "ios": "https://dc.lft.to/lastmile_qr_scan"}, "fusion_lon": 0.0}, {"lat": 38.92127633333333, "is_disabled": 0, "type": "electric_scooter", "lon": -77.04114616666666, "bike_id": "0cc2ee8377de3113b08f07b33949b764", "fusion_lat": 0.0, "name": "0cc2ee8377de3113b08f07b33949b764", "is_reserved": 0, "rental_uris": {"android": "https://dc.lft.to/lastmile_qr_scan", "ios": "https://dc.lft.to/lastmile_qr_scan"}, "fusion_lon": 0.0}, {"lat": 38.845488333333336, "is_disabled": 0, "type": "electric_bike", "lon": -76.990613, "bike_id": "9f8e3a1221a024f43b020f2d4e3c3551", "fusion_lat": 0.0, "name": "9f8e3a1221a024f43b020f2d4e3c3551", "is_reserved": 0, "rental_uris": {"android": "https://dc.lft.to/lastmile_qr_scan", "ios": "https://dc.lft.to/lastmile_qr_scan"}, "fusion_lon": 0.0}, {"lat": 38.804929666666666, "is_disabled": 0, "type": "electric_bike", "lon": -77.04130133333334, "bike_id": "7a34888abe57c5ffe47246d3c6c1f41d", "fusion_lat": 0.0, "name": "7a34888abe57c5ffe47246d3c6c1f41d", "is_reserved": 0, "rental_uris": {"android": "https://dc.lft.to/lastmile_qr_scan", "ios": "https://dc.lft.to/lastmile_qr_scan"}, "fusion_lon": 0.0}, {"lat": 38.937489166666666, "is_disabled": 0, "type": "electric_scooter", "lon": -77.03458783333333, "bike_id": "b78f5b151eafca7ff998104e85f89c4f", "fusion_lat": 0.0, "name": "b78f5b151eafca7ff998104e85f89c4f", "is_reserved": 0, "rental_uris": {"android": "https://dc.lft.to/lastmile_qr_scan", "ios": "https://dc.lft.to/lastmile_qr_scan"}, "fusion_lon": 0.0}, {"lat": 38.91330266666667, "is_disabled": 0, "type": "electric_scooter", "lon": -77.03184266666666, "bike_id": "4b35e7a28f205ea7c224fb77a13796af", "fusion_lat": 0.0, "name": "4b35e7a28f205ea7c224fb77a13796af", "is_reserved": 0, "rental_uris": {"android": "https://dc.lft.to/lastmile_qr_scan", "ios": "https://dc.lft.to/lastmile_qr_scan"}, "fusion_lon": 0.0}, {"lat": 38.91759166666667, "is_disabled": 0, "type": "electric_scooter", "lon": -77.03193566666667, "bike_id": "3cca5bea253259161b0f002476c186f0", "fusion_lat": 0.0, "name": "3cca5bea253259161b0f002476c186f0", "is_reserved": 0, "rental_uris": {"android": "https://dc.lft.to/lastmile_qr_scan", "ios": "https://dc.lft.to/lastmile_qr_scan"}, "fusion_lon": 0.0}, {"lat": 38.89752383333333, "is_disabled": 0, "type": "electric_scooter", "lon": -77.05496733333334, "bike_id": "8a1e13731d5767b4ef3f8b4567ba4c33", "fusion_lat": 0.0, "name": "8a1e13731d5767b4ef3f8b4567ba4c33", "is_reserved": 0, "rental_uris": {"android": "https://dc.lft.to/lastmile_qr_scan", "ios": "https://dc.lft.to/lastmile_qr_scan"}, "fusion_lon": 0.0}, {"lat": 38.915350333333336, "is_disabled": 0, "type": "electric_scooter", "lon": -77.03200933333333, "bike_id": "3e3fbdce20e2450e9f5fea981b57d8ac", "fusion_lat": 0.0, "name": "3e3fbdce20e2450e9f5fea981b57d8ac", "is_reserved": 0, "rental_uris": {"android": "https://dc.lft.to/lastmile_qr_scan", "ios": "https://dc.lft.to/lastmile_qr_scan"}, "fusion_lon": 0.0}, {"lat": 38.917081833333334, "is_disabled": 0, "type": "electric_scooter", "lon": -77.02414366666666, "bike_id": "a5d46a487deb8e0afbc2fa655eb56755", "fusion_lat": 0.0, "name": "a5d46a487deb8e0afbc2fa655eb56755", "is_reserved": 0, "rental_uris": {"android": "https://dc.lft.to/lastmile_qr_scan", "ios": "https://dc.lft.to/lastmile_qr_scan"}, "fusion_lon": 0.0}, {"lat": 38.84425433333333, "is_disabled": 0, "type": "electric_scooter", "lon": -76.99777133333333, "bike_id": "cdd7b61f5e70e7d006d7308f394e7229", "fusion_lat": 0.0, "name": "cdd7b61f5e70e7d006d7308f394e7229", "is_reserved": 0, "rental_uris": {"android": "https://dc.lft.to/lastmile_qr_scan", "ios": "https://dc.lft.to/lastmile_qr_scan"}, "fusion_lon": 0.0}, {"lat": 38.956124833333334, "is_disabled": 0, "type": "electric_scooter", "lon": -77.01018033333334, "bike_id": "c30526c7f55d729a3e917c7b366dea89", "fusion_lat": 0.0, "name": "c30526c7f55d729a3e917c7b366dea89", "is_reserved": 0, "rental_uris": {"android": "https://dc.lft.to/lastmile_qr_scan", "ios": "https://dc.lft.to/lastmile_qr_scan"}, "fusion_lon": 0.0}, {"lat": 38.917791666666666, "is_disabled": 0, "type": "electric_scooter", "lon": -77.03215683333333, "bike_id": "1a023dbeffb4ffd1c371080b707eab26", "fusion_lat": 0.0, "name": "1a023dbeffb4ffd1c371080b707eab26", "is_reserved": 0, "rental_uris": {"android": "https://dc.lft.to/lastmile_qr_scan", "ios": "https://dc.lft.to/lastmile_qr_scan"}, "fusion_lon": 0.0}, {"lat": 38.91103866666667, "is_disabled": 0, "type": "electric_scooter", "lon": -76.997073, "bike_id": "cdd423e4c76474eac2e50943aae8f771", "fusion_lat": 0.0, "name": "cdd423e4c76474eac2e50943aae8f771", "is_reserved": 0, "rental_uris": {"android": "https://dc.lft.to/lastmile_qr_scan", "ios": "https://dc.lft.to/lastmile_qr_scan"}, "fusion_lon": 0.0}, {"lat": 38.86620966666667, "is_disabled": 0, "type": "electric_scooter", "lon": -76.98637183333334, "bike_id": "6c1de92065615ecf6106af7029d67cb3", "fusion_lat": 0.0, "name": "6c1de92065615ecf6106af7029d67cb3", "is_reserved": 0, "rental_uris": {"android": "https://dc.lft.to/lastmile_qr_scan", "ios": "https://dc.lft.to/lastmile_qr_scan"}, "fusion_lon": 0.0}, {"lat": 38.940971, "is_disabled": 0, "type": "electric_scooter", "lon": -77.02106566666667, "bike_id": "ec1d60ac14a43e4f918808d3fb4ef3e7", "fusion_lat": 0.0, "name": "ec1d60ac14a43e4f918808d3fb4ef3e7", "is_reserved": 0, "rental_uris": {"android": "https://dc.lft.to/lastmile_qr_scan", "ios": "https://dc.lft.to/lastmile_qr_scan"}, "fusion_lon": 0.0}, {"lat": 38.90569466666667, "is_disabled": 0, "type": "electric_scooter", "lon": -77.019566, "bike_id": "895e4f073367ce4ce10ba6775b5617bc", "fusion_lat": 0.0, "name": "895e4f073367ce4ce10ba6775b5617bc", "is_reserved": 0, "rental_uris": {"android": "https://dc.lft.to/lastmile_qr_scan", "ios": "https://dc.lft.to/lastmile_qr_scan"}, "fusion_lon": 0.0}, {"lat": 38.908410333333336, "is_disabled": 0, "type": "electric_scooter", "lon": -77.03854216666667, "bike_id": "12f3634003ca6820447b18aadbb3f4fa", "fusion_lat": 0.0, "name": "12f3634003ca6820447b18aadbb3f4fa", "is_reserved": 0, "rental_uris": {"android": "https://dc.lft.to/lastmile_qr_scan", "ios": "https://dc.lft.to/lastmile_qr_scan"}, "fusion_lon": 0.0}, {"lat": 38.9439125, "is_disabled": 0, "type": "electric_scooter", "lon": -77.01979083333333, "bike_id": "3cd842cdd1fbd67d4187848816e15335", "fusion_lat": 0.0, "name": "3cd842cdd1fbd67d4187848816e15335", "is_reserved": 0, "rental_uris": {"android": "https://dc.lft.to/lastmile_qr_scan", "ios": "https://dc.lft.to/lastmile_qr_scan"}, "fusion_lon": 0.0}, {"lat": 38.944395666666665, "is_disabled": 0, "type": "electric_scooter", "lon": -77.01507033333333, "bike_id": "cdb0257049e746b215c2e1aba9193564", "fusion_lat": 0.0, "name": "cdb0257049e746b215c2e1aba9193564", "is_reserved": 0, "rental_uris": {"android": "https://dc.lft.to/lastmile_qr_scan", "ios": "https://dc.lft.to/lastmile_qr_scan"}, "fusion_lon": 0.0}, {"lat": 38.901888666666665, "is_disabled": 0, "type": "electric_scooter", "lon": -77.02685533333333, "bike_id": "af8775acb0b71cb9009808a4646a201b", "fusion_lat": 0.0, "name": "af8775acb0b71cb9009808a4646a201b", "is_reserved": 0, "rental_uris": {"android": "https://dc.lft.to/lastmile_qr_scan", "ios": "https://dc.lft.to/lastmile_qr_scan"}, "fusion_lon": 0.0}, {"lat": 38.855224, "is_disabled": 0, "type": "electric_bike", "lon": -77.1202565, "bike_id": "b82a8a34719bb67744b307b837b5a31f", "fusion_lat": 0.0, "name": "b82a8a34719bb67744b307b837b5a31f", "is_reserved": 0, "rental_uris": {"android": "https://dc.lft.to/lastmile_qr_scan", "ios": "https://dc.lft.to/lastmile_qr_scan"}, "fusion_lon": 0.0}, {"lat": 38.917120833333335, "is_disabled": 0, "type": "electric_scooter", "lon": -77.0415035, "bike_id": "e64f8c7efd6839692614d58b95821366", "fusion_lat": 0.0, "name": "e64f8c7efd6839692614d58b95821366", "is_reserved": 0, "rental_uris": {"android": "https://dc.lft.to/lastmile_qr_scan", "ios": "https://dc.lft.to/lastmile_qr_scan"}, "fusion_lon": 0.0}, {"lat": 38.9007305, "is_disabled": 0, "type": "electric_scooter", "lon": -77.00206466666667, "bike_id": "58c29b7c54354dd32c10191693e2f2b7", "fusion_lat": 0.0, "name": "58c29b7c54354dd32c10191693e2f2b7", "is_reserved": 0, "rental_uris": {"android": "https://dc.lft.to/lastmile_qr_scan", "ios": "https://dc.lft.to/lastmile_qr_scan"}, "fusion_lon": 0.0}, {"lat": 38.85187166666667, "is_disabled": 0, "type": "electric_bike", "lon": -76.961076, "bike_id": "7846c1960707b76e4980183f28ee8fa8", "fusion_lat": 0.0, "name": "7846c1960707b76e4980183f28ee8fa8", "is_reserved": 0, "rental_uris": {"android": "https://dc.lft.to/lastmile_qr_scan", "ios": "https://dc.lft.to/lastmile_qr_scan"}, "fusion_lon": 0.0}, {"lat": 38.922482, "is_disabled": 0, "type": "electric_scooter", "lon": -77.03387366666666, "bike_id": "e6a85bf07c79c008eaced999845c8d11", "fusion_lat": 0.0, "name": "e6a85bf07c79c008eaced999845c8d11", "is_reserved": 0, "rental_uris": {"android": "https://dc.lft.to/lastmile_qr_scan", "ios": "https://dc.lft.to/lastmile_qr_scan"}, "fusion_lon": 0.0}, {"lat": 38.92487066666666, "is_disabled": 0, "type": "electric_bike", "lon": -76.99031983333333, "bike_id": "b36886c7a17bc106fe816beceb5435fc", "fusion_lat": 0.0, "name": "b36886c7a17bc106fe816beceb5435fc", "is_reserved": 0, "rental_uris": {"android": "https://dc.lft.to/lastmile_qr_scan", "ios": "https://dc.lft.to/lastmile_qr_scan"}, "fusion_lon": 0.0}, {"lat": 39.088558166666665, "is_disabled": 0, "type": "electric_bike", "lon": -77.17836033333333, "bike_id": "e2d2cf4711a32317210e7ffe4f2c1c41", "fusion_lat": 0.0, "name": "e2d2cf4711a32317210e7ffe4f2c1c41", "is_reserved": 0, "rental_uris": {"android": "https://dc.lft.to/lastmile_qr_scan", "ios": "https://dc.lft.to/lastmile_qr_scan"}, "fusion_lon": 0.0}, {"lat": 38.90762433333333, "is_disabled": 0, "type": "electric_bike", "lon": -77.06996466666666, "bike_id": "1d7e7d507d78c25163e989ed933ec1aa", "fusion_lat": 0.0, "name": "1d7e7d507d78c25163e989ed933ec1aa", "is_reserved": 0, "rental_uris": {"android": "https://dc.lft.to/lastmile_qr_scan", "ios": "https://dc.lft.to/lastmile_qr_scan"}, "fusion_lon": 0.0}, {"lat": 38.92858433333333, "is_disabled": 0, "type": "electric_bike", "lon": -77.222115, "bike_id": "b89ba7894c0dad5cd9217bb0cee33042", "fusion_lat": 0.0, "name": "b89ba7894c0dad5cd9217bb0cee33042", "is_reserved": 0, "rental_uris": {"android": "https://dc.lft.to/lastmile_qr_scan", "ios": "https://dc.lft.to/lastmile_qr_scan"}, "fusion_lon": 0.0}, {"lat": 38.91760283333333, "is_disabled": 0, "type": "electric_scooter", "lon": -77.04765516666667, "bike_id": "c0351f5271b86d59476437e28bcb91d7", "fusion_lat": 0.0, "name": "c0351f5271b86d59476437e28bcb91d7", "is_reserved": 0, "rental_uris": {"android": "https://dc.lft.to/lastmile_qr_scan", "ios": "https://dc.lft.to/lastmile_qr_scan"}, "fusion_lon": 0.0}, {"lat": 38.903114, "is_disabled": 0, "type": "electric_scooter", "lon": -77.02887766666667, "bike_id": "fb404c1b498b17b6849d094494d6b3d0", "fusion_lat": 0.0, "name": "fb404c1b498b17b6849d094494d6b3d0", "is_reserved": 0, "rental_uris": {"android": "https://dc.lft.to/lastmile_qr_scan", "ios": "https://dc.lft.to/lastmile_qr_scan"}, "fusion_lon": 0.0}, {"lat": 38.90633783333333, "is_disabled": 0, "type": "electric_scooter", "lon": -77.03142183333334, "bike_id": "a85fa8ad4aee836368a0c1a8cda87687", "fusion_lat": 0.0, "name": "a85fa8ad4aee836368a0c1a8cda87687", "is_reserved": 0, "rental_uris": {"android": "https://dc.lft.to/lastmile_qr_scan", "ios": "https://dc.lft.to/lastmile_qr_scan"}, "fusion_lon": 0.0}, {"lat": 38.892796833333335, "is_disabled": 0, "type": "electric_scooter", "lon": -77.050352, "bike_id": "745f45a2db0119575abfd639d652d128", "fusion_lat": 0.0, "name": "745f45a2db0119575abfd639d652d128", "is_reserved": 0, "rental_uris": {"android": "https://dc.lft.to/lastmile_qr_scan", "ios": "https://dc.lft.to/lastmile_qr_scan"}, "fusion_lon": 0.0}, {"lat": 38.8934485, "is_disabled": 0, "type": "electric_scooter", "lon": -76.99155283333333, "bike_id": "75e3da27d7154f578384e048489a9913", "fusion_lat": 0.0, "name": "75e3da27d7154f578384e048489a9913", "is_reserved": 0, "rental_uris": {"android": "https://dc.lft.to/lastmile_qr_scan", "ios": "https://dc.lft.to/lastmile_qr_scan"}, "fusion_lon": 0.0}, {"lat": 38.899407, "is_disabled": 0, "type": "electric_scooter", "lon": -77.0035465, "bike_id": "742ab0efc0c10d3a1e91e7eff532a3d0", "fusion_lat": 0.0, "name": "742ab0efc0c10d3a1e91e7eff532a3d0", "is_reserved": 0, "rental_uris": {"android": "https://dc.lft.to/lastmile_qr_scan", "ios": "https://dc.lft.to/lastmile_qr_scan"}, "fusion_lon": 0.0}, {"lat": 38.92640216666667, "is_disabled": 0, "type": "electric_scooter", "lon": -77.02505216666667, "bike_id": "71f1bebe7f16fe01d6cb34dc64b0227b", "fusion_lat": 0.0, "name": "71f1bebe7f16fe01d6cb34dc64b0227b", "is_reserved": 0, "rental_uris": {"android": "https://dc.lft.to/lastmile_qr_scan", "ios": "https://dc.lft.to/lastmile_qr_scan"}, "fusion_lon": 0.0}, {"lat": 38.9238905, "is_disabled": 0, "type": "electric_scooter", "lon": -77.03205116666666, "bike_id": "c5d0f9a2fc2533e95b5d7f6cb1fdd0dd", "fusion_lat": 0.0, "name": "c5d0f9a2fc2533e95b5d7f6cb1fdd0dd", "is_reserved": 0, "rental_uris": {"android": "https://dc.lft.to/lastmile_qr_scan", "ios": "https://dc.lft.to/lastmile_qr_scan"}, "fusion_lon": 0.0}, {"lat": 38.9179555, "is_disabled": 0, "type": "electric_scooter", "lon": -77.03196583333333, "bike_id": "23d0ab7f3a07c6a70d3a34a14ba83546", "fusion_lat": 0.0, "name": "23d0ab7f3a07c6a70d3a34a14ba83546", "is_reserved": 0, "rental_uris": {"android": "https://dc.lft.to/lastmile_qr_scan", "ios": "https://dc.lft.to/lastmile_qr_scan"}, "fusion_lon": 0.0}, {"lat": 38.901257333333334, "is_disabled": 0, "type": "electric_scooter", "lon": -77.01156683333333, "bike_id": "b9a3b751c9b43bd275c277c799ada7a3", "fusion_lat": 0.0, "name": "b9a3b751c9b43bd275c277c799ada7a3", "is_reserved": 0, "rental_uris": {"android": "https://dc.lft.to/lastmile_qr_scan", "ios": "https://dc.lft.to/lastmile_qr_scan"}, "fusion_lon": 0.0}, {"lat": 38.91703916666667, "is_disabled": 0, "type": "electric_scooter", "lon": -77.03470966666667, "bike_id": "b684b28426438b1ab6fe29870f955f91", "fusion_lat": 0.0, "name": "b684b28426438b1ab6fe29870f955f91", "is_reserved": 0, "rental_uris": {"android": "https://dc.lft.to/lastmile_qr_scan", "ios": "https://dc.lft.to/lastmile_qr_scan"}, "fusion_lon": 0.0}, {"lat": 38.905992833333336, "is_disabled": 0, "type": "electric_scooter", "lon": -77.01618516666667, "bike_id": "593a98192b907d30343a7e1cc2a8f6ce", "fusion_lat": 0.0, "name": "593a98192b907d30343a7e1cc2a8f6ce", "is_reserved": 0, "rental_uris": {"android": "https://dc.lft.to/lastmile_qr_scan", "ios": "https://dc.lft.to/lastmile_qr_scan"}, "fusion_lon": 0.0}, {"lat": 38.921263833333335, "is_disabled": 0, "type": "electric_scooter", "lon": -77.03659283333333, "bike_id": "85c25878bb1dc30eaf21fce062476fe7", "fusion_lat": 0.0, "name": "85c25878bb1dc30eaf21fce062476fe7", "is_reserved": 0, "rental_uris": {"android": "https://dc.lft.to/lastmile_qr_scan", "ios": "https://dc.lft.to/lastmile_qr_scan"}, "fusion_lon": 0.0}, {"lat": 38.893642, "is_disabled": 0, "type": "electric_scooter", "lon": -77.02222, "bike_id": "060589fe4d9a405bcf54315b297ae482", "fusion_lat": 0.0, "name": "060589fe4d9a405bcf54315b297ae482", "is_reserved": 0, "rental_uris": {"android": "https://dc.lft.to/lastmile_qr_scan", "ios": "https://dc.lft.to/lastmile_qr_scan"}, "fusion_lon": 0.0}, {"lat": 38.903276166666664, "is_disabled": 0, "type": "electric_scooter", "lon": -76.97592683333333, "bike_id": "19663aab6736b65e7feb7f7cc4c9ca4f", "fusion_lat": 0.0, "name": "19663aab6736b65e7feb7f7cc4c9ca4f", "is_reserved": 0, "rental_uris": {"android": "https://dc.lft.to/lastmile_qr_scan", "ios": "https://dc.lft.to/lastmile_qr_scan"}, "fusion_lon": 0.0}, {"lat": 38.94947233333333, "is_disabled": 0, "type": "electric_scooter", "lon": -77.0157965, "bike_id": "158e24cdefee8f569e0af38b257b91af", "fusion_lat": 0.0, "name": "158e24cdefee8f569e0af38b257b91af", "is_reserved": 0, "rental_uris": {"android": "https://dc.lft.to/lastmile_qr_scan", "ios": "https://dc.lft.to/lastmile_qr_scan"}, "fusion_lon": 0.0}, {"lat": 38.909429333333335, "is_disabled": 0, "type": "electric_scooter", "lon": -77.04665666666666, "bike_id": "5f8579b68951fd66460776f316fb1b62", "fusion_lat": 0.0, "name": "5f8579b68951fd66460776f316fb1b62", "is_reserved": 0, "rental_uris": {"android": "https://dc.lft.to/lastmile_qr_scan", "ios": "https://dc.lft.to/lastmile_qr_scan"}, "fusion_lon": 0.0}, {"lat": 38.85863633333334, "is_disabled": 0, "type": "electric_bike", "lon": -77.06065916666667, "bike_id": "ef3912d24577f5077b83530f0fb35130", "fusion_lat": 0.0, "name": "ef3912d24577f5077b83530f0fb35130", "is_reserved": 0, "rental_uris": {"android": "https://dc.lft.to/lastmile_qr_scan", "ios": "https://dc.lft.to/lastmile_qr_scan"}, "fusion_lon": 0.0}, {"lat": 38.9357835, "is_disabled": 0, "type": "electric_bike", "lon": -77.106822, "bike_id": "63999eb2de48479bb493581e6242bcd7", "fusion_lat": 0.0, "name": "63999eb2de48479bb493581e6242bcd7", "is_reserved": 0, "rental_uris": {"android": "https://dc.lft.to/lastmile_qr_scan", "ios": "https://dc.lft.to/lastmile_qr_scan"}, "fusion_lon": 0.0}, {"lat": 38.912654833333335, "is_disabled": 0, "type": "electric_scooter", "lon": -77.02251283333334, "bike_id": "5b42e46cfe367260eb6fde75ba0966d8", "fusion_lat": 0.0, "name": "5b42e46cfe367260eb6fde75ba0966d8", "is_reserved": 0, "rental_uris": {"android": "https://dc.lft.to/lastmile_qr_scan", "ios": "https://dc.lft.to/lastmile_qr_scan"}, "fusion_lon": 0.0}, {"lat": 38.90877283333333, "is_disabled": 0, "type": "electric_scooter", "lon": -76.985223, "bike_id": "7396d182e45b310a334e8195dde12a47", "fusion_lat": 0.0, "name": "7396d182e45b310a334e8195dde12a47", "is_reserved": 0, "rental_uris": {"android": "https://dc.lft.to/lastmile_qr_scan", "ios": "https://dc.lft.to/lastmile_qr_scan"}, "fusion_lon": 0.0}, {"lat": 38.9500075, "is_disabled": 0, "type": "electric_scooter", "lon": -77.081949, "bike_id": "80034b8784e62c3fbe25fb28bbe7ce39", "fusion_lat": 0.0, "name": "80034b8784e62c3fbe25fb28bbe7ce39", "is_reserved": 0, "rental_uris": {"android": "https://dc.lft.to/lastmile_qr_scan", "ios": "https://dc.lft.to/lastmile_qr_scan"}, "fusion_lon": 0.0}, {"lat": 38.90596883333333, "is_disabled": 0, "type": "electric_scooter", "lon": -77.00600966666667, "bike_id": "ce210ff591f812b50454ad822848db32", "fusion_lat": 0.0, "name": "ce210ff591f812b50454ad822848db32", "is_reserved": 0, "rental_uris": {"android": "https://dc.lft.to/lastmile_qr_scan", "ios": "https://dc.lft.to/lastmile_qr_scan"}, "fusion_lon": 0.0}, {"lat": 38.92087683333333, "is_disabled": 0, "type": "electric_scooter", "lon": -77.02526433333334, "bike_id": "6d9f0c296f3eb9cd37d2392da711793d", "fusion_lat": 0.0, "name": "6d9f0c296f3eb9cd37d2392da711793d", "is_reserved": 0, "rental_uris": {"android": "https://dc.lft.to/lastmile_qr_scan", "ios": "https://dc.lft.to/lastmile_qr_scan"}, "fusion_lon": 0.0}, {"lat": 38.9051565, "is_disabled": 0, "type": "electric_scooter", "lon": -77.0296185, "bike_id": "72b093c6c26f78d8c61d185cc1460fb1", "fusion_lat": 0.0, "name": "72b093c6c26f78d8c61d185cc1460fb1", "is_reserved": 0, "rental_uris": {"android": "https://dc.lft.to/lastmile_qr_scan", "ios": "https://dc.lft.to/lastmile_qr_scan"}, "fusion_lon": 0.0}, {"lat": 38.922467166666664, "is_disabled": 0, "type": "electric_scooter", "lon": -77.0308295, "bike_id": "f950c6809edeca56feb55a0f4c249bc8", "fusion_lat": 0.0, "name": "f950c6809edeca56feb55a0f4c249bc8", "is_reserved": 0, "rental_uris": {"android": "https://dc.lft.to/lastmile_qr_scan", "ios": "https://dc.lft.to/lastmile_qr_scan"}, "fusion_lon": 0.0}, {"lat": 38.87149316666667, "is_disabled": 0, "type": "electric_bike", "lon": -76.936694, "bike_id": "661a289ffc684dce0b30c410084725bd", "fusion_lat": 0.0, "name": "661a289ffc684dce0b30c410084725bd", "is_reserved": 0, "rental_uris": {"android": "https://dc.lft.to/lastmile_qr_scan", "ios": "https://dc.lft.to/lastmile_qr_scan"}, "fusion_lon": 0.0}, {"lat": 38.93093783333333, "is_disabled": 0, "type": "electric_scooter", "lon": -77.02356966666666, "bike_id": "16f7e9f9d8c4a226f7dc2abd4db92b17", "fusion_lat": 0.0, "name": "16f7e9f9d8c4a226f7dc2abd4db92b17", "is_reserved": 0, "rental_uris": {"android": "https://dc.lft.to/lastmile_qr_scan", "ios": "https://dc.lft.to/lastmile_qr_scan"}, "fusion_lon": 0.0}, {"lat": 38.86359483333333, "is_disabled": 0, "type": "electric_scooter", "lon": -76.990333, "bike_id": "9215f6dcde3d4339cd7a0a1c4a02d138", "fusion_lat": 0.0, "name": "9215f6dcde3d4339cd7a0a1c4a02d138", "is_reserved": 0, "rental_uris": {"android": "https://dc.lft.to/lastmile_qr_scan", "ios": "https://dc.lft.to/lastmile_qr_scan"}, "fusion_lon": 0.0}, {"lat": 38.915741, "is_disabled": 0, "type": "electric_scooter", "lon": -77.02042466666667, "bike_id": "15961ad3b1e83d98b7f988043893cc20", "fusion_lat": 0.0, "name": "15961ad3b1e83d98b7f988043893cc20", "is_reserved": 0, "rental_uris": {"android": "https://dc.lft.to/lastmile_qr_scan", "ios": "https://dc.lft.to/lastmile_qr_scan"}, "fusion_lon": 0.0}, {"lat": 38.92311816666667, "is_disabled": 0, "type": "electric_scooter", "lon": -77.04219616666667, "bike_id": "bba1ebc69d07810d60284bf18fa39a33", "fusion_lat": 0.0, "name": "bba1ebc69d07810d60284bf18fa39a33", "is_reserved": 0, "rental_uris": {"android": "https://dc.lft.to/lastmile_qr_scan", "ios": "https://dc.lft.to/lastmile_qr_scan"}, "fusion_lon": 0.0}, {"lat": 38.89966733333333, "is_disabled": 0, "type": "electric_scooter", "lon": -77.0211815, "bike_id": "5f96f804e19ea6e00bc59b488a0e5cc9", "fusion_lat": 0.0, "name": "5f96f804e19ea6e00bc59b488a0e5cc9", "is_reserved": 0, "rental_uris": {"android": "https://dc.lft.to/lastmile_qr_scan", "ios": "https://dc.lft.to/lastmile_qr_scan"}, "fusion_lon": 0.0}, {"lat": 38.90067633333334, "is_disabled": 0, "type": "electric_scooter", "lon": -77.00200666666667, "bike_id": "37756454920b39156e8eb9d798f4326f", "fusion_lat": 0.0, "name": "37756454920b39156e8eb9d798f4326f", "is_reserved": 0, "rental_uris": {"android": "https://dc.lft.to/lastmile_qr_scan", "ios": "https://dc.lft.to/lastmile_qr_scan"}, "fusion_lon": 0.0}, {"lat": 38.99479266666667, "is_disabled": 0, "type": "electric_bike", "lon": -77.02900816666667, "bike_id": "0a5c516dc1eb19035bbb41524b5a95be", "fusion_lat": 0.0, "name": "0a5c516dc1eb19035bbb41524b5a95be", "is_reserved": 0, "rental_uris": {"android": "https://dc.lft.to/lastmile_qr_scan", "ios": "https://dc.lft.to/lastmile_qr_scan"}, "fusion_lon": 0.0}, {"lat": 38.899747, "is_disabled": 0, "type": "electric_scooter", "lon": -77.0266895, "bike_id": "a51de086b74b7824d24f28339fa5e3fb", "fusion_lat": 0.0, "name": "a51de086b74b7824d24f28339fa5e3fb", "is_reserved": 0, "rental_uris": {"android": "https://dc.lft.to/lastmile_qr_scan", "ios": "https://dc.lft.to/lastmile_qr_scan"}, "fusion_lon": 0.0}, {"lat": 38.89984416666667, "is_disabled": 0, "type": "electric_scooter", "lon": -77.05258666666667, "bike_id": "05b08744c3ba6c88abe2da4bb070b8ff", "fusion_lat": 0.0, "name": "05b08744c3ba6c88abe2da4bb070b8ff", "is_reserved": 0, "rental_uris": {"android": "https://dc.lft.to/lastmile_qr_scan", "ios": "https://dc.lft.to/lastmile_qr_scan"}, "fusion_lon": 0.0}, {"lat": 38.89520616666667, "is_disabled": 0, "type": "electric_scooter", "lon": -76.97736, "bike_id": "73337f18d9b5602d6e2c4da5b3bfb6ad", "fusion_lat": 0.0, "name": "73337f18d9b5602d6e2c4da5b3bfb6ad", "is_reserved": 0, "rental_uris": {"android": "https://dc.lft.to/lastmile_qr_scan", "ios": "https://dc.lft.to/lastmile_qr_scan"}, "fusion_lon": 0.0}, {"lat": 38.85381366666667, "is_disabled": 0, "type": "electric_bike", "lon": -77.12428633333333, "bike_id": "0b476c21b48d0b5b4de6204d24cefbe0", "fusion_lat": 0.0, "name": "0b476c21b48d0b5b4de6204d24cefbe0", "is_reserved": 0, "rental_uris": {"android": "https://dc.lft.to/lastmile_qr_scan", "ios": "https://dc.lft.to/lastmile_qr_scan"}, "fusion_lon": 0.0}, {"lat": 38.91177116666667, "is_disabled": 0, "type": "electric_scooter", "lon": -77.03204266666667, "bike_id": "8aa822225e778d6ab2c5d50a8d2c3cb2", "fusion_lat": 0.0, "name": "8aa822225e778d6ab2c5d50a8d2c3cb2", "is_reserved": 0, "rental_uris": {"android": "https://dc.lft.to/lastmile_qr_scan", "ios": "https://dc.lft.to/lastmile_qr_scan"}, "fusion_lon": 0.0}, {"lat": 38.906359, "is_disabled": 0, "type": "electric_scooter", "lon": -76.98569883333333, "bike_id": "411b9948fb888112a1d5c88e18fa806b", "fusion_lat": 0.0, "name": "411b9948fb888112a1d5c88e18fa806b", "is_reserved": 0, "rental_uris": {"android": "https://dc.lft.to/lastmile_qr_scan", "ios": "https://dc.lft.to/lastmile_qr_scan"}, "fusion_lon": 0.0}, {"lat": 38.83213466666667, "is_disabled": 0, "type": "electric_bike", "lon": -76.946238, "bike_id": "b26f6d7c5907dc754cfd9256b24e3e25", "fusion_lat": 0.0, "name": "b26f6d7c5907dc754cfd9256b24e3e25", "is_reserved": 0, "rental_uris": {"android": "https://dc.lft.to/lastmile_qr_scan", "ios": "https://dc.lft.to/lastmile_qr_scan"}, "fusion_lon": 0.0}, {"lat": 38.91760883333333, "is_disabled": 0, "type": "electric_scooter", "lon": -77.03197183333333, "bike_id": "3748628d1ea1b01ae5ba856ca98835aa", "fusion_lat": 0.0, "name": "3748628d1ea1b01ae5ba856ca98835aa", "is_reserved": 0, "rental_uris": {"android": "https://dc.lft.to/lastmile_qr_scan", "ios": "https://dc.lft.to/lastmile_qr_scan"}, "fusion_lon": 0.0}, {"lat": 38.920859166666666, "is_disabled": 0, "type": "electric_scooter", "lon": -77.02540483333334, "bike_id": "fb5ceedaacea2157a87f0a1143677fba", "fusion_lat": 0.0, "name": "fb5ceedaacea2157a87f0a1143677fba", "is_reserved": 0, "rental_uris": {"android": "https://dc.lft.to/lastmile_qr_scan", "ios": "https://dc.lft.to/lastmile_qr_scan"}, "fusion_lon": 0.0}, {"lat": 38.94815916666667, "is_disabled": 0, "type": "electric_scooter", "lon": -76.99904783333334, "bike_id": "87887eb4ae0a0a84794b5ddc847224ff", "fusion_lat": 0.0, "name": "87887eb4ae0a0a84794b5ddc847224ff", "is_reserved": 0, "rental_uris": {"android": "https://dc.lft.to/lastmile_qr_scan", "ios": "https://dc.lft.to/lastmile_qr_scan"}, "fusion_lon": 0.0}, {"lat": 38.9137455, "is_disabled": 0, "type": "electric_scooter", "lon": -77.02001566666667, "bike_id": "3a28723e0c7f8df93fa2eb8e5d53199d", "fusion_lat": 0.0, "name": "3a28723e0c7f8df93fa2eb8e5d53199d", "is_reserved": 0, "rental_uris": {"android": "https://dc.lft.to/lastmile_qr_scan", "ios": "https://dc.lft.to/lastmile_qr_scan"}, "fusion_lon": 0.0}, {"lat": 38.901973166666664, "is_disabled": 0, "type": "electric_scooter", "lon": -76.9994355, "bike_id": "d5cdef7a96985b7ec5dc4b0093687dca", "fusion_lat": 0.0, "name": "d5cdef7a96985b7ec5dc4b0093687dca", "is_reserved": 0, "rental_uris": {"android": "https://dc.lft.to/lastmile_qr_scan", "ios": "https://dc.lft.to/lastmile_qr_scan"}, "fusion_lon": 0.0}, {"lat": 38.880451, "is_disabled": 0, "type": "electric_scooter", "lon": -76.98626533333334, "bike_id": "52adc585b270967fdda072337a36361b", "fusion_lat": 0.0, "name": "52adc585b270967fdda072337a36361b", "is_reserved": 0, "rental_uris": {"android": "https://dc.lft.to/lastmile_qr_scan", "ios": "https://dc.lft.to/lastmile_qr_scan"}, "fusion_lon": 0.0}, {"lat": 38.905013833333335, "is_disabled": 0, "type": "electric_scooter", "lon": -77.02588583333333, "bike_id": "467ca9feb7d4390bb6c8d5fa3ac0399e", "fusion_lat": 0.0, "name": "467ca9feb7d4390bb6c8d5fa3ac0399e", "is_reserved": 0, "rental_uris": {"android": "https://dc.lft.to/lastmile_qr_scan", "ios": "https://dc.lft.to/lastmile_qr_scan"}, "fusion_lon": 0.0}, {"lat": 38.9168045, "is_disabled": 0, "type": "electric_scooter", "lon": -77.032002, "bike_id": "bed926665805891ae8915c4680fe374e", "fusion_lat": 0.0, "name": "bed926665805891ae8915c4680fe374e", "is_reserved": 0, "rental_uris": {"android": "https://dc.lft.to/lastmile_qr_scan", "ios": "https://dc.lft.to/lastmile_qr_scan"}, "fusion_lon": 0.0}, {"lat": 38.91411033333333, "is_disabled": 0, "type": "electric_scooter", "lon": -77.02221633333333, "bike_id": "a135e0150df9acc6431014f9a24d537f", "fusion_lat": 0.0, "name": "a135e0150df9acc6431014f9a24d537f", "is_reserved": 0, "rental_uris": {"android": "https://dc.lft.to/lastmile_qr_scan", "ios": "https://dc.lft.to/lastmile_qr_scan"}, "fusion_lon": 0.0}, {"lat": 38.92357166666667, "is_disabled": 0, "type": "electric_bike", "lon": -76.971377, "bike_id": "86f871d6b3735aa290e4ebba3f14a4cc", "fusion_lat": 0.0, "name": "86f871d6b3735aa290e4ebba3f14a4cc", "is_reserved": 0, "rental_uris": {"android": "https://dc.lft.to/lastmile_qr_scan", "ios": "https://dc.lft.to/lastmile_qr_scan"}, "fusion_lon": 0.0}, {"lat": 38.96219033333333, "is_disabled": 0, "type": "electric_bike", "lon": -77.02624566666667, "bike_id": "e1ee1a1e32a7f026abe54fe887244860", "fusion_lat": 0.0, "name": "e1ee1a1e32a7f026abe54fe887244860", "is_reserved": 0, "rental_uris": {"android": "https://dc.lft.to/lastmile_qr_scan", "ios": "https://dc.lft.to/lastmile_qr_scan"}, "fusion_lon": 0.0}, {"lat": 38.916355833333334, "is_disabled": 0, "type": "electric_scooter", "lon": -77.0255095, "bike_id": "826b94ece9d42d56cbf3d31c516f4d2d", "fusion_lat": 0.0, "name": "826b94ece9d42d56cbf3d31c516f4d2d", "is_reserved": 0, "rental_uris": {"android": "https://dc.lft.to/lastmile_qr_scan", "ios": "https://dc.lft.to/lastmile_qr_scan"}, "fusion_lon": 0.0}, {"lat": 38.934946833333335, "is_disabled": 0, "type": "electric_scooter", "lon": -77.0272965, "bike_id": "9bf2ce9488c75810e4927c09a15e9a3d", "fusion_lat": 0.0, "name": "9bf2ce9488c75810e4927c09a15e9a3d", "is_reserved": 0, "rental_uris": {"android": "https://dc.lft.to/lastmile_qr_scan", "ios": "https://dc.lft.to/lastmile_qr_scan"}, "fusion_lon": 0.0}, {"lat": 38.9048495, "is_disabled": 0, "type": "electric_scooter", "lon": -77.04815033333334, "bike_id": "2940530f808f71a90bcd90dae5023355", "fusion_lat": 0.0, "name": "2940530f808f71a90bcd90dae5023355", "is_reserved": 0, "rental_uris": {"android": "https://dc.lft.to/lastmile_qr_scan", "ios": "https://dc.lft.to/lastmile_qr_scan"}, "fusion_lon": 0.0}, {"lat": 38.911958, "is_disabled": 0, "type": "electric_scooter", "lon": -77.0385795, "bike_id": "233de98992740ebb3cf304f36e7cc44c", "fusion_lat": 0.0, "name": "233de98992740ebb3cf304f36e7cc44c", "is_reserved": 0, "rental_uris": {"android": "https://dc.lft.to/lastmile_qr_scan", "ios": "https://dc.lft.to/lastmile_qr_scan"}, "fusion_lon": 0.0}, {"lat": 38.954867166666666, "is_disabled": 0, "type": "electric_scooter", "lon": -77.06554633333333, "bike_id": "62274aa30de0ce5296dcc83d080c5d40", "fusion_lat": 0.0, "name": "62274aa30de0ce5296dcc83d080c5d40", "is_reserved": 0, "rental_uris": {"android": "https://dc.lft.to/lastmile_qr_scan", "ios": "https://dc.lft.to/lastmile_qr_scan"}, "fusion_lon": 0.0}, {"lat": 38.9228835, "is_disabled": 0, "type": "electric_scooter", "lon": -77.02969666666667, "bike_id": "f248cf2324c165e87efeb2c4dee4d7d8", "fusion_lat": 0.0, "name": "f248cf2324c165e87efeb2c4dee4d7d8", "is_reserved": 0, "rental_uris": {"android": "https://dc.lft.to/lastmile_qr_scan", "ios": "https://dc.lft.to/lastmile_qr_scan"}, "fusion_lon": 0.0}, {"lat": 38.91863333333333, "is_disabled": 0, "type": "electric_scooter", "lon": -77.03174916666667, "bike_id": "2da52180a4a9d10b5cbbe81b9cf848d6", "fusion_lat": 0.0, "name": "2da52180a4a9d10b5cbbe81b9cf848d6", "is_reserved": 0, "rental_uris": {"android": "https://dc.lft.to/lastmile_qr_scan", "ios": "https://dc.lft.to/lastmile_qr_scan"}, "fusion_lon": 0.0}, {"lat": 38.9119895, "is_disabled": 0, "type": "electric_scooter", "lon": -77.01462666666667, "bike_id": "44ef0e3a8af8e324fc2c1fa7c74bcd73", "fusion_lat": 0.0, "name": "44ef0e3a8af8e324fc2c1fa7c74bcd73", "is_reserved": 0, "rental_uris": {"android": "https://dc.lft.to/lastmile_qr_scan", "ios": "https://dc.lft.to/lastmile_qr_scan"}, "fusion_lon": 0.0}, {"lat": 38.89343566666667, "is_disabled": 0, "type": "electric_scooter", "lon": -77.0415225, "bike_id": "4b30092e43f1206f3047a8f0aa6427e8", "fusion_lat": 0.0, "name": "4b30092e43f1206f3047a8f0aa6427e8", "is_reserved": 0, "rental_uris": {"android": "https://dc.lft.to/lastmile_qr_scan", "ios": "https://dc.lft.to/lastmile_qr_scan"}, "fusion_lon": 0.0}, {"lat": 38.902866, "is_disabled": 0, "type": "electric_scooter", "lon": -77.03642133333334, "bike_id": "f626fafcdae489a50cadfda57f72672a", "fusion_lat": 0.0, "name": "f626fafcdae489a50cadfda57f72672a", "is_reserved": 0, "rental_uris": {"android": "https://dc.lft.to/lastmile_qr_scan", "ios": "https://dc.lft.to/lastmile_qr_scan"}, "fusion_lon": 0.0}, {"lat": 38.91199833333334, "is_disabled": 0, "type": "electric_scooter", "lon": -77.03428316666667, "bike_id": "1464174e37bfe12e1177dc14157ddf24", "fusion_lat": 0.0, "name": "1464174e37bfe12e1177dc14157ddf24", "is_reserved": 0, "rental_uris": {"android": "https://dc.lft.to/lastmile_qr_scan", "ios": "https://dc.lft.to/lastmile_qr_scan"}, "fusion_lon": 0.0}, {"lat": 38.900814, "is_disabled": 0, "type": "electric_scooter", "lon": -77.05028716666666, "bike_id": "b426aa0427c5a389670ed8b6650b0ffb", "fusion_lat": 0.0, "name": "b426aa0427c5a389670ed8b6650b0ffb", "is_reserved": 0, "rental_uris": {"android": "https://dc.lft.to/lastmile_qr_scan", "ios": "https://dc.lft.to/lastmile_qr_scan"}, "fusion_lon": 0.0}, {"lat": 38.91121783333333, "is_disabled": 0, "type": "electric_scooter", "lon": -77.04360683333333, "bike_id": "4d6d52db18f0701991b7599cfec9fbd1", "fusion_lat": 0.0, "name": "4d6d52db18f0701991b7599cfec9fbd1", "is_reserved": 0, "rental_uris": {"android": "https://dc.lft.to/lastmile_qr_scan", "ios": "https://dc.lft.to/lastmile_qr_scan"}, "fusion_lon": 0.0}, {"lat": 38.8907165, "is_disabled": 0, "type": "electric_scooter", "lon": -76.9883615, "bike_id": "c53c45569c289b3e0eb33c978073987c", "fusion_lat": 0.0, "name": "c53c45569c289b3e0eb33c978073987c", "is_reserved": 0, "rental_uris": {"android": "https://dc.lft.to/lastmile_qr_scan", "ios": "https://dc.lft.to/lastmile_qr_scan"}, "fusion_lon": 0.0}, {"lat": 38.851845, "is_disabled": 0, "type": "electric_scooter", "lon": -76.97622433333333, "bike_id": "8d942798bed45f2201dba88318cb5d74", "fusion_lat": 0.0, "name": "8d942798bed45f2201dba88318cb5d74", "is_reserved": 0, "rental_uris": {"android": "https://dc.lft.to/lastmile_qr_scan", "ios": "https://dc.lft.to/lastmile_qr_scan"}, "fusion_lon": 0.0}, {"lat": 38.84431166666667, "is_disabled": 0, "type": "electric_scooter", "lon": -76.996547, "bike_id": "b9695c332b089c582f943711cbaf0204", "fusion_lat": 0.0, "name": "b9695c332b089c582f943711cbaf0204", "is_reserved": 0, "rental_uris": {"android": "https://dc.lft.to/lastmile_qr_scan", "ios": "https://dc.lft.to/lastmile_qr_scan"}, "fusion_lon": 0.0}, {"lat": 38.9053475, "is_disabled": 0, "type": "electric_scooter", "lon": -77.0571725, "bike_id": "92dbe9ccb12242e7699170778edb839a", "fusion_lat": 0.0, "name": "92dbe9ccb12242e7699170778edb839a", "is_reserved": 0, "rental_uris": {"android": "https://dc.lft.to/lastmile_qr_scan", "ios": "https://dc.lft.to/lastmile_qr_scan"}, "fusion_lon": 0.0}, {"lat": 38.94551466666667, "is_disabled": 0, "type": "electric_bike", "lon": -76.8953655, "bike_id": "8727534b0515da2b0843ea9b9388b836", "fusion_lat": 0.0, "name": "8727534b0515da2b0843ea9b9388b836", "is_reserved": 0, "rental_uris": {"android": "https://dc.lft.to/lastmile_qr_scan", "ios": "https://dc.lft.to/lastmile_qr_scan"}, "fusion_lon": 0.0}, {"lat": 38.90123166666667, "is_disabled": 0, "type": "electric_scooter", "lon": -77.0434445, "bike_id": "d3efaf9025a91bfeda607d03b0ade052", "fusion_lat": 0.0, "name": "d3efaf9025a91bfeda607d03b0ade052", "is_reserved": 0, "rental_uris": {"android": "https://dc.lft.to/lastmile_qr_scan", "ios": "https://dc.lft.to/lastmile_qr_scan"}, "fusion_lon": 0.0}, {"lat": 38.9365595, "is_disabled": 0, "type": "electric_bike", "lon": -76.95218533333333, "bike_id": "7a2fcaa67064d26aa07b93a0ce2acdef", "fusion_lat": 0.0, "name": "7a2fcaa67064d26aa07b93a0ce2acdef", "is_reserved": 0, "rental_uris": {"android": "https://dc.lft.to/lastmile_qr_scan", "ios": "https://dc.lft.to/lastmile_qr_scan"}, "fusion_lon": 0.0}, {"lat": 39.034282166666664, "is_disabled": 0, "type": "electric_bike", "lon": -77.0430005, "bike_id": "4ce9056873c72b98ec951d0de42acbe7", "fusion_lat": 0.0, "name": "4ce9056873c72b98ec951d0de42acbe7", "is_reserved": 0, "rental_uris": {"android": "https://dc.lft.to/lastmile_qr_scan", "ios": "https://dc.lft.to/lastmile_qr_scan"}, "fusion_lon": 0.0}, {"lat": 38.90046183333333, "is_disabled": 0, "type": "electric_scooter", "lon": -77.04896366666667, "bike_id": "dd462c76c727316e486b0e7bc77d4d7c", "fusion_lat": 0.0, "name": "dd462c76c727316e486b0e7bc77d4d7c", "is_reserved": 0, "rental_uris": {"android": "https://dc.lft.to/lastmile_qr_scan", "ios": "https://dc.lft.to/lastmile_qr_scan"}, "fusion_lon": 0.0}, {"lat": 38.992549833333335, "is_disabled": 0, "type": "electric_scooter", "lon": -77.03657033333333, "bike_id": "3004b53462640d5b277da2fc7c391008", "fusion_lat": 0.0, "name": "3004b53462640d5b277da2fc7c391008", "is_reserved": 0, "rental_uris": {"android": "https://dc.lft.to/lastmile_qr_scan", "ios": "https://dc.lft.to/lastmile_qr_scan"}, "fusion_lon": 0.0}, {"lat": 38.857138, "is_disabled": 0, "type": "electric_scooter", "lon": -76.98672916666666, "bike_id": "4438e38f46d0696f64f6447819854222", "fusion_lat": 0.0, "name": "4438e38f46d0696f64f6447819854222", "is_reserved": 0, "rental_uris": {"android": "https://dc.lft.to/lastmile_qr_scan", "ios": "https://dc.lft.to/lastmile_qr_scan"}, "fusion_lon": 0.0}, {"lat": 38.92586516666667, "is_disabled": 0, "type": "electric_scooter", "lon": -77.04415983333334, "bike_id": "30d89ad12b40da3bbe3ee9f071fc13e9", "fusion_lat": 0.0, "name": "30d89ad12b40da3bbe3ee9f071fc13e9", "is_reserved": 0, "rental_uris": {"android": "https://dc.lft.to/lastmile_qr_scan", "ios": "https://dc.lft.to/lastmile_qr_scan"}, "fusion_lon": 0.0}, {"lat": 38.91718516666667, "is_disabled": 0, "type": "electric_scooter", "lon": -77.02291283333334, "bike_id": "29949dc8262cac79be1d0e46684f1b18", "fusion_lat": 0.0, "name": "29949dc8262cac79be1d0e46684f1b18", "is_reserved": 0, "rental_uris": {"android": "https://dc.lft.to/lastmile_qr_scan", "ios": "https://dc.lft.to/lastmile_qr_scan"}, "fusion_lon": 0.0}, {"lat": 38.905222333333334, "is_disabled": 0, "type": "electric_scooter", "lon": -77.061846, "bike_id": "65d080488cd0803609fef2d7357e9a2f", "fusion_lat": 0.0, "name": "65d080488cd0803609fef2d7357e9a2f", "is_reserved": 0, "rental_uris": {"android": "https://dc.lft.to/lastmile_qr_scan", "ios": "https://dc.lft.to/lastmile_qr_scan"}, "fusion_lon": 0.0}, {"lat": 38.89349766666667, "is_disabled": 0, "type": "electric_scooter", "lon": -77.04140166666667, "bike_id": "9c4f21f5ebcbef240c91cc87b39b46fd", "fusion_lat": 0.0, "name": "9c4f21f5ebcbef240c91cc87b39b46fd", "is_reserved": 0, "rental_uris": {"android": "https://dc.lft.to/lastmile_qr_scan", "ios": "https://dc.lft.to/lastmile_qr_scan"}, "fusion_lon": 0.0}, {"lat": 38.93734666666667, "is_disabled": 0, "type": "electric_scooter", "lon": -77.0361625, "bike_id": "11b005d15f81dcf96097453d2fcec62f", "fusion_lat": 0.0, "name": "11b005d15f81dcf96097453d2fcec62f", "is_reserved": 0, "rental_uris": {"android": "https://dc.lft.to/lastmile_qr_scan", "ios": "https://dc.lft.to/lastmile_qr_scan"}, "fusion_lon": 0.0}, {"lat": 38.91423266666666, "is_disabled": 0, "type": "electric_scooter", "lon": -77.0161405, "bike_id": "d055e424a6be3b196390bdebb76e6313", "fusion_lat": 0.0, "name": "d055e424a6be3b196390bdebb76e6313", "is_reserved": 0, "rental_uris": {"android": "https://dc.lft.to/lastmile_qr_scan", "ios": "https://dc.lft.to/lastmile_qr_scan"}, "fusion_lon": 0.0}, {"lat": 38.925746, "is_disabled": 0, "type": "electric_scooter", "lon": -77.05762633333333, "bike_id": "52d6e39d4eec80b368551ab039cb36c3", "fusion_lat": 0.0, "name": "52d6e39d4eec80b368551ab039cb36c3", "is_reserved": 0, "rental_uris": {"android": "https://dc.lft.to/lastmile_qr_scan", "ios": "https://dc.lft.to/lastmile_qr_scan"}, "fusion_lon": 0.0}, {"lat": 38.886372333333334, "is_disabled": 0, "type": "electric_scooter", "lon": -77.02155483333334, "bike_id": "fd904e4f1742818dc7ed55cfebeef6dd", "fusion_lat": 0.0, "name": "fd904e4f1742818dc7ed55cfebeef6dd", "is_reserved": 0, "rental_uris": {"android": "https://dc.lft.to/lastmile_qr_scan", "ios": "https://dc.lft.to/lastmile_qr_scan"}, "fusion_lon": 0.0}, {"lat": 38.85505283333333, "is_disabled": 0, "type": "electric_bike", "lon": -77.12055483333333, "bike_id": "62e8245401ebbb597f0b2435f6536be1", "fusion_lat": 0.0, "name": "62e8245401ebbb597f0b2435f6536be1", "is_reserved": 0, "rental_uris": {"android": "https://dc.lft.to/lastmile_qr_scan", "ios": "https://dc.lft.to/lastmile_qr_scan"}, "fusion_lon": 0.0}, {"lat": 38.895154833333336, "is_disabled": 0, "type": "electric_scooter", "lon": -77.00735666666667, "bike_id": "a12a5a5915620cf0c0df82bc3f0d81e1", "fusion_lat": 0.0, "name": "a12a5a5915620cf0c0df82bc3f0d81e1", "is_reserved": 0, "rental_uris": {"android": "https://dc.lft.to/lastmile_qr_scan", "ios": "https://dc.lft.to/lastmile_qr_scan"}, "fusion_lon": 0.0}, {"lat": 38.9215945, "is_disabled": 0, "type": "electric_scooter", "lon": -77.03519883333334, "bike_id": "d2e4518bf3273606628c968c66ca1aa1", "fusion_lat": 0.0, "name": "d2e4518bf3273606628c968c66ca1aa1", "is_reserved": 0, "rental_uris": {"android": "https://dc.lft.to/lastmile_qr_scan", "ios": "https://dc.lft.to/lastmile_qr_scan"}, "fusion_lon": 0.0}, {"lat": 38.91996783333333, "is_disabled": 0, "type": "electric_scooter", "lon": -77.03165833333334, "bike_id": "8214f73b1ecb9405a97eddb49d34778a", "fusion_lat": 0.0, "name": "8214f73b1ecb9405a97eddb49d34778a", "is_reserved": 0, "rental_uris": {"android": "https://dc.lft.to/lastmile_qr_scan", "ios": "https://dc.lft.to/lastmile_qr_scan"}, "fusion_lon": 0.0}, {"lat": 38.9125215, "is_disabled": 0, "type": "electric_scooter", "lon": -77.019902, "bike_id": "8d4aa55f20bbdadecf30412a23b21556", "fusion_lat": 0.0, "name": "8d4aa55f20bbdadecf30412a23b21556", "is_reserved": 0, "rental_uris": {"android": "https://dc.lft.to/lastmile_qr_scan", "ios": "https://dc.lft.to/lastmile_qr_scan"}, "fusion_lon": 0.0}, {"lat": 38.915616166666666, "is_disabled": 0, "type": "electric_scooter", "lon": -77.03669133333334, "bike_id": "5e2641991883d61bc95f73ab107d62ba", "fusion_lat": 0.0, "name": "5e2641991883d61bc95f73ab107d62ba", "is_reserved": 0, "rental_uris": {"android": "https://dc.lft.to/lastmile_qr_scan", "ios": "https://dc.lft.to/lastmile_qr_scan"}, "fusion_lon": 0.0}, {"lat": 38.9267115, "is_disabled": 0, "type": "electric_scooter", "lon": -77.01464166666666, "bike_id": "70b3ca6a9e171cc1dd0a1bb8de9783ca", "fusion_lat": 0.0, "name": "70b3ca6a9e171cc1dd0a1bb8de9783ca", "is_reserved": 0, "rental_uris": {"android": "https://dc.lft.to/lastmile_qr_scan", "ios": "https://dc.lft.to/lastmile_qr_scan"}, "fusion_lon": 0.0}, {"lat": 38.95074416666667, "is_disabled": 0, "type": "electric_scooter", "lon": -77.02715633333334, "bike_id": "a4a422504c57c03894f948c540c60c79", "fusion_lat": 0.0, "name": "a4a422504c57c03894f948c540c60c79", "is_reserved": 0, "rental_uris": {"android": "https://dc.lft.to/lastmile_qr_scan", "ios": "https://dc.lft.to/lastmile_qr_scan"}, "fusion_lon": 0.0}, {"lat": 38.99813816666666, "is_disabled": 0, "type": "electric_bike", "lon": -76.88364983333334, "bike_id": "9f2091cc877b37a0c752653879f6d670", "fusion_lat": 0.0, "name": "9f2091cc877b37a0c752653879f6d670", "is_reserved": 0, "rental_uris": {"android": "https://dc.lft.to/lastmile_qr_scan", "ios": "https://dc.lft.to/lastmile_qr_scan"}, "fusion_lon": 0.0}, {"lat": 39.03045016666667, "is_disabled": 0, "type": "electric_bike", "lon": -77.09480466666666, "bike_id": "7dc329908dd28f04d76b7b1ff1675338", "fusion_lat": 0.0, "name": "7dc329908dd28f04d76b7b1ff1675338", "is_reserved": 0, "rental_uris": {"android": "https://dc.lft.to/lastmile_qr_scan", "ios": "https://dc.lft.to/lastmile_qr_scan"}, "fusion_lon": 0.0}, {"lat": 38.8920405, "is_disabled": 0, "type": "electric_scooter", "lon": -76.98568066666667, "bike_id": "49f2f59aebba28e0d7415e88b64e1020", "fusion_lat": 0.0, "name": "49f2f59aebba28e0d7415e88b64e1020", "is_reserved": 0, "rental_uris": {"android": "https://dc.lft.to/lastmile_qr_scan", "ios": "https://dc.lft.to/lastmile_qr_scan"}, "fusion_lon": 0.0}, {"lat": 38.938610833333335, "is_disabled": 0, "type": "electric_scooter", "lon": -77.03095, "bike_id": "04d4e68065f04118cc83e95c6d250d89", "fusion_lat": 0.0, "name": "04d4e68065f04118cc83e95c6d250d89", "is_reserved": 0, "rental_uris": {"android": "https://dc.lft.to/lastmile_qr_scan", "ios": "https://dc.lft.to/lastmile_qr_scan"}, "fusion_lon": 0.0}, {"lat": 38.9131345, "is_disabled": 0, "type": "electric_scooter", "lon": -76.986438, "bike_id": "ab88ad3612b8a52e097a8c30c433f4cc", "fusion_lat": 0.0, "name": "ab88ad3612b8a52e097a8c30c433f4cc", "is_reserved": 0, "rental_uris": {"android": "https://dc.lft.to/lastmile_qr_scan", "ios": "https://dc.lft.to/lastmile_qr_scan"}, "fusion_lon": 0.0}, {"lat": 38.917439, "is_disabled": 0, "type": "electric_scooter", "lon": -77.03188883333333, "bike_id": "a173311c6ec37953cf087e4cee14efe2", "fusion_lat": 0.0, "name": "a173311c6ec37953cf087e4cee14efe2", "is_reserved": 0, "rental_uris": {"android": "https://dc.lft.to/lastmile_qr_scan", "ios": "https://dc.lft.to/lastmile_qr_scan"}, "fusion_lon": 0.0}, {"lat": 38.91716, "is_disabled": 0, "type": "electric_scooter", "lon": -77.02736283333333, "bike_id": "9074904dd772c0be49371aaef450bbe1", "fusion_lat": 0.0, "name": "9074904dd772c0be49371aaef450bbe1", "is_reserved": 0, "rental_uris": {"android": "https://dc.lft.to/lastmile_qr_scan", "ios": "https://dc.lft.to/lastmile_qr_scan"}, "fusion_lon": 0.0}, {"lat": 38.934526, "is_disabled": 0, "type": "electric_scooter", "lon": -77.02913233333334, "bike_id": "ceea345cb40ecf23941d0c37309ae823", "fusion_lat": 0.0, "name": "ceea345cb40ecf23941d0c37309ae823", "is_reserved": 0, "rental_uris": {"android": "https://dc.lft.to/lastmile_qr_scan", "ios": "https://dc.lft.to/lastmile_qr_scan"}, "fusion_lon": 0.0}, {"lat": 39.024357, "is_disabled": 0, "type": "electric_bike", "lon": -77.13095033333333, "bike_id": "6b39478c1601749b385428f995928149", "fusion_lat": 0.0, "name": "6b39478c1601749b385428f995928149", "is_reserved": 0, "rental_uris": {"android": "https://dc.lft.to/lastmile_qr_scan", "ios": "https://dc.lft.to/lastmile_qr_scan"}, "fusion_lon": 0.0}, {"lat": 38.9296035, "is_disabled": 0, "type": "electric_scooter", "lon": -77.023396, "bike_id": "55563af4d2c811f05f574e6ab1431130", "fusion_lat": 0.0, "name": "55563af4d2c811f05f574e6ab1431130", "is_reserved": 0, "rental_uris": {"android": "https://dc.lft.to/lastmile_qr_scan", "ios": "https://dc.lft.to/lastmile_qr_scan"}, "fusion_lon": 0.0}, {"lat": 38.899681333333334, "is_disabled": 0, "type": "electric_scooter", "lon": -77.02072316666667, "bike_id": "4a4775e7b815d4f952b2dfc10beb1a15", "fusion_lat": 0.0, "name": "4a4775e7b815d4f952b2dfc10beb1a15", "is_reserved": 0, "rental_uris": {"android": "https://dc.lft.to/lastmile_qr_scan", "ios": "https://dc.lft.to/lastmile_qr_scan"}, "fusion_lon": 0.0}, {"lat": 38.94967, "is_disabled": 0, "type": "electric_scooter", "lon": -77.06557166666667, "bike_id": "76d085f58fb040f3fd295282369537d1", "fusion_lat": 0.0, "name": "76d085f58fb040f3fd295282369537d1", "is_reserved": 0, "rental_uris": {"android": "https://dc.lft.to/lastmile_qr_scan", "ios": "https://dc.lft.to/lastmile_qr_scan"}, "fusion_lon": 0.0}, {"lat": 38.92442583333333, "is_disabled": 0, "type": "electric_scooter", "lon": -77.04199866666667, "bike_id": "7c6f924812f7b575be263e5757a0efcd", "fusion_lat": 0.0, "name": "7c6f924812f7b575be263e5757a0efcd", "is_reserved": 0, "rental_uris": {"android": "https://dc.lft.to/lastmile_qr_scan", "ios": "https://dc.lft.to/lastmile_qr_scan"}, "fusion_lon": 0.0}, {"lat": 38.896775166666664, "is_disabled": 0, "type": "electric_scooter", "lon": -76.93606616666666, "bike_id": "fe4fe0a01507bc4ca5bc730a78ac596f", "fusion_lat": 0.0, "name": "fe4fe0a01507bc4ca5bc730a78ac596f", "is_reserved": 0, "rental_uris": {"android": "https://dc.lft.to/lastmile_qr_scan", "ios": "https://dc.lft.to/lastmile_qr_scan"}, "fusion_lon": 0.0}, {"lat": 38.917365, "is_disabled": 0, "type": "electric_scooter", "lon": -77.03195316666667, "bike_id": "d468fbc2021dc891b47968b0f690c187", "fusion_lat": 0.0, "name": "d468fbc2021dc891b47968b0f690c187", "is_reserved": 0, "rental_uris": {"android": "https://dc.lft.to/lastmile_qr_scan", "ios": "https://dc.lft.to/lastmile_qr_scan"}, "fusion_lon": 0.0}, {"lat": 38.918026166666664, "is_disabled": 0, "type": "electric_scooter", "lon": -77.04013216666667, "bike_id": "f3aaae2842a704fed9014fde946c831f", "fusion_lat": 0.0, "name": "f3aaae2842a704fed9014fde946c831f", "is_reserved": 0, "rental_uris": {"android": "https://dc.lft.to/lastmile_qr_scan", "ios": "https://dc.lft.to/lastmile_qr_scan"}, "fusion_lon": 0.0}, {"lat": 38.93073733333333, "is_disabled": 0, "type": "electric_scooter", "lon": -77.03387966666666, "bike_id": "572d1b0b45bc1b8475fc95a14fac36cd", "fusion_lat": 0.0, "name": "572d1b0b45bc1b8475fc95a14fac36cd", "is_reserved": 0, "rental_uris": {"android": "https://dc.lft.to/lastmile_qr_scan", "ios": "https://dc.lft.to/lastmile_qr_scan"}, "fusion_lon": 0.0}, {"lat": 38.930455, "is_disabled": 0, "type": "electric_bike", "lon": -77.0729715, "bike_id": "30d1b1c09df623ae29b2782826b07324", "fusion_lat": 0.0, "name": "30d1b1c09df623ae29b2782826b07324", "is_reserved": 0, "rental_uris": {"android": "https://dc.lft.to/lastmile_qr_scan", "ios": "https://dc.lft.to/lastmile_qr_scan"}, "fusion_lon": 0.0}, {"lat": 38.988149, "is_disabled": 0, "type": "electric_bike", "lon": -77.02656783333333, "bike_id": "b8fac0fa8c423a755ffe7d88613e1160", "fusion_lat": 0.0, "name": "b8fac0fa8c423a755ffe7d88613e1160", "is_reserved": 0, "rental_uris": {"android": "https://dc.lft.to/lastmile_qr_scan", "ios": "https://dc.lft.to/lastmile_qr_scan"}, "fusion_lon": 0.0}, {"lat": 38.88448316666667, "is_disabled": 0, "type": "electric_scooter", "lon": -76.950952, "bike_id": "3b173055bc35b290bc941a7ddb7864ab", "fusion_lat": 0.0, "name": "3b173055bc35b290bc941a7ddb7864ab", "is_reserved": 0, "rental_uris": {"android": "https://dc.lft.to/lastmile_qr_scan", "ios": "https://dc.lft.to/lastmile_qr_scan"}, "fusion_lon": 0.0}, {"lat": 38.921128333333336, "is_disabled": 0, "type": "electric_scooter", "lon": -77.0416675, "bike_id": "3a416744ea1bd7f0b9335c3f1080adbc", "fusion_lat": 0.0, "name": "3a416744ea1bd7f0b9335c3f1080adbc", "is_reserved": 0, "rental_uris": {"android": "https://dc.lft.to/lastmile_qr_scan", "ios": "https://dc.lft.to/lastmile_qr_scan"}, "fusion_lon": 0.0}, {"lat": 38.9157005, "is_disabled": 0, "type": "electric_scooter", "lon": -77.03183583333333, "bike_id": "285049b258ece5cc175d1e6f873c3c4e", "fusion_lat": 0.0, "name": "285049b258ece5cc175d1e6f873c3c4e", "is_reserved": 0, "rental_uris": {"android": "https://dc.lft.to/lastmile_qr_scan", "ios": "https://dc.lft.to/lastmile_qr_scan"}, "fusion_lon": 0.0}, {"lat": 38.948245, "is_disabled": 0, "type": "electric_scooter", "lon": -76.99904383333333, "bike_id": "d5b108db38a903f687918fd5f86682f7", "fusion_lat": 0.0, "name": "d5b108db38a903f687918fd5f86682f7", "is_reserved": 0, "rental_uris": {"android": "https://dc.lft.to/lastmile_qr_scan", "ios": "https://dc.lft.to/lastmile_qr_scan"}, "fusion_lon": 0.0},