{"data": {"bikes": [{"lat": 38.909575333333336, "is_disabled": 0, "type": "electric_scooter", "lon": -77.03830333333333, "bike_id": "6f01438c5342a056a2849ccb324762e3", "fusion_lat": 0.0, "name": "6f01438c5342a056a2849ccb324762e3", "is_reserved": 0, "rental_uris": {"android": "https://dc.lft.to/lastmile_qr_scan", "ios": "https://dc.lft.to/lastmile_qr_scan"}, "fusion_lon": 0.0}, {"lat": 38.91814983333333, "is_disabled": 0, "type": "electric_scooter", "lon": -77.02485033333333, "bike_id": "baaf74b0af4da3c96738b15623532296", "fusion_lat": 0.0, "name": "baaf74b0af4da3c96738b15623532296", "is_reserved": 0, "rental_uris": {"android": "https://dc.lft.to/lastmile_qr_scan", "ios": "https://dc.lft.to/lastmile_qr_scan"}, "fusion_lon": 0.0}, {"lat": 38.892210166666665, "is_disabled": 0, "type": "electric_scooter", "lon": -77.02214716666667, "bike_id": "b3fb7510ba98a294826e5a9626c4d2dd", "fusion_lat": 0.0, "name": "b3fb7510ba98a294826e5a9626c4d2dd", "is_reserved": 0, "rental_uris": {"android": "https://dc.lft.to/lastmile_qr_scan", "ios": "https://dc.lft.to/lastmile_qr_scan"}, "fusion_lon": 0.0}, {"lat": 38.90985083333333, "is_disabled": 0, "type": "electric_scooter", "lon": -77.04166266666667, "bike_id": "6dacc43f86d45bf7a96d95964a939a03", "fusion_lat": 0.0, "name": "6dacc43f86d45bf7a96d95964a939a03", "is_reserved": 0, "rental_uris": {"android": "https://dc.lft.to/lastmile_qr_scan", "ios": "https://dc.lft.to/lastmile_qr_scan"}, "fusion_lon": 0.0}, {"lat": 38.91982133333333, "is_disabled": 0, "type": "electric_scooter", "lon": -77.02527783333333, "bike_id": "222f33d551aa774f8c4c57010d6289c3", "fusion_lat": 0.0, "name": "222f33d551aa774f8c4c57010d6289c3", "is_reserved": 0, "rental_uris": {"android": "https://dc.lft.to/lastmile_qr_scan", "ios": "https://dc.lft.to/lastmile_qr_scan"}, "fusion_lon": 0.0}, {"lat": 38.98273183333333, "is_disabled": 0, "type": "electric_bike", "lon": -77.017721, "bike_id": "96e7a68a86f80ca4e6200e22f0b15614", "fusion_lat": 0.0, "name": "96e7a68a86f80ca4e6200e22f0b15614", "is_reserved": 0, "rental_uris": {"android": "https://dc.lft.to/lastmile_qr_scan", "ios": "https://dc.lft.to/lastmile_qr_scan"}, "fusion_lon": 0.0}, {"lat": 38.916667333333336, "is_disabled": 0, "type": "electric_scooter", "lon": -77.02292866666667, "bike_id": "bf3e5729d77ca9a76b1f9871d99b06b4", "fusion_lat": 0.0, "name": "bf3e5729d77ca9a76b1f9871d99b06b4", "is_reserved": 0, "rental_uris": {"android": "https://dc.lft.to/lastmile_qr_scan", "ios": "https://dc.lft.to/lastmile_qr_scan"}, "fusion_lon": 0.0}, {"lat": 38.88827833333333, "is_disabled": 0, "type": "electric_scooter", "lon": -76.99412016666666, "bike_id": "93d740a0ac493253e94135ac30f41e28", "fusion_lat": 0.0, "name": "93d740a0ac493253e94135ac30f41e28", "is_reserved": 0, "rental_uris": {"android": "https://dc.lft.to/lastmile_qr_scan", "ios": "https://dc.lft.to/lastmile_qr_scan"}, "fusion_lon": 0.0}, {"lat": 38.98502383333334, "is_disabled": 0, "type": "electric_bike", "lon": -76.98199816666667, "bike_id": "019912ab8fdc4c42f976e06390c11c1e", "fusion_lat": 0.0, "name": "019912ab8fdc4c42f976e06390c11c1e", "is_reserved": 0, "rental_uris": {"android": "https://dc.lft.to/lastmile_qr_scan", "ios": "https://dc.lft.to/lastmile_qr_scan"}, "fusion_lon": 0.0}, {"lat": 38.805746166666665, "is_disabled": 0, "type": "electric_bike", "lon": -77.06860766666667, "bike_id": "caf7bd088c3cc7b832260edfdbcaa54d", "fusion_lat": 0.0, "name": "caf7bd088c3cc7b832260edfdbcaa54d", "is_reserved": 0, "rental_uris": {"android": "https://dc.lft.to/lastmile_qr_scan", "ios": "https://dc.lft.to/lastmile_qr_scan"}, "fusion_lon": 0.0}, {"lat": 38.902548333333336, "is_disabled": 0, "type": "electric_scooter", "lon": -77.02657433333333, "bike_id": "c0638965e40f33cd54cb014cf019ee32", "fusion_lat": 0.0, "name": "c0638965e40f33cd54cb014cf019ee32", "is_reserved": 0, "rental_uris": {"android": "https://dc.lft.to/lastmile_qr_scan", "ios": "https://dc.lft.to/lastmile_qr_scan"}, "fusion_lon": 0.0}, {"lat": 38.928377166666664, "is_disabled": 0, "type": "electric_scooter", "lon": -77.01389783333333, "bike_id": "e05f2feb7059561b900ea3d004023867", "fusion_lat": 0.0, "name": "e05f2feb7059561b900ea3d004023867", "is_reserved": 0, "rental_uris": {"android": "https://dc.lft.to/lastmile_qr_scan", "ios": "https://dc.lft.to/lastmile_qr_scan"}, "fusion_lon": 0.0}, {"lat": 38.91745083333333, "is_disabled": 0, "type": "electric_scooter", "lon": -77.0321515, "bike_id": "9ca755513099ce47c6e3dd4ca07e0075", "fusion_lat": 0.0, "name": "9ca755513099ce47c6e3dd4ca07e0075", "is_reserved": 0, "rental_uris": {"android": "https://dc.lft.to/lastmile_qr_scan", "ios": "https://dc.lft.to/lastmile_qr_scan"}, "fusion_lon": 0.0}, {"lat": 38.900923666666664, "is_disabled": 0, "type": "electric_bike", "lon": -77.04865216666667, "bike_id": "f9aa4b6281e55b16eadc4adadc17d76b", "fusion_lat": 0.0, "name": "f9aa4b6281e55b16eadc4adadc17d76b", "is_reserved": 0, "rental_uris": {"android": "https://dc.lft.to/lastmile_qr_scan", "ios": "https://dc.lft.to/lastmile_qr_scan"}, "fusion_lon": 0.0}, {"lat": 38.95399283333333, "is_disabled": 0, "type": "electric_bike", "lon": -76.97870616666667, "bike_id": "70678d727ca8ff87b3beb88ffd98aed7", "fusion_lat": 0.0, "name": "70678d727ca8ff87b3beb88ffd98aed7", "is_reserved": 0, "rental_uris": {"android": "https://dc.lft.to/lastmile_qr_scan", "ios": "https://dc.lft.to/lastmile_qr_scan"}, "fusion_lon": 0.0}, {"lat": 38.92835, "is_disabled": 0, "type": "electric_scooter", "lon": -77.01417583333334, "bike_id": "128df300151f8a235c7134cdc31acde1", "fusion_lat": 0.0, "name": "128df300151f8a235c7134cdc31acde1", "is_reserved": 0, "rental_uris": {"android": "https://dc.lft.to/lastmile_qr_scan", "ios": "https://dc.lft.to/lastmile_qr_scan"}, "fusion_lon": 0.0}, {"lat": 38.902994666666665, "is_disabled": 0, "type": "electric_scooter", "lon": -77.00899366666667, "bike_id": "ca7fc251dad1b8adb59577499db61b69", "fusion_lat": 0.0, "name": "ca7fc251dad1b8adb59577499db61b69", "is_reserved": 0, "rental_uris": {"android": "https://dc.lft.to/lastmile_qr_scan", "ios": "https://dc.lft.to/lastmile_qr_scan"}, "fusion_lon": 0.0}, {"lat": 38.904696333333334, "is_disabled": 0, "type": "electric_scooter", "lon": -77.03913916666667, "bike_id": "eb27336f172ab12b0ea22ffab79214f7", "fusion_lat": 0.0, "name": "eb27336f172ab12b0ea22ffab79214f7", "is_reserved": 0, "rental_uris": {"android": "https://dc.lft.to/lastmile_qr_scan", "ios": "https://dc.lft.to/lastmile_qr_scan"}, "fusion_lon": 0.0}, {"lat": 38.927575833333336, "is_disabled": 0, "type": "electric_bike", "lon": -77.03267566666666, "bike_id": "fe6508aab26e4f9d448c29046a655a15", "fusion_lat": 0.0, "name": "fe6508aab26e4f9d448c29046a655a15", "is_reserved": 0, "rental_uris": {"android": "https://dc.lft.to/lastmile_qr_scan", "ios": "https://dc.lft.to/lastmile_qr_scan"}, "fusion_lon": 0.0}, {"lat": 38.9193235, "is_disabled": 0, "type": "electric_scooter", "lon": -77.025995, "bike_id": "58bd4485242df56625bb3b14b92d6fd1", "fusion_lat": 0.0, "name": "58bd4485242df56625bb3b14b92d6fd1", "is_reserved": 0, "rental_uris": {"android": "https://dc.lft.to/lastmile_qr_scan", "ios": "https://dc.lft.to/lastmile_qr_scan"}, "fusion_lon": 0.0}, {"lat": 38.86365683333333, "is_disabled": 0, "type": "electric_scooter", "lon": -76.9903215, "bike_id": "6c40ac07cd7a1670a27d3adc8c5f6ad4", "fusion_lat": 0.0, "name": "6c40ac07cd7a1670a27d3adc8c5f6ad4", "is_reserved": 0, "rental_uris": {"android": "https://dc.lft.to/lastmile_qr_scan", "ios": "https://dc.lft.to/lastmile_qr_scan"}, "fusion_lon": 0.0}, {"lat": 38.922458, "is_disabled": 0, "type": "electric_scooter", "lon": -77.04352416666667, "bike_id": "30c0fb48d5c3e25658574af48ea764d8", "fusion_lat": 0.0, "name": "30c0fb48d5c3e25658574af48ea764d8", "is_reserved": 0, "rental_uris": {"android": "https://dc.lft.to/lastmile_qr_scan", "ios": "https://dc.lft.to/lastmile_qr_scan"}, "fusion_lon": 0.0}, {"lat": 38.884859, "is_disabled": 0, "type": "electric_scooter", "lon": -77.03473966666667, "bike_id": "2e8c38df38e494322209066743cb5ae0", "fusion_lat": 0.0, "name": "2e8c38df38e494322209066743cb5ae0", "is_reserved": 0, "rental_uris": {"android": "https://dc.lft.to/lastmile_qr_scan", "ios": "https://dc.lft.to/lastmile_qr_scan"}, "fusion_lon": 0.0}, {"lat": 38.9023105, "is_disabled": 0, "type": "electric_scooter", "lon": -77.04352933333334, "bike_id": "74609211a88148acc7d56cb2d4a78119", "fusion_lat": 0.0, "name": "74609211a88148acc7d56cb2d4a78119", "is_reserved": 0, "rental_uris": {"android": "https://dc.lft.to/lastmile_qr_scan", "ios": "https://dc.lft.to/lastmile_qr_scan"}, "fusion_lon": 0.0}, {"lat": 38.802276166666665, "is_disabled": 0, "type": "electric_bike", "lon": -77.07914816666667, "bike_id": "6d2b224580851ff0183a107795330c0e", "fusion_lat": 0.0, "name": "6d2b224580851ff0183a107795330c0e", "is_reserved": 0, "rental_uris": {"android": "https://dc.lft.to/lastmile_qr_scan", "ios": "https://dc.lft.to/lastmile_qr_scan"}, "fusion_lon": 0.0}, {"lat": 38.927195166666664, "is_disabled": 0, "type": "electric_scooter", "lon": -77.022856, "bike_id": "3cc81a8a2c410cf172fb5d3e829c71b2", "fusion_lat": 0.0, "name": "3cc81a8a2c410cf172fb5d3e829c71b2", "is_reserved": 0, "rental_uris": {"android": "https://dc.lft.to/lastmile_qr_scan", "ios": "https://dc.lft.to/lastmile_qr_scan"}, "fusion_lon": 0.0}, {"lat": 38.919325, "is_disabled": 0, "type": "electric_scooter", "lon": -76.970175, "bike_id": "e9b1bf9b81a0dc331f383cdca62ab521", "fusion_lat": 0.0, "name": "e9b1bf9b81a0dc331f383cdca62ab521", "is_reserved": 0, "rental_uris": {"android": "https://dc.lft.to/lastmile_qr_scan", "ios": "https://dc.lft.to/lastmile_qr_scan"}, "fusion_lon": 0.0}, {"lat": 38.87150716666667, "is_disabled": 0, "type": "electric_scooter", "lon": -77.01193133333334, "bike_id": "ac742a74074e1653d4f6de171799513a", "fusion_lat": 0.0, "name": "ac742a74074e1653d4f6de171799513a", "is_reserved": 0, "rental_uris": {"android": "https://dc.lft.to/lastmile_qr_scan", "ios": "https://dc.lft.to/lastmile_qr_scan"}, "fusion_lon": 0.0}, {"lat": 38.91811, "is_disabled": 0, "type": "electric_scooter", "lon": -77.04170216666667, "bike_id": "2abdd83d675ce281d5849a57341690ad", "fusion_lat": 0.0, "name": "2abdd83d675ce281d5849a57341690ad", "is_reserved": 0, "rental_uris": {"android": "https://dc.lft.to/lastmile_qr_scan", "ios": "https://dc.lft.to/lastmile_qr_scan"}, "fusion_lon": 0.0}, {"lat": 38.914620166666666, "is_disabled": 0, "type": "electric_scooter", "lon": -77.03193583333334, "bike_id": "5a2f8907f9d37921116d59e60eb7ea7c", "fusion_lat": 0.0, "name": "5a2f8907f9d37921116d59e60eb7ea7c", "is_reserved": 0, "rental_uris": {"android": "https://dc.lft.to/lastmile_qr_scan", "ios": "https://dc.lft.to/lastmile_qr_scan"}, "fusion_lon": 0.0}, {"lat": 38.91705616666667, "is_disabled": 0, "type": "electric_scooter", "lon": -77.03984766666666, "bike_id": "07b39c3ce49b28671a333422a3e11c2c", "fusion_lat": 0.0, "name": "07b39c3ce49b28671a333422a3e11c2c", "is_reserved": 0, "rental_uris": {"android": "https://dc.lft.to/lastmile_qr_scan", "ios": "https://dc.lft.to/lastmile_qr_scan"}, "fusion_lon": 0.0}, {"lat": 38.89553733333333, "is_disabled": 0, "type": "electric_scooter", "lon": -76.93376, "bike_id": "384dea5966f819425992c590f662c781", "fusion_lat": 0.0, "name": "384dea5966f819425992c590f662c781", "is_reserved": 0, "rental_uris": {"android": "https://dc.lft.to/lastmile_qr_scan", "ios": "https://dc.lft.to/lastmile_qr_scan"}, "fusion_lon": 0.0}, {"lat": 38.92321283333333, "is_disabled": 0, "type": "electric_scooter", "lon": -77.02967383333333, "bike_id": "361031135502eedfb7cbb5299a5e4d8c", "fusion_lat": 0.0, "name": "361031135502eedfb7cbb5299a5e4d8c", "is_reserved": 0, "rental_uris": {"android": "https://dc.lft.to/lastmile_qr_scan", "ios": "https://dc.lft.to/lastmile_qr_scan"}, "fusion_lon": 0.0}, {"lat": 38.93878383333333, "is_disabled": 0, "type": "electric_scooter", "lon": -77.03262283333333, "bike_id": "99dd9558618a4fe362a4586e8c95ffc9", "fusion_lat": 0.0, "name": "99dd9558618a4fe362a4586e8c95ffc9", "is_reserved": 0, "rental_uris": {"android": "https://dc.lft.to/lastmile_qr_scan", "ios": "https://dc.lft.to/lastmile_qr_scan"}, "fusion_lon": 0.0}, {"lat": 38.91548616666667, "is_disabled": 0, "type": "electric_scooter", "lon": -77.03496266666667, "bike_id": "517725030529553b131d246b1a4adc93", "fusion_lat": 0.0, "name": "517725030529553b131d246b1a4adc93", "is_reserved": 0, "rental_uris": {"android": "https://dc.lft.to/lastmile_qr_scan", "ios": "https://dc.lft.to/lastmile_qr_scan"}, "fusion_lon": 0.0}, {"lat": 38.917091666666664, "is_disabled": 0, "type": "electric_scooter", "lon": -77.046746, "bike_id": "839d7d096a53a8c48378a8d1227d2d09", "fusion_lat": 0.0, "name": "839d7d096a53a8c48378a8d1227d2d09", "is_reserved": 0, "rental_uris": {"android": "https://dc.lft.to/lastmile_qr_scan", "ios": "https://dc.lft.to/lastmile_qr_scan"}, "fusion_lon": 0.0}, {"lat": 38.9266265, "is_disabled": 0, "type": "electric_scooter", "lon": -77.05597433333334, "bike_id": "a806a679dfa54b7774228f87b3903b34", "fusion_lat": 0.0, "name": "a806a679dfa54b7774228f87b3903b34", "is_reserved": 0, "rental_uris": {"android": "https://dc.lft.to/lastmile_qr_scan", "ios": "https://dc.lft.to/lastmile_qr_scan"}, "fusion_lon": 0.0}, {"lat": 38.9498995, "is_disabled": 0, "type": "electric_scooter", "lon": -77.06678216666667, "bike_id": "bf68ba9f914718b23b2cba570615b2ee", "fusion_lat": 0.0, "name": "bf68ba9f914718b23b2cba570615b2ee", "is_reserved": 0, "rental_uris": {"android": "https://dc.lft.to/lastmile_qr_scan", "ios": "https://dc.lft.to/lastmile_qr_scan"}, "fusion_lon": 0.0}, {"lat": 38.9024285, "is_disabled": 0, "type": "electric_scooter", "lon": -77.04360383333334, "bike_id": "bfd147010cf84967487e869da2acdbbd", "fusion_lat": 0.0, "name": "bfd147010cf84967487e869da2acdbbd", "is_reserved": 0, "rental_uris": {"android": "https://dc.lft.to/lastmile_qr_scan", "ios": "https://dc.lft.to/lastmile_qr_scan"}, "fusion_lon": 0.0}, {"lat": 38.921122833333335, "is_disabled": 0, "type": "electric_scooter", "lon": -77.03155966666667, "bike_id": "1819c568f9063199bf9dad67c9f278eb", "fusion_lat": 0.0, "name": "1819c568f9063199bf9dad67c9f278eb", "is_reserved": 0, "rental_uris": {"android": "https://dc.lft.to/lastmile_qr_scan", "ios": "https://dc.lft.to/lastmile_qr_scan"}, "fusion_lon": 0.0}, {"lat": 38.9319735, "is_disabled": 0, "type": "electric_scooter", "lon": -77.02358233333334, "bike_id": "ba25a4896e4a65c25baae7ece1cf086f", "fusion_lat": 0.0, "name": "ba25a4896e4a65c25baae7ece1cf086f", "is_reserved": 0, "rental_uris": {"android": "https://dc.lft.to/lastmile_qr_scan", "ios": "https://dc.lft.to/lastmile_qr_scan"}, "fusion_lon": 0.0}, {"lat": 38.935365, "is_disabled": 0, "type": "electric_scooter", "lon": -77.034074, "bike_id": "d88d626e4d3f2706eeceaa4966a0388e", "fusion_lat": 0.0, "name": "d88d626e4d3f2706eeceaa4966a0388e", "is_reserved": 0, "rental_uris": {"android": "https://dc.lft.to/lastmile_qr_scan", "ios": "https://dc.lft.to/lastmile_qr_scan"}, "fusion_lon": 0.0}, {"lat": 38.91344083333333, "is_disabled": 0, "type": "electric_scooter", "lon": -77.03184383333334, "bike_id": "de46db912fc5ea6e64cbdb0a146c5ffc", "fusion_lat": 0.0, "name": "de46db912fc5ea6e64cbdb0a146c5ffc", "is_reserved": 0, "rental_uris": {"android": "https://dc.lft.to/lastmile_qr_scan", "ios": "https://dc.lft.to/lastmile_qr_scan"}, "fusion_lon": 0.0}, {"lat": 38.96092016666667, "is_disabled": 0, "type": "electric_scooter", "lon": -77.0828765, "bike_id": "c4e77edb1a278655b7103c509c5e379f", "fusion_lat": 0.0, "name": "c4e77edb1a278655b7103c509c5e379f", "is_reserved": 0, "rental_uris": {"android": "https://dc.lft.to/lastmile_qr_scan", "ios": "https://dc.lft.to/lastmile_qr_scan"}, "fusion_lon": 0.0}, {"lat": 38.9348275, "is_disabled": 0, "type": "electric_scooter", "lon": -77.07259333333333, "bike_id": "366f37e5015f363f9e2e0fca0d2a0e4f", "fusion_lat": 0.0, "name": "366f37e5015f363f9e2e0fca0d2a0e4f", "is_reserved": 0, "rental_uris": {"android": "https://dc.lft.to/lastmile_qr_scan", "ios": "https://dc.lft.to/lastmile_qr_scan"}, "fusion_lon": 0.0}, {"lat": 38.92211916666667, "is_disabled": 0, "type": "electric_scooter", "lon": -77.03287516666667, "bike_id": "fca371d0ba0d39caabf7cd0161295646", "fusion_lat": 0.0, "name": "fca371d0ba0d39caabf7cd0161295646", "is_reserved": 0, "rental_uris": {"android": "https://dc.lft.to/lastmile_qr_scan", "ios": "https://dc.lft.to/lastmile_qr_scan"}, "fusion_lon": 0.0}, {"lat": 38.918393, "is_disabled": 0, "type": "electric_scooter", "lon": -77.02292116666666, "bike_id": "223cb6ab1f296b88453adcfdb3ba6e65", "fusion_lat": 0.0, "name": "223cb6ab1f296b88453adcfdb3ba6e65", "is_reserved": 0, "rental_uris": {"android": "https://dc.lft.to/lastmile_qr_scan", "ios": "https://dc.lft.to/lastmile_qr_scan"}, "fusion_lon": 0.0}, {"lat": 38.905013, "is_disabled": 0, "type": "electric_scooter", "lon": -77.029518, "bike_id": "4879c0e56029433b32158b88babf65c4", "fusion_lat": 0.0, "name": "4879c0e56029433b32158b88babf65c4", "is_reserved": 0, "rental_uris": {"android": "https://dc.lft.to/lastmile_qr_scan", "ios": "https://dc.lft.to/lastmile_qr_scan"}, "fusion_lon": 0.0}, {"lat": 38.90214683333333, "is_disabled": 0, "type": "electric_scooter", "lon": -77.04892666666667, "bike_id": "b928d141ceb9903b660e79e9a79bedd1", "fusion_lat": 0.0, "name": "b928d141ceb9903b660e79e9a79bedd1", "is_reserved": 0, "rental_uris": {"android": "https://dc.lft.to/lastmile_qr_scan", "ios": "https://dc.lft.to/lastmile_qr_scan"}, "fusion_lon": 0.0}, {"lat": 38.93400316666666, "is_disabled": 0, "type": "electric_scooter", "lon": -77.04125316666666, "bike_id": "6beaaafd32fe19aac72172617cdde642", "fusion_lat": 0.0, "name": "6beaaafd32fe19aac72172617cdde642", "is_reserved": 0, "rental_uris": {"android": "https://dc.lft.to/lastmile_qr_scan", "ios": "https://dc.lft.to/lastmile_qr_scan"}, "fusion_lon": 0.0}, {"lat": 38.9236355, "is_disabled": 0, "type": "electric_scooter", "lon": -77.05130383333334, "bike_id": "7746370b73703cb971f46193f2b65961", "fusion_lat": 0.0, "name": "7746370b73703cb971f46193f2b65961", "is_reserved": 0, "rental_uris": {"android": "https://dc.lft.to/lastmile_qr_scan", "ios": "https://dc.lft.to/lastmile_qr_scan"}, "fusion_lon": 0.0}, {"lat": 38.938621499999996, "is_disabled": 0, "type": "electric_scooter", "lon": -77.03087566666666, "bike_id": "d8460d0860a52aab4212795c03d414df", "fusion_lat": 0.0, "name": "d8460d0860a52aab4212795c03d414df", "is_reserved": 0, "rental_uris": {"android": "https://dc.lft.to/lastmile_qr_scan", "ios": "https://dc.lft.to/lastmile_qr_scan"}, "fusion_lon": 0.0}, {"lat": 38.880186333333334, "is_disabled": 0, "type": "electric_scooter", "lon": -76.96011466666667, "bike_id": "42161d6f72efb5550e0717e576735450", "fusion_lat": 0.0, "name": "42161d6f72efb5550e0717e576735450", "is_reserved": 0, "rental_uris": {"android": "https://dc.lft.to/lastmile_qr_scan", "ios": "https://dc.lft.to/lastmile_qr_scan"}, "fusion_lon": 0.0}, {"lat": 38.92827333333334, "is_disabled": 0, "type": "electric_scooter", "lon": -77.05439983333333, "bike_id": "94f69f8b861596e44a7f32588d57bb52", "fusion_lat": 0.0, "name": "94f69f8b861596e44a7f32588d57bb52", "is_reserved": 0, "rental_uris": {"android": "https://dc.lft.to/lastmile_qr_scan", "ios": "https://dc.lft.to/lastmile_qr_scan"}, "fusion_lon": 0.0}, {"lat": 38.86657266666667, "is_disabled": 0, "type": "electric_scooter", "lon": -76.98885933333334, "bike_id": "cc6f35066cd1c9e72ae108a70a872274", "fusion_lat": 0.0, "name": "cc6f35066cd1c9e72ae108a70a872274", "is_reserved": 0, "rental_uris": {"android": "https://dc.lft.to/lastmile_qr_scan", "ios": "https://dc.lft.to/lastmile_qr_scan"}, "fusion_lon": 0.0}, {"lat": 38.9174825, "is_disabled": 0, "type": "electric_scooter", "lon": -77.0415785, "bike_id": "583692ccc254159bac14ab98c2acbfdf", "fusion_lat": 0.0, "name": "583692ccc254159bac14ab98c2acbfdf", "is_reserved": 0, "rental_uris": {"android": "https://dc.lft.to/lastmile_qr_scan", "ios": "https://dc.lft.to/lastmile_qr_scan"}, "fusion_lon": 0.0}, {"lat": 38.9219455, "is_disabled": 0, "type": "electric_scooter", "lon": -77.042289, "bike_id": "0a96d563ad6aec0efc6065a6ba7b3d1d", "fusion_lat": 0.0, "name": "0a96d563ad6aec0efc6065a6ba7b3d1d", "is_reserved": 0, "rental_uris": {"android": "https://dc.lft.to/lastmile_qr_scan", "ios": "https://dc.lft.to/lastmile_qr_scan"}, "fusion_lon": 0.0}, {"lat": 38.900257, "is_disabled": 0, "type": "electric_scooter", "lon": -76.98981833333333, "bike_id": "ec0a592abd0505e4a8c1597c459cbcb1", "fusion_lat": 0.0, "name": "ec0a592abd0505e4a8c1597c459cbcb1", "is_reserved": 0, "rental_uris": {"android": "https://dc.lft.to/lastmile_qr_scan", "ios": "https://dc.lft.to/lastmile_qr_scan"}, "fusion_lon": 0.0}, {"lat": 38.93871333333333, "is_disabled": 0, "type": "electric_scooter", "lon": -77.03124016666666, "bike_id": "6fe3e57edeb4b56ffb8270fe3e63c4ba", "fusion_lat": 0.0, "name": "6fe3e57edeb4b56ffb8270fe3e63c4ba", "is_reserved": 0, "rental_uris": {"android": "https://dc.lft.to/lastmile_qr_scan", "ios": "https://dc.lft.to/lastmile_qr_scan"}, "fusion_lon": 0.0}, {"lat": 38.907291666666666, "is_disabled": 0, "type": "electric_scooter", "lon": -77.03446333333333, "bike_id": "548a0672d77400b05650553700cbc843", "fusion_lat": 0.0, "name": "548a0672d77400b05650553700cbc843", "is_reserved": 0, "rental_uris": {"android": "https://dc.lft.to/lastmile_qr_scan", "ios": "https://dc.lft.to/lastmile_qr_scan"}, "fusion_lon": 0.0}, {"lat": 38.85930716666667, "is_disabled": 0, "type": "electric_scooter", "lon": -76.9970895, "bike_id": "18d2a9e37a982b4f7ce4aadabeaa8b49", "fusion_lat": 0.0, "name": "18d2a9e37a982b4f7ce4aadabeaa8b49", "is_reserved": 0, "rental_uris": {"android": "https://dc.lft.to/lastmile_qr_scan", "ios": "https://dc.lft.to/lastmile_qr_scan"}, "fusion_lon": 0.0}, {"lat": 38.921547, "is_disabled": 0, "type": "electric_scooter", "lon": -77.03515983333334, "bike_id": "24760d17cdfd43564ecb940b8dce140a", "fusion_lat": 0.0, "name": "24760d17cdfd43564ecb940b8dce140a", "is_reserved": 0, "rental_uris": {"android": "https://dc.lft.to/lastmile_qr_scan", "ios": "https://dc.lft.to/lastmile_qr_scan"}, "fusion_lon": 0.0}, {"lat": 38.955629333333334, "is_disabled": 0, "type": "electric_scooter", "lon": -77.02239, "bike_id": "6307274b80b37966db0ca5b68d1ea1bd", "fusion_lat": 0.0, "name": "6307274b80b37966db0ca5b68d1ea1bd", "is_reserved": 0, "rental_uris": {"android": "https://dc.lft.to/lastmile_qr_scan", "ios": "https://dc.lft.to/lastmile_qr_scan"}, "fusion_lon": 0.0}, {"lat": 38.90768533333333, "is_disabled": 0, "type": "electric_scooter", "lon": -76.98310483333333, "bike_id": "e851acc7da83fb8d47aa7dbbe5a60ab5", "fusion_lat": 0.0, "name": "e851acc7da83fb8d47aa7dbbe5a60ab5", "is_reserved": 0, "rental_uris": {"android": "https://dc.lft.to/lastmile_qr_scan", "ios": "https://dc.lft.to/lastmile_qr_scan"}, "fusion_lon": 0.0}, {"lat": 38.90576566666667, "is_disabled": 0, "type": "electric_scooter", "lon": -77.04657766666666, "bike_id": "717304d08b2bf5eb90d1fec4a9ecaf84", "fusion_lat": 0.0, "name": "717304d08b2bf5eb90d1fec4a9ecaf84", "is_reserved": 0, "rental_uris": {"android": "https://dc.lft.to/lastmile_qr_scan", "ios": "https://dc.lft.to/lastmile_qr_scan"}, "fusion_lon": 0.0}, {"lat": 38.9137155, "is_disabled": 0, "type": "electric_scooter", "lon": -77.0200185, "bike_id": "fccf06f8d9752e51fea1f386a00ec249", "fusion_lat": 0.0, "name": "fccf06f8d9752e51fea1f386a00ec249", "is_reserved": 0, "rental_uris": {"android": "https://dc.lft.to/lastmile_qr_scan", "ios": "https://dc.lft.to/lastmile_qr_scan"}, "fusion_lon": 0.0}, {"lat": 38.933331333333335, "is_disabled": 0, "type": "electric_bike", "lon": -77.04231783333333, "bike_id": "62598310901119419db5675773211b2e", "fusion_lat": 0.0, "name": "62598310901119419db5675773211b2e", "is_reserved": 0, "rental_uris": {"android": "https://dc.lft.to/lastmile_qr_scan", "ios": "https://dc.lft.to/lastmile_qr_scan"}, "fusion_lon": 0.0}, {"lat": 38.948183, "is_disabled": 0, "type": "electric_scooter", "lon": -76.9990535, "bike_id": "86129882d837e6db366d753f9efcd32d", "fusion_lat": 0.0, "name": "86129882d837e6db366d753f9efcd32d", "is_reserved": 0, "rental_uris": {"android": "https://dc.lft.to/lastmile_qr_scan", "ios": "https://dc.lft.to/lastmile_qr_scan"}, "fusion_lon": 0.0}, {"lat": 38.916732333333336, "is_disabled": 0, "type": "electric_scooter", "lon": -77.03203333333333, "bike_id": "165f2e13d87079dbc29c9ffcce1887f0", "fusion_lat": 0.0, "name": "165f2e13d87079dbc29c9ffcce1887f0", "is_reserved": 0, "rental_uris": {"android": "https://dc.lft.to/lastmile_qr_scan", "ios": "https://dc.lft.to/lastmile_qr_scan"}, "fusion_lon": 0.0}, {"lat": 38.897407, "is_disabled": 0, "type": "electric_scooter", "lon": -77.021686, "bike_id": "c918f5dba730ad0f6f40d147f6184c07", "fusion_lat": 0.0, "name": "c918f5dba730ad0f6f40d147f6184c07", "is_reserved": 0, "rental_uris": {"android": "https://dc.lft.to/lastmile_qr_scan", "ios": "https://dc.lft.to/lastmile_qr_scan"}, "fusion_lon": 0.0}, {"lat": 38.920357333333335, "is_disabled": 0, "type": "electric_scooter", "lon": -77.0418095, "bike_id": "e5ef95b4756777b788ade3d2ed9c820b", "fusion_lat": 0.0, "name": "e5ef95b4756777b788ade3d2ed9c820b", "is_reserved": 0, "rental_uris": {"android": "https://dc.lft.to/lastmile_qr_scan", "ios": "https://dc.lft.to/lastmile_qr_scan"}, "fusion_lon": 0.0}, {"lat": 38.9141345, "is_disabled": 0, "type": "electric_scooter", "lon": -77.02210966666667, "bike_id": "e52aa630c45d88a967098c3655567997", "fusion_lat": 0.0, "name": "e52aa630c45d88a967098c3655567997", "is_reserved": 0, "rental_uris": {"android": "https://dc.lft.to/lastmile_qr_scan", "ios": "https://dc.lft.to/lastmile_qr_scan"}, "fusion_lon": 0.0}, {"lat": 38.87656333333334, "is_disabled": 0, "type": "electric_scooter", "lon": -77.004093, "bike_id": "5cad8aa6b2bf3f7f2609db0075a464d3", "fusion_lat": 0.0, "name": "5cad8aa6b2bf3f7f2609db0075a464d3", "is_reserved": 0, "rental_uris": {"android": "https://dc.lft.to/lastmile_qr_scan", "ios": "https://dc.lft.to/lastmile_qr_scan"}, "fusion_lon": 0.0}, {"lat": 38.9041625, "is_disabled": 0, "type": "electric_scooter", "lon": -77.025412, "bike_id": "112929f9848cb22fda7922e86ecc27cd", "fusion_lat": 0.0, "name": "112929f9848cb22fda7922e86ecc27cd", "is_reserved": 0, "rental_uris": {"android": "https://dc.lft.to/lastmile_qr_scan", "ios": "https://dc.lft.to/lastmile_qr_scan"}, "fusion_lon": 0.0}, {"lat": 38.92331383333333, "is_disabled": 0, "type": "electric_bike", "lon": -77.03898, "bike_id": "bda81249946934e1f8def7ef99bee294", "fusion_lat": 0.0, "name": "bda81249946934e1f8def7ef99bee294", "is_reserved": 0, "rental_uris": {"android": "https://dc.lft.to/lastmile_qr_scan", "ios": "https://dc.lft.to/lastmile_qr_scan"}, "fusion_lon": 0.0}, {"lat": 38.962256333333336, "is_disabled": 0, "type": "electric_bike", "lon": -77.02626866666667, "bike_id": "a51b36ab5e60b4806a49f48459e36ebb", "fusion_lat": 0.0, "name": "a51b36ab5e60b4806a49f48459e36ebb", "is_reserved": 0, "rental_uris": {"android": "https://dc.lft.to/lastmile_qr_scan", "ios": "https://dc.lft.to/lastmile_qr_scan"}, "fusion_lon": 0.0}, {"lat": 38.91645033333333, "is_disabled": 0, "type": "electric_scooter", "lon": -77.03840783333334, "bike_id": "7bbe61f724c8aeb5f098c067a8f2ed4b", "fusion_lat": 0.0, "name": "7bbe61f724c8aeb5f098c067a8f2ed4b", "is_reserved": 0, "rental_uris": {"android": "https://dc.lft.to/lastmile_qr_scan", "ios": "https://dc.lft.to/lastmile_qr_scan"}, "fusion_lon": 0.0}, {"lat": 39.0293085, "is_disabled": 0, "type": "electric_bike", "lon": -77.0492855, "bike_id": "2f969d49205e061a5c1be5cd147913bc", "fusion_lat": 0.0, "name": "2f969d49205e061a5c1be5cd147913bc", "is_reserved": 0, "rental_uris": {"android": "https://dc.lft.to/lastmile_qr_scan", "ios": "https://dc.lft.to/lastmile_qr_scan"}, "fusion_lon": 0.0}, {"lat": 38.92234966666667, "is_disabled": 0, "type": "electric_scooter", "lon": -77.042499, "bike_id": "6f6111c70267c0397e90f16db63ebb12", "fusion_lat": 0.0, "name": "6f6111c70267c0397e90f16db63ebb12", "is_reserved": 0, "rental_uris": {"android": "https://dc.lft.to/lastmile_qr_scan", "ios": "https://dc.lft.to/lastmile_qr_scan"}, "fusion_lon": 0.0}, {"lat": 38.89214716666667, "is_disabled": 0, "type": "electric_scooter", "lon": -76.99585233333333, "bike_id": "7c0b048e41c05604ae88d8e9ddf14acb", "fusion_lat": 0.0, "name": "7c0b048e41c05604ae88d8e9ddf14acb", "is_reserved": 0, "rental_uris": {"android": "https://dc.lft.to/lastmile_qr_scan", "ios": "https://dc.lft.to/lastmile_qr_scan"}, "fusion_lon": 0.0}, {"lat": 38.91345033333333, "is_disabled": 0, "type": "electric_scooter", "lon": -77.04343583333333, "bike_id": "a179ad01347cdae91b764d8b09b5c1d7", "fusion_lat": 0.0, "name": "a179ad01347cdae91b764d8b09b5c1d7", "is_reserved": 0, "rental_uris": {"android": "https://dc.lft.to/lastmile_qr_scan", "ios": "https://dc.lft.to/lastmile_qr_scan"}, "fusion_lon": 0.0}, {"lat": 38.93110733333333, "is_disabled": 0, "type": "electric_scooter", "lon": -77.03839483333333, "bike_id": "df2c8f51c5eb811f40dbc23fb3bab6fb", "fusion_lat": 0.0, "name": "df2c8f51c5eb811f40dbc23fb3bab6fb", "is_reserved": 0, "rental_uris": {"android": "https://dc.lft.to/lastmile_qr_scan", "ios": "https://dc.lft.to/lastmile_qr_scan"}, "fusion_lon": 0.0}, {"lat": 38.884890666666664, "is_disabled": 0, "type": "electric_scooter", "lon": -77.007146, "bike_id": "7c5d62854ca138e8221930e67161f10c", "fusion_lat": 0.0, "name": "7c5d62854ca138e8221930e67161f10c", "is_reserved": 0, "rental_uris": {"android": "https://dc.lft.to/lastmile_qr_scan", "ios": "https://dc.lft.to/lastmile_qr_scan"}, "fusion_lon": 0.0}, {"lat": 38.9155375, "is_disabled": 0, "type": "electric_scooter", "lon": -77.04185866666667, "bike_id": "8712d980e4dea322c9969dcd0c908225", "fusion_lat": 0.0, "name": "8712d980e4dea322c9969dcd0c908225", "is_reserved": 0, "rental_uris": {"android": "https://dc.lft.to/lastmile_qr_scan", "ios": "https://dc.lft.to/lastmile_qr_scan"}, "fusion_lon": 0.0}, {"lat": 38.9135445, "is_disabled": 0, "type": "electric_scooter", "lon": -77.033653, "bike_id": "1dd029e7bb9adeb035802b7d3c72567a", "fusion_lat": 0.0, "name": "1dd029e7bb9adeb035802b7d3c72567a", "is_reserved": 0, "rental_uris": {"android": "https://dc.lft.to/lastmile_qr_scan", "ios": "https://dc.lft.to/lastmile_qr_scan"}, "fusion_lon": 0.0}, {"lat": 38.900894666666666, "is_disabled": 0, "type": "electric_scooter", "lon": -77.05598416666666, "bike_id": "4bafca38f08056c295e35b92b40b8dba", "fusion_lat": 0.0, "name": "4bafca38f08056c295e35b92b40b8dba", "is_reserved": 0, "rental_uris": {"android": "https://dc.lft.to/lastmile_qr_scan", "ios": "https://dc.lft.to/lastmile_qr_scan"}, "fusion_lon": 0.0}, {"lat": 38.902181, "is_disabled": 0, "type": "electric_scooter", "lon": -77.05905166666666, "bike_id": "4b336a0f799aad7252a322ae24124dc4", "fusion_lat": 0.0, "name": "4b336a0f799aad7252a322ae24124dc4", "is_reserved": 0, "rental_uris": {"android": "https://dc.lft.to/lastmile_qr_scan", "ios": "https://dc.lft.to/lastmile_qr_scan"}, "fusion_lon": 0.0}, {"lat": 38.892200333333335, "is_disabled": 0, "type": "electric_scooter", "lon": -77.02211833333334, "bike_id": "0b6abf124c875b8c071e298fde183eef", "fusion_lat": 0.0, "name": "0b6abf124c875b8c071e298fde183eef", "is_reserved": 0, "rental_uris": {"android": "https://dc.lft.to/lastmile_qr_scan", "ios": "https://dc.lft.to/lastmile_qr_scan"}, "fusion_lon": 0.0}, {"lat": 38.91570216666667, "is_disabled": 0, "type": "electric_scooter", "lon": -77.02284166666666, "bike_id": "495e6020ff8c18325ed54e64c90c8af0", "fusion_lat": 0.0, "name": "495e6020ff8c18325ed54e64c90c8af0", "is_reserved": 0, "rental_uris": {"android": "https://dc.lft.to/lastmile_qr_scan", "ios": "https://dc.lft.to/lastmile_qr_scan"}, "fusion_lon": 0.0}, {"lat": 38.916002666666664, "is_disabled": 0, "type": "electric_scooter", "lon": -77.0320185, "bike_id": "55df1407570bc163b4acbf25e135cb94", "fusion_lat": 0.0, "name": "55df1407570bc163b4acbf25e135cb94", "is_reserved": 0, "rental_uris": {"android": "https://dc.lft.to/lastmile_qr_scan", "ios": "https://dc.lft.to/lastmile_qr_scan"}, "fusion_lon": 0.0}, {"lat": 38.909457333333336, "is_disabled": 0, "type": "electric_scooter", "lon": -77.03440933333333, "bike_id": "4de07e90f7ed71ed237aad573fd16655", "fusion_lat": 0.0, "name": "4de07e90f7ed71ed237aad573fd16655", "is_reserved": 0, "rental_uris": {"android": "https://dc.lft.to/lastmile_qr_scan", "ios": "https://dc.lft.to/lastmile_qr_scan"}, "fusion_lon": 0.0}, {"lat": 38.904829666666664, "is_disabled": 0, "type": "electric_scooter", "lon": -77.04846016666667, "bike_id": "dd1aeb6c2b25d66e0425fa27afdbe08e", "fusion_lat": 0.0, "name": "dd1aeb6c2b25d66e0425fa27afdbe08e", "is_reserved": 0, "rental_uris": {"android": "https://dc.lft.to/lastmile_qr_scan", "ios": "https://dc.lft.to/lastmile_qr_scan"}, "fusion_lon": 0.0}, {"lat": 38.900046, "is_disabled": 0, "type": "electric_scooter", "lon": -77.00672516666667, "bike_id": "3da90991b3459d8e013f3644accc88c5", "fusion_lat": 0.0, "name": "3da90991b3459d8e013f3644accc88c5", "is_reserved": 0, "rental_uris": {"android": "https://dc.lft.to/lastmile_qr_scan", "ios": "https://dc.lft.to/lastmile_qr_scan"}, "fusion_lon": 0.0}, {"lat": 38.91745066666667, "is_disabled": 0, "type": "electric_scooter", "lon": -77.035959, "bike_id": "c2530019d84bc929ec2bc8c738ee8503", "fusion_lat": 0.0, "name": "c2530019d84bc929ec2bc8c738ee8503", "is_reserved": 0, "rental_uris": {"android": "https://dc.lft.to/lastmile_qr_scan", "ios": "https://dc.lft.to/lastmile_qr_scan"}, "fusion_lon": 0.0}, {"lat": 38.94173216666667, "is_disabled": 0, "type": "electric_scooter", "lon": -77.02499783333333, "bike_id": "f750fe2298634d3499acabe4c056197a", "fusion_lat": 0.0, "name": "f750fe2298634d3499acabe4c056197a", "is_reserved": 0, "rental_uris": {"android": "https://dc.lft.to/lastmile_qr_scan", "ios": "https://dc.lft.to/lastmile_qr_scan"}, "fusion_lon": 0.0}, {"lat": 38.86505733333333, "is_disabled": 0, "type": "electric_scooter", "lon": -76.990041, "bike_id": "82a0add486a643773855b7d57ffe934a", "fusion_lat": 0.0, "name": "82a0add486a643773855b7d57ffe934a", "is_reserved": 0, "rental_uris": {"android": "https://dc.lft.to/lastmile_qr_scan", "ios": "https://dc.lft.to/lastmile_qr_scan"}, "fusion_lon": 0.0}, {"lat": 38.89222616666667, "is_disabled": 0, "type": "electric_scooter", "lon": -76.93299816666666, "bike_id": "2bc3dd5939fb3ff06d6449169bc27f39", "fusion_lat": 0.0, "name": "2bc3dd5939fb3ff06d6449169bc27f39", "is_reserved": 0, "rental_uris": {"android": "https://dc.lft.to/lastmile_qr_scan", "ios": "https://dc.lft.to/lastmile_qr_scan"}, "fusion_lon": 0.0}, {"lat": 38.90571533333333, "is_disabled": 0, "type": "electric_scooter", "lon": -77.002441, "bike_id": "ebf9909f7adf2b6f05056c7ad66709e5", "fusion_lat": 0.0, "name": "ebf9909f7adf2b6f05056c7ad66709e5", "is_reserved": 0, "rental_uris": {"android": "https://dc.lft.to/lastmile_qr_scan", "ios": "https://dc.lft.to/lastmile_qr_scan"}, "fusion_lon": 0.0}, {"lat": 38.940386833333335, "is_disabled": 0, "type": "electric_bike", "lon": -76.98821983333333, "bike_id": "1e8a94e8ef907885f39202a0452d861b", "fusion_lat": 0.0, "name": "1e8a94e8ef907885f39202a0452d861b", "is_reserved": 0, "rental_uris": {"android": "https://dc.lft.to/lastmile_qr_scan", "ios": "https://dc.lft.to/lastmile_qr_scan"}, "fusion_lon": 0.0}, {"lat": 38.9206875, "is_disabled": 0, "type": "electric_scooter", "lon": -77.02538966666667, "bike_id": "3ba81ef776a80af24cb5a1592bbe5ca1", "fusion_lat": 0.0, "name": "3ba81ef776a80af24cb5a1592bbe5ca1", "is_reserved": 0, "rental_uris": {"android": "https://dc.lft.to/lastmile_qr_scan", "ios": "https://dc.lft.to/lastmile_qr_scan"}, "fusion_lon": 0.0}, {"lat": 38.8006385, "is_disabled": 0, "type": "electric_bike", "lon": -77.07115433333334, "bike_id": "028a550f777a93698008fec83934bfd8", "fusion_lat": 0.0, "name": "028a550f777a93698008fec83934bfd8", "is_reserved": 0, "rental_uris": {"android": "https://dc.lft.to/lastmile_qr_scan", "ios": "https://dc.lft.to/lastmile_qr_scan"}, "fusion_lon": 0.0}, {"lat": 38.916618666666665, "is_disabled": 0, "type": "electric_bike", "lon": -77.04700116666666, "bike_id": "e531ca596029e885d48e5f9d8a741a43", "fusion_lat": 0.0, "name": "e531ca596029e885d48e5f9d8a741a43", "is_reserved": 0, "rental_uris": {"android": "https://dc.lft.to/lastmile_qr_scan", "ios": "https://dc.lft.to/lastmile_qr_scan"}, "fusion_lon": 0.0}, {"lat": 38.866529, "is_disabled": 0, "type": "electric_scooter", "lon": -76.98886516666667, "bike_id": "8ef503f83f0bb57540a12cd4316c1bea", "fusion_lat": 0.0, "name": "8ef503f83f0bb57540a12cd4316c1bea", "is_reserved": 0, "rental_uris": {"android": "https://dc.lft.to/lastmile_qr_scan", "ios": "https://dc.lft.to/lastmile_qr_scan"}, "fusion_lon": 0.0}, {"lat": 38.88498516666667, "is_disabled": 0, "type": "electric_scooter", "lon": -77.007043, "bike_id": "a369f847815c003a8477e9be38d0bb95", "fusion_lat": 0.0, "name": "a369f847815c003a8477e9be38d0bb95", "is_reserved": 0, "rental_uris": {"android": "https://dc.lft.to/lastmile_qr_scan", "ios": "https://dc.lft.to/lastmile_qr_scan"}, "fusion_lon": 0.0}, {"lat": 38.90845683333333, "is_disabled": 0, "type": "electric_scooter", "lon": -77.02059933333334, "bike_id": "11a1ff0e258b0d192749a335e72f1b5d", "fusion_lat": 0.0, "name": "11a1ff0e258b0d192749a335e72f1b5d", "is_reserved": 0, "rental_uris": {"android": "https://dc.lft.to/lastmile_qr_scan", "ios": "https://dc.lft.to/lastmile_qr_scan"}, "fusion_lon": 0.0}, {"lat": 38.9297325, "is_disabled": 0, "type": "electric_bike", "lon": -77.22583866666666, "bike_id": "b77f2e1da34899e90ec5c2c8d50c6180", "fusion_lat": 0.0, "name": "b77f2e1da34899e90ec5c2c8d50c6180", "is_reserved": 0, "rental_uris": {"android": "https://dc.lft.to/lastmile_qr_scan", "ios": "https://dc.lft.to/lastmile_qr_scan"}, "fusion_lon": 0.0}, {"lat": 38.912648833333336, "is_disabled": 0, "type": "electric_scooter", "lon": -77.01848133333333, "bike_id": "0789bef9b1f2a4a6a86386a721c708ad", "fusion_lat": 0.0, "name": "0789bef9b1f2a4a6a86386a721c708ad", "is_reserved": 0, "rental_uris": {"android": "https://dc.lft.to/lastmile_qr_scan", "ios": "https://dc.lft.to/lastmile_qr_scan"}, "fusion_lon": 0.0}, {"lat": 38.91426833333333, "is_disabled": 0, "type": "electric_scooter", "lon": -77.032039, "bike_id": "40a976ac2c6ff2e5547ad3dc62873ab4", "fusion_lat": 0.0, "name": "40a976ac2c6ff2e5547ad3dc62873ab4", "is_reserved": 0, "rental_uris": {"android": "https://dc.lft.to/lastmile_qr_scan", "ios": "https://dc.lft.to/lastmile_qr_scan"}, "fusion_lon": 0.0}, {"lat": 38.92854916666667, "is_disabled": 0, "type": "electric_scooter", "lon": -77.03659483333334, "bike_id": "f5ab229ccd55b6f50261aee62437844b", "fusion_lat": 0.0, "name": "f5ab229ccd55b6f50261aee62437844b", "is_reserved": 0, "rental_uris": {"android": "https://dc.lft.to/lastmile_qr_scan", "ios": "https://dc.lft.to/lastmile_qr_scan"}, "fusion_lon": 0.0}, {"lat": 38.901398, "is_disabled": 0, "type": "electric_scooter", "lon": -77.04177533333333, "bike_id": "bec7c6ed3b8aa290aaf7b9b7a04b6ee0", "fusion_lat": 0.0, "name": "bec7c6ed3b8aa290aaf7b9b7a04b6ee0", "is_reserved": 0, "rental_uris": {"android": "https://dc.lft.to/lastmile_qr_scan", "ios": "https://dc.lft.to/lastmile_qr_scan"}, "fusion_lon": 0.0}, {"lat": 38.91748883333333, "is_disabled": 0, "type": "electric_scooter", "lon": -77.02285066666667, "bike_id": "c53e9ca6754fb4e94c04d0d7d86cafce", "fusion_lat": 0.0, "name": "c53e9ca6754fb4e94c04d0d7d86cafce", "is_reserved": 0, "rental_uris": {"android": "https://dc.lft.to/lastmile_qr_scan", "ios": "https://dc.lft.to/lastmile_qr_scan"}, "fusion_lon": 0.0}, {"lat": 38.8976645, "is_disabled": 0, "type": "electric_scooter", "lon": -77.02689816666667, "bike_id": "ddf8b2970338e5eff3ce7b2c07f8b08b", "fusion_lat": 0.0, "name": "ddf8b2970338e5eff3ce7b2c07f8b08b", "is_reserved": 0, "rental_uris": {"android": "https://dc.lft.to/lastmile_qr_scan", "ios": "https://dc.lft.to/lastmile_qr_scan"}, "fusion_lon": 0.0}, {"lat": 38.929966666666665, "is_disabled": 0, "type": "electric_scooter", "lon": -77.03093966666667, "bike_id": "31019adea364a8620e8500c6cfd68ae2", "fusion_lat": 0.0, "name": "31019adea364a8620e8500c6cfd68ae2", "is_reserved": 0, "rental_uris": {"android": "https://dc.lft.to/lastmile_qr_scan", "ios": "https://dc.lft.to/lastmile_qr_scan"}, "fusion_lon": 0.0}, {"lat": 38.91682866666667, "is_disabled": 0, "type": "electric_scooter", "lon": -77.03757816666666, "bike_id": "25eb84b0e75bcab7e8208d96d37ef23c", "fusion_lat": 0.0, "name": "25eb84b0e75bcab7e8208d96d37ef23c", "is_reserved": 0, "rental_uris": {"android": "https://dc.lft.to/lastmile_qr_scan", "ios": "https://dc.lft.to/lastmile_qr_scan"}, "fusion_lon": 0.0}, {"lat": 38.879160666666664, "is_disabled": 0, "type": "electric_scooter", "lon": -76.99510183333334, "bike_id": "4c00e07b82b7c68febdb746a52e64f29", "fusion_lat": 0.0, "name": "4c00e07b82b7c68febdb746a52e64f29", "is_reserved": 0, "rental_uris": {"android": "https://dc.lft.to/lastmile_qr_scan", "ios": "https://dc.lft.to/lastmile_qr_scan"}, "fusion_lon": 0.0}, {"lat": 38.93060716666667, "is_disabled": 0, "type": "electric_scooter", "lon": -77.04024866666667, "bike_id": "1c20d5f6ccf1562ef854bc13a76716b3", "fusion_lat": 0.0, "name": "1c20d5f6ccf1562ef854bc13a76716b3", "is_reserved": 0, "rental_uris": {"android": "https://dc.lft.to/lastmile_qr_scan", "ios": "https://dc.lft.to/lastmile_qr_scan"}, "fusion_lon": 0.0}, {"lat": 38.920662666666665, "is_disabled": 0, "type": "electric_scooter", "lon": -77.03188866666666, "bike_id": "40641151fd8016d55fa30fd6d3280ed9", "fusion_lat": 0.0, "name": "40641151fd8016d55fa30fd6d3280ed9", "is_reserved": 0, "rental_uris": {"android": "https://dc.lft.to/lastmile_qr_scan", "ios": "https://dc.lft.to/lastmile_qr_scan"}, "fusion_lon": 0.0}, {"lat": 38.90721816666667, "is_disabled": 0, "type": "electric_scooter", "lon": -77.016814, "bike_id": "d8631530f0079c2e38dc16263b449722", "fusion_lat": 0.0, "name": "d8631530f0079c2e38dc16263b449722", "is_reserved": 0, "rental_uris": {"android": "https://dc.lft.to/lastmile_qr_scan", "ios": "https://dc.lft.to/lastmile_qr_scan"}, "fusion_lon": 0.0}, {"lat": 38.90863733333333, "is_disabled": 0, "type": "electric_scooter", "lon": -77.03549733333334, "bike_id": "50f03c2adf2ab48565bebd8ecbb97aa9", "fusion_lat": 0.0, "name": "50f03c2adf2ab48565bebd8ecbb97aa9", "is_reserved": 0, "rental_uris": {"android": "https://dc.lft.to/lastmile_qr_scan", "ios": "https://dc.lft.to/lastmile_qr_scan"}, "fusion_lon": 0.0}, {"lat": 38.90578466666667, "is_disabled": 0, "type": "electric_scooter", "lon": -77.00588, "bike_id": "a65fd148bce7cc29e6de6b3dcc72f37a", "fusion_lat": 0.0, "name": "a65fd148bce7cc29e6de6b3dcc72f37a", "is_reserved": 0, "rental_uris": {"android": "https://dc.lft.to/lastmile_qr_scan", "ios": "https://dc.lft.to/lastmile_qr_scan"}, "fusion_lon": 0.0}, {"lat": 38.85207666666667, "is_disabled": 0, "type": "electric_bike", "lon": -77.10128816666666, "bike_id": "eb55281b838a05ab1ba45b765b691753", "fusion_lat": 0.0, "name": "eb55281b838a05ab1ba45b765b691753", "is_reserved": 0, "rental_uris": {"android": "https://dc.lft.to/lastmile_qr_scan", "ios": "https://dc.lft.to/lastmile_qr_scan"}, "fusion_lon": 0.0}, {"lat": 38.899653666666666, "is_disabled": 0, "type": "electric_scooter", "lon": -77.02554266666667, "bike_id": "c1fdb755fa6185a1d7ecfa83361ac758", "fusion_lat": 0.0, "name": "c1fdb755fa6185a1d7ecfa83361ac758", "is_reserved": 0, "rental_uris": {"android": "https://dc.lft.to/lastmile_qr_scan", "ios": "https://dc.lft.to/lastmile_qr_scan"}, "fusion_lon": 0.0}, {"lat": 38.9348565, "is_disabled": 0, "type": "electric_bike", "lon": -77.030138, "bike_id": "4af2e6b58ab43724c14017dd250a4155", "fusion_lat": 0.0, "name": "4af2e6b58ab43724c14017dd250a4155", "is_reserved": 0, "rental_uris": {"android": "https://dc.lft.to/lastmile_qr_scan", "ios": "https://dc.lft.to/lastmile_qr_scan"}, "fusion_lon": 0.0}, {"lat": 38.88400733333334, "is_disabled": 0, "type": "electric_bike", "lon": -76.960682, "bike_id": "c51cabd80f9a366de4b28421abed73e8", "fusion_lat": 0.0, "name": "c51cabd80f9a366de4b28421abed73e8", "is_reserved": 0, "rental_uris": {"android": "https://dc.lft.to/lastmile_qr_scan", "ios": "https://dc.lft.to/lastmile_qr_scan"}, "fusion_lon": 0.0}, {"lat": 38.91183816666667, "is_disabled": 0, "type": "electric_scooter", "lon": -77.04023083333334, "bike_id": "fd42c30fdfa88313f833665087a94300", "fusion_lat": 0.0, "name": "fd42c30fdfa88313f833665087a94300", "is_reserved": 0, "rental_uris": {"android": "https://dc.lft.to/lastmile_qr_scan", "ios": "https://dc.lft.to/lastmile_qr_scan"}, "fusion_lon": 0.0}, {"lat": 38.89874566666667, "is_disabled": 0, "type": "electric_scooter", "lon": -76.93184983333333, "bike_id": "dd9f4240f1662f49780e9f4d08a0cfcf", "fusion_lat": 0.0, "name": "dd9f4240f1662f49780e9f4d08a0cfcf", "is_reserved": 0, "rental_uris": {"android": "https://dc.lft.to/lastmile_qr_scan", "ios": "https://dc.lft.to/lastmile_qr_scan"}, "fusion_lon": 0.0}, {"lat": 38.901923833333335, "is_disabled": 0, "type": "electric_scooter", "lon": -77.021835, "bike_id": "f7b9f1a745de5f34d12ac059577fc9c7", "fusion_lat": 0.0, "name": "f7b9f1a745de5f34d12ac059577fc9c7", "is_reserved": 0, "rental_uris": {"android": "https://dc.lft.to/lastmile_qr_scan", "ios": "https://dc.lft.to/lastmile_qr_scan"}, "fusion_lon": 0.0}, {"lat": 38.87919333333333, "is_disabled": 0, "type": "electric_scooter", "lon": -77.0309945, "bike_id": "089640f930e80ae2b48025d627c15d71", "fusion_lat": 0.0, "name": "089640f930e80ae2b48025d627c15d71", "is_reserved": 0, "rental_uris": {"android": "https://dc.lft.to/lastmile_qr_scan", "ios": "https://dc.lft.to/lastmile_qr_scan"}, "fusion_lon": 0.0}, {"lat": 38.90274216666667, "is_disabled": 0, "type": "electric_scooter", "lon": -77.0385475, "bike_id": "faea635e51892ced8b75323de25ec983", "fusion_lat": 0.0, "name": "faea635e51892ced8b75323de25ec983", "is_reserved": 0, "rental_uris": {"android": "https://dc.lft.to/lastmile_qr_scan", "ios": "https://dc.lft.to/lastmile_qr_scan"}, "fusion_lon": 0.0}, {"lat": 38.97089733333333, "is_disabled": 0, "type": "electric_bike", "lon": -77.069664, "bike_id": "7580ac26723dd29b5d0b3ea7283d7a36", "fusion_lat": 0.0, "name": "7580ac26723dd29b5d0b3ea7283d7a36", "is_reserved": 0, "rental_uris": {"android": "https://dc.lft.to/lastmile_qr_scan", "ios": "https://dc.lft.to/lastmile_qr_scan"}, "fusion_lon": 0.0}, {"lat": 38.9081725, "is_disabled": 0, "type": "electric_scooter", "lon": -77.04341916666667, "bike_id": "07bfd4a902c0a0afeb61828ecc6df52c", "fusion_lat": 0.0, "name": "07bfd4a902c0a0afeb61828ecc6df52c", "is_reserved": 0, "rental_uris": {"android": "https://dc.lft.to/lastmile_qr_scan", "ios": "https://dc.lft.to/lastmile_qr_scan"}, "fusion_lon": 0.0}, {"lat": 38.8921805, "is_disabled": 0, "type": "electric_scooter", "lon": -77.0222445, "bike_id": "bd062e59c42e1b5b3b61109e33825581", "fusion_lat": 0.0, "name": "bd062e59c42e1b5b3b61109e33825581", "is_reserved": 0, "rental_uris": {"android": "https://dc.lft.to/lastmile_qr_scan", "ios": "https://dc.lft.to/lastmile_qr_scan"}, "fusion_lon": 0.0}, {"lat": 38.86828783333333, "is_disabled": 0, "type": "electric_scooter", "lon": -76.97740116666667, "bike_id": "8b787f6a1bb69f1c630ecb9be4dfc813", "fusion_lat": 0.0, "name": "8b787f6a1bb69f1c630ecb9be4dfc813", "is_reserved": 0, "rental_uris": {"android": "https://dc.lft.to/lastmile_qr_scan", "ios": "https://dc.lft.to/lastmile_qr_scan"}, "fusion_lon": 0.0}, {"lat": 38.88739116666667, "is_disabled": 0, "type": "electric_scooter", "lon": -77.022081, "bike_id": "e4fc487be76dd8519a53a4de4bc20ce7", "fusion_lat": 0.0, "name": "e4fc487be76dd8519a53a4de4bc20ce7", "is_reserved": 0, "rental_uris": {"android": "https://dc.lft.to/lastmile_qr_scan", "ios": "https://dc.lft.to/lastmile_qr_scan"}, "fusion_lon": 0.0}, {"lat": 38.89223966666667, "is_disabled": 0, "type": "electric_scooter", "lon": -77.043691, "bike_id": "a0185cd9d505ed6a37c0fbc2c4d228cb", "fusion_lat": 0.0, "name": "a0185cd9d505ed6a37c0fbc2c4d228cb", "is_reserved": 0, "rental_uris": {"android": "https://dc.lft.to/lastmile_qr_scan", "ios": "https://dc.lft.to/lastmile_qr_scan"}, "fusion_lon": 0.0}, {"lat": 38.900779666666665, "is_disabled": 0, "type": "electric_scooter", "lon": -77.05054716666666, "bike_id": "950a31a336bd7fe92a007cd491c1a022", "fusion_lat": 0.0, "name": "950a31a336bd7fe92a007cd491c1a022", "is_reserved": 0, "rental_uris": {"android": "https://dc.lft.to/lastmile_qr_scan", "ios": "https://dc.lft.to/lastmile_qr_scan"}, "fusion_lon": 0.0}, {"lat": 38.91621983333334, "is_disabled": 0, "type": "electric_scooter", "lon": -77.048701, "bike_id": "255bbb2e7ed6e7799e59da2782f739f9", "fusion_lat": 0.0, "name": "255bbb2e7ed6e7799e59da2782f739f9", "is_reserved": 0, "rental_uris": {"android": "https://dc.lft.to/lastmile_qr_scan", "ios": "https://dc.lft.to/lastmile_qr_scan"}, "fusion_lon": 0.0}, {"lat": 38.90633716666667, "is_disabled": 0, "type": "electric_scooter", "lon": -77.02492183333334, "bike_id": "299d492810d8441d9fbd1794f0733878", "fusion_lat": 0.0, "name": "299d492810d8441d9fbd1794f0733878", "is_reserved": 0, "rental_uris": {"android": "https://dc.lft.to/lastmile_qr_scan", "ios": "https://dc.lft.to/lastmile_qr_scan"}, "fusion_lon": 0.0}, {"lat": 38.92466433333333, "is_disabled": 0, "type": "electric_scooter", "lon": -77.0271445, "bike_id": "989f7de50e38bcd22230f1838717102b", "fusion_lat": 0.0, "name": "989f7de50e38bcd22230f1838717102b", "is_reserved": 0, "rental_uris": {"android": "https://dc.lft.to/lastmile_qr_scan", "ios": "https://dc.lft.to/lastmile_qr_scan"}, "fusion_lon": 0.0}, {"lat": 38.9125675, "is_disabled": 0, "type": "electric_scooter", "lon": -77.03866883333333, "bike_id": "b83e230ae3949b2e099393b7914304fc", "fusion_lat": 0.0, "name": "b83e230ae3949b2e099393b7914304fc", "is_reserved": 0, "rental_uris": {"android": "https://dc.lft.to/lastmile_qr_scan", "ios": "https://dc.lft.to/lastmile_qr_scan"}, "fusion_lon": 0.0}, {"lat": 38.928511, "is_disabled": 0, "type": "electric_scooter", "lon": -77.033384, "bike_id": "11538ac3b7cdc194567202e6ac772077", "fusion_lat": 0.0, "name": "11538ac3b7cdc194567202e6ac772077", "is_reserved": 0, "rental_uris": {"android": "https://dc.lft.to/lastmile_qr_scan", "ios": "https://dc.lft.to/lastmile_qr_scan"}, "fusion_lon": 0.0}, {"lat": 38.91631133333333, "is_disabled": 0, "type": "electric_scooter", "lon": -77.03274333333333, "bike_id": "83beaee619b2838551e0aa2c7681bdb4", "fusion_lat": 0.0, "name": "83beaee619b2838551e0aa2c7681bdb4", "is_reserved": 0, "rental_uris": {"android": "https://dc.lft.to/lastmile_qr_scan", "ios": "https://dc.lft.to/lastmile_qr_scan"}, "fusion_lon": 0.0}, {"lat": 38.914248, "is_disabled": 0, "type": "electric_scooter", "lon": -77.04647333333334, "bike_id": "f37f30bf04128f59441816e337fd9ea9", "fusion_lat": 0.0, "name": "f37f30bf04128f59441816e337fd9ea9", "is_reserved": 0, "rental_uris": {"android": "https://dc.lft.to/lastmile_qr_scan", "ios": "https://dc.lft.to/lastmile_qr_scan"}, "fusion_lon": 0.0}, {"lat": 38.916108, "is_disabled": 0, "type": "electric_bike", "lon": -77.00285766666667, "bike_id": "5b29449b5a83494f826a0c3a373d065a", "fusion_lat": 0.0, "name": "5b29449b5a83494f826a0c3a373d065a", "is_reserved": 0, "rental_uris": {"android": "https://dc.lft.to/lastmile_qr_scan", "ios": "https://dc.lft.to/lastmile_qr_scan"}, "fusion_lon": 0.0}, {"lat": 38.892247833333336, "is_disabled": 0, "type": "electric_scooter", "lon": -77.03161633333333, "bike_id": "30f5e2aef26a8dda97d69b02dbe62bcc", "fusion_lat": 0.0, "name": "30f5e2aef26a8dda97d69b02dbe62bcc", "is_reserved": 0, "rental_uris": {"android": "https://dc.lft.to/lastmile_qr_scan", "ios": "https://dc.lft.to/lastmile_qr_scan"}, "fusion_lon": 0.0}, {"lat": 38.8714235, "is_disabled": 0, "type": "electric_bike", "lon": -76.93703016666667, "bike_id": "c2b92fcad8ab193cf2d68f4031dc7a8d", "fusion_lat": 0.0, "name": "c2b92fcad8ab193cf2d68f4031dc7a8d", "is_reserved": 0, "rental_uris": {"android": "https://dc.lft.to/lastmile_qr_scan", "ios": "https://dc.lft.to/lastmile_qr_scan"}, "fusion_lon": 0.0}, {"lat": 38.9072925, "is_disabled": 0, "type": "electric_scooter", "lon": -76.99683983333334, "bike_id": "51b3327a2f1f6bc0e6d5add51731180f", "fusion_lat": 0.0, "name": "51b3327a2f1f6bc0e6d5add51731180f", "is_reserved": 0, "rental_uris": {"android": "https://dc.lft.to/lastmile_qr_scan", "ios": "https://dc.lft.to/lastmile_qr_scan"}, "fusion_lon": 0.0}, {"lat": 38.906189499999996, "is_disabled": 0, "type": "electric_scooter", "lon": -77.02187783333333, "bike_id": "a0a2bc04b4339945df9a7d7d5bd665f6", "fusion_lat": 0.0, "name": "a0a2bc04b4339945df9a7d7d5bd665f6", "is_reserved": 0, "rental_uris": {"android": "https://dc.lft.to/lastmile_qr_scan", "ios": "https://dc.lft.to/lastmile_qr_scan"}, "fusion_lon": 0.0}, {"lat": 38.8874085, "is_disabled": 0, "type": "electric_scooter", "lon": -77.02206316666667, "bike_id": "1044cc85da953e55590c1196310e70a1", "fusion_lat": 0.0, "name": "1044cc85da953e55590c1196310e70a1", "is_reserved": 0, "rental_uris": {"android": "https://dc.lft.to/lastmile_qr_scan", "ios": "https://dc.lft.to/lastmile_qr_scan"}, "fusion_lon": 0.0}, {"lat": 38.923615166666664, "is_disabled": 0, "type": "electric_scooter", "lon": -77.0512955, "bike_id": "190ec8a0bf09bc6ee70e4e34799979e8", "fusion_lat": 0.0, "name": "190ec8a0bf09bc6ee70e4e34799979e8", "is_reserved": 0, "rental_uris": {"android": "https://dc.lft.to/lastmile_qr_scan", "ios": "https://dc.lft.to/lastmile_qr_scan"}, "fusion_lon": 0.0}, {"lat": 38.8939165, "is_disabled": 0, "type": "electric_scooter", "lon": -76.94994033333333, "bike_id": "b491633d1b352741c498f9f24a4c9411", "fusion_lat": 0.0, "name": "b491633d1b352741c498f9f24a4c9411", "is_reserved": 0, "rental_uris": {"android": "https://dc.lft.to/lastmile_qr_scan", "ios": "https://dc.lft.to/lastmile_qr_scan"}, "fusion_lon": 0.0}, {"lat": 38.9156045, "is_disabled": 0, "type": "electric_scooter", "lon": -77.0200685, "bike_id": "003c2654b5dab573bc0115b2abd29179", "fusion_lat": 0.0, "name": "003c2654b5dab573bc0115b2abd29179", "is_reserved": 0, "rental_uris": {"android": "https://dc.lft.to/lastmile_qr_scan", "ios": "https://dc.lft.to/lastmile_qr_scan"}, "fusion_lon": 0.0}, {"lat": 38.944252666666664, "is_disabled": 0, "type": "electric_scooter", "lon": -77.0634015, "bike_id": "1bff6c591942e9733920ee9ea7bdf90d", "fusion_lat": 0.0, "name": "1bff6c591942e9733920ee9ea7bdf90d", "is_reserved": 0, "rental_uris": {"android": "https://dc.lft.to/lastmile_qr_scan", "ios": "https://dc.lft.to/lastmile_qr_scan"}, "fusion_lon": 0.0}, {"lat": 38.954156166666664, "is_disabled": 0, "type": "electric_bike", "lon": -76.98066933333334, "bike_id": "7b870d1c20a1832ed0e1b574ca2fb5ac", "fusion_lat": 0.0, "name": "7b870d1c20a1832ed0e1b574ca2fb5ac", "is_reserved": 0, "rental_uris": {"android": "https://dc.lft.to/lastmile_qr_scan", "ios": "https://dc.lft.to/lastmile_qr_scan"}, "fusion_lon": 0.0}, {"lat": 38.91912133333334, "is_disabled": 0, "type": "electric_scooter", "lon": -77.0259385, "bike_id": "e7c6109e98cca3d105cac3f48c25c720", "fusion_lat": 0.0, "name": "e7c6109e98cca3d105cac3f48c25c720", "is_reserved": 0, "rental_uris": {"android": "https://dc.lft.to/lastmile_qr_scan", "ios": "https://dc.lft.to/lastmile_qr_scan"}, "fusion_lon": 0.0}, {"lat": 38.90501166666667, "is_disabled": 0, "type": "electric_scooter", "lon": -77.02949016666666, "bike_id": "98ddcd9345647740dc24896823064b50", "fusion_lat": 0.0, "name": "98ddcd9345647740dc24896823064b50", "is_reserved": 0, "rental_uris": {"android": "https://dc.lft.to/lastmile_qr_scan", "ios": "https://dc.lft.to/lastmile_qr_scan"}, "fusion_lon": 0.0}, {"lat": 38.90670083333333, "is_disabled": 0, "type": "electric_scooter", "lon": -77.038272, "bike_id": "cb92034e8e9c9328ebc6be264d2456fe", "fusion_lat": 0.0, "name": "cb92034e8e9c9328ebc6be264d2456fe", "is_reserved": 0, "rental_uris": {"android": "https://dc.lft.to/lastmile_qr_scan", "ios": "https://dc.lft.to/lastmile_qr_scan"}, "fusion_lon": 0.0}, {"lat": 38.92236716666667, "is_disabled": 0, "type": "electric_scooter", "lon": -77.045717, "bike_id": "f140bda4ff7b63803420c13efe0bd0d9", "fusion_lat": 0.0, "name": "f140bda4ff7b63803420c13efe0bd0d9", "is_reserved": 0, "rental_uris": {"android": "https://dc.lft.to/lastmile_qr_scan", "ios": "https://dc.lft.to/lastmile_qr_scan"}, "fusion_lon": 0.0}, {"lat": 38.919320166666665, "is_disabled": 0, "type": "electric_scooter", "lon": -77.02305816666667, "bike_id": "5b8a46a414279a84e134f94b438507a8", "fusion_lat": 0.0, "name": "5b8a46a414279a84e134f94b438507a8", "is_reserved": 0, "rental_uris": {"android": "https://dc.lft.to/lastmile_qr_scan", "ios": "https://dc.lft.to/lastmile_qr_scan"}, "fusion_lon": 0.0}, {"lat": 38.9190995, "is_disabled": 0, "type": "electric_scooter", "lon": -77.07060333333334, "bike_id": "975b42bf5b883eddae8591847741ceaa", "fusion_lat": 0.0, "name": "975b42bf5b883eddae8591847741ceaa", "is_reserved": 0, "rental_uris": {"android": "https://dc.lft.to/lastmile_qr_scan", "ios": "https://dc.lft.to/lastmile_qr_scan"}, "fusion_lon": 0.0}, {"lat": 38.899696, "is_disabled": 0, "type": "electric_scooter", "lon": -77.00711566666666, "bike_id": "52ef16194b75ed2539ead0b4dedcc350", "fusion_lat": 0.0, "name": "52ef16194b75ed2539ead0b4dedcc350", "is_reserved": 0, "rental_uris": {"android": "https://dc.lft.to/lastmile_qr_scan", "ios": "https://dc.lft.to/lastmile_qr_scan"}, "fusion_lon": 0.0}, {"lat": 38.85032783333333, "is_disabled": 0, "type": "electric_bike", "lon": -76.97290866666667, "bike_id": "ae78a046ee00570af6ebef6613565ef5", "fusion_lat": 0.0, "name": "ae78a046ee00570af6ebef6613565ef5", "is_reserved": 0, "rental_uris": {"android": "https://dc.lft.to/lastmile_qr_scan", "ios": "https://dc.lft.to/lastmile_qr_scan"}, "fusion_lon": 0.0}, {"lat": 38.8921875, "is_disabled": 0, "type": "electric_scooter", "lon": -77.04366533333334, "bike_id": "7b08ed788347676925e1851af0c67ce8", "fusion_lat": 0.0, "name": "7b08ed788347676925e1851af0c67ce8", "is_reserved": 0, "rental_uris": {"android": "https://dc.lft.to/lastmile_qr_scan", "ios": "https://dc.lft.to/lastmile_qr_scan"}, "fusion_lon": 0.0}, {"lat": 38.892204166666666, "is_disabled": 0, "type": "electric_scooter", "lon": -77.04201616666667, "bike_id": "b87aa84624cd414aa69d713a3ff02453", "fusion_lat": 0.0, "name": "b87aa84624cd414aa69d713a3ff02453", "is_reserved": 0, "rental_uris": {"android": "https://dc.lft.to/lastmile_qr_scan", "ios": "https://dc.lft.to/lastmile_qr_scan"}, "fusion_lon": 0.0}, {"lat": 38.897159333333335, "is_disabled": 0, "type": "electric_scooter", "lon": -77.00797733333333, "bike_id": "99ceb2d282a34fe8e83760f192c72988", "fusion_lat": 0.0, "name": "99ceb2d282a34fe8e83760f192c72988", "is_reserved": 0, "rental_uris": {"android": "https://dc.lft.to/lastmile_qr_scan", "ios": "https://dc.lft.to/lastmile_qr_scan"}, "fusion_lon": 0.0}, {"lat": 38.926116666666665, "is_disabled": 0, "type": "electric_scooter", "lon": -77.0215925, "bike_id": "e36723fc280165c1ecaa2ee1884694e3", "fusion_lat": 0.0, "name": "e36723fc280165c1ecaa2ee1884694e3", "is_reserved": 0, "rental_uris": {"android": "https://dc.lft.to/lastmile_qr_scan", "ios": "https://dc.lft.to/lastmile_qr_scan"}, "fusion_lon": 0.0}, {"lat": 38.90822683333333, "is_disabled": 0, "type": "electric_scooter", "lon": -77.01849533333333, "bike_id": "b6c4148f69f7879c4e392347b1f936da", "fusion_lat": 0.0, "name": "b6c4148f69f7879c4e392347b1f936da", "is_reserved": 0, "rental_uris": {"android": "https://dc.lft.to/lastmile_qr_scan", "ios": "https://dc.lft.to/lastmile_qr_scan"}, "fusion_lon": 0.0}, {"lat": 38.902527666666664, "is_disabled": 0, "type": "electric_scooter", "lon": -77.05275983333334, "bike_id": "eeaf8bce6dee9d1e3d53ca1691fae627", "fusion_lat": 0.0, "name": "eeaf8bce6dee9d1e3d53ca1691fae627", "is_reserved": 0, "rental_uris": {"android": "https://dc.lft.to/lastmile_qr_scan", "ios": "https://dc.lft.to/lastmile_qr_scan"}, "fusion_lon": 0.0}, {"lat": 38.905331, "is_disabled": 0, "type": "electric_scooter", "lon": -77.05769116666667, "bike_id": "71ba9eee697f0c889b66c4fb91cf5567", "fusion_lat": 0.0, "name": "71ba9eee697f0c889b66c4fb91cf5567", "is_reserved": 0, "rental_uris": {"android": "https://dc.lft.to/lastmile_qr_scan", "ios": "https://dc.lft.to/lastmile_qr_scan"}, "fusion_lon": 0.0}, {"lat": 38.91754233333333, "is_disabled": 0, "type": "electric_scooter", "lon": -77.0441385, "bike_id": "4cf54d1b43bfe0ced16b41d856b38a76", "fusion_lat": 0.0, "name": "4cf54d1b43bfe0ced16b41d856b38a76", "is_reserved": 0, "rental_uris": {"android": "https://dc.lft.to/lastmile_qr_scan", "ios": "https://dc.lft.to/lastmile_qr_scan"}, "fusion_lon": 0.0}, {"lat": 38.85951466666667, "is_disabled": 0, "type": "electric_scooter", "lon": -76.99143433333333, "bike_id": "589cdace9a7e978f8120e201f35ad077", "fusion_lat": 0.0, "name": "589cdace9a7e978f8120e201f35ad077", "is_reserved": 0, "rental_uris": {"android": "https://dc.lft.to/lastmile_qr_scan", "ios": "https://dc.lft.to/lastmile_qr_scan"}, "fusion_lon": 0.0}, {"lat": 38.933543666666665, "is_disabled": 0, "type": "electric_scooter", "lon": -77.02495016666667, "bike_id": "3c219a39ff1e58c3eb2a4706f028ffcb", "fusion_lat": 0.0, "name": "3c219a39ff1e58c3eb2a4706f028ffcb", "is_reserved": 0, "rental_uris": {"android": "https://dc.lft.to/lastmile_qr_scan", "ios": "https://dc.lft.to/lastmile_qr_scan"}, "fusion_lon": 0.0}, {"lat": 38.92345266666667, "is_disabled": 0, "type": "electric_scooter", "lon": -77.0244965, "bike_id": "260adbcad3bdefc78f5af59d6a299518", "fusion_lat": 0.0, "name": "260adbcad3bdefc78f5af59d6a299518", "is_reserved": 0, "rental_uris": {"android": "https://dc.lft.to/lastmile_qr_scan", "ios": "https://dc.lft.to/lastmile_qr_scan"}, "fusion_lon": 0.0}, {"lat": 38.80268933333333, "is_disabled": 0, "type": "electric_bike", "lon": -77.08112866666667, "bike_id": "59902ef43785024a1ee7eb8bca020a98", "fusion_lat": 0.0, "name": "59902ef43785024a1ee7eb8bca020a98", "is_reserved": 0, "rental_uris": {"android": "https://dc.lft.to/lastmile_qr_scan", "ios": "https://dc.lft.to/lastmile_qr_scan"}, "fusion_lon": 0.0}, {"lat": 38.902343, "is_disabled": 0, "type": "electric_scooter", "lon": -77.01970266666666, "bike_id": "7744612b93fc7392a68dc6efb78fbae8", "fusion_lat": 0.0, "name": "7744612b93fc7392a68dc6efb78fbae8", "is_reserved": 0, "rental_uris": {"android": "https://dc.lft.to/lastmile_qr_scan", "ios": "https://dc.lft.to/lastmile_qr_scan"}, "fusion_lon": 0.0}, {"lat": 39.003829333333336, "is_disabled": 0, "type": "electric_bike", "lon": -77.01285683333333, "bike_id": "85d10052bb609ad8252ebdd6b36e3cb0", "fusion_lat": 0.0, "name": "85d10052bb609ad8252ebdd6b36e3cb0", "is_reserved": 0, "rental_uris": {"android": "https://dc.lft.to/lastmile_qr_scan", "ios": "https://dc.lft.to/lastmile_qr_scan"}, "fusion_lon": 0.0}, {"lat": 38.901628, "is_disabled": 0, "type": "electric_scooter", "lon": -76.99852616666666, "bike_id": "67e8f1b2accea06f9ac425cb86bcc7aa", "fusion_lat": 0.0, "name": "67e8f1b2accea06f9ac425cb86bcc7aa", "is_reserved": 0, "rental_uris": {"android": "https://dc.lft.to/lastmile_qr_scan", "ios": "https://dc.lft.to/lastmile_qr_scan"}, "fusion_lon": 0.0}, {"lat": 38.9127855, "is_disabled": 0, "type": "electric_scooter", "lon": -77.045122, "bike_id": "a9ee7f01aad10edcd9e7d47e42dbd4de", "fusion_lat": 0.0, "name": "a9ee7f01aad10edcd9e7d47e42dbd4de", "is_reserved": 0, "rental_uris": {"android": "https://dc.lft.to/lastmile_qr_scan", "ios": "https://dc.lft.to/lastmile_qr_scan"}, "fusion_lon": 0.0}, {"lat": 38.9098375, "is_disabled": 0, "type": "electric_scooter", "lon": -77.03189383333333, "bike_id": "829a6a99e7bd34f8e798b7ea794f41f6", "fusion_lat": 0.0, "name": "829a6a99e7bd34f8e798b7ea794f41f6", "is_reserved": 0, "rental_uris": {"android": "https://dc.lft.to/lastmile_qr_scan", "ios": "https://dc.lft.to/lastmile_qr_scan"}, "fusion_lon": 0.0}, {"lat": 38.92157616666667, "is_disabled": 0, "type": "electric_scooter", "lon": -77.020806, "bike_id": "ec310f0c6cd3b6e487ff5886023a8cbc", "fusion_lat": 0.0, "name": "ec310f0c6cd3b6e487ff5886023a8cbc", "is_reserved": 0, "rental_uris": {"android": "https://dc.lft.to/lastmile_qr_scan", "ios": "https://dc.lft.to/lastmile_qr_scan"}, "fusion_lon": 0.0}, {"lat": 38.923613833333334, "is_disabled": 0, "type": "electric_scooter", "lon": -77.0512925, "bike_id": "cf811ddea629895dd7e176a436b34142", "fusion_lat": 0.0, "name": "cf811ddea629895dd7e176a436b34142", "is_reserved": 0, "rental_uris": {"android": "https://dc.lft.to/lastmile_qr_scan", "ios": "https://dc.lft.to/lastmile_qr_scan"}, "fusion_lon": 0.0}, {"lat": 38.910078166666665, "is_disabled": 0, "type": "electric_scooter", "lon": -77.02164216666667, "bike_id": "e494ea6eb3b83882f25b2978b8827251", "fusion_lat": 0.0, "name": "e494ea6eb3b83882f25b2978b8827251", "is_reserved": 0, "rental_uris": {"android": "https://dc.lft.to/lastmile_qr_scan", "ios": "https://dc.lft.to/lastmile_qr_scan"}, "fusion_lon": 0.0}, {"lat": 38.903409833333335, "is_disabled": 0, "type": "electric_scooter", "lon": -77.044369, "bike_id": "137a265f9ea341d3dbb6e00a16cce894", "fusion_lat": 0.0, "name": "137a265f9ea341d3dbb6e00a16cce894", "is_reserved": 0, "rental_uris": {"android": "https://dc.lft.to/lastmile_qr_scan", "ios": "https://dc.lft.to/lastmile_qr_scan"}, "fusion_lon": 0.0}, {"lat": 38.919261, "is_disabled": 0, "type": "electric_scooter", "lon": -77.03187283333334, "bike_id": "86701fa3544281c8cd18cd16c8986a78", "fusion_lat": 0.0, "name": "86701fa3544281c8cd18cd16c8986a78", "is_reserved": 0, "rental_uris": {"android": "https://dc.lft.to/lastmile_qr_scan", "ios": "https://dc.lft.to/lastmile_qr_scan"}, "fusion_lon": 0.0}, {"lat": 38.926097, "is_disabled": 0, "type": "electric_scooter", "lon": -77.0414615, "bike_id": "969f9d8025d04ae18b5a7241514b9ab7", "fusion_lat": 0.0, "name": "969f9d8025d04ae18b5a7241514b9ab7", "is_reserved": 0, "rental_uris": {"android": "https://dc.lft.to/lastmile_qr_scan", "ios": "https://dc.lft.to/lastmile_qr_scan"}, "fusion_lon": 0.0}, {"lat": 38.90267033333333, "is_disabled": 0, "type": "electric_scooter", "lon": -77.039596, "bike_id": "a256e57832527dc0c67845faf5907fa5", "fusion_lat": 0.0, "name": "a256e57832527dc0c67845faf5907fa5", "is_reserved": 0, "rental_uris": {"android": "https://dc.lft.to/lastmile_qr_scan", "ios": "https://dc.lft.to/lastmile_qr_scan"}, "fusion_lon": 0.0}, {"lat": 38.933578, "is_disabled": 0, "type": "electric_bike", "lon": -77.0996265, "bike_id": "c7bf9e97d80ef916f2eb65598aaba148", "fusion_lat": 0.0, "name": "c7bf9e97d80ef916f2eb65598aaba148", "is_reserved": 0, "rental_uris": {"android": "https://dc.lft.to/lastmile_qr_scan", "ios": "https://dc.lft.to/lastmile_qr_scan"}, "fusion_lon": 0.0}, {"lat": 38.91681883333333, "is_disabled": 0, "type": "electric_scooter", "lon": -77.01221033333333, "bike_id": "d176cdf229e1cede23a395b6de54de11", "fusion_lat": 0.0, "name": "d176cdf229e1cede23a395b6de54de11", "is_reserved": 0, "rental_uris": {"android": "https://dc.lft.to/lastmile_qr_scan", "ios": "https://dc.lft.to/lastmile_qr_scan"}, "fusion_lon": 0.0}, {"lat": 38.90739583333333, "is_disabled": 0, "type": "electric_scooter", "lon": -77.034466, "bike_id": "3388fb9fbcae83518559ffc07f4c4682", "fusion_lat": 0.0, "name": "3388fb9fbcae83518559ffc07f4c4682", "is_reserved": 0, "rental_uris": {"android": "https://dc.lft.to/lastmile_qr_scan", "ios": "https://dc.lft.to/lastmile_qr_scan"}, "fusion_lon": 0.0}, {"lat": 38.900717666666665, "is_disabled": 0, "type": "electric_scooter", "lon": -77.0021325, "bike_id": "6673db0390c92ff250ddeaf0ffb26754", "fusion_lat": 0.0, "name": "6673db0390c92ff250ddeaf0ffb26754", "is_reserved": 0, "rental_uris": {"android": "https://dc.lft.to/lastmile_qr_scan", "ios": "https://dc.lft.to/lastmile_qr_scan"}, "fusion_lon": 0.0}, {"lat": 38.9247045, "is_disabled": 0, "type": "electric_scooter", "lon": -77.03908883333334, "bike_id": "5b039cb987dfdfadf07cf71a5f605a21", "fusion_lat": 0.0, "name": "5b039cb987dfdfadf07cf71a5f605a21", "is_reserved": 0, "rental_uris": {"android": "https://dc.lft.to/lastmile_qr_scan", "ios": "https://dc.lft.to/lastmile_qr_scan"}, "fusion_lon": 0.0}, {"lat": 38.9373655, "is_disabled": 0, "type": "electric_scooter", "lon": -77.034716, "bike_id": "ef65369276abc7188ead6321c013075a", "fusion_lat": 0.0, "name": "ef65369276abc7188ead6321c013075a", "is_reserved": 0, "rental_uris": {"android": "https://dc.lft.to/lastmile_qr_scan", "ios": "https://dc.lft.to/lastmile_qr_scan"}, "fusion_lon": 0.0}, {"lat": 38.90954116666666, "is_disabled": 0, "type": "electric_scooter", "lon": -77.02277283333333, "bike_id": "5a8a31b1baebde82016cd492f5d6b10d", "fusion_lat": 0.0, "name": "5a8a31b1baebde82016cd492f5d6b10d", "is_reserved": 0, "rental_uris": {"android": "https://dc.lft.to/lastmile_qr_scan", "ios": "https://dc.lft.to/lastmile_qr_scan"}, "fusion_lon": 0.0}, {"lat": 38.89222016666667, "is_disabled": 0, "type": "electric_scooter", "lon": -77.03158566666667, "bike_id": "cf5e4bea8d118911230f64e8ce399677", "fusion_lat": 0.0, "name": "cf5e4bea8d118911230f64e8ce399677", "is_reserved": 0, "rental_uris": {"android": "https://dc.lft.to/lastmile_qr_scan", "ios": "https://dc.lft.to/lastmile_qr_scan"}, "fusion_lon": 0.0}, {"lat": 38.90959766666667, "is_disabled": 0, "type": "electric_scooter", "lon": -77.03836966666667, "bike_id": "fa1d0d1d74a2f4150b8f0d73b9e7aec3", "fusion_lat": 0.0, "name": "fa1d0d1d74a2f4150b8f0d73b9e7aec3", "is_reserved": 0, "rental_uris": {"android": "https://dc.lft.to/lastmile_qr_scan", "ios": "https://dc.lft.to/lastmile_qr_scan"}, "fusion_lon": 0.0}, {"lat": 38.90519483333333, "is_disabled": 0, "type": "electric_scooter", "lon": -77.0514495, "bike_id": "7828257b3ee4b4a48fbce737830c3889", "fusion_lat": 0.0, "name": "7828257b3ee4b4a48fbce737830c3889", "is_reserved": 0, "rental_uris": {"android": "https://dc.lft.to/lastmile_qr_scan", "ios": "https://dc.lft.to/lastmile_qr_scan"}, "fusion_lon": 0.0}, {"lat": 38.8857525, "is_disabled": 0, "type": "electric_scooter", "lon": -76.919104, "bike_id": "7c42d7c5607344242ae0e26e46745b5d", "fusion_lat": 0.0, "name": "7c42d7c5607344242ae0e26e46745b5d", "is_reserved": 0, "rental_uris": {"android": "https://dc.lft.to/lastmile_qr_scan", "ios": "https://dc.lft.to/lastmile_qr_scan"}, "fusion_lon": 0.0}, {"lat": 38.92550466666667, "is_disabled": 0, "type": "electric_scooter", "lon": -77.03220566666667, "bike_id": "0a14f75de4dd62dbe2b9218287400168", "fusion_lat": 0.0, "name": "0a14f75de4dd62dbe2b9218287400168", "is_reserved": 0, "rental_uris": {"android": "https://dc.lft.to/lastmile_qr_scan", "ios": "https://dc.lft.to/lastmile_qr_scan"}, "fusion_lon": 0.0}, {"lat": 38.927497, "is_disabled": 0, "type": "electric_scooter", "lon": -77.0241655, "bike_id": "3d83e9398c6b346ca000604b8c86c4ff", "fusion_lat": 0.0, "name": "3d83e9398c6b346ca000604b8c86c4ff", "is_reserved": 0, "rental_uris": {"android": "https://dc.lft.to/lastmile_qr_scan", "ios": "https://dc.lft.to/lastmile_qr_scan"}, "fusion_lon": 0.0}, {"lat": 38.947940833333334, "is_disabled": 0, "type": "electric_scooter", "lon": -77.02174783333334, "bike_id": "9205345f9b4e2bc88b83e7833fe456ab", "fusion_lat": 0.0, "name": "9205345f9b4e2bc88b83e7833fe456ab", "is_reserved": 0, "rental_uris": {"android": "https://dc.lft.to/lastmile_qr_scan", "ios": "https://dc.lft.to/lastmile_qr_scan"}, "fusion_lon": 0.0}, {"lat": 38.90106866666667, "is_disabled": 0, "type": "electric_scooter", "lon": -76.99620183333333, "bike_id": "2a912167dac5f6b994e6134b6f3d72ae", "fusion_lat": 0.0, "name": "2a912167dac5f6b994e6134b6f3d72ae", "is_reserved": 0, "rental_uris": {"android": "https://dc.lft.to/lastmile_qr_scan", "ios": "https://dc.lft.to/lastmile_qr_scan"}, "fusion_lon": 0.0}, {"lat": 38.92170133333333, "is_disabled": 0, "type": "electric_scooter", "lon": -77.032065, "bike_id": "35112046cb3f25613f2a071d44614845", "fusion_lat": 0.0, "name": "35112046cb3f25613f2a071d44614845", "is_reserved": 0, "rental_uris": {"android": "https://dc.lft.to/lastmile_qr_scan", "ios": "https://dc.lft.to/lastmile_qr_scan"}, "fusion_lon": 0.0}, {"lat": 38.921793, "is_disabled": 0, "type": "electric_scooter", "lon": -77.04703416666666, "bike_id": "86b1f1683edd82ae3c14ebdb39fbad40", "fusion_lat": 0.0, "name": "86b1f1683edd82ae3c14ebdb39fbad40", "is_reserved": 0, "rental_uris": {"android": "https://dc.lft.to/lastmile_qr_scan", "ios": "https://dc.lft.to/lastmile_qr_scan"}, "fusion_lon": 0.0}, {"lat": 38.9026635, "is_disabled": 0, "type": "electric_scooter", "lon": -77.03983083333334, "bike_id": "75d07655cfedd6aaae48035669243362", "fusion_lat": 0.0, "name": "75d07655cfedd6aaae48035669243362", "is_reserved": 0, "rental_uris": {"android": "https://dc.lft.to/lastmile_qr_scan", "ios": "https://dc.lft.to/lastmile_qr_scan"}, "fusion_lon": 0.0}, {"lat": 38.9176945, "is_disabled": 0, "type": "electric_scooter", "lon": -77.0433605, "bike_id": "9f948ab9bab15019096c5d30593bd852", "fusion_lat": 0.0, "name": "9f948ab9bab15019096c5d30593bd852", "is_reserved": 0, "rental_uris": {"android": "https://dc.lft.to/lastmile_qr_scan", "ios": "https://dc.lft.to/lastmile_qr_scan"}, "fusion_lon": 0.0}, {"lat": 38.87193583333333, "is_disabled": 0, "type": "electric_bike", "lon": -77.0122105, "bike_id": "76b27fcb01b8fe50441b65b67532ec79", "fusion_lat": 0.0, "name": "76b27fcb01b8fe50441b65b67532ec79", "is_reserved": 0, "rental_uris": {"android": "https://dc.lft.to/lastmile_qr_scan", "ios": "https://dc.lft.to/lastmile_qr_scan"}, "fusion_lon": 0.0}, {"lat": 38.924694, "is_disabled": 0, "type": "electric_scooter", "lon": -77.05230533333334, "bike_id": "ff6012e9540291c5585d7456cf806845", "fusion_lat": 0.0, "name": "ff6012e9540291c5585d7456cf806845", "is_reserved": 0, "rental_uris": {"android": "https://dc.lft.to/lastmile_qr_scan", "ios": "https://dc.lft.to/lastmile_qr_scan"}, "fusion_lon": 0.0}, {"lat": 38.89220816666667, "is_disabled": 0, "type": "electric_scooter", "lon": -77.03217833333333, "bike_id": "ae136f0504733013070ee57c170744f7", "fusion_lat": 0.0, "name": "ae136f0504733013070ee57c170744f7", "is_reserved": 0, "rental_uris": {"android": "https://dc.lft.to/lastmile_qr_scan", "ios": "https://dc.lft.to/lastmile_qr_scan"}, "fusion_lon": 0.0}, {"lat": 38.9978385, "is_disabled": 0, "type": "electric_bike", "lon": -77.00766866666666, "bike_id": "83123dce53b86d0494991c99973d2014", "fusion_lat": 0.0, "name": "83123dce53b86d0494991c99973d2014", "is_reserved": 0, "rental_uris": {"android": "https://dc.lft.to/lastmile_qr_scan", "ios": "https://dc.lft.to/lastmile_qr_scan"}, "fusion_lon": 0.0}, {"lat": 38.92362416666667, "is_disabled": 0, "type": "electric_scooter", "lon": -77.0512805, "bike_id": "1a9f66a0650541894b3bf2ffbed88ea9", "fusion_lat": 0.0, "name": "1a9f66a0650541894b3bf2ffbed88ea9", "is_reserved": 0, "rental_uris": {"android": "https://dc.lft.to/lastmile_qr_scan", "ios": "https://dc.lft.to/lastmile_qr_scan"}, "fusion_lon": 0.0}, {"lat": 38.957785666666666, "is_disabled": 0, "type": "electric_scooter", "lon": -77.0275565, "bike_id": "4379be9b88f73145f6842460228bd97b", "fusion_lat": 0.0, "name": "4379be9b88f73145f6842460228bd97b", "is_reserved": 0, "rental_uris": {"android": "https://dc.lft.to/lastmile_qr_scan", "ios": "https://dc.lft.to/lastmile_qr_scan"}, "fusion_lon": 0.0}, {"lat": 38.88428316666667, "is_disabled": 0, "type": "electric_scooter", "lon": -76.9575685, "bike_id": "669e8ed7f3fb5e8af198b7c731701865", "fusion_lat": 0.0, "name": "669e8ed7f3fb5e8af198b7c731701865", "is_reserved": 0, "rental_uris": {"android": "https://dc.lft.to/lastmile_qr_scan", "ios": "https://dc.lft.to/lastmile_qr_scan"}, "fusion_lon": 0.0}, {"lat": 38.907367, "is_disabled": 0, "type": "electric_scooter", "lon": -77.03448733333333, "bike_id": "ff9fc723e137ebd3063dd0048e6902c5", "fusion_lat": 0.0, "name": "ff9fc723e137ebd3063dd0048e6902c5", "is_reserved": 0, "rental_uris": {"android": "https://dc.lft.to/lastmile_qr_scan", "ios": "https://dc.lft.to/lastmile_qr_scan"}, "fusion_lon": 0.0}, {"lat": 38.919692166666664, "is_disabled": 0, "type": "electric_scooter", "lon": -77.0231375, "bike_id": "06c3200a27b47284bfd2328e26cd45c8", "fusion_lat": 0.0, "name": "06c3200a27b47284bfd2328e26cd45c8", "is_reserved": 0, "rental_uris": {"android": "https://dc.lft.to/lastmile_qr_scan", "ios": "https://dc.lft.to/lastmile_qr_scan"}, "fusion_lon": 0.0}, {"lat": 38.9008485, "is_disabled": 0, "type": "electric_scooter", "lon": -77.04917183333333, "bike_id": "3f52dcdd7494f69e12f5d5d3ad17234e", "fusion_lat": 0.0, "name": "3f52dcdd7494f69e12f5d5d3ad17234e", "is_reserved": 0, "rental_uris": {"android": "https://dc.lft.to/lastmile_qr_scan", "ios": "https://dc.lft.to/lastmile_qr_scan"}, "fusion_lon": 0.0}, {"lat": 38.90165983333333, "is_disabled": 0, "type": "electric_scooter", "lon": -77.02498833333334, "bike_id": "f15180e527354af7b47cac033d1640d4", "fusion_lat": 0.0, "name": "f15180e527354af7b47cac033d1640d4", "is_reserved": 0, "rental_uris": {"android": "https://dc.lft.to/lastmile_qr_scan", "ios": "https://dc.lft.to/lastmile_qr_scan"}, "fusion_lon": 0.0}, {"lat": 38.91675583333333, "is_disabled": 0, "type": "electric_scooter", "lon": -77.02711083333334, "bike_id": "0615730d1ba5f4c249819abe2f70eb16", "fusion_lat": 0.0, "name": "0615730d1ba5f4c249819abe2f70eb16", "is_reserved": 0, "rental_uris": {"android": "https://dc.lft.to/lastmile_qr_scan", "ios": "https://dc.lft.to/lastmile_qr_scan"}, "fusion_lon": 0.0}, {"lat": 38.902946, "is_disabled": 0, "type": "electric_scooter", "lon": -77.011815, "bike_id": "adb212454ebea7d519bcd25607ef48cd", "fusion_lat": 0.0, "name": "adb212454ebea7d519bcd25607ef48cd", "is_reserved": 0, "rental_uris": {"android": "https://dc.lft.to/lastmile_qr_scan", "ios": "https://dc.lft.to/lastmile_qr_scan"}, "fusion_lon": 0.0}, {"lat": 38.90673533333333, "is_disabled": 0, "type": "electric_scooter", "lon": -77.0381955, "bike_id": "5b4da01ab7057fba55fafab5595de8c3", "fusion_lat": 0.0, "name": "5b4da01ab7057fba55fafab5595de8c3", "is_reserved": 0, "rental_uris": {"android": "https://dc.lft.to/lastmile_qr_scan", "ios": "https://dc.lft.to/lastmile_qr_scan"}, "fusion_lon": 0.0}, {"lat": 38.929908166666664, "is_disabled": 0, "type": "electric_scooter", "lon": -77.02632516666667, "bike_id": "22d72947f8515935e71fdc95fe410f1c", "fusion_lat": 0.0, "name": "22d72947f8515935e71fdc95fe410f1c", "is_reserved": 0, "rental_uris": {"android": "https://dc.lft.to/lastmile_qr_scan", "ios": "https://dc.lft.to/lastmile_qr_scan"}, "fusion_lon": 0.0}, {"lat": 38.91843216666667, "is_disabled": 0, "type": "electric_scooter", "lon": -77.044277, "bike_id": "80e977d4879df2bc078f7e56b6778d30", "fusion_lat": 0.0, "name": "80e977d4879df2bc078f7e56b6778d30", "is_reserved": 0, "rental_uris": {"android": "https://dc.lft.to/lastmile_qr_scan", "ios": "https://dc.lft.to/lastmile_qr_scan"}, "fusion_lon": 0.0}, {"lat": 38.91561433333333, "is_disabled": 0, "type": "electric_scooter", "lon": -77.020033, "bike_id": "2d8f823fc948539e0f0debc28669fd92", "fusion_lat": 0.0, "name": "2d8f823fc948539e0f0debc28669fd92", "is_reserved": 0, "rental_uris": {"android": "https://dc.lft.to/lastmile_qr_scan", "ios": "https://dc.lft.to/lastmile_qr_scan"}, "fusion_lon": 0.0}, {"lat": 38.899705166666664, "is_disabled": 0, "type": "electric_scooter", "lon": -76.92732166666667, "bike_id": "4f1a836ff4541e331cb777ca36c7b4de", "fusion_lat": 0.0, "name": "4f1a836ff4541e331cb777ca36c7b4de", "is_reserved": 0, "rental_uris": {"android": "https://dc.lft.to/lastmile_qr_scan", "ios": "https://dc.lft.to/lastmile_qr_scan"}, "fusion_lon": 0.0}, {"lat": 38.90733783333334, "is_disabled": 0, "type": "electric_scooter", "lon": -77.02709516666667, "bike_id": "4c5d850516badb8a55fa0ab60d123c89", "fusion_lat": 0.0, "name": "4c5d850516badb8a55fa0ab60d123c89", "is_reserved": 0, "rental_uris": {"android": "https://dc.lft.to/lastmile_qr_scan", "ios": "https://dc.lft.to/lastmile_qr_scan"}, "fusion_lon": 0.0}, {"lat": 38.884283333333336, "is_disabled": 0, "type": "electric_scooter", "lon": -76.95755033333333, "bike_id": "2cb8d5a40e5b55ccc66ed3780c6fc833", "fusion_lat": 0.0, "name": "2cb8d5a40e5b55ccc66ed3780c6fc833", "is_reserved": 0, "rental_uris": {"android": "https://dc.lft.to/lastmile_qr_scan", "ios": "https://dc.lft.to/lastmile_qr_scan"}, "fusion_lon": 0.0}, {"lat": 38.90751683333333, "is_disabled": 0, "type": "electric_scooter", "lon": -77.03464833333334, "bike_id": "1a2e5fa62fc855fc3e598373d13411c8", "fusion_lat": 0.0, "name": "1a2e5fa62fc855fc3e598373d13411c8", "is_reserved": 0, "rental_uris": {"android": "https://dc.lft.to/lastmile_qr_scan", "ios": "https://dc.lft.to/lastmile_qr_scan"}, "fusion_lon": 0.0}, {"lat": 38.90228366666667, "is_disabled": 0, "type": "electric_scooter", "lon": -77.04348966666667, "bike_id": "619bd5c396db9a6b85d60364137a93f3", "fusion_lat": 0.0, "name": "619bd5c396db9a6b85d60364137a93f3", "is_reserved": 0, "rental_uris": {"android": "https://dc.lft.to/lastmile_qr_scan", "ios": "https://dc.lft.to/lastmile_qr_scan"}, "fusion_lon": 0.0}, {"lat": 38.89608, "is_disabled": 0, "type": "electric_scooter", "lon": -77.04542316666667, "bike_id": "47aabe5ee78b707d73f4b9d708f21b5f", "fusion_lat": 0.0, "name": "47aabe5ee78b707d73f4b9d708f21b5f", "is_reserved": 0, "rental_uris": {"android": "https://dc.lft.to/lastmile_qr_scan", "ios": "https://dc.lft.to/lastmile_qr_scan"}, "fusion_lon": 0.0}, {"lat": 38.92341866666666, "is_disabled": 0, "type": "electric_scooter", "lon": -77.03543233333333, "bike_id": "77dfd6dbd4b82b8095f6d4f9df1224da", "fusion_lat": 0.0, "name": "77dfd6dbd4b82b8095f6d4f9df1224da", "is_reserved": 0, "rental_uris": {"android": "https://dc.lft.to/lastmile_qr_scan", "ios": "https://dc.lft.to/lastmile_qr_scan"}, "fusion_lon": 0.0}, {"lat": 38.958964333333334, "is_disabled": 0, "type": "electric_bike", "lon": -76.92483916666667, "bike_id": "73fd1413d9a22e685d56183d74ee749c", "fusion_lat": 0.0, "name": "73fd1413d9a22e685d56183d74ee749c", "is_reserved": 0, "rental_uris": {"android": "https://dc.lft.to/lastmile_qr_scan", "ios": "https://dc.lft.to/lastmile_qr_scan"}, "fusion_lon": 0.0}, {"lat": 38.93413483333333, "is_disabled": 0, "type": "electric_scooter", "lon": -77.03293016666667, "bike_id": "10506266faf0b2e6256460d81a529653", "fusion_lat": 0.0, "name": "10506266faf0b2e6256460d81a529653", "is_reserved": 0, "rental_uris": {"android": "https://dc.lft.to/lastmile_qr_scan", "ios": "https://dc.lft.to/lastmile_qr_scan"}, "fusion_lon": 0.0}, {"lat": 38.920663833333336, "is_disabled": 0, "type": "electric_scooter", "lon": -77.07892583333333, "bike_id": "34efc9f272af8681e9c5ace0d481dce6", "fusion_lat": 0.0, "name": "34efc9f272af8681e9c5ace0d481dce6", "is_reserved": 0, "rental_uris": {"android": "https://dc.lft.to/lastmile_qr_scan", "ios": "https://dc.lft.to/lastmile_qr_scan"}, "fusion_lon": 0.0}, {"lat": 38.92539133333333, "is_disabled": 0, "type": "electric_scooter", "lon": -77.0263295, "bike_id": "1b0c45b900f54b7c03718105d1ccfba4", "fusion_lat": 0.0, "name": "1b0c45b900f54b7c03718105d1ccfba4", "is_reserved": 0, "rental_uris": {"android": "https://dc.lft.to/lastmile_qr_scan", "ios": "https://dc.lft.to/lastmile_qr_scan"}, "fusion_lon": 0.0}, {"lat": 38.8836245, "is_disabled": 0, "type": "electric_scooter", "lon": -76.9415405, "bike_id": "53227068f815857025173589a0fb8f18", "fusion_lat": 0.0, "name": "53227068f815857025173589a0fb8f18", "is_reserved": 0, "rental_uris": {"android": "https://dc.lft.to/lastmile_qr_scan", "ios": "https://dc.lft.to/lastmile_qr_scan"}, "fusion_lon": 0.0}, {"lat": 38.9360615, "is_disabled": 0, "type": "electric_scooter", "lon": -77.05859316666667, "bike_id": "dd0047681e08b9c6daea721836accc15", "fusion_lat": 0.0, "name": "dd0047681e08b9c6daea721836accc15", "is_reserved": 0, "rental_uris": {"android": "https://dc.lft.to/lastmile_qr_scan", "ios": "https://dc.lft.to/lastmile_qr_scan"}, "fusion_lon": 0.0}, {"lat": 38.91682483333334, "is_disabled": 0, "type": "electric_scooter", "lon": -77.0019885, "bike_id": "7681b58da61468eeb63afed15762d492", "fusion_lat": 0.0, "name": "7681b58da61468eeb63afed15762d492", "is_reserved": 0, "rental_uris": {"android": "https://dc.lft.to/lastmile_qr_scan", "ios": "https://dc.lft.to/lastmile_qr_scan"}, "fusion_lon": 0.0}, {"lat": 38.90983166666667, "is_disabled": 0, "type": "electric_scooter", "lon": -77.03181283333333, "bike_id": "70c72138bd3189fb659dc169ec4ec45a", "fusion_lat": 0.0, "name": "70c72138bd3189fb659dc169ec4ec45a", "is_reserved": 0, "rental_uris": {"android": "https://dc.lft.to/lastmile_qr_scan", "ios": "https://dc.lft.to/lastmile_qr_scan"}, "fusion_lon": 0.0}, {"lat": 38.965036833333336, "is_disabled": 0, "type": "electric_bike", "lon": -77.028256, "bike_id": "5daefac08b5786cf2318d333012520c2", "fusion_lat": 0.0, "name": "5daefac08b5786cf2318d333012520c2", "is_reserved": 0, "rental_uris": {"android": "https://dc.lft.to/lastmile_qr_scan", "ios": "https://dc.lft.to/lastmile_qr_scan"}, "fusion_lon": 0.0}, {"lat": 38.91711383333333, "is_disabled": 0, "type": "electric_scooter", "lon": -77.03249283333334, "bike_id": "0f86e1335fc2883d459777a4d073513b", "fusion_lat": 0.0, "name": "0f86e1335fc2883d459777a4d073513b", "is_reserved": 0, "rental_uris": {"android": "https://dc.lft.to/lastmile_qr_scan", "ios": "https://dc.lft.to/lastmile_qr_scan"}, "fusion_lon": 0.0}, {"lat": 38.99399733333333, "is_disabled": 0, "type": "electric_bike", "lon": -77.03178566666666, "bike_id": "805d48918ae9737b84b536859db78a19", "fusion_lat": 0.0, "name": "805d48918ae9737b84b536859db78a19", "is_reserved": 0, "rental_uris": {"android": "https://dc.lft.to/lastmile_qr_scan", "ios": "https://dc.lft.to/lastmile_qr_scan"}, "fusion_lon": 0.0}, {"lat": 38.8849005, "is_disabled": 0, "type": "electric_scooter", "lon": -77.00708583333333, "bike_id": "e8051a71f4b8a5cfef9d9b88b25e2b52", "fusion_lat": 0.0, "name": "e8051a71f4b8a5cfef9d9b88b25e2b52", "is_reserved": 0, "rental_uris": {"android": "https://dc.lft.to/lastmile_qr_scan", "ios": "https://dc.lft.to/lastmile_qr_scan"}, "fusion_lon": 0.0}, {"lat": 38.92857683333333, "is_disabled": 0, "type": "electric_scooter", "lon": -77.03104083333334, "bike_id": "79ff2024e6ebc852e323452c551db873", "fusion_lat": 0.0, "name": "79ff2024e6ebc852e323452c551db873", "is_reserved": 0, "rental_uris": {"android": "https://dc.lft.to/lastmile_qr_scan", "ios": "https://dc.lft.to/lastmile_qr_scan"}, "fusion_lon": 0.0}, {"lat": 38.924702, "is_disabled": 0, "type": "electric_scooter", "lon": -77.05234783333333, "bike_id": "f5f06560321ede20d46bb391b6aee273", "fusion_lat": 0.0, "name": "f5f06560321ede20d46bb391b6aee273", "is_reserved": 0, "rental_uris": {"android": "https://dc.lft.to/lastmile_qr_scan", "ios": "https://dc.lft.to/lastmile_qr_scan"}, "fusion_lon": 0.0}, {"lat": 38.909395333333336, "is_disabled": 0, "type": "electric_scooter", "lon": -77.04466466666666, "bike_id": "d3db46f9fc82dc2813b23cae4def2be1", "fusion_lat": 0.0, "name": "d3db46f9fc82dc2813b23cae4def2be1", "is_reserved": 0, "rental_uris": {"android": "https://dc.lft.to/lastmile_qr_scan", "ios": "https://dc.lft.to/lastmile_qr_scan"}, "fusion_lon": 0.0}, {"lat": 38.92381366666667, "is_disabled": 0, "type": "electric_scooter", "lon": -77.02741983333334, "bike_id": "2bdcf5f362907b42eeae6d50af7ffbf5", "fusion_lat": 0.0, "name": "2bdcf5f362907b42eeae6d50af7ffbf5", "is_reserved": 0, "rental_uris": {"android": "https://dc.lft.to/lastmile_qr_scan", "ios": "https://dc.lft.to/lastmile_qr_scan"}, "fusion_lon": 0.0}, {"lat": 38.84289883333334, "is_disabled": 0, "type": "electric_scooter", "lon": -76.99948833333333, "bike_id": "eb7b0ec0618c1e472d472122093da755", "fusion_lat": 0.0, "name": "eb7b0ec0618c1e472d472122093da755", "is_reserved": 0, "rental_uris": {"android": "https://dc.lft.to/lastmile_qr_scan", "ios": "https://dc.lft.to/lastmile_qr_scan"}, "fusion_lon": 0.0}, {"lat": 38.880691666666664, "is_disabled": 0, "type": "electric_scooter", "lon": -77.00561733333333, "bike_id": "c8707fc3f4f9ed4583b820f54dffe9e0", "fusion_lat": 0.0, "name": "c8707fc3f4f9ed4583b820f54dffe9e0", "is_reserved": 0, "rental_uris": {"android": "https://dc.lft.to/lastmile_qr_scan", "ios": "https://dc.lft.to/lastmile_qr_scan"}, "fusion_lon": 0.0}, {"lat": 38.904323, "is_disabled": 0, "type": "electric_scooter", "lon": -77.04633216666667, "bike_id": "f1a7e01252741a30945248a75b0f2c4d", "fusion_lat": 0.0, "name": "f1a7e01252741a30945248a75b0f2c4d", "is_reserved": 0, "rental_uris": {"android": "https://dc.lft.to/lastmile_qr_scan", "ios": "https://dc.lft.to/lastmile_qr_scan"}, "fusion_lon": 0.0}, {"lat": 38.903185666666666, "is_disabled": 0, "type": "electric_scooter", "lon": -77.05177183333333, "bike_id": "257323ade2a6f22a4faff90ed8fccfbf", "fusion_lat": 0.0, "name": "257323ade2a6f22a4faff90ed8fccfbf", "is_reserved": 0, "rental_uris": {"android": "https://dc.lft.to/lastmile_qr_scan", "ios": "https://dc.lft.to/lastmile_qr_scan"}, "fusion_lon": 0.0}, {"lat": 38.91122383333333, "is_disabled": 0, "type": "electric_scooter", "lon": -77.03846616666667, "bike_id": "9691e730502354d3ad709d2f50a3c505", "fusion_lat": 0.0, "name": "9691e730502354d3ad709d2f50a3c505", "is_reserved": 0, "rental_uris": {"android": "https://dc.lft.to/lastmile_qr_scan", "ios": "https://dc.lft.to/lastmile_qr_scan"}, "fusion_lon": 0.0}, {"lat": 38.896237666666664, "is_disabled": 0, "type": "electric_scooter", "lon": -77.02866816666666, "bike_id": "bcba6de35e4a82fae43422727934aa00", "fusion_lat": 0.0, "name": "bcba6de35e4a82fae43422727934aa00", "is_reserved": 0, "rental_uris": {"android": "https://dc.lft.to/lastmile_qr_scan", "ios": "https://dc.lft.to/lastmile_qr_scan"}, "fusion_lon": 0.0}, {"lat": 38.892211833333334, "is_disabled": 0, "type": "electric_scooter", "lon": -77.04199283333334, "bike_id": "48f70850dee7bdfec769fa1aa260966b", "fusion_lat": 0.0, "name": "48f70850dee7bdfec769fa1aa260966b", "is_reserved": 0, "rental_uris": {"android": "https://dc.lft.to/lastmile_qr_scan", "ios": "https://dc.lft.to/lastmile_qr_scan"}, "fusion_lon": 0.0}, {"lat": 38.863641666666666, "is_disabled": 0, "type": "electric_scooter", "lon": -76.99032916666667, "bike_id": "b123afba0349192e751aefad3c4220f8", "fusion_lat": 0.0, "name": "b123afba0349192e751aefad3c4220f8", "is_reserved": 0, "rental_uris": {"android": "https://dc.lft.to/lastmile_qr_scan", "ios": "https://dc.lft.to/lastmile_qr_scan"}, "fusion_lon": 0.0}, {"lat": 38.92313566666667, "is_disabled": 0, "type": "electric_scooter", "lon": -77.04221666666666, "bike_id": "8aa4bc196105ba0725929e7158d33eba", "fusion_lat": 0.0, "name": "8aa4bc196105ba0725929e7158d33eba", "is_reserved": 0, "rental_uris": {"android": "https://dc.lft.to/lastmile_qr_scan", "ios": "https://dc.lft.to/lastmile_qr_scan"}, "fusion_lon": 0.0}, {"lat": 38.929727666666665, "is_disabled": 0, "type": "electric_scooter", "lon": -77.0292935, "bike_id": "62d4433bc73fef12e88e17593893697e", "fusion_lat": 0.0, "name": "62d4433bc73fef12e88e17593893697e", "is_reserved": 0, "rental_uris": {"android": "https://dc.lft.to/lastmile_qr_scan", "ios": "https://dc.lft.to/lastmile_qr_scan"}, "fusion_lon": 0.0}, {"lat": 38.930927833333335, "is_disabled": 0, "type": "electric_scooter", "lon": -77.0235285, "bike_id": "406f422d51f03c133feb288cac04e82c", "fusion_lat": 0.0, "name": "406f422d51f03c133feb288cac04e82c", "is_reserved": 0, "rental_uris": {"android": "https://dc.lft.to/lastmile_qr_scan", "ios": "https://dc.lft.to/lastmile_qr_scan"}, "fusion_lon": 0.0}, {"lat": 38.89219933333333, "is_disabled": 0, "type": "electric_scooter", "lon": -77.03215, "bike_id": "b0334c221f6a04d5899a4a990860c0ef", "fusion_lat": 0.0, "name": "b0334c221f6a04d5899a4a990860c0ef", "is_reserved": 0, "rental_uris": {"android": "https://dc.lft.to/lastmile_qr_scan", "ios": "https://dc.lft.to/lastmile_qr_scan"}, "fusion_lon": 0.0}, {"lat": 38.899686, "is_disabled": 0, "type": "electric_scooter", "lon": -77.0231015, "bike_id": "52635004f10e073fd0703d86ef01e3b6", "fusion_lat": 0.0, "name": "52635004f10e073fd0703d86ef01e3b6", "is_reserved": 0, "rental_uris": {"android": "https://dc.lft.to/lastmile_qr_scan", "ios": "https://dc.lft.to/lastmile_qr_scan"}, "fusion_lon": 0.0}, {"lat": 38.916846666666665, "is_disabled": 0, "type": "electric_scooter", "lon": -77.02949533333333, "bike_id": "6f68229cc09c76488d5afce28197d012", "fusion_lat": 0.0, "name": "6f68229cc09c76488d5afce28197d012", "is_reserved": 0, "rental_uris": {"android": "https://dc.lft.to/lastmile_qr_scan", "ios": "https://dc.lft.to/lastmile_qr_scan"}, "fusion_lon": 0.0}, {"lat": 38.89218316666667, "is_disabled": 0, "type": "electric_scooter", "lon": -77.04514366666666, "bike_id": "18dccfc8cf12f28b7ab3e221d903f657", "fusion_lat": 0.0, "name": "18dccfc8cf12f28b7ab3e221d903f657", "is_reserved": 0, "rental_uris": {"android": "https://dc.lft.to/lastmile_qr_scan", "ios": "https://dc.lft.to/lastmile_qr_scan"}, "fusion_lon": 0.0}, {"lat": 38.87145116666667, "is_disabled": 0, "type": "electric_bike", "lon": -76.93673866666667, "bike_id": "5e82f3590392a4231886b004cea52ba8", "fusion_lat": 0.0, "name": "5e82f3590392a4231886b004cea52ba8", "is_reserved": 0, "rental_uris": {"android": "https://dc.lft.to/lastmile_qr_scan", "ios": "https://dc.lft.to/lastmile_qr_scan"}, "fusion_lon": 0.0}, {"lat": 38.89488216666667, "is_disabled": 0, "type": "electric_scooter", "lon": -76.9950365, "bike_id": "2f5ebadabb601fa4d8cfc6b90f6af49d", "fusion_lat": 0.0, "name": "2f5ebadabb601fa4d8cfc6b90f6af49d", "is_reserved": 0, "rental_uris": {"android": "https://dc.lft.to/lastmile_qr_scan", "ios": "https://dc.lft.to/lastmile_qr_scan"}, "fusion_lon": 0.0}, {"lat": 38.91741566666666, "is_disabled": 0, "type": "electric_scooter", "lon": -77.03187533333333, "bike_id": "a91ed99887baa29b1c554d6b19df859c", "fusion_lat": 0.0, "name": "a91ed99887baa29b1c554d6b19df859c", "is_reserved": 0, "rental_uris": {"android": "https://dc.lft.to/lastmile_qr_scan", "ios": "https://dc.lft.to/lastmile_qr_scan"}, "fusion_lon": 0.0}, {"lat": 38.90943166666667, "is_disabled": 0, "type": "electric_scooter", "lon": -77.04657283333333, "bike_id": "b56f2ba729dca957f3052b91cda57c7f", "fusion_lat": 0.0, "name": "b56f2ba729dca957f3052b91cda57c7f", "is_reserved": 0, "rental_uris": {"android": "https://dc.lft.to/lastmile_qr_scan", "ios": "https://dc.lft.to/lastmile_qr_scan"}, "fusion_lon": 0.0}, {"lat": 38.88115116666667, "is_disabled": 0, "type": "electric_scooter", "lon": -77.01667483333334, "bike_id": "0d823096bc59fecbdd609aa5961f0da4", "fusion_lat": 0.0, "name": "0d823096bc59fecbdd609aa5961f0da4", "is_reserved": 0, "rental_uris": {"android": "https://dc.lft.to/lastmile_qr_scan", "ios": "https://dc.lft.to/lastmile_qr_scan"}, "fusion_lon": 0.0}, {"lat": 38.93583116666667, "is_disabled": 0, "type": "electric_bike", "lon": -77.106864, "bike_id": "219d1752dc6ead4f1d14f502e583a4f3", "fusion_lat": 0.0, "name": "219d1752dc6ead4f1d14f502e583a4f3", "is_reserved": 0, "rental_uris": {"android": "https://dc.lft.to/lastmile_qr_scan", "ios": "https://dc.lft.to/lastmile_qr_scan"}, "fusion_lon": 0.0}, {"lat": 38.9178645, "is_disabled": 0, "type": "electric_scooter", "lon": -77.0231885, "bike_id": "e368706a14c882379cb4fbd86d95f114", "fusion_lat": 0.0, "name": "e368706a14c882379cb4fbd86d95f114", "is_reserved": 0, "rental_uris": {"android": "https://dc.lft.to/lastmile_qr_scan", "ios": "https://dc.lft.to/lastmile_qr_scan"}, "fusion_lon": 0.0}, {"lat": 38.89219033333333, "is_disabled": 0, "type": "electric_scooter", "lon": -77.04199666666666, "bike_id": "bb14c5ae0af2882da1bef830857a6672", "fusion_lat": 0.0, "name": "bb14c5ae0af2882da1bef830857a6672", "is_reserved": 0, "rental_uris": {"android": "https://dc.lft.to/lastmile_qr_scan", "ios": "https://dc.lft.to/lastmile_qr_scan"}, "fusion_lon": 0.0}, {"lat": 38.91775066666667, "is_disabled": 0, "type": "electric_scooter", "lon": -77.03653766666666, "bike_id": "285462098262894028841a56f7022f5d", "fusion_lat": 0.0, "name": "285462098262894028841a56f7022f5d", "is_reserved": 0, "rental_uris": {"android": "https://dc.lft.to/lastmile_qr_scan", "ios": "https://dc.lft.to/lastmile_qr_scan"}, "fusion_lon": 0.0}, {"lat": 38.913179, "is_disabled": 0, "type": "electric_scooter", "lon": -77.01440716666667, "bike_id": "dc058830031138926a21a0b1f743e06a", "fusion_lat": 0.0, "name": "dc058830031138926a21a0b1f743e06a", "is_reserved": 0, "rental_uris": {"android": "https://dc.lft.to/lastmile_qr_scan", "ios": "https://dc.lft.to/lastmile_qr_scan"}, "fusion_lon": 0.0}, {"lat": 38.89747533333333, "is_disabled": 0, "type": "electric_scooter", "lon": -77.00078116666667, "bike_id": "7336fe1b18bfff265743b041bb5c6a3c", "fusion_lat": 0.0, "name": "7336fe1b18bfff265743b041bb5c6a3c", "is_reserved": 0, "rental_uris": {"android": "https://dc.lft.to/lastmile_qr_scan", "ios": "https://dc.lft.to/lastmile_qr_scan"}, "fusion_lon": 0.0}, {"lat": 38.89765, "is_disabled": 0, "type": "electric_scooter", "lon": -77.02670533333334, "bike_id": "74af89bd5883855b4f67d555ceb6c65c", "fusion_lat": 0.0, "name": "74af89bd5883855b4f67d555ceb6c65c", "is_reserved": 0, "rental_uris": {"android": "https://dc.lft.to/lastmile_qr_scan", "ios": "https://dc.lft.to/lastmile_qr_scan"}, "fusion_lon": 0.0}, {"lat": 38.8773075, "is_disabled": 0, "type": "electric_bike", "lon": -76.9810495, "bike_id": "fcb1787784820c3b463d740ab713aaeb", "fusion_lat": 0.0, "name": "fcb1787784820c3b463d740ab713aaeb", "is_reserved": 0, "rental_uris": {"android": "https://dc.lft.to/lastmile_qr_scan", "ios": "https://dc.lft.to/lastmile_qr_scan"}, "fusion_lon": 0.0}, {"lat": 38.909709, "is_disabled": 0, "type": "electric_scooter", "lon": -77.0386715, "bike_id": "011f6694ca4deb216bde72b22a9e9dd9", "fusion_lat": 0.0, "name": "011f6694ca4deb216bde72b22a9e9dd9", "is_reserved": 0, "rental_uris": {"android": "https://dc.lft.to/lastmile_qr_scan", "ios": "https://dc.lft.to/lastmile_qr_scan"}, "fusion_lon": 0.0}, {"lat": 38.898626166666666, "is_disabled": 0, "type": "electric_scooter", "lon": -77.020314, "bike_id": "9941e3cfe28e2580689b1e391473d462", "fusion_lat": 0.0, "name": "9941e3cfe28e2580689b1e391473d462", "is_reserved": 0, "rental_uris": {"android": "https://dc.lft.to/lastmile_qr_scan", "ios": "https://dc.lft.to/lastmile_qr_scan"}, "fusion_lon": 0.0}, {"lat": 38.90583983333333, "is_disabled": 0, "type": "electric_scooter", "lon": -77.04881883333333, "bike_id": "db3437d41f54dd1582d8ff7953c1ff0f", "fusion_lat": 0.0, "name": "db3437d41f54dd1582d8ff7953c1ff0f", "is_reserved": 0, "rental_uris": {"android": "https://dc.lft.to/lastmile_qr_scan", "ios": "https://dc.lft.to/lastmile_qr_scan"}, "fusion_lon": 0.0}, {"lat": 38.922111666666666, "is_disabled": 0, "type": "electric_scooter", "lon": -77.040223, "bike_id": "e289a38c5347267a382f4205c3c0fe30", "fusion_lat": 0.0, "name": "e289a38c5347267a382f4205c3c0fe30", "is_reserved": 0, "rental_uris": {"android": "https://dc.lft.to/lastmile_qr_scan", "ios": "https://dc.lft.to/lastmile_qr_scan"}, "fusion_lon": 0.0}, {"lat": 38.933113, "is_disabled": 0, "type": "electric_scooter", "lon": -77.04527183333333, "bike_id": "07527c2a666eeed95f8f0ac299396acd", "fusion_lat": 0.0, "name": "07527c2a666eeed95f8f0ac299396acd", "is_reserved": 0, "rental_uris": {"android": "https://dc.lft.to/lastmile_qr_scan", "ios": "https://dc.lft.to/lastmile_qr_scan"}, "fusion_lon": 0.0}, {"lat": 38.866784, "is_disabled": 0, "type": "electric_scooter", "lon": -76.98542683333334, "bike_id": "a19021eda658668781555d772b6c3ffa", "fusion_lat": 0.0, "name": "a19021eda658668781555d772b6c3ffa", "is_reserved": 0, "rental_uris": {"android": "https://dc.lft.to/lastmile_qr_scan", "ios": "https://dc.lft.to/lastmile_qr_scan"}, "fusion_lon": 0.0}, {"lat": 38.898225, "is_disabled": 0, "type": "electric_scooter", "lon": -77.0295775, "bike_id": "eddf1c55812fd86e62269a4b602c5be8", "fusion_lat": 0.0, "name": "eddf1c55812fd86e62269a4b602c5be8", "is_reserved": 0, "rental_uris": {"android": "https://dc.lft.to/lastmile_qr_scan", "ios": "https://dc.lft.to/lastmile_qr_scan"}, "fusion_lon": 0.0}, {"lat": 38.916909, "is_disabled": 0, "type": "electric_scooter", "lon": -77.03361516666666, "bike_id": "93915debd3e0e31ab6daaaafc9265859", "fusion_lat": 0.0, "name": "93915debd3e0e31ab6daaaafc9265859", "is_reserved": 0, "rental_uris": {"android": "https://dc.lft.to/lastmile_qr_scan", "ios": "https://dc.lft.to/lastmile_qr_scan"}, "fusion_lon": 0.0}, {"lat": 38.944063166666666, "is_disabled": 0, "type": "electric_scooter", "lon": -77.02643133333333, "bike_id": "f5ad50c33e8853fdcfee59a28709bef5", "fusion_lat": 0.0, "name": "f5ad50c33e8853fdcfee59a28709bef5", "is_reserved": 0, "rental_uris": {"android": "https://dc.lft.to/lastmile_qr_scan", "ios": "https://dc.lft.to/lastmile_qr_scan"}, "fusion_lon": 0.0},