{"data": {"bikes": [{"is_reserved": 0, "type": "electric_scooter", "fusion_lat": 0.0, "is_disabled": 0, "rental_uris": {"ios": "https://dc.lft.to/lastmile_qr_scan", "android": "https://dc.lft.to/lastmile_qr_scan"}, "bike_id": "2bf5f304e5997ed444c6d13cb78b90f4", "lat": 38.90198316666667, "name": "2bf5f304e5997ed444c6d13cb78b90f4", "lon": -77.05911733333333, "fusion_lon": 0.0}, {"is_reserved": 0, "type": "electric_bike", "fusion_lat": 0.0, "is_disabled": 0, "rental_uris": {"ios": "https://dc.lft.to/lastmile_qr_scan", "android": "https://dc.lft.to/lastmile_qr_scan"}, "bike_id": "6ba3366fe0563f822dae103c4e3cdbbc", "lat": 38.95743016666667, "name": "6ba3366fe0563f822dae103c4e3cdbbc", "lon": -76.98267916666667, "fusion_lon": 0.0}, {"is_reserved": 0, "type": "electric_scooter", "fusion_lat": 0.0, "is_disabled": 0, "rental_uris": {"ios": "https://dc.lft.to/lastmile_qr_scan", "android": "https://dc.lft.to/lastmile_qr_scan"}, "bike_id": "d5f695191f08dbbebf043fcf5dfc2283", "lat": 38.90239016666666, "name": "d5f695191f08dbbebf043fcf5dfc2283", "lon": -76.9983685, "fusion_lon": 0.0}, {"is_reserved": 0, "type": "electric_scooter", "fusion_lat": 0.0, "is_disabled": 0, "rental_uris": {"ios": "https://dc.lft.to/lastmile_qr_scan", "android": "https://dc.lft.to/lastmile_qr_scan"}, "bike_id": "c638457ceb9b40a93cefa4eeb588a62c", "lat": 38.925034333333336, "name": "c638457ceb9b40a93cefa4eeb588a62c", "lon": -77.02445616666667, "fusion_lon": 0.0}, {"is_reserved": 0, "type": "electric_scooter", "fusion_lat": 0.0, "is_disabled": 0, "rental_uris": {"ios": "https://dc.lft.to/lastmile_qr_scan", "android": "https://dc.lft.to/lastmile_qr_scan"}, "bike_id": "324286c2cce8106e2d58fa96d8ff86bf", "lat": 38.92136083333333, "name": "324286c2cce8106e2d58fa96d8ff86bf", "lon": -77.00400783333333, "fusion_lon": 0.0}, {"is_reserved": 0, "type": "electric_scooter", "fusion_lat": 0.0, "is_disabled": 0, "rental_uris": {"ios": "https://dc.lft.to/lastmile_qr_scan", "android": "https://dc.lft.to/lastmile_qr_scan"}, "bike_id": "edbefb39c8f66b4050d17b7b34f98cbb", "lat": 38.9015325, "name": "edbefb39c8f66b4050d17b7b34f98cbb", "lon": -77.01504483333333, "fusion_lon": 0.0}, {"is_reserved": 0, "type": "electric_scooter", "fusion_lat": 0.0, "is_disabled": 0, "rental_uris": {"ios": "https://dc.lft.to/lastmile_qr_scan", "android": "https://dc.lft.to/lastmile_qr_scan"}, "bike_id": "f0c88ba7d4d6bbd1f0111fc124d39eb8", "lat": 38.928157166666665, "name": "f0c88ba7d4d6bbd1f0111fc124d39eb8", "lon": -77.04339333333333, "fusion_lon": 0.0}, {"is_reserved": 0, "type": "electric_scooter", "fusion_lat": 0.0, "is_disabled": 0, "rental_uris": {"ios": "https://dc.lft.to/lastmile_qr_scan", "android": "https://dc.lft.to/lastmile_qr_scan"}, "bike_id": "0fb333f4bcbea735d8925c077a58d5aa", "lat": 38.92789883333333, "name": "0fb333f4bcbea735d8925c077a58d5aa", "lon": -77.02134816666667, "fusion_lon": 0.0}, {"is_reserved": 0, "type": "electric_scooter", "fusion_lat": 0.0, "is_disabled": 0, "rental_uris": {"ios": "https://dc.lft.to/lastmile_qr_scan", "android": "https://dc.lft.to/lastmile_qr_scan"}, "bike_id": "fd90460f3686c9c598445738de8011d5", "lat": 38.9207725, "name": "fd90460f3686c9c598445738de8011d5", "lon": -77.02422716666666, "fusion_lon": 0.0}, {"is_reserved": 0, "type": "electric_scooter", "fusion_lat": 0.0, "is_disabled": 0, "rental_uris": {"ios": "https://dc.lft.to/lastmile_qr_scan", "android": "https://dc.lft.to/lastmile_qr_scan"}, "bike_id": "3f4733a571f50e1a258f9d010e338f12", "lat": 38.91639116666666, "name": "3f4733a571f50e1a258f9d010e338f12", "lon": -76.982757, "fusion_lon": 0.0}, {"is_reserved": 0, "type": "electric_scooter", "fusion_lat": 0.0, "is_disabled": 0, "rental_uris": {"ios": "https://dc.lft.to/lastmile_qr_scan", "android": "https://dc.lft.to/lastmile_qr_scan"}, "bike_id": "1c7d7fe4f405e288f0ecbe968df86eea", "lat": 38.90645583333333, "name": "1c7d7fe4f405e288f0ecbe968df86eea", "lon": -77.0248165, "fusion_lon": 0.0}, {"is_reserved": 0, "type": "electric_scooter", "fusion_lat": 0.0, "is_disabled": 0, "rental_uris": {"ios": "https://dc.lft.to/lastmile_qr_scan", "android": "https://dc.lft.to/lastmile_qr_scan"}, "bike_id": "f13a0e9fe75a260e16bcc1a4a38a6083", "lat": 38.89697966666667, "name": "f13a0e9fe75a260e16bcc1a4a38a6083", "lon": -77.04324616666666, "fusion_lon": 0.0}, {"is_reserved": 0, "type": "electric_scooter", "fusion_lat": 0.0, "is_disabled": 0, "rental_uris": {"ios": "https://dc.lft.to/lastmile_qr_scan", "android": "https://dc.lft.to/lastmile_qr_scan"}, "bike_id": "0e860069ada9e2d40d2b9a40fc4fb6da", "lat": 38.90404233333334, "name": "0e860069ada9e2d40d2b9a40fc4fb6da", "lon": -77.065034, "fusion_lon": 0.0}, {"is_reserved": 0, "type": "electric_scooter", "fusion_lat": 0.0, "is_disabled": 0, "rental_uris": {"ios": "https://dc.lft.to/lastmile_qr_scan", "android": "https://dc.lft.to/lastmile_qr_scan"}, "bike_id": "4b596888ea615c62719cb09b001cab3a", "lat": 38.905536, "name": "4b596888ea615c62719cb09b001cab3a", "lon": -77.05907833333333, "fusion_lon": 0.0}, {"is_reserved": 0, "type": "electric_scooter", "fusion_lat": 0.0, "is_disabled": 0, "rental_uris": {"ios": "https://dc.lft.to/lastmile_qr_scan", "android": "https://dc.lft.to/lastmile_qr_scan"}, "bike_id": "39f6c0b307664d80c356a603ec72808e", "lat": 38.92033033333333, "name": "39f6c0b307664d80c356a603ec72808e", "lon": -77.03855133333333, "fusion_lon": 0.0}, {"is_reserved": 0, "type": "electric_scooter", "fusion_lat": 0.0, "is_disabled": 0, "rental_uris": {"ios": "https://dc.lft.to/lastmile_qr_scan", "android": "https://dc.lft.to/lastmile_qr_scan"}, "bike_id": "a2a74845d88109d894a8495a2acb806a", "lat": 38.927176333333335, "name": "a2a74845d88109d894a8495a2acb806a", "lon": -77.0514285, "fusion_lon": 0.0}, {"is_reserved": 0, "type": "electric_scooter", "fusion_lat": 0.0, "is_disabled": 0, "rental_uris": {"ios": "https://dc.lft.to/lastmile_qr_scan", "android": "https://dc.lft.to/lastmile_qr_scan"}, "bike_id": "848e19a2a127d77819331ab3edcef0c3", "lat": 38.86375016666667, "name": "848e19a2a127d77819331ab3edcef0c3", "lon": -77.01357816666666, "fusion_lon": 0.0}, {"is_reserved": 0, "type": "electric_scooter", "fusion_lat": 0.0, "is_disabled": 0, "rental_uris": {"ios": "https://dc.lft.to/lastmile_qr_scan", "android": "https://dc.lft.to/lastmile_qr_scan"}, "bike_id": "b44510a1baf72f3a346d828cdc54467b", "lat": 38.9056565, "name": "b44510a1baf72f3a346d828cdc54467b", "lon": -77.044409, "fusion_lon": 0.0}, {"is_reserved": 0, "type": "electric_scooter", "fusion_lat": 0.0, "is_disabled": 0, "rental_uris": {"ios": "https://dc.lft.to/lastmile_qr_scan", "android": "https://dc.lft.to/lastmile_qr_scan"}, "bike_id": "e89e54b9101d5fa1bc6fdc439f7ec4a7", "lat": 38.898794333333335, "name": "e89e54b9101d5fa1bc6fdc439f7ec4a7", "lon": -76.9318055, "fusion_lon": 0.0}, {"is_reserved": 0, "type": "electric_scooter", "fusion_lat": 0.0, "is_disabled": 0, "rental_uris": {"ios": "https://dc.lft.to/lastmile_qr_scan", "android": "https://dc.lft.to/lastmile_qr_scan"}, "bike_id": "24920997d326cd4e87f5bb7826bff4db", "lat": 38.8801035, "name": "24920997d326cd4e87f5bb7826bff4db", "lon": -76.99741133333333, "fusion_lon": 0.0}, {"is_reserved": 0, "type": "electric_scooter", "fusion_lat": 0.0, "is_disabled": 0, "rental_uris": {"ios": "https://dc.lft.to/lastmile_qr_scan", "android": "https://dc.lft.to/lastmile_qr_scan"}, "bike_id": "7bc7d8937c2b043e1156a2aeaf888151", "lat": 38.8922675, "name": "7bc7d8937c2b043e1156a2aeaf888151", "lon": -77.02224483333333, "fusion_lon": 0.0}, {"is_reserved": 0, "type": "electric_scooter", "fusion_lat": 0.0, "is_disabled": 0, "rental_uris": {"ios": "https://dc.lft.to/lastmile_qr_scan", "android": "https://dc.lft.to/lastmile_qr_scan"}, "bike_id": "86f10c25db50829f739e50c76940300b", "lat": 38.90061383333333, "name": "86f10c25db50829f739e50c76940300b", "lon": -77.050008, "fusion_lon": 0.0}, {"is_reserved": 0, "type": "electric_scooter", "fusion_lat": 0.0, "is_disabled": 0, "rental_uris": {"ios": "https://dc.lft.to/lastmile_qr_scan", "android": "https://dc.lft.to/lastmile_qr_scan"}, "bike_id": "ba4aadc479fab0bbb1ae3c43d383f0c2", "lat": 38.918499, "name": "ba4aadc479fab0bbb1ae3c43d383f0c2", "lon": -77.0410605, "fusion_lon": 0.0}, {"is_reserved": 0, "type": "electric_scooter", "fusion_lat": 0.0, "is_disabled": 0, "rental_uris": {"ios": "https://dc.lft.to/lastmile_qr_scan", "android": "https://dc.lft.to/lastmile_qr_scan"}, "bike_id": "0ca320720775ecc33e1d6e050fb6665f", "lat": 38.91458333333333, "name": "0ca320720775ecc33e1d6e050fb6665f", "lon": -77.0321345, "fusion_lon": 0.0}, {"is_reserved": 0, "type": "electric_scooter", "fusion_lat": 0.0, "is_disabled": 0, "rental_uris": {"ios": "https://dc.lft.to/lastmile_qr_scan", "android": "https://dc.lft.to/lastmile_qr_scan"}, "bike_id": "28e5bd9191cd652be6173f627159c7d1", "lat": 38.920758, "name": "28e5bd9191cd652be6173f627159c7d1", "lon": -77.0250755, "fusion_lon": 0.0}, {"is_reserved": 0, "type": "electric_scooter", "fusion_lat": 0.0, "is_disabled": 0, "rental_uris": {"ios": "https://dc.lft.to/lastmile_qr_scan", "android": "https://dc.lft.to/lastmile_qr_scan"}, "bike_id": "4f04016f26698ec8f8a20445c3227238", "lat": 38.91699916666666, "name": "4f04016f26698ec8f8a20445c3227238", "lon": -77.092112, "fusion_lon": 0.0}, {"is_reserved": 0, "type": "electric_scooter", "fusion_lat": 0.0, "is_disabled": 0, "rental_uris": {"ios": "https://dc.lft.to/lastmile_qr_scan", "android": "https://dc.lft.to/lastmile_qr_scan"}, "bike_id": "28bb3e6264dd12fae6ecf18b24a5b997", "lat": 38.92075033333333, "name": "28bb3e6264dd12fae6ecf18b24a5b997", "lon": -77.02519783333334, "fusion_lon": 0.0}, {"is_reserved": 0, "type": "electric_scooter", "fusion_lat": 0.0, "is_disabled": 0, "rental_uris": {"ios": "https://dc.lft.to/lastmile_qr_scan", "android": "https://dc.lft.to/lastmile_qr_scan"}, "bike_id": "2d354c7acb775eff8c35bff739f049d8", "lat": 38.922836, "name": "2d354c7acb775eff8c35bff739f049d8", "lon": -77.036645, "fusion_lon": 0.0}, {"is_reserved": 0, "type": "electric_scooter", "fusion_lat": 0.0, "is_disabled": 0, "rental_uris": {"ios": "https://dc.lft.to/lastmile_qr_scan", "android": "https://dc.lft.to/lastmile_qr_scan"}, "bike_id": "131c941f6291fabfcd203bf2fd266322", "lat": 38.89737516666667, "name": "131c941f6291fabfcd203bf2fd266322", "lon": -77.04365716666666, "fusion_lon": 0.0}, {"is_reserved": 0, "type": "electric_scooter", "fusion_lat": 0.0, "is_disabled": 0, "rental_uris": {"ios": "https://dc.lft.to/lastmile_qr_scan", "android": "https://dc.lft.to/lastmile_qr_scan"}, "bike_id": "585a22b04f3e240de40691412080ab8f", "lat": 38.89475566666667, "name": "585a22b04f3e240de40691412080ab8f", "lon": -77.01094533333334, "fusion_lon": 0.0}, {"is_reserved": 0, "type": "electric_scooter", "fusion_lat": 0.0, "is_disabled": 0, "rental_uris": {"ios": "https://dc.lft.to/lastmile_qr_scan", "android": "https://dc.lft.to/lastmile_qr_scan"}, "bike_id": "5a9b2b6bd1bb8da1d3bc0969d29eb48d", "lat": 38.930464666666666, "name": "5a9b2b6bd1bb8da1d3bc0969d29eb48d", "lon": -77.0321755, "fusion_lon": 0.0}, {"is_reserved": 0, "type": "electric_scooter", "fusion_lat": 0.0, "is_disabled": 0, "rental_uris": {"ios": "https://dc.lft.to/lastmile_qr_scan", "android": "https://dc.lft.to/lastmile_qr_scan"}, "bike_id": "8404e5cdc1033842047c23a2a2b34cba", "lat": 38.939749, "name": "8404e5cdc1033842047c23a2a2b34cba", "lon": -77.03429766666666, "fusion_lon": 0.0}, {"is_reserved": 0, "type": "electric_bike", "fusion_lat": 0.0, "is_disabled": 0, "rental_uris": {"ios": "https://dc.lft.to/lastmile_qr_scan", "android": "https://dc.lft.to/lastmile_qr_scan"}, "bike_id": "dc6b1dcefdfb70609c42067a3e7eb85e", "lat": 39.00379616666667, "name": "dc6b1dcefdfb70609c42067a3e7eb85e", "lon": -77.0129615, "fusion_lon": 0.0}, {"is_reserved": 0, "type": "electric_scooter", "fusion_lat": 0.0, "is_disabled": 0, "rental_uris": {"ios": "https://dc.lft.to/lastmile_qr_scan", "android": "https://dc.lft.to/lastmile_qr_scan"}, "bike_id": "30570f5aa8b8407d1c30e3fd8e7ce3e4", "lat": 38.900574666666664, "name": "30570f5aa8b8407d1c30e3fd8e7ce3e4", "lon": -76.99334883333333, "fusion_lon": 0.0}, {"is_reserved": 0, "type": "electric_scooter", "fusion_lat": 0.0, "is_disabled": 0, "rental_uris": {"ios": "https://dc.lft.to/lastmile_qr_scan", "android": "https://dc.lft.to/lastmile_qr_scan"}, "bike_id": "02327c7125800929df331d0a9f07ac9c", "lat": 38.90352766666667, "name": "02327c7125800929df331d0a9f07ac9c", "lon": -77.02163283333333, "fusion_lon": 0.0}, {"is_reserved": 0, "type": "electric_scooter", "fusion_lat": 0.0, "is_disabled": 0, "rental_uris": {"ios": "https://dc.lft.to/lastmile_qr_scan", "android": "https://dc.lft.to/lastmile_qr_scan"}, "bike_id": "b8606d9858b0aa2b2fbfa2ddc2067584", "lat": 38.956442333333335, "name": "b8606d9858b0aa2b2fbfa2ddc2067584", "lon": -77.02820266666667, "fusion_lon": 0.0}, {"is_reserved": 0, "type": "electric_scooter", "fusion_lat": 0.0, "is_disabled": 0, "rental_uris": {"ios": "https://dc.lft.to/lastmile_qr_scan", "android": "https://dc.lft.to/lastmile_qr_scan"}, "bike_id": "12fdf0c48f9d116105080d604a2a1fbe", "lat": 38.903071, "name": "12fdf0c48f9d116105080d604a2a1fbe", "lon": -76.978064, "fusion_lon": 0.0}, {"is_reserved": 0, "type": "electric_scooter", "fusion_lat": 0.0, "is_disabled": 0, "rental_uris": {"ios": "https://dc.lft.to/lastmile_qr_scan", "android": "https://dc.lft.to/lastmile_qr_scan"}, "bike_id": "b392599631fb750aa133a748a6b11462", "lat": 38.88746966666667, "name": "b392599631fb750aa133a748a6b11462", "lon": -77.01538966666666, "fusion_lon": 0.0}, {"is_reserved": 0, "type": "electric_scooter", "fusion_lat": 0.0, "is_disabled": 0, "rental_uris": {"ios": "https://dc.lft.to/lastmile_qr_scan", "android": "https://dc.lft.to/lastmile_qr_scan"}, "bike_id": "59d4bc678cb175b87fb8a7f4eff4992c", "lat": 38.84268433333333, "name": "59d4bc678cb175b87fb8a7f4eff4992c", "lon": -76.98846416666666, "fusion_lon": 0.0}, {"is_reserved": 0, "type": "electric_scooter", "fusion_lat": 0.0, "is_disabled": 0, "rental_uris": {"ios": "https://dc.lft.to/lastmile_qr_scan", "android": "https://dc.lft.to/lastmile_qr_scan"}, "bike_id": "a5dec7e10e510be2b037e84e855c969a", "lat": 38.922860166666666, "name": "a5dec7e10e510be2b037e84e855c969a", "lon": -77.02972333333334, "fusion_lon": 0.0}, {"is_reserved": 0, "type": "electric_bike", "fusion_lat": 0.0, "is_disabled": 0, "rental_uris": {"ios": "https://dc.lft.to/lastmile_qr_scan", "android": "https://dc.lft.to/lastmile_qr_scan"}, "bike_id": "ce33404a0865969cd070d5d80fd07b2a", "lat": 38.88375333333333, "name": "ce33404a0865969cd070d5d80fd07b2a", "lon": -76.923742, "fusion_lon": 0.0}, {"is_reserved": 0, "type": "electric_bike", "fusion_lat": 0.0, "is_disabled": 0, "rental_uris": {"ios": "https://dc.lft.to/lastmile_qr_scan", "android": "https://dc.lft.to/lastmile_qr_scan"}, "bike_id": "1a14b3be05ec26749d0853094e890c38", "lat": 38.841039333333335, "name": "1a14b3be05ec26749d0853094e890c38", "lon": -77.08941866666666, "fusion_lon": 0.0}, {"is_reserved": 0, "type": "electric_scooter", "fusion_lat": 0.0, "is_disabled": 0, "rental_uris": {"ios": "https://dc.lft.to/lastmile_qr_scan", "android": "https://dc.lft.to/lastmile_qr_scan"}, "bike_id": "5aae3918fe4021630c658492595d1fd9", "lat": 38.88384716666667, "name": "5aae3918fe4021630c658492595d1fd9", "lon": -76.9304835, "fusion_lon": 0.0}, {"is_reserved": 0, "type": "electric_scooter", "fusion_lat": 0.0, "is_disabled": 0, "rental_uris": {"ios": "https://dc.lft.to/lastmile_qr_scan", "android": "https://dc.lft.to/lastmile_qr_scan"}, "bike_id": "522c64489b4389fada9d918692bb3cc0", "lat": 38.88445733333333, "name": "522c64489b4389fada9d918692bb3cc0", "lon": -77.0089925, "fusion_lon": 0.0}, {"is_reserved": 0, "type": "electric_scooter", "fusion_lat": 0.0, "is_disabled": 0, "rental_uris": {"ios": "https://dc.lft.to/lastmile_qr_scan", "android": "https://dc.lft.to/lastmile_qr_scan"}, "bike_id": "8f987be764ccec777cf3b707b3231b36", "lat": 38.9038025, "name": "8f987be764ccec777cf3b707b3231b36", "lon": -76.99499183333333, "fusion_lon": 0.0}, {"is_reserved": 0, "type": "electric_scooter", "fusion_lat": 0.0, "is_disabled": 0, "rental_uris": {"ios": "https://dc.lft.to/lastmile_qr_scan", "android": "https://dc.lft.to/lastmile_qr_scan"}, "bike_id": "7e975e1297e73bfa2e8e5f93f5e79573", "lat": 38.92726483333333, "name": "7e975e1297e73bfa2e8e5f93f5e79573", "lon": -77.02314416666667, "fusion_lon": 0.0}, {"is_reserved": 0, "type": "electric_scooter", "fusion_lat": 0.0, "is_disabled": 0, "rental_uris": {"ios": "https://dc.lft.to/lastmile_qr_scan", "android": "https://dc.lft.to/lastmile_qr_scan"}, "bike_id": "12b39cb4d3123856c2e45bed7630df42", "lat": 38.901937, "name": "12b39cb4d3123856c2e45bed7630df42", "lon": -77.04880516666667, "fusion_lon": 0.0}, {"is_reserved": 0, "type": "electric_scooter", "fusion_lat": 0.0, "is_disabled": 0, "rental_uris": {"ios": "https://dc.lft.to/lastmile_qr_scan", "android": "https://dc.lft.to/lastmile_qr_scan"}, "bike_id": "2bf8c08ad60346fa867bfa0695fc0a71", "lat": 38.900054833333336, "name": "2bf8c08ad60346fa867bfa0695fc0a71", "lon": -77.002659, "fusion_lon": 0.0}, {"is_reserved": 0, "type": "electric_scooter", "fusion_lat": 0.0, "is_disabled": 0, "rental_uris": {"ios": "https://dc.lft.to/lastmile_qr_scan", "android": "https://dc.lft.to/lastmile_qr_scan"}, "bike_id": "ef45434d79d3e0f0a962d5a02f4a48e1", "lat": 38.909744, "name": "ef45434d79d3e0f0a962d5a02f4a48e1", "lon": -77.03861516666667, "fusion_lon": 0.0}, {"is_reserved": 0, "type": "electric_bike", "fusion_lat": 0.0, "is_disabled": 0, "rental_uris": {"ios": "https://dc.lft.to/lastmile_qr_scan", "android": "https://dc.lft.to/lastmile_qr_scan"}, "bike_id": "ea7f97231c6a41ecc27e328d774271cd", "lat": 39.084385833333336, "name": "ea7f97231c6a41ecc27e328d774271cd", "lon": -76.9514015, "fusion_lon": 0.0}, {"is_reserved": 0, "type": "electric_scooter", "fusion_lat": 0.0, "is_disabled": 0, "rental_uris": {"ios": "https://dc.lft.to/lastmile_qr_scan", "android": "https://dc.lft.to/lastmile_qr_scan"}, "bike_id": "3f73747730408dbbb47ac777709b3699", "lat": 38.93164983333333, "name": "3f73747730408dbbb47ac777709b3699", "lon": -77.05608283333333, "fusion_lon": 0.0}, {"is_reserved": 0, "type": "electric_scooter", "fusion_lat": 0.0, "is_disabled": 0, "rental_uris": {"ios": "https://dc.lft.to/lastmile_qr_scan", "android": "https://dc.lft.to/lastmile_qr_scan"}, "bike_id": "5ea8e75360adb2f8a435a76bc0e3a806", "lat": 38.915906166666666, "name": "5ea8e75360adb2f8a435a76bc0e3a806", "lon": -77.03183383333334, "fusion_lon": 0.0}, {"is_reserved": 0, "type": "electric_scooter", "fusion_lat": 0.0, "is_disabled": 0, "rental_uris": {"ios": "https://dc.lft.to/lastmile_qr_scan", "android": "https://dc.lft.to/lastmile_qr_scan"}, "bike_id": "5770469f97229fbe71b4b946f2599f8f", "lat": 38.91280616666667, "name": "5770469f97229fbe71b4b946f2599f8f", "lon": -77.0318115, "fusion_lon": 0.0}, {"is_reserved": 0, "type": "electric_scooter", "fusion_lat": 0.0, "is_disabled": 0, "rental_uris": {"ios": "https://dc.lft.to/lastmile_qr_scan", "android": "https://dc.lft.to/lastmile_qr_scan"}, "bike_id": "edacbaa2623d9b68b2c19cc2ed66f78c", "lat": 38.916834, "name": "edacbaa2623d9b68b2c19cc2ed66f78c", "lon": -77.03686233333333, "fusion_lon": 0.0}, {"is_reserved": 0, "type": "electric_scooter", "fusion_lat": 0.0, "is_disabled": 0, "rental_uris": {"ios": "https://dc.lft.to/lastmile_qr_scan", "android": "https://dc.lft.to/lastmile_qr_scan"}, "bike_id": "03a8bce2bebcfab2b95541e0e4bc6641", "lat": 38.90258516666667, "name": "03a8bce2bebcfab2b95541e0e4bc6641", "lon": -77.005708, "fusion_lon": 0.0}, {"is_reserved": 0, "type": "electric_scooter", "fusion_lat": 0.0, "is_disabled": 0, "rental_uris": {"ios": "https://dc.lft.to/lastmile_qr_scan", "android": "https://dc.lft.to/lastmile_qr_scan"}, "bike_id": "59b0ef7a5fd9a47f687f9a5b4c33a552", "lat": 38.91416916666667, "name": "59b0ef7a5fd9a47f687f9a5b4c33a552", "lon": -77.0221375, "fusion_lon": 0.0}, {"is_reserved": 0, "type": "electric_scooter", "fusion_lat": 0.0, "is_disabled": 0, "rental_uris": {"ios": "https://dc.lft.to/lastmile_qr_scan", "android": "https://dc.lft.to/lastmile_qr_scan"}, "bike_id": "e73f3a7a0d3f8579aeb88899fb030f8d", "lat": 38.919721, "name": "e73f3a7a0d3f8579aeb88899fb030f8d", "lon": -77.07119333333333, "fusion_lon": 0.0}, {"is_reserved": 0, "type": "electric_scooter", "fusion_lat": 0.0, "is_disabled": 0, "rental_uris": {"ios": "https://dc.lft.to/lastmile_qr_scan", "android": "https://dc.lft.to/lastmile_qr_scan"}, "bike_id": "8b6691f26a634d04f7ef1cac9f305a7f", "lat": 38.92062883333333, "name": "8b6691f26a634d04f7ef1cac9f305a7f", "lon": -77.0422775, "fusion_lon": 0.0}, {"is_reserved": 0, "type": "electric_scooter", "fusion_lat": 0.0, "is_disabled": 0, "rental_uris": {"ios": "https://dc.lft.to/lastmile_qr_scan", "android": "https://dc.lft.to/lastmile_qr_scan"}, "bike_id": "b27d048ab9a10447f733824f5c52d997", "lat": 38.93982416666667, "name": "b27d048ab9a10447f733824f5c52d997", "lon": -77.0288815, "fusion_lon": 0.0}, {"is_reserved": 0, "type": "electric_scooter", "fusion_lat": 0.0, "is_disabled": 0, "rental_uris": {"ios": "https://dc.lft.to/lastmile_qr_scan", "android": "https://dc.lft.to/lastmile_qr_scan"}, "bike_id": "e04f5910f06180092fd560ffcf213678", "lat": 38.900321166666664, "name": "e04f5910f06180092fd560ffcf213678", "lon": -77.0367935, "fusion_lon": 0.0}, {"is_reserved": 0, "type": "electric_bike", "fusion_lat": 0.0, "is_disabled": 0, "rental_uris": {"ios": "https://dc.lft.to/lastmile_qr_scan", "android": "https://dc.lft.to/lastmile_qr_scan"}, "bike_id": "9bd9ff5189711609d56fe2b26fa63af4", "lat": 38.882827, "name": "9bd9ff5189711609d56fe2b26fa63af4", "lon": -76.932356, "fusion_lon": 0.0}, {"is_reserved": 0, "type": "electric_scooter", "fusion_lat": 0.0, "is_disabled": 0, "rental_uris": {"ios": "https://dc.lft.to/lastmile_qr_scan", "android": "https://dc.lft.to/lastmile_qr_scan"}, "bike_id": "5559023e0dd67dad51a537672b75e6e9", "lat": 38.93082483333333, "name": "5559023e0dd67dad51a537672b75e6e9", "lon": -77.03233233333333, "fusion_lon": 0.0}, {"is_reserved": 0, "type": "electric_scooter", "fusion_lat": 0.0, "is_disabled": 0, "rental_uris": {"ios": "https://dc.lft.to/lastmile_qr_scan", "android": "https://dc.lft.to/lastmile_qr_scan"}, "bike_id": "4ef1a3a49f8a80ac2c9c5b8015c010a1", "lat": 38.932194, "name": "4ef1a3a49f8a80ac2c9c5b8015c010a1", "lon": -77.03532033333333, "fusion_lon": 0.0}, {"is_reserved": 0, "type": "electric_scooter", "fusion_lat": 0.0, "is_disabled": 0, "rental_uris": {"ios": "https://dc.lft.to/lastmile_qr_scan", "android": "https://dc.lft.to/lastmile_qr_scan"}, "bike_id": "42cef2df0a965c779a7927deee451417", "lat": 38.91042316666667, "name": "42cef2df0a965c779a7927deee451417", "lon": -77.03951333333333, "fusion_lon": 0.0}, {"is_reserved": 0, "type": "electric_scooter", "fusion_lat": 0.0, "is_disabled": 0, "rental_uris": {"ios": "https://dc.lft.to/lastmile_qr_scan", "android": "https://dc.lft.to/lastmile_qr_scan"}, "bike_id": "20bb380fa160de3ccb95f3e410202f53", "lat": 38.920210833333336, "name": "20bb380fa160de3ccb95f3e410202f53", "lon": -77.07126216666667, "fusion_lon": 0.0}, {"is_reserved": 0, "type": "electric_scooter", "fusion_lat": 0.0, "is_disabled": 0, "rental_uris": {"ios": "https://dc.lft.to/lastmile_qr_scan", "android": "https://dc.lft.to/lastmile_qr_scan"}, "bike_id": "3dfc46b294cfd0e608ff7142960c3a40", "lat": 38.92076, "name": "3dfc46b294cfd0e608ff7142960c3a40", "lon": -77.025108, "fusion_lon": 0.0}, {"is_reserved": 0, "type": "electric_scooter", "fusion_lat": 0.0, "is_disabled": 0, "rental_uris": {"ios": "https://dc.lft.to/lastmile_qr_scan", "android": "https://dc.lft.to/lastmile_qr_scan"}, "bike_id": "3ee702346e4f6ca10c7a394d06d2b74b", "lat": 38.89906833333333, "name": "3ee702346e4f6ca10c7a394d06d2b74b", "lon": -77.04989383333333, "fusion_lon": 0.0}, {"is_reserved": 0, "type": "electric_scooter", "fusion_lat": 0.0, "is_disabled": 0, "rental_uris": {"ios": "https://dc.lft.to/lastmile_qr_scan", "android": "https://dc.lft.to/lastmile_qr_scan"}, "bike_id": "7ebd8b13f73f2bbb2939a372a840444c", "lat": 38.9020955, "name": "7ebd8b13f73f2bbb2939a372a840444c", "lon": -77.06123766666667, "fusion_lon": 0.0}, {"is_reserved": 0, "type": "electric_scooter", "fusion_lat": 0.0, "is_disabled": 0, "rental_uris": {"ios": "https://dc.lft.to/lastmile_qr_scan", "android": "https://dc.lft.to/lastmile_qr_scan"}, "bike_id": "76117bb859860d0b2be4dda995d512a5", "lat": 38.920237, "name": "76117bb859860d0b2be4dda995d512a5", "lon": -77.01705966666667, "fusion_lon": 0.0}, {"is_reserved": 0, "type": "electric_scooter", "fusion_lat": 0.0, "is_disabled": 0, "rental_uris": {"ios": "https://dc.lft.to/lastmile_qr_scan", "android": "https://dc.lft.to/lastmile_qr_scan"}, "bike_id": "5a1a74f77d665a7fa01d99341e77e9dd", "lat": 38.938693, "name": "5a1a74f77d665a7fa01d99341e77e9dd", "lon": -77.07233583333333, "fusion_lon": 0.0}, {"is_reserved": 0, "type": "electric_scooter", "fusion_lat": 0.0, "is_disabled": 0, "rental_uris": {"ios": "https://dc.lft.to/lastmile_qr_scan", "android": "https://dc.lft.to/lastmile_qr_scan"}, "bike_id": "6438c0cd678dc804a4e8a9c7f062eb48", "lat": 38.9097845, "name": "6438c0cd678dc804a4e8a9c7f062eb48", "lon": -77.03383066666666, "fusion_lon": 0.0}, {"is_reserved": 0, "type": "electric_scooter", "fusion_lat": 0.0, "is_disabled": 0, "rental_uris": {"ios": "https://dc.lft.to/lastmile_qr_scan", "android": "https://dc.lft.to/lastmile_qr_scan"}, "bike_id": "6561260d51142893aa54302907f8c01e", "lat": 38.939357, "name": "6561260d51142893aa54302907f8c01e", "lon": -77.072497, "fusion_lon": 0.0}, {"is_reserved": 0, "type": "electric_scooter", "fusion_lat": 0.0, "is_disabled": 0, "rental_uris": {"ios": "https://dc.lft.to/lastmile_qr_scan", "android": "https://dc.lft.to/lastmile_qr_scan"}, "bike_id": "204f9b7d1b1943aff9abb7e31e30b3f9", "lat": 38.90073533333333, "name": "204f9b7d1b1943aff9abb7e31e30b3f9", "lon": -77.04978533333333, "fusion_lon": 0.0}, {"is_reserved": 0, "type": "electric_scooter", "fusion_lat": 0.0, "is_disabled": 0, "rental_uris": {"ios": "https://dc.lft.to/lastmile_qr_scan", "android": "https://dc.lft.to/lastmile_qr_scan"}, "bike_id": "679a51a314a58921f0bbe4195aee602b", "lat": 38.92270366666666, "name": "679a51a314a58921f0bbe4195aee602b", "lon": -77.0423855, "fusion_lon": 0.0}, {"is_reserved": 0, "type": "electric_scooter", "fusion_lat": 0.0, "is_disabled": 0, "rental_uris": {"ios": "https://dc.lft.to/lastmile_qr_scan", "android": "https://dc.lft.to/lastmile_qr_scan"}, "bike_id": "61053d86f3fa86be901f3e5c90549460", "lat": 38.956346, "name": "61053d86f3fa86be901f3e5c90549460", "lon": -77.02210683333334, "fusion_lon": 0.0}, {"is_reserved": 0, "type": "electric_scooter", "fusion_lat": 0.0, "is_disabled": 0, "rental_uris": {"ios": "https://dc.lft.to/lastmile_qr_scan", "android": "https://dc.lft.to/lastmile_qr_scan"}, "bike_id": "5d4118d196ac6a043ff839b062e7319f", "lat": 38.92049183333334, "name": "5d4118d196ac6a043ff839b062e7319f", "lon": -77.01670766666666, "fusion_lon": 0.0}, {"is_reserved": 0, "type": "electric_scooter", "fusion_lat": 0.0, "is_disabled": 0, "rental_uris": {"ios": "https://dc.lft.to/lastmile_qr_scan", "android": "https://dc.lft.to/lastmile_qr_scan"}, "bike_id": "c27e8f1f879f0c5711dce9940a204d16", "lat": 38.922635666666665, "name": "c27e8f1f879f0c5711dce9940a204d16", "lon": -77.0366965, "fusion_lon": 0.0}, {"is_reserved": 0, "type": "electric_scooter", "fusion_lat": 0.0, "is_disabled": 0, "rental_uris": {"ios": "https://dc.lft.to/lastmile_qr_scan", "android": "https://dc.lft.to/lastmile_qr_scan"}, "bike_id": "32b97d7cc7b7b8fa3bef84ec937a8fe5", "lat": 38.87694966666667, "name": "32b97d7cc7b7b8fa3bef84ec937a8fe5", "lon": -76.99626366666666, "fusion_lon": 0.0}, {"is_reserved": 0, "type": "electric_scooter", "fusion_lat": 0.0, "is_disabled": 0, "rental_uris": {"ios": "https://dc.lft.to/lastmile_qr_scan", "android": "https://dc.lft.to/lastmile_qr_scan"}, "bike_id": "8eb4a1e158aa90fe3f806c95b572a8cf", "lat": 38.9175675, "name": "8eb4a1e158aa90fe3f806c95b572a8cf", "lon": -77.0279495, "fusion_lon": 0.0}, {"is_reserved": 0, "type": "electric_scooter", "fusion_lat": 0.0, "is_disabled": 0, "rental_uris": {"ios": "https://dc.lft.to/lastmile_qr_scan", "android": "https://dc.lft.to/lastmile_qr_scan"}, "bike_id": "81ac575265e2d200b57ef91cef17c0ec", "lat": 38.887150166666665, "name": "81ac575265e2d200b57ef91cef17c0ec", "lon": -76.983826, "fusion_lon": 0.0}, {"is_reserved": 0, "type": "electric_scooter", "fusion_lat": 0.0, "is_disabled": 0, "rental_uris": {"ios": "https://dc.lft.to/lastmile_qr_scan", "android": "https://dc.lft.to/lastmile_qr_scan"}, "bike_id": "f636bac5ac0e6ccdacd8e6724abf922e", "lat": 38.901842333333335, "name": "f636bac5ac0e6ccdacd8e6724abf922e", "lon": -76.9767015, "fusion_lon": 0.0}, {"is_reserved": 0, "type": "electric_scooter", "fusion_lat": 0.0, "is_disabled": 0, "rental_uris": {"ios": "https://dc.lft.to/lastmile_qr_scan", "android": "https://dc.lft.to/lastmile_qr_scan"}, "bike_id": "f30248e5a84176ce443fb630213f0aa8", "lat": 38.901475, "name": "f30248e5a84176ce443fb630213f0aa8", "lon": -77.03066416666667, "fusion_lon": 0.0}, {"is_reserved": 0, "type": "electric_scooter", "fusion_lat": 0.0, "is_disabled": 0, "rental_uris": {"ios": "https://dc.lft.to/lastmile_qr_scan", "android": "https://dc.lft.to/lastmile_qr_scan"}, "bike_id": "831ee6ad632588f154a7494311c4ecb9", "lat": 38.94081166666667, "name": "831ee6ad632588f154a7494311c4ecb9", "lon": -77.02722066666666, "fusion_lon": 0.0}, {"is_reserved": 0, "type": "electric_scooter", "fusion_lat": 0.0, "is_disabled": 0, "rental_uris": {"ios": "https://dc.lft.to/lastmile_qr_scan", "android": "https://dc.lft.to/lastmile_qr_scan"}, "bike_id": "34116eae534aeb9606ca4f968ec0e0a1", "lat": 38.8997345, "name": "34116eae534aeb9606ca4f968ec0e0a1", "lon": -76.926208, "fusion_lon": 0.0}, {"is_reserved": 0, "type": "electric_scooter", "fusion_lat": 0.0, "is_disabled": 0, "rental_uris": {"ios": "https://dc.lft.to/lastmile_qr_scan", "android": "https://dc.lft.to/lastmile_qr_scan"}, "bike_id": "9c45527d69a14085fa2818ee57ffe657", "lat": 38.93000516666667, "name": "9c45527d69a14085fa2818ee57ffe657", "lon": -77.0380155, "fusion_lon": 0.0}, {"is_reserved": 0, "type": "electric_bike", "fusion_lat": 0.0, "is_disabled": 0, "rental_uris": {"ios": "https://dc.lft.to/lastmile_qr_scan", "android": "https://dc.lft.to/lastmile_qr_scan"}, "bike_id": "9a0faf5a82803e64ec59c8d260295483", "lat": 39.025184333333335, "name": "9a0faf5a82803e64ec59c8d260295483", "lon": -77.0196695, "fusion_lon": 0.0}, {"is_reserved": 0, "type": "electric_scooter", "fusion_lat": 0.0, "is_disabled": 0, "rental_uris": {"ios": "https://dc.lft.to/lastmile_qr_scan", "android": "https://dc.lft.to/lastmile_qr_scan"}, "bike_id": "c2132e797a6f24d467a28afd8544421a", "lat": 38.93012, "name": "c2132e797a6f24d467a28afd8544421a", "lon": -77.03249233333334, "fusion_lon": 0.0}, {"is_reserved": 0, "type": "electric_bike", "fusion_lat": 0.0, "is_disabled": 0, "rental_uris": {"ios": "https://dc.lft.to/lastmile_qr_scan", "android": "https://dc.lft.to/lastmile_qr_scan"}, "bike_id": "416162cfc495b66c883f64db97d5c72a", "lat": 39.084761, "name": "416162cfc495b66c883f64db97d5c72a", "lon": -76.95069333333333, "fusion_lon": 0.0}, {"is_reserved": 0, "type": "electric_scooter", "fusion_lat": 0.0, "is_disabled": 0, "rental_uris": {"ios": "https://dc.lft.to/lastmile_qr_scan", "android": "https://dc.lft.to/lastmile_qr_scan"}, "bike_id": "d2687fddff8baa064eeb74fcddc9cfe2", "lat": 38.941985833333334, "name": "d2687fddff8baa064eeb74fcddc9cfe2", "lon": -77.02455766666667, "fusion_lon": 0.0}, {"is_reserved": 0, "type": "electric_scooter", "fusion_lat": 0.0, "is_disabled": 0, "rental_uris": {"ios": "https://dc.lft.to/lastmile_qr_scan", "android": "https://dc.lft.to/lastmile_qr_scan"}, "bike_id": "142f487e58a9fa0d77fe3da9574aa289", "lat": 38.905037666666665, "name": "142f487e58a9fa0d77fe3da9574aa289", "lon": -77.02809183333333, "fusion_lon": 0.0}, {"is_reserved": 0, "type": "electric_scooter", "fusion_lat": 0.0, "is_disabled": 0, "rental_uris": {"ios": "https://dc.lft.to/lastmile_qr_scan", "android": "https://dc.lft.to/lastmile_qr_scan"}, "bike_id": "b87c0e6d017d8bdae3b6daa356109d90", "lat": 38.88881933333333, "name": "b87c0e6d017d8bdae3b6daa356109d90", "lon": -76.99036066666666, "fusion_lon": 0.0}, {"is_reserved": 0, "type": "electric_scooter", "fusion_lat": 0.0, "is_disabled": 0, "rental_uris": {"ios": "https://dc.lft.to/lastmile_qr_scan", "android": "https://dc.lft.to/lastmile_qr_scan"}, "bike_id": "21793354a9ca0ab5d9cd727a3c4c4460", "lat": 38.9187725, "name": "21793354a9ca0ab5d9cd727a3c4c4460", "lon": -77.03191633333333, "fusion_lon": 0.0}, {"is_reserved": 0, "type": "electric_scooter", "fusion_lat": 0.0, "is_disabled": 0, "rental_uris": {"ios": "https://dc.lft.to/lastmile_qr_scan", "android": "https://dc.lft.to/lastmile_qr_scan"}, "bike_id": "1b9ef7aaae8a2b8c80ec5235bd21aee3", "lat": 38.95286433333333, "name": "1b9ef7aaae8a2b8c80ec5235bd21aee3", "lon": -77.06851283333333, "fusion_lon": 0.0}, {"is_reserved": 0, "type": "electric_scooter", "fusion_lat": 0.0, "is_disabled": 0, "rental_uris": {"ios": "https://dc.lft.to/lastmile_qr_scan", "android": "https://dc.lft.to/lastmile_qr_scan"}, "bike_id": "4f9c3e4f3ac88a2ed84d2798ea5e421f", "lat": 38.8785145, "name": "4f9c3e4f3ac88a2ed84d2798ea5e421f", "lon": -77.00685133333333, "fusion_lon": 0.0}, {"is_reserved": 0, "type": "electric_scooter", "fusion_lat": 0.0, "is_disabled": 0, "rental_uris": {"ios": "https://dc.lft.to/lastmile_qr_scan", "android": "https://dc.lft.to/lastmile_qr_scan"}, "bike_id": "ad66919475e2d0ea4bdade1da8353a57", "lat": 38.916641166666665, "name": "ad66919475e2d0ea4bdade1da8353a57", "lon": -77.04380766666667, "fusion_lon": 0.0}, {"is_reserved": 0, "type": "electric_bike", "fusion_lat": 0.0, "is_disabled": 0, "rental_uris": {"ios": "https://dc.lft.to/lastmile_qr_scan", "android": "https://dc.lft.to/lastmile_qr_scan"}, "bike_id": "453355c37df8cf6ddc0b136cfc64d6a8", "lat": 38.80517233333333, "name": "453355c37df8cf6ddc0b136cfc64d6a8", "lon": -77.04341666666667, "fusion_lon": 0.0}, {"is_reserved": 0, "type": "electric_bike", "fusion_lat": 0.0, "is_disabled": 0, "rental_uris": {"ios": "https://dc.lft.to/lastmile_qr_scan", "android": "https://dc.lft.to/lastmile_qr_scan"}, "bike_id": "228e84c28f7d872b29fbb5257013d6c4", "lat": 38.86493883333333, "name": "228e84c28f7d872b29fbb5257013d6c4", "lon": -76.96982916666667, "fusion_lon": 0.0}, {"is_reserved": 0, "type": "electric_scooter", "fusion_lat": 0.0, "is_disabled": 0, "rental_uris": {"ios": "https://dc.lft.to/lastmile_qr_scan", "android": "https://dc.lft.to/lastmile_qr_scan"}, "bike_id": "ed066ad4d1c5131185d909c6529d729c", "lat": 38.90277183333333, "name": "ed066ad4d1c5131185d909c6529d729c", "lon": -77.05913316666667, "fusion_lon": 0.0}, {"is_reserved": 0, "type": "electric_scooter", "fusion_lat": 0.0, "is_disabled": 0, "rental_uris": {"ios": "https://dc.lft.to/lastmile_qr_scan", "android": "https://dc.lft.to/lastmile_qr_scan"}, "bike_id": "ca2c67b7e5364909b755b47716369fae", "lat": 38.920989166666665, "name": "ca2c67b7e5364909b755b47716369fae", "lon": -77.02400083333333, "fusion_lon": 0.0}, {"is_reserved": 0, "type": "electric_scooter", "fusion_lat": 0.0, "is_disabled": 0, "rental_uris": {"ios": "https://dc.lft.to/lastmile_qr_scan", "android": "https://dc.lft.to/lastmile_qr_scan"}, "bike_id": "53cf4f38013557038e7ef5980037777b", "lat": 38.8737085, "name": "53cf4f38013557038e7ef5980037777b", "lon": -77.00133316666667, "fusion_lon": 0.0}, {"is_reserved": 0, "type": "electric_scooter", "fusion_lat": 0.0, "is_disabled": 0, "rental_uris": {"ios": "https://dc.lft.to/lastmile_qr_scan", "android": "https://dc.lft.to/lastmile_qr_scan"}, "bike_id": "c1ea44ce7f9af4b9ae5c9ab3171985f1", "lat": 38.897366833333336, "name": "c1ea44ce7f9af4b9ae5c9ab3171985f1", "lon": -77.01758183333334, "fusion_lon": 0.0}, {"is_reserved": 0, "type": "electric_scooter", "fusion_lat": 0.0, "is_disabled": 0, "rental_uris": {"ios": "https://dc.lft.to/lastmile_qr_scan", "android": "https://dc.lft.to/lastmile_qr_scan"}, "bike_id": "54259da7bbd4cb244d6412704203af74", "lat": 38.898399833333336, "name": "54259da7bbd4cb244d6412704203af74", "lon": -77.02759866666666, "fusion_lon": 0.0}, {"is_reserved": 0, "type": "electric_scooter", "fusion_lat": 0.0, "is_disabled": 0, "rental_uris": {"ios": "https://dc.lft.to/lastmile_qr_scan", "android": "https://dc.lft.to/lastmile_qr_scan"}, "bike_id": "bdc6272a6ffcabfe2c074f6b0d2b80f8", "lat": 38.91034283333333, "name": "bdc6272a6ffcabfe2c074f6b0d2b80f8", "lon": -76.98563066666667, "fusion_lon": 0.0}, {"is_reserved": 0, "type": "electric_scooter", "fusion_lat": 0.0, "is_disabled": 0, "rental_uris": {"ios": "https://dc.lft.to/lastmile_qr_scan", "android": "https://dc.lft.to/lastmile_qr_scan"}, "bike_id": "ab3d9b08d7854c406d8675cf4cb4ed57", "lat": 38.89014366666667, "name": "ab3d9b08d7854c406d8675cf4cb4ed57", "lon": -76.93734566666667, "fusion_lon": 0.0}, {"is_reserved": 0, "type": "electric_scooter", "fusion_lat": 0.0, "is_disabled": 0, "rental_uris": {"ios": "https://dc.lft.to/lastmile_qr_scan", "android": "https://dc.lft.to/lastmile_qr_scan"}, "bike_id": "47f97e3d286fdfab3baa25ac541c77e1", "lat": 38.89510966666667, "name": "47f97e3d286fdfab3baa25ac541c77e1", "lon": -77.02280866666666, "fusion_lon": 0.0}, {"is_reserved": 0, "type": "electric_scooter", "fusion_lat": 0.0, "is_disabled": 0, "rental_uris": {"ios": "https://dc.lft.to/lastmile_qr_scan", "android": "https://dc.lft.to/lastmile_qr_scan"}, "bike_id": "33886d22e5fa3870644cccd55f0caf46", "lat": 38.92121, "name": "33886d22e5fa3870644cccd55f0caf46", "lon": -77.04705316666667, "fusion_lon": 0.0}, {"is_reserved": 0, "type": "electric_scooter", "fusion_lat": 0.0, "is_disabled": 0, "rental_uris": {"ios": "https://dc.lft.to/lastmile_qr_scan", "android": "https://dc.lft.to/lastmile_qr_scan"}, "bike_id": "cbe8d28f7ab948ceb6164c528b823896", "lat": 38.87698, "name": "cbe8d28f7ab948ceb6164c528b823896", "lon": -76.99622233333334, "fusion_lon": 0.0}, {"is_reserved": 0, "type": "electric_bike", "fusion_lat": 0.0, "is_disabled": 0, "rental_uris": {"ios": "https://dc.lft.to/lastmile_qr_scan", "android": "https://dc.lft.to/lastmile_qr_scan"}, "bike_id": "62d4fd2af29511ff47a5b44c7715f49f", "lat": 38.898381, "name": "62d4fd2af29511ff47a5b44c7715f49f", "lon": -76.9427945, "fusion_lon": 0.0}, {"is_reserved": 0, "type": "electric_scooter", "fusion_lat": 0.0, "is_disabled": 0, "rental_uris": {"ios": "https://dc.lft.to/lastmile_qr_scan", "android": "https://dc.lft.to/lastmile_qr_scan"}, "bike_id": "e0838d1697b15bc710b9f7f00cdae974", "lat": 38.938746333333334, "name": "e0838d1697b15bc710b9f7f00cdae974", "lon": -77.02928516666667, "fusion_lon": 0.0}, {"is_reserved": 0, "type": "electric_bike", "fusion_lat": 0.0, "is_disabled": 0, "rental_uris": {"ios": "https://dc.lft.to/lastmile_qr_scan", "android": "https://dc.lft.to/lastmile_qr_scan"}, "bike_id": "6247dc4024f31db75181bbbc566c824c", "lat": 38.88114233333334, "name": "6247dc4024f31db75181bbbc566c824c", "lon": -77.01670883333334, "fusion_lon": 0.0}, {"is_reserved": 0, "type": "electric_scooter", "fusion_lat": 0.0, "is_disabled": 0, "rental_uris": {"ios": "https://dc.lft.to/lastmile_qr_scan", "android": "https://dc.lft.to/lastmile_qr_scan"}, "bike_id": "c360eef9d62f7c7f121458907ffb436c", "lat": 38.92227033333333, "name": "c360eef9d62f7c7f121458907ffb436c", "lon": -77.03890083333333, "fusion_lon": 0.0}, {"is_reserved": 0, "type": "electric_scooter", "fusion_lat": 0.0, "is_disabled": 0, "rental_uris": {"ios": "https://dc.lft.to/lastmile_qr_scan", "android": "https://dc.lft.to/lastmile_qr_scan"}, "bike_id": "63a1a728907dfb3c715f9f19328491da", "lat": 38.8744605, "name": "63a1a728907dfb3c715f9f19328491da", "lon": -77.00280016666666, "fusion_lon": 0.0}, {"is_reserved": 0, "type": "electric_bike", "fusion_lat": 0.0, "is_disabled": 0, "rental_uris": {"ios": "https://dc.lft.to/lastmile_qr_scan", "android": "https://dc.lft.to/lastmile_qr_scan"}, "bike_id": "d83845f2251588c4699b52244bd97e86", "lat": 38.84481533333334, "name": "d83845f2251588c4699b52244bd97e86", "lon": -76.99592016666666, "fusion_lon": 0.0}, {"is_reserved": 0, "type": "electric_scooter", "fusion_lat": 0.0, "is_disabled": 0, "rental_uris": {"ios": "https://dc.lft.to/lastmile_qr_scan", "android": "https://dc.lft.to/lastmile_qr_scan"}, "bike_id": "18fc8a8b976783c815cbdcc6fc500209", "lat": 38.917348833333335, "name": "18fc8a8b976783c815cbdcc6fc500209", "lon": -77.06893866666667, "fusion_lon": 0.0}, {"is_reserved": 0, "type": "electric_scooter", "fusion_lat": 0.0, "is_disabled": 0, "rental_uris": {"ios": "https://dc.lft.to/lastmile_qr_scan", "android": "https://dc.lft.to/lastmile_qr_scan"}, "bike_id": "1cf150c14745e6a3050812f5e0f955df", "lat": 38.9170985, "name": "1cf150c14745e6a3050812f5e0f955df", "lon": -77.04684633333333, "fusion_lon": 0.0}, {"is_reserved": 0, "type": "electric_scooter", "fusion_lat": 0.0, "is_disabled": 0, "rental_uris": {"ios": "https://dc.lft.to/lastmile_qr_scan", "android": "https://dc.lft.to/lastmile_qr_scan"}, "bike_id": "9f99b5bc44607c67b1647a60939d6d00", "lat": 38.903672, "name": "9f99b5bc44607c67b1647a60939d6d00", "lon": -77.05210566666666, "fusion_lon": 0.0}, {"is_reserved": 0, "type": "electric_bike", "fusion_lat": 0.0, "is_disabled": 0, "rental_uris": {"ios": "https://dc.lft.to/lastmile_qr_scan", "android": "https://dc.lft.to/lastmile_qr_scan"}, "bike_id": "929f401fb7cfde9d96efc738c43998ae", "lat": 38.804830333333335, "name": "929f401fb7cfde9d96efc738c43998ae", "lon": -76.99107616666667, "fusion_lon": 0.0}, {"is_reserved": 0, "type": "electric_scooter", "fusion_lat": 0.0, "is_disabled": 0, "rental_uris": {"ios": "https://dc.lft.to/lastmile_qr_scan", "android": "https://dc.lft.to/lastmile_qr_scan"}, "bike_id": "e4d495781f02fa4ba82e402bb689ae21", "lat": 38.92249266666666, "name": "e4d495781f02fa4ba82e402bb689ae21", "lon": -77.0308955, "fusion_lon": 0.0}, {"is_reserved": 0, "type": "electric_scooter", "fusion_lat": 0.0, "is_disabled": 0, "rental_uris": {"ios": "https://dc.lft.to/lastmile_qr_scan", "android": "https://dc.lft.to/lastmile_qr_scan"}, "bike_id": "82356ea44143b0decba9deed60aefb4e", "lat": 38.90968016666667, "name": "82356ea44143b0decba9deed60aefb4e", "lon": -77.0459335, "fusion_lon": 0.0}, {"is_reserved": 0, "type": "electric_scooter", "fusion_lat": 0.0, "is_disabled": 0, "rental_uris": {"ios": "https://dc.lft.to/lastmile_qr_scan", "android": "https://dc.lft.to/lastmile_qr_scan"}, "bike_id": "02d49c06c4986551bbf374ebc9f7625e", "lat": 38.898159166666666, "name": "02d49c06c4986551bbf374ebc9f7625e", "lon": -77.0021235, "fusion_lon": 0.0}, {"is_reserved": 0, "type": "electric_scooter", "fusion_lat": 0.0, "is_disabled": 0, "rental_uris": {"ios": "https://dc.lft.to/lastmile_qr_scan", "android": "https://dc.lft.to/lastmile_qr_scan"}, "bike_id": "da71320113cfd7f774c91dae007674a3", "lat": 38.902469333333336, "name": "da71320113cfd7f774c91dae007674a3", "lon": -77.04658883333333, "fusion_lon": 0.0}, {"is_reserved": 0, "type": "electric_scooter", "fusion_lat": 0.0, "is_disabled": 0, "rental_uris": {"ios": "https://dc.lft.to/lastmile_qr_scan", "android": "https://dc.lft.to/lastmile_qr_scan"}, "bike_id": "a7e69b1112bb78f8507acb535b12df1c", "lat": 38.910377833333335, "name": "a7e69b1112bb78f8507acb535b12df1c", "lon": -77.03801066666666, "fusion_lon": 0.0}, {"is_reserved": 0, "type": "electric_scooter", "fusion_lat": 0.0, "is_disabled": 0, "rental_uris": {"ios": "https://dc.lft.to/lastmile_qr_scan", "android": "https://dc.lft.to/lastmile_qr_scan"}, "bike_id": "31c3ebcf3466b6f217206991e3eb5b21", "lat": 38.900793666666665, "name": "31c3ebcf3466b6f217206991e3eb5b21", "lon": -77.00926983333333, "fusion_lon": 0.0}, {"is_reserved": 0, "type": "electric_scooter", "fusion_lat": 0.0, "is_disabled": 0, "rental_uris": {"ios": "https://dc.lft.to/lastmile_qr_scan", "android": "https://dc.lft.to/lastmile_qr_scan"}, "bike_id": "8cc1428085e41021255f06884e3ce292", "lat": 38.908596, "name": "8cc1428085e41021255f06884e3ce292", "lon": -76.99165, "fusion_lon": 0.0}, {"is_reserved": 0, "type": "electric_bike", "fusion_lat": 0.0, "is_disabled": 0, "rental_uris": {"ios": "https://dc.lft.to/lastmile_qr_scan", "android": "https://dc.lft.to/lastmile_qr_scan"}, "bike_id": "675d3bfef7dafced309704e4b23bd5ef", "lat": 39.0744115, "name": "675d3bfef7dafced309704e4b23bd5ef", "lon": -77.11519166666666, "fusion_lon": 0.0}, {"is_reserved": 0, "type": "electric_scooter", "fusion_lat": 0.0, "is_disabled": 0, "rental_uris": {"ios": "https://dc.lft.to/lastmile_qr_scan", "android": "https://dc.lft.to/lastmile_qr_scan"}, "bike_id": "d239904c5272b0a4b2cf43bc480c3cd2", "lat": 38.91119283333333, "name": "d239904c5272b0a4b2cf43bc480c3cd2", "lon": -77.04369733333333, "fusion_lon": 0.0}, {"is_reserved": 0, "type": "electric_scooter", "fusion_lat": 0.0, "is_disabled": 0, "rental_uris": {"ios": "https://dc.lft.to/lastmile_qr_scan", "android": "https://dc.lft.to/lastmile_qr_scan"}, "bike_id": "0d593be29825104cfbc5ff2835c0dfc3", "lat": 38.899708, "name": "0d593be29825104cfbc5ff2835c0dfc3", "lon": -77.02385433333333, "fusion_lon": 0.0}, {"is_reserved": 0, "type": "electric_scooter", "fusion_lat": 0.0, "is_disabled": 0, "rental_uris": {"ios": "https://dc.lft.to/lastmile_qr_scan", "android": "https://dc.lft.to/lastmile_qr_scan"}, "bike_id": "dced56ef3a035bb51b05f72c1a66b57e", "lat": 38.932660166666665, "name": "dced56ef3a035bb51b05f72c1a66b57e", "lon": -77.02097566666667, "fusion_lon": 0.0}, {"is_reserved": 0, "type": "electric_bike", "fusion_lat": 0.0, "is_disabled": 0, "rental_uris": {"ios": "https://dc.lft.to/lastmile_qr_scan", "android": "https://dc.lft.to/lastmile_qr_scan"}, "bike_id": "7b91075a775bf4f3c4c005d0c8cd974a", "lat": 38.80403, "name": "7b91075a775bf4f3c4c005d0c8cd974a", "lon": -77.11330183333334, "fusion_lon": 0.0}, {"is_reserved": 0, "type": "electric_bike", "fusion_lat": 0.0, "is_disabled": 0, "rental_uris": {"ios": "https://dc.lft.to/lastmile_qr_scan", "android": "https://dc.lft.to/lastmile_qr_scan"}, "bike_id": "61006779c1314f26b776d788eb7059c1", "lat": 38.85596566666667, "name": "61006779c1314f26b776d788eb7059c1", "lon": -76.97272, "fusion_lon": 0.0}, {"is_reserved": 0, "type": "electric_scooter", "fusion_lat": 0.0, "is_disabled": 0, "rental_uris": {"ios": "https://dc.lft.to/lastmile_qr_scan", "android": "https://dc.lft.to/lastmile_qr_scan"}, "bike_id": "de940881f2e9a2de41f623a888aa81c5", "lat": 38.9572765, "name": "de940881f2e9a2de41f623a888aa81c5", "lon": -77.02565766666666, "fusion_lon": 0.0}, {"is_reserved": 0, "type": "electric_scooter", "fusion_lat": 0.0, "is_disabled": 0, "rental_uris": {"ios": "https://dc.lft.to/lastmile_qr_scan", "android": "https://dc.lft.to/lastmile_qr_scan"}, "bike_id": "a8113e56c6271bf7c15e9c03d65c2d67", "lat": 38.87105566666666, "name": "a8113e56c6271bf7c15e9c03d65c2d67", "lon": -77.012177, "fusion_lon": 0.0}, {"is_reserved": 0, "type": "electric_scooter", "fusion_lat": 0.0, "is_disabled": 0, "rental_uris": {"ios": "https://dc.lft.to/lastmile_qr_scan", "android": "https://dc.lft.to/lastmile_qr_scan"}, "bike_id": "28ad21d758b39eaea7b1bbf8b729f575", "lat": 38.909638666666666, "name": "28ad21d758b39eaea7b1bbf8b729f575", "lon": -77.023087, "fusion_lon": 0.0}, {"is_reserved": 0, "type": "electric_scooter", "fusion_lat": 0.0, "is_disabled": 0, "rental_uris": {"ios": "https://dc.lft.to/lastmile_qr_scan", "android": "https://dc.lft.to/lastmile_qr_scan"}, "bike_id": "0b489748e828ccff3cdffa2740fdfa35", "lat": 38.92414016666667, "name": "0b489748e828ccff3cdffa2740fdfa35", "lon": -77.02125833333334, "fusion_lon": 0.0}, {"is_reserved": 0, "type": "electric_scooter", "fusion_lat": 0.0, "is_disabled": 0, "rental_uris": {"ios": "https://dc.lft.to/lastmile_qr_scan", "android": "https://dc.lft.to/lastmile_qr_scan"}, "bike_id": "5ead73568cdafe176ee04635c2def404", "lat": 38.905288666666664, "name": "5ead73568cdafe176ee04635c2def404", "lon": -77.05879333333333, "fusion_lon": 0.0}, {"is_reserved": 0, "type": "electric_scooter", "fusion_lat": 0.0, "is_disabled": 0, "rental_uris": {"ios": "https://dc.lft.to/lastmile_qr_scan", "android": "https://dc.lft.to/lastmile_qr_scan"}, "bike_id": "ea5e36e0b6f38a03cc1d1ea331ed3a55", "lat": 38.87922783333333, "name": "ea5e36e0b6f38a03cc1d1ea331ed3a55", "lon": -77.0214965, "fusion_lon": 0.0}, {"is_reserved": 0, "type": "electric_scooter", "fusion_lat": 0.0, "is_disabled": 0, "rental_uris": {"ios": "https://dc.lft.to/lastmile_qr_scan", "android": "https://dc.lft.to/lastmile_qr_scan"}, "bike_id": "7e94b75a5e8882bbc47e4ba3966f93fe", "lat": 38.911254666666665, "name": "7e94b75a5e8882bbc47e4ba3966f93fe", "lon": -77.03807466666666, "fusion_lon": 0.0}, {"is_reserved": 0, "type": "electric_scooter", "fusion_lat": 0.0, "is_disabled": 0, "rental_uris": {"ios": "https://dc.lft.to/lastmile_qr_scan", "android": "https://dc.lft.to/lastmile_qr_scan"}, "bike_id": "a56e247ddf71bdea518bda0234ec2a4f", "lat": 38.8852355, "name": "a56e247ddf71bdea518bda0234ec2a4f", "lon": -77.02146483333334, "fusion_lon": 0.0}, {"is_reserved": 0, "type": "electric_scooter", "fusion_lat": 0.0, "is_disabled": 0, "rental_uris": {"ios": "https://dc.lft.to/lastmile_qr_scan", "android": "https://dc.lft.to/lastmile_qr_scan"}, "bike_id": "b61edbf24c8d3d670659408a8fd642bc", "lat": 38.8998945, "name": "b61edbf24c8d3d670659408a8fd642bc", "lon": -77.02190633333333, "fusion_lon": 0.0}, {"is_reserved": 0, "type": "electric_scooter", "fusion_lat": 0.0, "is_disabled": 0, "rental_uris": {"ios": "https://dc.lft.to/lastmile_qr_scan", "android": "https://dc.lft.to/lastmile_qr_scan"}, "bike_id": "c50a39c0499bdc85196c04381c789b61", "lat": 38.871237, "name": "c50a39c0499bdc85196c04381c789b61", "lon": -77.00749266666666, "fusion_lon": 0.0}, {"is_reserved": 0, "type": "electric_scooter", "fusion_lat": 0.0, "is_disabled": 0, "rental_uris": {"ios": "https://dc.lft.to/lastmile_qr_scan", "android": "https://dc.lft.to/lastmile_qr_scan"}, "bike_id": "2c8abafea2e3580782cd6010af39f83c", "lat": 38.933851833333335, "name": "2c8abafea2e3580782cd6010af39f83c", "lon": -77.07245116666667, "fusion_lon": 0.0}, {"is_reserved": 0, "type": "electric_scooter", "fusion_lat": 0.0, "is_disabled": 0, "rental_uris": {"ios": "https://dc.lft.to/lastmile_qr_scan", "android": "https://dc.lft.to/lastmile_qr_scan"}, "bike_id": "24c4abc0edb82f32557408ea1097e2ed", "lat": 38.90072166666667, "name": "24c4abc0edb82f32557408ea1097e2ed", "lon": -77.04824383333333, "fusion_lon": 0.0}, {"is_reserved": 0, "type": "electric_scooter", "fusion_lat": 0.0, "is_disabled": 0, "rental_uris": {"ios": "https://dc.lft.to/lastmile_qr_scan", "android": "https://dc.lft.to/lastmile_qr_scan"}, "bike_id": "b92af26ad9f29ec35d333c95eb0d630c", "lat": 38.94463866666667, "name": "b92af26ad9f29ec35d333c95eb0d630c", "lon": -77.00657416666667, "fusion_lon": 0.0}, {"is_reserved": 0, "type": "electric_scooter", "fusion_lat": 0.0, "is_disabled": 0, "rental_uris": {"ios": "https://dc.lft.to/lastmile_qr_scan", "android": "https://dc.lft.to/lastmile_qr_scan"}, "bike_id": "97008ae0b6e6a075740c346d7e83454a", "lat": 38.9026665, "name": "97008ae0b6e6a075740c346d7e83454a", "lon": -76.98980633333333, "fusion_lon": 0.0}, {"is_reserved": 0, "type": "electric_scooter", "fusion_lat": 0.0, "is_disabled": 0, "rental_uris": {"ios": "https://dc.lft.to/lastmile_qr_scan", "android": "https://dc.lft.to/lastmile_qr_scan"}, "bike_id": "62f0d03b77d862ddb0dad25e045378f1", "lat": 38.92077066666667, "name": "62f0d03b77d862ddb0dad25e045378f1", "lon": -77.02518083333334, "fusion_lon": 0.0}, {"is_reserved": 0, "type": "electric_scooter", "fusion_lat": 0.0, "is_disabled": 0, "rental_uris": {"ios": "https://dc.lft.to/lastmile_qr_scan", "android": "https://dc.lft.to/lastmile_qr_scan"}, "bike_id": "81df921564e9bd39559525760ce37ac8", "lat": 38.9121595, "name": "81df921564e9bd39559525760ce37ac8", "lon": -77.00662066666666, "fusion_lon": 0.0}, {"is_reserved": 0, "type": "electric_scooter", "fusion_lat": 0.0, "is_disabled": 0, "rental_uris": {"ios": "https://dc.lft.to/lastmile_qr_scan", "android": "https://dc.lft.to/lastmile_qr_scan"}, "bike_id": "1802931155cad1657fe9d8b62adf753c", "lat": 38.920076, "name": "1802931155cad1657fe9d8b62adf753c", "lon": -77.04170583333334, "fusion_lon": 0.0}, {"is_reserved": 0, "type": "electric_scooter", "fusion_lat": 0.0, "is_disabled": 0, "rental_uris": {"ios": "https://dc.lft.to/lastmile_qr_scan", "android": "https://dc.lft.to/lastmile_qr_scan"}, "bike_id": "0f8010bddad103e0efef93ab2dc1697d", "lat": 38.90668216666667, "name": "0f8010bddad103e0efef93ab2dc1697d", "lon": -77.071469, "fusion_lon": 0.0}, {"is_reserved": 0, "type": "electric_bike", "fusion_lat": 0.0, "is_disabled": 0, "rental_uris": {"ios": "https://dc.lft.to/lastmile_qr_scan", "android": "https://dc.lft.to/lastmile_qr_scan"}, "bike_id": "0f9bf30b0adcc3883c6d5f15bcaba672", "lat": 38.8097685, "name": "0f9bf30b0adcc3883c6d5f15bcaba672", "lon": -77.0765935, "fusion_lon": 0.0}, {"is_reserved": 0, "type": "electric_scooter", "fusion_lat": 0.0, "is_disabled": 0, "rental_uris": {"ios": "https://dc.lft.to/lastmile_qr_scan", "android": "https://dc.lft.to/lastmile_qr_scan"}, "bike_id": "a6b1853b329bab8152ff35a65c134061", "lat": 38.897816666666664, "name": "a6b1853b329bab8152ff35a65c134061", "lon": -77.047809, "fusion_lon": 0.0}, {"is_reserved": 0, "type": "electric_scooter", "fusion_lat": 0.0, "is_disabled": 0, "rental_uris": {"ios": "https://dc.lft.to/lastmile_qr_scan", "android": "https://dc.lft.to/lastmile_qr_scan"}, "bike_id": "8994e2e55ef27a0be1d5fa18bbfe24da", "lat": 38.926656333333334, "name": "8994e2e55ef27a0be1d5fa18bbfe24da", "lon": -76.99554233333333, "fusion_lon": 0.0}, {"is_reserved": 0, "type": "electric_scooter", "fusion_lat": 0.0, "is_disabled": 0, "rental_uris": {"ios": "https://dc.lft.to/lastmile_qr_scan", "android": "https://dc.lft.to/lastmile_qr_scan"}, "bike_id": "8e4bf977c350d924f1ff32f88a2a0921", "lat": 38.9018375, "name": "8e4bf977c350d924f1ff32f88a2a0921", "lon": -76.999605, "fusion_lon": 0.0}, {"is_reserved": 0, "type": "electric_bike", "fusion_lat": 0.0, "is_disabled": 0, "rental_uris": {"ios": "https://dc.lft.to/lastmile_qr_scan", "android": "https://dc.lft.to/lastmile_qr_scan"}, "bike_id": "ed6c98422c60c5da63d40db5837d8a73", "lat": 38.942152, "name": "ed6c98422c60c5da63d40db5837d8a73", "lon": -76.96131866666667, "fusion_lon": 0.0}, {"is_reserved": 0, "type": "electric_scooter", "fusion_lat": 0.0, "is_disabled": 0, "rental_uris": {"ios": "https://dc.lft.to/lastmile_qr_scan", "android": "https://dc.lft.to/lastmile_qr_scan"}, "bike_id": "e440288ac0579b80b835b7de87e513c1", "lat": 38.93666133333333, "name": "e440288ac0579b80b835b7de87e513c1", "lon": -77.036333, "fusion_lon": 0.0}, {"is_reserved": 0, "type": "electric_scooter", "fusion_lat": 0.0, "is_disabled": 0, "rental_uris": {"ios": "https://dc.lft.to/lastmile_qr_scan", "android": "https://dc.lft.to/lastmile_qr_scan"}, "bike_id": "72983847f40253904821ce72380b26f6", "lat": 38.92415966666667, "name": "72983847f40253904821ce72380b26f6", "lon": -77.02037433333334, "fusion_lon": 0.0}, {"is_reserved": 0, "type": "electric_scooter", "fusion_lat": 0.0, "is_disabled": 0, "rental_uris": {"ios": "https://dc.lft.to/lastmile_qr_scan", "android": "https://dc.lft.to/lastmile_qr_scan"}, "bike_id": "521c16752f7d0dd9060bd3ad6b41631f", "lat": 38.89617233333333, "name": "521c16752f7d0dd9060bd3ad6b41631f", "lon": -77.02851766666667, "fusion_lon": 0.0}, {"is_reserved": 0, "type": "electric_scooter", "fusion_lat": 0.0, "is_disabled": 0, "rental_uris": {"ios": "https://dc.lft.to/lastmile_qr_scan", "android": "https://dc.lft.to/lastmile_qr_scan"}, "bike_id": "bdef27efdc36ab40cdeca91927669cd3", "lat": 38.9165355, "name": "bdef27efdc36ab40cdeca91927669cd3", "lon": -77.01026183333333, "fusion_lon": 0.0}, {"is_reserved": 0, "type": "electric_scooter", "fusion_lat": 0.0, "is_disabled": 0, "rental_uris": {"ios": "https://dc.lft.to/lastmile_qr_scan", "android": "https://dc.lft.to/lastmile_qr_scan"}, "bike_id": "76f2d8d1b0a7717227fc7695d552f736", "lat": 38.8982445, "name": "76f2d8d1b0a7717227fc7695d552f736", "lon": -76.9300055, "fusion_lon": 0.0}, {"is_reserved": 0, "type": "electric_scooter", "fusion_lat": 0.0, "is_disabled": 0, "rental_uris": {"ios": "https://dc.lft.to/lastmile_qr_scan", "android": "https://dc.lft.to/lastmile_qr_scan"}, "bike_id": "a64e7685af9540371f7fdc8d3ade49d6", "lat": 38.901867833333334, "name": "a64e7685af9540371f7fdc8d3ade49d6", "lon": -77.00219, "fusion_lon": 0.0}, {"is_reserved": 0, "type": "electric_scooter", "fusion_lat": 0.0, "is_disabled": 0, "rental_uris": {"ios": "https://dc.lft.to/lastmile_qr_scan", "android": "https://dc.lft.to/lastmile_qr_scan"}, "bike_id": "4c83f4ba282780c84e719292c06be4e6", "lat": 38.91427183333333, "name": "4c83f4ba282780c84e719292c06be4e6", "lon": -77.03185116666667, "fusion_lon": 0.0}, {"is_reserved": 0, "type": "electric_bike", "fusion_lat": 0.0, "is_disabled": 0, "rental_uris": {"ios": "https://dc.lft.to/lastmile_qr_scan", "android": "https://dc.lft.to/lastmile_qr_scan"}, "bike_id": "b5ae059b1a56df0e1bd194c95e5e1d72", "lat": 38.8315965, "name": "b5ae059b1a56df0e1bd194c95e5e1d72", "lon": -76.99574683333333, "fusion_lon": 0.0}, {"is_reserved": 0, "type": "electric_scooter", "fusion_lat": 0.0, "is_disabled": 0, "rental_uris": {"ios": "https://dc.lft.to/lastmile_qr_scan", "android": "https://dc.lft.to/lastmile_qr_scan"}, "bike_id": "5c44ea7b484a5c88209614311d0e854f", "lat": 38.89332533333334, "name": "5c44ea7b484a5c88209614311d0e854f", "lon": -77.0224505, "fusion_lon": 0.0}, {"is_reserved": 0, "type": "electric_bike", "fusion_lat": 0.0, "is_disabled": 0, "rental_uris": {"ios": "https://dc.lft.to/lastmile_qr_scan", "android": "https://dc.lft.to/lastmile_qr_scan"}, "bike_id": "4fd6b2e5c4c97690bbfcda97afaaff61", "lat": 38.91191766666667, "name": "4fd6b2e5c4c97690bbfcda97afaaff61", "lon": -77.0111985, "fusion_lon": 0.0}, {"is_reserved": 0, "type": "electric_scooter", "fusion_lat": 0.0, "is_disabled": 0, "rental_uris": {"ios": "https://dc.lft.to/lastmile_qr_scan", "android": "https://dc.lft.to/lastmile_qr_scan"}, "bike_id": "80ea2932a8aadf6a1413f7af0ec8747f", "lat": 38.913047666666664, "name": "80ea2932a8aadf6a1413f7af0ec8747f", "lon": -77.043407, "fusion_lon": 0.0}, {"is_reserved": 0, "type": "electric_scooter", "fusion_lat": 0.0, "is_disabled": 0, "rental_uris": {"ios": "https://dc.lft.to/lastmile_qr_scan", "android": "https://dc.lft.to/lastmile_qr_scan"}, "bike_id": "566d92ae7de22b5739287c145314901d", "lat": 38.87638883333333, "name": "566d92ae7de22b5739287c145314901d", "lon": -76.99294, "fusion_lon": 0.0}, {"is_reserved": 0, "type": "electric_scooter", "fusion_lat": 0.0, "is_disabled": 0, "rental_uris": {"ios": "https://dc.lft.to/lastmile_qr_scan", "android": "https://dc.lft.to/lastmile_qr_scan"}, "bike_id": "a58202688bf7d9e39fc4d30a3c8624b7", "lat": 38.90897483333333, "name": "a58202688bf7d9e39fc4d30a3c8624b7", "lon": -77.03520083333333, "fusion_lon": 0.0}, {"is_reserved": 0, "type": "electric_scooter", "fusion_lat": 0.0, "is_disabled": 0, "rental_uris": {"ios": "https://dc.lft.to/lastmile_qr_scan", "android": "https://dc.lft.to/lastmile_qr_scan"}, "bike_id": "ad6ff057a317809c4646435ab22048b3", "lat": 38.9350785, "name": "ad6ff057a317809c4646435ab22048b3", "lon": -77.05692733333333, "fusion_lon": 0.0}, {"is_reserved": 0, "type": "electric_scooter", "fusion_lat": 0.0, "is_disabled": 0, "rental_uris": {"ios": "https://dc.lft.to/lastmile_qr_scan", "android": "https://dc.lft.to/lastmile_qr_scan"}, "bike_id": "0084be55402b43f71ee569eff6efaf4f", "lat": 38.90136283333333, "name": "0084be55402b43f71ee569eff6efaf4f", "lon": -77.03811016666667, "fusion_lon": 0.0}, {"is_reserved": 0, "type": "electric_scooter", "fusion_lat": 0.0, "is_disabled": 0, "rental_uris": {"ios": "https://dc.lft.to/lastmile_qr_scan", "android": "https://dc.lft.to/lastmile_qr_scan"}, "bike_id": "5914ea1ff7c68f18e7b050f9781e8928", "lat": 38.909078666666666, "name": "5914ea1ff7c68f18e7b050f9781e8928", "lon": -77.04213966666667, "fusion_lon": 0.0}, {"is_reserved": 0, "type": "electric_scooter", "fusion_lat": 0.0, "is_disabled": 0, "rental_uris": {"ios": "https://dc.lft.to/lastmile_qr_scan", "android": "https://dc.lft.to/lastmile_qr_scan"}, "bike_id": "72c9b72aadbbe5fa4fbd508c85b7e2a2", "lat": 38.86630533333334, "name": "72c9b72aadbbe5fa4fbd508c85b7e2a2", "lon": -76.9826015, "fusion_lon": 0.0}, {"is_reserved": 0, "type": "electric_scooter", "fusion_lat": 0.0, "is_disabled": 0, "rental_uris": {"ios": "https://dc.lft.to/lastmile_qr_scan", "android": "https://dc.lft.to/lastmile_qr_scan"}, "bike_id": "05ab81980be89193f59f46770b21070b", "lat": 38.90197083333334, "name": "05ab81980be89193f59f46770b21070b", "lon": -76.99378566666667, "fusion_lon": 0.0}, {"is_reserved": 0, "type": "electric_scooter", "fusion_lat": 0.0, "is_disabled": 0, "rental_uris": {"ios": "https://dc.lft.to/lastmile_qr_scan", "android": "https://dc.lft.to/lastmile_qr_scan"}, "bike_id": "28190b11f196a85008fada2617f6b1cd", "lat": 38.915808166666665, "name": "28190b11f196a85008fada2617f6b1cd", "lon": -76.98306583333333, "fusion_lon": 0.0}, {"is_reserved": 0, "type": "electric_scooter", "fusion_lat": 0.0, "is_disabled": 0, "rental_uris": {"ios": "https://dc.lft.to/lastmile_qr_scan", "android": "https://dc.lft.to/lastmile_qr_scan"}, "bike_id": "7bee0a1d76b8defc6dca77907d07ca0d", "lat": 38.92481083333333, "name": "7bee0a1d76b8defc6dca77907d07ca0d", "lon": -77.03188183333333, "fusion_lon": 0.0}, {"is_reserved": 0, "type": "electric_scooter", "fusion_lat": 0.0, "is_disabled": 0, "rental_uris": {"ios": "https://dc.lft.to/lastmile_qr_scan", "android": "https://dc.lft.to/lastmile_qr_scan"}, "bike_id": "f836f0dfbc6ed9c7dde5b313ffa724e2", "lat": 38.934645833333335, "name": "f836f0dfbc6ed9c7dde5b313ffa724e2", "lon": -77.02768966666666, "fusion_lon": 0.0}, {"is_reserved": 0, "type": "electric_scooter", "fusion_lat": 0.0, "is_disabled": 0, "rental_uris": {"ios": "https://dc.lft.to/lastmile_qr_scan", "android": "https://dc.lft.to/lastmile_qr_scan"}, "bike_id": "536251610b02e10e7924db39cd08bcb0", "lat": 38.9051465, "name": "536251610b02e10e7924db39cd08bcb0", "lon": -77.03179083333333, "fusion_lon": 0.0}, {"is_reserved": 0, "type": "electric_scooter", "fusion_lat": 0.0, "is_disabled": 0, "rental_uris": {"ios": "https://dc.lft.to/lastmile_qr_scan", "android": "https://dc.lft.to/lastmile_qr_scan"}, "bike_id": "7ced5ab6b9ebe92e40c803ea6b1cabce", "lat": 38.92074866666667, "name": "7ced5ab6b9ebe92e40c803ea6b1cabce", "lon": -77.02519283333334, "fusion_lon": 0.0}, {"is_reserved": 0, "type": "electric_scooter", "fusion_lat": 0.0, "is_disabled": 0, "rental_uris": {"ios": "https://dc.lft.to/lastmile_qr_scan", "android": "https://dc.lft.to/lastmile_qr_scan"}, "bike_id": "0a653c8a1fa2f6818567cf6462b9dc1f", "lat": 38.898583, "name": "0a653c8a1fa2f6818567cf6462b9dc1f", "lon": -76.94640833333334, "fusion_lon": 0.0}, {"is_reserved": 0, "type": "electric_scooter", "fusion_lat": 0.0, "is_disabled": 0, "rental_uris": {"ios": "https://dc.lft.to/lastmile_qr_scan", "android": "https://dc.lft.to/lastmile_qr_scan"}, "bike_id": "ad878b9c9814b882b3eed3e00d66cfdb", "lat": 38.9356685, "name": "ad878b9c9814b882b3eed3e00d66cfdb", "lon": -77.02851083333333, "fusion_lon": 0.0}, {"is_reserved": 0, "type": "electric_scooter", "fusion_lat": 0.0, "is_disabled": 0, "rental_uris": {"ios": "https://dc.lft.to/lastmile_qr_scan", "android": "https://dc.lft.to/lastmile_qr_scan"}, "bike_id": "1ccc42fc1d0146f05d081e46484fa02b", "lat": 38.870713, "name": "1ccc42fc1d0146f05d081e46484fa02b", "lon": -76.97933683333333, "fusion_lon": 0.0}, {"is_reserved": 0, "type": "electric_scooter", "fusion_lat": 0.0, "is_disabled": 0, "rental_uris": {"ios": "https://dc.lft.to/lastmile_qr_scan", "android": "https://dc.lft.to/lastmile_qr_scan"}, "bike_id": "96c8c80e8ff8a57eb5ad9d674c4e92c1", "lat": 38.90305, "name": "96c8c80e8ff8a57eb5ad9d674c4e92c1", "lon": -77.05054783333334, "fusion_lon": 0.0}, {"is_reserved": 0, "type": "electric_scooter", "fusion_lat": 0.0, "is_disabled": 0, "rental_uris": {"ios": "https://dc.lft.to/lastmile_qr_scan", "android": "https://dc.lft.to/lastmile_qr_scan"}, "bike_id": "8d4767191303ff4bf974f89f1971c3a2", "lat": 38.90074583333333, "name": "8d4767191303ff4bf974f89f1971c3a2", "lon": -77.04916233333333, "fusion_lon": 0.0}, {"is_reserved": 0, "type": "electric_scooter", "fusion_lat": 0.0, "is_disabled": 0, "rental_uris": {"ios": "https://dc.lft.to/lastmile_qr_scan", "android": "https://dc.lft.to/lastmile_qr_scan"}, "bike_id": "b118da067b73a6ce281cb5566a337539", "lat": 38.89833, "name": "b118da067b73a6ce281cb5566a337539", "lon": -76.94634966666666, "fusion_lon": 0.0}, {"is_reserved": 0, "type": "electric_scooter", "fusion_lat": 0.0, "is_disabled": 0, "rental_uris": {"ios": "https://dc.lft.to/lastmile_qr_scan", "android": "https://dc.lft.to/lastmile_qr_scan"}, "bike_id": "7f98b7603ca25283ba656aa57feee64c", "lat": 38.8982, "name": "7f98b7603ca25283ba656aa57feee64c", "lon": -77.0021035, "fusion_lon": 0.0}, {"is_reserved": 0, "type": "electric_scooter", "fusion_lat": 0.0, "is_disabled": 0, "rental_uris": {"ios": "https://dc.lft.to/lastmile_qr_scan", "android": "https://dc.lft.to/lastmile_qr_scan"}, "bike_id": "0aeb9f301b84a623470d8538d6358136", "lat": 38.897423333333336, "name": "0aeb9f301b84a623470d8538d6358136", "lon": -77.00869966666667, "fusion_lon": 0.0}, {"is_reserved": 0, "type": "electric_scooter", "fusion_lat": 0.0, "is_disabled": 0, "rental_uris": {"ios": "https://dc.lft.to/lastmile_qr_scan", "android": "https://dc.lft.to/lastmile_qr_scan"}, "bike_id": "220b5f677e0b59c2fc63c5f3709ec729", "lat": 38.924654, "name": "220b5f677e0b59c2fc63c5f3709ec729", "lon": -77.03789133333333, "fusion_lon": 0.0}, {"is_reserved": 0, "type": "electric_scooter", "fusion_lat": 0.0, "is_disabled": 0, "rental_uris": {"ios": "https://dc.lft.to/lastmile_qr_scan", "android": "https://dc.lft.to/lastmile_qr_scan"}, "bike_id": "a0f88453f77f510d0d772878379b4d30", "lat": 38.895592666666666, "name": "a0f88453f77f510d0d772878379b4d30", "lon": -77.021681, "fusion_lon": 0.0}, {"is_reserved": 0, "type": "electric_scooter", "fusion_lat": 0.0, "is_disabled": 0, "rental_uris": {"ios": "https://dc.lft.to/lastmile_qr_scan", "android": "https://dc.lft.to/lastmile_qr_scan"}, "bike_id": "65042ede4b645c2769146577b9a7fa2f", "lat": 38.89743083333333, "name": "65042ede4b645c2769146577b9a7fa2f", "lon": -77.03350016666667, "fusion_lon": 0.0}, {"is_reserved": 0, "type": "electric_scooter", "fusion_lat": 0.0, "is_disabled": 0, "rental_uris": {"ios": "https://dc.lft.to/lastmile_qr_scan", "android": "https://dc.lft.to/lastmile_qr_scan"}, "bike_id": "6cb9c8f348d3f4060e38a5c903d21971", "lat": 38.90595666666667, "name": "6cb9c8f348d3f4060e38a5c903d21971", "lon": -77.06272316666667, "fusion_lon": 0.0}, {"is_reserved": 0, "type": "electric_bike", "fusion_lat": 0.0, "is_disabled": 0, "rental_uris": {"ios": "https://dc.lft.to/lastmile_qr_scan", "android": "https://dc.lft.to/lastmile_qr_scan"}, "bike_id": "7b41b97b79c3a9e767baa1cd8535a872", "lat": 38.84859933333333, "name": "7b41b97b79c3a9e767baa1cd8535a872", "lon": -77.06828866666666, "fusion_lon": 0.0}, {"is_reserved": 0, "type": "electric_scooter", "fusion_lat": 0.0, "is_disabled": 0, "rental_uris": {"ios": "https://dc.lft.to/lastmile_qr_scan", "android": "https://dc.lft.to/lastmile_qr_scan"}, "bike_id": "7f3b2b781817c7919f1cc005aec9d203", "lat": 38.87179283333333, "name": "7f3b2b781817c7919f1cc005aec9d203", "lon": -77.0061165, "fusion_lon": 0.0}, {"is_reserved": 0, "type": "electric_scooter", "fusion_lat": 0.0, "is_disabled": 0, "rental_uris": {"ios": "https://dc.lft.to/lastmile_qr_scan", "android": "https://dc.lft.to/lastmile_qr_scan"}, "bike_id": "0867d28f8628cfbead878b8d04ec9012", "lat": 38.8974335, "name": "0867d28f8628cfbead878b8d04ec9012", "lon": -77.00869316666666, "fusion_lon": 0.0}, {"is_reserved": 0, "type": "electric_bike", "fusion_lat": 0.0, "is_disabled": 0, "rental_uris": {"ios": "https://dc.lft.to/lastmile_qr_scan", "android": "https://dc.lft.to/lastmile_qr_scan"}, "bike_id": "14495a9c43d93f1c805dc31f4406864c", "lat": 38.9910435, "name": "14495a9c43d93f1c805dc31f4406864c", "lon": -76.99368783333334, "fusion_lon": 0.0}, {"is_reserved": 0, "type": "electric_scooter", "fusion_lat": 0.0, "is_disabled": 0, "rental_uris": {"ios": "https://dc.lft.to/lastmile_qr_scan", "android": "https://dc.lft.to/lastmile_qr_scan"}, "bike_id": "4b4b7f7ca3c57525d6912af8aed857ed", "lat": 38.92043616666667, "name": "4b4b7f7ca3c57525d6912af8aed857ed", "lon": -77.01674666666666, "fusion_lon": 0.0}, {"is_reserved": 0, "type": "electric_scooter", "fusion_lat": 0.0, "is_disabled": 0, "rental_uris": {"ios": "https://dc.lft.to/lastmile_qr_scan", "android": "https://dc.lft.to/lastmile_qr_scan"}, "bike_id": "91c2c4598afd3c4847c6ce09382d83fe", "lat": 38.906566833333336, "name": "91c2c4598afd3c4847c6ce09382d83fe", "lon": -77.04879966666667, "fusion_lon": 0.0}, {"is_reserved": 0, "type": "electric_scooter", "fusion_lat": 0.0, "is_disabled": 0, "rental_uris": {"ios": "https://dc.lft.to/lastmile_qr_scan", "android": "https://dc.lft.to/lastmile_qr_scan"}, "bike_id": "c33fab85280ca3bbcd8b9bb941f31272", "lat": 38.905016333333336, "name": "c33fab85280ca3bbcd8b9bb941f31272", "lon": -77.04069183333333, "fusion_lon": 0.0}, {"is_reserved": 0, "type": "electric_scooter", "fusion_lat": 0.0, "is_disabled": 0, "rental_uris": {"ios": "https://dc.lft.to/lastmile_qr_scan", "android": "https://dc.lft.to/lastmile_qr_scan"}, "bike_id": "54fca2722b92d9feecb2afd07b687b42", "lat": 38.90233116666667, "name": "54fca2722b92d9feecb2afd07b687b42", "lon": -77.00066, "fusion_lon": 0.0}, {"is_reserved": 0, "type": "electric_scooter", "fusion_lat": 0.0, "is_disabled": 0, "rental_uris": {"ios": "https://dc.lft.to/lastmile_qr_scan", "android": "https://dc.lft.to/lastmile_qr_scan"}, "bike_id": "73486fd36f0e2b85e4a32f09805721b9", "lat": 38.91258233333333, "name": "73486fd36f0e2b85e4a32f09805721b9", "lon": -77.03862133333334, "fusion_lon": 0.0}, {"is_reserved": 0, "type": "electric_scooter", "fusion_lat": 0.0, "is_disabled": 0, "rental_uris": {"ios": "https://dc.lft.to/lastmile_qr_scan", "android": "https://dc.lft.to/lastmile_qr_scan"}, "bike_id": "1d0f76c5a6eb0f65f67eeac2c2752165", "lat": 38.8874775, "name": "1d0f76c5a6eb0f65f67eeac2c2752165", "lon": -77.014098, "fusion_lon": 0.0}, {"is_reserved": 0, "type": "electric_scooter", "fusion_lat": 0.0, "is_disabled": 0, "rental_uris": {"ios": "https://dc.lft.to/lastmile_qr_scan", "android": "https://dc.lft.to/lastmile_qr_scan"}, "bike_id": "b80dfa58e1c37a0d7b471593bca54b48", "lat": 38.92171166666667, "name": "b80dfa58e1c37a0d7b471593bca54b48", "lon": -77.040259, "fusion_lon": 0.0}, {"is_reserved": 0, "type": "electric_scooter", "fusion_lat": 0.0, "is_disabled": 0, "rental_uris": {"ios": "https://dc.lft.to/lastmile_qr_scan", "android": "https://dc.lft.to/lastmile_qr_scan"}, "bike_id": "c1d0e5666897333d69e45f70c05b32f9", "lat": 38.90573916666666, "name": "c1d0e5666897333d69e45f70c05b32f9", "lon": -77.03073716666667, "fusion_lon": 0.0}, {"is_reserved": 0, "type": "electric_scooter", "fusion_lat": 0.0, "is_disabled": 0, "rental_uris": {"ios": "https://dc.lft.to/lastmile_qr_scan", "android": "https://dc.lft.to/lastmile_qr_scan"}, "bike_id": "b5154bc1570e7ea093aebc94bef4cc78", "lat": 38.957546666666666, "name": "b5154bc1570e7ea093aebc94bef4cc78", "lon": -77.02212666666667, "fusion_lon": 0.0}, {"is_reserved": 0, "type": "electric_scooter", "fusion_lat": 0.0, "is_disabled": 0, "rental_uris": {"ios": "https://dc.lft.to/lastmile_qr_scan", "android": "https://dc.lft.to/lastmile_qr_scan"}, "bike_id": "93798181bff6b88f044a4be00252a43c", "lat": 38.890762333333335, "name": "93798181bff6b88f044a4be00252a43c", "lon": -76.98836116666666, "fusion_lon": 0.0}, {"is_reserved": 0, "type": "electric_scooter", "fusion_lat": 0.0, "is_disabled": 0, "rental_uris": {"ios": "https://dc.lft.to/lastmile_qr_scan", "android": "https://dc.lft.to/lastmile_qr_scan"}, "bike_id": "0e849b1a08f13ee211c8ebb0195e631c", "lat": 38.8851645, "name": "0e849b1a08f13ee211c8ebb0195e631c", "lon": -76.92441666666667, "fusion_lon": 0.0}, {"is_reserved": 0, "type": "electric_scooter", "fusion_lat": 0.0, "is_disabled": 0, "rental_uris": {"ios": "https://dc.lft.to/lastmile_qr_scan", "android": "https://dc.lft.to/lastmile_qr_scan"}, "bike_id": "f824fb48cce56c91ced8b6c4f36ffce6", "lat": 38.901892833333335, "name": "f824fb48cce56c91ced8b6c4f36ffce6", "lon": -77.00215916666667, "fusion_lon": 0.0}, {"is_reserved": 0, "type": "electric_scooter", "fusion_lat": 0.0, "is_disabled": 0, "rental_uris": {"ios": "https://dc.lft.to/lastmile_qr_scan", "android": "https://dc.lft.to/lastmile_qr_scan"}, "bike_id": "e128bc08cff7f28b9df4e2cd34b22b2f", "lat": 38.8853105, "name": "e128bc08cff7f28b9df4e2cd34b22b2f", "lon": -76.98055283333333, "fusion_lon": 0.0}, {"is_reserved": 0, "type": "electric_scooter", "fusion_lat": 0.0, "is_disabled": 0, "rental_uris": {"ios": "https://dc.lft.to/lastmile_qr_scan", "android": "https://dc.lft.to/lastmile_qr_scan"}, "bike_id": "212cc1ec0dafcf1168be81f0fe595416", "lat": 38.9008385, "name": "212cc1ec0dafcf1168be81f0fe595416", "lon": -77.04776433333333, "fusion_lon": 0.0}, {"is_reserved": 0, "type": "electric_scooter", "fusion_lat": 0.0, "is_disabled": 0, "rental_uris": {"ios": "https://dc.lft.to/lastmile_qr_scan", "android": "https://dc.lft.to/lastmile_qr_scan"}, "bike_id": "8abefce8c4aa4d0dd66446e409549308", "lat": 38.956870333333335, "name": "8abefce8c4aa4d0dd66446e409549308", "lon": -77.02241266666667, "fusion_lon": 0.0}, {"is_reserved": 0, "type": "electric_bike", "fusion_lat": 0.0, "is_disabled": 0, "rental_uris": {"ios": "https://dc.lft.to/lastmile_qr_scan", "android": "https://dc.lft.to/lastmile_qr_scan"}, "bike_id": "3d21ccc9e8b6806b726764a8454fb666", "lat": 38.89618883333333, "name": "3d21ccc9e8b6806b726764a8454fb666", "lon": -76.90746466666667, "fusion_lon": 0.0}, {"is_reserved": 0, "type": "electric_scooter", "fusion_lat": 0.0, "is_disabled": 0, "rental_uris": {"ios": "https://dc.lft.to/lastmile_qr_scan", "android": "https://dc.lft.to/lastmile_qr_scan"}, "bike_id": "a71f8e8ad14a56e2a994fe316519cfce", "lat": 38.91420333333333, "name": "a71f8e8ad14a56e2a994fe316519cfce", "lon": -77.0316615, "fusion_lon": 0.0}, {"is_reserved": 0, "type": "electric_scooter", "fusion_lat": 0.0, "is_disabled": 0, "rental_uris": {"ios": "https://dc.lft.to/lastmile_qr_scan", "android": "https://dc.lft.to/lastmile_qr_scan"}, "bike_id": "47c4b77584f40b78f98e701b1f4ce18c", "lat": 38.88139433333333, "name": "47c4b77584f40b78f98e701b1f4ce18c", "lon": -77.02707716666667, "fusion_lon": 0.0}, {"is_reserved": 0, "type": "electric_scooter", "fusion_lat": 0.0, "is_disabled": 0, "rental_uris": {"ios": "https://dc.lft.to/lastmile_qr_scan", "android": "https://dc.lft.to/lastmile_qr_scan"}, "bike_id": "0f19494c22fbcda6dcbd9beac8c07818", "lat": 38.90261516666666, "name": "0f19494c22fbcda6dcbd9beac8c07818", "lon": -77.03485766666667, "fusion_lon": 0.0}, {"is_reserved": 0, "type": "electric_scooter", "fusion_lat": 0.0, "is_disabled": 0, "rental_uris": {"ios": "https://dc.lft.to/lastmile_qr_scan", "android": "https://dc.lft.to/lastmile_qr_scan"}, "bike_id": "f8fff086d115656538e73ee781683fb9", "lat": 38.92414133333333, "name": "f8fff086d115656538e73ee781683fb9", "lon": -77.02004533333333, "fusion_lon": 0.0}, {"is_reserved": 0, "type": "electric_scooter", "fusion_lat": 0.0, "is_disabled": 0, "rental_uris": {"ios": "https://dc.lft.to/lastmile_qr_scan", "android": "https://dc.lft.to/lastmile_qr_scan"}, "bike_id": "c38721354ceadc1b6046478476a61796", "lat": 38.909829333333334, "name": "c38721354ceadc1b6046478476a61796", "lon": -77.02280283333333, "fusion_lon": 0.0}, {"is_reserved": 0, "type": "electric_scooter", "fusion_lat": 0.0, "is_disabled": 0, "rental_uris": {"ios": "https://dc.lft.to/lastmile_qr_scan", "android": "https://dc.lft.to/lastmile_qr_scan"}, "bike_id": "40670c6733011a947955b09d28dfc444", "lat": 38.900833, "name": "40670c6733011a947955b09d28dfc444", "lon": -77.05912616666667, "fusion_lon": 0.0}, {"is_reserved": 0, "type": "electric_scooter", "fusion_lat": 0.0, "is_disabled": 0, "rental_uris": {"ios": "https://dc.lft.to/lastmile_qr_scan", "android": "https://dc.lft.to/lastmile_qr_scan"}, "bike_id": "14659a4663d7f824df6d9442a9a1990c", "lat": 38.898425833333334, "name": "14659a4663d7f824df6d9442a9a1990c", "lon": -77.02973016666667, "fusion_lon": 0.0}, {"is_reserved": 0, "type": "electric_scooter", "fusion_lat": 0.0, "is_disabled": 0, "rental_uris": {"ios": "https://dc.lft.to/lastmile_qr_scan", "android": "https://dc.lft.to/lastmile_qr_scan"}, "bike_id": "5f23bad17b47274aafd09e217d03840d", "lat": 38.9056075, "name": "5f23bad17b47274aafd09e217d03840d", "lon": -77.00585433333333, "fusion_lon": 0.0}, {"is_reserved": 0, "type": "electric_scooter", "fusion_lat": 0.0, "is_disabled": 0, "rental_uris": {"ios": "https://dc.lft.to/lastmile_qr_scan", "android": "https://dc.lft.to/lastmile_qr_scan"}, "bike_id": "46b457520093eafed34617cb7ac77b8c", "lat": 38.91696016666667, "name": "46b457520093eafed34617cb7ac77b8c", "lon": -77.053008, "fusion_lon": 0.0}, {"is_reserved": 0, "type": "electric_bike", "fusion_lat": 0.0, "is_disabled": 0, "rental_uris": {"ios": "https://dc.lft.to/lastmile_qr_scan", "android": "https://dc.lft.to/lastmile_qr_scan"}, "bike_id": "19dfb763cfe29236146b21e59a73497a", "lat": 38.82205583333333, "name": "19dfb763cfe29236146b21e59a73497a", "lon": -76.9770245, "fusion_lon": 0.0}, {"is_reserved": 0, "type": "electric_bike", "fusion_lat": 0.0, "is_disabled": 0, "rental_uris": {"ios": "https://dc.lft.to/lastmile_qr_scan", "android": "https://dc.lft.to/lastmile_qr_scan"}, "bike_id": "696e0b436de721ca97271ef2a5ac1ed3", "lat": 38.9026445, "name": "696e0b436de721ca97271ef2a5ac1ed3", "lon": -77.06132133333334, "fusion_lon": 0.0}, {"is_reserved": 0, "type": "electric_scooter", "fusion_lat": 0.0, "is_disabled": 0, "rental_uris": {"ios": "https://dc.lft.to/lastmile_qr_scan", "android": "https://dc.lft.to/lastmile_qr_scan"}, "bike_id": "02e85f3a386e4b01366188b294318cee", "lat": 38.9088045, "name": "02e85f3a386e4b01366188b294318cee", "lon": -77.064392, "fusion_lon": 0.0}, {"is_reserved": 0, "type": "electric_bike", "fusion_lat": 0.0, "is_disabled": 0, "rental_uris": {"ios": "https://dc.lft.to/lastmile_qr_scan", "android": "https://dc.lft.to/lastmile_qr_scan"}, "bike_id": "f20260d950ba0a32ea185f2b4b6ddc8a", "lat": 38.874860166666664, "name": "f20260d950ba0a32ea185f2b4b6ddc8a", "lon": -77.0059295, "fusion_lon": 0.0}, {"is_reserved": 0, "type": "electric_scooter", "fusion_lat": 0.0, "is_disabled": 0, "rental_uris": {"ios": "https://dc.lft.to/lastmile_qr_scan", "android": "https://dc.lft.to/lastmile_qr_scan"}, "bike_id": "766f37c8a1323e89d8e38407d1abf2c7", "lat": 38.94268483333333, "name": "766f37c8a1323e89d8e38407d1abf2c7", "lon": -76.98468283333334, "fusion_lon": 0.0}, {"is_reserved": 0, "type": "electric_scooter", "fusion_lat": 0.0, "is_disabled": 0, "rental_uris": {"ios": "https://dc.lft.to/lastmile_qr_scan", "android": "https://dc.lft.to/lastmile_qr_scan"}, "bike_id": "dc66787ed4eeee2984abd6d7e1ffa7a6", "lat": 38.883555333333334, "name": "dc66787ed4eeee2984abd6d7e1ffa7a6", "lon": -76.95770766666666, "fusion_lon": 0.0}, {"is_reserved": 0, "type": "electric_bike", "fusion_lat": 0.0, "is_disabled": 0, "rental_uris": {"ios": "https://dc.lft.to/lastmile_qr_scan", "android": "https://dc.lft.to/lastmile_qr_scan"}, "bike_id": "09bc77f6f8ef77dbd27bb69f20497da6", "lat": 38.9069635, "name": "09bc77f6f8ef77dbd27bb69f20497da6", "lon": -76.95252366666666, "fusion_lon": 0.0}, {"is_reserved": 0, "type": "electric_scooter", "fusion_lat": 0.0, "is_disabled": 0, "rental_uris": {"ios": "https://dc.lft.to/lastmile_qr_scan", "android": "https://dc.lft.to/lastmile_qr_scan"}, "bike_id": "9b1d2bc563a976a094799cd3d7bd788a", "lat": 38.94721716666667, "name": "9b1d2bc563a976a094799cd3d7bd788a", "lon": -77.06808466666666, "fusion_lon": 0.0}, {"is_reserved": 0, "type": "electric_scooter", "fusion_lat": 0.0, "is_disabled": 0, "rental_uris": {"ios": "https://dc.lft.to/lastmile_qr_scan", "android": "https://dc.lft.to/lastmile_qr_scan"}, "bike_id": "b3379af540e22d12cd9ec86e6b6cad63", "lat": 38.897336333333335, "name": "b3379af540e22d12cd9ec86e6b6cad63", "lon": -77.03298616666666, "fusion_lon": 0.0}, {"is_reserved": 0, "type": "electric_scooter", "fusion_lat": 0.0, "is_disabled": 0, "rental_uris": {"ios": "https://dc.lft.to/lastmile_qr_scan", "android": "https://dc.lft.to/lastmile_qr_scan"}, "bike_id": "207aab0dfc5df77f4415f63154930fdb", "lat": 38.896966, "name": "207aab0dfc5df77f4415f63154930fdb", "lon": -77.050849, "fusion_lon": 0.0}, {"is_reserved": 0, "type": "electric_scooter", "fusion_lat": 0.0, "is_disabled": 0, "rental_uris": {"ios": "https://dc.lft.to/lastmile_qr_scan", "android": "https://dc.lft.to/lastmile_qr_scan"}, "bike_id": "8c9a327bfe01c5dae57f3b4162bedfbf", "lat": 38.916424666666664, "name": "8c9a327bfe01c5dae57f3b4162bedfbf", "lon": -77.03209866666667, "fusion_lon": 0.0}, {"is_reserved": 0, "type": "electric_scooter", "fusion_lat": 0.0, "is_disabled": 0, "rental_uris": {"ios": "https://dc.lft.to/lastmile_qr_scan", "android": "https://dc.lft.to/lastmile_qr_scan"}, "bike_id": "9986361217514b35b6379729493b39f7", "lat": 38.936807, "name": "9986361217514b35b6379729493b39f7", "lon": -77.03625133333334, "fusion_lon": 0.0}, {"is_reserved": 0, "type": "electric_scooter", "fusion_lat": 0.0, "is_disabled": 0, "rental_uris": {"ios": "https://dc.lft.to/lastmile_qr_scan", "android": "https://dc.lft.to/lastmile_qr_scan"}, "bike_id": "611e56ba1f286f72af884f0b50616b8d", "lat": 38.9387325, "name": "611e56ba1f286f72af884f0b50616b8d", "lon": -77.03217333333333, "fusion_lon": 0.0}, {"is_reserved": 0, "type": "electric_scooter", "fusion_lat": 0.0, "is_disabled": 0, "rental_uris": {"ios": "https://dc.lft.to/lastmile_qr_scan", "android": "https://dc.lft.to/lastmile_qr_scan"}, "bike_id": "6e67c9f1fc321f7660e7dbe33fa943ba", "lat": 38.9238205, "name": "6e67c9f1fc321f7660e7dbe33fa943ba", "lon": -77.02841766666667, "fusion_lon": 0.0}, {"is_reserved": 0, "type": "electric_scooter", "fusion_lat": 0.0, "is_disabled": 0, "rental_uris": {"ios": "https://dc.lft.to/lastmile_qr_scan", "android": "https://dc.lft.to/lastmile_qr_scan"}, "bike_id": "651af65f791c7d2479434dd2cfee1778", "lat": 38.898914166666664, "name": "651af65f791c7d2479434dd2cfee1778", "lon": -77.033203, "fusion_lon": 0.0}, {"is_reserved": 0, "type": "electric_scooter", "fusion_lat": 0.0, "is_disabled": 0, "rental_uris": {"ios": "https://dc.lft.to/lastmile_qr_scan", "android": "https://dc.lft.to/lastmile_qr_scan"}, "bike_id": "98ecb3b6a2bbf1c5ccbbeb21906e8ef9", "lat": 38.92245666666667, "name": "98ecb3b6a2bbf1c5ccbbeb21906e8ef9", "lon": -77.01842166666667, "fusion_lon": 0.0}, {"is_reserved": 0, "type": "electric_scooter", "fusion_lat": 0.0, "is_disabled": 0, "rental_uris": {"ios": "https://dc.lft.to/lastmile_qr_scan", "android": "https://dc.lft.to/lastmile_qr_scan"}, "bike_id": "28b80527b24e13979e5cbd12283ef63e", "lat": 38.907267833333336, "name": "28b80527b24e13979e5cbd12283ef63e", "lon": -77.039621, "fusion_lon": 0.0}, {"is_reserved": 0, "type": "electric_scooter", "fusion_lat": 0.0, "is_disabled": 0, "rental_uris": {"ios": "https://dc.lft.to/lastmile_qr_scan", "android": "https://dc.lft.to/lastmile_qr_scan"}, "bike_id": "e9e2014c23218bb8afd03c481151393d", "lat": 38.957329, "name": "e9e2014c23218bb8afd03c481151393d", "lon": -77.02423316666666, "fusion_lon": 0.0}, {"is_reserved": 0, "type": "electric_scooter", "fusion_lat": 0.0, "is_disabled": 0, "rental_uris": {"ios": "https://dc.lft.to/lastmile_qr_scan", "android": "https://dc.lft.to/lastmile_qr_scan"}, "bike_id": "22b2a5d1e01aeb6c958a929ab95eb945", "lat": 38.90665883333333, "name": "22b2a5d1e01aeb6c958a929ab95eb945", "lon": -77.0352415, "fusion_lon": 0.0}, {"is_reserved": 0, "type": "electric_scooter", "fusion_lat": 0.0, "is_disabled": 0, "rental_uris": {"ios": "https://dc.lft.to/lastmile_qr_scan", "android": "https://dc.lft.to/lastmile_qr_scan"}, "bike_id": "b183eb2d24e0fbbafdeeebc8a08d9eeb", "lat": 38.902404, "name": "b183eb2d24e0fbbafdeeebc8a08d9eeb", "lon": -77.00199366666666, "fusion_lon": 0.0}, {"is_reserved": 0, "type": "electric_scooter", "fusion_lat": 0.0, "is_disabled": 0, "rental_uris": {"ios": "https://dc.lft.to/lastmile_qr_scan", "android": "https://dc.lft.to/lastmile_qr_scan"}, "bike_id": "2797ac59beec7c84f737ad2ec08fd2b5", "lat": 38.887115666666666, "name": "2797ac59beec7c84f737ad2ec08fd2b5", "lon": -76.98381933333333, "fusion_lon": 0.0}, {"is_reserved": 0, "type": "electric_scooter", "fusion_lat": 0.0, "is_disabled": 0, "rental_uris": {"ios": "https://dc.lft.to/lastmile_qr_scan", "android": "https://dc.lft.to/lastmile_qr_scan"}, "bike_id": "8443b049d0eaa4b755a0234901945751", "lat": 38.8995115, "name": "8443b049d0eaa4b755a0234901945751", "lon": -77.04748, "fusion_lon": 0.0}, {"is_reserved": 0, "type": "electric_scooter", "fusion_lat": 0.0, "is_disabled": 0, "rental_uris": {"ios": "https://dc.lft.to/lastmile_qr_scan", "android": "https://dc.lft.to/lastmile_qr_scan"}, "bike_id": "7d599c242163c7cbc4722fc66c3d22c7", "lat": 38.91723266666666, "name": "7d599c242163c7cbc4722fc66c3d22c7", "lon": -77.02507066666666, "fusion_lon": 0.0}, {"is_reserved": 0, "type": "electric_scooter", "fusion_lat": 0.0, "is_disabled": 0, "rental_uris": {"ios": "https://dc.lft.to/lastmile_qr_scan", "android": "https://dc.lft.to/lastmile_qr_scan"}, "bike_id": "7f0043745c117ceee21daeafea3bb306", "lat": 38.90731866666667, "name": "7f0043745c117ceee21daeafea3bb306", "lon": -77.03977516666667, "fusion_lon": 0.0}, {"is_reserved": 0, "type": "electric_scooter", "fusion_lat": 0.0, "is_disabled": 0, "rental_uris": {"ios": "https://dc.lft.to/lastmile_qr_scan", "android": "https://dc.lft.to/lastmile_qr_scan"}, "bike_id": "9252e59847de710a7cc19476e11dce77", "lat": 38.902559, "name": "9252e59847de710a7cc19476e11dce77", "lon": -77.04677433333333, "fusion_lon": 0.0}, {"is_reserved": 0, "type": "electric_scooter", "fusion_lat": 0.0, "is_disabled": 0, "rental_uris": {"ios": "https://dc.lft.to/lastmile_qr_scan", "android": "https://dc.lft.to/lastmile_qr_scan"}, "bike_id": "51ce9d49966a7475d7f55e297def7bf3", "lat": 38.88838883333333, "name": "51ce9d49966a7475d7f55e297def7bf3", "lon": -77.04906233333334, "fusion_lon": 0.0}, {"is_reserved": 0, "type": "electric_scooter", "fusion_lat": 0.0, "is_disabled": 0, "rental_uris": {"ios": "https://dc.lft.to/lastmile_qr_scan", "android": "https://dc.lft.to/lastmile_qr_scan"}, "bike_id": "2038ba384be525895b4caee1bda4dcce", "lat": 38.92569366666667, "name": "2038ba384be525895b4caee1bda4dcce", "lon": -77.02288283333333, "fusion_lon": 0.0}, {"is_reserved": 0, "type": "electric_scooter", "fusion_lat": 0.0, "is_disabled": 0, "rental_uris": {"ios": "https://dc.lft.to/lastmile_qr_scan", "android": "https://dc.lft.to/lastmile_qr_scan"}, "bike_id": "d0296c1c7773709818548bcc4fc46be8", "lat": 38.925431333333336, "name": "d0296c1c7773709818548bcc4fc46be8", "lon": -77.034635, "fusion_lon": 0.0}, {"is_reserved": 0, "type": "electric_scooter", "fusion_lat": 0.0, "is_disabled": 0, "rental_uris": {"ios": "https://dc.lft.to/lastmile_qr_scan", "android": "https://dc.lft.to/lastmile_qr_scan"}, "bike_id": "e2945a4288caba4b375e10dc85cce76b", "lat": 38.892312, "name": "e2945a4288caba4b375e10dc85cce76b", "lon": -77.02384216666667, "fusion_lon": 0.0}, {"is_reserved": 0, "type": "electric_scooter", "fusion_lat": 0.0, "is_disabled": 0, "rental_uris": {"ios": "https://dc.lft.to/lastmile_qr_scan", "android": "https://dc.lft.to/lastmile_qr_scan"}, "bike_id": "56021e84538680ce5c0ff5bcf2c44037", "lat": 38.9419845, "name": "56021e84538680ce5c0ff5bcf2c44037", "lon": -77.0882435, "fusion_lon": 0.0}, {"is_reserved": 0, "type": "electric_scooter", "fusion_lat": 0.0, "is_disabled": 0, "rental_uris": {"ios": "https://dc.lft.to/lastmile_qr_scan", "android": "https://dc.lft.to/lastmile_qr_scan"}, "bike_id": "04b2136bba9fd4f02226bec83d18f96f", "lat": 38.905596833333334, "name": "04b2136bba9fd4f02226bec83d18f96f", "lon": -77.04867183333333, "fusion_lon": 0.0}, {"is_reserved": 0, "type": "electric_scooter", "fusion_lat": 0.0, "is_disabled": 0, "rental_uris": {"ios": "https://dc.lft.to/lastmile_qr_scan", "android": "https://dc.lft.to/lastmile_qr_scan"}, "bike_id": "423040d0613d62469528c968521d06d8", "lat": 38.91656283333333, "name": "423040d0613d62469528c968521d06d8", "lon": -77.02287183333334, "fusion_lon": 0.0}, {"is_reserved": 0, "type": "electric_scooter", "fusion_lat": 0.0, "is_disabled": 0, "rental_uris": {"ios": "https://dc.lft.to/lastmile_qr_scan", "android": "https://dc.lft.to/lastmile_qr_scan"}, "bike_id": "c4773795c2a261afb178dc18eeea9d20", "lat": 38.886277166666666, "name": "c4773795c2a261afb178dc18eeea9d20", "lon": -76.98710533333333, "fusion_lon": 0.0}, {"is_reserved": 0, "type": "electric_scooter", "fusion_lat": 0.0, "is_disabled": 0, "rental_uris": {"ios": "https://dc.lft.to/lastmile_qr_scan", "android": "https://dc.lft.to/lastmile_qr_scan"}, "bike_id": "082f8c721cce9669fcb33b336e97a0e4", "lat": 38.902465166666666, "name": "082f8c721cce9669fcb33b336e97a0e4", "lon": -77.000041, "fusion_lon": 0.0}, {"is_reserved": 0, "type": "electric_scooter", "fusion_lat": 0.0, "is_disabled": 0, "rental_uris": {"ios": "https://dc.lft.to/lastmile_qr_scan", "android": "https://dc.lft.to/lastmile_qr_scan"}, "bike_id": "0532c53617752b94a546dd2f9ddaa749", "lat": 38.929998, "name": "0532c53617752b94a546dd2f9ddaa749", "lon": -77.021704, "fusion_lon": 0.0}, {"is_reserved": 0, "type": "electric_scooter", "fusion_lat": 0.0, "is_disabled": 0, "rental_uris": {"ios": "https://dc.lft.to/lastmile_qr_scan", "android": "https://dc.lft.to/lastmile_qr_scan"}, "bike_id": "e4e8cc1c17b7f508cf2b6f5631a97aa1", "lat": 38.909704, "name": "e4e8cc1c17b7f508cf2b6f5631a97aa1", "lon": -77.033991, "fusion_lon": 0.0}, {"is_reserved": 0, "type": "electric_scooter", "fusion_lat": 0.0, "is_disabled": 0, "rental_uris": {"ios": "https://dc.lft.to/lastmile_qr_scan", "android": "https://dc.lft.to/lastmile_qr_scan"}, "bike_id": "20f9822025dfa86b02191e17c4b0ffa9", "lat": 38.937148666666666, "name": "20f9822025dfa86b02191e17c4b0ffa9", "lon": -77.03627016666667, "fusion_lon": 0.0}, {"is_reserved": 0, "type": "electric_scooter", "fusion_lat": 0.0, "is_disabled": 0, "rental_uris": {"ios": "https://dc.lft.to/lastmile_qr_scan", "android": "https://dc.lft.to/lastmile_qr_scan"}, "bike_id": "5e541d6ba5d8e4acb675c6f510eb8718", "lat": 38.9173515, "name": "5e541d6ba5d8e4acb675c6f510eb8718", "lon": -77.0260705, "fusion_lon": 0.0}, {"is_reserved": 0, "type": "electric_bike", "fusion_lat": 0.0, "is_disabled": 0, "rental_uris": {"ios": "https://dc.lft.to/lastmile_qr_scan", "android": "https://dc.lft.to/lastmile_qr_scan"}, "bike_id": "c4c9d8e3fa83c17621092c0a9a8ec471", "lat": 38.89085683333333, "name": "c4c9d8e3fa83c17621092c0a9a8ec471", "lon": -76.95464583333333, "fusion_lon": 0.0}, {"is_reserved": 0, "type": "electric_scooter", "fusion_lat": 0.0, "is_disabled": 0, "rental_uris": {"ios": "https://dc.lft.to/lastmile_qr_scan", "android": "https://dc.lft.to/lastmile_qr_scan"}, "bike_id": "678bb32d46bc569233fda37a1dce2067", "lat": 38.925697166666666, "name": "678bb32d46bc569233fda37a1dce2067", "lon": -77.0283715, "fusion_lon": 0.0}, {"is_reserved": 0, "type": "electric_scooter", "fusion_lat": 0.0, "is_disabled": 0, "rental_uris": {"ios": "https://dc.lft.to/lastmile_qr_scan", "android": "https://dc.lft.to/lastmile_qr_scan"}, "bike_id": "15d779b0da6e7498b114e465195ac433", "lat": 38.9563695, "name": "15d779b0da6e7498b114e465195ac433", "lon": -77.03632083333333, "fusion_lon": 0.0}, {"is_reserved": 0, "type": "electric_scooter", "fusion_lat": 0.0, "is_disabled": 0, "rental_uris": {"ios": "https://dc.lft.to/lastmile_qr_scan", "android": "https://dc.lft.to/lastmile_qr_scan"}, "bike_id": "880ec0067cde17cf19911bdb3d0ac3b9", "lat": 38.92875, "name": "880ec0067cde17cf19911bdb3d0ac3b9", "lon": -77.0347775, "fusion_lon": 0.0}, {"is_reserved": 0, "type": "electric_scooter", "fusion_lat": 0.0, "is_disabled": 0, "rental_uris": {"ios": "https://dc.lft.to/lastmile_qr_scan", "android": "https://dc.lft.to/lastmile_qr_scan"}, "bike_id": "35ecd3b305a7608ca25e237d84c1d38d", "lat": 38.90039216666667, "name": "35ecd3b305a7608ca25e237d84c1d38d", "lon": -77.01229133333334, "fusion_lon": 0.0}, {"is_reserved": 0, "type": "electric_scooter", "fusion_lat": 0.0, "is_disabled": 0, "rental_uris": {"ios": "https://dc.lft.to/lastmile_qr_scan", "android": "https://dc.lft.to/lastmile_qr_scan"}, "bike_id": "c67db19ba7d9854a3665bcc0380c8ef2", "lat": 38.903858, "name": "c67db19ba7d9854a3665bcc0380c8ef2", "lon": -77.05064633333333, "fusion_lon": 0.0}, {"is_reserved": 0, "type": "electric_scooter", "fusion_lat": 0.0, "is_disabled": 0, "rental_uris": {"ios": "https://dc.lft.to/lastmile_qr_scan", "android": "https://dc.lft.to/lastmile_qr_scan"}, "bike_id": "ebeee864168a781f10f0089a7e60a3d3", "lat": 38.883629166666665, "name": "ebeee864168a781f10f0089a7e60a3d3", "lon": -76.994984, "fusion_lon": 0.0}, {"is_reserved": 0, "type": "electric_scooter", "fusion_lat": 0.0, "is_disabled": 0, "rental_uris": {"ios": "https://dc.lft.to/lastmile_qr_scan", "android": "https://dc.lft.to/lastmile_qr_scan"}, "bike_id": "12cd7d84456d4a6d6a04effd5828245e", "lat": 38.93720783333333, "name": "12cd7d84456d4a6d6a04effd5828245e", "lon": -77.0246255, "fusion_lon": 0.0}, {"is_reserved": 0, "type": "electric_scooter", "fusion_lat": 0.0, "is_disabled": 0, "rental_uris": {"ios": "https://dc.lft.to/lastmile_qr_scan", "android": "https://dc.lft.to/lastmile_qr_scan"}, "bike_id": "7bbc842be4cd8d01bb7d91fd331a5d14", "lat": 38.8811095, "name": "7bbc842be4cd8d01bb7d91fd331a5d14", "lon": -77.02658333333333, "fusion_lon": 0.0}, {"is_reserved": 0, "type": "electric_scooter", "fusion_lat": 0.0, "is_disabled": 0, "rental_uris": {"ios": "https://dc.lft.to/lastmile_qr_scan", "android": "https://dc.lft.to/lastmile_qr_scan"}, "bike_id": "1754846f46b82ba0ed0bc260b3a5d238", "lat": 38.900972333333335, "name": "1754846f46b82ba0ed0bc260b3a5d238", "lon": -77.05920316666666, "fusion_lon": 0.0}, {"is_reserved": 0, "type": "electric_scooter", "fusion_lat": 0.0, "is_disabled": 0, "rental_uris": {"ios": "https://dc.lft.to/lastmile_qr_scan", "android": "https://dc.lft.to/lastmile_qr_scan"}, "bike_id": "5355f17e08ce2057440b9b01e9307641", "lat": 38.91895366666667, "name": "5355f17e08ce2057440b9b01e9307641", "lon": -77.0230585, "fusion_lon": 0.0}, {"is_reserved": 0, "type": "electric_scooter", "fusion_lat": 0.0, "is_disabled": 0, "rental_uris": {"ios": "https://dc.lft.to/lastmile_qr_scan", "android": "https://dc.lft.to/lastmile_qr_scan"}, "bike_id": "8a5107b2768230907a6087260879d80e", "lat": 38.89331466666667, "name": "8a5107b2768230907a6087260879d80e", "lon": -77.02245766666667, "fusion_lon": 0.0}, {"is_reserved": 0, "type": "electric_scooter", "fusion_lat": 0.0, "is_disabled": 0, "rental_uris": {"ios": "https://dc.lft.to/lastmile_qr_scan", "android": "https://dc.lft.to/lastmile_qr_scan"}, "bike_id": "8bd49385889373bb086e452a703369c9", "lat": 38.92967683333333, "name": "8bd49385889373bb086e452a703369c9", "lon": -77.03264, "fusion_lon": 0.0}, {"is_reserved": 0, "type": "electric_scooter", "fusion_lat": 0.0, "is_disabled": 0, "rental_uris": {"ios": "https://dc.lft.to/lastmile_qr_scan", "android": "https://dc.lft.to/lastmile_qr_scan"}, "bike_id": "0621a9c8796bc3eadad04a4bd109b424", "lat": 38.89730633333333, "name": "0621a9c8796bc3eadad04a4bd109b424", "lon": -77.0032615, "fusion_lon": 0.0}, {"is_reserved": 0, "type": "electric_scooter", "fusion_lat": 0.0, "is_disabled": 0, "rental_uris": {"ios": "https://dc.lft.to/lastmile_qr_scan", "android": "https://dc.lft.to/lastmile_qr_scan"}, "bike_id": "ede2d23a68418790ff714e11c27a547a", "lat": 38.903742666666666, "name": "ede2d23a68418790ff714e11c27a547a", "lon": -77.05202783333333, "fusion_lon": 0.0}, {"is_reserved": 0, "type": "electric_scooter", "fusion_lat": 0.0, "is_disabled": 0, "rental_uris": {"ios": "https://dc.lft.to/lastmile_qr_scan", "android": "https://dc.lft.to/lastmile_qr_scan"}, "bike_id": "9a3a1ac96dd710744552d34a8954c006", "lat": 38.9087505, "name": "9a3a1ac96dd710744552d34a8954c006", "lon": -77.0743575, "fusion_lon": 0.0}, {"is_reserved": 0, "type": "electric_bike", "fusion_lat": 0.0, "is_disabled": 0, "rental_uris": {"ios": "https://dc.lft.to/lastmile_qr_scan", "android": "https://dc.lft.to/lastmile_qr_scan"}, "bike_id": "73519d77dab40613dab7a291f5b6eaae", "lat": 38.93280816666667, "name": "73519d77dab40613dab7a291f5b6eaae", "lon": -77.03282683333333, "fusion_lon": 0.0}, {"is_reserved": 0, "type": "electric_scooter", "fusion_lat": 0.0, "is_disabled": 0, "rental_uris": {"ios": "https://dc.lft.to/lastmile_qr_scan", "android": "https://dc.lft.to/lastmile_qr_scan"}, "bike_id": "fc75a25ca4f20e15cfa07b4fafa6bd86", "lat": 38.887722, "name": "fc75a25ca4f20e15cfa07b4fafa6bd86", "lon": -76.93263733333333, "fusion_lon": 0.0}, {"is_reserved": 0, "type": "electric_scooter", "fusion_lat": 0.0, "is_disabled": 0, "rental_uris": {"ios": "https://dc.lft.to/lastmile_qr_scan", "android": "https://dc.lft.to/lastmile_qr_scan"}, "bike_id": "177cb233aeb23af1f253e25acb5e709e", "lat": 38.896306333333335, "name": "177cb233aeb23af1f253e25acb5e709e", "lon": -77.02655666666666, "fusion_lon": 0.0}, {"is_reserved": 0, "type": "electric_scooter", "fusion_lat": 0.0, "is_disabled": 0, "rental_uris": {"ios": "https://dc.lft.to/lastmile_qr_scan", "android": "https://dc.lft.to/lastmile_qr_scan"}, "bike_id": "180fb8a34256beaaa25f21b14fca7c93", "lat": 38.884326, "name": "180fb8a34256beaaa25f21b14fca7c93", "lon": -77.03034666666667, "fusion_lon": 0.0}, {"is_reserved": 0, "type": "electric_scooter", "fusion_lat": 0.0, "is_disabled": 0, "rental_uris": {"ios": "https://dc.lft.to/lastmile_qr_scan", "android": "https://dc.lft.to/lastmile_qr_scan"}, "bike_id": "823b08586ac3c16946ba6a0f3d7770eb", "lat": 38.91041416666667, "name": "823b08586ac3c16946ba6a0f3d7770eb", "lon": -77.042583, "fusion_lon": 0.0}, {"is_reserved": 0, "type": "electric_bike", "fusion_lat": 0.0, "is_disabled": 0, "rental_uris": {"ios": "https://dc.lft.to/lastmile_qr_scan", "android": "https://dc.lft.to/lastmile_qr_scan"}, "bike_id": "22648ce4acc874558c875cd55764d428", "lat": 38.900082166666664, "name": "22648ce4acc874558c875cd55764d428", "lon": -77.05591433333333, "fusion_lon": 0.0}, {"is_reserved": 0, "type": "electric_bike", "fusion_lat": 0.0, "is_disabled": 0, "rental_uris": {"ios": "https://dc.lft.to/lastmile_qr_scan", "android": "https://dc.lft.to/lastmile_qr_scan"}, "bike_id": "28cd92a5980162510dbf11f5d61f9c4e", "lat": 38.84226566666667, "name": "28cd92a5980162510dbf11f5d61f9c4e", "lon": -76.94894283333333, "fusion_lon": 0.0}, {"is_reserved": 0, "type": "electric_scooter", "fusion_lat": 0.0, "is_disabled": 0, "rental_uris": {"ios": "https://dc.lft.to/lastmile_qr_scan", "android": "https://dc.lft.to/lastmile_qr_scan"}, "bike_id": "0c7a1de8d9992742f087e90f03c75f24", "lat": 38.954316666666664, "name": "0c7a1de8d9992742f087e90f03c75f24", "lon": -77.018491, "fusion_lon": 0.0}, {"is_reserved": 0, "type": "electric_bike", "fusion_lat": 0.0, "is_disabled": 0, "rental_uris": {"ios": "https://dc.lft.to/lastmile_qr_scan", "android": "https://dc.lft.to/lastmile_qr_scan"}, "bike_id": "da1258832d66fc864f68d9f5f9e8940e", "lat": 38.98369433333333, "name": "da1258832d66fc864f68d9f5f9e8940e", "lon": -76.98844383333333, "fusion_lon": 0.0}, {"is_reserved": 0, "type": "electric_scooter", "fusion_lat": 0.0, "is_disabled": 0, "rental_uris": {"ios": "https://dc.lft.to/lastmile_qr_scan", "android": "https://dc.lft.to/lastmile_qr_scan"}, "bike_id": "8fea5b90a2478adcb1b0eeec9092cae5", "lat": 38.901805333333336, "name": "8fea5b90a2478adcb1b0eeec9092cae5", "lon": -77.00213833333333, "fusion_lon": 0.0}, {"is_reserved": 0, "type": "electric_scooter", "fusion_lat": 0.0, "is_disabled": 0, "rental_uris": {"ios": "https://dc.lft.to/lastmile_qr_scan", "android": "https://dc.lft.to/lastmile_qr_scan"}, "bike_id": "e245d9b84f7d0bec59bcdd82a1f4a90c", "lat": 38.9060635, "name": "e245d9b84f7d0bec59bcdd82a1f4a90c", "lon": -77.02107566666666, "fusion_lon": 0.0}, {"is_reserved": 0, "type": "electric_scooter", "fusion_lat": 0.0, "is_disabled": 0, "rental_uris": {"ios": "https://dc.lft.to/lastmile_qr_scan", "android": "https://dc.lft.to/lastmile_qr_scan"},