{"data": {"bikes": [{"fusion_lat": 0.0, "name": "da0722ce22337900b789143eaf2fceb1", "is_disabled": 0, "rental_uris": {"android": "https://dc.lft.to/lastmile_qr_scan", "ios": "https://dc.lft.to/lastmile_qr_scan"}, "fusion_lon": 0.0, "lat": 38.9204465, "bike_id": "da0722ce22337900b789143eaf2fceb1", "type": "electric_scooter", "is_reserved": 0, "lon": -77.0341065}, {"fusion_lat": 0.0, "name": "55759f9eabe577fe43399f0cb41343e6", "is_disabled": 0, "rental_uris": {"android": "https://dc.lft.to/lastmile_qr_scan", "ios": "https://dc.lft.to/lastmile_qr_scan"}, "fusion_lon": 0.0, "lat": 38.89221766666667, "bike_id": "55759f9eabe577fe43399f0cb41343e6", "type": "electric_scooter", "is_reserved": 0, "lon": -77.02222933333333}, {"fusion_lat": 0.0, "name": "904264a06515160c011c7a2ce27d7b0d", "is_disabled": 0, "rental_uris": {"android": "https://dc.lft.to/lastmile_qr_scan", "ios": "https://dc.lft.to/lastmile_qr_scan"}, "fusion_lon": 0.0, "lat": 38.93085133333334, "bike_id": "904264a06515160c011c7a2ce27d7b0d", "type": "electric_scooter", "is_reserved": 0, "lon": -77.02003983333333}, {"fusion_lat": 0.0, "name": "4abd1de741b0f1a16a3c269a388c5e2a", "is_disabled": 0, "rental_uris": {"android": "https://dc.lft.to/lastmile_qr_scan", "ios": "https://dc.lft.to/lastmile_qr_scan"}, "fusion_lon": 0.0, "lat": 38.91759583333334, "bike_id": "4abd1de741b0f1a16a3c269a388c5e2a", "type": "electric_scooter", "is_reserved": 0, "lon": -77.01605883333333}, {"fusion_lat": 0.0, "name": "b945e463ade227b8496ae22fc7ea7e86", "is_disabled": 0, "rental_uris": {"android": "https://dc.lft.to/lastmile_qr_scan", "ios": "https://dc.lft.to/lastmile_qr_scan"}, "fusion_lon": 0.0, "lat": 38.90254, "bike_id": "b945e463ade227b8496ae22fc7ea7e86", "type": "electric_bike", "is_reserved": 0, "lon": -77.01794883333334}, {"fusion_lat": 0.0, "name": "047919364c9b6f495adbe2ff56f7d292", "is_disabled": 0, "rental_uris": {"android": "https://dc.lft.to/lastmile_qr_scan", "ios": "https://dc.lft.to/lastmile_qr_scan"}, "fusion_lon": 0.0, "lat": 38.993924, "bike_id": "047919364c9b6f495adbe2ff56f7d292", "type": "electric_bike", "is_reserved": 0, "lon": -76.92883383333333}, {"fusion_lat": 0.0, "name": "ea9a978a1746dbe34e1a39adefe10f70", "is_disabled": 0, "rental_uris": {"android": "https://dc.lft.to/lastmile_qr_scan", "ios": "https://dc.lft.to/lastmile_qr_scan"}, "fusion_lon": 0.0, "lat": 38.91415166666667, "bike_id": "ea9a978a1746dbe34e1a39adefe10f70", "type": "electric_scooter", "is_reserved": 0, "lon": -77.03938616666667}, {"fusion_lat": 0.0, "name": "7fe8fe6bcd407d3f991ba3ad18c5037d", "is_disabled": 0, "rental_uris": {"android": "https://dc.lft.to/lastmile_qr_scan", "ios": "https://dc.lft.to/lastmile_qr_scan"}, "fusion_lon": 0.0, "lat": 38.90137716666667, "bike_id": "7fe8fe6bcd407d3f991ba3ad18c5037d", "type": "electric_scooter", "is_reserved": 0, "lon": -77.04489083333333}, {"fusion_lat": 0.0, "name": "1e6603064fe575540e78cdfd646a4d7b", "is_disabled": 0, "rental_uris": {"android": "https://dc.lft.to/lastmile_qr_scan", "ios": "https://dc.lft.to/lastmile_qr_scan"}, "fusion_lon": 0.0, "lat": 38.916795, "bike_id": "1e6603064fe575540e78cdfd646a4d7b", "type": "electric_scooter", "is_reserved": 0, "lon": -77.02719516666667}, {"fusion_lat": 0.0, "name": "81f1a50ff54c8be3670820f6aaa62fa7", "is_disabled": 0, "rental_uris": {"android": "https://dc.lft.to/lastmile_qr_scan", "ios": "https://dc.lft.to/lastmile_qr_scan"}, "fusion_lon": 0.0, "lat": 38.912861666666664, "bike_id": "81f1a50ff54c8be3670820f6aaa62fa7", "type": "electric_scooter", "is_reserved": 0, "lon": -77.02241183333334}, {"fusion_lat": 0.0, "name": "70d1c1df766b7ea66f496f11ab19c54a", "is_disabled": 0, "rental_uris": {"android": "https://dc.lft.to/lastmile_qr_scan", "ios": "https://dc.lft.to/lastmile_qr_scan"}, "fusion_lon": 0.0, "lat": 38.928176, "bike_id": "70d1c1df766b7ea66f496f11ab19c54a", "type": "electric_scooter", "is_reserved": 0, "lon": -77.0433}, {"fusion_lat": 0.0, "name": "5f9410a184e9d0371c6479c24429fd62", "is_disabled": 0, "rental_uris": {"android": "https://dc.lft.to/lastmile_qr_scan", "ios": "https://dc.lft.to/lastmile_qr_scan"}, "fusion_lon": 0.0, "lat": 38.906039166666666, "bike_id": "5f9410a184e9d0371c6479c24429fd62", "type": "electric_scooter", "is_reserved": 0, "lon": -77.02605383333334}, {"fusion_lat": 0.0, "name": "13b90cc30f66cd00327024b84dafeb03", "is_disabled": 0, "rental_uris": {"android": "https://dc.lft.to/lastmile_qr_scan", "ios": "https://dc.lft.to/lastmile_qr_scan"}, "fusion_lon": 0.0, "lat": 38.9172935, "bike_id": "13b90cc30f66cd00327024b84dafeb03", "type": "electric_scooter", "is_reserved": 0, "lon": -77.01917416666667}, {"fusion_lat": 0.0, "name": "16737123c89f4720f86db49a98a43022", "is_disabled": 0, "rental_uris": {"android": "https://dc.lft.to/lastmile_qr_scan", "ios": "https://dc.lft.to/lastmile_qr_scan"}, "fusion_lon": 0.0, "lat": 38.874612, "bike_id": "16737123c89f4720f86db49a98a43022", "type": "electric_scooter", "is_reserved": 0, "lon": -77.0030325}, {"fusion_lat": 0.0, "name": "516e2d8ddf956237068d2b57d2e3ca27", "is_disabled": 0, "rental_uris": {"android": "https://dc.lft.to/lastmile_qr_scan", "ios": "https://dc.lft.to/lastmile_qr_scan"}, "fusion_lon": 0.0, "lat": 38.93270666666667, "bike_id": "516e2d8ddf956237068d2b57d2e3ca27", "type": "electric_scooter", "is_reserved": 0, "lon": -77.0191765}, {"fusion_lat": 0.0, "name": "b975602d3f225c530c29b9c3e142fcba", "is_disabled": 0, "rental_uris": {"android": "https://dc.lft.to/lastmile_qr_scan", "ios": "https://dc.lft.to/lastmile_qr_scan"}, "fusion_lon": 0.0, "lat": 38.92068116666667, "bike_id": "b975602d3f225c530c29b9c3e142fcba", "type": "electric_scooter", "is_reserved": 0, "lon": -77.03811166666667}, {"fusion_lat": 0.0, "name": "925f0df3e7d2136787080b8b4fa30d24", "is_disabled": 0, "rental_uris": {"android": "https://dc.lft.to/lastmile_qr_scan", "ios": "https://dc.lft.to/lastmile_qr_scan"}, "fusion_lon": 0.0, "lat": 38.9317485, "bike_id": "925f0df3e7d2136787080b8b4fa30d24", "type": "electric_scooter", "is_reserved": 0, "lon": -77.0281725}, {"fusion_lat": 0.0, "name": "24a5756377589130acea24d37b6f1446", "is_disabled": 0, "rental_uris": {"android": "https://dc.lft.to/lastmile_qr_scan", "ios": "https://dc.lft.to/lastmile_qr_scan"}, "fusion_lon": 0.0, "lat": 38.94099116666667, "bike_id": "24a5756377589130acea24d37b6f1446", "type": "electric_scooter", "is_reserved": 0, "lon": -77.03275266666667}, {"fusion_lat": 0.0, "name": "45bd1a60dbd86dbcfaf7a54fb872585e", "is_disabled": 0, "rental_uris": {"android": "https://dc.lft.to/lastmile_qr_scan", "ios": "https://dc.lft.to/lastmile_qr_scan"}, "fusion_lon": 0.0, "lat": 38.8601815, "bike_id": "45bd1a60dbd86dbcfaf7a54fb872585e", "type": "electric_bike", "is_reserved": 0, "lon": -77.12808133333333}, {"fusion_lat": 0.0, "name": "f27f25e6e3e3c691180d64b1c7f88e77", "is_disabled": 0, "rental_uris": {"android": "https://dc.lft.to/lastmile_qr_scan", "ios": "https://dc.lft.to/lastmile_qr_scan"}, "fusion_lon": 0.0, "lat": 38.928578333333334, "bike_id": "f27f25e6e3e3c691180d64b1c7f88e77", "type": "electric_scooter", "is_reserved": 0, "lon": -77.01401216666666}, {"fusion_lat": 0.0, "name": "2b1e5e3c9b88e867e56d606dfcfdd3f6", "is_disabled": 0, "rental_uris": {"android": "https://dc.lft.to/lastmile_qr_scan", "ios": "https://dc.lft.to/lastmile_qr_scan"}, "fusion_lon": 0.0, "lat": 38.93084233333333, "bike_id": "2b1e5e3c9b88e867e56d606dfcfdd3f6", "type": "electric_scooter", "is_reserved": 0, "lon": -77.0200455}, {"fusion_lat": 0.0, "name": "f73336b9cb97bba914886a818cf00f07", "is_disabled": 0, "rental_uris": {"android": "https://dc.lft.to/lastmile_qr_scan", "ios": "https://dc.lft.to/lastmile_qr_scan"}, "fusion_lon": 0.0, "lat": 38.93084433333333, "bike_id": "f73336b9cb97bba914886a818cf00f07", "type": "electric_scooter", "is_reserved": 0, "lon": -77.07761633333334}, {"fusion_lat": 0.0, "name": "b7fb9a8015919b37a887581963ff3592", "is_disabled": 0, "rental_uris": {"android": "https://dc.lft.to/lastmile_qr_scan", "ios": "https://dc.lft.to/lastmile_qr_scan"}, "fusion_lon": 0.0, "lat": 38.927597166666665, "bike_id": "b7fb9a8015919b37a887581963ff3592", "type": "electric_scooter", "is_reserved": 0, "lon": -77.02449016666667}, {"fusion_lat": 0.0, "name": "2d562e9e7395a2dc74d4bf45bf2416d8", "is_disabled": 0, "rental_uris": {"android": "https://dc.lft.to/lastmile_qr_scan", "ios": "https://dc.lft.to/lastmile_qr_scan"}, "fusion_lon": 0.0, "lat": 38.908202833333334, "bike_id": "2d562e9e7395a2dc74d4bf45bf2416d8", "type": "electric_scooter", "is_reserved": 0, "lon": -77.0426875}, {"fusion_lat": 0.0, "name": "13a0f3ab000909e25aaec67da489744d", "is_disabled": 0, "rental_uris": {"android": "https://dc.lft.to/lastmile_qr_scan", "ios": "https://dc.lft.to/lastmile_qr_scan"}, "fusion_lon": 0.0, "lat": 38.94416483333333, "bike_id": "13a0f3ab000909e25aaec67da489744d", "type": "electric_scooter", "is_reserved": 0, "lon": -77.063252}, {"fusion_lat": 0.0, "name": "15ffed8510e373dcc47cacbdbdbd9826", "is_disabled": 0, "rental_uris": {"android": "https://dc.lft.to/lastmile_qr_scan", "ios": "https://dc.lft.to/lastmile_qr_scan"}, "fusion_lon": 0.0, "lat": 38.921274833333335, "bike_id": "15ffed8510e373dcc47cacbdbdbd9826", "type": "electric_scooter", "is_reserved": 0, "lon": -77.0458885}, {"fusion_lat": 0.0, "name": "40c631c83fb8bc375890571f2eb59c15", "is_disabled": 0, "rental_uris": {"android": "https://dc.lft.to/lastmile_qr_scan", "ios": "https://dc.lft.to/lastmile_qr_scan"}, "fusion_lon": 0.0, "lat": 38.936131833333334, "bike_id": "40c631c83fb8bc375890571f2eb59c15", "type": "electric_scooter", "is_reserved": 0, "lon": -77.058611}, {"fusion_lat": 0.0, "name": "9b5c589ba38714e05e4d48d780b54c26", "is_disabled": 0, "rental_uris": {"android": "https://dc.lft.to/lastmile_qr_scan", "ios": "https://dc.lft.to/lastmile_qr_scan"}, "fusion_lon": 0.0, "lat": 38.857961333333336, "bike_id": "9b5c589ba38714e05e4d48d780b54c26", "type": "electric_bike", "is_reserved": 0, "lon": -77.05154116666667}, {"fusion_lat": 0.0, "name": "0bc85ab00a945878333c0ed78a67d50c", "is_disabled": 0, "rental_uris": {"android": "https://dc.lft.to/lastmile_qr_scan", "ios": "https://dc.lft.to/lastmile_qr_scan"}, "fusion_lon": 0.0, "lat": 38.910364333333334, "bike_id": "0bc85ab00a945878333c0ed78a67d50c", "type": "electric_scooter", "is_reserved": 0, "lon": -77.03307933333333}, {"fusion_lat": 0.0, "name": "da2e989dedb9c73f79c3078f863477dd", "is_disabled": 0, "rental_uris": {"android": "https://dc.lft.to/lastmile_qr_scan", "ios": "https://dc.lft.to/lastmile_qr_scan"}, "fusion_lon": 0.0, "lat": 38.90335233333333, "bike_id": "da2e989dedb9c73f79c3078f863477dd", "type": "electric_bike", "is_reserved": 0, "lon": -76.97527316666667}, {"fusion_lat": 0.0, "name": "4feff4b03cb7877e889e8216455a98d2", "is_disabled": 0, "rental_uris": {"android": "https://dc.lft.to/lastmile_qr_scan", "ios": "https://dc.lft.to/lastmile_qr_scan"}, "fusion_lon": 0.0, "lat": 38.94339216666667, "bike_id": "4feff4b03cb7877e889e8216455a98d2", "type": "electric_scooter", "is_reserved": 0, "lon": -77.03246816666666}, {"fusion_lat": 0.0, "name": "c21cb8a68d0d086a123d7c58933cccce", "is_disabled": 0, "rental_uris": {"android": "https://dc.lft.to/lastmile_qr_scan", "ios": "https://dc.lft.to/lastmile_qr_scan"}, "fusion_lon": 0.0, "lat": 38.842847, "bike_id": "c21cb8a68d0d086a123d7c58933cccce", "type": "electric_bike", "is_reserved": 0, "lon": -77.04496666666667}, {"fusion_lat": 0.0, "name": "d8c172d08e80d44701d7e36ae45dc5e9", "is_disabled": 0, "rental_uris": {"android": "https://dc.lft.to/lastmile_qr_scan", "ios": "https://dc.lft.to/lastmile_qr_scan"}, "fusion_lon": 0.0, "lat": 38.9229215, "bike_id": "d8c172d08e80d44701d7e36ae45dc5e9", "type": "electric_scooter", "is_reserved": 0, "lon": -77.0296465}, {"fusion_lat": 0.0, "name": "a333b6866ad45c752e38b2d26ea82a09", "is_disabled": 0, "rental_uris": {"android": "https://dc.lft.to/lastmile_qr_scan", "ios": "https://dc.lft.to/lastmile_qr_scan"}, "fusion_lon": 0.0, "lat": 38.92220616666667, "bike_id": "a333b6866ad45c752e38b2d26ea82a09", "type": "electric_scooter", "is_reserved": 0, "lon": -76.99632516666667}, {"fusion_lat": 0.0, "name": "e719699d09df3c1f2de9c3da393c21e4", "is_disabled": 0, "rental_uris": {"android": "https://dc.lft.to/lastmile_qr_scan", "ios": "https://dc.lft.to/lastmile_qr_scan"}, "fusion_lon": 0.0, "lat": 38.90738666666667, "bike_id": "e719699d09df3c1f2de9c3da393c21e4", "type": "electric_scooter", "is_reserved": 0, "lon": -77.03444283333333}, {"fusion_lat": 0.0, "name": "6aef75608b0df9c511fed33f35725543", "is_disabled": 0, "rental_uris": {"android": "https://dc.lft.to/lastmile_qr_scan", "ios": "https://dc.lft.to/lastmile_qr_scan"}, "fusion_lon": 0.0, "lat": 38.897205666666665, "bike_id": "6aef75608b0df9c511fed33f35725543", "type": "electric_scooter", "is_reserved": 0, "lon": -77.02755316666666}, {"fusion_lat": 0.0, "name": "5abbb229c366bc37b0def1e67ff40c1d", "is_disabled": 0, "rental_uris": {"android": "https://dc.lft.to/lastmile_qr_scan", "ios": "https://dc.lft.to/lastmile_qr_scan"}, "fusion_lon": 0.0, "lat": 38.9024145, "bike_id": "5abbb229c366bc37b0def1e67ff40c1d", "type": "electric_scooter", "is_reserved": 0, "lon": -77.02609333333334}, {"fusion_lat": 0.0, "name": "4105af5ba9155f783f460116cf18041a", "is_disabled": 0, "rental_uris": {"android": "https://dc.lft.to/lastmile_qr_scan", "ios": "https://dc.lft.to/lastmile_qr_scan"}, "fusion_lon": 0.0, "lat": 38.924597, "bike_id": "4105af5ba9155f783f460116cf18041a", "type": "electric_scooter", "is_reserved": 0, "lon": -76.999101}, {"fusion_lat": 0.0, "name": "3f7f30cf2a190123072df2ee94c7b3a5", "is_disabled": 0, "rental_uris": {"android": "https://dc.lft.to/lastmile_qr_scan", "ios": "https://dc.lft.to/lastmile_qr_scan"}, "fusion_lon": 0.0, "lat": 38.9096225, "bike_id": "3f7f30cf2a190123072df2ee94c7b3a5", "type": "electric_scooter", "is_reserved": 0, "lon": -77.03245733333333}, {"fusion_lat": 0.0, "name": "4a5b153f559fbcaf3f790a57a328d236", "is_disabled": 0, "rental_uris": {"android": "https://dc.lft.to/lastmile_qr_scan", "ios": "https://dc.lft.to/lastmile_qr_scan"}, "fusion_lon": 0.0, "lat": 38.90838816666667, "bike_id": "4a5b153f559fbcaf3f790a57a328d236", "type": "electric_scooter", "is_reserved": 0, "lon": -77.03641216666666}, {"fusion_lat": 0.0, "name": "2d510d40537c3721c2df40089daf3c8c", "is_disabled": 0, "rental_uris": {"android": "https://dc.lft.to/lastmile_qr_scan", "ios": "https://dc.lft.to/lastmile_qr_scan"}, "fusion_lon": 0.0, "lat": 38.965913, "bike_id": "2d510d40537c3721c2df40089daf3c8c", "type": "electric_scooter", "is_reserved": 0, "lon": -77.01596733333334}, {"fusion_lat": 0.0, "name": "9f1bc9dcda19cc7fc1a9dd69eeee1cae", "is_disabled": 0, "rental_uris": {"android": "https://dc.lft.to/lastmile_qr_scan", "ios": "https://dc.lft.to/lastmile_qr_scan"}, "fusion_lon": 0.0, "lat": 38.933844, "bike_id": "9f1bc9dcda19cc7fc1a9dd69eeee1cae", "type": "electric_scooter", "is_reserved": 0, "lon": -77.0388455}, {"fusion_lat": 0.0, "name": "e6279d2dae0b2c3082892abadb1a7c33", "is_disabled": 0, "rental_uris": {"android": "https://dc.lft.to/lastmile_qr_scan", "ios": "https://dc.lft.to/lastmile_qr_scan"}, "fusion_lon": 0.0, "lat": 38.912951166666666, "bike_id": "e6279d2dae0b2c3082892abadb1a7c33", "type": "electric_scooter", "is_reserved": 0, "lon": -77.04516133333334}, {"fusion_lat": 0.0, "name": "d98d11e9545ef8780c7cd899c4a0e068", "is_disabled": 0, "rental_uris": {"android": "https://dc.lft.to/lastmile_qr_scan", "ios": "https://dc.lft.to/lastmile_qr_scan"}, "fusion_lon": 0.0, "lat": 38.91092316666666, "bike_id": "d98d11e9545ef8780c7cd899c4a0e068", "type": "electric_bike", "is_reserved": 0, "lon": -77.0365135}, {"fusion_lat": 0.0, "name": "eaade326ad5947b873a8322545a1a2aa", "is_disabled": 0, "rental_uris": {"android": "https://dc.lft.to/lastmile_qr_scan", "ios": "https://dc.lft.to/lastmile_qr_scan"}, "fusion_lon": 0.0, "lat": 38.874676666666666, "bike_id": "eaade326ad5947b873a8322545a1a2aa", "type": "electric_scooter", "is_reserved": 0, "lon": -77.00042416666666}, {"fusion_lat": 0.0, "name": "eb317984bcfb615d73d3f895ffd6df6b", "is_disabled": 0, "rental_uris": {"android": "https://dc.lft.to/lastmile_qr_scan", "ios": "https://dc.lft.to/lastmile_qr_scan"}, "fusion_lon": 0.0, "lat": 38.9263345, "bike_id": "eb317984bcfb615d73d3f895ffd6df6b", "type": "electric_scooter", "is_reserved": 0, "lon": -77.03502066666667}, {"fusion_lat": 0.0, "name": "a5019641be7a07d36e45f0f0ab2fe685", "is_disabled": 0, "rental_uris": {"android": "https://dc.lft.to/lastmile_qr_scan", "ios": "https://dc.lft.to/lastmile_qr_scan"}, "fusion_lon": 0.0, "lat": 38.89221633333333, "bike_id": "a5019641be7a07d36e45f0f0ab2fe685", "type": "electric_scooter", "is_reserved": 0, "lon": -77.02220866666667}, {"fusion_lat": 0.0, "name": "0424b2b261428c3fc87446fe8f3ae9f5", "is_disabled": 0, "rental_uris": {"android": "https://dc.lft.to/lastmile_qr_scan", "ios": "https://dc.lft.to/lastmile_qr_scan"}, "fusion_lon": 0.0, "lat": 38.916785833333336, "bike_id": "0424b2b261428c3fc87446fe8f3ae9f5", "type": "electric_scooter", "is_reserved": 0, "lon": -77.02716233333334}, {"fusion_lat": 0.0, "name": "b3fb79140e1f7d2fe2e2010dc55c6d67", "is_disabled": 0, "rental_uris": {"android": "https://dc.lft.to/lastmile_qr_scan", "ios": "https://dc.lft.to/lastmile_qr_scan"}, "fusion_lon": 0.0, "lat": 38.919236, "bike_id": "b3fb79140e1f7d2fe2e2010dc55c6d67", "type": "electric_scooter", "is_reserved": 0, "lon": -77.030986}, {"fusion_lat": 0.0, "name": "1c0282356ad73a0a0682a5aff8515ff2", "is_disabled": 0, "rental_uris": {"android": "https://dc.lft.to/lastmile_qr_scan", "ios": "https://dc.lft.to/lastmile_qr_scan"}, "fusion_lon": 0.0, "lat": 38.915194166666666, "bike_id": "1c0282356ad73a0a0682a5aff8515ff2", "type": "electric_scooter", "is_reserved": 0, "lon": -77.019825}, {"fusion_lat": 0.0, "name": "218d732a0bcacf0f0c80e5dc79d7dbf0", "is_disabled": 0, "rental_uris": {"android": "https://dc.lft.to/lastmile_qr_scan", "ios": "https://dc.lft.to/lastmile_qr_scan"}, "fusion_lon": 0.0, "lat": 38.8865265, "bike_id": "218d732a0bcacf0f0c80e5dc79d7dbf0", "type": "electric_scooter", "is_reserved": 0, "lon": -77.00200716666667}, {"fusion_lat": 0.0, "name": "255f8d9a56f5fb3f121b139d61c4f9bc", "is_disabled": 0, "rental_uris": {"android": "https://dc.lft.to/lastmile_qr_scan", "ios": "https://dc.lft.to/lastmile_qr_scan"}, "fusion_lon": 0.0, "lat": 38.873783, "bike_id": "255f8d9a56f5fb3f121b139d61c4f9bc", "type": "electric_scooter", "is_reserved": 0, "lon": -77.000591}, {"fusion_lat": 0.0, "name": "c5aa08c79287d984a2c03104b677cdf4", "is_disabled": 0, "rental_uris": {"android": "https://dc.lft.to/lastmile_qr_scan", "ios": "https://dc.lft.to/lastmile_qr_scan"}, "fusion_lon": 0.0, "lat": 38.91347616666667, "bike_id": "c5aa08c79287d984a2c03104b677cdf4", "type": "electric_bike", "is_reserved": 0, "lon": -76.9889345}, {"fusion_lat": 0.0, "name": "80750cd67575c5746d315238f4993daa", "is_disabled": 0, "rental_uris": {"android": "https://dc.lft.to/lastmile_qr_scan", "ios": "https://dc.lft.to/lastmile_qr_scan"}, "fusion_lon": 0.0, "lat": 38.92074933333333, "bike_id": "80750cd67575c5746d315238f4993daa", "type": "electric_scooter", "is_reserved": 0, "lon": -77.0231985}, {"fusion_lat": 0.0, "name": "008ba3cf91d1ab77a29c3541646141fe", "is_disabled": 0, "rental_uris": {"android": "https://dc.lft.to/lastmile_qr_scan", "ios": "https://dc.lft.to/lastmile_qr_scan"}, "fusion_lon": 0.0, "lat": 38.901368833333336, "bike_id": "008ba3cf91d1ab77a29c3541646141fe", "type": "electric_scooter", "is_reserved": 0, "lon": -76.9911885}, {"fusion_lat": 0.0, "name": "12deddb9a66bbca70c98e83a84a5334c", "is_disabled": 0, "rental_uris": {"android": "https://dc.lft.to/lastmile_qr_scan", "ios": "https://dc.lft.to/lastmile_qr_scan"}, "fusion_lon": 0.0, "lat": 38.91982266666667, "bike_id": "12deddb9a66bbca70c98e83a84a5334c", "type": "electric_scooter", "is_reserved": 0, "lon": -77.04085566666667}, {"fusion_lat": 0.0, "name": "6f290a28ccb5e492435ebf7e0bf1beac", "is_disabled": 0, "rental_uris": {"android": "https://dc.lft.to/lastmile_qr_scan", "ios": "https://dc.lft.to/lastmile_qr_scan"}, "fusion_lon": 0.0, "lat": 38.919768166666664, "bike_id": "6f290a28ccb5e492435ebf7e0bf1beac", "type": "electric_scooter", "is_reserved": 0, "lon": -77.02372183333334}, {"fusion_lat": 0.0, "name": "62cf07b0454b516b42a63b4774448c81", "is_disabled": 0, "rental_uris": {"android": "https://dc.lft.to/lastmile_qr_scan", "ios": "https://dc.lft.to/lastmile_qr_scan"}, "fusion_lon": 0.0, "lat": 38.9306205, "bike_id": "62cf07b0454b516b42a63b4774448c81", "type": "electric_scooter", "is_reserved": 0, "lon": -77.0321895}, {"fusion_lat": 0.0, "name": "d1656fb7025c5da054d131e938d9c6db", "is_disabled": 0, "rental_uris": {"android": "https://dc.lft.to/lastmile_qr_scan", "ios": "https://dc.lft.to/lastmile_qr_scan"}, "fusion_lon": 0.0, "lat": 38.9240355, "bike_id": "d1656fb7025c5da054d131e938d9c6db", "type": "electric_scooter", "is_reserved": 0, "lon": -77.02058433333333}, {"fusion_lat": 0.0, "name": "42ab83127a94c182ccb6386fc23b8a2c", "is_disabled": 0, "rental_uris": {"android": "https://dc.lft.to/lastmile_qr_scan", "ios": "https://dc.lft.to/lastmile_qr_scan"}, "fusion_lon": 0.0, "lat": 38.916784166666666, "bike_id": "42ab83127a94c182ccb6386fc23b8a2c", "type": "electric_scooter", "is_reserved": 0, "lon": -77.022895}, {"fusion_lat": 0.0, "name": "ff805c8b7a90967561996f3fee11da53", "is_disabled": 0, "rental_uris": {"android": "https://dc.lft.to/lastmile_qr_scan", "ios": "https://dc.lft.to/lastmile_qr_scan"}, "fusion_lon": 0.0, "lat": 38.9071605, "bike_id": "ff805c8b7a90967561996f3fee11da53", "type": "electric_scooter", "is_reserved": 0, "lon": -77.076196}, {"fusion_lat": 0.0, "name": "cf793f8ed9602d98282c4fe949865ac7", "is_disabled": 0, "rental_uris": {"android": "https://dc.lft.to/lastmile_qr_scan", "ios": "https://dc.lft.to/lastmile_qr_scan"}, "fusion_lon": 0.0, "lat": 38.90056716666667, "bike_id": "cf793f8ed9602d98282c4fe949865ac7", "type": "electric_scooter", "is_reserved": 0, "lon": -77.04183916666666}, {"fusion_lat": 0.0, "name": "4de22305ee8e81d8843adb30c79c7cd1", "is_disabled": 0, "rental_uris": {"android": "https://dc.lft.to/lastmile_qr_scan", "ios": "https://dc.lft.to/lastmile_qr_scan"}, "fusion_lon": 0.0, "lat": 38.9074225, "bike_id": "4de22305ee8e81d8843adb30c79c7cd1", "type": "electric_scooter", "is_reserved": 0, "lon": -77.043447}, {"fusion_lat": 0.0, "name": "eb630900aab80b29c35f811c73e55ba0", "is_disabled": 0, "rental_uris": {"android": "https://dc.lft.to/lastmile_qr_scan", "ios": "https://dc.lft.to/lastmile_qr_scan"}, "fusion_lon": 0.0, "lat": 38.90727833333333, "bike_id": "eb630900aab80b29c35f811c73e55ba0", "type": "electric_scooter", "is_reserved": 0, "lon": -77.0434075}, {"fusion_lat": 0.0, "name": "f77ae24c813e1f2d995076fa835e8b1a", "is_disabled": 0, "rental_uris": {"android": "https://dc.lft.to/lastmile_qr_scan", "ios": "https://dc.lft.to/lastmile_qr_scan"}, "fusion_lon": 0.0, "lat": 38.935047833333336, "bike_id": "f77ae24c813e1f2d995076fa835e8b1a", "type": "electric_scooter", "is_reserved": 0, "lon": -77.03635}, {"fusion_lat": 0.0, "name": "370a7fadc4c5b3a5c5c64af3a3cef944", "is_disabled": 0, "rental_uris": {"android": "https://dc.lft.to/lastmile_qr_scan", "ios": "https://dc.lft.to/lastmile_qr_scan"}, "fusion_lon": 0.0, "lat": 38.883961166666666, "bike_id": "370a7fadc4c5b3a5c5c64af3a3cef944", "type": "electric_scooter", "is_reserved": 0, "lon": -76.9304525}, {"fusion_lat": 0.0, "name": "e6132e0fe0469d69b1d71b70501c7b17", "is_disabled": 0, "rental_uris": {"android": "https://dc.lft.to/lastmile_qr_scan", "ios": "https://dc.lft.to/lastmile_qr_scan"}, "fusion_lon": 0.0, "lat": 38.897284666666664, "bike_id": "e6132e0fe0469d69b1d71b70501c7b17", "type": "electric_scooter", "is_reserved": 0, "lon": -77.05521366666666}, {"fusion_lat": 0.0, "name": "63458976741e2e45025d52986bbbc885", "is_disabled": 0, "rental_uris": {"android": "https://dc.lft.to/lastmile_qr_scan", "ios": "https://dc.lft.to/lastmile_qr_scan"}, "fusion_lon": 0.0, "lat": 38.9168065, "bike_id": "63458976741e2e45025d52986bbbc885", "type": "electric_scooter", "is_reserved": 0, "lon": -77.02288866666666}, {"fusion_lat": 0.0, "name": "b8993708d3fd8b4e7e82341ebbd00279", "is_disabled": 0, "rental_uris": {"android": "https://dc.lft.to/lastmile_qr_scan", "ios": "https://dc.lft.to/lastmile_qr_scan"}, "fusion_lon": 0.0, "lat": 38.8979575, "bike_id": "b8993708d3fd8b4e7e82341ebbd00279", "type": "electric_scooter", "is_reserved": 0, "lon": -77.022004}, {"fusion_lat": 0.0, "name": "7a7baf03b61d295a9118e161d852f055", "is_disabled": 0, "rental_uris": {"android": "https://dc.lft.to/lastmile_qr_scan", "ios": "https://dc.lft.to/lastmile_qr_scan"}, "fusion_lon": 0.0, "lat": 38.917266833333336, "bike_id": "7a7baf03b61d295a9118e161d852f055", "type": "electric_scooter", "is_reserved": 0, "lon": -77.026997}, {"fusion_lat": 0.0, "name": "c3904b15b3d0ccefa06775b9929eab84", "is_disabled": 0, "rental_uris": {"android": "https://dc.lft.to/lastmile_qr_scan", "ios": "https://dc.lft.to/lastmile_qr_scan"}, "fusion_lon": 0.0, "lat": 38.9019135, "bike_id": "c3904b15b3d0ccefa06775b9929eab84", "type": "electric_scooter", "is_reserved": 0, "lon": -77.0237105}, {"fusion_lat": 0.0, "name": "5d7560d5db033dcbac94b1b6cbc81dfc", "is_disabled": 0, "rental_uris": {"android": "https://dc.lft.to/lastmile_qr_scan", "ios": "https://dc.lft.to/lastmile_qr_scan"}, "fusion_lon": 0.0, "lat": 38.90973416666667, "bike_id": "5d7560d5db033dcbac94b1b6cbc81dfc", "type": "electric_scooter", "is_reserved": 0, "lon": -77.02077733333333}, {"fusion_lat": 0.0, "name": "6bd2e61627c628aef784bcf5c19c49d9", "is_disabled": 0, "rental_uris": {"android": "https://dc.lft.to/lastmile_qr_scan", "ios": "https://dc.lft.to/lastmile_qr_scan"}, "fusion_lon": 0.0, "lat": 38.882484833333336, "bike_id": "6bd2e61627c628aef784bcf5c19c49d9", "type": "electric_scooter", "is_reserved": 0, "lon": -76.991233}, {"fusion_lat": 0.0, "name": "3124856e4bf30d8c346ea95603ef7053", "is_disabled": 0, "rental_uris": {"android": "https://dc.lft.to/lastmile_qr_scan", "ios": "https://dc.lft.to/lastmile_qr_scan"}, "fusion_lon": 0.0, "lat": 38.94086216666667, "bike_id": "3124856e4bf30d8c346ea95603ef7053", "type": "electric_scooter", "is_reserved": 0, "lon": -77.06178466666667}, {"fusion_lat": 0.0, "name": "5afa46899e07288bc0e5ae39240db581", "is_disabled": 0, "rental_uris": {"android": "https://dc.lft.to/lastmile_qr_scan", "ios": "https://dc.lft.to/lastmile_qr_scan"}, "fusion_lon": 0.0, "lat": 38.8577075, "bike_id": "5afa46899e07288bc0e5ae39240db581", "type": "electric_bike", "is_reserved": 0, "lon": -76.987653}, {"fusion_lat": 0.0, "name": "f519af98b62c7bdd3a936ca252d6a117", "is_disabled": 0, "rental_uris": {"android": "https://dc.lft.to/lastmile_qr_scan", "ios": "https://dc.lft.to/lastmile_qr_scan"}, "fusion_lon": 0.0, "lat": 38.8976545, "bike_id": "f519af98b62c7bdd3a936ca252d6a117", "type": "electric_scooter", "is_reserved": 0, "lon": -77.02585816666667}, {"fusion_lat": 0.0, "name": "430cab752084c0d60180df02910ba08b", "is_disabled": 0, "rental_uris": {"android": "https://dc.lft.to/lastmile_qr_scan", "ios": "https://dc.lft.to/lastmile_qr_scan"}, "fusion_lon": 0.0, "lat": 38.898538333333335, "bike_id": "430cab752084c0d60180df02910ba08b", "type": "electric_bike", "is_reserved": 0, "lon": -76.9318735}, {"fusion_lat": 0.0, "name": "59e0441327a5983cb5cff02f7f40b8da", "is_disabled": 0, "rental_uris": {"android": "https://dc.lft.to/lastmile_qr_scan", "ios": "https://dc.lft.to/lastmile_qr_scan"}, "fusion_lon": 0.0, "lat": 38.90053983333333, "bike_id": "59e0441327a5983cb5cff02f7f40b8da", "type": "electric_scooter", "is_reserved": 0, "lon": -77.02957333333333}, {"fusion_lat": 0.0, "name": "69697acb431e0eca860307679ebb4145", "is_disabled": 0, "rental_uris": {"android": "https://dc.lft.to/lastmile_qr_scan", "ios": "https://dc.lft.to/lastmile_qr_scan"}, "fusion_lon": 0.0, "lat": 38.9596275, "bike_id": "69697acb431e0eca860307679ebb4145", "type": "electric_bike", "is_reserved": 0, "lon": -76.981619}, {"fusion_lat": 0.0, "name": "e625b6f4b17f274ecd8bf5fde742e65c", "is_disabled": 0, "rental_uris": {"android": "https://dc.lft.to/lastmile_qr_scan", "ios": "https://dc.lft.to/lastmile_qr_scan"}, "fusion_lon": 0.0, "lat": 38.90961383333333, "bike_id": "e625b6f4b17f274ecd8bf5fde742e65c", "type": "electric_scooter", "is_reserved": 0, "lon": -77.03942883333333}, {"fusion_lat": 0.0, "name": "7033cfa8939dbe861ed5d735c18bcdda", "is_disabled": 0, "rental_uris": {"android": "https://dc.lft.to/lastmile_qr_scan", "ios": "https://dc.lft.to/lastmile_qr_scan"}, "fusion_lon": 0.0, "lat": 38.89244516666667, "bike_id": "7033cfa8939dbe861ed5d735c18bcdda", "type": "electric_scooter", "is_reserved": 0, "lon": -77.05025}, {"fusion_lat": 0.0, "name": "29e99d028177fe151b20170648c651fd", "is_disabled": 0, "rental_uris": {"android": "https://dc.lft.to/lastmile_qr_scan", "ios": "https://dc.lft.to/lastmile_qr_scan"}, "fusion_lon": 0.0, "lat": 38.89621833333333, "bike_id": "29e99d028177fe151b20170648c651fd", "type": "electric_scooter", "is_reserved": 0, "lon": -76.9857165}, {"fusion_lat": 0.0, "name": "a666053a86c912388669f05cd0bdab45", "is_disabled": 0, "rental_uris": {"android": "https://dc.lft.to/lastmile_qr_scan", "ios": "https://dc.lft.to/lastmile_qr_scan"}, "fusion_lon": 0.0, "lat": 38.9146895, "bike_id": "a666053a86c912388669f05cd0bdab45", "type": "electric_scooter", "is_reserved": 0, "lon": -77.01554483333334}, {"fusion_lat": 0.0, "name": "712c1b19ee9a25be1ffb3186aa222edc", "is_disabled": 0, "rental_uris": {"android": "https://dc.lft.to/lastmile_qr_scan", "ios": "https://dc.lft.to/lastmile_qr_scan"}, "fusion_lon": 0.0, "lat": 38.90238683333333, "bike_id": "712c1b19ee9a25be1ffb3186aa222edc", "type": "electric_scooter", "is_reserved": 0, "lon": -77.018969}, {"fusion_lat": 0.0, "name": "7804a14e0d908adec23573d976709691", "is_disabled": 0, "rental_uris": {"android": "https://dc.lft.to/lastmile_qr_scan", "ios": "https://dc.lft.to/lastmile_qr_scan"}, "fusion_lon": 0.0, "lat": 38.91226016666667, "bike_id": "7804a14e0d908adec23573d976709691", "type": "electric_scooter", "is_reserved": 0, "lon": -77.04777233333333}, {"fusion_lat": 0.0, "name": "b10d29089ea89276c4f229aa68c0a9d3", "is_disabled": 0, "rental_uris": {"android": "https://dc.lft.to/lastmile_qr_scan", "ios": "https://dc.lft.to/lastmile_qr_scan"}, "fusion_lon": 0.0, "lat": 38.905126333333335, "bike_id": "b10d29089ea89276c4f229aa68c0a9d3", "type": "electric_scooter", "is_reserved": 0, "lon": -77.01711883333333}, {"fusion_lat": 0.0, "name": "2288a6fa3b92c9081de7bc6c6cae4aa9", "is_disabled": 0, "rental_uris": {"android": "https://dc.lft.to/lastmile_qr_scan", "ios": "https://dc.lft.to/lastmile_qr_scan"}, "fusion_lon": 0.0, "lat": 38.909785, "bike_id": "2288a6fa3b92c9081de7bc6c6cae4aa9", "type": "electric_scooter", "is_reserved": 0, "lon": -77.03288566666667}, {"fusion_lat": 0.0, "name": "dd8ff76b62ab84615074c9d5c42bb4f2", "is_disabled": 0, "rental_uris": {"android": "https://dc.lft.to/lastmile_qr_scan", "ios": "https://dc.lft.to/lastmile_qr_scan"}, "fusion_lon": 0.0, "lat": 38.856109333333336, "bike_id": "dd8ff76b62ab84615074c9d5c42bb4f2", "type": "electric_bike", "is_reserved": 0, "lon": -77.10805616666667}, {"fusion_lat": 0.0, "name": "a23d71a59905cd00af359db0375f6f30", "is_disabled": 0, "rental_uris": {"android": "https://dc.lft.to/lastmile_qr_scan", "ios": "https://dc.lft.to/lastmile_qr_scan"}, "fusion_lon": 0.0, "lat": 38.920713166666665, "bike_id": "a23d71a59905cd00af359db0375f6f30", "type": "electric_scooter", "is_reserved": 0, "lon": -77.01468533333333}, {"fusion_lat": 0.0, "name": "5a0b22a1f9b4f167a60c9dfae5fc1f3b", "is_disabled": 0, "rental_uris": {"android": "https://dc.lft.to/lastmile_qr_scan", "ios": "https://dc.lft.to/lastmile_qr_scan"}, "fusion_lon": 0.0, "lat": 38.924389, "bike_id": "5a0b22a1f9b4f167a60c9dfae5fc1f3b", "type": "electric_scooter", "is_reserved": 0, "lon": -77.04471816666667}, {"fusion_lat": 0.0, "name": "0e6b5bd72a466f5f7aec254b6a128c8c", "is_disabled": 0, "rental_uris": {"android": "https://dc.lft.to/lastmile_qr_scan", "ios": "https://dc.lft.to/lastmile_qr_scan"}, "fusion_lon": 0.0, "lat": 38.9729015, "bike_id": "0e6b5bd72a466f5f7aec254b6a128c8c", "type": "electric_scooter", "is_reserved": 0, "lon": -77.01160733333333}, {"fusion_lat": 0.0, "name": "b24395ea855d285e1731f2a71365194d", "is_disabled": 0, "rental_uris": {"android": "https://dc.lft.to/lastmile_qr_scan", "ios": "https://dc.lft.to/lastmile_qr_scan"}, "fusion_lon": 0.0, "lat": 38.883823166666666, "bike_id": "b24395ea855d285e1731f2a71365194d", "type": "electric_scooter", "is_reserved": 0, "lon": -77.04608216666666}, {"fusion_lat": 0.0, "name": "50b82f0873f822a79475589e9da24196", "is_disabled": 0, "rental_uris": {"android": "https://dc.lft.to/lastmile_qr_scan", "ios": "https://dc.lft.to/lastmile_qr_scan"}, "fusion_lon": 0.0, "lat": 38.901843166666666, "bike_id": "50b82f0873f822a79475589e9da24196", "type": "electric_scooter", "is_reserved": 0, "lon": -77.02747166666667}, {"fusion_lat": 0.0, "name": "c30a36898a2dc0697c144e29bc03502f", "is_disabled": 0, "rental_uris": {"android": "https://dc.lft.to/lastmile_qr_scan", "ios": "https://dc.lft.to/lastmile_qr_scan"}, "fusion_lon": 0.0, "lat": 38.9133495, "bike_id": "c30a36898a2dc0697c144e29bc03502f", "type": "electric_scooter", "is_reserved": 0, "lon": -77.0320785}, {"fusion_lat": 0.0, "name": "c7ea58bfe78391befe36555f4a2685be", "is_disabled": 0, "rental_uris": {"android": "https://dc.lft.to/lastmile_qr_scan", "ios": "https://dc.lft.to/lastmile_qr_scan"}, "fusion_lon": 0.0, "lat": 38.91922533333333, "bike_id": "c7ea58bfe78391befe36555f4a2685be", "type": "electric_scooter", "is_reserved": 0, "lon": -77.03373166666667}, {"fusion_lat": 0.0, "name": "603123308b4da386cb71164356b2844a", "is_disabled": 0, "rental_uris": {"android": "https://dc.lft.to/lastmile_qr_scan", "ios": "https://dc.lft.to/lastmile_qr_scan"}, "fusion_lon": 0.0, "lat": 38.915634, "bike_id": "603123308b4da386cb71164356b2844a", "type": "electric_scooter", "is_reserved": 0, "lon": -77.03859166666666}, {"fusion_lat": 0.0, "name": "5618c5163e1b50d44ad66452d449a99d", "is_disabled": 0, "rental_uris": {"android": "https://dc.lft.to/lastmile_qr_scan", "ios": "https://dc.lft.to/lastmile_qr_scan"}, "fusion_lon": 0.0, "lat": 38.91725066666667, "bike_id": "5618c5163e1b50d44ad66452d449a99d", "type": "electric_scooter", "is_reserved": 0, "lon": -77.02701183333333}, {"fusion_lat": 0.0, "name": "c7c8efcdd3058d6f68387584310c812b", "is_disabled": 0, "rental_uris": {"android": "https://dc.lft.to/lastmile_qr_scan", "ios": "https://dc.lft.to/lastmile_qr_scan"}, "fusion_lon": 0.0, "lat": 38.90036766666667, "bike_id": "c7c8efcdd3058d6f68387584310c812b", "type": "electric_scooter", "is_reserved": 0, "lon": -77.01184316666667}, {"fusion_lat": 0.0, "name": "0ff175f0f6100670fd72335c93819a89", "is_disabled": 0, "rental_uris": {"android": "https://dc.lft.to/lastmile_qr_scan", "ios": "https://dc.lft.to/lastmile_qr_scan"}, "fusion_lon": 0.0, "lat": 38.90260083333333, "bike_id": "0ff175f0f6100670fd72335c93819a89", "type": "electric_scooter", "is_reserved": 0, "lon": -77.05322216666667}, {"fusion_lat": 0.0, "name": "a70bb2707ec69e0005afda3f538a6994", "is_disabled": 0, "rental_uris": {"android": "https://dc.lft.to/lastmile_qr_scan", "ios": "https://dc.lft.to/lastmile_qr_scan"}, "fusion_lon": 0.0, "lat": 38.941943, "bike_id": "a70bb2707ec69e0005afda3f538a6994", "type": "electric_scooter", "is_reserved": 0, "lon": -77.025343}, {"fusion_lat": 0.0, "name": "3c7632c96e0644a5f799c3d23b06a7dd", "is_disabled": 0, "rental_uris": {"android": "https://dc.lft.to/lastmile_qr_scan", "ios": "https://dc.lft.to/lastmile_qr_scan"}, "fusion_lon": 0.0, "lat": 38.89712183333333, "bike_id": "3c7632c96e0644a5f799c3d23b06a7dd", "type": "electric_scooter", "is_reserved": 0, "lon": -77.01317033333333}, {"fusion_lat": 0.0, "name": "a9dc532b4be736fee76d59cefceb1ff8", "is_disabled": 0, "rental_uris": {"android": "https://dc.lft.to/lastmile_qr_scan", "ios": "https://dc.lft.to/lastmile_qr_scan"}, "fusion_lon": 0.0, "lat": 38.920423166666666, "bike_id": "a9dc532b4be736fee76d59cefceb1ff8", "type": "electric_scooter", "is_reserved": 0, "lon": -77.017947}, {"fusion_lat": 0.0, "name": "2381975dbf5a3a0e9e0d2ad27a276751", "is_disabled": 0, "rental_uris": {"android": "https://dc.lft.to/lastmile_qr_scan", "ios": "https://dc.lft.to/lastmile_qr_scan"}, "fusion_lon": 0.0, "lat": 38.878747833333335, "bike_id": "2381975dbf5a3a0e9e0d2ad27a276751", "type": "electric_scooter", "is_reserved": 0, "lon": -76.97091783333333}, {"fusion_lat": 0.0, "name": "30855bb099e2538bdbe0d9589c6514a0", "is_disabled": 0, "rental_uris": {"android": "https://dc.lft.to/lastmile_qr_scan", "ios": "https://dc.lft.to/lastmile_qr_scan"}, "fusion_lon": 0.0, "lat": 38.92681066666667, "bike_id": "30855bb099e2538bdbe0d9589c6514a0", "type": "electric_scooter", "is_reserved": 0, "lon": -77.0277955}, {"fusion_lat": 0.0, "name": "6c75503b98a24dda67bbbd6e87faf1ba", "is_disabled": 0, "rental_uris": {"android": "https://dc.lft.to/lastmile_qr_scan", "ios": "https://dc.lft.to/lastmile_qr_scan"}, "fusion_lon": 0.0, "lat": 38.96186633333333, "bike_id": "6c75503b98a24dda67bbbd6e87faf1ba", "type": "electric_bike", "is_reserved": 0, "lon": -77.052666}, {"fusion_lat": 0.0, "name": "e33896fcc3a34235a38cc5ecf71e64dd", "is_disabled": 0, "rental_uris": {"android": "https://dc.lft.to/lastmile_qr_scan", "ios": "https://dc.lft.to/lastmile_qr_scan"}, "fusion_lon": 0.0, "lat": 38.89243583333333, "bike_id": "e33896fcc3a34235a38cc5ecf71e64dd", "type": "electric_scooter", "is_reserved": 0, "lon": -77.03966666666666}, {"fusion_lat": 0.0, "name": "56c900805edb35f9eeb5ee097209f377", "is_disabled": 0, "rental_uris": {"android": "https://dc.lft.to/lastmile_qr_scan", "ios": "https://dc.lft.to/lastmile_qr_scan"}, "fusion_lon": 0.0, "lat": 38.89227983333333, "bike_id": "56c900805edb35f9eeb5ee097209f377", "type": "electric_scooter", "is_reserved": 0, "lon": -77.0250615}, {"fusion_lat": 0.0, "name": "4afa25c86f11049f1bb13f2256eb3c7e", "is_disabled": 0, "rental_uris": {"android": "https://dc.lft.to/lastmile_qr_scan", "ios": "https://dc.lft.to/lastmile_qr_scan"}, "fusion_lon": 0.0, "lat": 38.90031166666667, "bike_id": "4afa25c86f11049f1bb13f2256eb3c7e", "type": "electric_scooter", "is_reserved": 0, "lon": -77.01609833333333}, {"fusion_lat": 0.0, "name": "3cf1128fc8ca19c6c91663ada1fa7bcd", "is_disabled": 0, "rental_uris": {"android": "https://dc.lft.to/lastmile_qr_scan", "ios": "https://dc.lft.to/lastmile_qr_scan"}, "fusion_lon": 0.0, "lat": 38.945153833333336, "bike_id": "3cf1128fc8ca19c6c91663ada1fa7bcd", "type": "electric_bike", "is_reserved": 0, "lon": -77.00676066666666}, {"fusion_lat": 0.0, "name": "7f41658d2530ffedb35fa5fb752e8df7", "is_disabled": 0, "rental_uris": {"android": "https://dc.lft.to/lastmile_qr_scan", "ios": "https://dc.lft.to/lastmile_qr_scan"}, "fusion_lon": 0.0, "lat": 38.91121416666667, "bike_id": "7f41658d2530ffedb35fa5fb752e8df7", "type": "electric_scooter", "is_reserved": 0, "lon": -77.01738783333333}, {"fusion_lat": 0.0, "name": "ce8463ea08980de3b30c4538cb250269", "is_disabled": 0, "rental_uris": {"android": "https://dc.lft.to/lastmile_qr_scan", "ios": "https://dc.lft.to/lastmile_qr_scan"}, "fusion_lon": 0.0, "lat": 38.90458316666667, "bike_id": "ce8463ea08980de3b30c4538cb250269", "type": "electric_scooter", "is_reserved": 0, "lon": -77.05336433333333}, {"fusion_lat": 0.0, "name": "b328f6b3b581c2555f73af96a0e69eb7", "is_disabled": 0, "rental_uris": {"android": "https://dc.lft.to/lastmile_qr_scan", "ios": "https://dc.lft.to/lastmile_qr_scan"}, "fusion_lon": 0.0, "lat": 38.95280966666667, "bike_id": "b328f6b3b581c2555f73af96a0e69eb7", "type": "electric_scooter", "is_reserved": 0, "lon": -77.06885}, {"fusion_lat": 0.0, "name": "55a26dc3d5a0b8e13fb3b90c5f0c62a1", "is_disabled": 0, "rental_uris": {"android": "https://dc.lft.to/lastmile_qr_scan", "ios": "https://dc.lft.to/lastmile_qr_scan"}, "fusion_lon": 0.0, "lat": 38.900324166666664, "bike_id": "55a26dc3d5a0b8e13fb3b90c5f0c62a1", "type": "electric_scooter", "is_reserved": 0, "lon": -76.996057}, {"fusion_lat": 0.0, "name": "288a240e1d012dcfbbbc78c82cd73aa0", "is_disabled": 0, "rental_uris": {"android": "https://dc.lft.to/lastmile_qr_scan", "ios": "https://dc.lft.to/lastmile_qr_scan"}, "fusion_lon": 0.0, "lat": 38.92899283333333, "bike_id": "288a240e1d012dcfbbbc78c82cd73aa0", "type": "electric_scooter", "is_reserved": 0, "lon": -77.03262433333333}, {"fusion_lat": 0.0, "name": "3404edb12423179c6771ae6b8047c7b8", "is_disabled": 0, "rental_uris": {"android": "https://dc.lft.to/lastmile_qr_scan", "ios": "https://dc.lft.to/lastmile_qr_scan"}, "fusion_lon": 0.0, "lat": 38.915933333333335, "bike_id": "3404edb12423179c6771ae6b8047c7b8", "type": "electric_scooter", "is_reserved": 0, "lon": -77.043272}, {"fusion_lat": 0.0, "name": "810ef05f561855d834757bd1abe69315", "is_disabled": 0, "rental_uris": {"android": "https://dc.lft.to/lastmile_qr_scan", "ios": "https://dc.lft.to/lastmile_qr_scan"}, "fusion_lon": 0.0, "lat": 38.916053, "bike_id": "810ef05f561855d834757bd1abe69315", "type": "electric_scooter", "is_reserved": 0, "lon": -77.02303416666666}, {"fusion_lat": 0.0, "name": "98312bb81d701f5881c91c7334e091ad", "is_disabled": 0, "rental_uris": {"android": "https://dc.lft.to/lastmile_qr_scan", "ios": "https://dc.lft.to/lastmile_qr_scan"}, "fusion_lon": 0.0, "lat": 38.88506816666667, "bike_id": "98312bb81d701f5881c91c7334e091ad", "type": "electric_scooter", "is_reserved": 0, "lon": -77.0148695}, {"fusion_lat": 0.0, "name": "bc5a422e495ff5e63c0aed8eecc36649", "is_disabled": 0, "rental_uris": {"android": "https://dc.lft.to/lastmile_qr_scan", "ios": "https://dc.lft.to/lastmile_qr_scan"}, "fusion_lon": 0.0, "lat": 38.8789545, "bike_id": "bc5a422e495ff5e63c0aed8eecc36649", "type": "electric_scooter", "is_reserved": 0, "lon": -77.0055195}, {"fusion_lat": 0.0, "name": "d49b9f048ca5a6e3584dffe6641a7464", "is_disabled": 0, "rental_uris": {"android": "https://dc.lft.to/lastmile_qr_scan", "ios": "https://dc.lft.to/lastmile_qr_scan"}, "fusion_lon": 0.0, "lat": 38.92376633333333, "bike_id": "d49b9f048ca5a6e3584dffe6641a7464", "type": "electric_scooter", "is_reserved": 0, "lon": -77.05152466666667}, {"fusion_lat": 0.0, "name": "48b1c1babfe530d4b68353cbe6f6f793", "is_disabled": 0, "rental_uris": {"android": "https://dc.lft.to/lastmile_qr_scan", "ios": "https://dc.lft.to/lastmile_qr_scan"}, "fusion_lon": 0.0, "lat": 38.9508615, "bike_id": "48b1c1babfe530d4b68353cbe6f6f793", "type": "electric_scooter", "is_reserved": 0, "lon": -77.02715333333333}, {"fusion_lat": 0.0, "name": "fe5145889ef05519ba45e7eef47514e9", "is_disabled": 0, "rental_uris": {"android": "https://dc.lft.to/lastmile_qr_scan", "ios": "https://dc.lft.to/lastmile_qr_scan"}, "fusion_lon": 0.0, "lat": 38.92568083333333, "bike_id": "fe5145889ef05519ba45e7eef47514e9", "type": "electric_scooter", "is_reserved": 0, "lon": -77.0437495}, {"fusion_lat": 0.0, "name": "7fc01263d8fe93e8146280e48a70ff54", "is_disabled": 0, "rental_uris": {"android": "https://dc.lft.to/lastmile_qr_scan", "ios": "https://dc.lft.to/lastmile_qr_scan"}, "fusion_lon": 0.0, "lat": 38.91340733333333, "bike_id": "7fc01263d8fe93e8146280e48a70ff54", "type": "electric_scooter", "is_reserved": 0, "lon": -77.031706}, {"fusion_lat": 0.0, "name": "35b2b00aed4b58440f0b986f4b536d4c", "is_disabled": 0, "rental_uris": {"android": "https://dc.lft.to/lastmile_qr_scan", "ios": "https://dc.lft.to/lastmile_qr_scan"}, "fusion_lon": 0.0, "lat": 38.89239233333333, "bike_id": "35b2b00aed4b58440f0b986f4b536d4c", "type": "electric_scooter", "is_reserved": 0, "lon": -77.04679466666667}, {"fusion_lat": 0.0, "name": "8f54cf3f7e007e94b51be245ff3a4e6d", "is_disabled": 0, "rental_uris": {"android": "https://dc.lft.to/lastmile_qr_scan", "ios": "https://dc.lft.to/lastmile_qr_scan"}, "fusion_lon": 0.0, "lat": 38.904231, "bike_id": "8f54cf3f7e007e94b51be245ff3a4e6d", "type": "electric_scooter", "is_reserved": 0, "lon": -77.0251605}, {"fusion_lat": 0.0, "name": "15f9e0d8a8ef1bb19dcbab63e734af42", "is_disabled": 0, "rental_uris": {"android": "https://dc.lft.to/lastmile_qr_scan", "ios": "https://dc.lft.to/lastmile_qr_scan"}, "fusion_lon": 0.0, "lat": 38.90725166666667, "bike_id": "15f9e0d8a8ef1bb19dcbab63e734af42", "type": "electric_scooter", "is_reserved": 0, "lon": -77.0499425}, {"fusion_lat": 0.0, "name": "7b861b682451beada378dda774ebae91", "is_disabled": 0, "rental_uris": {"android": "https://dc.lft.to/lastmile_qr_scan", "ios": "https://dc.lft.to/lastmile_qr_scan"}, "fusion_lon": 0.0, "lat": 38.91825866666667, "bike_id": "7b861b682451beada378dda774ebae91", "type": "electric_scooter", "is_reserved": 0, "lon": -77.036795}, {"fusion_lat": 0.0, "name": "bca80f6685971cb0f8f6029c27a2d95e", "is_disabled": 0, "rental_uris": {"android": "https://dc.lft.to/lastmile_qr_scan", "ios": "https://dc.lft.to/lastmile_qr_scan"}, "fusion_lon": 0.0, "lat": 38.91677383333333, "bike_id": "bca80f6685971cb0f8f6029c27a2d95e", "type": "electric_scooter", "is_reserved": 0, "lon": -77.0228965}, {"fusion_lat": 0.0, "name": "99e5c6504471732e4a14a377ac77ebe4", "is_disabled": 0, "rental_uris": {"android": "https://dc.lft.to/lastmile_qr_scan", "ios": "https://dc.lft.to/lastmile_qr_scan"}, "fusion_lon": 0.0, "lat": 38.88990783333333, "bike_id": "99e5c6504471732e4a14a377ac77ebe4", "type": "electric_scooter", "is_reserved": 0, "lon": -76.99248266666666}, {"fusion_lat": 0.0, "name": "6e14aa9ad815798c6c405681daa428ad", "is_disabled": 0, "rental_uris": {"android": "https://dc.lft.to/lastmile_qr_scan", "ios": "https://dc.lft.to/lastmile_qr_scan"}, "fusion_lon": 0.0, "lat": 38.89227316666667, "bike_id": "6e14aa9ad815798c6c405681daa428ad", "type": "electric_scooter", "is_reserved": 0, "lon": -77.03173866666667}, {"fusion_lat": 0.0, "name": "bebfa6cccfcb4fec94a7bda8e5b083c2", "is_disabled": 0, "rental_uris": {"android": "https://dc.lft.to/lastmile_qr_scan", "ios": "https://dc.lft.to/lastmile_qr_scan"}, "fusion_lon": 0.0, "lat": 38.902409, "bike_id": "bebfa6cccfcb4fec94a7bda8e5b083c2", "type": "electric_scooter", "is_reserved": 0, "lon": -77.0632995}, {"fusion_lat": 0.0, "name": "4adc7c9dc375dc3ae2bb8ec384624da7", "is_disabled": 0, "rental_uris": {"android": "https://dc.lft.to/lastmile_qr_scan", "ios": "https://dc.lft.to/lastmile_qr_scan"}, "fusion_lon": 0.0, "lat": 38.966679666666664, "bike_id": "4adc7c9dc375dc3ae2bb8ec384624da7", "type": "electric_scooter", "is_reserved": 0, "lon": -77.02549333333333}, {"fusion_lat": 0.0, "name": "3c4ea381788ceb4faf156e368dd1129c", "is_disabled": 0, "rental_uris": {"android": "https://dc.lft.to/lastmile_qr_scan", "ios": "https://dc.lft.to/lastmile_qr_scan"}, "fusion_lon": 0.0, "lat": 38.90554, "bike_id": "3c4ea381788ceb4faf156e368dd1129c", "type": "electric_scooter", "is_reserved": 0, "lon": -77.0465955}, {"fusion_lat": 0.0, "name": "56010a26da3948ff905b9275b84cf813", "is_disabled": 0, "rental_uris": {"android": "https://dc.lft.to/lastmile_qr_scan", "ios": "https://dc.lft.to/lastmile_qr_scan"}, "fusion_lon": 0.0, "lat": 38.906864166666665, "bike_id": "56010a26da3948ff905b9275b84cf813", "type": "electric_bike", "is_reserved": 0, "lon": -77.03645333333333}, {"fusion_lat": 0.0, "name": "f183506e8f30d3166ae749929fc8e144", "is_disabled": 0, "rental_uris": {"android": "https://dc.lft.to/lastmile_qr_scan", "ios": "https://dc.lft.to/lastmile_qr_scan"}, "fusion_lon": 0.0, "lat": 38.89198016666667, "bike_id": "f183506e8f30d3166ae749929fc8e144", "type": "electric_scooter", "is_reserved": 0, "lon": -77.0225655}, {"fusion_lat": 0.0, "name": "71f5793a367e379760da9ec29a5f2456", "is_disabled": 0, "rental_uris": {"android": "https://dc.lft.to/lastmile_qr_scan", "ios": "https://dc.lft.to/lastmile_qr_scan"}, "fusion_lon": 0.0, "lat": 38.91560283333333, "bike_id": "71f5793a367e379760da9ec29a5f2456", "type": "electric_scooter", "is_reserved": 0, "lon": -77.03106433333333}, {"fusion_lat": 0.0, "name": "9aa2b2d6ff6aec3844a3a411d5e9f232", "is_disabled": 0, "rental_uris": {"android": "https://dc.lft.to/lastmile_qr_scan", "ios": "https://dc.lft.to/lastmile_qr_scan"}, "fusion_lon": 0.0, "lat": 38.904854666666665, "bike_id": "9aa2b2d6ff6aec3844a3a411d5e9f232", "type": "electric_scooter", "is_reserved": 0, "lon": -77.02714716666667}, {"fusion_lat": 0.0, "name": "dc22a7e085df5724ec0159a84f541d5b", "is_disabled": 0, "rental_uris": {"android": "https://dc.lft.to/lastmile_qr_scan", "ios": "https://dc.lft.to/lastmile_qr_scan"}, "fusion_lon": 0.0, "lat": 38.928902666666666, "bike_id": "dc22a7e085df5724ec0159a84f541d5b", "type": "electric_scooter", "is_reserved": 0, "lon": -77.03730416666667}, {"fusion_lat": 0.0, "name": "6398f08d495b5ade02a60ba29825ebd5", "is_disabled": 0, "rental_uris": {"android": "https://dc.lft.to/lastmile_qr_scan", "ios": "https://dc.lft.to/lastmile_qr_scan"}, "fusion_lon": 0.0, "lat": 38.909529666666664, "bike_id": "6398f08d495b5ade02a60ba29825ebd5", "type": "electric_scooter", "is_reserved": 0, "lon": -77.034444}, {"fusion_lat": 0.0, "name": "76064d0df62e8bf5b817d56bad61fd91", "is_disabled": 0, "rental_uris": {"android": "https://dc.lft.to/lastmile_qr_scan", "ios": "https://dc.lft.to/lastmile_qr_scan"}, "fusion_lon": 0.0, "lat": 38.91542283333333, "bike_id": "76064d0df62e8bf5b817d56bad61fd91", "type": "electric_scooter", "is_reserved": 0, "lon": -77.03205066666666}, {"fusion_lat": 0.0, "name": "8aa9bc92c2d40b449d1148e2aff37f95", "is_disabled": 0, "rental_uris": {"android": "https://dc.lft.to/lastmile_qr_scan", "ios": "https://dc.lft.to/lastmile_qr_scan"}, "fusion_lon": 0.0, "lat": 38.92418166666667, "bike_id": "8aa9bc92c2d40b449d1148e2aff37f95", "type": "electric_scooter", "is_reserved": 0, "lon": -77.05750416666666}, {"fusion_lat": 0.0, "name": "4cfc04ca5ecf78e9f71d2aca227aed67", "is_disabled": 0, "rental_uris": {"android": "https://dc.lft.to/lastmile_qr_scan", "ios": "https://dc.lft.to/lastmile_qr_scan"}, "fusion_lon": 0.0, "lat": 38.91908033333333, "bike_id": "4cfc04ca5ecf78e9f71d2aca227aed67", "type": "electric_scooter", "is_reserved": 0, "lon": -77.02448366666667}, {"fusion_lat": 0.0, "name": "b238512cc857778ba5e5494245d7f4d5", "is_disabled": 0, "rental_uris": {"android": "https://dc.lft.to/lastmile_qr_scan", "ios": "https://dc.lft.to/lastmile_qr_scan"}, "fusion_lon": 0.0, "lat": 38.89938316666667, "bike_id": "b238512cc857778ba5e5494245d7f4d5", "type": "electric_scooter", "is_reserved": 0, "lon": -76.997327}, {"fusion_lat": 0.0, "name": "3a6c09ea02c9adae25e134f65bf208f3", "is_disabled": 0, "rental_uris": {"android": "https://dc.lft.to/lastmile_qr_scan", "ios": "https://dc.lft.to/lastmile_qr_scan"}, "fusion_lon": 0.0, "lat": 38.9185115, "bike_id": "3a6c09ea02c9adae25e134f65bf208f3", "type": "electric_scooter", "is_reserved": 0, "lon": -76.9653775}, {"fusion_lat": 0.0, "name": "c4c8a3f84ed085fad40cd9cfcce8d137", "is_disabled": 0, "rental_uris": {"android": "https://dc.lft.to/lastmile_qr_scan", "ios": "https://dc.lft.to/lastmile_qr_scan"}, "fusion_lon": 0.0, "lat": 38.900474, "bike_id": "c4c8a3f84ed085fad40cd9cfcce8d137", "type": "electric_scooter", "is_reserved": 0, "lon": -77.01697833333333}, {"fusion_lat": 0.0, "name": "30d61518582bf69677ee63c268efb62a", "is_disabled": 0, "rental_uris": {"android": "https://dc.lft.to/lastmile_qr_scan", "ios": "https://dc.lft.to/lastmile_qr_scan"}, "fusion_lon": 0.0, "lat": 38.92452483333334, "bike_id": "30d61518582bf69677ee63c268efb62a", "type": "electric_scooter", "is_reserved": 0, "lon": -77.03973516666667}, {"fusion_lat": 0.0, "name": "7a1dad05fec70bca9e31d686c1cf0ca5", "is_disabled": 0, "rental_uris": {"android": "https://dc.lft.to/lastmile_qr_scan", "ios": "https://dc.lft.to/lastmile_qr_scan"}, "fusion_lon": 0.0, "lat": 38.90080183333333, "bike_id": "7a1dad05fec70bca9e31d686c1cf0ca5", "type": "electric_bike", "is_reserved": 0, "lon": -77.03921383333333}, {"fusion_lat": 0.0, "name": "86ce3b7a8c98fb491933b7e5ac300677", "is_disabled": 0, "rental_uris": {"android": "https://dc.lft.to/lastmile_qr_scan", "ios": "https://dc.lft.to/lastmile_qr_scan"}, "fusion_lon": 0.0, "lat": 38.906715166666665, "bike_id": "86ce3b7a8c98fb491933b7e5ac300677", "type": "electric_scooter", "is_reserved": 0, "lon": -77.02712833333334}, {"fusion_lat": 0.0, "name": "eb7cd33440e2db73e82bd41c45d097c8", "is_disabled": 0, "rental_uris": {"android": "https://dc.lft.to/lastmile_qr_scan", "ios": "https://dc.lft.to/lastmile_qr_scan"}, "fusion_lon": 0.0, "lat": 38.909725, "bike_id": "eb7cd33440e2db73e82bd41c45d097c8", "type": "electric_bike", "is_reserved": 0, "lon": -77.04622183333333}, {"fusion_lat": 0.0, "name": "d61cc7eed4ba9de9974d63790e2e2ca3", "is_disabled": 0, "rental_uris": {"android": "https://dc.lft.to/lastmile_qr_scan", "ios": "https://dc.lft.to/lastmile_qr_scan"}, "fusion_lon": 0.0, "lat": 38.92128316666667, "bike_id": "d61cc7eed4ba9de9974d63790e2e2ca3", "type": "electric_scooter", "is_reserved": 0, "lon": -77.04423183333333}, {"fusion_lat": 0.0, "name": "43bf7fa6da6bc112ef6d08a82784e149", "is_disabled": 0, "rental_uris": {"android": "https://dc.lft.to/lastmile_qr_scan", "ios": "https://dc.lft.to/lastmile_qr_scan"}, "fusion_lon": 0.0, "lat": 38.9002825, "bike_id": "43bf7fa6da6bc112ef6d08a82784e149", "type": "electric_scooter", "is_reserved": 0, "lon": -77.016069}, {"fusion_lat": 0.0, "name": "ac5419cd5df7fe20172211bc36aed04d", "is_disabled": 0, "rental_uris": {"android": "https://dc.lft.to/lastmile_qr_scan", "ios": "https://dc.lft.to/lastmile_qr_scan"}, "fusion_lon": 0.0, "lat": 38.91114233333333, "bike_id": "ac5419cd5df7fe20172211bc36aed04d", "type": "electric_scooter", "is_reserved": 0, "lon": -77.0328905}, {"fusion_lat": 0.0, "name": "d9eed2f2d7e072b9abe38f96a19a0cb1", "is_disabled": 0, "rental_uris": {"android": "https://dc.lft.to/lastmile_qr_scan", "ios": "https://dc.lft.to/lastmile_qr_scan"}, "fusion_lon": 0.0, "lat": 38.958915166666664, "bike_id": "d9eed2f2d7e072b9abe38f96a19a0cb1", "type": "electric_scooter", "is_reserved": 0, "lon": -77.00285216666667}, {"fusion_lat": 0.0, "name": "f25fb394f385e3c0f1b68d4eb948412b", "is_disabled": 0, "rental_uris": {"android": "https://dc.lft.to/lastmile_qr_scan", "ios": "https://dc.lft.to/lastmile_qr_scan"}, "fusion_lon": 0.0, "lat": 38.899489833333334, "bike_id": "f25fb394f385e3c0f1b68d4eb948412b", "type": "electric_scooter", "is_reserved": 0, "lon": -77.02199883333333}, {"fusion_lat": 0.0, "name": "7d90722adfffeafe8f47a2af55806e3c", "is_disabled": 0, "rental_uris": {"android": "https://dc.lft.to/lastmile_qr_scan", "ios": "https://dc.lft.to/lastmile_qr_scan"}, "fusion_lon": 0.0, "lat": 38.90875183333333, "bike_id": "7d90722adfffeafe8f47a2af55806e3c", "type": "electric_scooter", "is_reserved": 0, "lon": -77.02394016666666}, {"fusion_lat": 0.0, "name": "f7484b0f6e90f56bbe3477f99ee9dc5f", "is_disabled": 0, "rental_uris": {"android": "https://dc.lft.to/lastmile_qr_scan", "ios": "https://dc.lft.to/lastmile_qr_scan"}, "fusion_lon": 0.0, "lat": 38.917156166666665, "bike_id": "f7484b0f6e90f56bbe3477f99ee9dc5f", "type": "electric_scooter", "is_reserved": 0, "lon": -77.0295075}, {"fusion_lat": 0.0, "name": "3b0252a58573dcc18672a94032c2a910", "is_disabled": 0, "rental_uris": {"android": "https://dc.lft.to/lastmile_qr_scan", "ios": "https://dc.lft.to/lastmile_qr_scan"}, "fusion_lon": 0.0, "lat": 38.90454533333333, "bike_id": "3b0252a58573dcc18672a94032c2a910", "type": "electric_scooter", "is_reserved": 0, "lon": -77.05854816666667}, {"fusion_lat": 0.0, "name": "f5d0c1615ab5b22f2cab24449fda44b0", "is_disabled": 0, "rental_uris": {"android": "https://dc.lft.to/lastmile_qr_scan", "ios": "https://dc.lft.to/lastmile_qr_scan"}, "fusion_lon": 0.0, "lat": 38.88717666666667, "bike_id": "f5d0c1615ab5b22f2cab24449fda44b0", "type": "electric_scooter", "is_reserved": 0, "lon": -77.02581516666666}, {"fusion_lat": 0.0, "name": "5050ea5e22be9a90346325adc01c17bb", "is_disabled": 0, "rental_uris": {"android": "https://dc.lft.to/lastmile_qr_scan", "ios": "https://dc.lft.to/lastmile_qr_scan"}, "fusion_lon": 0.0, "lat": 38.94167183333333, "bike_id": "5050ea5e22be9a90346325adc01c17bb", "type": "electric_bike", "is_reserved": 0, "lon": -76.9664615}, {"fusion_lat": 0.0, "name": "030c5604d4abf77724c96dee2630acb7", "is_disabled": 0, "rental_uris": {"android": "https://dc.lft.to/lastmile_qr_scan", "ios": "https://dc.lft.to/lastmile_qr_scan"}, "fusion_lon": 0.0, "lat": 38.895475833333336, "bike_id": "030c5604d4abf77724c96dee2630acb7", "type": "electric_scooter", "is_reserved": 0, "lon": -77.02373316666667}, {"fusion_lat": 0.0, "name": "31d9d16c707c10ddc6083d508c6f08bf", "is_disabled": 0, "rental_uris": {"android": "https://dc.lft.to/lastmile_qr_scan", "ios": "https://dc.lft.to/lastmile_qr_scan"}, "fusion_lon": 0.0, "lat": 38.900294, "bike_id": "31d9d16c707c10ddc6083d508c6f08bf", "type": "electric_scooter", "is_reserved": 0, "lon": -77.02410116666667}, {"fusion_lat": 0.0, "name": "69dc514a9d2678159088ad3f4c9f3f75", "is_disabled": 0, "rental_uris": {"android": "https://dc.lft.to/lastmile_qr_scan", "ios": "https://dc.lft.to/lastmile_qr_scan"}, "fusion_lon": 0.0, "lat": 38.987893, "bike_id": "69dc514a9d2678159088ad3f4c9f3f75", "type": "electric_bike", "is_reserved": 0, "lon": -77.14098616666666}, {"fusion_lat": 0.0, "name": "26223e95fd072df44e1a6c2e5610ab31", "is_disabled": 0, "rental_uris": {"android": "https://dc.lft.to/lastmile_qr_scan", "ios": "https://dc.lft.to/lastmile_qr_scan"}, "fusion_lon": 0.0, "lat": 38.941543833333334, "bike_id": "26223e95fd072df44e1a6c2e5610ab31", "type": "electric_bike", "is_reserved": 0, "lon": -77.0019605}, {"fusion_lat": 0.0, "name": "a80ee7bb954a54b166eaf98c186b1a7d", "is_disabled": 0, "rental_uris": {"android": "https://dc.lft.to/lastmile_qr_scan", "ios": "https://dc.lft.to/lastmile_qr_scan"}, "fusion_lon": 0.0, "lat": 38.92870516666667, "bike_id": "a80ee7bb954a54b166eaf98c186b1a7d", "type": "electric_scooter", "is_reserved": 0, "lon": -77.034381}, {"fusion_lat": 0.0, "name": "77be291d72523789cfd21bc6385e8abe", "is_disabled": 0, "rental_uris": {"android": "https://dc.lft.to/lastmile_qr_scan", "ios": "https://dc.lft.to/lastmile_qr_scan"}, "fusion_lon": 0.0, "lat": 38.8736905, "bike_id": "77be291d72523789cfd21bc6385e8abe", "type": "electric_scooter", "is_reserved": 0, "lon": -77.001262}, {"fusion_lat": 0.0, "name": "aa4c4f221a9445240845744f2c73ab27", "is_disabled": 0, "rental_uris": {"android": "https://dc.lft.to/lastmile_qr_scan", "ios": "https://dc.lft.to/lastmile_qr_scan"}, "fusion_lon": 0.0, "lat": 38.911159, "bike_id": "aa4c4f221a9445240845744f2c73ab27", "type": "electric_scooter", "is_reserved": 0, "lon": -77.01157416666666}, {"fusion_lat": 0.0, "name": "bb455234a5c7a7593d42330bf2d178a4", "is_disabled": 0, "rental_uris": {"android": "https://dc.lft.to/lastmile_qr_scan", "ios": "https://dc.lft.to/lastmile_qr_scan"}, "fusion_lon": 0.0, "lat": 38.904322, "bike_id": "bb455234a5c7a7593d42330bf2d178a4", "type": "electric_scooter", "is_reserved": 0, "lon": -77.02593116666667}, {"fusion_lat": 0.0, "name": "a28dc2d33d2626bbb232b49417759104", "is_disabled": 0, "rental_uris": {"android": "https://dc.lft.to/lastmile_qr_scan", "ios": "https://dc.lft.to/lastmile_qr_scan"}, "fusion_lon": 0.0, "lat": 38.90132883333333, "bike_id": "a28dc2d33d2626bbb232b49417759104", "type": "electric_scooter", "is_reserved": 0, "lon": -77.04155766666666}, {"fusion_lat": 0.0, "name": "10f7543367f46978d03cecbb7a1cb23e", "is_disabled": 0, "rental_uris": {"android": "https://dc.lft.to/lastmile_qr_scan", "ios": "https://dc.lft.to/lastmile_qr_scan"}, "fusion_lon": 0.0, "lat": 38.91839233333334, "bike_id": "10f7543367f46978d03cecbb7a1cb23e", "type": "electric_scooter", "is_reserved": 0, "lon": -77.026055}, {"fusion_lat": 0.0, "name": "6cb74bfb1a7055314a39c03d316491e2", "is_disabled": 0, "rental_uris": {"android": "https://dc.lft.to/lastmile_qr_scan", "ios": "https://dc.lft.to/lastmile_qr_scan"}, "fusion_lon": 0.0, "lat": 38.90016283333333, "bike_id": "6cb74bfb1a7055314a39c03d316491e2", "type": "electric_scooter", "is_reserved": 0, "lon": -77.0489435}, {"fusion_lat": 0.0, "name": "48001ea00b79e08effac3272a9f903a3", "is_disabled": 0, "rental_uris": {"android": "https://dc.lft.to/lastmile_qr_scan", "ios": "https://dc.lft.to/lastmile_qr_scan"}, "fusion_lon": 0.0, "lat": 38.927739, "bike_id": "48001ea00b79e08effac3272a9f903a3", "type": "electric_scooter", "is_reserved": 0, "lon": -77.0228965}, {"fusion_lat": 0.0, "name": "ed859ba8da8e58160551f1e5f68345ac", "is_disabled": 0, "rental_uris": {"android": "https://dc.lft.to/lastmile_qr_scan", "ios": "https://dc.lft.to/lastmile_qr_scan"}, "fusion_lon": 0.0, "lat": 38.9231625, "bike_id": "ed859ba8da8e58160551f1e5f68345ac", "type": "electric_scooter", "is_reserved": 0, "lon": -77.041301}, {"fusion_lat": 0.0, "name": "9da6dd19695012723af4ed605cbf09c7", "is_disabled": 0, "rental_uris": {"android": "https://dc.lft.to/lastmile_qr_scan", "ios": "https://dc.lft.to/lastmile_qr_scan"}, "fusion_lon": 0.0, "lat": 38.919094, "bike_id": "9da6dd19695012723af4ed605cbf09c7", "type": "electric_scooter", "is_reserved": 0, "lon": -77.02408883333334}, {"fusion_lat": 0.0, "name": "574ac65a7ec3540c7ef8437c0a2b7020", "is_disabled": 0, "rental_uris": {"android": "https://dc.lft.to/lastmile_qr_scan", "ios": "https://dc.lft.to/lastmile_qr_scan"}, "fusion_lon": 0.0, "lat": 38.9174205, "bike_id": "574ac65a7ec3540c7ef8437c0a2b7020", "type": "electric_scooter", "is_reserved": 0, "lon": -77.031915}, {"fusion_lat": 0.0, "name": "ff0e488f4773cc3361dc962fd6cee8c5", "is_disabled": 0, "rental_uris": {"android": "https://dc.lft.to/lastmile_qr_scan", "ios": "https://dc.lft.to/lastmile_qr_scan"}, "fusion_lon": 0.0, "lat": 38.90963816666667, "bike_id": "ff0e488f4773cc3361dc962fd6cee8c5", "type": "electric_scooter", "is_reserved": 0, "lon": -77.04609466666666}, {"fusion_lat": 0.0, "name": "10bcdc3a859e4cf57aa3e0258942c8b0", "is_disabled": 0, "rental_uris": {"android": "https://dc.lft.to/lastmile_qr_scan", "ios": "https://dc.lft.to/lastmile_qr_scan"}, "fusion_lon": 0.0, "lat": 38.911996333333335, "bike_id": "10bcdc3a859e4cf57aa3e0258942c8b0", "type": "electric_scooter", "is_reserved": 0, "lon": -77.043396}, {"fusion_lat": 0.0, "name": "9fe3f52f9c1ff6d3301ab160a9aa18b1", "is_disabled": 0, "rental_uris": {"android": "https://dc.lft.to/lastmile_qr_scan", "ios": "https://dc.lft.to/lastmile_qr_scan"}, "fusion_lon": 0.0, "lat": 38.9056035, "bike_id": "9fe3f52f9c1ff6d3301ab160a9aa18b1", "type": "electric_scooter", "is_reserved": 0, "lon": -77.04661666666667}, {"fusion_lat": 0.0, "name": "9e7d0d208608fc20f361b111dc49bc35", "is_disabled": 0, "rental_uris": {"android": "https://dc.lft.to/lastmile_qr_scan", "ios": "https://dc.lft.to/lastmile_qr_scan"}, "fusion_lon": 0.0, "lat": 38.88349183333333, "bike_id": "9e7d0d208608fc20f361b111dc49bc35", "type": "electric_scooter", "is_reserved": 0, "lon": -77.03165883333334}, {"fusion_lat": 0.0, "name": "53c3b1774157d364d351532ebad87c82", "is_disabled": 0, "rental_uris": {"android": "https://dc.lft.to/lastmile_qr_scan", "ios": "https://dc.lft.to/lastmile_qr_scan"}, "fusion_lon": 0.0, "lat": 38.847569666666665, "bike_id": "53c3b1774157d364d351532ebad87c82", "type": "electric_scooter", "is_reserved": 0, "lon": -76.99501216666667}, {"fusion_lat": 0.0, "name": "7838183fec6db5ff35c3822ee8e51244", "is_disabled": 0, "rental_uris": {"android": "https://dc.lft.to/lastmile_qr_scan", "ios": "https://dc.lft.to/lastmile_qr_scan"}, "fusion_lon": 0.0, "lat": 38.901685, "bike_id": "7838183fec6db5ff35c3822ee8e51244", "type": "electric_scooter", "is_reserved": 0, "lon": -76.99255033333333}, {"fusion_lat": 0.0, "name": "e4752dfb9d8d44ad549c26e0b57f3da3", "is_disabled": 0, "rental_uris": {"android": "https://dc.lft.to/lastmile_qr_scan", "ios": "https://dc.lft.to/lastmile_qr_scan"}, "fusion_lon": 0.0, "lat": 38.9068445, "bike_id": "e4752dfb9d8d44ad549c26e0b57f3da3", "type": "electric_scooter", "is_reserved": 0, "lon": -77.02694816666667}, {"fusion_lat": 0.0, "name": "36fcb68b699c9d1263c0a13297143fd4", "is_disabled": 0, "rental_uris": {"android": "https://dc.lft.to/lastmile_qr_scan", "ios": "https://dc.lft.to/lastmile_qr_scan"}, "fusion_lon": 0.0, "lat": 38.90536066666667, "bike_id": "36fcb68b699c9d1263c0a13297143fd4", "type": "electric_scooter", "is_reserved": 0, "lon": -77.00711583333333}, {"fusion_lat": 0.0, "name": "adb424f2f0a2bde103c955dc5d41b248", "is_disabled": 0, "rental_uris": {"android": "https://dc.lft.to/lastmile_qr_scan", "ios": "https://dc.lft.to/lastmile_qr_scan"}, "fusion_lon": 0.0, "lat": 38.90057916666667, "bike_id": "adb424f2f0a2bde103c955dc5d41b248", "type": "electric_scooter", "is_reserved": 0, "lon": -77.05668}, {"fusion_lat": 0.0, "name": "f3d0eedfdf19aa2f94136a6f5d634393", "is_disabled": 0, "rental_uris": {"android": "https://dc.lft.to/lastmile_qr_scan", "ios": "https://dc.lft.to/lastmile_qr_scan"}, "fusion_lon": 0.0, "lat": 38.90407533333333, "bike_id": "f3d0eedfdf19aa2f94136a6f5d634393", "type": "electric_scooter", "is_reserved": 0, "lon": -77.02100416666667}, {"fusion_lat": 0.0, "name": "2e74460cf340bfab443193be16504765", "is_disabled": 0, "rental_uris": {"android": "https://dc.lft.to/lastmile_qr_scan", "ios": "https://dc.lft.to/lastmile_qr_scan"}, "fusion_lon": 0.0, "lat": 38.91055133333333, "bike_id": "2e74460cf340bfab443193be16504765", "type": "electric_scooter", "is_reserved": 0, "lon": -77.0383885}, {"fusion_lat": 0.0, "name": "009e076b00c19cf5c506ee4572b72585", "is_disabled": 0, "rental_uris": {"android": "https://dc.lft.to/lastmile_qr_scan", "ios": "https://dc.lft.to/lastmile_qr_scan"}, "fusion_lon": 0.0, "lat": 38.940805833333336, "bike_id": "009e076b00c19cf5c506ee4572b72585", "type": "electric_scooter", "is_reserved": 0, "lon": -77.02992966666666}, {"fusion_lat": 0.0, "name": "0bb44c96eb9cd7fad3dd679d5390cefe", "is_disabled": 0, "rental_uris": {"android": "https://dc.lft.to/lastmile_qr_scan", "ios": "https://dc.lft.to/lastmile_qr_scan"}, "fusion_lon": 0.0, "lat": 38.90091616666667, "bike_id": "0bb44c96eb9cd7fad3dd679d5390cefe", "type": "electric_scooter", "is_reserved": 0, "lon": -76.98330633333333}, {"fusion_lat": 0.0, "name": "6a272bd875a11801a1d75a873dff4baa", "is_disabled": 0, "rental_uris": {"android": "https://dc.lft.to/lastmile_qr_scan", "ios": "https://dc.lft.to/lastmile_qr_scan"}, "fusion_lon": 0.0, "lat": 38.90578133333333, "bike_id": "6a272bd875a11801a1d75a873dff4baa", "type": "electric_scooter", "is_reserved": 0, "lon": -77.02982516666667}, {"fusion_lat": 0.0, "name": "2cb237cfedb9e6f119095c765dac9798", "is_disabled": 0, "rental_uris": {"android": "https://dc.lft.to/lastmile_qr_scan", "ios": "https://dc.lft.to/lastmile_qr_scan"}, "fusion_lon": 0.0, "lat": 38.91563816666667, "bike_id": "2cb237cfedb9e6f119095c765dac9798", "type": "electric_scooter", "is_reserved": 0, "lon": -77.0313925}, {"fusion_lat": 0.0, "name": "58b85fd50f8cd6b2b48a0ecc4e0ee691", "is_disabled": 0, "rental_uris": {"android": "https://dc.lft.to/lastmile_qr_scan", "ios": "https://dc.lft.to/lastmile_qr_scan"}, "fusion_lon": 0.0, "lat": 38.917094666666664, "bike_id": "58b85fd50f8cd6b2b48a0ecc4e0ee691", "type": "electric_scooter", "is_reserved": 0, "lon": -76.97664316666666}, {"fusion_lat": 0.0, "name": "18a0e66481809144e935b43d7bbb12f8", "is_disabled": 0, "rental_uris": {"android": "https://dc.lft.to/lastmile_qr_scan", "ios": "https://dc.lft.to/lastmile_qr_scan"}, "fusion_lon": 0.0, "lat": 38.879667, "bike_id": "18a0e66481809144e935b43d7bbb12f8", "type": "electric_bike", "is_reserved": 0, "lon": -76.91614533333333}, {"fusion_lat": 0.0, "name": "1ae0ccec7eced7e10f6c39f419609122", "is_disabled": 0, "rental_uris": {"android": "https://dc.lft.to/lastmile_qr_scan", "ios": "https://dc.lft.to/lastmile_qr_scan"}, "fusion_lon": 0.0, "lat": 38.92837866666667, "bike_id": "1ae0ccec7eced7e10f6c39f419609122", "type": "electric_scooter", "is_reserved": 0, "lon": -77.03207816666666}, {"fusion_lat": 0.0, "name": "4b3fd849b8c61d9231b56837f2312e56", "is_disabled": 0, "rental_uris": {"android": "https://dc.lft.to/lastmile_qr_scan", "ios": "https://dc.lft.to/lastmile_qr_scan"}, "fusion_lon": 0.0, "lat": 38.89747233333333, "bike_id": "4b3fd849b8c61d9231b56837f2312e56", "type": "electric_scooter", "is_reserved": 0, "lon": -77.0488955}, {"fusion_lat": 0.0, "name": "17f990c0d4676fda25da700f17920a05", "is_disabled": 0, "rental_uris": {"android": "https://dc.lft.to/lastmile_qr_scan", "ios": "https://dc.lft.to/lastmile_qr_scan"}, "fusion_lon": 0.0, "lat": 38.9170695, "bike_id": "17f990c0d4676fda25da700f17920a05", "type": "electric_scooter", "is_reserved": 0, "lon": -77.0242075}, {"fusion_lat": 0.0, "name": "0a320b9cfa518285a9c05e5cc8799979", "is_disabled": 0, "rental_uris": {"android": "https://dc.lft.to/lastmile_qr_scan", "ios": "https://dc.lft.to/lastmile_qr_scan"}, "fusion_lon": 0.0, "lat": 38.90841833333333, "bike_id": "0a320b9cfa518285a9c05e5cc8799979", "type": "electric_scooter", "is_reserved": 0, "lon": -77.036421}, {"fusion_lat": 0.0, "name": "1c000864135c59e2ab4f2822a3bab9e1", "is_disabled": 0, "rental_uris": {"android": "https://dc.lft.to/lastmile_qr_scan", "ios": "https://dc.lft.to/lastmile_qr_scan"}, "fusion_lon": 0.0, "lat": 38.905054666666665, "bike_id": "1c000864135c59e2ab4f2822a3bab9e1", "type": "electric_scooter", "is_reserved": 0, "lon": -77.00585133333334}, {"fusion_lat": 0.0, "name": "d1af63c3bfb8e5e63de07f874ac9e6ed", "is_disabled": 0, "rental_uris": {"android": "https://dc.lft.to/lastmile_qr_scan", "ios": "https://dc.lft.to/lastmile_qr_scan"}, "fusion_lon": 0.0, "lat": 38.964392333333336, "bike_id": "d1af63c3bfb8e5e63de07f874ac9e6ed", "type": "electric_bike", "is_reserved": 0, "lon": -77.020675}, {"fusion_lat": 0.0, "name": "6ee367166737696dc16f23dab7470a50", "is_disabled": 0, "rental_uris": {"android": "https://dc.lft.to/lastmile_qr_scan", "ios": "https://dc.lft.to/lastmile_qr_scan"}, "fusion_lon": 0.0, "lat": 38.933694, "bike_id": "6ee367166737696dc16f23dab7470a50", "type": "electric_scooter", "is_reserved": 0, "lon": -77.05727466666667}, {"fusion_lat": 0.0, "name": "77b7031d9c54668cd9c810f5391d9550", "is_disabled": 0, "rental_uris": {"android": "https://dc.lft.to/lastmile_qr_scan", "ios": "https://dc.lft.to/lastmile_qr_scan"}, "fusion_lon": 0.0, "lat": 38.92082, "bike_id": "77b7031d9c54668cd9c810f5391d9550", "type": "electric_scooter", "is_reserved": 0, "lon": -77.02386316666667}, {"fusion_lat": 0.0, "name": "0eb33c001e92472e2b60be530592dc25", "is_disabled": 0, "rental_uris": {"android": "https://dc.lft.to/lastmile_qr_scan", "ios": "https://dc.lft.to/lastmile_qr_scan"}, "fusion_lon": 0.0, "lat": 38.91839183333333, "bike_id": "0eb33c001e92472e2b60be530592dc25", "type": "electric_scooter", "is_reserved": 0, "lon": -77.016121}, {"fusion_lat": 0.0, "name": "a424c4b45cd86ff89318eec0324d798a", "is_disabled": 0, "rental_uris": {"android": "https://dc.lft.to/lastmile_qr_scan", "ios": "https://dc.lft.to/lastmile_qr_scan"}, "fusion_lon": 0.0, "lat": 38.92, "bike_id": "a424c4b45cd86ff89318eec0324d798a", "type": "electric_scooter", "is_reserved": 0, "lon": -77.0217415}, {"fusion_lat": 0.0, "name": "ae5e6b1e2a36328d0a8752d6ade60f08", "is_disabled": 0, "rental_uris": {"android": "https://dc.lft.to/lastmile_qr_scan", "ios": "https://dc.lft.to/lastmile_qr_scan"}, "fusion_lon": 0.0, "lat": 38.848920166666666, "bike_id": "ae5e6b1e2a36328d0a8752d6ade60f08", "type": "electric_bike", "is_reserved": 0, "lon": -77.080031}, {"fusion_lat": 0.0, "name": "4657cc45428a392dfd401840714ad938", "is_disabled": 0, "rental_uris": {"android": "https://dc.lft.to/lastmile_qr_scan", "ios": "https://dc.lft.to/lastmile_qr_scan"}, "fusion_lon": 0.0, "lat": 38.9202245, "bike_id": "4657cc45428a392dfd401840714ad938", "type": "electric_scooter", "is_reserved": 0, "lon": -77.08190783333333}, {"fusion_lat": 0.0, "name": "9c849710b05392e48e3e038e6ddc4c9c", "is_disabled": 0, "rental_uris": {"android": "https://dc.lft.to/lastmile_qr_scan", "ios": "https://dc.lft.to/lastmile_qr_scan"}, "fusion_lon": 0.0, "lat": 38.918124166666665, "bike_id": "9c849710b05392e48e3e038e6ddc4c9c", "type": "electric_scooter", "is_reserved": 0, "lon": -77.02678816666666}, {"fusion_lat": 0.0, "name": "0d37b908922fbd5427fa09ecbcf8beb1", "is_disabled": 0, "rental_uris": {"android": "https://dc.lft.to/lastmile_qr_scan", "ios": "https://dc.lft.to/lastmile_qr_scan"}, "fusion_lon": 0.0, "lat": 38.93103083333333, "bike_id": "0d37b908922fbd5427fa09ecbcf8beb1", "type": "electric_scooter", "is_reserved": 0, "lon": -77.03806133333333}, {"fusion_lat": 0.0, "name": "add84acbbabd20bb31dba8951879db5d", "is_disabled": 0, "rental_uris": {"android": "https://dc.lft.to/lastmile_qr_scan", "ios": "https://dc.lft.to/lastmile_qr_scan"}, "fusion_lon": 0.0, "lat": 38.91488116666667, "bike_id": "add84acbbabd20bb31dba8951879db5d", "type": "electric_scooter", "is_reserved": 0, "lon": -77.0219}, {"fusion_lat": 0.0, "name": "9ad3d45d12ff4346664ebd9242e0381f", "is_disabled": 0, "rental_uris": {"android": "https://dc.lft.to/lastmile_qr_scan", "ios": "https://dc.lft.to/lastmile_qr_scan"}, "fusion_lon": 0.0, "lat": 38.866695166666666, "bike_id": "9ad3d45d12ff4346664ebd9242e0381f", "type": "electric_scooter", "is_reserved": 0, "lon": -77.01024083333333}, {"fusion_lat": 0.0, "name": "756802a60647b9b0f62e25f5ea88ed8a", "is_disabled": 0, "rental_uris": {"android": "https://dc.lft.to/lastmile_qr_scan", "ios": "https://dc.lft.to/lastmile_qr_scan"}, "fusion_lon": 0.0, "lat": 38.91298916666667, "bike_id": "756802a60647b9b0f62e25f5ea88ed8a", "type": "electric_scooter", "is_reserved": 0, "lon": -77.00892733333333}, {"fusion_lat": 0.0, "name": "45db8c45a1341de0b06bfb1b07bf2c0b", "is_disabled": 0, "rental_uris": {"android": "https://dc.lft.to/lastmile_qr_scan", "ios": "https://dc.lft.to/lastmile_qr_scan"}, "fusion_lon": 0.0, "lat": 38.926052166666665, "bike_id": "45db8c45a1341de0b06bfb1b07bf2c0b", "type": "electric_scooter", "is_reserved": 0, "lon": -77.037437}, {"fusion_lat": 0.0, "name": "de0a767c625cfe57e009386c749b087a", "is_disabled": 0, "rental_uris": {"android": "https://dc.lft.to/lastmile_qr_scan", "ios": "https://dc.lft.to/lastmile_qr_scan"}, "fusion_lon": 0.0, "lat": 38.916004, "bike_id": "de0a767c625cfe57e009386c749b087a", "type": "electric_scooter", "is_reserved": 0, "lon": -76.99363033333333}, {"fusion_lat": 0.0, "name": "a67f2fd9174c1c1b3f0ffbbabbfcc7a1", "is_disabled": 0, "rental_uris": {"android": "https://dc.lft.to/lastmile_qr_scan", "ios": "https://dc.lft.to/lastmile_qr_scan"}, "fusion_lon": 0.0, "lat": 38.895006, "bike_id": "a67f2fd9174c1c1b3f0ffbbabbfcc7a1", "type": "electric_scooter", "is_reserved": 0, "lon": -77.02202566666666}, {"fusion_lat": 0.0, "name": "1f227689db96511afee45e7c8b6a8b12", "is_disabled": 0, "rental_uris": {"android": "https://dc.lft.to/lastmile_qr_scan", "ios": "https://dc.lft.to/lastmile_qr_scan"}, "fusion_lon": 0.0, "lat": 38.9022465, "bike_id": "1f227689db96511afee45e7c8b6a8b12", "type": "electric_scooter", "is_reserved": 0, "lon": -77.01869933333333}, {"fusion_lat": 0.0, "name": "146995e598d2746d5e65935c4b30e506", "is_disabled": 0, "rental_uris": {"android": "https://dc.lft.to/lastmile_qr_scan", "ios": "https://dc.lft.to/lastmile_qr_scan"}, "fusion_lon": 0.0, "lat": 38.92556033333334, "bike_id": "146995e598d2746d5e65935c4b30e506", "type": "electric_scooter", "is_reserved": 0, "lon": -77.0333015}, {"fusion_lat": 0.0, "name": "d24f3bfb6fa55ccd2c0d81e8ace5397b", "is_disabled": 0, "rental_uris": {"android": "https://dc.lft.to/lastmile_qr_scan", "ios": "https://dc.lft.to/lastmile_qr_scan"}, "fusion_lon": 0.0, "lat": 38.92052433333333, "bike_id": "d24f3bfb6fa55ccd2c0d81e8ace5397b", "type": "electric_scooter", "is_reserved": 0, "lon": -77.02367016666666}, {"fusion_lat": 0.0, "name": "bdcdf1b2e782078a1d676ca150a56c93", "is_disabled": 0, "rental_uris": {"android": "https://dc.lft.to/lastmile_qr_scan", "ios": "https://dc.lft.to/lastmile_qr_scan"}, "fusion_lon": 0.0, "lat": 38.853572666666665, "bike_id": "bdcdf1b2e782078a1d676ca150a56c93", "type": "electric_bike", "is_reserved": 0, "lon": -77.13468816666666}, {"fusion_lat": 0.0, "name": "d277d0d570e00bee9b9ae2cd391f15a8", "is_disabled": 0, "rental_uris": {"android": "https://dc.lft.to/lastmile_qr_scan", "ios": "https://dc.lft.to/lastmile_qr_scan"}, "fusion_lon": 0.0, "lat": 38.905392666666664, "bike_id": "d277d0d570e00bee9b9ae2cd391f15a8", "type": "electric_scooter", "is_reserved": 0, "lon": -77.05909816666667}, {"fusion_lat": 0.0, "name": "e94e460531b64cf7be5f03e5d2b67d6f", "is_disabled": 0, "rental_uris": {"android": "https://dc.lft.to/lastmile_qr_scan", "ios": "https://dc.lft.to/lastmile_qr_scan"}, "fusion_lon": 0.0, "lat": 38.9143825, "bike_id": "e94e460531b64cf7be5f03e5d2b67d6f", "type": "electric_scooter", "is_reserved": 0, "lon": -77.012221}, {"fusion_lat": 0.0, "name": "bc09f0b1c9e3eaf85e3fe9c35ef22809", "is_disabled": 0, "rental_uris": {"android": "https://dc.lft.to/lastmile_qr_scan", "ios": "https://dc.lft.to/lastmile_qr_scan"}, "fusion_lon": 0.0, "lat": 38.89921066666667, "bike_id": "bc09f0b1c9e3eaf85e3fe9c35ef22809", "type": "electric_scooter", "is_reserved": 0, "lon": -77.04035866666666}, {"fusion_lat": 0.0, "name": "5d8c97599ebda3922b2fa69f43715744", "is_disabled": 0, "rental_uris": {"android": "https://dc.lft.to/lastmile_qr_scan", "ios": "https://dc.lft.to/lastmile_qr_scan"}, "fusion_lon": 0.0, "lat": 38.84758883333333, "bike_id": "5d8c97599ebda3922b2fa69f43715744", "type": "electric_scooter", "is_reserved": 0, "lon": -76.9950405}, {"fusion_lat": 0.0, "name": "303e370149df2b5f4530e97bdfb6c093", "is_disabled": 0, "rental_uris": {"android": "https://dc.lft.to/lastmile_qr_scan", "ios": "https://dc.lft.to/lastmile_qr_scan"}, "fusion_lon": 0.0, "lat": 38.91268566666667, "bike_id": "303e370149df2b5f4530e97bdfb6c093", "type": "electric_scooter", "is_reserved": 0, "lon": -77.0366155}, {"fusion_lat": 0.0, "name": "a65e51a41e7f8ad67415d9c20702f290", "is_disabled": 0, "rental_uris": {"android": "https://dc.lft.to/lastmile_qr_scan", "ios": "https://dc.lft.to/lastmile_qr_scan"}, "fusion_lon": 0.0, "lat": 38.9168235, "bike_id": "a65e51a41e7f8ad67415d9c20702f290", "type": "electric_scooter", "is_reserved": 0, "lon": -77.03212033333334}, {"fusion_lat": 0.0, "name": "103176e71b0aed8e17f3acffd3f19691", "is_disabled": 0, "rental_uris": {"android": "https://dc.lft.to/lastmile_qr_scan", "ios": "https://dc.lft.to/lastmile_qr_scan"}, "fusion_lon": 0.0, "lat": 38.884039666666666, "bike_id": "103176e71b0aed8e17f3acffd3f19691", "type": "electric_scooter", "is_reserved": 0, "lon": -77.00825233333333}, {"fusion_lat": 0.0, "name": "fab33ed355fde4ae4b2253db42430ec9", "is_disabled": 0, "rental_uris": {"android": "https://dc.lft.to/lastmile_qr_scan", "ios": "https://dc.lft.to/lastmile_qr_scan"}, "fusion_lon": 0.0, "lat": 38.91841183333333, "bike_id": "fab33ed355fde4ae4b2253db42430ec9", "type": "electric_scooter", "is_reserved": 0, "lon": -77.06370816666667}, {"fusion_lat": 0.0, "name": "5bf9aff19916793bae829621abcd745d", "is_disabled": 0, "rental_uris": {"android": "https://dc.lft.to/lastmile_qr_scan", "ios": "https://dc.lft.to/lastmile_qr_scan"}, "fusion_lon": 0.0, "lat": 38.938175, "bike_id": "5bf9aff19916793bae829621abcd745d", "type": "electric_scooter", "is_reserved": 0, "lon": -77.02682266666666}, {"fusion_lat": 0.0, "name": "a077fdb1105526a3bb30c5bcafe851fe", "is_disabled": 0, "rental_uris": {"android": "https://dc.lft.to/lastmile_qr_scan", "ios": "https://dc.lft.to/lastmile_qr_scan"}, "fusion_lon": 0.0, "lat": 38.90398533333333, "bike_id": "a077fdb1105526a3bb30c5bcafe851fe", "type": "electric_scooter", "is_reserved": 0, "lon": -77.0629605}, {"fusion_lat": 0.0, "name": "7413ea21472aecc42a92e6de4918136a", "is_disabled": 0, "rental_uris": {"android": "https://dc.lft.to/lastmile_qr_scan", "ios": "https://dc.lft.to/lastmile_qr_scan"}, "fusion_lon": 0.0, "lat": 38.90352133333333, "bike_id": "7413ea21472aecc42a92e6de4918136a", "type": "electric_scooter", "is_reserved": 0, "lon": -76.97479366666667}, {"fusion_lat": 0.0, "name": "45c6b52e58b204e1eb5a054e9a6728f1", "is_disabled": 0, "rental_uris": {"android": "https://dc.lft.to/lastmile_qr_scan", "ios": "https://dc.lft.to/lastmile_qr_scan"}, "fusion_lon": 0.0, "lat": 38.91059666666666, "bike_id": "45c6b52e58b204e1eb5a054e9a6728f1", "type": "electric_scooter", "is_reserved": 0, "lon": -77.04421516666666}, {"fusion_lat": 0.0, "name": "fc895ecab6ba5b7bb088690aa07e837d", "is_disabled": 0, "rental_uris": {"android": "https://dc.lft.to/lastmile_qr_scan", "ios": "https://dc.lft.to/lastmile_qr_scan"}, "fusion_lon": 0.0, "lat": 38.91220033333333, "bike_id": "fc895ecab6ba5b7bb088690aa07e837d", "type": "electric_scooter", "is_reserved": 0, "lon": -77.03197916666667}, {"fusion_lat": 0.0, "name": "38e7f832223c64dba34c1976fba4a178", "is_disabled": 0, "rental_uris": {"android": "https://dc.lft.to/lastmile_qr_scan", "ios": "https://dc.lft.to/lastmile_qr_scan"}, "fusion_lon": 0.0, "lat": 38.97368, "bike_id": "38e7f832223c64dba34c1976fba4a178", "type": "electric_scooter", "is_reserved": 0, "lon": -77.01294066666667}, {"fusion_lat": 0.0, "name": "4da014bf4d69adb7154b9a9fe2e0a5fd", "is_disabled": 0, "rental_uris": {"android": "https://dc.lft.to/lastmile_qr_scan", "ios": "https://dc.lft.to/lastmile_qr_scan"}, "fusion_lon": 0.0, "lat": 38.9001965, "bike_id": "4da014bf4d69adb7154b9a9fe2e0a5fd", "type": "electric_scooter", "is_reserved": 0, "lon": -76.98818666666666}, {"fusion_lat": 0.0, "name": "f0f04890b1eaffc19b039e5e52293440", "is_disabled": 0, "rental_uris": {"android": "https://dc.lft.to/lastmile_qr_scan", "ios": "https://dc.lft.to/lastmile_qr_scan"}, "fusion_lon": 0.0, "lat": 38.8986095, "bike_id": "f0f04890b1eaffc19b039e5e52293440", "type": "electric_scooter", "is_reserved": 0, "lon": -77.033179}, {"fusion_lat": 0.0, "name": "83e8d117dee629bf6c133a1fdf82e35c", "is_disabled": 0, "rental_uris": {"android": "https://dc.lft.to/lastmile_qr_scan", "ios": "https://dc.lft.to/lastmile_qr_scan"}, "fusion_lon": 0.0, "lat": 38.90775033333333, "bike_id": "83e8d117dee629bf6c133a1fdf82e35c", "type": "electric_scooter", "is_reserved": 0, "lon": -77.05592966666667}, {"fusion_lat": 0.0, "name": "e859f73ffbc14c096263f91f333887ee", "is_disabled": 0, "rental_uris": {"android": "https://dc.lft.to/lastmile_qr_scan", "ios": "https://dc.lft.to/lastmile_qr_scan"}, "fusion_lon": 0.0, "lat": 38.904836, "bike_id": "e859f73ffbc14c096263f91f333887ee", "type": "electric_scooter", "is_reserved": 0, "lon": -77.0486525}, {"fusion_lat": 0.0, "name": "ec19fe8f0dc637ada0249acd69ce6f85", "is_disabled": 0, "rental_uris": {"android": "https://dc.lft.to/lastmile_qr_scan", "ios": "https://dc.lft.to/lastmile_qr_scan"}, "fusion_lon": 0.0, "lat": 38.89280933333333, "bike_id": "ec19fe8f0dc637ada0249acd69ce6f85", "type": "electric_scooter", "is_reserved": 0, "lon": -77.03179233333333}, {"fusion_lat": 0.0, "name": "2df233829b20a902d294104f48f883ef", "is_disabled": 0, "rental_uris": {"android": "https://dc.lft.to/lastmile_qr_scan", "ios": "https://dc.lft.to/lastmile_qr_scan"}, "fusion_lon": 0.0, "lat": 38.928616833333336, "bike_id": "2df233829b20a902d294104f48f883ef", "type": "electric_scooter", "is_reserved": 0, "lon": -77.0543095}, {"fusion_lat": 0.0, "name": "1a7defe3f9890baebbfaba468e479235", "is_disabled": 0, "rental_uris": {"android": "https://dc.lft.to/lastmile_qr_scan", "ios": "https://dc.lft.to/lastmile_qr_scan"}, "fusion_lon": 0.0, "lat": 38.94187216666667, "bike_id": "1a7defe3f9890baebbfaba468e479235", "type": "electric_scooter", "is_reserved": 0, "lon": -77.0248885}, {"fusion_lat": 0.0, "name": "2cb2170707daf457f61d55c94f09b915", "is_disabled": 0, "rental_uris": {"android": "https://dc.lft.to/lastmile_qr_scan", "ios": "https://dc.lft.to/lastmile_qr_scan"}, "fusion_lon": 0.0, "lat": 38.920886833333334, "bike_id": "2cb2170707daf457f61d55c94f09b915", "type": "electric_scooter", "is_reserved": 0, "lon": -77.02504}, {"fusion_lat": 0.0, "name": "1e6e92058560125ea8cd6c382e63353d", "is_disabled": 0, "rental_uris": {"android": "https://dc.lft.to/lastmile_qr_scan", "ios": "https://dc.lft.to/lastmile_qr_scan"}, "fusion_lon": 0.0, "lat": 38.9211985, "bike_id": "1e6e92058560125ea8cd6c382e63353d", "type": "electric_scooter", "is_reserved": 0, "lon": -77.03212016666667}, {"fusion_lat": 0.0, "name": "d871a06cbf650df3ff0b35b88eb58188", "is_disabled": 0, "rental_uris": {"android": "https://dc.lft.to/lastmile_qr_scan", "ios": "https://dc.lft.to/lastmile_qr_scan"}, "fusion_lon": 0.0, "lat": 38.8933205, "bike_id": "d871a06cbf650df3ff0b35b88eb58188", "type": "electric_scooter", "is_reserved": 0, "lon": -77.0240435}, {"fusion_lat": 0.0, "name": "83f484eeccc56793e5e9ceef19976842", "is_disabled": 0, "rental_uris": {"android": "https://dc.lft.to/lastmile_qr_scan", "ios": "https://dc.lft.to/lastmile_qr_scan"}, "fusion_lon": 0.0, "lat": 38.90458366666667, "bike_id": "83f484eeccc56793e5e9ceef19976842", "type": "electric_scooter", "is_reserved": 0, "lon": -77.053262}, {"fusion_lat": 0.0, "name": "eea006ec26ab2f0ee4ebc99e9c38d70f", "is_disabled": 0, "rental_uris": {"android": "https://dc.lft.to/lastmile_qr_scan", "ios": "https://dc.lft.to/lastmile_qr_scan"}, "fusion_lon": 0.0, "lat": 38.926097666666664, "bike_id": "eea006ec26ab2f0ee4ebc99e9c38d70f", "type": "electric_scooter", "is_reserved": 0, "lon": -77.03958116666666}, {"fusion_lat": 0.0, "name": "2e7729351e562bd647d49533548f0bfc", "is_disabled": 0, "rental_uris": {"android": "https://dc.lft.to/lastmile_qr_scan", "ios": "https://dc.lft.to/lastmile_qr_scan"}, "fusion_lon": 0.0, "lat": 38.91789216666667, "bike_id": "2e7729351e562bd647d49533548f0bfc", "type": "electric_scooter", "is_reserved": 0, "lon": -77.0239135}, {"fusion_lat": 0.0, "name": "367a26093d741aaacd608dd9ffdc411a", "is_disabled": 0, "rental_uris": {"android": "https://dc.lft.to/lastmile_qr_scan", "ios": "https://dc.lft.to/lastmile_qr_scan"}, "fusion_lon": 0.0, "lat": 38.84428316666666, "bike_id": "367a26093d741aaacd608dd9ffdc411a", "type": "electric_scooter", "is_reserved": 0, "lon": -76.99780333333334}, {"fusion_lat": 0.0, "name": "c023c39039914b3f2e4f982a5822ce18", "is_disabled": 0, "rental_uris": {"android": "https://dc.lft.to/lastmile_qr_scan", "ios": "https://dc.lft.to/lastmile_qr_scan"}, "fusion_lon": 0.0, "lat": 38.9125835, "bike_id": "c023c39039914b3f2e4f982a5822ce18", "type": "electric_scooter", "is_reserved": 0, "lon": -77.0066955}, {"fusion_lat": 0.0, "name": "031880b0589ea1e75eb4ab2b30ebbeb2", "is_disabled": 0, "rental_uris": {"android": "https://dc.lft.to/lastmile_qr_scan", "ios": "https://dc.lft.to/lastmile_qr_scan"}, "fusion_lon": 0.0, "lat": 38.90118983333333, "bike_id": "031880b0589ea1e75eb4ab2b30ebbeb2", "type": "electric_scooter", "is_reserved": 0, "lon": -77.03895333333334}, {"fusion_lat": 0.0, "name": "7d032d94bb2b396d4126080c69042316", "is_disabled": 0, "rental_uris": {"android": "https://dc.lft.to/lastmile_qr_scan", "ios": "https://dc.lft.to/lastmile_qr_scan"}, "fusion_lon": 0.0, "lat": 38.92310233333333, "bike_id": "7d032d94bb2b396d4126080c69042316", "type": "electric_scooter", "is_reserved": 0, "lon": -77.0427535}, {"fusion_lat": 0.0, "name": "412959aacc211da7b92073e6543ecb20", "is_disabled": 0, "rental_uris": {"android": "https://dc.lft.to/lastmile_qr_scan", "ios": "https://dc.lft.to/lastmile_qr_scan"}, "fusion_lon": 0.0, "lat": 39.070532666666665, "bike_id": "412959aacc211da7b92073e6543ecb20", "type": "electric_bike", "is_reserved": 0, "lon": -77.11487166666667}, {"fusion_lat": 0.0, "name": "cd369c222eb1b4db69e70cdb4edc1d52", "is_disabled": 0, "rental_uris": {"android": "https://dc.lft.to/lastmile_qr_scan", "ios": "https://dc.lft.to/lastmile_qr_scan"}, "fusion_lon": 0.0, "lat": 38.8999665, "bike_id": "cd369c222eb1b4db69e70cdb4edc1d52", "type": "electric_scooter", "is_reserved": 0, "lon": -77.02300083333333}, {"fusion_lat": 0.0, "name": "150cc9078fcb0ea5a3dda1040dadcda5", "is_disabled": 0, "rental_uris": {"android": "https://dc.lft.to/lastmile_qr_scan", "ios": "https://dc.lft.to/lastmile_qr_scan"}, "fusion_lon": 0.0, "lat": 38.876506666666664, "bike_id": "150cc9078fcb0ea5a3dda1040dadcda5", "type": "electric_scooter", "is_reserved": 0, "lon": -77.000714}, {"fusion_lat": 0.0, "name": "c398f985b1f66c0b4f9ae798519b4caa", "is_disabled": 0, "rental_uris": {"android": "https://dc.lft.to/lastmile_qr_scan", "ios": "https://dc.lft.to/lastmile_qr_scan"}, "fusion_lon": 0.0, "lat": 38.8976275, "bike_id": "c398f985b1f66c0b4f9ae798519b4caa", "type": "electric_scooter", "is_reserved": 0, "lon": -77.0219695}, {"fusion_lat": 0.0, "name": "697f35dbda239b1f33b5a1a522c99272", "is_disabled": 0, "rental_uris": {"android": "https://dc.lft.to/lastmile_qr_scan", "ios": "https://dc.lft.to/lastmile_qr_scan"}, "fusion_lon": 0.0, "lat": 38.90160516666667, "bike_id": "697f35dbda239b1f33b5a1a522c99272", "type": "electric_scooter", "is_reserved": 0, "lon": -77.053229}, {"fusion_lat": 0.0, "name": "9c9a10a58622cdcc5f5e5f9eb0e1ef4d", "is_disabled": 0, "rental_uris": {"android": "https://dc.lft.to/lastmile_qr_scan", "ios": "https://dc.lft.to/lastmile_qr_scan"}, "fusion_lon": 0.0, "lat": 38.89831916666667, "bike_id": "9c9a10a58622cdcc5f5e5f9eb0e1ef4d", "type": "electric_scooter", "is_reserved": 0, "lon": -77.0075545}, {"fusion_lat": 0.0, "name": "7a2b07c3963467e6f73e4f1f96b62711", "is_disabled": 0, "rental_uris": {"android": "https://dc.lft.to/lastmile_qr_scan", "ios": "https://dc.lft.to/lastmile_qr_scan"}, "fusion_lon": 0.0, "lat": 38.8818475, "bike_id": "7a2b07c3963467e6f73e4f1f96b62711", "type": "electric_bike", "is_reserved": 0, "lon": -77.08635066666666}, {"fusion_lat": 0.0, "name": "e095f000291f26091c76b980a117f42c", "is_disabled": 0, "rental_uris": {"android": "https://dc.lft.to/lastmile_qr_scan", "ios": "https://dc.lft.to/lastmile_qr_scan"}, "fusion_lon": 0.0, "lat": 38.92605666666667, "bike_id": "e095f000291f26091c76b980a117f42c", "type": "electric_scooter", "is_reserved": 0, "lon": -77.021556}, {"fusion_lat": 0.0, "name": "90039519de6f459a8dfca7bcadb511be", "is_disabled": 0, "rental_uris": {"android": "https://dc.lft.to/lastmile_qr_scan", "ios": "https://dc.lft.to/lastmile_qr_scan"}, "fusion_lon": 0.0, "lat": 38.89545366666667, "bike_id": "90039519de6f459a8dfca7bcadb511be", "type": "electric_scooter", "is_reserved": 0, "lon": -76.98337316666667}, {"fusion_lat": 0.0, "name": "67506dbf69fc615dba19fb09f9480c2e", "is_disabled": 0, "rental_uris": {"android": "https://dc.lft.to/lastmile_qr_scan", "ios": "https://dc.lft.to/lastmile_qr_scan"}, "fusion_lon": 0.0, "lat": 38.9086285, "bike_id": "67506dbf69fc615dba19fb09f9480c2e", "type": "electric_scooter", "is_reserved": 0, "lon": -77.02343733333333}, {"fusion_lat": 0.0, "name": "63a911e250633a9794e912ed8effb673", "is_disabled": 0, "rental_uris": {"android": "https://dc.lft.to/lastmile_qr_scan", "ios": "https://dc.lft.to/lastmile_qr_scan"}, "fusion_lon": 0.0, "lat": 38.89732583333333, "bike_id": "63a911e250633a9794e912ed8effb673", "type": "electric_scooter", "is_reserved": 0, "lon": -76.99137883333333}, {"fusion_lat": 0.0, "name": "19f873b3355b3b344d35033eb7d42a0c", "is_disabled": 0, "rental_uris": {"android": "https://dc.lft.to/lastmile_qr_scan", "ios": "https://dc.lft.to/lastmile_qr_scan"}, "fusion_lon": 0.0, "lat": 38.907825, "bike_id": "19f873b3355b3b344d35033eb7d42a0c", "type": "electric_scooter", "is_reserved": 0, "lon": -77.072552}, {"fusion_lat": 0.0, "name": "1d8f39330d80b08620752d0a46cf2e70", "is_disabled": 0, "rental_uris": {"android": "https://dc.lft.to/lastmile_qr_scan", "ios": "https://dc.lft.to/lastmile_qr_scan"}, "fusion_lon": 0.0, "lat": 38.90350983333333, "bike_id": "1d8f39330d80b08620752d0a46cf2e70", "type": "electric_scooter", "is_reserved": 0, "lon": -77.0449775}, {"fusion_lat": 0.0, "name": "74c07cde983906f564e6447dbce6bea3", "is_disabled": 0, "rental_uris": {"android": "https://dc.lft.to/lastmile_qr_scan", "ios": "https://dc.lft.to/lastmile_qr_scan"}, "fusion_lon": 0.0, "lat": 38.915792, "bike_id": "74c07cde983906f564e6447dbce6bea3", "type": "electric_scooter", "is_reserved": 0, "lon": -77.0320425}, {"fusion_lat": 0.0, "name": "dddffa0e23085038078732e2782a32a4", "is_disabled": 0, "rental_uris": {"android": "https://dc.lft.to/lastmile_qr_scan", "ios": "https://dc.lft.to/lastmile_qr_scan"}, "fusion_lon": 0.0, "lat": 38.902451666666664, "bike_id": "dddffa0e23085038078732e2782a32a4", "type": "electric_scooter", "is_reserved": 0, "lon": -77.04258833333333}, {"fusion_lat": 0.0, "name": "ff501176d4713b9b0dcb76c609717c0c", "is_disabled": 0, "rental_uris": {"android": "https://dc.lft.to/lastmile_qr_scan", "ios": "https://dc.lft.to/lastmile_qr_scan"}, "fusion_lon": 0.0, "lat": 38.911213000000004, "bike_id": "ff501176d4713b9b0dcb76c609717c0c", "type": "electric_scooter", "is_reserved": 0, "lon": -77.00398883333334}, {"fusion_lat": 0.0, "name": "6e1f3e0adb42b1fb2b2f6207126fcde9", "is_disabled": 0, "rental_uris": {"android": "https://dc.lft.to/lastmile_qr_scan", "ios": "https://dc.lft.to/lastmile_qr_scan"}, "fusion_lon": 0.0, "lat": 38.920942333333336, "bike_id": "6e1f3e0adb42b1fb2b2f6207126fcde9", "type": "electric_scooter", "is_reserved": 0, "lon": -77.02559233333334}, {"fusion_lat": 0.0, "name": "c74bcced93eb31eb616e77b7c013b41e", "is_disabled": 0, "rental_uris": {"android": "https://dc.lft.to/lastmile_qr_scan", "ios": "https://dc.lft.to/lastmile_qr_scan"}, "fusion_lon": 0.0, "lat": 38.944182166666664, "bike_id": "c74bcced93eb31eb616e77b7c013b41e", "type": "electric_scooter", "is_reserved": 0, "lon": -77.06323416666666}, {"fusion_lat": 0.0, "name": "0696b95fbf4a388a0fc748378be96d2e", "is_disabled": 0, "rental_uris": {"android": "https://dc.lft.to/lastmile_qr_scan", "ios": "https://dc.lft.to/lastmile_qr_scan"}, "fusion_lon": 0.0, "lat": 38.87923466666667, "bike_id": "0696b95fbf4a388a0fc748378be96d2e", "type": "electric_scooter", "is_reserved": 0, "lon": -77.0238165}, {"fusion_lat": 0.0, "name": "49b5aa4369497fd5d450d90fb997408a", "is_disabled": 0, "rental_uris": {"android": "https://dc.lft.to/lastmile_qr_scan", "ios": "https://dc.lft.to/lastmile_qr_scan"}, "fusion_lon": 0.0, "lat": 38.91652216666667, "bike_id": "49b5aa4369497fd5d450d90fb997408a", "type": "electric_scooter", "is_reserved": 0, "lon": -77.02181383333334}, {"fusion_lat": 0.0, "name": "70cd327f84f831e8279ac2445df56a5a", "is_disabled": 0, "rental_uris": {"android": "https://dc.lft.to/lastmile_qr_scan", "ios": "https://dc.lft.to/lastmile_qr_scan"}, "fusion_lon": 0.0, "lat": 38.91871016666666, "bike_id": "70cd327f84f831e8279ac2445df56a5a", "type": "electric_scooter", "is_reserved": 0, "lon": -77.04490416666667}, {"fusion_lat": 0.0, "name": "ad9703bcd2d11257e7c0a57bb8da4837", "is_disabled": 0, "rental_uris": {"android": "https://dc.lft.to/lastmile_qr_scan", "ios": "https://dc.lft.to/lastmile_qr_scan"}, "fusion_lon": 0.0, "lat": 38.923346333333335, "bike_id": "ad9703bcd2d11257e7c0a57bb8da4837", "type": "electric_scooter", "is_reserved": 0, "lon": -77.05298416666666}, {"fusion_lat": 0.0, "name": "d0295b82a55032807618ab26033c874b", "is_disabled": 0, "rental_uris": {"android": "https://dc.lft.to/lastmile_qr_scan", "ios": "https://dc.lft.to/lastmile_qr_scan"}, "fusion_lon": 0.0, "lat": 38.92878, "bike_id": "d0295b82a55032807618ab26033c874b", "type": "electric_scooter", "is_reserved": 0, "lon": -76.995643}, {"fusion_lat": 0.0, "name": "3ab08b0a39a519a2ac31df9810423b45", "is_disabled": 0, "rental_uris": {"android": "https://dc.lft.to/lastmile_qr_scan", "ios": "https://dc.lft.to/lastmile_qr_scan"}, "fusion_lon": 0.0, "lat": 38.880189666666666, "bike_id": "3ab08b0a39a519a2ac31df9810423b45", "type": "electric_scooter", "is_reserved": 0, "lon": -76.98074866666667}, {"fusion_lat": 0.0, "name": "69b02815ffe0be6d09debe024589d106", "is_disabled": 0, "rental_uris": {"android": "https://dc.lft.to/lastmile_qr_scan", "ios": "https://dc.lft.to/lastmile_qr_scan"}, "fusion_lon": 0.0, "lat": 38.9076785, "bike_id": "69b02815ffe0be6d09debe024589d106", "type": "electric_scooter", "is_reserved": 0, "lon": -77.0320515}, {"fusion_lat": 0.0, "name": "d73d69f1ef81049af165b8064cbb6a74", "is_disabled": 0, "rental_uris": {"android": "https://dc.lft.to/lastmile_qr_scan", "ios": "https://dc.lft.to/lastmile_qr_scan"}, "fusion_lon": 0.0, "lat": 38.902406166666665, "bike_id": "d73d69f1ef81049af165b8064cbb6a74", "type": "electric_scooter", "is_reserved": 0, "lon": -77.002004}, {"fusion_lat": 0.0, "name": "9a32105ba8aaf7be7baa77514fa34642", "is_disabled": 0, "rental_uris": {"android": "https://dc.lft.to/lastmile_qr_scan", "ios": "https://dc.lft.to/lastmile_qr_scan"}, "fusion_lon": 0.0, "lat": 38.911178666666665, "bike_id": "9a32105ba8aaf7be7baa77514fa34642", "type": "electric_scooter", "is_reserved": 0, "lon": -77.01969666666666}, {"fusion_lat": 0.0, "name": "c1b3090f8aa4efb764c8a5977e660bf1", "is_disabled": 0, "rental_uris": {"android": "https://dc.lft.to/lastmile_qr_scan", "ios": "https://dc.lft.to/lastmile_qr_scan"}, "fusion_lon": 0.0, "lat": 38.90783883333334, "bike_id": "c1b3090f8aa4efb764c8a5977e660bf1", "type": "electric_scooter", "is_reserved": 0, "lon": -77.072529}, {"fusion_lat": 0.0, "name": "9fbac98b83c09ad3b80fe3820ec3d937", "is_disabled": 0, "rental_uris": {"android": "https://dc.lft.to/lastmile_qr_scan", "ios": "https://dc.lft.to/lastmile_qr_scan"}, "fusion_lon": 0.0, "lat": 38.90664966666667, "bike_id": "9fbac98b83c09ad3b80fe3820ec3d937", "type": "electric_scooter", "is_reserved": 0, "lon": -77.02166916666667}, {"fusion_lat": 0.0, "name": "afa54137300b6f1aaaf52f5a2529a102", "is_disabled": 0, "rental_uris": {"android": "https://dc.lft.to/lastmile_qr_scan", "ios": "https://dc.lft.to/lastmile_qr_scan"}, "fusion_lon": 0.0, "lat": 38.906310833333336, "bike_id": "afa54137300b6f1aaaf52f5a2529a102", "type": "electric_scooter", "is_reserved": 0, "lon": -77.02599216666667}, {"fusion_lat": 0.0, "name": "4949bc36324c1da8c3f0875df38737f7", "is_disabled": 0, "rental_uris": {"android": "https://dc.lft.to/lastmile_qr_scan", "ios": "https://dc.lft.to/lastmile_qr_scan"}, "fusion_lon": 0.0, "lat": 38.91261033333333, "bike_id": "4949bc36324c1da8c3f0875df38737f7", "type": "electric_scooter", "is_reserved": 0, "lon": -77.03633483333333}, {"fusion_lat": 0.0, "name": "aa573996ba6fd797258869e83e164b32", "is_disabled": 0, "rental_uris": {"android": "https://dc.lft.to/lastmile_qr_scan", "ios": "https://dc.lft.to/lastmile_qr_scan"}, "fusion_lon": 0.0, "lat": 38.931082333333336, "bike_id": "aa573996ba6fd797258869e83e164b32", "type": "electric_scooter", "is_reserved": 0, "lon": -76.9962245}, {"fusion_lat": 0.0, "name": "ddfafd41bb0bdbfd112b9c526b67fb25", "is_disabled": 0, "rental_uris": {"android": "https://dc.lft.to/lastmile_qr_scan", "ios": "https://dc.lft.to/lastmile_qr_scan"}, "fusion_lon": 0.0, "lat": 38.81917966666666, "bike_id": "ddfafd41bb0bdbfd112b9c526b67fb25", "type": "electric_bike", "is_reserved": 0, "lon": -77.047911}, {"fusion_lat": 0.0, "name": "0f6cb901e5ee25f21780eff302761d48", "is_disabled": 0, "rental_uris": {"android": "https://dc.lft.to/lastmile_qr_scan", "ios": "https://dc.lft.to/lastmile_qr_scan"}, "fusion_lon": 0.0, "lat": 38.905642, "bike_id": "0f6cb901e5ee25f21780eff302761d48", "type": "electric_scooter", "is_reserved": 0, "lon": -77.0209975}, {"fusion_lat": 0.0, "name": "faab25ff64173901ea672162027c51d6", "is_disabled": 0, "rental_uris": {"android": "https://dc.lft.to/lastmile_qr_scan", "ios": "https://dc.lft.to/lastmile_qr_scan"}, "fusion_lon": 0.0, "lat": 38.8124935, "bike_id": "faab25ff64173901ea672162027c51d6", "type": "electric_bike", "is_reserved": 0, "lon": -77.1176775}, {"fusion_lat": 0.0, "name": "7e9e05542d138e08917ee73c383aa8c2", "is_disabled": 0, "rental_uris": {"android": "https://dc.lft.to/lastmile_qr_scan", "ios": "https://dc.lft.to/lastmile_qr_scan"}, "fusion_lon": 0.0, "lat": 38.88304133333333, "bike_id": "7e9e05542d138e08917ee73c383aa8c2", "type": "electric_scooter", "is_reserved": 0, "lon": -76.9485555}, {"fusion_lat": 0.0, "name": "6387ce34290be4e92d3f9f08a4a3b9fd", "is_disabled": 0, "rental_uris": {"android": "https://dc.lft.to/lastmile_qr_scan", "ios": "https://dc.lft.to/lastmile_qr_scan"}, "fusion_lon": 0.0, "lat": 38.8923105, "bike_id": "6387ce34290be4e92d3f9f08a4a3b9fd", "type": "electric_scooter", "is_reserved": 0, "lon": -77.05004183333334}, {"fusion_lat": 0.0, "name": "b992de581bea1b79fe8cf4d2236aa41e", "is_disabled": 0, "rental_uris": {"android": "https://dc.lft.to/lastmile_qr_scan", "ios": "https://dc.lft.to/lastmile_qr_scan"},