{"data": {"bikes": [{"is_disabled": 0, "fusion_lon": 0.0, "fusion_lat": 0.0, "lat": 38.89734216666667, "type": "electric_scooter", "lon": -77.04673683333333, "bike_id": "7e3c9f1856232ed43296109ebc10e66c", "rental_uris": {"android": "https://dc.lft.to/lastmile_qr_scan", "ios": "https://dc.lft.to/lastmile_qr_scan"}, "name": "7e3c9f1856232ed43296109ebc10e66c", "is_reserved": 0}, {"is_disabled": 0, "fusion_lon": 0.0, "fusion_lat": 0.0, "lat": 38.914185, "type": "electric_scooter", "lon": -77.02231383333333, "bike_id": "f28cbc85e6dbf12d234e416920b7d00e", "rental_uris": {"android": "https://dc.lft.to/lastmile_qr_scan", "ios": "https://dc.lft.to/lastmile_qr_scan"}, "name": "f28cbc85e6dbf12d234e416920b7d00e", "is_reserved": 0}, {"is_disabled": 0, "fusion_lon": 0.0, "fusion_lat": 0.0, "lat": 38.93726483333333, "type": "electric_scooter", "lon": -77.03349966666667, "bike_id": "04a340c715229c8df7ad158506a130ff", "rental_uris": {"android": "https://dc.lft.to/lastmile_qr_scan", "ios": "https://dc.lft.to/lastmile_qr_scan"}, "name": "04a340c715229c8df7ad158506a130ff", "is_reserved": 0}, {"is_disabled": 0, "fusion_lon": 0.0, "fusion_lat": 0.0, "lat": 38.94034583333333, "type": "electric_scooter", "lon": -77.025123, "bike_id": "a7222450dd9412e2774581230ef7caef", "rental_uris": {"android": "https://dc.lft.to/lastmile_qr_scan", "ios": "https://dc.lft.to/lastmile_qr_scan"}, "name": "a7222450dd9412e2774581230ef7caef", "is_reserved": 0}, {"is_disabled": 0, "fusion_lon": 0.0, "fusion_lat": 0.0, "lat": 38.91192366666667, "type": "electric_scooter", "lon": -77.0187805, "bike_id": "d9de6ab15622d47e45663b5ee0f36409", "rental_uris": {"android": "https://dc.lft.to/lastmile_qr_scan", "ios": "https://dc.lft.to/lastmile_qr_scan"}, "name": "d9de6ab15622d47e45663b5ee0f36409", "is_reserved": 0}, {"is_disabled": 0, "fusion_lon": 0.0, "fusion_lat": 0.0, "lat": 38.9051895, "type": "electric_scooter", "lon": -77.050924, "bike_id": "d0ccefc65ee29f04bc9be84331cb6135", "rental_uris": {"android": "https://dc.lft.to/lastmile_qr_scan", "ios": "https://dc.lft.to/lastmile_qr_scan"}, "name": "d0ccefc65ee29f04bc9be84331cb6135", "is_reserved": 0}, {"is_disabled": 0, "fusion_lon": 0.0, "fusion_lat": 0.0, "lat": 38.9856495, "type": "electric_bike", "lon": -76.988295, "bike_id": "cfa06e293c8915651dffe526be92fbd4", "rental_uris": {"android": "https://dc.lft.to/lastmile_qr_scan", "ios": "https://dc.lft.to/lastmile_qr_scan"}, "name": "cfa06e293c8915651dffe526be92fbd4", "is_reserved": 0}, {"is_disabled": 0, "fusion_lon": 0.0, "fusion_lat": 0.0, "lat": 38.89956333333333, "type": "electric_scooter", "lon": -77.05220016666667, "bike_id": "86787926bd49768fc8734041c2b14ee6", "rental_uris": {"android": "https://dc.lft.to/lastmile_qr_scan", "ios": "https://dc.lft.to/lastmile_qr_scan"}, "name": "86787926bd49768fc8734041c2b14ee6", "is_reserved": 0}, {"is_disabled": 0, "fusion_lon": 0.0, "fusion_lat": 0.0, "lat": 38.928977, "type": "electric_scooter", "lon": -77.03243816666667, "bike_id": "7ef2a28de8ed05d47ab6540be14b3f30", "rental_uris": {"android": "https://dc.lft.to/lastmile_qr_scan", "ios": "https://dc.lft.to/lastmile_qr_scan"}, "name": "7ef2a28de8ed05d47ab6540be14b3f30", "is_reserved": 0}, {"is_disabled": 0, "fusion_lon": 0.0, "fusion_lat": 0.0, "lat": 38.916904833333334, "type": "electric_scooter", "lon": -76.98088616666666, "bike_id": "bfaffe1bd610746bab8c5f97c72c4c64", "rental_uris": {"android": "https://dc.lft.to/lastmile_qr_scan", "ios": "https://dc.lft.to/lastmile_qr_scan"}, "name": "bfaffe1bd610746bab8c5f97c72c4c64", "is_reserved": 0}, {"is_disabled": 0, "fusion_lon": 0.0, "fusion_lat": 0.0, "lat": 38.91824316666667, "type": "electric_scooter", "lon": -77.03652233333334, "bike_id": "7a680a7f2d6d144fd1be0029a9da925d", "rental_uris": {"android": "https://dc.lft.to/lastmile_qr_scan", "ios": "https://dc.lft.to/lastmile_qr_scan"}, "name": "7a680a7f2d6d144fd1be0029a9da925d", "is_reserved": 0}, {"is_disabled": 0, "fusion_lon": 0.0, "fusion_lat": 0.0, "lat": 38.842927833333334, "type": "electric_scooter", "lon": -76.99949233333334, "bike_id": "cc33fa984ef9c6b659808b0d760b9cc5", "rental_uris": {"android": "https://dc.lft.to/lastmile_qr_scan", "ios": "https://dc.lft.to/lastmile_qr_scan"}, "name": "cc33fa984ef9c6b659808b0d760b9cc5", "is_reserved": 0}, {"is_disabled": 0, "fusion_lon": 0.0, "fusion_lat": 0.0, "lat": 39.030012666666664, "type": "electric_bike", "lon": -77.10655083333333, "bike_id": "d78ef60657c50d135ea105dacb3d8e86", "rental_uris": {"android": "https://dc.lft.to/lastmile_qr_scan", "ios": "https://dc.lft.to/lastmile_qr_scan"}, "name": "d78ef60657c50d135ea105dacb3d8e86", "is_reserved": 0}, {"is_disabled": 0, "fusion_lon": 0.0, "fusion_lat": 0.0, "lat": 38.90832066666667, "type": "electric_scooter", "lon": -76.99704633333333, "bike_id": "1ba1dc70c9dfd752b88799fd952d6113", "rental_uris": {"android": "https://dc.lft.to/lastmile_qr_scan", "ios": "https://dc.lft.to/lastmile_qr_scan"}, "name": "1ba1dc70c9dfd752b88799fd952d6113", "is_reserved": 0}, {"is_disabled": 0, "fusion_lon": 0.0, "fusion_lat": 0.0, "lat": 38.918620833333335, "type": "electric_bike", "lon": -76.96176683333333, "bike_id": "1e207519a81ea286b8086344c9c98e1a", "rental_uris": {"android": "https://dc.lft.to/lastmile_qr_scan", "ios": "https://dc.lft.to/lastmile_qr_scan"}, "name": "1e207519a81ea286b8086344c9c98e1a", "is_reserved": 0}, {"is_disabled": 0, "fusion_lon": 0.0, "fusion_lat": 0.0, "lat": 38.8990825, "type": "electric_scooter", "lon": -76.93390866666667, "bike_id": "30ec29102f3c5ffd663ef4770caada5a", "rental_uris": {"android": "https://dc.lft.to/lastmile_qr_scan", "ios": "https://dc.lft.to/lastmile_qr_scan"}, "name": "30ec29102f3c5ffd663ef4770caada5a", "is_reserved": 0}, {"is_disabled": 0, "fusion_lon": 0.0, "fusion_lat": 0.0, "lat": 38.92003666666667, "type": "electric_scooter", "lon": -77.02409233333333, "bike_id": "5d6e35063cfff394c66fbe4091c10f16", "rental_uris": {"android": "https://dc.lft.to/lastmile_qr_scan", "ios": "https://dc.lft.to/lastmile_qr_scan"}, "name": "5d6e35063cfff394c66fbe4091c10f16", "is_reserved": 0}, {"is_disabled": 0, "fusion_lon": 0.0, "fusion_lat": 0.0, "lat": 38.871453833333334, "type": "electric_scooter", "lon": -76.9789755, "bike_id": "0dd19347180213f40072c6fbfc70da8c", "rental_uris": {"android": "https://dc.lft.to/lastmile_qr_scan", "ios": "https://dc.lft.to/lastmile_qr_scan"}, "name": "0dd19347180213f40072c6fbfc70da8c", "is_reserved": 0}, {"is_disabled": 0, "fusion_lon": 0.0, "fusion_lat": 0.0, "lat": 38.88742366666666, "type": "electric_scooter", "lon": -77.015311, "bike_id": "fb7bc43581bb0f80aacab32a2dab7788", "rental_uris": {"android": "https://dc.lft.to/lastmile_qr_scan", "ios": "https://dc.lft.to/lastmile_qr_scan"}, "name": "fb7bc43581bb0f80aacab32a2dab7788", "is_reserved": 0}, {"is_disabled": 0, "fusion_lon": 0.0, "fusion_lat": 0.0, "lat": 38.96934233333333, "type": "electric_bike", "lon": -77.02638816666666, "bike_id": "2a15923cc62b9c81615dddcd15491837", "rental_uris": {"android": "https://dc.lft.to/lastmile_qr_scan", "ios": "https://dc.lft.to/lastmile_qr_scan"}, "name": "2a15923cc62b9c81615dddcd15491837", "is_reserved": 0}, {"is_disabled": 0, "fusion_lon": 0.0, "fusion_lat": 0.0, "lat": 38.9612035, "type": "electric_bike", "lon": -77.069039, "bike_id": "24df18b35db85fc7e232d1d3b5b06d47", "rental_uris": {"android": "https://dc.lft.to/lastmile_qr_scan", "ios": "https://dc.lft.to/lastmile_qr_scan"}, "name": "24df18b35db85fc7e232d1d3b5b06d47", "is_reserved": 0}, {"is_disabled": 0, "fusion_lon": 0.0, "fusion_lat": 0.0, "lat": 38.90053433333333, "type": "electric_scooter", "lon": -77.00069833333333, "bike_id": "7d168cceb75a0b27d4fff9a11e4052eb", "rental_uris": {"android": "https://dc.lft.to/lastmile_qr_scan", "ios": "https://dc.lft.to/lastmile_qr_scan"}, "name": "7d168cceb75a0b27d4fff9a11e4052eb", "is_reserved": 0}, {"is_disabled": 0, "fusion_lon": 0.0, "fusion_lat": 0.0, "lat": 38.916991, "type": "electric_scooter", "lon": -77.03212133333334, "bike_id": "b878865bfe7286127caa0027eaf1ca1d", "rental_uris": {"android": "https://dc.lft.to/lastmile_qr_scan", "ios": "https://dc.lft.to/lastmile_qr_scan"}, "name": "b878865bfe7286127caa0027eaf1ca1d", "is_reserved": 0}, {"is_disabled": 0, "fusion_lon": 0.0, "fusion_lat": 0.0, "lat": 38.93561, "type": "electric_scooter", "lon": -77.02964833333333, "bike_id": "81dc2b4bd8e0cdb27161cc4f8515ff2d", "rental_uris": {"android": "https://dc.lft.to/lastmile_qr_scan", "ios": "https://dc.lft.to/lastmile_qr_scan"}, "name": "81dc2b4bd8e0cdb27161cc4f8515ff2d", "is_reserved": 0}, {"is_disabled": 0, "fusion_lon": 0.0, "fusion_lat": 0.0, "lat": 38.892043666666666, "type": "electric_scooter", "lon": -76.98801083333333, "bike_id": "af7f4467832c441eb81c43cf73155c23", "rental_uris": {"android": "https://dc.lft.to/lastmile_qr_scan", "ios": "https://dc.lft.to/lastmile_qr_scan"}, "name": "af7f4467832c441eb81c43cf73155c23", "is_reserved": 0}, {"is_disabled": 0, "fusion_lon": 0.0, "fusion_lat": 0.0, "lat": 38.9242155, "type": "electric_scooter", "lon": -77.05632466666667, "bike_id": "ba815a397e1ce04f09ae34b30e5ccb79", "rental_uris": {"android": "https://dc.lft.to/lastmile_qr_scan", "ios": "https://dc.lft.to/lastmile_qr_scan"}, "name": "ba815a397e1ce04f09ae34b30e5ccb79", "is_reserved": 0}, {"is_disabled": 0, "fusion_lon": 0.0, "fusion_lat": 0.0, "lat": 38.9074335, "type": "electric_scooter", "lon": -77.03437983333333, "bike_id": "a8f4d5ff9278703bc891813fc18438e1", "rental_uris": {"android": "https://dc.lft.to/lastmile_qr_scan", "ios": "https://dc.lft.to/lastmile_qr_scan"}, "name": "a8f4d5ff9278703bc891813fc18438e1", "is_reserved": 0}, {"is_disabled": 0, "fusion_lon": 0.0, "fusion_lat": 0.0, "lat": 38.986654333333334, "type": "electric_scooter", "lon": -77.02646616666667, "bike_id": "eccbc5be82166e7ffae48dfdb4e8ba80", "rental_uris": {"android": "https://dc.lft.to/lastmile_qr_scan", "ios": "https://dc.lft.to/lastmile_qr_scan"}, "name": "eccbc5be82166e7ffae48dfdb4e8ba80", "is_reserved": 0}, {"is_disabled": 0, "fusion_lon": 0.0, "fusion_lat": 0.0, "lat": 38.91803683333333, "type": "electric_scooter", "lon": -77.031821, "bike_id": "a304b810e344a2b8ec2ca0ebfb31f2f7", "rental_uris": {"android": "https://dc.lft.to/lastmile_qr_scan", "ios": "https://dc.lft.to/lastmile_qr_scan"}, "name": "a304b810e344a2b8ec2ca0ebfb31f2f7", "is_reserved": 0}, {"is_disabled": 0, "fusion_lon": 0.0, "fusion_lat": 0.0, "lat": 38.932729, "type": "electric_scooter", "lon": -76.99686, "bike_id": "82d8117ce2a9e9c2a293ed8cf0c75498", "rental_uris": {"android": "https://dc.lft.to/lastmile_qr_scan", "ios": "https://dc.lft.to/lastmile_qr_scan"}, "name": "82d8117ce2a9e9c2a293ed8cf0c75498", "is_reserved": 0}, {"is_disabled": 0, "fusion_lon": 0.0, "fusion_lat": 0.0, "lat": 38.91482283333333, "type": "electric_scooter", "lon": -77.04383483333334, "bike_id": "4e42ae125d7880a4619c4eac74b07195", "rental_uris": {"android": "https://dc.lft.to/lastmile_qr_scan", "ios": "https://dc.lft.to/lastmile_qr_scan"}, "name": "4e42ae125d7880a4619c4eac74b07195", "is_reserved": 0}, {"is_disabled": 0, "fusion_lon": 0.0, "fusion_lat": 0.0, "lat": 38.914131, "type": "electric_scooter", "lon": -77.04005816666667, "bike_id": "168e3ab070a7acc115c5a6576f4d07ce", "rental_uris": {"android": "https://dc.lft.to/lastmile_qr_scan", "ios": "https://dc.lft.to/lastmile_qr_scan"}, "name": "168e3ab070a7acc115c5a6576f4d07ce", "is_reserved": 0}, {"is_disabled": 0, "fusion_lon": 0.0, "fusion_lat": 0.0, "lat": 38.918158, "type": "electric_scooter", "lon": -77.02475083333333, "bike_id": "1609f3c4e269e1c1bc1a6d20801a859d", "rental_uris": {"android": "https://dc.lft.to/lastmile_qr_scan", "ios": "https://dc.lft.to/lastmile_qr_scan"}, "name": "1609f3c4e269e1c1bc1a6d20801a859d", "is_reserved": 0}, {"is_disabled": 0, "fusion_lon": 0.0, "fusion_lat": 0.0, "lat": 38.90513416666667, "type": "electric_scooter", "lon": -77.034444, "bike_id": "b5c727ee2fd8485f4d279dc1fafd4fb2", "rental_uris": {"android": "https://dc.lft.to/lastmile_qr_scan", "ios": "https://dc.lft.to/lastmile_qr_scan"}, "name": "b5c727ee2fd8485f4d279dc1fafd4fb2", "is_reserved": 0}, {"is_disabled": 0, "fusion_lon": 0.0, "fusion_lat": 0.0, "lat": 38.9247605, "type": "electric_scooter", "lon": -77.02818316666666, "bike_id": "3056b82bde30749cc554c4e9f59fa980", "rental_uris": {"android": "https://dc.lft.to/lastmile_qr_scan", "ios": "https://dc.lft.to/lastmile_qr_scan"}, "name": "3056b82bde30749cc554c4e9f59fa980", "is_reserved": 0}, {"is_disabled": 0, "fusion_lon": 0.0, "fusion_lat": 0.0, "lat": 38.8832895, "type": "electric_scooter", "lon": -77.016076, "bike_id": "fea4e310f860e57191ec6dbc03cb6342", "rental_uris": {"android": "https://dc.lft.to/lastmile_qr_scan", "ios": "https://dc.lft.to/lastmile_qr_scan"}, "name": "fea4e310f860e57191ec6dbc03cb6342", "is_reserved": 0}, {"is_disabled": 0, "fusion_lon": 0.0, "fusion_lat": 0.0, "lat": 38.8922365, "type": "electric_scooter", "lon": -77.03181833333333, "bike_id": "7ad21e5d290dee050356de29c04d3f44", "rental_uris": {"android": "https://dc.lft.to/lastmile_qr_scan", "ios": "https://dc.lft.to/lastmile_qr_scan"}, "name": "7ad21e5d290dee050356de29c04d3f44", "is_reserved": 0}, {"is_disabled": 0, "fusion_lon": 0.0, "fusion_lat": 0.0, "lat": 38.90157383333333, "type": "electric_scooter", "lon": -77.0257445, "bike_id": "c9a866ff176b32e98a39c18c1f3cef56", "rental_uris": {"android": "https://dc.lft.to/lastmile_qr_scan", "ios": "https://dc.lft.to/lastmile_qr_scan"}, "name": "c9a866ff176b32e98a39c18c1f3cef56", "is_reserved": 0}, {"is_disabled": 0, "fusion_lon": 0.0, "fusion_lat": 0.0, "lat": 38.92096883333333, "type": "electric_scooter", "lon": -77.0317225, "bike_id": "a53189a26a2b4d6ef56f3026d04acf60", "rental_uris": {"android": "https://dc.lft.to/lastmile_qr_scan", "ios": "https://dc.lft.to/lastmile_qr_scan"}, "name": "a53189a26a2b4d6ef56f3026d04acf60", "is_reserved": 0}, {"is_disabled": 0, "fusion_lon": 0.0, "fusion_lat": 0.0, "lat": 38.901424, "type": "electric_scooter", "lon": -77.0398605, "bike_id": "8468d35bf99309995695db939e692847", "rental_uris": {"android": "https://dc.lft.to/lastmile_qr_scan", "ios": "https://dc.lft.to/lastmile_qr_scan"}, "name": "8468d35bf99309995695db939e692847", "is_reserved": 0}, {"is_disabled": 0, "fusion_lon": 0.0, "fusion_lat": 0.0, "lat": 38.893542333333336, "type": "electric_scooter", "lon": -76.98474466666667, "bike_id": "94007dd4fccef58f410561eac7f5f400", "rental_uris": {"android": "https://dc.lft.to/lastmile_qr_scan", "ios": "https://dc.lft.to/lastmile_qr_scan"}, "name": "94007dd4fccef58f410561eac7f5f400", "is_reserved": 0}, {"is_disabled": 0, "fusion_lon": 0.0, "fusion_lat": 0.0, "lat": 38.88739233333333, "type": "electric_scooter", "lon": -77.01535333333334, "bike_id": "23d1b7d5e4e8cc4aee3a5f7c0e62410a", "rental_uris": {"android": "https://dc.lft.to/lastmile_qr_scan", "ios": "https://dc.lft.to/lastmile_qr_scan"}, "name": "23d1b7d5e4e8cc4aee3a5f7c0e62410a", "is_reserved": 0}, {"is_disabled": 0, "fusion_lon": 0.0, "fusion_lat": 0.0, "lat": 38.90029283333333, "type": "electric_scooter", "lon": -77.0019995, "bike_id": "58d8d2780a6a08c89fb75e1a70b6c86d", "rental_uris": {"android": "https://dc.lft.to/lastmile_qr_scan", "ios": "https://dc.lft.to/lastmile_qr_scan"}, "name": "58d8d2780a6a08c89fb75e1a70b6c86d", "is_reserved": 0}, {"is_disabled": 0, "fusion_lon": 0.0, "fusion_lat": 0.0, "lat": 38.91703183333333, "type": "electric_scooter", "lon": -77.02619066666666, "bike_id": "af8731bd099843b3c40a0cf527b354cf", "rental_uris": {"android": "https://dc.lft.to/lastmile_qr_scan", "ios": "https://dc.lft.to/lastmile_qr_scan"}, "name": "af8731bd099843b3c40a0cf527b354cf", "is_reserved": 0}, {"is_disabled": 0, "fusion_lon": 0.0, "fusion_lat": 0.0, "lat": 38.91588433333333, "type": "electric_scooter", "lon": -77.04679633333333, "bike_id": "49be863348a11da3afaf156e2c4e71d0", "rental_uris": {"android": "https://dc.lft.to/lastmile_qr_scan", "ios": "https://dc.lft.to/lastmile_qr_scan"}, "name": "49be863348a11da3afaf156e2c4e71d0", "is_reserved": 0}, {"is_disabled": 0, "fusion_lon": 0.0, "fusion_lat": 0.0, "lat": 38.91975583333333, "type": "electric_scooter", "lon": -77.0416005, "bike_id": "3cae5b6094c6aafefa52a44104547f6d", "rental_uris": {"android": "https://dc.lft.to/lastmile_qr_scan", "ios": "https://dc.lft.to/lastmile_qr_scan"}, "name": "3cae5b6094c6aafefa52a44104547f6d", "is_reserved": 0}, {"is_disabled": 0, "fusion_lon": 0.0, "fusion_lat": 0.0, "lat": 38.91444283333333, "type": "electric_scooter", "lon": -77.008943, "bike_id": "cfa06169f0de0cb8ab01750f73ec3cf4", "rental_uris": {"android": "https://dc.lft.to/lastmile_qr_scan", "ios": "https://dc.lft.to/lastmile_qr_scan"}, "name": "cfa06169f0de0cb8ab01750f73ec3cf4", "is_reserved": 0}, {"is_disabled": 0, "fusion_lon": 0.0, "fusion_lat": 0.0, "lat": 38.89825833333333, "type": "electric_scooter", "lon": -77.02203616666667, "bike_id": "0c1a81bf78e5ed42d4871d8518ebfe87", "rental_uris": {"android": "https://dc.lft.to/lastmile_qr_scan", "ios": "https://dc.lft.to/lastmile_qr_scan"}, "name": "0c1a81bf78e5ed42d4871d8518ebfe87", "is_reserved": 0}, {"is_disabled": 0, "fusion_lon": 0.0, "fusion_lat": 0.0, "lat": 38.9561495, "type": "electric_scooter", "lon": -77.02763133333333, "bike_id": "70f14b05d2417025a9a7fa48e3b65971", "rental_uris": {"android": "https://dc.lft.to/lastmile_qr_scan", "ios": "https://dc.lft.to/lastmile_qr_scan"}, "name": "70f14b05d2417025a9a7fa48e3b65971", "is_reserved": 0}, {"is_disabled": 0, "fusion_lon": 0.0, "fusion_lat": 0.0, "lat": 38.915369166666665, "type": "electric_scooter", "lon": -77.03207966666666, "bike_id": "3d41dc7eaa59163ab2824478fdd81d18", "rental_uris": {"android": "https://dc.lft.to/lastmile_qr_scan", "ios": "https://dc.lft.to/lastmile_qr_scan"}, "name": "3d41dc7eaa59163ab2824478fdd81d18", "is_reserved": 0}, {"is_disabled": 0, "fusion_lon": 0.0, "fusion_lat": 0.0, "lat": 38.9070375, "type": "electric_scooter", "lon": -77.06307016666666, "bike_id": "396f69c5700ad529b31597329c3fc2a7", "rental_uris": {"android": "https://dc.lft.to/lastmile_qr_scan", "ios": "https://dc.lft.to/lastmile_qr_scan"}, "name": "396f69c5700ad529b31597329c3fc2a7", "is_reserved": 0}, {"is_disabled": 0, "fusion_lon": 0.0, "fusion_lat": 0.0, "lat": 38.92869566666667, "type": "electric_scooter", "lon": -77.02734816666667, "bike_id": "9ffccabc10d09ab36de738caad4e3c4e", "rental_uris": {"android": "https://dc.lft.to/lastmile_qr_scan", "ios": "https://dc.lft.to/lastmile_qr_scan"}, "name": "9ffccabc10d09ab36de738caad4e3c4e", "is_reserved": 0}, {"is_disabled": 0, "fusion_lon": 0.0, "fusion_lat": 0.0, "lat": 38.924403166666664, "type": "electric_bike", "lon": -76.907621, "bike_id": "adaf51dbd944a3630476b931f1e484a9", "rental_uris": {"android": "https://dc.lft.to/lastmile_qr_scan", "ios": "https://dc.lft.to/lastmile_qr_scan"}, "name": "adaf51dbd944a3630476b931f1e484a9", "is_reserved": 0}, {"is_disabled": 0, "fusion_lon": 0.0, "fusion_lat": 0.0, "lat": 38.918010333333335, "type": "electric_scooter", "lon": -77.032023, "bike_id": "d815d38ec42d33f5c0830fd9be2cf74c", "rental_uris": {"android": "https://dc.lft.to/lastmile_qr_scan", "ios": "https://dc.lft.to/lastmile_qr_scan"}, "name": "d815d38ec42d33f5c0830fd9be2cf74c", "is_reserved": 0}, {"is_disabled": 0, "fusion_lon": 0.0, "fusion_lat": 0.0, "lat": 38.90731533333334, "type": "electric_scooter", "lon": -77.031907, "bike_id": "266475c2931e34acf92c8e903c99cc72", "rental_uris": {"android": "https://dc.lft.to/lastmile_qr_scan", "ios": "https://dc.lft.to/lastmile_qr_scan"}, "name": "266475c2931e34acf92c8e903c99cc72", "is_reserved": 0}, {"is_disabled": 0, "fusion_lon": 0.0, "fusion_lat": 0.0, "lat": 38.9028545, "type": "electric_scooter", "lon": -77.03430933333334, "bike_id": "991663a8dedc69866fd34c339a17536c", "rental_uris": {"android": "https://dc.lft.to/lastmile_qr_scan", "ios": "https://dc.lft.to/lastmile_qr_scan"}, "name": "991663a8dedc69866fd34c339a17536c", "is_reserved": 0}, {"is_disabled": 0, "fusion_lon": 0.0, "fusion_lat": 0.0, "lat": 38.91337133333333, "type": "electric_scooter", "lon": -77.04863383333333, "bike_id": "3232237d2834a99a29aee3fe9f6e04fd", "rental_uris": {"android": "https://dc.lft.to/lastmile_qr_scan", "ios": "https://dc.lft.to/lastmile_qr_scan"}, "name": "3232237d2834a99a29aee3fe9f6e04fd", "is_reserved": 0}, {"is_disabled": 0, "fusion_lon": 0.0, "fusion_lat": 0.0, "lat": 38.8319355, "type": "electric_bike", "lon": -77.0768245, "bike_id": "dd38b88b25e4bc4b919bd55dd291a28f", "rental_uris": {"android": "https://dc.lft.to/lastmile_qr_scan", "ios": "https://dc.lft.to/lastmile_qr_scan"}, "name": "dd38b88b25e4bc4b919bd55dd291a28f", "is_reserved": 0}, {"is_disabled": 0, "fusion_lon": 0.0, "fusion_lat": 0.0, "lat": 38.833201833333334, "type": "electric_scooter", "lon": -77.0000785, "bike_id": "fb8116a5593b729622c5c67037e75dec", "rental_uris": {"android": "https://dc.lft.to/lastmile_qr_scan", "ios": "https://dc.lft.to/lastmile_qr_scan"}, "name": "fb8116a5593b729622c5c67037e75dec", "is_reserved": 0}, {"is_disabled": 0, "fusion_lon": 0.0, "fusion_lat": 0.0, "lat": 38.95559383333333, "type": "electric_bike", "lon": -76.93538566666666, "bike_id": "06cedd66155875816d7d0e89e08bbe06", "rental_uris": {"android": "https://dc.lft.to/lastmile_qr_scan", "ios": "https://dc.lft.to/lastmile_qr_scan"}, "name": "06cedd66155875816d7d0e89e08bbe06", "is_reserved": 0}, {"is_disabled": 0, "fusion_lon": 0.0, "fusion_lat": 0.0, "lat": 38.925914, "type": "electric_scooter", "lon": -77.05539416666667, "bike_id": "e928e56dd9ba930f67a59a8a63b1cfdb", "rental_uris": {"android": "https://dc.lft.to/lastmile_qr_scan", "ios": "https://dc.lft.to/lastmile_qr_scan"}, "name": "e928e56dd9ba930f67a59a8a63b1cfdb", "is_reserved": 0}, {"is_disabled": 0, "fusion_lon": 0.0, "fusion_lat": 0.0, "lat": 38.928263666666666, "type": "electric_scooter", "lon": -77.03707333333334, "bike_id": "cf5268bc342a2c7494f4fbe9b99f5648", "rental_uris": {"android": "https://dc.lft.to/lastmile_qr_scan", "ios": "https://dc.lft.to/lastmile_qr_scan"}, "name": "cf5268bc342a2c7494f4fbe9b99f5648", "is_reserved": 0}, {"is_disabled": 0, "fusion_lon": 0.0, "fusion_lat": 0.0, "lat": 38.876607166666666, "type": "electric_scooter", "lon": -77.00393816666667, "bike_id": "6c2892d43a3c2b931123dff06d81de18", "rental_uris": {"android": "https://dc.lft.to/lastmile_qr_scan", "ios": "https://dc.lft.to/lastmile_qr_scan"}, "name": "6c2892d43a3c2b931123dff06d81de18", "is_reserved": 0}, {"is_disabled": 0, "fusion_lon": 0.0, "fusion_lat": 0.0, "lat": 38.917001166666665, "type": "electric_scooter", "lon": -77.02434633333333, "bike_id": "82bec872f9ae714eebdbe7507fd878a5", "rental_uris": {"android": "https://dc.lft.to/lastmile_qr_scan", "ios": "https://dc.lft.to/lastmile_qr_scan"}, "name": "82bec872f9ae714eebdbe7507fd878a5", "is_reserved": 0}, {"is_disabled": 0, "fusion_lon": 0.0, "fusion_lat": 0.0, "lat": 38.918835, "type": "electric_scooter", "lon": -77.04174633333334, "bike_id": "66aabe020e9ed1bb6c78c37a94fb46b9", "rental_uris": {"android": "https://dc.lft.to/lastmile_qr_scan", "ios": "https://dc.lft.to/lastmile_qr_scan"}, "name": "66aabe020e9ed1bb6c78c37a94fb46b9", "is_reserved": 0}, {"is_disabled": 0, "fusion_lon": 0.0, "fusion_lat": 0.0, "lat": 38.907347333333334, "type": "electric_scooter", "lon": -77.04248433333333, "bike_id": "83451355f4e1a0dd05ed139903ade0c5", "rental_uris": {"android": "https://dc.lft.to/lastmile_qr_scan", "ios": "https://dc.lft.to/lastmile_qr_scan"}, "name": "83451355f4e1a0dd05ed139903ade0c5", "is_reserved": 0}, {"is_disabled": 0, "fusion_lon": 0.0, "fusion_lat": 0.0, "lat": 38.828728166666664, "type": "electric_bike", "lon": -77.11227633333333, "bike_id": "080371e51de01f58df57d010620cf02d", "rental_uris": {"android": "https://dc.lft.to/lastmile_qr_scan", "ios": "https://dc.lft.to/lastmile_qr_scan"}, "name": "080371e51de01f58df57d010620cf02d", "is_reserved": 0}, {"is_disabled": 0, "fusion_lon": 0.0, "fusion_lat": 0.0, "lat": 38.917916166666664, "type": "electric_scooter", "lon": -77.0365825, "bike_id": "00fe6c364ea7434bd0f46ae485d46537", "rental_uris": {"android": "https://dc.lft.to/lastmile_qr_scan", "ios": "https://dc.lft.to/lastmile_qr_scan"}, "name": "00fe6c364ea7434bd0f46ae485d46537", "is_reserved": 0}, {"is_disabled": 0, "fusion_lon": 0.0, "fusion_lat": 0.0, "lat": 38.9154375, "type": "electric_scooter", "lon": -77.01974283333334, "bike_id": "adede33096dcc37db78c949761a27d2e", "rental_uris": {"android": "https://dc.lft.to/lastmile_qr_scan", "ios": "https://dc.lft.to/lastmile_qr_scan"}, "name": "adede33096dcc37db78c949761a27d2e", "is_reserved": 0}, {"is_disabled": 0, "fusion_lon": 0.0, "fusion_lat": 0.0, "lat": 38.902552666666665, "type": "electric_scooter", "lon": -77.036457, "bike_id": "e71427ec5a8de83e3cf260c8e2838cc6", "rental_uris": {"android": "https://dc.lft.to/lastmile_qr_scan", "ios": "https://dc.lft.to/lastmile_qr_scan"}, "name": "e71427ec5a8de83e3cf260c8e2838cc6", "is_reserved": 0}, {"is_disabled": 0, "fusion_lon": 0.0, "fusion_lat": 0.0, "lat": 38.90586016666666, "type": "electric_scooter", "lon": -77.02370766666667, "bike_id": "c9e0ed32d89793a75772848640c26578", "rental_uris": {"android": "https://dc.lft.to/lastmile_qr_scan", "ios": "https://dc.lft.to/lastmile_qr_scan"}, "name": "c9e0ed32d89793a75772848640c26578", "is_reserved": 0}, {"is_disabled": 0, "fusion_lon": 0.0, "fusion_lat": 0.0, "lat": 38.93399516666667, "type": "electric_scooter", "lon": -77.0272435, "bike_id": "e619e81c17a645eae114516b0a21d753", "rental_uris": {"android": "https://dc.lft.to/lastmile_qr_scan", "ios": "https://dc.lft.to/lastmile_qr_scan"}, "name": "e619e81c17a645eae114516b0a21d753", "is_reserved": 0}, {"is_disabled": 0, "fusion_lon": 0.0, "fusion_lat": 0.0, "lat": 38.915359333333335, "type": "electric_scooter", "lon": -77.02181633333333, "bike_id": "9f9f2da404995c9f8da70e519f62a0b5", "rental_uris": {"android": "https://dc.lft.to/lastmile_qr_scan", "ios": "https://dc.lft.to/lastmile_qr_scan"}, "name": "9f9f2da404995c9f8da70e519f62a0b5", "is_reserved": 0}, {"is_disabled": 0, "fusion_lon": 0.0, "fusion_lat": 0.0, "lat": 38.91553866666667, "type": "electric_scooter", "lon": -77.01231483333333, "bike_id": "41819bc1653c008ac3539a89ad3cfb9e", "rental_uris": {"android": "https://dc.lft.to/lastmile_qr_scan", "ios": "https://dc.lft.to/lastmile_qr_scan"}, "name": "41819bc1653c008ac3539a89ad3cfb9e", "is_reserved": 0}, {"is_disabled": 0, "fusion_lon": 0.0, "fusion_lat": 0.0, "lat": 38.892643666666665, "type": "electric_scooter", "lon": -77.03183216666666, "bike_id": "9b1976ce1b97749669013c65e51eb37f", "rental_uris": {"android": "https://dc.lft.to/lastmile_qr_scan", "ios": "https://dc.lft.to/lastmile_qr_scan"}, "name": "9b1976ce1b97749669013c65e51eb37f", "is_reserved": 0}, {"is_disabled": 0, "fusion_lon": 0.0, "fusion_lat": 0.0, "lat": 38.92165883333333, "type": "electric_scooter", "lon": -77.03848716666667, "bike_id": "100d9393223d86f8be74ca3b99969aae", "rental_uris": {"android": "https://dc.lft.to/lastmile_qr_scan", "ios": "https://dc.lft.to/lastmile_qr_scan"}, "name": "100d9393223d86f8be74ca3b99969aae", "is_reserved": 0}, {"is_disabled": 0, "fusion_lon": 0.0, "fusion_lat": 0.0, "lat": 38.848447666666665, "type": "electric_bike", "lon": -77.0805305, "bike_id": "01e5fcc4d41dc1a7bc13e4f3d4b8f662", "rental_uris": {"android": "https://dc.lft.to/lastmile_qr_scan", "ios": "https://dc.lft.to/lastmile_qr_scan"}, "name": "01e5fcc4d41dc1a7bc13e4f3d4b8f662", "is_reserved": 0}, {"is_disabled": 0, "fusion_lon": 0.0, "fusion_lat": 0.0, "lat": 38.923215666666664, "type": "electric_scooter", "lon": -77.042033, "bike_id": "46cb238228ce29d436d9f2a16054b3f3", "rental_uris": {"android": "https://dc.lft.to/lastmile_qr_scan", "ios": "https://dc.lft.to/lastmile_qr_scan"}, "name": "46cb238228ce29d436d9f2a16054b3f3", "is_reserved": 0}, {"is_disabled": 0, "fusion_lon": 0.0, "fusion_lat": 0.0, "lat": 38.89681483333333, "type": "electric_scooter", "lon": -76.94720333333333, "bike_id": "fe79963e728b3cc29d0471515ae0ac6b", "rental_uris": {"android": "https://dc.lft.to/lastmile_qr_scan", "ios": "https://dc.lft.to/lastmile_qr_scan"}, "name": "fe79963e728b3cc29d0471515ae0ac6b", "is_reserved": 0}, {"is_disabled": 0, "fusion_lon": 0.0, "fusion_lat": 0.0, "lat": 38.966069, "type": "electric_bike", "lon": -76.9833475, "bike_id": "e8832bacd5db4b893db50fdaa531b4ed", "rental_uris": {"android": "https://dc.lft.to/lastmile_qr_scan", "ios": "https://dc.lft.to/lastmile_qr_scan"}, "name": "e8832bacd5db4b893db50fdaa531b4ed", "is_reserved": 0}, {"is_disabled": 0, "fusion_lon": 0.0, "fusion_lat": 0.0, "lat": 38.9445475, "type": "electric_scooter", "lon": -77.06344483333334, "bike_id": "cfa5ab9a79c3764d07c1bba5f869f2db", "rental_uris": {"android": "https://dc.lft.to/lastmile_qr_scan", "ios": "https://dc.lft.to/lastmile_qr_scan"}, "name": "cfa5ab9a79c3764d07c1bba5f869f2db", "is_reserved": 0}, {"is_disabled": 0, "fusion_lon": 0.0, "fusion_lat": 0.0, "lat": 38.9001455, "type": "electric_scooter", "lon": -76.99763966666667, "bike_id": "df280440eeeb424a94a16e9d31c358cd", "rental_uris": {"android": "https://dc.lft.to/lastmile_qr_scan", "ios": "https://dc.lft.to/lastmile_qr_scan"}, "name": "df280440eeeb424a94a16e9d31c358cd", "is_reserved": 0}, {"is_disabled": 0, "fusion_lon": 0.0, "fusion_lat": 0.0, "lat": 38.9084765, "type": "electric_scooter", "lon": -77.023844, "bike_id": "ead47fe39396b18f5bc4ab2fc21acd48", "rental_uris": {"android": "https://dc.lft.to/lastmile_qr_scan", "ios": "https://dc.lft.to/lastmile_qr_scan"}, "name": "ead47fe39396b18f5bc4ab2fc21acd48", "is_reserved": 0}, {"is_disabled": 0, "fusion_lon": 0.0, "fusion_lat": 0.0, "lat": 38.95354316666667, "type": "electric_bike", "lon": -76.980917, "bike_id": "1132cbf710fade1a4c7cea4f1ac4c604", "rental_uris": {"android": "https://dc.lft.to/lastmile_qr_scan", "ios": "https://dc.lft.to/lastmile_qr_scan"}, "name": "1132cbf710fade1a4c7cea4f1ac4c604", "is_reserved": 0}, {"is_disabled": 0, "fusion_lon": 0.0, "fusion_lat": 0.0, "lat": 38.875751666666666, "type": "electric_scooter", "lon": -77.019898, "bike_id": "180f33106639468db5b9f3d3306e6542", "rental_uris": {"android": "https://dc.lft.to/lastmile_qr_scan", "ios": "https://dc.lft.to/lastmile_qr_scan"}, "name": "180f33106639468db5b9f3d3306e6542", "is_reserved": 0}, {"is_disabled": 0, "fusion_lon": 0.0, "fusion_lat": 0.0, "lat": 38.91779433333333, "type": "electric_scooter", "lon": -77.02300166666667, "bike_id": "5b8396f61b67da3f2019d759817291e2", "rental_uris": {"android": "https://dc.lft.to/lastmile_qr_scan", "ios": "https://dc.lft.to/lastmile_qr_scan"}, "name": "5b8396f61b67da3f2019d759817291e2", "is_reserved": 0}, {"is_disabled": 0, "fusion_lon": 0.0, "fusion_lat": 0.0, "lat": 38.842935, "type": "electric_scooter", "lon": -76.9994885, "bike_id": "a164e80a628562d75caa3927cacca8fa", "rental_uris": {"android": "https://dc.lft.to/lastmile_qr_scan", "ios": "https://dc.lft.to/lastmile_qr_scan"}, "name": "a164e80a628562d75caa3927cacca8fa", "is_reserved": 0}, {"is_disabled": 0, "fusion_lon": 0.0, "fusion_lat": 0.0, "lat": 38.90254766666666, "type": "electric_scooter", "lon": -77.0522145, "bike_id": "2fb5a1ee5e21140a9398c448a600b726", "rental_uris": {"android": "https://dc.lft.to/lastmile_qr_scan", "ios": "https://dc.lft.to/lastmile_qr_scan"}, "name": "2fb5a1ee5e21140a9398c448a600b726", "is_reserved": 0}, {"is_disabled": 0, "fusion_lon": 0.0, "fusion_lat": 0.0, "lat": 38.88697483333333, "type": "electric_scooter", "lon": -76.95371666666666, "bike_id": "b282f192c8129930c72195e8389dc152", "rental_uris": {"android": "https://dc.lft.to/lastmile_qr_scan", "ios": "https://dc.lft.to/lastmile_qr_scan"}, "name": "b282f192c8129930c72195e8389dc152", "is_reserved": 0}, {"is_disabled": 0, "fusion_lon": 0.0, "fusion_lat": 0.0, "lat": 38.916896666666666, "type": "electric_scooter", "lon": -77.026829, "bike_id": "0bedfb701541df568fd9853062aaa59c", "rental_uris": {"android": "https://dc.lft.to/lastmile_qr_scan", "ios": "https://dc.lft.to/lastmile_qr_scan"}, "name": "0bedfb701541df568fd9853062aaa59c", "is_reserved": 0}, {"is_disabled": 0, "fusion_lon": 0.0, "fusion_lat": 0.0, "lat": 38.91741433333333, "type": "electric_scooter", "lon": -77.03659083333334, "bike_id": "cb0734cfe76ea0d94df601cb1b3eb0e2", "rental_uris": {"android": "https://dc.lft.to/lastmile_qr_scan", "ios": "https://dc.lft.to/lastmile_qr_scan"}, "name": "cb0734cfe76ea0d94df601cb1b3eb0e2", "is_reserved": 0}, {"is_disabled": 0, "fusion_lon": 0.0, "fusion_lat": 0.0, "lat": 38.89989516666667, "type": "electric_scooter", "lon": -77.00669516666666, "bike_id": "d188c507a4bbaeba01088fc2d67f75a7", "rental_uris": {"android": "https://dc.lft.to/lastmile_qr_scan", "ios": "https://dc.lft.to/lastmile_qr_scan"}, "name": "d188c507a4bbaeba01088fc2d67f75a7", "is_reserved": 0}, {"is_disabled": 0, "fusion_lon": 0.0, "fusion_lat": 0.0, "lat": 38.904324, "type": "electric_scooter", "lon": -77.0260555, "bike_id": "1a835b3514de0993915bd1465bb8de7c", "rental_uris": {"android": "https://dc.lft.to/lastmile_qr_scan", "ios": "https://dc.lft.to/lastmile_qr_scan"}, "name": "1a835b3514de0993915bd1465bb8de7c", "is_reserved": 0}, {"is_disabled": 0, "fusion_lon": 0.0, "fusion_lat": 0.0, "lat": 38.857169166666665, "type": "electric_bike", "lon": -76.98116033333334, "bike_id": "df422dbc1448e0eaa0bebd3218fc8a4b", "rental_uris": {"android": "https://dc.lft.to/lastmile_qr_scan", "ios": "https://dc.lft.to/lastmile_qr_scan"}, "name": "df422dbc1448e0eaa0bebd3218fc8a4b", "is_reserved": 0}, {"is_disabled": 0, "fusion_lon": 0.0, "fusion_lat": 0.0, "lat": 38.83807783333334, "type": "electric_scooter", "lon": -77.00439, "bike_id": "b6789f8ff2808655aa2ed2c65975bbeb", "rental_uris": {"android": "https://dc.lft.to/lastmile_qr_scan", "ios": "https://dc.lft.to/lastmile_qr_scan"}, "name": "b6789f8ff2808655aa2ed2c65975bbeb", "is_reserved": 0}, {"is_disabled": 0, "fusion_lon": 0.0, "fusion_lat": 0.0, "lat": 38.915606333333336, "type": "electric_scooter", "lon": -77.03873416666667, "bike_id": "b53b458ff0afb487ec2acf50b095b526", "rental_uris": {"android": "https://dc.lft.to/lastmile_qr_scan", "ios": "https://dc.lft.to/lastmile_qr_scan"}, "name": "b53b458ff0afb487ec2acf50b095b526", "is_reserved": 0}, {"is_disabled": 0, "fusion_lon": 0.0, "fusion_lat": 0.0, "lat": 38.9304905, "type": "electric_scooter", "lon": -77.00419616666667, "bike_id": "8b25b59251eec7f566652b840331e707", "rental_uris": {"android": "https://dc.lft.to/lastmile_qr_scan", "ios": "https://dc.lft.to/lastmile_qr_scan"}, "name": "8b25b59251eec7f566652b840331e707", "is_reserved": 0}, {"is_disabled": 0, "fusion_lon": 0.0, "fusion_lat": 0.0, "lat": 38.9286425, "type": "electric_scooter", "lon": -77.03419666666667, "bike_id": "7201d0ba53c0272e8704b444200b3d60", "rental_uris": {"android": "https://dc.lft.to/lastmile_qr_scan", "ios": "https://dc.lft.to/lastmile_qr_scan"}, "name": "7201d0ba53c0272e8704b444200b3d60", "is_reserved": 0}, {"is_disabled": 0, "fusion_lon": 0.0, "fusion_lat": 0.0, "lat": 38.86243283333334, "type": "electric_scooter", "lon": -76.9949505, "bike_id": "bdc04cfe72bdcfb84e9b157661f4e4fc", "rental_uris": {"android": "https://dc.lft.to/lastmile_qr_scan", "ios": "https://dc.lft.to/lastmile_qr_scan"}, "name": "bdc04cfe72bdcfb84e9b157661f4e4fc", "is_reserved": 0}, {"is_disabled": 0, "fusion_lon": 0.0, "fusion_lat": 0.0, "lat": 38.99263333333333, "type": "electric_bike", "lon": -77.05000333333334, "bike_id": "fdaaa9618d3efdf559c64900a8aad848", "rental_uris": {"android": "https://dc.lft.to/lastmile_qr_scan", "ios": "https://dc.lft.to/lastmile_qr_scan"}, "name": "fdaaa9618d3efdf559c64900a8aad848", "is_reserved": 0}, {"is_disabled": 0, "fusion_lon": 0.0, "fusion_lat": 0.0, "lat": 38.94281266666667, "type": "electric_scooter", "lon": -77.02349266666667, "bike_id": "949e74909ed1a8ca64a0221c20dc316f", "rental_uris": {"android": "https://dc.lft.to/lastmile_qr_scan", "ios": "https://dc.lft.to/lastmile_qr_scan"}, "name": "949e74909ed1a8ca64a0221c20dc316f", "is_reserved": 0}, {"is_disabled": 0, "fusion_lon": 0.0, "fusion_lat": 0.0, "lat": 39.11512916666667, "type": "electric_bike", "lon": -77.195447, "bike_id": "b95549df103fec75a40656d3906da58b", "rental_uris": {"android": "https://dc.lft.to/lastmile_qr_scan", "ios": "https://dc.lft.to/lastmile_qr_scan"}, "name": "b95549df103fec75a40656d3906da58b", "is_reserved": 0}, {"is_disabled": 0, "fusion_lon": 0.0, "fusion_lat": 0.0, "lat": 38.90589033333333, "type": "electric_scooter", "lon": -77.02382733333333, "bike_id": "d2d046c51a552911a53a23a0cf032f5a", "rental_uris": {"android": "https://dc.lft.to/lastmile_qr_scan", "ios": "https://dc.lft.to/lastmile_qr_scan"}, "name": "d2d046c51a552911a53a23a0cf032f5a", "is_reserved": 0}, {"is_disabled": 0, "fusion_lon": 0.0, "fusion_lat": 0.0, "lat": 38.920335666666666, "type": "electric_scooter", "lon": -77.02588083333333, "bike_id": "7e3c0b585f854af152eab695ba93ae9d", "rental_uris": {"android": "https://dc.lft.to/lastmile_qr_scan", "ios": "https://dc.lft.to/lastmile_qr_scan"}, "name": "7e3c0b585f854af152eab695ba93ae9d", "is_reserved": 0}, {"is_disabled": 0, "fusion_lon": 0.0, "fusion_lat": 0.0, "lat": 38.91539433333333, "type": "electric_scooter", "lon": -77.0320985, "bike_id": "87f85fe7a1e53c4fb974430b12bbf247", "rental_uris": {"android": "https://dc.lft.to/lastmile_qr_scan", "ios": "https://dc.lft.to/lastmile_qr_scan"}, "name": "87f85fe7a1e53c4fb974430b12bbf247", "is_reserved": 0}, {"is_disabled": 0, "fusion_lon": 0.0, "fusion_lat": 0.0, "lat": 38.895328666666664, "type": "electric_scooter", "lon": -77.02847466666667, "bike_id": "7423c5dcbd53962fafa46b1adc8abf10", "rental_uris": {"android": "https://dc.lft.to/lastmile_qr_scan", "ios": "https://dc.lft.to/lastmile_qr_scan"}, "name": "7423c5dcbd53962fafa46b1adc8abf10", "is_reserved": 0}, {"is_disabled": 0, "fusion_lon": 0.0, "fusion_lat": 0.0, "lat": 38.853295333333335, "type": "electric_scooter", "lon": -76.9660475, "bike_id": "38bef9539665a253684db3df48661279", "rental_uris": {"android": "https://dc.lft.to/lastmile_qr_scan", "ios": "https://dc.lft.to/lastmile_qr_scan"}, "name": "38bef9539665a253684db3df48661279", "is_reserved": 0}, {"is_disabled": 0, "fusion_lon": 0.0, "fusion_lat": 0.0, "lat": 38.9882935, "type": "electric_bike", "lon": -76.98745666666667, "bike_id": "56e8f0fd13a1b0e75cbaeb88f4286888", "rental_uris": {"android": "https://dc.lft.to/lastmile_qr_scan", "ios": "https://dc.lft.to/lastmile_qr_scan"}, "name": "56e8f0fd13a1b0e75cbaeb88f4286888", "is_reserved": 0}, {"is_disabled": 0, "fusion_lon": 0.0, "fusion_lat": 0.0, "lat": 38.90658283333333, "type": "electric_scooter", "lon": -77.029411, "bike_id": "466021aadd7dd08c55c2349b03e0de2c", "rental_uris": {"android": "https://dc.lft.to/lastmile_qr_scan", "ios": "https://dc.lft.to/lastmile_qr_scan"}, "name": "466021aadd7dd08c55c2349b03e0de2c", "is_reserved": 0}, {"is_disabled": 0, "fusion_lon": 0.0, "fusion_lat": 0.0, "lat": 38.88515316666667, "type": "electric_scooter", "lon": -76.99849666666667, "bike_id": "ef1d0a7c5ae57fcfabf5d14db14fde59", "rental_uris": {"android": "https://dc.lft.to/lastmile_qr_scan", "ios": "https://dc.lft.to/lastmile_qr_scan"}, "name": "ef1d0a7c5ae57fcfabf5d14db14fde59", "is_reserved": 0}, {"is_disabled": 0, "fusion_lon": 0.0, "fusion_lat": 0.0, "lat": 38.88017516666667, "type": "electric_scooter", "lon": -76.931188, "bike_id": "b0911c1921a0be0fdf301403274e803c", "rental_uris": {"android": "https://dc.lft.to/lastmile_qr_scan", "ios": "https://dc.lft.to/lastmile_qr_scan"}, "name": "b0911c1921a0be0fdf301403274e803c", "is_reserved": 0}, {"is_disabled": 0, "fusion_lon": 0.0, "fusion_lat": 0.0, "lat": 38.905066833333336, "type": "electric_scooter", "lon": -76.98848916666667, "bike_id": "2eecbed0069c14a2c469beaa8cc47620", "rental_uris": {"android": "https://dc.lft.to/lastmile_qr_scan", "ios": "https://dc.lft.to/lastmile_qr_scan"}, "name": "2eecbed0069c14a2c469beaa8cc47620", "is_reserved": 0}, {"is_disabled": 0, "fusion_lon": 0.0, "fusion_lat": 0.0, "lat": 38.926256, "type": "electric_scooter", "lon": -77.05700183333333, "bike_id": "431b9ec157eb2b8faed64fce6d6d5d87", "rental_uris": {"android": "https://dc.lft.to/lastmile_qr_scan", "ios": "https://dc.lft.to/lastmile_qr_scan"}, "name": "431b9ec157eb2b8faed64fce6d6d5d87", "is_reserved": 0}, {"is_disabled": 0, "fusion_lon": 0.0, "fusion_lat": 0.0, "lat": 38.887347166666665, "type": "electric_scooter", "lon": -77.0283295, "bike_id": "2a5484cfe4a72383f8b3298710364764", "rental_uris": {"android": "https://dc.lft.to/lastmile_qr_scan", "ios": "https://dc.lft.to/lastmile_qr_scan"}, "name": "2a5484cfe4a72383f8b3298710364764", "is_reserved": 0}, {"is_disabled": 0, "fusion_lon": 0.0, "fusion_lat": 0.0, "lat": 38.887647333333334, "type": "electric_scooter", "lon": -76.95673116666667, "bike_id": "52aa662901c7a537ed3cdf0c209bb305", "rental_uris": {"android": "https://dc.lft.to/lastmile_qr_scan", "ios": "https://dc.lft.to/lastmile_qr_scan"}, "name": "52aa662901c7a537ed3cdf0c209bb305", "is_reserved": 0}, {"is_disabled": 0, "fusion_lon": 0.0, "fusion_lat": 0.0, "lat": 38.95288133333333, "type": "electric_scooter", "lon": -77.06843766666667, "bike_id": "6d9e77f35605fc009092b2e33da84192", "rental_uris": {"android": "https://dc.lft.to/lastmile_qr_scan", "ios": "https://dc.lft.to/lastmile_qr_scan"}, "name": "6d9e77f35605fc009092b2e33da84192", "is_reserved": 0}, {"is_disabled": 0, "fusion_lon": 0.0, "fusion_lat": 0.0, "lat": 38.90418716666667, "type": "electric_scooter", "lon": -76.98514983333334, "bike_id": "f5a3bb519364326b191e26bcbdb464b4", "rental_uris": {"android": "https://dc.lft.to/lastmile_qr_scan", "ios": "https://dc.lft.to/lastmile_qr_scan"}, "name": "f5a3bb519364326b191e26bcbdb464b4", "is_reserved": 0}, {"is_disabled": 0, "fusion_lon": 0.0, "fusion_lat": 0.0, "lat": 38.900347833333335, "type": "electric_scooter", "lon": -76.99832016666667, "bike_id": "d9a79852d6078db18b9f38a03fd20c4e", "rental_uris": {"android": "https://dc.lft.to/lastmile_qr_scan", "ios": "https://dc.lft.to/lastmile_qr_scan"}, "name": "d9a79852d6078db18b9f38a03fd20c4e", "is_reserved": 0}, {"is_disabled": 0, "fusion_lon": 0.0, "fusion_lat": 0.0, "lat": 38.9103335, "type": "electric_scooter", "lon": -77.04058766666667, "bike_id": "d003af2c969814d262eb421df2698727", "rental_uris": {"android": "https://dc.lft.to/lastmile_qr_scan", "ios": "https://dc.lft.to/lastmile_qr_scan"}, "name": "d003af2c969814d262eb421df2698727", "is_reserved": 0}, {"is_disabled": 0, "fusion_lon": 0.0, "fusion_lat": 0.0, "lat": 38.825961166666666, "type": "electric_bike", "lon": -77.00751316666667, "bike_id": "f440e272784b1fa14ff18edcf70a8da3", "rental_uris": {"android": "https://dc.lft.to/lastmile_qr_scan", "ios": "https://dc.lft.to/lastmile_qr_scan"}, "name": "f440e272784b1fa14ff18edcf70a8da3", "is_reserved": 0}, {"is_disabled": 0, "fusion_lon": 0.0, "fusion_lat": 0.0, "lat": 38.89877466666667, "type": "electric_scooter", "lon": -76.93187033333334, "bike_id": "d6c8e7e19ed7d450d41d4e76ddcbfcfd", "rental_uris": {"android": "https://dc.lft.to/lastmile_qr_scan", "ios": "https://dc.lft.to/lastmile_qr_scan"}, "name": "d6c8e7e19ed7d450d41d4e76ddcbfcfd", "is_reserved": 0}, {"is_disabled": 0, "fusion_lon": 0.0, "fusion_lat": 0.0, "lat": 38.894874, "type": "electric_scooter", "lon": -77.00213066666667, "bike_id": "b40e6734eb3f9d9262c6ff7dc2dddbdd", "rental_uris": {"android": "https://dc.lft.to/lastmile_qr_scan", "ios": "https://dc.lft.to/lastmile_qr_scan"}, "name": "b40e6734eb3f9d9262c6ff7dc2dddbdd", "is_reserved": 0}, {"is_disabled": 0, "fusion_lon": 0.0, "fusion_lat": 0.0, "lat": 38.913552833333334, "type": "electric_scooter", "lon": -77.032037, "bike_id": "f9138942efbfeb3fa21c2d4a66648357", "rental_uris": {"android": "https://dc.lft.to/lastmile_qr_scan", "ios": "https://dc.lft.to/lastmile_qr_scan"}, "name": "f9138942efbfeb3fa21c2d4a66648357", "is_reserved": 0}, {"is_disabled": 0, "fusion_lon": 0.0, "fusion_lat": 0.0, "lat": 38.921539, "type": "electric_scooter", "lon": -77.03390966666667, "bike_id": "94196db4cd4697884f4cb92c53580742", "rental_uris": {"android": "https://dc.lft.to/lastmile_qr_scan", "ios": "https://dc.lft.to/lastmile_qr_scan"}, "name": "94196db4cd4697884f4cb92c53580742", "is_reserved": 0}, {"is_disabled": 0, "fusion_lon": 0.0, "fusion_lat": 0.0, "lat": 38.918194666666665, "type": "electric_scooter", "lon": -77.04003516666667, "bike_id": "e73c6d62e2d5a8e0fb7e6734c35f4c00", "rental_uris": {"android": "https://dc.lft.to/lastmile_qr_scan", "ios": "https://dc.lft.to/lastmile_qr_scan"}, "name": "e73c6d62e2d5a8e0fb7e6734c35f4c00", "is_reserved": 0}, {"is_disabled": 0, "fusion_lon": 0.0, "fusion_lat": 0.0, "lat": 38.89785766666667, "type": "electric_scooter", "lon": -77.02491366666666, "bike_id": "fe307faec67180404094826561e89393", "rental_uris": {"android": "https://dc.lft.to/lastmile_qr_scan", "ios": "https://dc.lft.to/lastmile_qr_scan"}, "name": "fe307faec67180404094826561e89393", "is_reserved": 0}, {"is_disabled": 0, "fusion_lon": 0.0, "fusion_lat": 0.0, "lat": 38.941788333333335, "type": "electric_scooter", "lon": -77.03654916666666, "bike_id": "2d2efe9e975b04498dc351a568b94d69", "rental_uris": {"android": "https://dc.lft.to/lastmile_qr_scan", "ios": "https://dc.lft.to/lastmile_qr_scan"}, "name": "2d2efe9e975b04498dc351a568b94d69", "is_reserved": 0}, {"is_disabled": 0, "fusion_lon": 0.0, "fusion_lat": 0.0, "lat": 38.9181615, "type": "electric_scooter", "lon": -77.02717616666666, "bike_id": "b4bf478cf6b84c9c00fe41e0440db374", "rental_uris": {"android": "https://dc.lft.to/lastmile_qr_scan", "ios": "https://dc.lft.to/lastmile_qr_scan"}, "name": "b4bf478cf6b84c9c00fe41e0440db374", "is_reserved": 0}, {"is_disabled": 0, "fusion_lon": 0.0, "fusion_lat": 0.0, "lat": 38.93281533333333, "type": "electric_scooter", "lon": -77.03631, "bike_id": "80260e9f41e0c706ff8843bcfdeef7d2", "rental_uris": {"android": "https://dc.lft.to/lastmile_qr_scan", "ios": "https://dc.lft.to/lastmile_qr_scan"}, "name": "80260e9f41e0c706ff8843bcfdeef7d2", "is_reserved": 0}, {"is_disabled": 0, "fusion_lon": 0.0, "fusion_lat": 0.0, "lat": 38.901838, "type": "electric_scooter", "lon": -77.048133, "bike_id": "bff02cc1961ba77687668f493c2f1019", "rental_uris": {"android": "https://dc.lft.to/lastmile_qr_scan", "ios": "https://dc.lft.to/lastmile_qr_scan"}, "name": "bff02cc1961ba77687668f493c2f1019", "is_reserved": 0}, {"is_disabled": 0, "fusion_lon": 0.0, "fusion_lat": 0.0, "lat": 38.9002885, "type": "electric_scooter", "lon": -77.00197566666667, "bike_id": "4267045fd2cac34858ded89c78180635", "rental_uris": {"android": "https://dc.lft.to/lastmile_qr_scan", "ios": "https://dc.lft.to/lastmile_qr_scan"}, "name": "4267045fd2cac34858ded89c78180635", "is_reserved": 0}, {"is_disabled": 0, "fusion_lon": 0.0, "fusion_lat": 0.0, "lat": 38.956497, "type": "electric_scooter", "lon": -77.01501183333333, "bike_id": "08e43dfacdbaaa7f8493400fc8c5b9f8", "rental_uris": {"android": "https://dc.lft.to/lastmile_qr_scan", "ios": "https://dc.lft.to/lastmile_qr_scan"}, "name": "08e43dfacdbaaa7f8493400fc8c5b9f8", "is_reserved": 0}, {"is_disabled": 0, "fusion_lon": 0.0, "fusion_lat": 0.0, "lat": 38.8791585, "type": "electric_scooter", "lon": -77.008141, "bike_id": "2aa8b23129f3e56c27523a24cf5e6fc7", "rental_uris": {"android": "https://dc.lft.to/lastmile_qr_scan", "ios": "https://dc.lft.to/lastmile_qr_scan"}, "name": "2aa8b23129f3e56c27523a24cf5e6fc7", "is_reserved": 0}, {"is_disabled": 0, "fusion_lon": 0.0, "fusion_lat": 0.0, "lat": 38.9014385, "type": "electric_scooter", "lon": -77.03048433333333, "bike_id": "d6e11fb110063c68a8e58146fd181a53", "rental_uris": {"android": "https://dc.lft.to/lastmile_qr_scan", "ios": "https://dc.lft.to/lastmile_qr_scan"}, "name": "d6e11fb110063c68a8e58146fd181a53", "is_reserved": 0}, {"is_disabled": 0, "fusion_lon": 0.0, "fusion_lat": 0.0, "lat": 38.87926266666667, "type": "electric_scooter", "lon": -77.0005225, "bike_id": "7cc8f193d7732368590bd0c4bb9c10cb", "rental_uris": {"android": "https://dc.lft.to/lastmile_qr_scan", "ios": "https://dc.lft.to/lastmile_qr_scan"}, "name": "7cc8f193d7732368590bd0c4bb9c10cb", "is_reserved": 0}, {"is_disabled": 0, "fusion_lon": 0.0, "fusion_lat": 0.0, "lat": 38.92247716666667, "type": "electric_scooter", "lon": -77.03071633333333, "bike_id": "ed364016f2c749b9b1fb6ec10fcb08dc", "rental_uris": {"android": "https://dc.lft.to/lastmile_qr_scan", "ios": "https://dc.lft.to/lastmile_qr_scan"}, "name": "ed364016f2c749b9b1fb6ec10fcb08dc", "is_reserved": 0}, {"is_disabled": 0, "fusion_lon": 0.0, "fusion_lat": 0.0, "lat": 38.833502333333335, "type": "electric_bike", "lon": -76.965572, "bike_id": "c8cff2e12b45a6ce231547c99f0a3e8c", "rental_uris": {"android": "https://dc.lft.to/lastmile_qr_scan", "ios": "https://dc.lft.to/lastmile_qr_scan"}, "name": "c8cff2e12b45a6ce231547c99f0a3e8c", "is_reserved": 0}, {"is_disabled": 0, "fusion_lon": 0.0, "fusion_lat": 0.0, "lat": 38.90492366666667, "type": "electric_scooter", "lon": -77.029476, "bike_id": "99d4b5ba0d79e5a55ca8ff6d6d3f2291", "rental_uris": {"android": "https://dc.lft.to/lastmile_qr_scan", "ios": "https://dc.lft.to/lastmile_qr_scan"}, "name": "99d4b5ba0d79e5a55ca8ff6d6d3f2291", "is_reserved": 0}, {"is_disabled": 0, "fusion_lon": 0.0, "fusion_lat": 0.0, "lat": 38.94551533333333, "type": "electric_scooter", "lon": -77.04249333333334, "bike_id": "115adeed893b03cf6921d51961521cd1", "rental_uris": {"android": "https://dc.lft.to/lastmile_qr_scan", "ios": "https://dc.lft.to/lastmile_qr_scan"}, "name": "115adeed893b03cf6921d51961521cd1", "is_reserved": 0}, {"is_disabled": 0, "fusion_lon": 0.0, "fusion_lat": 0.0, "lat": 38.873914, "type": "electric_scooter", "lon": -77.0019415, "bike_id": "27c29131a9b22e6edc2a1627a9868e02", "rental_uris": {"android": "https://dc.lft.to/lastmile_qr_scan", "ios": "https://dc.lft.to/lastmile_qr_scan"}, "name": "27c29131a9b22e6edc2a1627a9868e02", "is_reserved": 0}, {"is_disabled": 0, "fusion_lon": 0.0, "fusion_lat": 0.0, "lat": 38.9185755, "type": "electric_bike", "lon": -76.9609135, "bike_id": "4c85bb5eaced0d9da60ea530c18e5983", "rental_uris": {"android": "https://dc.lft.to/lastmile_qr_scan", "ios": "https://dc.lft.to/lastmile_qr_scan"}, "name": "4c85bb5eaced0d9da60ea530c18e5983", "is_reserved": 0}, {"is_disabled": 0, "fusion_lon": 0.0, "fusion_lat": 0.0, "lat": 38.95060766666667, "type": "electric_bike", "lon": -76.967368, "bike_id": "d23e828a3a9b816ec9892cfe55a33c32", "rental_uris": {"android": "https://dc.lft.to/lastmile_qr_scan", "ios": "https://dc.lft.to/lastmile_qr_scan"}, "name": "d23e828a3a9b816ec9892cfe55a33c32", "is_reserved": 0}, {"is_disabled": 0, "fusion_lon": 0.0, "fusion_lat": 0.0, "lat": 38.89237333333333, "type": "electric_scooter", "lon": -77.03180433333333, "bike_id": "c40c338190a957579a05ab49cecb0e11", "rental_uris": {"android": "https://dc.lft.to/lastmile_qr_scan", "ios": "https://dc.lft.to/lastmile_qr_scan"}, "name": "c40c338190a957579a05ab49cecb0e11", "is_reserved": 0}, {"is_disabled": 0, "fusion_lon": 0.0, "fusion_lat": 0.0, "lat": 38.905612833333336, "type": "electric_scooter", "lon": -77.02955733333333, "bike_id": "786aae1433817edc36860e7d4cbc9ec3", "rental_uris": {"android": "https://dc.lft.to/lastmile_qr_scan", "ios": "https://dc.lft.to/lastmile_qr_scan"}, "name": "786aae1433817edc36860e7d4cbc9ec3", "is_reserved": 0}, {"is_disabled": 0, "fusion_lon": 0.0, "fusion_lat": 0.0, "lat": 38.9631205, "type": "electric_bike", "lon": -77.05762333333334, "bike_id": "6b764486498fbcb8af0e75f7b0e3f3a3", "rental_uris": {"android": "https://dc.lft.to/lastmile_qr_scan", "ios": "https://dc.lft.to/lastmile_qr_scan"}, "name": "6b764486498fbcb8af0e75f7b0e3f3a3", "is_reserved": 0}, {"is_disabled": 0, "fusion_lon": 0.0, "fusion_lat": 0.0, "lat": 38.868496666666665, "type": "electric_bike", "lon": -77.09724133333333, "bike_id": "f95fccb8f5c11d22d63a229ed02e141b", "rental_uris": {"android": "https://dc.lft.to/lastmile_qr_scan", "ios": "https://dc.lft.to/lastmile_qr_scan"}, "name": "f95fccb8f5c11d22d63a229ed02e141b", "is_reserved": 0}, {"is_disabled": 0, "fusion_lon": 0.0, "fusion_lat": 0.0, "lat": 38.882515, "type": "electric_scooter", "lon": -77.00340083333333, "bike_id": "712066de7fd488d610bd1c75d1e3a9c7", "rental_uris": {"android": "https://dc.lft.to/lastmile_qr_scan", "ios": "https://dc.lft.to/lastmile_qr_scan"}, "name": "712066de7fd488d610bd1c75d1e3a9c7", "is_reserved": 0}, {"is_disabled": 0, "fusion_lon": 0.0, "fusion_lat": 0.0, "lat": 38.91580016666666, "type": "electric_scooter", "lon": -77.04677483333333, "bike_id": "e3714e5f30de11bca5b0c569b855cdb9", "rental_uris": {"android": "https://dc.lft.to/lastmile_qr_scan", "ios": "https://dc.lft.to/lastmile_qr_scan"}, "name": "e3714e5f30de11bca5b0c569b855cdb9", "is_reserved": 0}, {"is_disabled": 0, "fusion_lon": 0.0, "fusion_lat": 0.0, "lat": 38.95009666666667, "type": "electric_bike", "lon": -77.3530405, "bike_id": "44538fca659ada49cd4dd7c660340972", "rental_uris": {"android": "https://dc.lft.to/lastmile_qr_scan", "ios": "https://dc.lft.to/lastmile_qr_scan"}, "name": "44538fca659ada49cd4dd7c660340972", "is_reserved": 0}, {"is_disabled": 0, "fusion_lon": 0.0, "fusion_lat": 0.0, "lat": 38.897444, "type": "electric_scooter", "lon": -77.04808, "bike_id": "8193c3e039aa9f059661e49d2dec8c55", "rental_uris": {"android": "https://dc.lft.to/lastmile_qr_scan", "ios": "https://dc.lft.to/lastmile_qr_scan"}, "name": "8193c3e039aa9f059661e49d2dec8c55", "is_reserved": 0}, {"is_disabled": 0, "fusion_lon": 0.0, "fusion_lat": 0.0, "lat": 38.9097995, "type": "electric_scooter", "lon": -77.038358, "bike_id": "5e1defed7e1525ed25a11f84f2e1b6b2", "rental_uris": {"android": "https://dc.lft.to/lastmile_qr_scan", "ios": "https://dc.lft.to/lastmile_qr_scan"}, "name": "5e1defed7e1525ed25a11f84f2e1b6b2", "is_reserved": 0}, {"is_disabled": 0, "fusion_lon": 0.0, "fusion_lat": 0.0, "lat": 38.86359566666667, "type": "electric_scooter", "lon": -76.99063466666666, "bike_id": "963728b50a93da92fd4c4da3c6e079dd", "rental_uris": {"android": "https://dc.lft.to/lastmile_qr_scan", "ios": "https://dc.lft.to/lastmile_qr_scan"}, "name": "963728b50a93da92fd4c4da3c6e079dd", "is_reserved": 0}, {"is_disabled": 0, "fusion_lon": 0.0, "fusion_lat": 0.0, "lat": 38.9082415, "type": "electric_scooter", "lon": -77.03356733333334, "bike_id": "395e3edb7affc5deecf55889dc00f2f6", "rental_uris": {"android": "https://dc.lft.to/lastmile_qr_scan", "ios": "https://dc.lft.to/lastmile_qr_scan"}, "name": "395e3edb7affc5deecf55889dc00f2f6", "is_reserved": 0}, {"is_disabled": 0, "fusion_lon": 0.0, "fusion_lat": 0.0, "lat": 38.93004716666667, "type": "electric_scooter", "lon": -77.07843, "bike_id": "ff02f154f391bad818579a7211e38cfa", "rental_uris": {"android": "https://dc.lft.to/lastmile_qr_scan", "ios": "https://dc.lft.to/lastmile_qr_scan"}, "name": "ff02f154f391bad818579a7211e38cfa", "is_reserved": 0}, {"is_disabled": 0, "fusion_lon": 0.0, "fusion_lat": 0.0, "lat": 38.93712933333333, "type": "electric_scooter", "lon": -77.032613, "bike_id": "74c215ff749efbeafa3a47abcfaa11e7", "rental_uris": {"android": "https://dc.lft.to/lastmile_qr_scan", "ios": "https://dc.lft.to/lastmile_qr_scan"}, "name": "74c215ff749efbeafa3a47abcfaa11e7", "is_reserved": 0}, {"is_disabled": 0, "fusion_lon": 0.0, "fusion_lat": 0.0, "lat": 38.9203245, "type": "electric_scooter", "lon": -77.0114225, "bike_id": "aaa09c0c2298c9099cc3a1be99276e7c", "rental_uris": {"android": "https://dc.lft.to/lastmile_qr_scan", "ios": "https://dc.lft.to/lastmile_qr_scan"}, "name": "aaa09c0c2298c9099cc3a1be99276e7c", "is_reserved": 0}, {"is_disabled": 0, "fusion_lon": 0.0, "fusion_lat": 0.0, "lat": 38.86562883333333, "type": "electric_bike", "lon": -76.97311666666667, "bike_id": "f6f2fdcf3d05152c74b1c5997e70937c", "rental_uris": {"android": "https://dc.lft.to/lastmile_qr_scan", "ios": "https://dc.lft.to/lastmile_qr_scan"}, "name": "f6f2fdcf3d05152c74b1c5997e70937c", "is_reserved": 0}, {"is_disabled": 0, "fusion_lon": 0.0, "fusion_lat": 0.0, "lat": 38.90559833333333, "type": "electric_scooter", "lon": -77.0058345, "bike_id": "2204f62bbbb2597f3699b99f30970806", "rental_uris": {"android": "https://dc.lft.to/lastmile_qr_scan", "ios": "https://dc.lft.to/lastmile_qr_scan"}, "name": "2204f62bbbb2597f3699b99f30970806", "is_reserved": 0}, {"is_disabled": 0, "fusion_lon": 0.0, "fusion_lat": 0.0, "lat": 38.904948166666664, "type": "electric_scooter", "lon": -77.02943133333333, "bike_id": "be6aefcab46888c4154b60c440172dde", "rental_uris": {"android": "https://dc.lft.to/lastmile_qr_scan", "ios": "https://dc.lft.to/lastmile_qr_scan"}, "name": "be6aefcab46888c4154b60c440172dde", "is_reserved": 0}, {"is_disabled": 0, "fusion_lon": 0.0, "fusion_lat": 0.0, "lat": 38.926748, "type": "electric_scooter", "lon": -77.032169, "bike_id": "7c9853bc44fb71dc2d47fd4141dfa8a5", "rental_uris": {"android": "https://dc.lft.to/lastmile_qr_scan", "ios": "https://dc.lft.to/lastmile_qr_scan"}, "name": "7c9853bc44fb71dc2d47fd4141dfa8a5", "is_reserved": 0}, {"is_disabled": 0, "fusion_lon": 0.0, "fusion_lat": 0.0, "lat": 38.91765683333333, "type": "electric_scooter", "lon": -77.03431983333333, "bike_id": "30a50100035aed98aef70274046ea592", "rental_uris": {"android": "https://dc.lft.to/lastmile_qr_scan", "ios": "https://dc.lft.to/lastmile_qr_scan"}, "name": "30a50100035aed98aef70274046ea592", "is_reserved": 0}, {"is_disabled": 0, "fusion_lon": 0.0, "fusion_lat": 0.0, "lat": 38.900911666666666, "type": "electric_scooter", "lon": -77.018236, "bike_id": "507b485593e53176c1ea7cdba13329c0", "rental_uris": {"android": "https://dc.lft.to/lastmile_qr_scan", "ios": "https://dc.lft.to/lastmile_qr_scan"}, "name": "507b485593e53176c1ea7cdba13329c0", "is_reserved": 0}, {"is_disabled": 0, "fusion_lon": 0.0, "fusion_lat": 0.0, "lat": 38.90679516666667, "type": "electric_scooter", "lon": -76.97997366666667, "bike_id": "f0e5aa4accf05c87663e65da85c5d55e", "rental_uris": {"android": "https://dc.lft.to/lastmile_qr_scan", "ios": "https://dc.lft.to/lastmile_qr_scan"}, "name": "f0e5aa4accf05c87663e65da85c5d55e", "is_reserved": 0}, {"is_disabled": 0, "fusion_lon": 0.0, "fusion_lat": 0.0, "lat": 38.91042066666667, "type": "electric_scooter", "lon": -77.04010866666667, "bike_id": "2c02a45caa77ae1167372c63bf27b0d9", "rental_uris": {"android": "https://dc.lft.to/lastmile_qr_scan", "ios": "https://dc.lft.to/lastmile_qr_scan"}, "name": "2c02a45caa77ae1167372c63bf27b0d9", "is_reserved": 0}, {"is_disabled": 0, "fusion_lon": 0.0, "fusion_lat": 0.0, "lat": 38.9249125, "type": "electric_scooter", "lon": -77.0393345, "bike_id": "a4be58d88d83d401b72f2fd2c2e6d9cb", "rental_uris": {"android": "https://dc.lft.to/lastmile_qr_scan", "ios": "https://dc.lft.to/lastmile_qr_scan"}, "name": "a4be58d88d83d401b72f2fd2c2e6d9cb", "is_reserved": 0}, {"is_disabled": 0, "fusion_lon": 0.0, "fusion_lat": 0.0, "lat": 38.9048995, "type": "electric_scooter", "lon": -77.02999766666667, "bike_id": "26e78d9473cdfdaeddf708521c3b1fd0", "rental_uris": {"android": "https://dc.lft.to/lastmile_qr_scan", "ios": "https://dc.lft.to/lastmile_qr_scan"}, "name": "26e78d9473cdfdaeddf708521c3b1fd0", "is_reserved": 0}, {"is_disabled": 0, "fusion_lon": 0.0, "fusion_lat": 0.0, "lat": 38.91314766666667, "type": "electric_scooter", "lon": -76.98656266666667, "bike_id": "e081ce48e24c12d34c771676278d4ee7", "rental_uris": {"android": "https://dc.lft.to/lastmile_qr_scan", "ios": "https://dc.lft.to/lastmile_qr_scan"}, "name": "e081ce48e24c12d34c771676278d4ee7", "is_reserved": 0}, {"is_disabled": 0, "fusion_lon": 0.0, "fusion_lat": 0.0, "lat": 38.94204666666667, "type": "electric_scooter", "lon": -77.0259225, "bike_id": "81926546facafcff30e766d85501b124", "rental_uris": {"android": "https://dc.lft.to/lastmile_qr_scan", "ios": "https://dc.lft.to/lastmile_qr_scan"}, "name": "81926546facafcff30e766d85501b124", "is_reserved": 0}, {"is_disabled": 0, "fusion_lon": 0.0, "fusion_lat": 0.0, "lat": 38.9298125, "type": "electric_scooter", "lon": -77.02072916666667, "bike_id": "12acc78d8673b1ce9e1bc7c3aef85d5e", "rental_uris": {"android": "https://dc.lft.to/lastmile_qr_scan", "ios": "https://dc.lft.to/lastmile_qr_scan"}, "name": "12acc78d8673b1ce9e1bc7c3aef85d5e", "is_reserved": 0}, {"is_disabled": 0, "fusion_lon": 0.0, "fusion_lat": 0.0, "lat": 38.902159166666664, "type": "electric_scooter", "lon": -77.023711, "bike_id": "89db9c9cc3cc5c94f73bb1d295979ec9", "rental_uris": {"android": "https://dc.lft.to/lastmile_qr_scan", "ios": "https://dc.lft.to/lastmile_qr_scan"}, "name": "89db9c9cc3cc5c94f73bb1d295979ec9", "is_reserved": 0}, {"is_disabled": 0, "fusion_lon": 0.0, "fusion_lat": 0.0, "lat": 38.92749466666667, "type": "electric_scooter", "lon": -77.01616166666666, "bike_id": "dfea2b8545fb8c9aa581a120d54693ca", "rental_uris": {"android": "https://dc.lft.to/lastmile_qr_scan", "ios": "https://dc.lft.to/lastmile_qr_scan"}, "name": "dfea2b8545fb8c9aa581a120d54693ca", "is_reserved": 0}, {"is_disabled": 0, "fusion_lon": 0.0, "fusion_lat": 0.0, "lat": 38.899819666666666, "type": "electric_scooter", "lon": -77.05278516666667, "bike_id": "791602b9b546e6f6abcd5e0952f4bc0a", "rental_uris": {"android": "https://dc.lft.to/lastmile_qr_scan", "ios": "https://dc.lft.to/lastmile_qr_scan"}, "name": "791602b9b546e6f6abcd5e0952f4bc0a", "is_reserved": 0}, {"is_disabled": 0, "fusion_lon": 0.0, "fusion_lat": 0.0, "lat": 38.90430516666667, "type": "electric_scooter", "lon": -77.02610233333333, "bike_id": "43e5a896fcfa5e42f32e01de6cf169e5", "rental_uris": {"android": "https://dc.lft.to/lastmile_qr_scan", "ios": "https://dc.lft.to/lastmile_qr_scan"}, "name": "43e5a896fcfa5e42f32e01de6cf169e5", "is_reserved": 0}, {"is_disabled": 0, "fusion_lon": 0.0, "fusion_lat": 0.0, "lat": 38.8580735, "type": "electric_scooter", "lon": -76.98654133333334, "bike_id": "f9f8bec4b835cb70f04de0ad7281b83f", "rental_uris": {"android": "https://dc.lft.to/lastmile_qr_scan", "ios": "https://dc.lft.to/lastmile_qr_scan"}, "name": "f9f8bec4b835cb70f04de0ad7281b83f", "is_reserved": 0}, {"is_disabled": 0, "fusion_lon": 0.0, "fusion_lat": 0.0, "lat": 38.90069733333333, "type": "electric_scooter", "lon": -77.048864, "bike_id": "41fe7523381f8be89a5b79c284559d0a", "rental_uris": {"android": "https://dc.lft.to/lastmile_qr_scan", "ios": "https://dc.lft.to/lastmile_qr_scan"}, "name": "41fe7523381f8be89a5b79c284559d0a", "is_reserved": 0}, {"is_disabled": 0, "fusion_lon": 0.0, "fusion_lat": 0.0, "lat": 38.92803833333333, "type": "electric_scooter", "lon": -77.05433333333333, "bike_id": "a518df6034b8a6f4aab710d9a0f660c0", "rental_uris": {"android": "https://dc.lft.to/lastmile_qr_scan", "ios": "https://dc.lft.to/lastmile_qr_scan"}, "name": "a518df6034b8a6f4aab710d9a0f660c0", "is_reserved": 0}, {"is_disabled": 0, "fusion_lon": 0.0, "fusion_lat": 0.0, "lat": 38.915980166666664, "type": "electric_scooter", "lon": -77.02350566666667, "bike_id": "f6d58bf197a5d8bdec51ddae6b09b834", "rental_uris": {"android": "https://dc.lft.to/lastmile_qr_scan", "ios": "https://dc.lft.to/lastmile_qr_scan"}, "name": "f6d58bf197a5d8bdec51ddae6b09b834", "is_reserved": 0}, {"is_disabled": 0, "fusion_lon": 0.0, "fusion_lat": 0.0, "lat": 38.88582666666667, "type": "electric_scooter", "lon": -77.01225833333334, "bike_id": "511d1f470450f562ec0d9cba760bc0d8", "rental_uris": {"android": "https://dc.lft.to/lastmile_qr_scan", "ios": "https://dc.lft.to/lastmile_qr_scan"}, "name": "511d1f470450f562ec0d9cba760bc0d8", "is_reserved": 0}, {"is_disabled": 0, "fusion_lon": 0.0, "fusion_lat": 0.0, "lat": 38.93256066666667, "type": "electric_scooter", "lon": -77.02971166666667, "bike_id": "9e1997908872f44ab78695a2c8a09cda", "rental_uris": {"android": "https://dc.lft.to/lastmile_qr_scan", "ios": "https://dc.lft.to/lastmile_qr_scan"}, "name": "9e1997908872f44ab78695a2c8a09cda", "is_reserved": 0}, {"is_disabled": 0, "fusion_lon": 0.0, "fusion_lat": 0.0, "lat": 38.90335866666667, "type": "electric_bike", "lon": -76.97525666666667, "bike_id": "a69f5df7c0c63f225743c430cadac144", "rental_uris": {"android": "https://dc.lft.to/lastmile_qr_scan", "ios": "https://dc.lft.to/lastmile_qr_scan"}, "name": "a69f5df7c0c63f225743c430cadac144", "is_reserved": 0}, {"is_disabled": 0, "fusion_lon": 0.0, "fusion_lat": 0.0, "lat": 38.9205675, "type": "electric_scooter", "lon": -76.99884866666666, "bike_id": "5a9d3cf09e6e9b1391ef6357e72547e4", "rental_uris": {"android": "https://dc.lft.to/lastmile_qr_scan", "ios": "https://dc.lft.to/lastmile_qr_scan"}, "name": "5a9d3cf09e6e9b1391ef6357e72547e4", "is_reserved": 0}, {"is_disabled": 0, "fusion_lon": 0.0, "fusion_lat": 0.0, "lat": 38.915696, "type": "electric_scooter", "lon": -77.04105183333333, "bike_id": "4142780ce39d8ab360db881fa291b458", "rental_uris": {"android": "https://dc.lft.to/lastmile_qr_scan", "ios": "https://dc.lft.to/lastmile_qr_scan"}, "name": "4142780ce39d8ab360db881fa291b458", "is_reserved": 0}, {"is_disabled": 0, "fusion_lon": 0.0, "fusion_lat": 0.0, "lat": 38.9350155, "type": "electric_scooter", "lon": -77.02718316666666, "bike_id": "65e4f2e00a26b0ce5b52b5eb449cb082", "rental_uris": {"android": "https://dc.lft.to/lastmile_qr_scan", "ios": "https://dc.lft.to/lastmile_qr_scan"}, "name": "65e4f2e00a26b0ce5b52b5eb449cb082", "is_reserved": 0}, {"is_disabled": 0, "fusion_lon": 0.0, "fusion_lat": 0.0, "lat": 38.89822133333333, "type": "electric_scooter", "lon": -77.03353316666667, "bike_id": "ff5761571c3c763370d7c0fadc9ffa53", "rental_uris": {"android": "https://dc.lft.to/lastmile_qr_scan", "ios": "https://dc.lft.to/lastmile_qr_scan"}, "name": "ff5761571c3c763370d7c0fadc9ffa53", "is_reserved": 0}, {"is_disabled": 0, "fusion_lon": 0.0, "fusion_lat": 0.0, "lat": 38.884107, "type": "electric_scooter", "lon": -76.95418783333334, "bike_id": "450eeebd509bad9d4a1b18d9893ace27", "rental_uris": {"android": "https://dc.lft.to/lastmile_qr_scan", "ios": "https://dc.lft.to/lastmile_qr_scan"}, "name": "450eeebd509bad9d4a1b18d9893ace27", "is_reserved": 0}, {"is_disabled": 0, "fusion_lon": 0.0, "fusion_lat": 0.0, "lat": 38.917983, "type": "electric_scooter", "lon": -77.03438983333334, "bike_id": "d566b13287c943ea32e58fc3d1cfe758", "rental_uris": {"android": "https://dc.lft.to/lastmile_qr_scan", "ios": "https://dc.lft.to/lastmile_qr_scan"}, "name": "d566b13287c943ea32e58fc3d1cfe758", "is_reserved": 0}, {"is_disabled": 0, "fusion_lon": 0.0, "fusion_lat": 0.0, "lat": 38.8920985, "type": "electric_scooter", "lon": -76.98806783333333, "bike_id": "92e7dd4e992a456d7d1ef8b4d3faff02", "rental_uris": {"android": "https://dc.lft.to/lastmile_qr_scan", "ios": "https://dc.lft.to/lastmile_qr_scan"}, "name": "92e7dd4e992a456d7d1ef8b4d3faff02", "is_reserved": 0}, {"is_disabled": 0, "fusion_lon": 0.0, "fusion_lat": 0.0, "lat": 38.9134045, "type": "electric_scooter", "lon": -77.03265066666667, "bike_id": "86019058f6a17563c43c0e175214340b", "rental_uris": {"android": "https://dc.lft.to/lastmile_qr_scan", "ios": "https://dc.lft.to/lastmile_qr_scan"}, "name": "86019058f6a17563c43c0e175214340b", "is_reserved": 0}, {"is_disabled": 0, "fusion_lon": 0.0, "fusion_lat": 0.0, "lat": 38.931902666666666, "type": "electric_scooter", "lon": -77.02836416666666, "bike_id": "52d824f53d188c9153e2ca99aafa594f", "rental_uris": {"android": "https://dc.lft.to/lastmile_qr_scan", "ios": "https://dc.lft.to/lastmile_qr_scan"}, "name": "52d824f53d188c9153e2ca99aafa594f", "is_reserved": 0}, {"is_disabled": 0, "fusion_lon": 0.0, "fusion_lat": 0.0, "lat": 39.08842666666666, "type": "electric_bike", "lon": -77.178005, "bike_id": "7bd0a477b228f033eb8b68d686632ac4", "rental_uris": {"android": "https://dc.lft.to/lastmile_qr_scan", "ios": "https://dc.lft.to/lastmile_qr_scan"}, "name": "7bd0a477b228f033eb8b68d686632ac4", "is_reserved": 0}, {"is_disabled": 0, "fusion_lon": 0.0, "fusion_lat": 0.0, "lat": 38.905389166666666, "type": "electric_scooter", "lon": -77.04876616666667, "bike_id": "e4d3925ed37e2545b3d51a60c4136554", "rental_uris": {"android": "https://dc.lft.to/lastmile_qr_scan", "ios": "https://dc.lft.to/lastmile_qr_scan"}, "name": "e4d3925ed37e2545b3d51a60c4136554", "is_reserved": 0}, {"is_disabled": 0, "fusion_lon": 0.0, "fusion_lat": 0.0, "lat": 38.91481533333334, "type": "electric_scooter", "lon": -77.034694, "bike_id": "bfe1f537e782cf75043c7dde45f8307c", "rental_uris": {"android": "https://dc.lft.to/lastmile_qr_scan", "ios": "https://dc.lft.to/lastmile_qr_scan"}, "name": "bfe1f537e782cf75043c7dde45f8307c", "is_reserved": 0}, {"is_disabled": 0, "fusion_lon": 0.0, "fusion_lat": 0.0, "lat": 38.918065, "type": "electric_scooter", "lon": -77.03198766666667, "bike_id": "4da2219507401ed535b9feb2120c644d", "rental_uris": {"android": "https://dc.lft.to/lastmile_qr_scan", "ios": "https://dc.lft.to/lastmile_qr_scan"}, "name": "4da2219507401ed535b9feb2120c644d", "is_reserved": 0}, {"is_disabled": 0, "fusion_lon": 0.0, "fusion_lat": 0.0, "lat": 38.9041555, "type": "electric_scooter", "lon": -77.04068433333333, "bike_id": "c2e20a266b381ee463ea3e773e904d42", "rental_uris": {"android": "https://dc.lft.to/lastmile_qr_scan", "ios": "https://dc.lft.to/lastmile_qr_scan"}, "name": "c2e20a266b381ee463ea3e773e904d42", "is_reserved": 0}, {"is_disabled": 0, "fusion_lon": 0.0, "fusion_lat": 0.0, "lat": 38.91753116666667, "type": "electric_scooter", "lon": -77.0280815, "bike_id": "2e40a95f427b5c02dda9224ba4315688", "rental_uris": {"android": "https://dc.lft.to/lastmile_qr_scan", "ios": "https://dc.lft.to/lastmile_qr_scan"}, "name": "2e40a95f427b5c02dda9224ba4315688", "is_reserved": 0}, {"is_disabled": 0, "fusion_lon": 0.0, "fusion_lat": 0.0, "lat": 38.9322605, "type": "electric_scooter", "lon": -76.99489066666666, "bike_id": "db997e798ed460f8a43bdb9b0604048c", "rental_uris": {"android": "https://dc.lft.to/lastmile_qr_scan", "ios": "https://dc.lft.to/lastmile_qr_scan"}, "name": "db997e798ed460f8a43bdb9b0604048c", "is_reserved": 0}, {"is_disabled": 0, "fusion_lon": 0.0, "fusion_lat": 0.0, "lat": 38.97261316666667, "type": "electric_bike", "lon": -76.99169366666666, "bike_id": "861ca37e7349fb65c218347c19ae1867", "rental_uris": {"android": "https://dc.lft.to/lastmile_qr_scan", "ios": "https://dc.lft.to/lastmile_qr_scan"}, "name": "861ca37e7349fb65c218347c19ae1867", "is_reserved": 0}, {"is_disabled": 0, "fusion_lon": 0.0, "fusion_lat": 0.0, "lat": 38.934703166666665, "type": "electric_scooter", "lon": -77.06885483333333, "bike_id": "cc0474900c228096fbc1117b70be54c8", "rental_uris": {"android": "https://dc.lft.to/lastmile_qr_scan", "ios": "https://dc.lft.to/lastmile_qr_scan"}, "name": "cc0474900c228096fbc1117b70be54c8", "is_reserved": 0}, {"is_disabled": 0, "fusion_lon": 0.0, "fusion_lat": 0.0, "lat": 38.89740066666667, "type": "electric_scooter", "lon": -77.00999366666667, "bike_id": "8c25ca5204397efe9ba7d2e0be1815d0", "rental_uris": {"android": "https://dc.lft.to/lastmile_qr_scan", "ios": "https://dc.lft.to/lastmile_qr_scan"}, "name": "8c25ca5204397efe9ba7d2e0be1815d0", "is_reserved": 0}, {"is_disabled": 0, "fusion_lon": 0.0, "fusion_lat": 0.0, "lat": 38.918016333333334, "type": "electric_scooter", "lon": -77.03445683333334, "bike_id": "0909d3b0cb85791d96a24b62e59cef30", "rental_uris": {"android": "https://dc.lft.to/lastmile_qr_scan", "ios": "https://dc.lft.to/lastmile_qr_scan"}, "name": "0909d3b0cb85791d96a24b62e59cef30", "is_reserved": 0}, {"is_disabled": 0, "fusion_lon": 0.0, "fusion_lat": 0.0, "lat": 38.8127035, "type": "electric_bike", "lon": -77.06178983333334, "bike_id": "217db7aab1b5c45a5e7c68482d43a2db", "rental_uris": {"android": "https://dc.lft.to/lastmile_qr_scan", "ios": "https://dc.lft.to/lastmile_qr_scan"}, "name": "217db7aab1b5c45a5e7c68482d43a2db", "is_reserved": 0}, {"is_disabled": 0, "fusion_lon": 0.0, "fusion_lat": 0.0, "lat": 38.8393935, "type": "electric_bike", "lon": -77.07901566666666, "bike_id": "1072480d4cd3d6ff02b7a9bdc3f5dda6", "rental_uris": {"android": "https://dc.lft.to/lastmile_qr_scan", "ios": "https://dc.lft.to/lastmile_qr_scan"}, "name": "1072480d4cd3d6ff02b7a9bdc3f5dda6", "is_reserved": 0}, {"is_disabled": 0, "fusion_lon": 0.0, "fusion_lat": 0.0, "lat": 38.92200866666667, "type": "electric_scooter", "lon": -76.99697883333333, "bike_id": "37b29dc4a68f6452357ece6f0c22b71c", "rental_uris": {"android": "https://dc.lft.to/lastmile_qr_scan", "ios": "https://dc.lft.to/lastmile_qr_scan"}, "name": "37b29dc4a68f6452357ece6f0c22b71c", "is_reserved": 0}, {"is_disabled": 0, "fusion_lon": 0.0, "fusion_lat": 0.0, "lat": 38.90415933333333, "type": "electric_scooter", "lon": -76.99064266666667, "bike_id": "74c57381d93f0c13b6d0451ec920a2de", "rental_uris": {"android": "https://dc.lft.to/lastmile_qr_scan", "ios": "https://dc.lft.to/lastmile_qr_scan"}, "name": "74c57381d93f0c13b6d0451ec920a2de", "is_reserved": 0}, {"is_disabled": 0, "fusion_lon": 0.0, "fusion_lat": 0.0, "lat": 38.90529566666667, "type": "electric_scooter", "lon": -77.04896566666666, "bike_id": "977f8462e88068b338c0edf93f31461a", "rental_uris": {"android": "https://dc.lft.to/lastmile_qr_scan", "ios": "https://dc.lft.to/lastmile_qr_scan"}, "name": "977f8462e88068b338c0edf93f31461a", "is_reserved": 0}, {"is_disabled": 0, "fusion_lon": 0.0, "fusion_lat": 0.0, "lat": 38.911202333333335, "type": "electric_scooter", "lon": -77.02237866666667, "bike_id": "6fb34c0e8482486c53a1c8391876711d", "rental_uris": {"android": "https://dc.lft.to/lastmile_qr_scan", "ios": "https://dc.lft.to/lastmile_qr_scan"}, "name": "6fb34c0e8482486c53a1c8391876711d", "is_reserved": 0}, {"is_disabled": 0, "fusion_lon": 0.0, "fusion_lat": 0.0, "lat": 38.94199166666667, "type": "electric_scooter", "lon": -77.02576566666667, "bike_id": "711a85b27b72edb11d1e79ddef9b9211", "rental_uris": {"android": "https://dc.lft.to/lastmile_qr_scan", "ios": "https://dc.lft.to/lastmile_qr_scan"}, "name": "711a85b27b72edb11d1e79ddef9b9211", "is_reserved": 0}, {"is_disabled": 0, "fusion_lon": 0.0, "fusion_lat": 0.0, "lat": 39.000090666666665, "type": "electric_bike", "lon": -76.9179975, "bike_id": "7a50912d234975a1e47d1ca2750cf0c8", "rental_uris": {"android": "https://dc.lft.to/lastmile_qr_scan", "ios": "https://dc.lft.to/lastmile_qr_scan"}, "name": "7a50912d234975a1e47d1ca2750cf0c8", "is_reserved": 0}, {"is_disabled": 0, "fusion_lon": 0.0, "fusion_lat": 0.0, "lat": 38.933213333333335, "type": "electric_scooter", "lon": -77.0292525, "bike_id": "5732f276867a0d1ab21e8d1e7f031b5b", "rental_uris": {"android": "https://dc.lft.to/lastmile_qr_scan", "ios": "https://dc.lft.to/lastmile_qr_scan"}, "name": "5732f276867a0d1ab21e8d1e7f031b5b", "is_reserved": 0}, {"is_disabled": 0, "fusion_lon": 0.0, "fusion_lat": 0.0, "lat": 38.914780666666665, "type": "electric_scooter", "lon": -77.0035075, "bike_id": "86d51b18e6de6ada7ed74d0af4adc8f1", "rental_uris": {"android": "https://dc.lft.to/lastmile_qr_scan", "ios": "https://dc.lft.to/lastmile_qr_scan"}, "name": "86d51b18e6de6ada7ed74d0af4adc8f1", "is_reserved": 0}, {"is_disabled": 0, "fusion_lon": 0.0, "fusion_lat": 0.0, "lat": 38.931913333333334, "type": "electric_bike", "lon": -77.2294025, "bike_id": "934b46e8d32156193a49fb0f560a553f", "rental_uris": {"android": "https://dc.lft.to/lastmile_qr_scan", "ios": "https://dc.lft.to/lastmile_qr_scan"}, "name": "934b46e8d32156193a49fb0f560a553f", "is_reserved": 0}, {"is_disabled": 0, "fusion_lon": 0.0, "fusion_lat": 0.0, "lat": 38.91753283333333, "type": "electric_scooter", "lon": -77.02490483333334, "bike_id": "9c53d4482350e2e4734037c09e413d87", "rental_uris": {"android": "https://dc.lft.to/lastmile_qr_scan", "ios": "https://dc.lft.to/lastmile_qr_scan"}, "name": "9c53d4482350e2e4734037c09e413d87", "is_reserved": 0}, {"is_disabled": 0, "fusion_lon": 0.0, "fusion_lat": 0.0, "lat": 38.9527465, "type": "electric_bike", "lon": -77.06981716666667, "bike_id": "920456fd8e306d3e8db79227c446d483", "rental_uris": {"android": "https://dc.lft.to/lastmile_qr_scan", "ios": "https://dc.lft.to/lastmile_qr_scan"}, "name": "920456fd8e306d3e8db79227c446d483", "is_reserved": 0}, {"is_disabled": 0, "fusion_lon": 0.0, "fusion_lat": 0.0, "lat": 38.992548166666666, "type": "electric_bike", "lon": -77.04995933333333, "bike_id": "835e4857368c98c5ea5a952690944107", "rental_uris": {"android": "https://dc.lft.to/lastmile_qr_scan", "ios": "https://dc.lft.to/lastmile_qr_scan"}, "name": "835e4857368c98c5ea5a952690944107", "is_reserved": 0}, {"is_disabled": 0, "fusion_lon": 0.0, "fusion_lat": 0.0, "lat": 38.90973483333333, "type": "electric_scooter", "lon": -77.02174233333334, "bike_id": "83c72fdc9860b001201a1996fd4d99a7", "rental_uris": {"android": "https://dc.lft.to/lastmile_qr_scan", "ios": "https://dc.lft.to/lastmile_qr_scan"}, "name": "83c72fdc9860b001201a1996fd4d99a7", "is_reserved": 0}, {"is_disabled": 0, "fusion_lon": 0.0, "fusion_lat": 0.0, "lat": 38.9508205, "type": "electric_scooter", "lon": -77.02874366666667, "bike_id": "b396643054438569bf11ef40bc311dd6", "rental_uris": {"android": "https://dc.lft.to/lastmile_qr_scan", "ios": "https://dc.lft.to/lastmile_qr_scan"}, "name": "b396643054438569bf11ef40bc311dd6", "is_reserved": 0}, {"is_disabled": 0, "fusion_lon": 0.0, "fusion_lat": 0.0, "lat": 38.8686235, "type": "electric_bike", "lon": -76.91659033333333, "bike_id": "aea4b2778bec1ed72da2daba8b8c7b02", "rental_uris": {"android": "https://dc.lft.to/lastmile_qr_scan", "ios": "https://dc.lft.to/lastmile_qr_scan"}, "name": "aea4b2778bec1ed72da2daba8b8c7b02", "is_reserved": 0}, {"is_disabled": 0, "fusion_lon": 0.0, "fusion_lat": 0.0, "lat": 38.924805666666664, "type": "electric_scooter", "lon": -77.0300015, "bike_id": "202e0b6dd654644a27d456d796a00dae", "rental_uris": {"android": "https://dc.lft.to/lastmile_qr_scan", "ios": "https://dc.lft.to/lastmile_qr_scan"}, "name": "202e0b6dd654644a27d456d796a00dae", "is_reserved": 0}, {"is_disabled": 0, "fusion_lon": 0.0, "fusion_lat": 0.0, "lat": 38.918069333333335, "type": "electric_scooter", "lon": -77.0356725, "bike_id": "32274a6571335fa4c2640d287b27df35", "rental_uris": {"android": "https://dc.lft.to/lastmile_qr_scan", "ios": "https://dc.lft.to/lastmile_qr_scan"}, "name": "32274a6571335fa4c2640d287b27df35", "is_reserved": 0}, {"is_disabled": 0, "fusion_lon": 0.0, "fusion_lat": 0.0, "lat": 38.8030175, "type": "electric_bike", "lon": -77.0399065, "bike_id": "c5f958ebf1f1371fbc3ea8558df7b8bf", "rental_uris": {"android": "https://dc.lft.to/lastmile_qr_scan", "ios": "https://dc.lft.to/lastmile_qr_scan"}, "name": "c5f958ebf1f1371fbc3ea8558df7b8bf", "is_reserved": 0}, {"is_disabled": 0, "fusion_lon": 0.0, "fusion_lat": 0.0, "lat": 38.913184666666666, "type": "electric_scooter", "lon": -77.03662683333333, "bike_id": "139fba1ec4336c706fe873c536dc3fe8", "rental_uris": {"android": "https://dc.lft.to/lastmile_qr_scan", "ios": "https://dc.lft.to/lastmile_qr_scan"}, "name": "139fba1ec4336c706fe873c536dc3fe8", "is_reserved": 0}, {"is_disabled": 0, "fusion_lon": 0.0, "fusion_lat": 0.0, "lat": 38.9203065, "type": "electric_scooter", "lon": -77.01907966666667, "bike_id": "0a32a71548a5c426d4454ca236ee06f4", "rental_uris": {"android": "https://dc.lft.to/lastmile_qr_scan", "ios": "https://dc.lft.to/lastmile_qr_scan"}, "name": "0a32a71548a5c426d4454ca236ee06f4", "is_reserved": 0}, {"is_disabled": 0, "fusion_lon": 0.0, "fusion_lat": 0.0, "lat": 38.93485283333333, "type": "electric_scooter", "lon": -77.02396783333333, "bike_id": "9e492e6f98a9cc4b286385b1131ee509", "rental_uris": {"android": "https://dc.lft.to/lastmile_qr_scan", "ios": "https://dc.lft.to/lastmile_qr_scan"}, "name": "9e492e6f98a9cc4b286385b1131ee509", "is_reserved": 0}, {"is_disabled": 0, "fusion_lon": 0.0, "fusion_lat": 0.0, "lat": 38.887424333333335, "type": "electric_scooter", "lon": -77.0153185, "bike_id": "3849a11cab541daaa8a19d17e389aa2f", "rental_uris": {"android": "https://dc.lft.to/lastmile_qr_scan", "ios": "https://dc.lft.to/lastmile_qr_scan"}, "name": "3849a11cab541daaa8a19d17e389aa2f", "is_reserved": 0}, {"is_disabled": 0, "fusion_lon": 0.0, "fusion_lat": 0.0, "lat": 38.9195305, "type": "electric_scooter", "lon": -77.0139655, "bike_id": "1640c5bb4941da8729a530b19b6bc24d", "rental_uris": {"android": "https://dc.lft.to/lastmile_qr_scan", "ios": "https://dc.lft.to/lastmile_qr_scan"}, "name": "1640c5bb4941da8729a530b19b6bc24d", "is_reserved": 0}, {"is_disabled": 0, "fusion_lon": 0.0, "fusion_lat": 0.0, "lat": 38.922587166666666, "type": "electric_scooter", "lon": -77.03296466666667, "bike_id": "4eeb9cbedbc1525fbe8bb393aefefd15", "rental_uris": {"android": "https://dc.lft.to/lastmile_qr_scan", "ios": "https://dc.lft.to/lastmile_qr_scan"}, "name": "4eeb9cbedbc1525fbe8bb393aefefd15", "is_reserved": 0}, {"is_disabled": 0, "fusion_lon": 0.0, "fusion_lat": 0.0, "lat": 38.917113, "type": "electric_scooter", "lon": -77.02882433333333, "bike_id": "512f2f31a8e01e57a7e507478bccecd7", "rental_uris": {"android": "https://dc.lft.to/lastmile_qr_scan", "ios": "https://dc.lft.to/lastmile_qr_scan"}, "name": "512f2f31a8e01e57a7e507478bccecd7", "is_reserved": 0}, {"is_disabled": 0, "fusion_lon": 0.0, "fusion_lat": 0.0, "lat": 38.8813155, "type": "electric_scooter", "lon": -77.0207965, "bike_id": "73b88cde4507939c26fa6e73fb46d158", "rental_uris": {"android": "https://dc.lft.to/lastmile_qr_scan", "ios": "https://dc.lft.to/lastmile_qr_scan"}, "name": "73b88cde4507939c26fa6e73fb46d158", "is_reserved": 0}, {"is_disabled": 0, "fusion_lon": 0.0, "fusion_lat": 0.0, "lat": 38.917896666666664, "type": "electric_scooter", "lon": -77.04369733333333, "bike_id": "a54f7c05e32709168f71b68f333f7ff3", "rental_uris": {"android": "https://dc.lft.to/lastmile_qr_scan", "ios": "https://dc.lft.to/lastmile_qr_scan"}, "name": "a54f7c05e32709168f71b68f333f7ff3", "is_reserved": 0}, {"is_disabled": 0, "fusion_lon": 0.0, "fusion_lat": 0.0, "lat": 38.884172666666664, "type": "electric_scooter", "lon": -77.03303616666666, "bike_id": "579ef50f89f68ab0b8d2a5b5473a51bf", "rental_uris": {"android": "https://dc.lft.to/lastmile_qr_scan", "ios": "https://dc.lft.to/lastmile_qr_scan"}, "name": "579ef50f89f68ab0b8d2a5b5473a51bf", "is_reserved": 0}, {"is_disabled": 0, "fusion_lon": 0.0, "fusion_lat": 0.0, "lat": 38.99076216666667, "type": "electric_bike", "lon": -77.02382366666667, "bike_id": "9f24dc9b16c2318191338627c8eb07b8", "rental_uris": {"android": "https://dc.lft.to/lastmile_qr_scan", "ios": "https://dc.lft.to/lastmile_qr_scan"}, "name": "9f24dc9b16c2318191338627c8eb07b8", "is_reserved": 0}, {"is_disabled": 0, "fusion_lon": 0.0, "fusion_lat": 0.0, "lat": 38.906521, "type": "electric_scooter", "lon": -77.0271915, "bike_id": "58b994fbf8eb46c7bb2b7ee639b1150b", "rental_uris": {"android": "https://dc.lft.to/lastmile_qr_scan", "ios": "https://dc.lft.to/lastmile_qr_scan"}, "name": "58b994fbf8eb46c7bb2b7ee639b1150b", "is_reserved": 0}, {"is_disabled": 0, "fusion_lon": 0.0, "fusion_lat": 0.0, "lat": 38.897462166666664, "type": "electric_scooter", "lon": -77.02668633333333, "bike_id": "c106491faabca4bb32525e1094790a1a", "rental_uris": {"android": "https://dc.lft.to/lastmile_qr_scan", "ios": "https://dc.lft.to/lastmile_qr_scan"}, "name": "c106491faabca4bb32525e1094790a1a", "is_reserved": 0}, {"is_disabled": 0, "fusion_lon": 0.0, "fusion_lat": 0.0, "lat": 38.92354683333333, "type": "electric_bike", "lon": -76.99247666666666, "bike_id": "59633edc39966750706c3a71888a3b23", "rental_uris": {"android": "https://dc.lft.to/lastmile_qr_scan", "ios": "https://dc.lft.to/lastmile_qr_scan"}, "name": "59633edc39966750706c3a71888a3b23", "is_reserved": 0}, {"is_disabled": 0, "fusion_lon": 0.0, "fusion_lat": 0.0, "lat": 38.8666235, "type": "electric_scooter", "lon": -76.98884883333334, "bike_id": "8517d70b87c83834550ef9936d586a3f", "rental_uris": {"android": "https://dc.lft.to/lastmile_qr_scan", "ios": "https://dc.lft.to/lastmile_qr_scan"}, "name": "8517d70b87c83834550ef9936d586a3f", "is_reserved": 0}, {"is_disabled": 0, "fusion_lon": 0.0, "fusion_lat": 0.0, "lat": 38.903521166666664, "type": "electric_scooter", "lon": -77.02204233333333, "bike_id": "7c1657a9f53068b7425f484ed4bf47f4", "rental_uris": {"android": "https://dc.lft.to/lastmile_qr_scan", "ios": "https://dc.lft.to/lastmile_qr_scan"}, "name": "7c1657a9f53068b7425f484ed4bf47f4", "is_reserved": 0}, {"is_disabled": 0, "fusion_lon": 0.0, "fusion_lat": 0.0, "lat": 38.90978416666667, "type": "electric_bike", "lon": -77.088318, "bike_id": "213511f0e99285bec0254e9edae9f374", "rental_uris": {"android": "https://dc.lft.to/lastmile_qr_scan", "ios": "https://dc.lft.to/lastmile_qr_scan"}, "name": "213511f0e99285bec0254e9edae9f374", "is_reserved": 0}, {"is_disabled": 0, "fusion_lon": 0.0, "fusion_lat": 0.0, "lat": 38.92043666666667, "type": "electric_scooter", "lon": -77.0481865, "bike_id": "1d99598b3ef42b385ec7b0a2b5e56ef9", "rental_uris": {"android": "https://dc.lft.to/lastmile_qr_scan", "ios": "https://dc.lft.to/lastmile_qr_scan"}, "name": "1d99598b3ef42b385ec7b0a2b5e56ef9", "is_reserved": 0}, {"is_disabled": 0, "fusion_lon": 0.0, "fusion_lat": 0.0, "lat": 38.892134, "type": "electric_bike", "lon": -76.98555316666666, "bike_id": "2bfcbbf958bfd1b59a8186a555d28176", "rental_uris": {"android": "https://dc.lft.to/lastmile_qr_scan", "ios": "https://dc.lft.to/lastmile_qr_scan"}, "name": "2bfcbbf958bfd1b59a8186a555d28176", "is_reserved": 0}, {"is_disabled": 0, "fusion_lon": 0.0, "fusion_lat": 0.0, "lat": 38.8665865, "type": "electric_scooter", "lon": -76.98888383333333, "bike_id": "7dfa75af14f83906d7603f249160e565", "rental_uris": {"android": "https://dc.lft.to/lastmile_qr_scan", "ios": "https://dc.lft.to/lastmile_qr_scan"}, "name": "7dfa75af14f83906d7603f249160e565", "is_reserved": 0}, {"is_disabled": 0, "fusion_lon": 0.0, "fusion_lat": 0.0, "lat": 38.917186666666666, "type": "electric_bike", "lon": -77.2210595, "bike_id": "e235426bcb00a5122f5924e720bfaeb3", "rental_uris": {"android": "https://dc.lft.to/lastmile_qr_scan", "ios": "https://dc.lft.to/lastmile_qr_scan"}, "name": "e235426bcb00a5122f5924e720bfaeb3", "is_reserved": 0}, {"is_disabled": 0, "fusion_lon": 0.0, "fusion_lat": 0.0, "lat": 39.03884216666667, "type": "electric_bike", "lon": -77.1091135, "bike_id": "efabac4d2f66cfce9b2c0f4e50913e27", "rental_uris": {"android": "https://dc.lft.to/lastmile_qr_scan", "ios": "https://dc.lft.to/lastmile_qr_scan"}, "name": "efabac4d2f66cfce9b2c0f4e50913e27", "is_reserved": 0}, {"is_disabled": 0, "fusion_lon": 0.0, "fusion_lat": 0.0, "lat": 38.93669716666667, "type": "electric_bike", "lon": -76.95206166666667, "bike_id": "24dec0a89efcc819818fff3a4bcbbaa7", "rental_uris": {"android": "https://dc.lft.to/lastmile_qr_scan", "ios": "https://dc.lft.to/lastmile_qr_scan"}, "name": "24dec0a89efcc819818fff3a4bcbbaa7", "is_reserved": 0}, {"is_disabled": 0, "fusion_lon": 0.0, "fusion_lat": 0.0, "lat": 38.8973855, "type": "electric_scooter", "lon": -77.00367416666667, "bike_id": "cd3c9fa16b725ae667ab60057e1e81c0", "rental_uris": {"android": "https://dc.lft.to/lastmile_qr_scan", "ios": "https://dc.lft.to/lastmile_qr_scan"}, "name": "cd3c9fa16b725ae667ab60057e1e81c0", "is_reserved": 0}, {"is_disabled": 0, "fusion_lon": 0.0, "fusion_lat": 0.0, "lat": 38.93857583333333, "type": "electric_scooter", "lon": -77.02654366666667, "bike_id": "7e036fb4234c76b31733ca2cf3aa8052", "rental_uris": {"android": "https://dc.lft.to/lastmile_qr_scan", "ios": "https://dc.lft.to/lastmile_qr_scan"}, "name": "7e036fb4234c76b31733ca2cf3aa8052", "is_reserved": 0}, {"is_disabled": 0, "fusion_lon": 0.0, "fusion_lat": 0.0, "lat": 38.95605483333333, "type": "electric_scooter", "lon": -77.02791466666666, "bike_id": "461cfc3ed8a9897be7efa004c0e528e7", "rental_uris": {"android": "https://dc.lft.to/lastmile_qr_scan", "ios": "https://dc.lft.to/lastmile_qr_scan"}, "name": "461cfc3ed8a9897be7efa004c0e528e7", "is_reserved": 0}, {"is_disabled": 0, "fusion_lon": 0.0, "fusion_lat": 0.0, "lat": 38.87654033333333, "type": "electric_scooter", "lon": -77.00804816666667, "bike_id": "f99a962b522b3e876ec4c2001b3f54b6", "rental_uris": {"android": "https://dc.lft.to/lastmile_qr_scan", "ios": "https://dc.lft.to/lastmile_qr_scan"}, "name": "f99a962b522b3e876ec4c2001b3f54b6", "is_reserved": 0}, {"is_disabled": 0, "fusion_lon": 0.0, "fusion_lat": 0.0, "lat": 38.898288666666666, "type": "electric_scooter", "lon": -77.02937283333333, "bike_id": "55aa712e993f52b8307f7d4ea13c11d3", "rental_uris": {"android": "https://dc.lft.to/lastmile_qr_scan", "ios": "https://dc.lft.to/lastmile_qr_scan"}, "name": "55aa712e993f52b8307f7d4ea13c11d3", "is_reserved": 0}, {"is_disabled": 0, "fusion_lon": 0.0, "fusion_lat": 0.0, "lat": 38.9153225, "type": "electric_scooter", "lon": -77.021833, "bike_id": "c3e507a6e269bf37617c18fdc99b58c1", "rental_uris": {"android": "https://dc.lft.to/lastmile_qr_scan", "ios": "https://dc.lft.to/lastmile_qr_scan"}, "name": "c3e507a6e269bf37617c18fdc99b58c1", "is_reserved": 0}, {"is_disabled": 0, "fusion_lon": 0.0, "fusion_lat": 0.0, "lat": 39.054579333333336, "type": "electric_bike", "lon": -77.14327216666666, "bike_id": "33192e7d26cf4f3d8d78d8300b136dd0", "rental_uris": {"android": "https://dc.lft.to/lastmile_qr_scan", "ios": "https://dc.lft.to/lastmile_qr_scan"}, "name": "33192e7d26cf4f3d8d78d8300b136dd0", "is_reserved": 0}, {"is_disabled": 0, "fusion_lon": 0.0, "fusion_lat": 0.0, "lat": 38.9103685, "type": "electric_scooter", "lon": -77.0380115, "bike_id": "8d35f432e93821edadbd3e0f6a3cbd3d", "rental_uris": {"android": "https://dc.lft.to/lastmile_qr_scan", "ios": "https://dc.lft.to/lastmile_qr_scan"}, "name": "8d35f432e93821edadbd3e0f6a3cbd3d", "is_reserved": 0}, {"is_disabled": 0, "fusion_lon": 0.0, "fusion_lat": 0.0, "lat": 38.928435666666665, "type": "electric_scooter", "lon": -77.0554775, "bike_id": "673a6b8730272165936e9285a54b6944", "rental_uris": {"android": "https://dc.lft.to/lastmile_qr_scan", "ios": "https://dc.lft.to/lastmile_qr_scan"}, "name": "673a6b8730272165936e9285a54b6944", "is_reserved": 0}, {"is_disabled": 0, "fusion_lon": 0.0, "fusion_lat": 0.0, "lat": 38.868118, "type": "electric_scooter", "lon": -77.01178133333333, "bike_id": "675a455f6c55996c68a91cdcdb899bd8", "rental_uris": {"android": "https://dc.lft.to/lastmile_qr_scan", "ios": "https://dc.lft.to/lastmile_qr_scan"}, "name": "675a455f6c55996c68a91cdcdb899bd8", "is_reserved": 0}, {"is_disabled": 0, "fusion_lon": 0.0, "fusion_lat": 0.0, "lat": 38.945976333333334, "type": "electric_bike", "lon": -77.34416316666666, "bike_id": "ee1d44fd38d4c082113d2da059590db8", "rental_uris": {"android": "https://dc.lft.to/lastmile_qr_scan", "ios": "https://dc.lft.to/lastmile_qr_scan"}, "name": "ee1d44fd38d4c082113d2da059590db8", "is_reserved": 0}, {"is_disabled": 0, "fusion_lon": 0.0, "fusion_lat": 0.0, "lat": 38.89740533333333, "type": "electric_scooter", "lon": -77.04719716666666, "bike_id": "c6c43dbcbddd1279579fe6469dc82611", "rental_uris": {"android": "https://dc.lft.to/lastmile_qr_scan", "ios": "https://dc.lft.to/lastmile_qr_scan"}, "name": "c6c43dbcbddd1279579fe6469dc82611", "is_reserved": 0}, {"is_disabled": 0, "fusion_lon": 0.0, "fusion_lat": 0.0, "lat": 38.776234, "type": "electric_bike", "lon": -77.083538, "bike_id": "ac4aab20d44e7eab23755a3baf4c7f7e", "rental_uris": {"android": "https://dc.lft.to/lastmile_qr_scan", "ios": "https://dc.lft.to/lastmile_qr_scan"}, "name": "ac4aab20d44e7eab23755a3baf4c7f7e", "is_reserved": 0}, {"is_disabled": 0, "fusion_lon": 0.0, "fusion_lat": 0.0, "lat": 38.89836066666667, "type": "electric_scooter", "lon": -77.02158316666667, "bike_id": "53cd01faaacdd80a09ae51757a23de80", "rental_uris": {"android": "https://dc.lft.to/lastmile_qr_scan", "ios": "https://dc.lft.to/lastmile_qr_scan"}, "name": "53cd01faaacdd80a09ae51757a23de80", "is_reserved": 0}, {"is_disabled": 0, "fusion_lon": 0.0, "fusion_lat": 0.0, "lat": 38.926561666666665, "type": "electric_bike", "lon": -76.9975155, "bike_id": "584f9e625702a122decb170f40aff30e", "rental_uris": {"android": "https://dc.lft.to/lastmile_qr_scan", "ios": "https://dc.lft.to/lastmile_qr_scan"}, "name": "584f9e625702a122decb170f40aff30e", "is_reserved": 0}, {"is_disabled": 0, "fusion_lon": 0.0, "fusion_lat": 0.0, "lat": 38.88853666666667, "type": "electric_bike", "lon": -76.97705816666667, "bike_id": "fd4f17d513307821251994a90ebcdbab", "rental_uris": {"android": "https://dc.lft.to/lastmile_qr_scan", "ios": "https://dc.lft.to/lastmile_qr_scan"}, "name": "fd4f17d513307821251994a90ebcdbab", "is_reserved": 0}, {"is_disabled": 0, "fusion_lon": 0.0, "fusion_lat": 0.0, "lat": 38.908512, "type": "electric_scooter", "lon": -77.05506683333333, "bike_id": "9f7bceef773f0c9e33d8e9c9b6951673", "rental_uris": {"android": "https://dc.lft.to/lastmile_qr_scan", "ios": "https://dc.lft.to/lastmile_qr_scan"}, "name": "9f7bceef773f0c9e33d8e9c9b6951673", "is_reserved": 0}, {"is_disabled": 0, "fusion_lon": 0.0, "fusion_lat": 0.0, "lat": 38.89821766666667, "type": "electric_scooter", "lon": -77.02959483333333, "bike_id": "3d2636d8336bf651bf32b5d6a2b31374", "rental_uris": {"android": "https://dc.lft.to/lastmile_qr_scan", "ios": "https://dc.lft.to/lastmile_qr_scan"}, "name": "3d2636d8336bf651bf32b5d6a2b31374", "is_reserved": 0}, {"is_disabled": 0, "fusion_lon": 0.0, "fusion_lat": 0.0, "lat": 38.887462666666664, "type": "electric_scooter", "lon": -77.01429333333333, "bike_id": "6c8f4ab10dc35dca39915827f3c0652b", "rental_uris": {"android": "https://dc.lft.to/lastmile_qr_scan", "ios": "https://dc.lft.to/lastmile_qr_scan"}, "name": "6c8f4ab10dc35dca39915827f3c0652b", "is_reserved": 0}, {"is_disabled": 0, "fusion_lon": 0.0, "fusion_lat": 0.0, "lat": 38.889581, "type": "electric_scooter", "lon": -76.99143866666667, "bike_id": "9a2ea35042466d12bff1870dd0219406", "rental_uris": {"android": "https://dc.lft.to/lastmile_qr_scan", "ios": "https://dc.lft.to/lastmile_qr_scan"}, "name": "9a2ea35042466d12bff1870dd0219406", "is_reserved": 0}, {"is_disabled": 0, "fusion_lon": 0.0, "fusion_lat": 0.0, "lat": 38.917654666666664, "type": "electric_scooter", "lon": -77.03194083333334, "bike_id": "e2f87c9388632cfd80b6439d2dea2dd6", "rental_uris": {"android": "https://dc.lft.to/lastmile_qr_scan", "ios": "https://dc.lft.to/lastmile_qr_scan"}, "name": "e2f87c9388632cfd80b6439d2dea2dd6", "is_reserved": 0}, {"is_disabled": 0, "fusion_lon": 0.0, "fusion_lat": 0.0, "lat": 38.893979, "type": "electric_scooter", "lon": -76.94998216666667, "bike_id": "03630c54dd990576a6ad7fc647d7ea28", "rental_uris": {"android": "https://dc.lft.to/lastmile_qr_scan", "ios": "https://dc.lft.to/lastmile_qr_scan"}, "name": "03630c54dd990576a6ad7fc647d7ea28", "is_reserved": 0}, {"is_disabled": 0, "fusion_lon": 0.0, "fusion_lat": 0.0, "lat": 38.897344833333335, "type": "electric_scooter", "lon": -77.04679816666666, "bike_id": "03526a0794fc12d1d6aa3774b14ec7ed", "rental_uris": {"android": "https://dc.lft.to/lastmile_qr_scan", "ios": "https://dc.lft.to/lastmile_qr_scan"}, "name": "03526a0794fc12d1d6aa3774b14ec7ed", "is_reserved": 0}, {"is_disabled": 0, "fusion_lon": 0.0, "fusion_lat": 0.0, "lat": 38.8729595, "type": "electric_scooter", "lon": -77.00987933333333, "bike_id": "2ecafc6e8168e80f587e4042dcc67c6a", "rental_uris": {"android": "https://dc.lft.to/lastmile_qr_scan", "ios": "https://dc.lft.to/lastmile_qr_scan"}, "name": "2ecafc6e8168e80f587e4042dcc67c6a", "is_reserved": 0}, {"is_disabled": 0, "fusion_lon": 0.0, "fusion_lat": 0.0, "lat": 38.9055125, "type": "electric_scooter", "lon": -77.00579483333334, "bike_id": "ba3baf13895a8471feb4aeac664cba64", "rental_uris": {"android": "https://dc.lft.to/lastmile_qr_scan", "ios": "https://dc.lft.to/lastmile_qr_scan"}, "name": "ba3baf13895a8471feb4aeac664cba64", "is_reserved": 0}, {"is_disabled": 0, "fusion_lon": 0.0, "fusion_lat": 0.0, "lat": 38.91572583333333, "type": "electric_scooter", "lon": -77.04169816666666, "bike_id": "b3856f35bbc82d8dbb6a11ef92e07fbd", "rental_uris": {"android": "https://dc.lft.to/lastmile_qr_scan", "ios": "https://dc.lft.to/lastmile_qr_scan"}, "name": "b3856f35bbc82d8dbb6a11ef92e07fbd", "is_reserved": 0}, {"is_disabled": 0, "fusion_lon": 0.0, "fusion_lat": 0.0, "lat": 38.897807, "type": "electric_scooter", "lon": -77.05010883333334, "bike_id": "2766e4b4ef14a73ca34ecbc95cc9e1ed", "rental_uris": {"android": "https://dc.lft.to/lastmile_qr_scan", "ios": "https://dc.lft.to/lastmile_qr_scan"}, "name": "2766e4b4ef14a73ca34ecbc95cc9e1ed", "is_reserved": 0}, {"is_disabled": 0, "fusion_lon": 0.0, "fusion_lat": 0.0, "lat": 38.92409716666667, "type": "electric_scooter", "lon": -77.02013966666667, "bike_id": "30bcc92e3aec392bd460b46f33617e32", "rental_uris": {"android": "https://dc.lft.to/lastmile_qr_scan", "ios": "https://dc.lft.to/lastmile_qr_scan"}, "name": "30bcc92e3aec392bd460b46f33617e32", "is_reserved": 0}, {"is_disabled": 0, "fusion_lon": 0.0, "fusion_lat": 0.0, "lat": 38.90034716666667, "type": "electric_scooter", "lon": -77.03355883333333, "bike_id": "4daab1aef01379ae7a38aacac3bc9130", "rental_uris": {"android": "https://dc.lft.to/lastmile_qr_scan", "ios": "https://dc.lft.to/lastmile_qr_scan"}, "name": "4daab1aef01379ae7a38aacac3bc9130", "is_reserved": 0}, {"is_disabled": 0, "fusion_lon": 0.0, "fusion_lat": 0.0, "lat": 38.91695333333333, "type": "electric_scooter", "lon": -77.03207016666667, "bike_id": "f81aafeea35c257e7796c20d561b6552", "rental_uris": {"android": "https://dc.lft.to/lastmile_qr_scan", "ios": "https://dc.lft.to/lastmile_qr_scan"}, "name": "f81aafeea35c257e7796c20d561b6552", "is_reserved": 0}, {"is_disabled": 0, "fusion_lon": 0.0, "fusion_lat": 0.0, "lat": 38.896850666666666, "type": "electric_scooter", "lon": -76.9353895, "bike_id": "059c5e15c6cb361c688204052a2c04cc", "rental_uris": {"android": "https://dc.lft.to/lastmile_qr_scan", "ios": "https://dc.lft.to/lastmile_qr_scan"}, "name": "059c5e15c6cb361c688204052a2c04cc", "is_reserved": 0}, {"is_disabled": 0, "fusion_lon": 0.0, "fusion_lat": 0.0, "lat": 38.861125, "type": "electric_scooter", "lon": -76.98373466666666, "bike_id": "c94ffcc8293636ed1b83a84287070ef0", "rental_uris": {"android": "https://dc.lft.to/lastmile_qr_scan", "ios": "https://dc.lft.to/lastmile_qr_scan"}, "name": "c94ffcc8293636ed1b83a84287070ef0", "is_reserved": 0}, {"is_disabled": 0, "fusion_lon": 0.0, "fusion_lat": 0.0, "lat": 38.93859533333333, "type": "electric_bike", "lon": -77.02626666666667, "bike_id": "84a228d8b6d1048a97362468068faf2b", "rental_uris": {"android": "https://dc.lft.to/lastmile_qr_scan", "ios": "https://dc.lft.to/lastmile_qr_scan"}, "name": "84a228d8b6d1048a97362468068faf2b", "is_reserved": 0}, {"is_disabled": 0, "fusion_lon": 0.0, "fusion_lat": 0.0, "lat": 38.918791166666665, "type": "electric_scooter", "lon": -77.04723983333334, "bike_id": "292e36432c200255e9f32c79b4824048", "rental_uris": {"android": "https://dc.lft.to/lastmile_qr_scan", "ios": "https://dc.lft.to/lastmile_qr_scan"}, "name": "292e36432c200255e9f32c79b4824048", "is_reserved": 0}, {"is_disabled": 0, "fusion_lon": 0.0, "fusion_lat": 0.0, "lat": 38.9121955, "type": "electric_scooter", "lon": -77.02716666666667, "bike_id": "9b467f2a40bae41ef74b599400735042", "rental_uris": {"android": "https://dc.lft.to/lastmile_qr_scan", "ios": "https://dc.lft.to/lastmile_qr_scan"}, "name": "9b467f2a40bae41ef74b599400735042", "is_reserved": 0}, {"is_disabled": 0, "fusion_lon": 0.0, "fusion_lat": 0.0, "lat": 38.8995455, "type": "electric_scooter", "lon": -77.04619266666667, "bike_id": "e06994fd364d13df90600a3d41100c22", "rental_uris": {"android": "https://dc.lft.to/lastmile_qr_scan", "ios": "https://dc.lft.to/lastmile_qr_scan"}, "name": "e06994fd364d13df90600a3d41100c22", "is_reserved": 0}, {"is_disabled": 0, "fusion_lon": 0.0, "fusion_lat": 0.0, "lat": 38.932555, "type": "electric_scooter", "lon": -77.032836, "bike_id": "71821552676cd0902a440e6245f78c95", "rental_uris": {"android": "https://dc.lft.to/lastmile_qr_scan", "ios": "https://dc.lft.to/lastmile_qr_scan"}, "name": "71821552676cd0902a440e6245f78c95", "is_reserved": 0}, {"is_disabled": 0, "fusion_lon": 0.0, "fusion_lat": 0.0, "lat": 38.9224955, "type": "electric_scooter", "lon": -77.03082783333333, "bike_id": "e06751fc8d1d27e245fd7a17578b566f", "rental_uris": {"android": "https://dc.lft.to/lastmile_qr_scan", "ios": "https://dc.lft.to/lastmile_qr_scan"}, "name": "e06751fc8d1d27e245fd7a17578b566f", "is_reserved": 0}, {"is_disabled": 0, "fusion_lon": 0.0, "fusion_lat": 0.0, "lat": 38.89615533333333, "type": "electric_scooter", "lon": -76.996356, "bike_id": "5cd93c4214798397c0db50124ebabf7c", "rental_uris": {"android": "https://dc.lft.to/lastmile_qr_scan", "ios": "https://dc.lft.to/lastmile_qr_scan"}, "name": "5cd93c4214798397c0db50124ebabf7c", "is_reserved": 0},