{"data": {"bikes": [{"is_disabled": 0, "fusion_lon": 0.0, "fusion_lat": 0.0, "lat": 38.89534283333333, "type": "electric_scooter", "lon": -76.94917816666667, "bike_id": "61c010671821775c4c6e000b27f9be05", "rental_uris": {"android": "https://dc.lft.to/lastmile_qr_scan", "ios": "https://dc.lft.to/lastmile_qr_scan"}, "name": "61c010671821775c4c6e000b27f9be05", "is_reserved": 0}, {"is_disabled": 0, "fusion_lon": 0.0, "fusion_lat": 0.0, "lat": 38.91106816666667, "type": "electric_scooter", "lon": -77.03841933333334, "bike_id": "a6a65f9d71b549767b90e7d8f5d5b421", "rental_uris": {"android": "https://dc.lft.to/lastmile_qr_scan", "ios": "https://dc.lft.to/lastmile_qr_scan"}, "name": "a6a65f9d71b549767b90e7d8f5d5b421", "is_reserved": 0}, {"is_disabled": 0, "fusion_lon": 0.0, "fusion_lat": 0.0, "lat": 38.93638816666667, "type": "electric_scooter", "lon": -77.02700383333334, "bike_id": "c5aef3aa095c72a121df5fc67a4e882f", "rental_uris": {"android": "https://dc.lft.to/lastmile_qr_scan", "ios": "https://dc.lft.to/lastmile_qr_scan"}, "name": "c5aef3aa095c72a121df5fc67a4e882f", "is_reserved": 0}, {"is_disabled": 0, "fusion_lon": 0.0, "fusion_lat": 0.0, "lat": 38.92457516666666, "type": "electric_bike", "lon": -76.999547, "bike_id": "18b166f2a7aff963fb170521525564c6", "rental_uris": {"android": "https://dc.lft.to/lastmile_qr_scan", "ios": "https://dc.lft.to/lastmile_qr_scan"}, "name": "18b166f2a7aff963fb170521525564c6", "is_reserved": 0}, {"is_disabled": 0, "fusion_lon": 0.0, "fusion_lat": 0.0, "lat": 38.9095955, "type": "electric_scooter", "lon": -77.02308816666667, "bike_id": "0bbf00517958ab560f84288e2656d2f8", "rental_uris": {"android": "https://dc.lft.to/lastmile_qr_scan", "ios": "https://dc.lft.to/lastmile_qr_scan"}, "name": "0bbf00517958ab560f84288e2656d2f8", "is_reserved": 0}, {"is_disabled": 0, "fusion_lon": 0.0, "fusion_lat": 0.0, "lat": 38.90525933333333, "type": "electric_scooter", "lon": -77.02138283333333, "bike_id": "b0c17ffde48490f5e05c04877dd9398c", "rental_uris": {"android": "https://dc.lft.to/lastmile_qr_scan", "ios": "https://dc.lft.to/lastmile_qr_scan"}, "name": "b0c17ffde48490f5e05c04877dd9398c", "is_reserved": 0}, {"is_disabled": 0, "fusion_lon": 0.0, "fusion_lat": 0.0, "lat": 38.897171666666665, "type": "electric_scooter", "lon": -77.02156183333334, "bike_id": "d9d9728556f55095b36b724bcb8bb922", "rental_uris": {"android": "https://dc.lft.to/lastmile_qr_scan", "ios": "https://dc.lft.to/lastmile_qr_scan"}, "name": "d9d9728556f55095b36b724bcb8bb922", "is_reserved": 0}, {"is_disabled": 0, "fusion_lon": 0.0, "fusion_lat": 0.0, "lat": 38.9147665, "type": "electric_scooter", "lon": -77.03945633333333, "bike_id": "ff84eb3d241fc347d5c2de62dd48d6f2", "rental_uris": {"android": "https://dc.lft.to/lastmile_qr_scan", "ios": "https://dc.lft.to/lastmile_qr_scan"}, "name": "ff84eb3d241fc347d5c2de62dd48d6f2", "is_reserved": 0}, {"is_disabled": 0, "fusion_lon": 0.0, "fusion_lat": 0.0, "lat": 38.87377083333333, "type": "electric_scooter", "lon": -77.00097116666667, "bike_id": "a1c9bf604a4bd9002d04702ad6717593", "rental_uris": {"android": "https://dc.lft.to/lastmile_qr_scan", "ios": "https://dc.lft.to/lastmile_qr_scan"}, "name": "a1c9bf604a4bd9002d04702ad6717593", "is_reserved": 0}, {"is_disabled": 0, "fusion_lon": 0.0, "fusion_lat": 0.0, "lat": 38.90459633333333, "type": "electric_scooter", "lon": -77.0534055, "bike_id": "286b0e82afd295ce9a4e947fdf471389", "rental_uris": {"android": "https://dc.lft.to/lastmile_qr_scan", "ios": "https://dc.lft.to/lastmile_qr_scan"}, "name": "286b0e82afd295ce9a4e947fdf471389", "is_reserved": 0}, {"is_disabled": 0, "fusion_lon": 0.0, "fusion_lat": 0.0, "lat": 38.906810166666666, "type": "electric_scooter", "lon": -77.037681, "bike_id": "719e193efa99bb72375adc36a511d1c8", "rental_uris": {"android": "https://dc.lft.to/lastmile_qr_scan", "ios": "https://dc.lft.to/lastmile_qr_scan"}, "name": "719e193efa99bb72375adc36a511d1c8", "is_reserved": 0}, {"is_disabled": 0, "fusion_lon": 0.0, "fusion_lat": 0.0, "lat": 38.910733666666665, "type": "electric_scooter", "lon": -77.0438945, "bike_id": "5082badef306776ed2b44a7e02ed3303", "rental_uris": {"android": "https://dc.lft.to/lastmile_qr_scan", "ios": "https://dc.lft.to/lastmile_qr_scan"}, "name": "5082badef306776ed2b44a7e02ed3303", "is_reserved": 0}, {"is_disabled": 0, "fusion_lon": 0.0, "fusion_lat": 0.0, "lat": 38.910584166666666, "type": "electric_scooter", "lon": -77.04256583333333, "bike_id": "262f45a422fb730a380ba802ae4ed759", "rental_uris": {"android": "https://dc.lft.to/lastmile_qr_scan", "ios": "https://dc.lft.to/lastmile_qr_scan"}, "name": "262f45a422fb730a380ba802ae4ed759", "is_reserved": 0}, {"is_disabled": 0, "fusion_lon": 0.0, "fusion_lat": 0.0, "lat": 38.869498666666665, "type": "electric_scooter", "lon": -76.97603633333334, "bike_id": "008a43c3e808ac5a87946972d0e7e5b5", "rental_uris": {"android": "https://dc.lft.to/lastmile_qr_scan", "ios": "https://dc.lft.to/lastmile_qr_scan"}, "name": "008a43c3e808ac5a87946972d0e7e5b5", "is_reserved": 0}, {"is_disabled": 0, "fusion_lon": 0.0, "fusion_lat": 0.0, "lat": 38.876994833333335, "type": "electric_scooter", "lon": -77.01609316666666, "bike_id": "6ead7d71bd984974e2ca616ef5575e64", "rental_uris": {"android": "https://dc.lft.to/lastmile_qr_scan", "ios": "https://dc.lft.to/lastmile_qr_scan"}, "name": "6ead7d71bd984974e2ca616ef5575e64", "is_reserved": 0}, {"is_disabled": 0, "fusion_lon": 0.0, "fusion_lat": 0.0, "lat": 38.90031316666666, "type": "electric_scooter", "lon": -76.991216, "bike_id": "13dd0e095656a8b46bab1b4daa6d010b", "rental_uris": {"android": "https://dc.lft.to/lastmile_qr_scan", "ios": "https://dc.lft.to/lastmile_qr_scan"}, "name": "13dd0e095656a8b46bab1b4daa6d010b", "is_reserved": 0}, {"is_disabled": 0, "fusion_lon": 0.0, "fusion_lat": 0.0, "lat": 38.909960833333336, "type": "electric_scooter", "lon": -77.03185383333333, "bike_id": "2c9bb11a9f9764a0a2c8183a5d8c3e69", "rental_uris": {"android": "https://dc.lft.to/lastmile_qr_scan", "ios": "https://dc.lft.to/lastmile_qr_scan"}, "name": "2c9bb11a9f9764a0a2c8183a5d8c3e69", "is_reserved": 0}, {"is_disabled": 0, "fusion_lon": 0.0, "fusion_lat": 0.0, "lat": 38.8922425, "type": "electric_scooter", "lon": -77.04801716666667, "bike_id": "ab03268944c9ed36476c3d0fdecfb582", "rental_uris": {"android": "https://dc.lft.to/lastmile_qr_scan", "ios": "https://dc.lft.to/lastmile_qr_scan"}, "name": "ab03268944c9ed36476c3d0fdecfb582", "is_reserved": 0}, {"is_disabled": 0, "fusion_lon": 0.0, "fusion_lat": 0.0, "lat": 38.90664733333333, "type": "electric_scooter", "lon": -77.01215616666667, "bike_id": "f5283ec0c0062252657d73fcd837bad8", "rental_uris": {"android": "https://dc.lft.to/lastmile_qr_scan", "ios": "https://dc.lft.to/lastmile_qr_scan"}, "name": "f5283ec0c0062252657d73fcd837bad8", "is_reserved": 0}, {"is_disabled": 0, "fusion_lon": 0.0, "fusion_lat": 0.0, "lat": 38.84301283333333, "type": "electric_bike", "lon": -77.07652966666667, "bike_id": "82cd327b31a98dd09ff062cc0f95239b", "rental_uris": {"android": "https://dc.lft.to/lastmile_qr_scan", "ios": "https://dc.lft.to/lastmile_qr_scan"}, "name": "82cd327b31a98dd09ff062cc0f95239b", "is_reserved": 0}, {"is_disabled": 0, "fusion_lon": 0.0, "fusion_lat": 0.0, "lat": 38.880445333333334, "type": "electric_bike", "lon": -76.99017583333334, "bike_id": "987a103a3927756d8cbd439070f8e8c3", "rental_uris": {"android": "https://dc.lft.to/lastmile_qr_scan", "ios": "https://dc.lft.to/lastmile_qr_scan"}, "name": "987a103a3927756d8cbd439070f8e8c3", "is_reserved": 0}, {"is_disabled": 0, "fusion_lon": 0.0, "fusion_lat": 0.0, "lat": 38.86624033333333, "type": "electric_scooter", "lon": -76.98717216666667, "bike_id": "d015907c29db929990baf28705ecdb9e", "rental_uris": {"android": "https://dc.lft.to/lastmile_qr_scan", "ios": "https://dc.lft.to/lastmile_qr_scan"}, "name": "d015907c29db929990baf28705ecdb9e", "is_reserved": 0}, {"is_disabled": 0, "fusion_lon": 0.0, "fusion_lat": 0.0, "lat": 38.92421733333333, "type": "electric_scooter", "lon": -77.05071666666667, "bike_id": "2b0b418a81eefc7bb6e907dccfde8e5d", "rental_uris": {"android": "https://dc.lft.to/lastmile_qr_scan", "ios": "https://dc.lft.to/lastmile_qr_scan"}, "name": "2b0b418a81eefc7bb6e907dccfde8e5d", "is_reserved": 0}, {"is_disabled": 0, "fusion_lon": 0.0, "fusion_lat": 0.0, "lat": 38.916118, "type": "electric_scooter", "lon": -77.0112085, "bike_id": "ff49a5158208edb3afafda1e30cbdb70", "rental_uris": {"android": "https://dc.lft.to/lastmile_qr_scan", "ios": "https://dc.lft.to/lastmile_qr_scan"}, "name": "ff49a5158208edb3afafda1e30cbdb70", "is_reserved": 0}, {"is_disabled": 0, "fusion_lon": 0.0, "fusion_lat": 0.0, "lat": 38.8993325, "type": "electric_scooter", "lon": -77.04031133333334, "bike_id": "a6e20e6ac13238dff4653634a887784c", "rental_uris": {"android": "https://dc.lft.to/lastmile_qr_scan", "ios": "https://dc.lft.to/lastmile_qr_scan"}, "name": "a6e20e6ac13238dff4653634a887784c", "is_reserved": 0}, {"is_disabled": 0, "fusion_lon": 0.0, "fusion_lat": 0.0, "lat": 38.92775666666667, "type": "electric_bike", "lon": -77.02306433333334, "bike_id": "6027d6f03284bff56358be484e4e4332", "rental_uris": {"android": "https://dc.lft.to/lastmile_qr_scan", "ios": "https://dc.lft.to/lastmile_qr_scan"}, "name": "6027d6f03284bff56358be484e4e4332", "is_reserved": 0}, {"is_disabled": 0, "fusion_lon": 0.0, "fusion_lat": 0.0, "lat": 38.909636666666664, "type": "electric_scooter", "lon": -77.0445685, "bike_id": "e9eee597dc1f9cba41ed58deb0b07557", "rental_uris": {"android": "https://dc.lft.to/lastmile_qr_scan", "ios": "https://dc.lft.to/lastmile_qr_scan"}, "name": "e9eee597dc1f9cba41ed58deb0b07557", "is_reserved": 0}, {"is_disabled": 0, "fusion_lon": 0.0, "fusion_lat": 0.0, "lat": 38.914607, "type": "electric_scooter", "lon": -76.98443716666667, "bike_id": "f9ffad0ee01dc9fb470d13517ba5e407", "rental_uris": {"android": "https://dc.lft.to/lastmile_qr_scan", "ios": "https://dc.lft.to/lastmile_qr_scan"}, "name": "f9ffad0ee01dc9fb470d13517ba5e407", "is_reserved": 0}, {"is_disabled": 0, "fusion_lon": 0.0, "fusion_lat": 0.0, "lat": 38.96832083333334, "type": "electric_scooter", "lon": -77.0151575, "bike_id": "acf8de669bab707fcf06b308f21173be", "rental_uris": {"android": "https://dc.lft.to/lastmile_qr_scan", "ios": "https://dc.lft.to/lastmile_qr_scan"}, "name": "acf8de669bab707fcf06b308f21173be", "is_reserved": 0}, {"is_disabled": 0, "fusion_lon": 0.0, "fusion_lat": 0.0, "lat": 38.952139, "type": "electric_scooter", "lon": -77.0034325, "bike_id": "712462780860b02ec3d688e96af4098f", "rental_uris": {"android": "https://dc.lft.to/lastmile_qr_scan", "ios": "https://dc.lft.to/lastmile_qr_scan"}, "name": "712462780860b02ec3d688e96af4098f", "is_reserved": 0}, {"is_disabled": 0, "fusion_lon": 0.0, "fusion_lat": 0.0, "lat": 38.915414, "type": "electric_scooter", "lon": -77.038603, "bike_id": "a5593452df0f4095ba1f6f89bb0fa6c2", "rental_uris": {"android": "https://dc.lft.to/lastmile_qr_scan", "ios": "https://dc.lft.to/lastmile_qr_scan"}, "name": "a5593452df0f4095ba1f6f89bb0fa6c2", "is_reserved": 0}, {"is_disabled": 0, "fusion_lon": 0.0, "fusion_lat": 0.0, "lat": 38.918037166666664, "type": "electric_scooter", "lon": -77.03450216666667, "bike_id": "46bedc3e0065203e627d97eb09fb046c", "rental_uris": {"android": "https://dc.lft.to/lastmile_qr_scan", "ios": "https://dc.lft.to/lastmile_qr_scan"}, "name": "46bedc3e0065203e627d97eb09fb046c", "is_reserved": 0}, {"is_disabled": 0, "fusion_lon": 0.0, "fusion_lat": 0.0, "lat": 38.93535516666667, "type": "electric_scooter", "lon": -77.02070783333333, "bike_id": "76c86c5bb49a660dd01cfec9e22f667b", "rental_uris": {"android": "https://dc.lft.to/lastmile_qr_scan", "ios": "https://dc.lft.to/lastmile_qr_scan"}, "name": "76c86c5bb49a660dd01cfec9e22f667b", "is_reserved": 0}, {"is_disabled": 0, "fusion_lon": 0.0, "fusion_lat": 0.0, "lat": 38.898953, "type": "electric_scooter", "lon": -77.0500495, "bike_id": "8aed4e85d29e9a3751a4bc5ab4929018", "rental_uris": {"android": "https://dc.lft.to/lastmile_qr_scan", "ios": "https://dc.lft.to/lastmile_qr_scan"}, "name": "8aed4e85d29e9a3751a4bc5ab4929018", "is_reserved": 0}, {"is_disabled": 0, "fusion_lon": 0.0, "fusion_lat": 0.0, "lat": 38.933278333333334, "type": "electric_scooter", "lon": -77.02929816666666, "bike_id": "7707b8551bcf2d7ce5e9ea9b8303a77d", "rental_uris": {"android": "https://dc.lft.to/lastmile_qr_scan", "ios": "https://dc.lft.to/lastmile_qr_scan"}, "name": "7707b8551bcf2d7ce5e9ea9b8303a77d", "is_reserved": 0}, {"is_disabled": 0, "fusion_lon": 0.0, "fusion_lat": 0.0, "lat": 38.91707066666667, "type": "electric_scooter", "lon": -77.030006, "bike_id": "8dc9bd01c77f7fe1ed2b5e6a79150741", "rental_uris": {"android": "https://dc.lft.to/lastmile_qr_scan", "ios": "https://dc.lft.to/lastmile_qr_scan"}, "name": "8dc9bd01c77f7fe1ed2b5e6a79150741", "is_reserved": 0}, {"is_disabled": 0, "fusion_lon": 0.0, "fusion_lat": 0.0, "lat": 38.94199116666667, "type": "electric_scooter", "lon": -77.0258325, "bike_id": "f07c10cfcb704a6709e0ad12f6b272e8", "rental_uris": {"android": "https://dc.lft.to/lastmile_qr_scan", "ios": "https://dc.lft.to/lastmile_qr_scan"}, "name": "f07c10cfcb704a6709e0ad12f6b272e8", "is_reserved": 0}, {"is_disabled": 0, "fusion_lon": 0.0, "fusion_lat": 0.0, "lat": 38.90780133333333, "type": "electric_scooter", "lon": -77.03483333333334, "bike_id": "7520a8d081781c305d829339d3763335", "rental_uris": {"android": "https://dc.lft.to/lastmile_qr_scan", "ios": "https://dc.lft.to/lastmile_qr_scan"}, "name": "7520a8d081781c305d829339d3763335", "is_reserved": 0}, {"is_disabled": 0, "fusion_lon": 0.0, "fusion_lat": 0.0, "lat": 38.898507333333335, "type": "electric_scooter", "lon": -76.99037683333333, "bike_id": "d54b6e6dc6a590b55655b96f5cef3f09", "rental_uris": {"android": "https://dc.lft.to/lastmile_qr_scan", "ios": "https://dc.lft.to/lastmile_qr_scan"}, "name": "d54b6e6dc6a590b55655b96f5cef3f09", "is_reserved": 0}, {"is_disabled": 0, "fusion_lon": 0.0, "fusion_lat": 0.0, "lat": 38.882670833333336, "type": "electric_scooter", "lon": -76.98550833333333, "bike_id": "715f93376bf214e284fe53b1d4fd74b3", "rental_uris": {"android": "https://dc.lft.to/lastmile_qr_scan", "ios": "https://dc.lft.to/lastmile_qr_scan"}, "name": "715f93376bf214e284fe53b1d4fd74b3", "is_reserved": 0}, {"is_disabled": 0, "fusion_lon": 0.0, "fusion_lat": 0.0, "lat": 38.92695366666667, "type": "electric_scooter", "lon": -77.00613283333334, "bike_id": "8eecb95b45676e4fe9ee95235c9380f1", "rental_uris": {"android": "https://dc.lft.to/lastmile_qr_scan", "ios": "https://dc.lft.to/lastmile_qr_scan"}, "name": "8eecb95b45676e4fe9ee95235c9380f1", "is_reserved": 0}, {"is_disabled": 0, "fusion_lon": 0.0, "fusion_lat": 0.0, "lat": 38.89720116666667, "type": "electric_scooter", "lon": -77.02152716666667, "bike_id": "ccba93cbbcacd4b1774240b8f06600c3", "rental_uris": {"android": "https://dc.lft.to/lastmile_qr_scan", "ios": "https://dc.lft.to/lastmile_qr_scan"}, "name": "ccba93cbbcacd4b1774240b8f06600c3", "is_reserved": 0}, {"is_disabled": 0, "fusion_lon": 0.0, "fusion_lat": 0.0, "lat": 38.93554183333333, "type": "electric_scooter", "lon": -77.0222225, "bike_id": "9567fa4131d609c4e1e606cc1547dd0d", "rental_uris": {"android": "https://dc.lft.to/lastmile_qr_scan", "ios": "https://dc.lft.to/lastmile_qr_scan"}, "name": "9567fa4131d609c4e1e606cc1547dd0d", "is_reserved": 0}, {"is_disabled": 0, "fusion_lon": 0.0, "fusion_lat": 0.0, "lat": 38.932801166666664, "type": "electric_scooter", "lon": -77.03982033333334, "bike_id": "dcc7aafb61eeba99779d4da98cefec39", "rental_uris": {"android": "https://dc.lft.to/lastmile_qr_scan", "ios": "https://dc.lft.to/lastmile_qr_scan"}, "name": "dcc7aafb61eeba99779d4da98cefec39", "is_reserved": 0}, {"is_disabled": 0, "fusion_lon": 0.0, "fusion_lat": 0.0, "lat": 38.90742983333333, "type": "electric_scooter", "lon": -77.04539283333334, "bike_id": "ed8dd7846a4ded06289d264abc35a160", "rental_uris": {"android": "https://dc.lft.to/lastmile_qr_scan", "ios": "https://dc.lft.to/lastmile_qr_scan"}, "name": "ed8dd7846a4ded06289d264abc35a160", "is_reserved": 0}, {"is_disabled": 0, "fusion_lon": 0.0, "fusion_lat": 0.0, "lat": 38.914929666666666, "type": "electric_scooter", "lon": -77.03856016666667, "bike_id": "09f95e452c05743342a6d3f79207e4aa", "rental_uris": {"android": "https://dc.lft.to/lastmile_qr_scan", "ios": "https://dc.lft.to/lastmile_qr_scan"}, "name": "09f95e452c05743342a6d3f79207e4aa", "is_reserved": 0}, {"is_disabled": 0, "fusion_lon": 0.0, "fusion_lat": 0.0, "lat": 38.90896816666667, "type": "electric_scooter", "lon": -77.01890166666666, "bike_id": "f5d0ace3e2b557fa40593735c2559140", "rental_uris": {"android": "https://dc.lft.to/lastmile_qr_scan", "ios": "https://dc.lft.to/lastmile_qr_scan"}, "name": "f5d0ace3e2b557fa40593735c2559140", "is_reserved": 0}, {"is_disabled": 0, "fusion_lon": 0.0, "fusion_lat": 0.0, "lat": 38.95556333333333, "type": "electric_bike", "lon": -76.93547883333333, "bike_id": "6c42901a5d49d3da67a828e67136c7d3", "rental_uris": {"android": "https://dc.lft.to/lastmile_qr_scan", "ios": "https://dc.lft.to/lastmile_qr_scan"}, "name": "6c42901a5d49d3da67a828e67136c7d3", "is_reserved": 0}, {"is_disabled": 0, "fusion_lon": 0.0, "fusion_lat": 0.0, "lat": 38.912812, "type": "electric_scooter", "lon": -77.02253033333334, "bike_id": "3b27d05c4f5aa721b7d851062061479c", "rental_uris": {"android": "https://dc.lft.to/lastmile_qr_scan", "ios": "https://dc.lft.to/lastmile_qr_scan"}, "name": "3b27d05c4f5aa721b7d851062061479c", "is_reserved": 0}, {"is_disabled": 0, "fusion_lon": 0.0, "fusion_lat": 0.0, "lat": 38.93067933333333, "type": "electric_scooter", "lon": -77.0365735, "bike_id": "8efe7a67f0086f4c44a6b428e7a269e1", "rental_uris": {"android": "https://dc.lft.to/lastmile_qr_scan", "ios": "https://dc.lft.to/lastmile_qr_scan"}, "name": "8efe7a67f0086f4c44a6b428e7a269e1", "is_reserved": 0}, {"is_disabled": 0, "fusion_lon": 0.0, "fusion_lat": 0.0, "lat": 38.828754333333336, "type": "electric_bike", "lon": -77.1123, "bike_id": "13d57c3d04be9bf0052ec4119a6ff704", "rental_uris": {"android": "https://dc.lft.to/lastmile_qr_scan", "ios": "https://dc.lft.to/lastmile_qr_scan"}, "name": "13d57c3d04be9bf0052ec4119a6ff704", "is_reserved": 0}, {"is_disabled": 0, "fusion_lon": 0.0, "fusion_lat": 0.0, "lat": 38.92337666666667, "type": "electric_scooter", "lon": -77.03561716666667, "bike_id": "5cab5cdc1566ff7f210fad54709f33e6", "rental_uris": {"android": "https://dc.lft.to/lastmile_qr_scan", "ios": "https://dc.lft.to/lastmile_qr_scan"}, "name": "5cab5cdc1566ff7f210fad54709f33e6", "is_reserved": 0}, {"is_disabled": 0, "fusion_lon": 0.0, "fusion_lat": 0.0, "lat": 38.8956375, "type": "electric_bike", "lon": -77.12739283333333, "bike_id": "c3a1eeaa3a6d6bdf2b2cbb90ecb209d6", "rental_uris": {"android": "https://dc.lft.to/lastmile_qr_scan", "ios": "https://dc.lft.to/lastmile_qr_scan"}, "name": "c3a1eeaa3a6d6bdf2b2cbb90ecb209d6", "is_reserved": 0}, {"is_disabled": 0, "fusion_lon": 0.0, "fusion_lat": 0.0, "lat": 38.9096135, "type": "electric_scooter", "lon": -77.038389, "bike_id": "091e080947a92fced5f3b5a2753a4904", "rental_uris": {"android": "https://dc.lft.to/lastmile_qr_scan", "ios": "https://dc.lft.to/lastmile_qr_scan"}, "name": "091e080947a92fced5f3b5a2753a4904", "is_reserved": 0}, {"is_disabled": 0, "fusion_lon": 0.0, "fusion_lat": 0.0, "lat": 38.86363083333333, "type": "electric_scooter", "lon": -76.99061733333333, "bike_id": "175680935c0eed0f227fe365c8593231", "rental_uris": {"android": "https://dc.lft.to/lastmile_qr_scan", "ios": "https://dc.lft.to/lastmile_qr_scan"}, "name": "175680935c0eed0f227fe365c8593231", "is_reserved": 0}, {"is_disabled": 0, "fusion_lon": 0.0, "fusion_lat": 0.0, "lat": 38.9247375, "type": "electric_scooter", "lon": -77.05759266666666, "bike_id": "35571ba39cbc2a2891b6236f1fbf0e6d", "rental_uris": {"android": "https://dc.lft.to/lastmile_qr_scan", "ios": "https://dc.lft.to/lastmile_qr_scan"}, "name": "35571ba39cbc2a2891b6236f1fbf0e6d", "is_reserved": 0}, {"is_disabled": 0, "fusion_lon": 0.0, "fusion_lat": 0.0, "lat": 38.916532333333336, "type": "electric_scooter", "lon": -77.04162516666666, "bike_id": "be1e0f936a99aee450065434bcb08ed9", "rental_uris": {"android": "https://dc.lft.to/lastmile_qr_scan", "ios": "https://dc.lft.to/lastmile_qr_scan"}, "name": "be1e0f936a99aee450065434bcb08ed9", "is_reserved": 0}, {"is_disabled": 0, "fusion_lon": 0.0, "fusion_lat": 0.0, "lat": 38.902571, "type": "electric_scooter", "lon": -77.04062666666667, "bike_id": "4d97b0abc8812770cf577cfbc9ee983a", "rental_uris": {"android": "https://dc.lft.to/lastmile_qr_scan", "ios": "https://dc.lft.to/lastmile_qr_scan"}, "name": "4d97b0abc8812770cf577cfbc9ee983a", "is_reserved": 0}, {"is_disabled": 0, "fusion_lon": 0.0, "fusion_lat": 0.0, "lat": 38.873028166666664, "type": "electric_scooter", "lon": -77.00163116666667, "bike_id": "efcfef92ecd0e1bd51b2078f420dcb6d", "rental_uris": {"android": "https://dc.lft.to/lastmile_qr_scan", "ios": "https://dc.lft.to/lastmile_qr_scan"}, "name": "efcfef92ecd0e1bd51b2078f420dcb6d", "is_reserved": 0}, {"is_disabled": 0, "fusion_lon": 0.0, "fusion_lat": 0.0, "lat": 38.914416333333335, "type": "electric_scooter", "lon": -77.00894216666667, "bike_id": "22fcdb6e3ca2e613408e9b1b2b344225", "rental_uris": {"android": "https://dc.lft.to/lastmile_qr_scan", "ios": "https://dc.lft.to/lastmile_qr_scan"}, "name": "22fcdb6e3ca2e613408e9b1b2b344225", "is_reserved": 0}, {"is_disabled": 0, "fusion_lon": 0.0, "fusion_lat": 0.0, "lat": 38.907207666666665, "type": "electric_scooter", "lon": -77.02979616666667, "bike_id": "1c3aa26b8ff878a5c08438c0ed552289", "rental_uris": {"android": "https://dc.lft.to/lastmile_qr_scan", "ios": "https://dc.lft.to/lastmile_qr_scan"}, "name": "1c3aa26b8ff878a5c08438c0ed552289", "is_reserved": 0}, {"is_disabled": 0, "fusion_lon": 0.0, "fusion_lat": 0.0, "lat": 38.936122166666664, "type": "electric_scooter", "lon": -77.031991, "bike_id": "7320abcf8b99a32c5136e3d1da592498", "rental_uris": {"android": "https://dc.lft.to/lastmile_qr_scan", "ios": "https://dc.lft.to/lastmile_qr_scan"}, "name": "7320abcf8b99a32c5136e3d1da592498", "is_reserved": 0}, {"is_disabled": 0, "fusion_lon": 0.0, "fusion_lat": 0.0, "lat": 38.99091466666667, "type": "electric_bike", "lon": -76.87495666666666, "bike_id": "e892b4d73d3df41a8767175986c225ab", "rental_uris": {"android": "https://dc.lft.to/lastmile_qr_scan", "ios": "https://dc.lft.to/lastmile_qr_scan"}, "name": "e892b4d73d3df41a8767175986c225ab", "is_reserved": 0}, {"is_disabled": 0, "fusion_lon": 0.0, "fusion_lat": 0.0, "lat": 38.9564995, "type": "electric_scooter", "lon": -77.03293166666667, "bike_id": "21c0b4e79150c8a6a493cd5e44edf3ea", "rental_uris": {"android": "https://dc.lft.to/lastmile_qr_scan", "ios": "https://dc.lft.to/lastmile_qr_scan"}, "name": "21c0b4e79150c8a6a493cd5e44edf3ea", "is_reserved": 0}, {"is_disabled": 0, "fusion_lon": 0.0, "fusion_lat": 0.0, "lat": 38.91026, "type": "electric_scooter", "lon": -77.00777716666667, "bike_id": "f8fa720bfbf2ed89d99b1a29b590e429", "rental_uris": {"android": "https://dc.lft.to/lastmile_qr_scan", "ios": "https://dc.lft.to/lastmile_qr_scan"}, "name": "f8fa720bfbf2ed89d99b1a29b590e429", "is_reserved": 0}, {"is_disabled": 0, "fusion_lon": 0.0, "fusion_lat": 0.0, "lat": 38.9009065, "type": "electric_scooter", "lon": -77.04884066666666, "bike_id": "ea0cea76a448863238ebea2cb3b11c50", "rental_uris": {"android": "https://dc.lft.to/lastmile_qr_scan", "ios": "https://dc.lft.to/lastmile_qr_scan"}, "name": "ea0cea76a448863238ebea2cb3b11c50", "is_reserved": 0}, {"is_disabled": 0, "fusion_lon": 0.0, "fusion_lat": 0.0, "lat": 38.845281666666665, "type": "electric_scooter", "lon": -76.9759725, "bike_id": "33b1724c207c5d68885d1ead203896e1", "rental_uris": {"android": "https://dc.lft.to/lastmile_qr_scan", "ios": "https://dc.lft.to/lastmile_qr_scan"}, "name": "33b1724c207c5d68885d1ead203896e1", "is_reserved": 0}, {"is_disabled": 0, "fusion_lon": 0.0, "fusion_lat": 0.0, "lat": 38.905857, "type": "electric_scooter", "lon": -77.04711883333333, "bike_id": "71a5523a492e50dabefeb358587977a9", "rental_uris": {"android": "https://dc.lft.to/lastmile_qr_scan", "ios": "https://dc.lft.to/lastmile_qr_scan"}, "name": "71a5523a492e50dabefeb358587977a9", "is_reserved": 0}, {"is_disabled": 0, "fusion_lon": 0.0, "fusion_lat": 0.0, "lat": 38.908032666666664, "type": "electric_scooter", "lon": -77.03645883333333, "bike_id": "720b6f1413979ad20a3338abfa82ec67", "rental_uris": {"android": "https://dc.lft.to/lastmile_qr_scan", "ios": "https://dc.lft.to/lastmile_qr_scan"}, "name": "720b6f1413979ad20a3338abfa82ec67", "is_reserved": 0}, {"is_disabled": 0, "fusion_lon": 0.0, "fusion_lat": 0.0, "lat": 38.962150333333334, "type": "electric_scooter", "lon": -77.02806283333334, "bike_id": "a3cd6a1ee05ee281ac2c84e7f40c3484", "rental_uris": {"android": "https://dc.lft.to/lastmile_qr_scan", "ios": "https://dc.lft.to/lastmile_qr_scan"}, "name": "a3cd6a1ee05ee281ac2c84e7f40c3484", "is_reserved": 0}, {"is_disabled": 0, "fusion_lon": 0.0, "fusion_lat": 0.0, "lat": 38.91706833333333, "type": "electric_scooter", "lon": -77.030073, "bike_id": "ea7c2e9fef99acdbcdd0ffe5b18ce2dd", "rental_uris": {"android": "https://dc.lft.to/lastmile_qr_scan", "ios": "https://dc.lft.to/lastmile_qr_scan"}, "name": "ea7c2e9fef99acdbcdd0ffe5b18ce2dd", "is_reserved": 0}, {"is_disabled": 0, "fusion_lon": 0.0, "fusion_lat": 0.0, "lat": 38.89221233333333, "type": "electric_scooter", "lon": -77.0222315, "bike_id": "16b95fc962792b8230738469b75e5896", "rental_uris": {"android": "https://dc.lft.to/lastmile_qr_scan", "ios": "https://dc.lft.to/lastmile_qr_scan"}, "name": "16b95fc962792b8230738469b75e5896", "is_reserved": 0}, {"is_disabled": 0, "fusion_lon": 0.0, "fusion_lat": 0.0, "lat": 38.87659516666667, "type": "electric_scooter", "lon": -77.00946816666666, "bike_id": "150ec005951dea522024c7814022b5fe", "rental_uris": {"android": "https://dc.lft.to/lastmile_qr_scan", "ios": "https://dc.lft.to/lastmile_qr_scan"}, "name": "150ec005951dea522024c7814022b5fe", "is_reserved": 0}, {"is_disabled": 0, "fusion_lon": 0.0, "fusion_lat": 0.0, "lat": 38.896791, "type": "electric_scooter", "lon": -77.051329, "bike_id": "5afef163cf9d81a66c23860bbe316a98", "rental_uris": {"android": "https://dc.lft.to/lastmile_qr_scan", "ios": "https://dc.lft.to/lastmile_qr_scan"}, "name": "5afef163cf9d81a66c23860bbe316a98", "is_reserved": 0}, {"is_disabled": 0, "fusion_lon": 0.0, "fusion_lat": 0.0, "lat": 38.9097465, "type": "electric_scooter", "lon": -77.06761566666667, "bike_id": "337c367663b8b91e361d61979cda35ae", "rental_uris": {"android": "https://dc.lft.to/lastmile_qr_scan", "ios": "https://dc.lft.to/lastmile_qr_scan"}, "name": "337c367663b8b91e361d61979cda35ae", "is_reserved": 0}, {"is_disabled": 0, "fusion_lon": 0.0, "fusion_lat": 0.0, "lat": 38.876234833333335, "type": "electric_scooter", "lon": -76.965417, "bike_id": "23bb3d96ebd465e5c2bef864788f1bdc", "rental_uris": {"android": "https://dc.lft.to/lastmile_qr_scan", "ios": "https://dc.lft.to/lastmile_qr_scan"}, "name": "23bb3d96ebd465e5c2bef864788f1bdc", "is_reserved": 0}, {"is_disabled": 0, "fusion_lon": 0.0, "fusion_lat": 0.0, "lat": 38.917247833333334, "type": "electric_scooter", "lon": -77.03669533333333, "bike_id": "163a2662b08a7b6876574422e1f6d11d", "rental_uris": {"android": "https://dc.lft.to/lastmile_qr_scan", "ios": "https://dc.lft.to/lastmile_qr_scan"}, "name": "163a2662b08a7b6876574422e1f6d11d", "is_reserved": 0}, {"is_disabled": 0, "fusion_lon": 0.0, "fusion_lat": 0.0, "lat": 38.89559783333333, "type": "electric_scooter", "lon": -77.046759, "bike_id": "cb3cc9fd39393198a4c7d6361820ab6e", "rental_uris": {"android": "https://dc.lft.to/lastmile_qr_scan", "ios": "https://dc.lft.to/lastmile_qr_scan"}, "name": "cb3cc9fd39393198a4c7d6361820ab6e", "is_reserved": 0}, {"is_disabled": 0, "fusion_lon": 0.0, "fusion_lat": 0.0, "lat": 38.900426, "type": "electric_scooter", "lon": -76.92272283333334, "bike_id": "eb0645c742209577c4c431189e998b03", "rental_uris": {"android": "https://dc.lft.to/lastmile_qr_scan", "ios": "https://dc.lft.to/lastmile_qr_scan"}, "name": "eb0645c742209577c4c431189e998b03", "is_reserved": 0}, {"is_disabled": 0, "fusion_lon": 0.0, "fusion_lat": 0.0, "lat": 38.92884383333333, "type": "electric_scooter", "lon": -77.01413716666667, "bike_id": "831a68c6bdc035a108a0df0a7cece986", "rental_uris": {"android": "https://dc.lft.to/lastmile_qr_scan", "ios": "https://dc.lft.to/lastmile_qr_scan"}, "name": "831a68c6bdc035a108a0df0a7cece986", "is_reserved": 0}, {"is_disabled": 0, "fusion_lon": 0.0, "fusion_lat": 0.0, "lat": 38.89257033333333, "type": "electric_scooter", "lon": -77.028022, "bike_id": "eb45a2dfdeadbbeba49069a0830416ec", "rental_uris": {"android": "https://dc.lft.to/lastmile_qr_scan", "ios": "https://dc.lft.to/lastmile_qr_scan"}, "name": "eb45a2dfdeadbbeba49069a0830416ec", "is_reserved": 0}, {"is_disabled": 0, "fusion_lon": 0.0, "fusion_lat": 0.0, "lat": 38.93516316666667, "type": "electric_scooter", "lon": -77.02374683333333, "bike_id": "16564f7bf6b5a0f3251a470a0f97eb27", "rental_uris": {"android": "https://dc.lft.to/lastmile_qr_scan", "ios": "https://dc.lft.to/lastmile_qr_scan"}, "name": "16564f7bf6b5a0f3251a470a0f97eb27", "is_reserved": 0}, {"is_disabled": 0, "fusion_lon": 0.0, "fusion_lat": 0.0, "lat": 38.93195166666667, "type": "electric_scooter", "lon": -77.03265683333333, "bike_id": "27d8a0b8ba2feb1c3dbec3376b98f5d0", "rental_uris": {"android": "https://dc.lft.to/lastmile_qr_scan", "ios": "https://dc.lft.to/lastmile_qr_scan"}, "name": "27d8a0b8ba2feb1c3dbec3376b98f5d0", "is_reserved": 0}, {"is_disabled": 0, "fusion_lon": 0.0, "fusion_lat": 0.0, "lat": 38.91745783333333, "type": "electric_scooter", "lon": -77.02296816666667, "bike_id": "0c9ef31594b3334d3078e9e98a5c37d6", "rental_uris": {"android": "https://dc.lft.to/lastmile_qr_scan", "ios": "https://dc.lft.to/lastmile_qr_scan"}, "name": "0c9ef31594b3334d3078e9e98a5c37d6", "is_reserved": 0}, {"is_disabled": 0, "fusion_lon": 0.0, "fusion_lat": 0.0, "lat": 38.88193166666667, "type": "electric_scooter", "lon": -77.00350666666667, "bike_id": "63609f15c46b2b9f98f34dff6e763b83", "rental_uris": {"android": "https://dc.lft.to/lastmile_qr_scan", "ios": "https://dc.lft.to/lastmile_qr_scan"}, "name": "63609f15c46b2b9f98f34dff6e763b83", "is_reserved": 0}, {"is_disabled": 0, "fusion_lon": 0.0, "fusion_lat": 0.0, "lat": 38.89370566666667, "type": "electric_scooter", "lon": -76.950058, "bike_id": "eaef385a724d46ca8ee5c5346d25f401", "rental_uris": {"android": "https://dc.lft.to/lastmile_qr_scan", "ios": "https://dc.lft.to/lastmile_qr_scan"}, "name": "eaef385a724d46ca8ee5c5346d25f401", "is_reserved": 0}, {"is_disabled": 0, "fusion_lon": 0.0, "fusion_lat": 0.0, "lat": 38.90228233333333, "type": "electric_scooter", "lon": -77.04569766666667, "bike_id": "87ed158147b1219d3e8135321bed63df", "rental_uris": {"android": "https://dc.lft.to/lastmile_qr_scan", "ios": "https://dc.lft.to/lastmile_qr_scan"}, "name": "87ed158147b1219d3e8135321bed63df", "is_reserved": 0}, {"is_disabled": 0, "fusion_lon": 0.0, "fusion_lat": 0.0, "lat": 38.93455, "type": "electric_scooter", "lon": -77.072361, "bike_id": "08e62e645aa27553475a73e60ac305f6", "rental_uris": {"android": "https://dc.lft.to/lastmile_qr_scan", "ios": "https://dc.lft.to/lastmile_qr_scan"}, "name": "08e62e645aa27553475a73e60ac305f6", "is_reserved": 0}, {"is_disabled": 0, "fusion_lon": 0.0, "fusion_lat": 0.0, "lat": 38.907400833333334, "type": "electric_scooter", "lon": -77.03464783333334, "bike_id": "3ad2e99d6588f4ddf6cfa306d73aae23", "rental_uris": {"android": "https://dc.lft.to/lastmile_qr_scan", "ios": "https://dc.lft.to/lastmile_qr_scan"}, "name": "3ad2e99d6588f4ddf6cfa306d73aae23", "is_reserved": 0}, {"is_disabled": 0, "fusion_lon": 0.0, "fusion_lat": 0.0, "lat": 38.93923383333333, "type": "electric_scooter", "lon": -77.07465516666667, "bike_id": "552b480d78a6edc96f259b18b2d8ded7", "rental_uris": {"android": "https://dc.lft.to/lastmile_qr_scan", "ios": "https://dc.lft.to/lastmile_qr_scan"}, "name": "552b480d78a6edc96f259b18b2d8ded7", "is_reserved": 0}, {"is_disabled": 0, "fusion_lon": 0.0, "fusion_lat": 0.0, "lat": 38.902678, "type": "electric_scooter", "lon": -77.0020065, "bike_id": "daec6b7ade9bba814963ee57ca74a696", "rental_uris": {"android": "https://dc.lft.to/lastmile_qr_scan", "ios": "https://dc.lft.to/lastmile_qr_scan"}, "name": "daec6b7ade9bba814963ee57ca74a696", "is_reserved": 0}, {"is_disabled": 0, "fusion_lon": 0.0, "fusion_lat": 0.0, "lat": 38.94975983333333, "type": "electric_scooter", "lon": -77.037718, "bike_id": "6b7eba1eb0c77c9e7142b1ebb1226235", "rental_uris": {"android": "https://dc.lft.to/lastmile_qr_scan", "ios": "https://dc.lft.to/lastmile_qr_scan"}, "name": "6b7eba1eb0c77c9e7142b1ebb1226235", "is_reserved": 0}, {"is_disabled": 0, "fusion_lon": 0.0, "fusion_lat": 0.0, "lat": 38.9079085, "type": "electric_scooter", "lon": -77.009673, "bike_id": "0b0cd4f7d2ed1c48b7099c8a75337c91", "rental_uris": {"android": "https://dc.lft.to/lastmile_qr_scan", "ios": "https://dc.lft.to/lastmile_qr_scan"}, "name": "0b0cd4f7d2ed1c48b7099c8a75337c91", "is_reserved": 0}, {"is_disabled": 0, "fusion_lon": 0.0, "fusion_lat": 0.0, "lat": 38.90226766666667, "type": "electric_scooter", "lon": -77.051254, "bike_id": "01f558336d123849040834fdb7a8dec9", "rental_uris": {"android": "https://dc.lft.to/lastmile_qr_scan", "ios": "https://dc.lft.to/lastmile_qr_scan"}, "name": "01f558336d123849040834fdb7a8dec9", "is_reserved": 0}, {"is_disabled": 0, "fusion_lon": 0.0, "fusion_lat": 0.0, "lat": 38.904068, "type": "electric_scooter", "lon": -77.04032683333334, "bike_id": "2b6904ef68ecb21a8ba75093331da196", "rental_uris": {"android": "https://dc.lft.to/lastmile_qr_scan", "ios": "https://dc.lft.to/lastmile_qr_scan"}, "name": "2b6904ef68ecb21a8ba75093331da196", "is_reserved": 0}, {"is_disabled": 0, "fusion_lon": 0.0, "fusion_lat": 0.0, "lat": 38.917174833333334, "type": "electric_scooter", "lon": -77.0981265, "bike_id": "831417d37bfc4b6c1aeb4ca6bf3dcc23", "rental_uris": {"android": "https://dc.lft.to/lastmile_qr_scan", "ios": "https://dc.lft.to/lastmile_qr_scan"}, "name": "831417d37bfc4b6c1aeb4ca6bf3dcc23", "is_reserved": 0}, {"is_disabled": 0, "fusion_lon": 0.0, "fusion_lat": 0.0, "lat": 38.894856, "type": "electric_scooter", "lon": -76.99522233333333, "bike_id": "2d50bce6892aa7b49e02ba358883a4db", "rental_uris": {"android": "https://dc.lft.to/lastmile_qr_scan", "ios": "https://dc.lft.to/lastmile_qr_scan"}, "name": "2d50bce6892aa7b49e02ba358883a4db", "is_reserved": 0}, {"is_disabled": 0, "fusion_lon": 0.0, "fusion_lat": 0.0, "lat": 38.923614, "type": "electric_scooter", "lon": -77.050611, "bike_id": "8a5817f538de21929a7daec5ae3d879a", "rental_uris": {"android": "https://dc.lft.to/lastmile_qr_scan", "ios": "https://dc.lft.to/lastmile_qr_scan"}, "name": "8a5817f538de21929a7daec5ae3d879a", "is_reserved": 0}, {"is_disabled": 0, "fusion_lon": 0.0, "fusion_lat": 0.0, "lat": 38.861130333333335, "type": "electric_scooter", "lon": -76.99323533333333, "bike_id": "720c06ce85d1151f8833470b1c3122e5", "rental_uris": {"android": "https://dc.lft.to/lastmile_qr_scan", "ios": "https://dc.lft.to/lastmile_qr_scan"}, "name": "720c06ce85d1151f8833470b1c3122e5", "is_reserved": 0}, {"is_disabled": 0, "fusion_lon": 0.0, "fusion_lat": 0.0, "lat": 38.89222983333333, "type": "electric_scooter", "lon": -77.04687066666666, "bike_id": "4b200cbd13cec13e46d3c596a08ca793", "rental_uris": {"android": "https://dc.lft.to/lastmile_qr_scan", "ios": "https://dc.lft.to/lastmile_qr_scan"}, "name": "4b200cbd13cec13e46d3c596a08ca793", "is_reserved": 0}, {"is_disabled": 0, "fusion_lon": 0.0, "fusion_lat": 0.0, "lat": 38.94176433333333, "type": "electric_scooter", "lon": -77.02538433333334, "bike_id": "9389cc832260bbfa34c881e9a179b76e", "rental_uris": {"android": "https://dc.lft.to/lastmile_qr_scan", "ios": "https://dc.lft.to/lastmile_qr_scan"}, "name": "9389cc832260bbfa34c881e9a179b76e", "is_reserved": 0}, {"is_disabled": 0, "fusion_lon": 0.0, "fusion_lat": 0.0, "lat": 38.89016766666667, "type": "electric_scooter", "lon": -76.93736016666666, "bike_id": "3f699d58c95f5b6a501285811c45719f", "rental_uris": {"android": "https://dc.lft.to/lastmile_qr_scan", "ios": "https://dc.lft.to/lastmile_qr_scan"}, "name": "3f699d58c95f5b6a501285811c45719f", "is_reserved": 0}, {"is_disabled": 0, "fusion_lon": 0.0, "fusion_lat": 0.0, "lat": 38.883636833333334, "type": "electric_scooter", "lon": -76.92641983333333, "bike_id": "6043ffe43c5a6334d6bbd5e05e93048f", "rental_uris": {"android": "https://dc.lft.to/lastmile_qr_scan", "ios": "https://dc.lft.to/lastmile_qr_scan"}, "name": "6043ffe43c5a6334d6bbd5e05e93048f", "is_reserved": 0}, {"is_disabled": 0, "fusion_lon": 0.0, "fusion_lat": 0.0, "lat": 38.95042483333334, "type": "electric_bike", "lon": -77.01261533333333, "bike_id": "d39f24e192d2d1beac02bca56556ff27", "rental_uris": {"android": "https://dc.lft.to/lastmile_qr_scan", "ios": "https://dc.lft.to/lastmile_qr_scan"}, "name": "d39f24e192d2d1beac02bca56556ff27", "is_reserved": 0}, {"is_disabled": 0, "fusion_lon": 0.0, "fusion_lat": 0.0, "lat": 38.90127716666667, "type": "electric_scooter", "lon": -77.0497605, "bike_id": "bd2425c049a9cc2ac70cf855ead8c22e", "rental_uris": {"android": "https://dc.lft.to/lastmile_qr_scan", "ios": "https://dc.lft.to/lastmile_qr_scan"}, "name": "bd2425c049a9cc2ac70cf855ead8c22e", "is_reserved": 0}, {"is_disabled": 0, "fusion_lon": 0.0, "fusion_lat": 0.0, "lat": 38.92158966666667, "type": "electric_scooter", "lon": -77.04289483333334, "bike_id": "b60e4974bfba252d17c977d3300452fe", "rental_uris": {"android": "https://dc.lft.to/lastmile_qr_scan", "ios": "https://dc.lft.to/lastmile_qr_scan"}, "name": "b60e4974bfba252d17c977d3300452fe", "is_reserved": 0}, {"is_disabled": 0, "fusion_lon": 0.0, "fusion_lat": 0.0, "lat": 38.90574616666667, "type": "electric_scooter", "lon": -77.03461666666666, "bike_id": "55726ddda05d66308398e162981163cf", "rental_uris": {"android": "https://dc.lft.to/lastmile_qr_scan", "ios": "https://dc.lft.to/lastmile_qr_scan"}, "name": "55726ddda05d66308398e162981163cf", "is_reserved": 0}, {"is_disabled": 0, "fusion_lon": 0.0, "fusion_lat": 0.0, "lat": 38.922447166666664, "type": "electric_scooter", "lon": -77.0427695, "bike_id": "e51b08381df10d8bcd41f49ef48b6014", "rental_uris": {"android": "https://dc.lft.to/lastmile_qr_scan", "ios": "https://dc.lft.to/lastmile_qr_scan"}, "name": "e51b08381df10d8bcd41f49ef48b6014", "is_reserved": 0}, {"is_disabled": 0, "fusion_lon": 0.0, "fusion_lat": 0.0, "lat": 38.903847666666664, "type": "electric_scooter", "lon": -77.05347816666666, "bike_id": "4de7dd78cb554556d3a0d15310d42203", "rental_uris": {"android": "https://dc.lft.to/lastmile_qr_scan", "ios": "https://dc.lft.to/lastmile_qr_scan"}, "name": "4de7dd78cb554556d3a0d15310d42203", "is_reserved": 0}, {"is_disabled": 0, "fusion_lon": 0.0, "fusion_lat": 0.0, "lat": 38.91877483333333, "type": "electric_scooter", "lon": -77.015982, "bike_id": "af962b84d6a7d55629926e1ad172edd9", "rental_uris": {"android": "https://dc.lft.to/lastmile_qr_scan", "ios": "https://dc.lft.to/lastmile_qr_scan"}, "name": "af962b84d6a7d55629926e1ad172edd9", "is_reserved": 0}, {"is_disabled": 0, "fusion_lon": 0.0, "fusion_lat": 0.0, "lat": 38.992539, "type": "electric_bike", "lon": -77.04996833333334, "bike_id": "22478e06f33cb44767fec9edbb6f8279", "rental_uris": {"android": "https://dc.lft.to/lastmile_qr_scan", "ios": "https://dc.lft.to/lastmile_qr_scan"}, "name": "22478e06f33cb44767fec9edbb6f8279", "is_reserved": 0}, {"is_disabled": 0, "fusion_lon": 0.0, "fusion_lat": 0.0, "lat": 38.93188333333333, "type": "electric_bike", "lon": -77.22941983333334, "bike_id": "7d6c639cf3cf677d9e7d44a270eb0574", "rental_uris": {"android": "https://dc.lft.to/lastmile_qr_scan", "ios": "https://dc.lft.to/lastmile_qr_scan"}, "name": "7d6c639cf3cf677d9e7d44a270eb0574", "is_reserved": 0}, {"is_disabled": 0, "fusion_lon": 0.0, "fusion_lat": 0.0, "lat": 39.006548, "type": "electric_bike", "lon": -76.900281, "bike_id": "65ee909143135043b32e3aab2cf3649b", "rental_uris": {"android": "https://dc.lft.to/lastmile_qr_scan", "ios": "https://dc.lft.to/lastmile_qr_scan"}, "name": "65ee909143135043b32e3aab2cf3649b", "is_reserved": 0}, {"is_disabled": 0, "fusion_lon": 0.0, "fusion_lat": 0.0, "lat": 38.95082583333333, "type": "electric_scooter", "lon": -77.02877, "bike_id": "e7583f141e1c65eaaa4304d77c28cc14", "rental_uris": {"android": "https://dc.lft.to/lastmile_qr_scan", "ios": "https://dc.lft.to/lastmile_qr_scan"}, "name": "e7583f141e1c65eaaa4304d77c28cc14", "is_reserved": 0}, {"is_disabled": 0, "fusion_lon": 0.0, "fusion_lat": 0.0, "lat": 38.86497216666667, "type": "electric_scooter", "lon": -76.97335866666667, "bike_id": "d4e318e4d2edc2cb4976b7b568aa0a63", "rental_uris": {"android": "https://dc.lft.to/lastmile_qr_scan", "ios": "https://dc.lft.to/lastmile_qr_scan"}, "name": "d4e318e4d2edc2cb4976b7b568aa0a63", "is_reserved": 0}, {"is_disabled": 0, "fusion_lon": 0.0, "fusion_lat": 0.0, "lat": 38.858422833333336, "type": "electric_scooter", "lon": -76.9907265, "bike_id": "94061adfcafee5f408c3ae8cdaa0e05f", "rental_uris": {"android": "https://dc.lft.to/lastmile_qr_scan", "ios": "https://dc.lft.to/lastmile_qr_scan"}, "name": "94061adfcafee5f408c3ae8cdaa0e05f", "is_reserved": 0}, {"is_disabled": 0, "fusion_lon": 0.0, "fusion_lat": 0.0, "lat": 38.94984866666667, "type": "electric_scooter", "lon": -77.02701083333334, "bike_id": "0c95ab1379cf267d7b3558cf5d4b5d61", "rental_uris": {"android": "https://dc.lft.to/lastmile_qr_scan", "ios": "https://dc.lft.to/lastmile_qr_scan"}, "name": "0c95ab1379cf267d7b3558cf5d4b5d61", "is_reserved": 0}, {"is_disabled": 0, "fusion_lon": 0.0, "fusion_lat": 0.0, "lat": 38.924693500000004, "type": "electric_scooter", "lon": -77.02205266666667, "bike_id": "912174bb3254752bc4eba6135b541250", "rental_uris": {"android": "https://dc.lft.to/lastmile_qr_scan", "ios": "https://dc.lft.to/lastmile_qr_scan"}, "name": "912174bb3254752bc4eba6135b541250", "is_reserved": 0}, {"is_disabled": 0, "fusion_lon": 0.0, "fusion_lat": 0.0, "lat": 38.962152, "type": "electric_scooter", "lon": -77.02803433333334, "bike_id": "e4993d36f94772927089c6471b56e561", "rental_uris": {"android": "https://dc.lft.to/lastmile_qr_scan", "ios": "https://dc.lft.to/lastmile_qr_scan"}, "name": "e4993d36f94772927089c6471b56e561", "is_reserved": 0}, {"is_disabled": 0, "fusion_lon": 0.0, "fusion_lat": 0.0, "lat": 38.961913833333334, "type": "electric_scooter", "lon": -77.02793716666666, "bike_id": "b737857072023549b143f7bf6585d7a4", "rental_uris": {"android": "https://dc.lft.to/lastmile_qr_scan", "ios": "https://dc.lft.to/lastmile_qr_scan"}, "name": "b737857072023549b143f7bf6585d7a4", "is_reserved": 0}, {"is_disabled": 0, "fusion_lon": 0.0, "fusion_lat": 0.0, "lat": 38.8782815, "type": "electric_scooter", "lon": -76.96314566666666, "bike_id": "9caa058706da1d6d3462053b41d0e9ba", "rental_uris": {"android": "https://dc.lft.to/lastmile_qr_scan", "ios": "https://dc.lft.to/lastmile_qr_scan"}, "name": "9caa058706da1d6d3462053b41d0e9ba", "is_reserved": 0}, {"is_disabled": 0, "fusion_lon": 0.0, "fusion_lat": 0.0, "lat": 38.9095495, "type": "electric_scooter", "lon": -77.02313983333333, "bike_id": "aeccce16f545af3645e5c75401415f69", "rental_uris": {"android": "https://dc.lft.to/lastmile_qr_scan", "ios": "https://dc.lft.to/lastmile_qr_scan"}, "name": "aeccce16f545af3645e5c75401415f69", "is_reserved": 0}, {"is_disabled": 0, "fusion_lon": 0.0, "fusion_lat": 0.0, "lat": 38.90273333333333, "type": "electric_scooter", "lon": -77.0173235, "bike_id": "ac1a297c66ca7dd06498bc90953cace5", "rental_uris": {"android": "https://dc.lft.to/lastmile_qr_scan", "ios": "https://dc.lft.to/lastmile_qr_scan"}, "name": "ac1a297c66ca7dd06498bc90953cace5", "is_reserved": 0}, {"is_disabled": 0, "fusion_lon": 0.0, "fusion_lat": 0.0, "lat": 38.902716833333336, "type": "electric_scooter", "lon": -77.03485033333334, "bike_id": "c73f33e68b47dd6ce5d9fbb9d1ad19e3", "rental_uris": {"android": "https://dc.lft.to/lastmile_qr_scan", "ios": "https://dc.lft.to/lastmile_qr_scan"}, "name": "c73f33e68b47dd6ce5d9fbb9d1ad19e3", "is_reserved": 0}, {"is_disabled": 0, "fusion_lon": 0.0, "fusion_lat": 0.0, "lat": 38.860452, "type": "electric_scooter", "lon": -76.9837665, "bike_id": "a3d875995c4cb2fa0ce5d1c6d551dea0", "rental_uris": {"android": "https://dc.lft.to/lastmile_qr_scan", "ios": "https://dc.lft.to/lastmile_qr_scan"}, "name": "a3d875995c4cb2fa0ce5d1c6d551dea0", "is_reserved": 0}, {"is_disabled": 0, "fusion_lon": 0.0, "fusion_lat": 0.0, "lat": 38.918182333333334, "type": "electric_scooter", "lon": -77.02478616666667, "bike_id": "bddeae851afa079b24d1334dc941040c", "rental_uris": {"android": "https://dc.lft.to/lastmile_qr_scan", "ios": "https://dc.lft.to/lastmile_qr_scan"}, "name": "bddeae851afa079b24d1334dc941040c", "is_reserved": 0}, {"is_disabled": 0, "fusion_lon": 0.0, "fusion_lat": 0.0, "lat": 38.88010283333333, "type": "electric_bike", "lon": -76.915966, "bike_id": "cec580d5046368c427a6a5c1a1a5b53b", "rental_uris": {"android": "https://dc.lft.to/lastmile_qr_scan", "ios": "https://dc.lft.to/lastmile_qr_scan"}, "name": "cec580d5046368c427a6a5c1a1a5b53b", "is_reserved": 0}, {"is_disabled": 0, "fusion_lon": 0.0, "fusion_lat": 0.0, "lat": 38.925625333333336, "type": "electric_scooter", "lon": -77.02288033333333, "bike_id": "528a8916c07e3ca4dbdc9818f4da78e0", "rental_uris": {"android": "https://dc.lft.to/lastmile_qr_scan", "ios": "https://dc.lft.to/lastmile_qr_scan"}, "name": "528a8916c07e3ca4dbdc9818f4da78e0", "is_reserved": 0}, {"is_disabled": 0, "fusion_lon": 0.0, "fusion_lat": 0.0, "lat": 38.9192485, "type": "electric_scooter", "lon": -77.00946533333334, "bike_id": "d7d80624b042153f8f14f3c07b27d693", "rental_uris": {"android": "https://dc.lft.to/lastmile_qr_scan", "ios": "https://dc.lft.to/lastmile_qr_scan"}, "name": "d7d80624b042153f8f14f3c07b27d693", "is_reserved": 0}, {"is_disabled": 0, "fusion_lon": 0.0, "fusion_lat": 0.0, "lat": 38.903208166666666, "type": "electric_scooter", "lon": -77.03641616666667, "bike_id": "7bddb75e11515c34c85cbd946407f64d", "rental_uris": {"android": "https://dc.lft.to/lastmile_qr_scan", "ios": "https://dc.lft.to/lastmile_qr_scan"}, "name": "7bddb75e11515c34c85cbd946407f64d", "is_reserved": 0}, {"is_disabled": 0, "fusion_lon": 0.0, "fusion_lat": 0.0, "lat": 38.9154275, "type": "electric_scooter", "lon": -77.03866216666667, "bike_id": "0281463016bf3d001f2e1f9f050d3a3b", "rental_uris": {"android": "https://dc.lft.to/lastmile_qr_scan", "ios": "https://dc.lft.to/lastmile_qr_scan"}, "name": "0281463016bf3d001f2e1f9f050d3a3b", "is_reserved": 0}, {"is_disabled": 0, "fusion_lon": 0.0, "fusion_lat": 0.0, "lat": 38.9325385, "type": "electric_scooter", "lon": -77.04017783333333, "bike_id": "45fcf6bb016052ff741fc9cf1203aeed", "rental_uris": {"android": "https://dc.lft.to/lastmile_qr_scan", "ios": "https://dc.lft.to/lastmile_qr_scan"}, "name": "45fcf6bb016052ff741fc9cf1203aeed", "is_reserved": 0}, {"is_disabled": 0, "fusion_lon": 0.0, "fusion_lat": 0.0, "lat": 38.928716333333334, "type": "electric_scooter", "lon": -76.99032333333334, "bike_id": "6a90ba450391a920c0ec6bb0aaeecac4", "rental_uris": {"android": "https://dc.lft.to/lastmile_qr_scan", "ios": "https://dc.lft.to/lastmile_qr_scan"}, "name": "6a90ba450391a920c0ec6bb0aaeecac4", "is_reserved": 0}, {"is_disabled": 0, "fusion_lon": 0.0, "fusion_lat": 0.0, "lat": 38.994528833333334, "type": "electric_bike", "lon": -76.908175, "bike_id": "1f8835fc52c655b86b6e69dd90ff9d30", "rental_uris": {"android": "https://dc.lft.to/lastmile_qr_scan", "ios": "https://dc.lft.to/lastmile_qr_scan"}, "name": "1f8835fc52c655b86b6e69dd90ff9d30", "is_reserved": 0}, {"is_disabled": 0, "fusion_lon": 0.0, "fusion_lat": 0.0, "lat": 38.934748166666665, "type": "electric_scooter", "lon": -77.0726855, "bike_id": "1ba9675440c876f528795098eb9f1b08", "rental_uris": {"android": "https://dc.lft.to/lastmile_qr_scan", "ios": "https://dc.lft.to/lastmile_qr_scan"}, "name": "1ba9675440c876f528795098eb9f1b08", "is_reserved": 0}, {"is_disabled": 0, "fusion_lon": 0.0, "fusion_lat": 0.0, "lat": 38.85989716666667, "type": "electric_bike", "lon": -76.97053683333333, "bike_id": "e5253a8d2d0cb2443fa1acdb9ed9d0d0", "rental_uris": {"android": "https://dc.lft.to/lastmile_qr_scan", "ios": "https://dc.lft.to/lastmile_qr_scan"}, "name": "e5253a8d2d0cb2443fa1acdb9ed9d0d0", "is_reserved": 0}, {"is_disabled": 0, "fusion_lon": 0.0, "fusion_lat": 0.0, "lat": 38.86662283333333, "type": "electric_scooter", "lon": -76.988957, "bike_id": "bb4ed246d33a4bcf2599bc3800755236", "rental_uris": {"android": "https://dc.lft.to/lastmile_qr_scan", "ios": "https://dc.lft.to/lastmile_qr_scan"}, "name": "bb4ed246d33a4bcf2599bc3800755236", "is_reserved": 0}, {"is_disabled": 0, "fusion_lon": 0.0, "fusion_lat": 0.0, "lat": 38.923443, "type": "electric_scooter", "lon": -76.99876483333334, "bike_id": "c49220a7d4a1458a36aa9160819c17cb", "rental_uris": {"android": "https://dc.lft.to/lastmile_qr_scan", "ios": "https://dc.lft.to/lastmile_qr_scan"}, "name": "c49220a7d4a1458a36aa9160819c17cb", "is_reserved": 0}, {"is_disabled": 0, "fusion_lon": 0.0, "fusion_lat": 0.0, "lat": 38.908425, "type": "electric_scooter", "lon": -77.02702966666666, "bike_id": "409b2f674f08d660bb9f4be461aba89d", "rental_uris": {"android": "https://dc.lft.to/lastmile_qr_scan", "ios": "https://dc.lft.to/lastmile_qr_scan"}, "name": "409b2f674f08d660bb9f4be461aba89d", "is_reserved": 0}, {"is_disabled": 0, "fusion_lon": 0.0, "fusion_lat": 0.0, "lat": 38.94294166666667, "type": "electric_scooter", "lon": -77.02173983333333, "bike_id": "43169170135ec9d3605849315812c96d", "rental_uris": {"android": "https://dc.lft.to/lastmile_qr_scan", "ios": "https://dc.lft.to/lastmile_qr_scan"}, "name": "43169170135ec9d3605849315812c96d", "is_reserved": 0}, {"is_disabled": 0, "fusion_lon": 0.0, "fusion_lat": 0.0, "lat": 38.94984983333333, "type": "electric_scooter", "lon": -77.02703333333334, "bike_id": "b458548c5abcd700aca519fea8ff04d4", "rental_uris": {"android": "https://dc.lft.to/lastmile_qr_scan", "ios": "https://dc.lft.to/lastmile_qr_scan"}, "name": "b458548c5abcd700aca519fea8ff04d4", "is_reserved": 0}, {"is_disabled": 0, "fusion_lon": 0.0, "fusion_lat": 0.0, "lat": 38.86738716666667, "type": "electric_scooter", "lon": -76.98857866666667, "bike_id": "5cf544de3004097361d546cec6017b9b", "rental_uris": {"android": "https://dc.lft.to/lastmile_qr_scan", "ios": "https://dc.lft.to/lastmile_qr_scan"}, "name": "5cf544de3004097361d546cec6017b9b", "is_reserved": 0}, {"is_disabled": 0, "fusion_lon": 0.0, "fusion_lat": 0.0, "lat": 38.87689133333333, "type": "electric_scooter", "lon": -77.01763483333333, "bike_id": "f789e3ef5014d3dabb931000fa1d6165", "rental_uris": {"android": "https://dc.lft.to/lastmile_qr_scan", "ios": "https://dc.lft.to/lastmile_qr_scan"}, "name": "f789e3ef5014d3dabb931000fa1d6165", "is_reserved": 0}, {"is_disabled": 0, "fusion_lon": 0.0, "fusion_lat": 0.0, "lat": 38.9119605, "type": "electric_scooter", "lon": -77.0297635, "bike_id": "b932bfbaa49382a1b98dd6c6dac5656c", "rental_uris": {"android": "https://dc.lft.to/lastmile_qr_scan", "ios": "https://dc.lft.to/lastmile_qr_scan"}, "name": "b932bfbaa49382a1b98dd6c6dac5656c", "is_reserved": 0}, {"is_disabled": 0, "fusion_lon": 0.0, "fusion_lat": 0.0, "lat": 38.906247666666665, "type": "electric_scooter", "lon": -77.037243, "bike_id": "b3b72a1f525b1f278728e2cceb22b237", "rental_uris": {"android": "https://dc.lft.to/lastmile_qr_scan", "ios": "https://dc.lft.to/lastmile_qr_scan"}, "name": "b3b72a1f525b1f278728e2cceb22b237", "is_reserved": 0}, {"is_disabled": 0, "fusion_lon": 0.0, "fusion_lat": 0.0, "lat": 38.907174833333336, "type": "electric_scooter", "lon": -77.0255385, "bike_id": "38e89e1b4675a14413ed6fa2b203c11f", "rental_uris": {"android": "https://dc.lft.to/lastmile_qr_scan", "ios": "https://dc.lft.to/lastmile_qr_scan"}, "name": "38e89e1b4675a14413ed6fa2b203c11f", "is_reserved": 0}, {"is_disabled": 0, "fusion_lon": 0.0, "fusion_lat": 0.0, "lat": 38.831534, "type": "electric_bike", "lon": -76.99693833333333, "bike_id": "4858313ebad8e6f774f1a53a6e4f28c2", "rental_uris": {"android": "https://dc.lft.to/lastmile_qr_scan", "ios": "https://dc.lft.to/lastmile_qr_scan"}, "name": "4858313ebad8e6f774f1a53a6e4f28c2", "is_reserved": 0}, {"is_disabled": 0, "fusion_lon": 0.0, "fusion_lat": 0.0, "lat": 38.8973205, "type": "electric_scooter", "lon": -77.0499185, "bike_id": "be7d0e250157a65b1d5ad92771dd10a0", "rental_uris": {"android": "https://dc.lft.to/lastmile_qr_scan", "ios": "https://dc.lft.to/lastmile_qr_scan"}, "name": "be7d0e250157a65b1d5ad92771dd10a0", "is_reserved": 0}, {"is_disabled": 0, "fusion_lon": 0.0, "fusion_lat": 0.0, "lat": 38.921217, "type": "electric_bike", "lon": -77.01212466666667, "bike_id": "7f86bf55642ae8f0e58f4a12e525dab8", "rental_uris": {"android": "https://dc.lft.to/lastmile_qr_scan", "ios": "https://dc.lft.to/lastmile_qr_scan"}, "name": "7f86bf55642ae8f0e58f4a12e525dab8", "is_reserved": 0}, {"is_disabled": 0, "fusion_lon": 0.0, "fusion_lat": 0.0, "lat": 38.89797466666667, "type": "electric_scooter", "lon": -76.9305045, "bike_id": "58e02c4a92fc2c2ca011ba4d1245d014", "rental_uris": {"android": "https://dc.lft.to/lastmile_qr_scan", "ios": "https://dc.lft.to/lastmile_qr_scan"}, "name": "58e02c4a92fc2c2ca011ba4d1245d014", "is_reserved": 0}, {"is_disabled": 0, "fusion_lon": 0.0, "fusion_lat": 0.0, "lat": 38.935403, "type": "electric_scooter", "lon": -77.05776183333333, "bike_id": "5fcc2f8bbbdeb78b921bc06af0d1e633", "rental_uris": {"android": "https://dc.lft.to/lastmile_qr_scan", "ios": "https://dc.lft.to/lastmile_qr_scan"}, "name": "5fcc2f8bbbdeb78b921bc06af0d1e633", "is_reserved": 0}, {"is_disabled": 0, "fusion_lon": 0.0, "fusion_lat": 0.0, "lat": 38.95012216666667, "type": "electric_bike", "lon": -77.05469266666667, "bike_id": "d32c6a69ab6f84563102af91b77b2827", "rental_uris": {"android": "https://dc.lft.to/lastmile_qr_scan", "ios": "https://dc.lft.to/lastmile_qr_scan"}, "name": "d32c6a69ab6f84563102af91b77b2827", "is_reserved": 0}, {"is_disabled": 0, "fusion_lon": 0.0, "fusion_lat": 0.0, "lat": 38.9078665, "type": "electric_scooter", "lon": -77.0386485, "bike_id": "475df5c2b94fd64be9b2bb05c3d742df", "rental_uris": {"android": "https://dc.lft.to/lastmile_qr_scan", "ios": "https://dc.lft.to/lastmile_qr_scan"}, "name": "475df5c2b94fd64be9b2bb05c3d742df", "is_reserved": 0}, {"is_disabled": 0, "fusion_lon": 0.0, "fusion_lat": 0.0, "lat": 38.892273833333334, "type": "electric_scooter", "lon": -77.04795483333334, "bike_id": "ca643be6795cfa350e1e17849c2d2a62", "rental_uris": {"android": "https://dc.lft.to/lastmile_qr_scan", "ios": "https://dc.lft.to/lastmile_qr_scan"}, "name": "ca643be6795cfa350e1e17849c2d2a62", "is_reserved": 0}, {"is_disabled": 0, "fusion_lon": 0.0, "fusion_lat": 0.0, "lat": 38.90940233333333, "type": "electric_scooter", "lon": -77.03524683333333, "bike_id": "bf287c50e507d9e32a722b8c9b423a4c", "rental_uris": {"android": "https://dc.lft.to/lastmile_qr_scan", "ios": "https://dc.lft.to/lastmile_qr_scan"}, "name": "bf287c50e507d9e32a722b8c9b423a4c", "is_reserved": 0}, {"is_disabled": 0, "fusion_lon": 0.0, "fusion_lat": 0.0, "lat": 38.932756833333336, "type": "electric_scooter", "lon": -77.039816, "bike_id": "90aee1a37073f823bd2b69eaa368567f", "rental_uris": {"android": "https://dc.lft.to/lastmile_qr_scan", "ios": "https://dc.lft.to/lastmile_qr_scan"}, "name": "90aee1a37073f823bd2b69eaa368567f", "is_reserved": 0}, {"is_disabled": 0, "fusion_lon": 0.0, "fusion_lat": 0.0, "lat": 38.881163, "type": "electric_bike", "lon": -77.00190066666667, "bike_id": "036dc0c4be4d6ed12ef00df522b9cb59", "rental_uris": {"android": "https://dc.lft.to/lastmile_qr_scan", "ios": "https://dc.lft.to/lastmile_qr_scan"}, "name": "036dc0c4be4d6ed12ef00df522b9cb59", "is_reserved": 0}, {"is_disabled": 0, "fusion_lon": 0.0, "fusion_lat": 0.0, "lat": 38.897364333333336, "type": "electric_scooter", "lon": -77.02716983333333, "bike_id": "96bf384229a14341f60ba695bd7804ff", "rental_uris": {"android": "https://dc.lft.to/lastmile_qr_scan", "ios": "https://dc.lft.to/lastmile_qr_scan"}, "name": "96bf384229a14341f60ba695bd7804ff", "is_reserved": 0}, {"is_disabled": 0, "fusion_lon": 0.0, "fusion_lat": 0.0, "lat": 38.90025416666667, "type": "electric_scooter", "lon": -77.02903366666666, "bike_id": "5ce1aff03178217bad31fb9781186210", "rental_uris": {"android": "https://dc.lft.to/lastmile_qr_scan", "ios": "https://dc.lft.to/lastmile_qr_scan"}, "name": "5ce1aff03178217bad31fb9781186210", "is_reserved": 0}, {"is_disabled": 0, "fusion_lon": 0.0, "fusion_lat": 0.0, "lat": 38.885402, "type": "electric_scooter", "lon": -76.92699383333333, "bike_id": "c7340b6265cef9a132566d80e6fe7c6a", "rental_uris": {"android": "https://dc.lft.to/lastmile_qr_scan", "ios": "https://dc.lft.to/lastmile_qr_scan"}, "name": "c7340b6265cef9a132566d80e6fe7c6a", "is_reserved": 0}, {"is_disabled": 0, "fusion_lon": 0.0, "fusion_lat": 0.0, "lat": 38.910448, "type": "electric_scooter", "lon": -77.03378133333334, "bike_id": "f01838cb0d4812c2ced15ace37273334", "rental_uris": {"android": "https://dc.lft.to/lastmile_qr_scan", "ios": "https://dc.lft.to/lastmile_qr_scan"}, "name": "f01838cb0d4812c2ced15ace37273334", "is_reserved": 0}, {"is_disabled": 0, "fusion_lon": 0.0, "fusion_lat": 0.0, "lat": 38.827817333333336, "type": "electric_bike", "lon": -77.11083666666667, "bike_id": "470c824b59bb4d9226a2104cd62ba8f3", "rental_uris": {"android": "https://dc.lft.to/lastmile_qr_scan", "ios": "https://dc.lft.to/lastmile_qr_scan"}, "name": "470c824b59bb4d9226a2104cd62ba8f3", "is_reserved": 0}, {"is_disabled": 0, "fusion_lon": 0.0, "fusion_lat": 0.0, "lat": 38.824446, "type": "electric_bike", "lon": -77.07045883333333, "bike_id": "ff367c5183ed4f6ad7fa5b97fd4e29d0", "rental_uris": {"android": "https://dc.lft.to/lastmile_qr_scan", "ios": "https://dc.lft.to/lastmile_qr_scan"}, "name": "ff367c5183ed4f6ad7fa5b97fd4e29d0", "is_reserved": 0}, {"is_disabled": 0, "fusion_lon": 0.0, "fusion_lat": 0.0, "lat": 38.9619235, "type": "electric_scooter", "lon": -77.0279065, "bike_id": "5a4bea932292d2a335abbffbc591c2a2", "rental_uris": {"android": "https://dc.lft.to/lastmile_qr_scan", "ios": "https://dc.lft.to/lastmile_qr_scan"}, "name": "5a4bea932292d2a335abbffbc591c2a2", "is_reserved": 0}, {"is_disabled": 0, "fusion_lon": 0.0, "fusion_lat": 0.0, "lat": 38.90037783333333, "type": "electric_scooter", "lon": -77.001955, "bike_id": "f0fd8a154df24de6c04b7be7b694cad2", "rental_uris": {"android": "https://dc.lft.to/lastmile_qr_scan", "ios": "https://dc.lft.to/lastmile_qr_scan"}, "name": "f0fd8a154df24de6c04b7be7b694cad2", "is_reserved": 0}, {"is_disabled": 0, "fusion_lon": 0.0, "fusion_lat": 0.0, "lat": 38.9396305, "type": "electric_scooter", "lon": -77.03288816666667, "bike_id": "2c4db3ee9f771819b64a0426a7eb8377", "rental_uris": {"android": "https://dc.lft.to/lastmile_qr_scan", "ios": "https://dc.lft.to/lastmile_qr_scan"}, "name": "2c4db3ee9f771819b64a0426a7eb8377", "is_reserved": 0}, {"is_disabled": 0, "fusion_lon": 0.0, "fusion_lat": 0.0, "lat": 38.89833516666667, "type": "electric_scooter", "lon": -76.94634816666667, "bike_id": "4f4c5c4adbd2d765a7076be4ef29fc8c", "rental_uris": {"android": "https://dc.lft.to/lastmile_qr_scan", "ios": "https://dc.lft.to/lastmile_qr_scan"}, "name": "4f4c5c4adbd2d765a7076be4ef29fc8c", "is_reserved": 0}, {"is_disabled": 0, "fusion_lon": 0.0, "fusion_lat": 0.0, "lat": 38.86530183333333, "type": "electric_bike", "lon": -77.12815116666667, "bike_id": "37a4349088de06751d7cf601d941904b", "rental_uris": {"android": "https://dc.lft.to/lastmile_qr_scan", "ios": "https://dc.lft.to/lastmile_qr_scan"}, "name": "37a4349088de06751d7cf601d941904b", "is_reserved": 0}, {"is_disabled": 0, "fusion_lon": 0.0, "fusion_lat": 0.0, "lat": 38.930311833333334, "type": "electric_scooter", "lon": -77.0345425, "bike_id": "0637876edc5d14813e2d55f59ab0d903", "rental_uris": {"android": "https://dc.lft.to/lastmile_qr_scan", "ios": "https://dc.lft.to/lastmile_qr_scan"}, "name": "0637876edc5d14813e2d55f59ab0d903", "is_reserved": 0}, {"is_disabled": 0, "fusion_lon": 0.0, "fusion_lat": 0.0, "lat": 38.9096935, "type": "electric_scooter", "lon": -77.01110833333334, "bike_id": "3e04ff31db1dd4f99fa988a28cbb8eaa", "rental_uris": {"android": "https://dc.lft.to/lastmile_qr_scan", "ios": "https://dc.lft.to/lastmile_qr_scan"}, "name": "3e04ff31db1dd4f99fa988a28cbb8eaa", "is_reserved": 0}, {"is_disabled": 0, "fusion_lon": 0.0, "fusion_lat": 0.0, "lat": 38.91727366666667, "type": "electric_scooter", "lon": -77.02820433333333, "bike_id": "574fbedd053d938d402c97370e52c2ca", "rental_uris": {"android": "https://dc.lft.to/lastmile_qr_scan", "ios": "https://dc.lft.to/lastmile_qr_scan"}, "name": "574fbedd053d938d402c97370e52c2ca", "is_reserved": 0}, {"is_disabled": 0, "fusion_lon": 0.0, "fusion_lat": 0.0, "lat": 39.00018216666667, "type": "electric_bike", "lon": -76.87288383333333, "bike_id": "20f02553b0cfda215f97c185651e1358", "rental_uris": {"android": "https://dc.lft.to/lastmile_qr_scan", "ios": "https://dc.lft.to/lastmile_qr_scan"}, "name": "20f02553b0cfda215f97c185651e1358", "is_reserved": 0}, {"is_disabled": 0, "fusion_lon": 0.0, "fusion_lat": 0.0, "lat": 38.8959095, "type": "electric_scooter", "lon": -77.02576083333334, "bike_id": "ea0a4af64fc0ec9b365f12e6ffaaa210", "rental_uris": {"android": "https://dc.lft.to/lastmile_qr_scan", "ios": "https://dc.lft.to/lastmile_qr_scan"}, "name": "ea0a4af64fc0ec9b365f12e6ffaaa210", "is_reserved": 0}, {"is_disabled": 0, "fusion_lon": 0.0, "fusion_lat": 0.0, "lat": 38.828763, "type": "electric_bike", "lon": -77.11221883333333, "bike_id": "9df81b2bb06127623fd9ec6ae1416cb9", "rental_uris": {"android": "https://dc.lft.to/lastmile_qr_scan", "ios": "https://dc.lft.to/lastmile_qr_scan"}, "name": "9df81b2bb06127623fd9ec6ae1416cb9", "is_reserved": 0}, {"is_disabled": 0, "fusion_lon": 0.0, "fusion_lat": 0.0, "lat": 38.925815, "type": "electric_scooter", "lon": -77.040234, "bike_id": "b5e9f06db7db309a0982534ef92d9fa8", "rental_uris": {"android": "https://dc.lft.to/lastmile_qr_scan", "ios": "https://dc.lft.to/lastmile_qr_scan"}, "name": "b5e9f06db7db309a0982534ef92d9fa8", "is_reserved": 0}, {"is_disabled": 0, "fusion_lon": 0.0, "fusion_lat": 0.0, "lat": 38.921638333333334, "type": "electric_scooter", "lon": -77.0265535, "bike_id": "54766b49b4a3c260e6afcf8fe47b2d2f", "rental_uris": {"android": "https://dc.lft.to/lastmile_qr_scan", "ios": "https://dc.lft.to/lastmile_qr_scan"}, "name": "54766b49b4a3c260e6afcf8fe47b2d2f", "is_reserved": 0}, {"is_disabled": 0, "fusion_lon": 0.0, "fusion_lat": 0.0, "lat": 38.898437666666666, "type": "electric_scooter", "lon": -76.92629816666667, "bike_id": "e202432e555e49a74c23638a06c32c10", "rental_uris": {"android": "https://dc.lft.to/lastmile_qr_scan", "ios": "https://dc.lft.to/lastmile_qr_scan"}, "name": "e202432e555e49a74c23638a06c32c10", "is_reserved": 0}, {"is_disabled": 0, "fusion_lon": 0.0, "fusion_lat": 0.0, "lat": 38.9253985, "type": "electric_scooter", "lon": -77.04072833333333, "bike_id": "28b57a51eedd220cc076dfbe7bd608b8", "rental_uris": {"android": "https://dc.lft.to/lastmile_qr_scan", "ios": "https://dc.lft.to/lastmile_qr_scan"}, "name": "28b57a51eedd220cc076dfbe7bd608b8", "is_reserved": 0}, {"is_disabled": 0, "fusion_lon": 0.0, "fusion_lat": 0.0, "lat": 38.915364333333336, "type": "electric_scooter", "lon": -77.02002716666667, "bike_id": "181491735743b1d1733b1c33e7f7dce3", "rental_uris": {"android": "https://dc.lft.to/lastmile_qr_scan", "ios": "https://dc.lft.to/lastmile_qr_scan"}, "name": "181491735743b1d1733b1c33e7f7dce3", "is_reserved": 0}, {"is_disabled": 0, "fusion_lon": 0.0, "fusion_lat": 0.0, "lat": 38.91201866666667, "type": "electric_scooter", "lon": -77.04536333333333, "bike_id": "42b58f5702ab552ad2ca20834e4de342", "rental_uris": {"android": "https://dc.lft.to/lastmile_qr_scan", "ios": "https://dc.lft.to/lastmile_qr_scan"}, "name": "42b58f5702ab552ad2ca20834e4de342", "is_reserved": 0}, {"is_disabled": 0, "fusion_lon": 0.0, "fusion_lat": 0.0, "lat": 38.92943833333333, "type": "electric_scooter", "lon": -77.03275283333333, "bike_id": "68ac73b296054586f40db61ed2dca793", "rental_uris": {"android": "https://dc.lft.to/lastmile_qr_scan", "ios": "https://dc.lft.to/lastmile_qr_scan"}, "name": "68ac73b296054586f40db61ed2dca793", "is_reserved": 0}, {"is_disabled": 0, "fusion_lon": 0.0, "fusion_lat": 0.0, "lat": 38.9215145, "type": "electric_scooter", "lon": -77.0344495, "bike_id": "dc91f43178b50a673134335d43543f20", "rental_uris": {"android": "https://dc.lft.to/lastmile_qr_scan", "ios": "https://dc.lft.to/lastmile_qr_scan"}, "name": "dc91f43178b50a673134335d43543f20", "is_reserved": 0}, {"is_disabled": 0, "fusion_lon": 0.0, "fusion_lat": 0.0, "lat": 38.896643, "type": "electric_scooter", "lon": -76.94760733333334, "bike_id": "def49f66cd2cb88137b052afebe4c904", "rental_uris": {"android": "https://dc.lft.to/lastmile_qr_scan", "ios": "https://dc.lft.to/lastmile_qr_scan"}, "name": "def49f66cd2cb88137b052afebe4c904", "is_reserved": 0}, {"is_disabled": 0, "fusion_lon": 0.0, "fusion_lat": 0.0, "lat": 38.9313615, "type": "electric_scooter", "lon": -77.02344933333333, "bike_id": "137289d61afbeb281930294911b83e2c", "rental_uris": {"android": "https://dc.lft.to/lastmile_qr_scan", "ios": "https://dc.lft.to/lastmile_qr_scan"}, "name": "137289d61afbeb281930294911b83e2c", "is_reserved": 0}, {"is_disabled": 0, "fusion_lon": 0.0, "fusion_lat": 0.0, "lat": 38.916345166666666, "type": "electric_bike", "lon": -77.0045265, "bike_id": "d7edb1e841ff943830a469421d1a65bf", "rental_uris": {"android": "https://dc.lft.to/lastmile_qr_scan", "ios": "https://dc.lft.to/lastmile_qr_scan"}, "name": "d7edb1e841ff943830a469421d1a65bf", "is_reserved": 0}, {"is_disabled": 0, "fusion_lon": 0.0, "fusion_lat": 0.0, "lat": 38.92448016666667, "type": "electric_bike", "lon": -76.968386, "bike_id": "29b144b35bf770be6d740f88a26f3ca0", "rental_uris": {"android": "https://dc.lft.to/lastmile_qr_scan", "ios": "https://dc.lft.to/lastmile_qr_scan"}, "name": "29b144b35bf770be6d740f88a26f3ca0", "is_reserved": 0}, {"is_disabled": 0, "fusion_lon": 0.0, "fusion_lat": 0.0, "lat": 39.10566466666667, "type": "electric_bike", "lon": -77.1527, "bike_id": "79148d2c5a36efa9371fbae420384d4f", "rental_uris": {"android": "https://dc.lft.to/lastmile_qr_scan", "ios": "https://dc.lft.to/lastmile_qr_scan"}, "name": "79148d2c5a36efa9371fbae420384d4f", "is_reserved": 0}, {"is_disabled": 0, "fusion_lon": 0.0, "fusion_lat": 0.0, "lat": 38.94179333333334, "type": "electric_scooter", "lon": -77.0365625, "bike_id": "05b888ec312b65ecd4f61d5211417932", "rental_uris": {"android": "https://dc.lft.to/lastmile_qr_scan", "ios": "https://dc.lft.to/lastmile_qr_scan"}, "name": "05b888ec312b65ecd4f61d5211417932", "is_reserved": 0}, {"is_disabled": 0, "fusion_lon": 0.0, "fusion_lat": 0.0, "lat": 38.92897266666667, "type": "electric_scooter", "lon": -76.98462733333334, "bike_id": "0a175bbce08a7b44be9df1817d75b150", "rental_uris": {"android": "https://dc.lft.to/lastmile_qr_scan", "ios": "https://dc.lft.to/lastmile_qr_scan"}, "name": "0a175bbce08a7b44be9df1817d75b150", "is_reserved": 0}, {"is_disabled": 0, "fusion_lon": 0.0, "fusion_lat": 0.0, "lat": 38.90402266666667, "type": "electric_scooter", "lon": -77.04073533333333, "bike_id": "5e35f786433c0d9bf0c5795eb8b741d1", "rental_uris": {"android": "https://dc.lft.to/lastmile_qr_scan", "ios": "https://dc.lft.to/lastmile_qr_scan"}, "name": "5e35f786433c0d9bf0c5795eb8b741d1", "is_reserved": 0}, {"is_disabled": 0, "fusion_lon": 0.0, "fusion_lat": 0.0, "lat": 38.904776166666664, "type": "electric_scooter", "lon": -77.0021895, "bike_id": "76ac3747cab8aa2a6332a7b0ee12664f", "rental_uris": {"android": "https://dc.lft.to/lastmile_qr_scan", "ios": "https://dc.lft.to/lastmile_qr_scan"}, "name": "76ac3747cab8aa2a6332a7b0ee12664f", "is_reserved": 0}, {"is_disabled": 0, "fusion_lon": 0.0, "fusion_lat": 0.0, "lat": 38.89881866666666, "type": "electric_scooter", "lon": -76.93161666666667, "bike_id": "cc6dd23a41b23d46621a3ebc88ec35d9", "rental_uris": {"android": "https://dc.lft.to/lastmile_qr_scan", "ios": "https://dc.lft.to/lastmile_qr_scan"}, "name": "cc6dd23a41b23d46621a3ebc88ec35d9", "is_reserved": 0}, {"is_disabled": 0, "fusion_lon": 0.0, "fusion_lat": 0.0, "lat": 38.91333516666667, "type": "electric_scooter", "lon": -77.04865233333334, "bike_id": "4ea560e57c6965d7d570016f87301395", "rental_uris": {"android": "https://dc.lft.to/lastmile_qr_scan", "ios": "https://dc.lft.to/lastmile_qr_scan"}, "name": "4ea560e57c6965d7d570016f87301395", "is_reserved": 0}, {"is_disabled": 0, "fusion_lon": 0.0, "fusion_lat": 0.0, "lat": 38.88374916666667, "type": "electric_scooter", "lon": -76.92378416666666, "bike_id": "ad96973f83db1e81a619f2498ac63f3e", "rental_uris": {"android": "https://dc.lft.to/lastmile_qr_scan", "ios": "https://dc.lft.to/lastmile_qr_scan"}, "name": "ad96973f83db1e81a619f2498ac63f3e", "is_reserved": 0}, {"is_disabled": 0, "fusion_lon": 0.0, "fusion_lat": 0.0, "lat": 38.9119495, "type": "electric_bike", "lon": -77.00445366666666, "bike_id": "76de7e802ef34da409bb34180a704812", "rental_uris": {"android": "https://dc.lft.to/lastmile_qr_scan", "ios": "https://dc.lft.to/lastmile_qr_scan"}, "name": "76de7e802ef34da409bb34180a704812", "is_reserved": 0}, {"is_disabled": 0, "fusion_lon": 0.0, "fusion_lat": 0.0, "lat": 38.911949, "type": "electric_scooter", "lon": -77.03851983333334, "bike_id": "d01157e8dcce5f553c1f8bddd471d162", "rental_uris": {"android": "https://dc.lft.to/lastmile_qr_scan", "ios": "https://dc.lft.to/lastmile_qr_scan"}, "name": "d01157e8dcce5f553c1f8bddd471d162", "is_reserved": 0}, {"is_disabled": 0, "fusion_lon": 0.0, "fusion_lat": 0.0, "lat": 38.916591833333335, "type": "electric_scooter", "lon": -77.04653133333333, "bike_id": "0926f48706309dab6896410e7e404cf8", "rental_uris": {"android": "https://dc.lft.to/lastmile_qr_scan", "ios": "https://dc.lft.to/lastmile_qr_scan"}, "name": "0926f48706309dab6896410e7e404cf8", "is_reserved": 0}, {"is_disabled": 0, "fusion_lon": 0.0, "fusion_lat": 0.0, "lat": 38.90965116666667, "type": "electric_scooter", "lon": -77.01928783333334, "bike_id": "88f581f4c08cf2c81afbc1a97807302d", "rental_uris": {"android": "https://dc.lft.to/lastmile_qr_scan", "ios": "https://dc.lft.to/lastmile_qr_scan"}, "name": "88f581f4c08cf2c81afbc1a97807302d", "is_reserved": 0}, {"is_disabled": 0, "fusion_lon": 0.0, "fusion_lat": 0.0, "lat": 38.91718133333333, "type": "electric_scooter", "lon": -77.02616483333334, "bike_id": "56929454fe91a9dba0a602cf577f2dd3", "rental_uris": {"android": "https://dc.lft.to/lastmile_qr_scan", "ios": "https://dc.lft.to/lastmile_qr_scan"}, "name": "56929454fe91a9dba0a602cf577f2dd3", "is_reserved": 0}, {"is_disabled": 0, "fusion_lon": 0.0, "fusion_lat": 0.0, "lat": 38.91251116666667, "type": "electric_scooter", "lon": -77.03832783333333, "bike_id": "4361354db8f2a5570e1219b642583cc0", "rental_uris": {"android": "https://dc.lft.to/lastmile_qr_scan", "ios": "https://dc.lft.to/lastmile_qr_scan"}, "name": "4361354db8f2a5570e1219b642583cc0", "is_reserved": 0}, {"is_disabled": 0, "fusion_lon": 0.0, "fusion_lat": 0.0, "lat": 38.90961433333333, "type": "electric_scooter", "lon": -77.08134266666667, "bike_id": "31a9dd7bedd55918ce60c723797583f9", "rental_uris": {"android": "https://dc.lft.to/lastmile_qr_scan", "ios": "https://dc.lft.to/lastmile_qr_scan"}, "name": "31a9dd7bedd55918ce60c723797583f9", "is_reserved": 0}, {"is_disabled": 0, "fusion_lon": 0.0, "fusion_lat": 0.0, "lat": 38.906639, "type": "electric_scooter", "lon": -77.02699033333333, "bike_id": "6f49f746f78f4ddefcdddb38fac9733f", "rental_uris": {"android": "https://dc.lft.to/lastmile_qr_scan", "ios": "https://dc.lft.to/lastmile_qr_scan"}, "name": "6f49f746f78f4ddefcdddb38fac9733f", "is_reserved": 0}, {"is_disabled": 0, "fusion_lon": 0.0, "fusion_lat": 0.0, "lat": 38.907783, "type": "electric_scooter", "lon": -77.03470883333334, "bike_id": "64bf86ca8318448c2a558c92499f608c", "rental_uris": {"android": "https://dc.lft.to/lastmile_qr_scan", "ios": "https://dc.lft.to/lastmile_qr_scan"}, "name": "64bf86ca8318448c2a558c92499f608c", "is_reserved": 0}, {"is_disabled": 0, "fusion_lon": 0.0, "fusion_lat": 0.0, "lat": 38.93911533333333, "type": "electric_bike", "lon": -77.06044783333333, "bike_id": "b1e7d49b33415541071a8cbcaa6e0a9c", "rental_uris": {"android": "https://dc.lft.to/lastmile_qr_scan", "ios": "https://dc.lft.to/lastmile_qr_scan"}, "name": "b1e7d49b33415541071a8cbcaa6e0a9c", "is_reserved": 0}, {"is_disabled": 0, "fusion_lon": 0.0, "fusion_lat": 0.0, "lat": 38.9181825, "type": "electric_scooter", "lon": -77.0140835, "bike_id": "6be2b43c8b4bbd1b87226ba0e3e6617c", "rental_uris": {"android": "https://dc.lft.to/lastmile_qr_scan", "ios": "https://dc.lft.to/lastmile_qr_scan"}, "name": "6be2b43c8b4bbd1b87226ba0e3e6617c", "is_reserved": 0}, {"is_disabled": 0, "fusion_lon": 0.0, "fusion_lat": 0.0, "lat": 38.870568, "type": "electric_bike", "lon": -77.013558, "bike_id": "558eb915adc21e585291cf70e7f2b489", "rental_uris": {"android": "https://dc.lft.to/lastmile_qr_scan", "ios": "https://dc.lft.to/lastmile_qr_scan"}, "name": "558eb915adc21e585291cf70e7f2b489", "is_reserved": 0}, {"is_disabled": 0, "fusion_lon": 0.0, "fusion_lat": 0.0, "lat": 38.916867, "type": "electric_scooter", "lon": -77.01206666666667, "bike_id": "02bb4921fdefb9effe15699b45ae9608", "rental_uris": {"android": "https://dc.lft.to/lastmile_qr_scan", "ios": "https://dc.lft.to/lastmile_qr_scan"}, "name": "02bb4921fdefb9effe15699b45ae9608", "is_reserved": 0}, {"is_disabled": 0, "fusion_lon": 0.0, "fusion_lat": 0.0, "lat": 38.918084, "type": "electric_scooter", "lon": -77.02691666666666, "bike_id": "ab915d102579e17f04adb78c4a6e0179", "rental_uris": {"android": "https://dc.lft.to/lastmile_qr_scan", "ios": "https://dc.lft.to/lastmile_qr_scan"}, "name": "ab915d102579e17f04adb78c4a6e0179", "is_reserved": 0}, {"is_disabled": 0, "fusion_lon": 0.0, "fusion_lat": 0.0, "lat": 38.89813633333333, "type": "electric_scooter", "lon": -77.0021225, "bike_id": "ec8158a8d2e9c47e0695d0d21afdeca1", "rental_uris": {"android": "https://dc.lft.to/lastmile_qr_scan", "ios": "https://dc.lft.to/lastmile_qr_scan"}, "name": "ec8158a8d2e9c47e0695d0d21afdeca1", "is_reserved": 0}, {"is_disabled": 0, "fusion_lon": 0.0, "fusion_lat": 0.0, "lat": 38.898529, "type": "electric_bike", "lon": -76.93190633333333, "bike_id": "d98dd9655176c6da92a33a27322625b2", "rental_uris": {"android": "https://dc.lft.to/lastmile_qr_scan", "ios": "https://dc.lft.to/lastmile_qr_scan"}, "name": "d98dd9655176c6da92a33a27322625b2", "is_reserved": 0}, {"is_disabled": 0, "fusion_lon": 0.0, "fusion_lat": 0.0, "lat": 38.920338666666666, "type": "electric_scooter", "lon": -77.0258515, "bike_id": "d3eb46e72d03e9c778ce7bcab4b6f504", "rental_uris": {"android": "https://dc.lft.to/lastmile_qr_scan", "ios": "https://dc.lft.to/lastmile_qr_scan"}, "name": "d3eb46e72d03e9c778ce7bcab4b6f504", "is_reserved": 0}, {"is_disabled": 0, "fusion_lon": 0.0, "fusion_lat": 0.0, "lat": 38.91096016666667, "type": "electric_scooter", "lon": -77.04254516666667, "bike_id": "635c47c2eafff8de5ea0d803ffe5831f", "rental_uris": {"android": "https://dc.lft.to/lastmile_qr_scan", "ios": "https://dc.lft.to/lastmile_qr_scan"}, "name": "635c47c2eafff8de5ea0d803ffe5831f", "is_reserved": 0}, {"is_disabled": 0, "fusion_lon": 0.0, "fusion_lat": 0.0, "lat": 38.918509, "type": "electric_bike", "lon": -76.960934, "bike_id": "11bbf57f1f5a834aaeea323cd11f3128", "rental_uris": {"android": "https://dc.lft.to/lastmile_qr_scan", "ios": "https://dc.lft.to/lastmile_qr_scan"}, "name": "11bbf57f1f5a834aaeea323cd11f3128", "is_reserved": 0}, {"is_disabled": 0, "fusion_lon": 0.0, "fusion_lat": 0.0, "lat": 38.91410066666667, "type": "electric_scooter", "lon": -77.02569233333334, "bike_id": "ab11012ff659aa0f73ea5546c8edd51f", "rental_uris": {"android": "https://dc.lft.to/lastmile_qr_scan", "ios": "https://dc.lft.to/lastmile_qr_scan"}, "name": "ab11012ff659aa0f73ea5546c8edd51f", "is_reserved": 0}, {"is_disabled": 0, "fusion_lon": 0.0, "fusion_lat": 0.0, "lat": 38.868514, "type": "electric_bike", "lon": -77.09724216666666, "bike_id": "d70ca7101e7a663f92418399fb14bac7", "rental_uris": {"android": "https://dc.lft.to/lastmile_qr_scan", "ios": "https://dc.lft.to/lastmile_qr_scan"}, "name": "d70ca7101e7a663f92418399fb14bac7", "is_reserved": 0}, {"is_disabled": 0, "fusion_lon": 0.0, "fusion_lat": 0.0, "lat": 38.935196833333336, "type": "electric_scooter", "lon": -77.02372416666667, "bike_id": "78fd847a3819c054a73db90f91443173", "rental_uris": {"android": "https://dc.lft.to/lastmile_qr_scan", "ios": "https://dc.lft.to/lastmile_qr_scan"}, "name": "78fd847a3819c054a73db90f91443173", "is_reserved": 0}, {"is_disabled": 0, "fusion_lon": 0.0, "fusion_lat": 0.0, "lat": 38.920207833333336, "type": "electric_scooter", "lon": -77.03136966666666, "bike_id": "7b5cd5f289e5ba86f6944929e765e1ff", "rental_uris": {"android": "https://dc.lft.to/lastmile_qr_scan", "ios": "https://dc.lft.to/lastmile_qr_scan"}, "name": "7b5cd5f289e5ba86f6944929e765e1ff", "is_reserved": 0}, {"is_disabled": 0, "fusion_lon": 0.0, "fusion_lat": 0.0, "lat": 38.9441855, "type": "electric_scooter", "lon": -77.02635983333333, "bike_id": "3ff7b9b20fa7fbdf9c3186d1ddf5821e", "rental_uris": {"android": "https://dc.lft.to/lastmile_qr_scan", "ios": "https://dc.lft.to/lastmile_qr_scan"}, "name": "3ff7b9b20fa7fbdf9c3186d1ddf5821e", "is_reserved": 0}, {"is_disabled": 0, "fusion_lon": 0.0, "fusion_lat": 0.0, "lat": 38.90722733333333, "type": "electric_scooter", "lon": -77.024453, "bike_id": "cb64b6fc47d37218bb832c71a9744869", "rental_uris": {"android": "https://dc.lft.to/lastmile_qr_scan", "ios": "https://dc.lft.to/lastmile_qr_scan"}, "name": "cb64b6fc47d37218bb832c71a9744869", "is_reserved": 0}, {"is_disabled": 0, "fusion_lon": 0.0, "fusion_lat": 0.0, "lat": 38.914807333333336, "type": "electric_scooter", "lon": -76.98366883333334, "bike_id": "00f2774fa10fac950b69e1f56854eecc", "rental_uris": {"android": "https://dc.lft.to/lastmile_qr_scan", "ios": "https://dc.lft.to/lastmile_qr_scan"}, "name": "00f2774fa10fac950b69e1f56854eecc", "is_reserved": 0}, {"is_disabled": 0, "fusion_lon": 0.0, "fusion_lat": 0.0, "lat": 38.89501, "type": "electric_scooter", "lon": -76.94883616666667, "bike_id": "f594801880c4ab5dcf39f83a59f504dc", "rental_uris": {"android": "https://dc.lft.to/lastmile_qr_scan", "ios": "https://dc.lft.to/lastmile_qr_scan"}, "name": "f594801880c4ab5dcf39f83a59f504dc", "is_reserved": 0}, {"is_disabled": 0, "fusion_lon": 0.0, "fusion_lat": 0.0, "lat": 38.97825433333333, "type": "electric_bike", "lon": -76.92888183333334, "bike_id": "cc110d93fabc1cb8fb437be8b406cce6", "rental_uris": {"android": "https://dc.lft.to/lastmile_qr_scan", "ios": "https://dc.lft.to/lastmile_qr_scan"}, "name": "cc110d93fabc1cb8fb437be8b406cce6", "is_reserved": 0}, {"is_disabled": 0, "fusion_lon": 0.0, "fusion_lat": 0.0, "lat": 38.90137083333333, "type": "electric_scooter", "lon": -76.993667, "bike_id": "35fade31a3abcd617424908ffcf8bf4f", "rental_uris": {"android": "https://dc.lft.to/lastmile_qr_scan", "ios": "https://dc.lft.to/lastmile_qr_scan"}, "name": "35fade31a3abcd617424908ffcf8bf4f", "is_reserved": 0}, {"is_disabled": 0, "fusion_lon": 0.0, "fusion_lat": 0.0, "lat": 38.90214133333333, "type": "electric_scooter", "lon": -77.02438816666667, "bike_id": "29a7d867db14329b1c509aac21438f82", "rental_uris": {"android": "https://dc.lft.to/lastmile_qr_scan", "ios": "https://dc.lft.to/lastmile_qr_scan"}, "name": "29a7d867db14329b1c509aac21438f82", "is_reserved": 0}, {"is_disabled": 0, "fusion_lon": 0.0, "fusion_lat": 0.0, "lat": 38.9397, "type": "electric_scooter", "lon": -77.0279805, "bike_id": "21875281858e81118b9712cecfb387d5", "rental_uris": {"android": "https://dc.lft.to/lastmile_qr_scan", "ios": "https://dc.lft.to/lastmile_qr_scan"}, "name": "21875281858e81118b9712cecfb387d5", "is_reserved": 0}, {"is_disabled": 0, "fusion_lon": 0.0, "fusion_lat": 0.0, "lat": 38.9312495, "type": "electric_scooter", "lon": -77.05720383333333, "bike_id": "339f3bdfaefccb14db8cb8a022e97541", "rental_uris": {"android": "https://dc.lft.to/lastmile_qr_scan", "ios": "https://dc.lft.to/lastmile_qr_scan"}, "name": "339f3bdfaefccb14db8cb8a022e97541", "is_reserved": 0}, {"is_disabled": 0, "fusion_lon": 0.0, "fusion_lat": 0.0, "lat": 38.89962933333334, "type": "electric_scooter", "lon": -76.98315083333334, "bike_id": "9233b527f9a6c9912f0cd3531bcac264", "rental_uris": {"android": "https://dc.lft.to/lastmile_qr_scan", "ios": "https://dc.lft.to/lastmile_qr_scan"}, "name": "9233b527f9a6c9912f0cd3531bcac264", "is_reserved": 0}, {"is_disabled": 0, "fusion_lon": 0.0, "fusion_lat": 0.0, "lat": 38.82729466666667, "type": "electric_bike", "lon": -77.00866383333333, "bike_id": "afae26067e05c4f73f8b0eb41ee8e12b", "rental_uris": {"android": "https://dc.lft.to/lastmile_qr_scan", "ios": "https://dc.lft.to/lastmile_qr_scan"}, "name": "afae26067e05c4f73f8b0eb41ee8e12b", "is_reserved": 0}, {"is_disabled": 0, "fusion_lon": 0.0, "fusion_lat": 0.0, "lat": 38.92514583333333, "type": "electric_scooter", "lon": -77.02581983333333, "bike_id": "d29e301edeec74535ebf257cb937de24", "rental_uris": {"android": "https://dc.lft.to/lastmile_qr_scan", "ios": "https://dc.lft.to/lastmile_qr_scan"}, "name": "d29e301edeec74535ebf257cb937de24", "is_reserved": 0}, {"is_disabled": 0, "fusion_lon": 0.0, "fusion_lat": 0.0, "lat": 38.91725133333333, "type": "electric_scooter", "lon": -77.0280495, "bike_id": "c948b6685d4581945a46cfb0dd3e83f6", "rental_uris": {"android": "https://dc.lft.to/lastmile_qr_scan", "ios": "https://dc.lft.to/lastmile_qr_scan"}, "name": "c948b6685d4581945a46cfb0dd3e83f6", "is_reserved": 0}, {"is_disabled": 0, "fusion_lon": 0.0, "fusion_lat": 0.0, "lat": 38.918054166666664, "type": "electric_scooter", "lon": -77.02689333333333, "bike_id": "1e5b42866498839ceabd68ac88ed5a30", "rental_uris": {"android": "https://dc.lft.to/lastmile_qr_scan", "ios": "https://dc.lft.to/lastmile_qr_scan"}, "name": "1e5b42866498839ceabd68ac88ed5a30", "is_reserved": 0}, {"is_disabled": 0, "fusion_lon": 0.0, "fusion_lat": 0.0, "lat": 38.90719033333333, "type": "electric_scooter", "lon": -77.02442866666667, "bike_id": "d09d872190d2704f508f2b92f01aa9a7", "rental_uris": {"android": "https://dc.lft.to/lastmile_qr_scan", "ios": "https://dc.lft.to/lastmile_qr_scan"}, "name": "d09d872190d2704f508f2b92f01aa9a7", "is_reserved": 0}, {"is_disabled": 0, "fusion_lon": 0.0, "fusion_lat": 0.0, "lat": 38.93531016666667, "type": "electric_scooter", "lon": -77.03702083333333, "bike_id": "74129315904a23fc92750101fed8b3ba", "rental_uris": {"android": "https://dc.lft.to/lastmile_qr_scan", "ios": "https://dc.lft.to/lastmile_qr_scan"}, "name": "74129315904a23fc92750101fed8b3ba", "is_reserved": 0}, {"is_disabled": 0, "fusion_lon": 0.0, "fusion_lat": 0.0, "lat": 38.9322585, "type": "electric_scooter", "lon": -77.0326695, "bike_id": "dcb99c71ddc582f3f2964a90593a78a2", "rental_uris": {"android": "https://dc.lft.to/lastmile_qr_scan", "ios": "https://dc.lft.to/lastmile_qr_scan"}, "name": "dcb99c71ddc582f3f2964a90593a78a2", "is_reserved": 0}, {"is_disabled": 0, "fusion_lon": 0.0, "fusion_lat": 0.0, "lat": 38.91875616666667, "type": "electric_scooter", "lon": -77.04488816666667, "bike_id": "bbddd4a3461f315f7db18b866d70a075", "rental_uris": {"android": "https://dc.lft.to/lastmile_qr_scan", "ios": "https://dc.lft.to/lastmile_qr_scan"}, "name": "bbddd4a3461f315f7db18b866d70a075", "is_reserved": 0}, {"is_disabled": 0, "fusion_lon": 0.0, "fusion_lat": 0.0, "lat": 38.949854333333334, "type": "electric_scooter", "lon": -77.027041, "bike_id": "898b495fab44d335bfb3ad383a769f41", "rental_uris": {"android": "https://dc.lft.to/lastmile_qr_scan", "ios": "https://dc.lft.to/lastmile_qr_scan"}, "name": "898b495fab44d335bfb3ad383a769f41", "is_reserved": 0}, {"is_disabled": 0, "fusion_lon": 0.0, "fusion_lat": 0.0, "lat": 38.905597, "type": "electric_scooter", "lon": -77.03314666666667, "bike_id": "eec1c675ffa8366d4717f8413d1c5463", "rental_uris": {"android": "https://dc.lft.to/lastmile_qr_scan", "ios": "https://dc.lft.to/lastmile_qr_scan"}, "name": "eec1c675ffa8366d4717f8413d1c5463", "is_reserved": 0}, {"is_disabled": 0, "fusion_lon": 0.0, "fusion_lat": 0.0, "lat": 38.91720183333334, "type": "electric_scooter", "lon": -77.02306916666667, "bike_id": "8e17e683a7d746ea2baf8898fda030f6", "rental_uris": {"android": "https://dc.lft.to/lastmile_qr_scan", "ios": "https://dc.lft.to/lastmile_qr_scan"}, "name": "8e17e683a7d746ea2baf8898fda030f6", "is_reserved": 0}, {"is_disabled": 0, "fusion_lon": 0.0, "fusion_lat": 0.0, "lat": 38.900153833333334, "type": "electric_scooter", "lon": -77.0019675, "bike_id": "e4807b9f46eeac79c955fa670bbb41d7", "rental_uris": {"android": "https://dc.lft.to/lastmile_qr_scan", "ios": "https://dc.lft.to/lastmile_qr_scan"}, "name": "e4807b9f46eeac79c955fa670bbb41d7", "is_reserved": 0}, {"is_disabled": 0, "fusion_lon": 0.0, "fusion_lat": 0.0, "lat": 38.914202, "type": "electric_scooter", "lon": -77.0453825, "bike_id": "459d9a524a982c67c0a4eed3ee019399", "rental_uris": {"android": "https://dc.lft.to/lastmile_qr_scan", "ios": "https://dc.lft.to/lastmile_qr_scan"}, "name": "459d9a524a982c67c0a4eed3ee019399", "is_reserved": 0}, {"is_disabled": 0, "fusion_lon": 0.0, "fusion_lat": 0.0, "lat": 38.89518616666667, "type": "electric_scooter", "lon": -77.02929316666666, "bike_id": "274a66094ae113aad4b6a17b14dd1264", "rental_uris": {"android": "https://dc.lft.to/lastmile_qr_scan", "ios": "https://dc.lft.to/lastmile_qr_scan"}, "name": "274a66094ae113aad4b6a17b14dd1264", "is_reserved": 0}, {"is_disabled": 0, "fusion_lon": 0.0, "fusion_lat": 0.0, "lat": 38.91668133333334, "type": "electric_scooter", "lon": -77.032032, "bike_id": "7c5f947c463b7c4720b86e790856c1a6", "rental_uris": {"android": "https://dc.lft.to/lastmile_qr_scan", "ios": "https://dc.lft.to/lastmile_qr_scan"}, "name": "7c5f947c463b7c4720b86e790856c1a6", "is_reserved": 0}, {"is_disabled": 0, "fusion_lon": 0.0, "fusion_lat": 0.0, "lat": 38.900737666666664, "type": "electric_scooter", "lon": -77.05030416666666, "bike_id": "caefc9b9749be95306b973ce5e650228", "rental_uris": {"android": "https://dc.lft.to/lastmile_qr_scan", "ios": "https://dc.lft.to/lastmile_qr_scan"}, "name": "caefc9b9749be95306b973ce5e650228", "is_reserved": 0}, {"is_disabled": 0, "fusion_lon": 0.0, "fusion_lat": 0.0, "lat": 38.862481, "type": "electric_scooter", "lon": -76.99504516666667, "bike_id": "143fc6360eb8c8090cbb6f7b8fea9f5d", "rental_uris": {"android": "https://dc.lft.to/lastmile_qr_scan", "ios": "https://dc.lft.to/lastmile_qr_scan"}, "name": "143fc6360eb8c8090cbb6f7b8fea9f5d", "is_reserved": 0}, {"is_disabled": 0, "fusion_lon": 0.0, "fusion_lat": 0.0, "lat": 38.96817216666667, "type": "electric_scooter", "lon": -77.0089475, "bike_id": "366300cd53d63a1d8ce175c8c7f1c2eb", "rental_uris": {"android": "https://dc.lft.to/lastmile_qr_scan", "ios": "https://dc.lft.to/lastmile_qr_scan"}, "name": "366300cd53d63a1d8ce175c8c7f1c2eb", "is_reserved": 0}, {"is_disabled": 0, "fusion_lon": 0.0, "fusion_lat": 0.0, "lat": 38.9079285, "type": "electric_scooter", "lon": -77.0451125, "bike_id": "93fb0931cdd58aba5904ff2fae0b0ab1", "rental_uris": {"android": "https://dc.lft.to/lastmile_qr_scan", "ios": "https://dc.lft.to/lastmile_qr_scan"}, "name": "93fb0931cdd58aba5904ff2fae0b0ab1", "is_reserved": 0}, {"is_disabled": 0, "fusion_lon": 0.0, "fusion_lat": 0.0, "lat": 38.89724483333333, "type": "electric_bike", "lon": -76.90544533333333, "bike_id": "08234a8047c2d24e116ed990191993a9", "rental_uris": {"android": "https://dc.lft.to/lastmile_qr_scan", "ios": "https://dc.lft.to/lastmile_qr_scan"}, "name": "08234a8047c2d24e116ed990191993a9", "is_reserved": 0}, {"is_disabled": 0, "fusion_lon": 0.0, "fusion_lat": 0.0, "lat": 39.0520645, "type": "electric_bike", "lon": -77.04411583333334, "bike_id": "ab955b479cb20764d77f21195c9d80c4", "rental_uris": {"android": "https://dc.lft.to/lastmile_qr_scan", "ios": "https://dc.lft.to/lastmile_qr_scan"}, "name": "ab955b479cb20764d77f21195c9d80c4", "is_reserved": 0}, {"is_disabled": 0, "fusion_lon": 0.0, "fusion_lat": 0.0, "lat": 38.909697, "type": "electric_scooter", "lon": -77.03948616666666, "bike_id": "cc8262c52e94526a01adb3841a359087", "rental_uris": {"android": "https://dc.lft.to/lastmile_qr_scan", "ios": "https://dc.lft.to/lastmile_qr_scan"}, "name": "cc8262c52e94526a01adb3841a359087", "is_reserved": 0}, {"is_disabled": 0, "fusion_lon": 0.0, "fusion_lat": 0.0, "lat": 38.905297833333336, "type": "electric_scooter", "lon": -77.05153783333333, "bike_id": "5dee47de0ada787b062b3dafb2d6169c", "rental_uris": {"android": "https://dc.lft.to/lastmile_qr_scan", "ios": "https://dc.lft.to/lastmile_qr_scan"}, "name": "5dee47de0ada787b062b3dafb2d6169c", "is_reserved": 0}, {"is_disabled": 0, "fusion_lon": 0.0, "fusion_lat": 0.0, "lat": 38.8995435, "type": "electric_scooter", "lon": -77.05159083333334, "bike_id": "abba7fc9e6955383a84395d41d9dda10", "rental_uris": {"android": "https://dc.lft.to/lastmile_qr_scan", "ios": "https://dc.lft.to/lastmile_qr_scan"}, "name": "abba7fc9e6955383a84395d41d9dda10", "is_reserved": 0}, {"is_disabled": 0, "fusion_lon": 0.0, "fusion_lat": 0.0, "lat": 38.920371333333335, "type": "electric_scooter", "lon": -77.02591483333333, "bike_id": "073108640968a80754a11efa6c748235", "rental_uris": {"android": "https://dc.lft.to/lastmile_qr_scan", "ios": "https://dc.lft.to/lastmile_qr_scan"}, "name": "073108640968a80754a11efa6c748235", "is_reserved": 0}, {"is_disabled": 0, "fusion_lon": 0.0, "fusion_lat": 0.0, "lat": 38.9077465, "type": "electric_scooter", "lon": -77.0315475, "bike_id": "6edd7fcc7b61afcc2c0bf7307e53e60e", "rental_uris": {"android": "https://dc.lft.to/lastmile_qr_scan", "ios": "https://dc.lft.to/lastmile_qr_scan"}, "name": "6edd7fcc7b61afcc2c0bf7307e53e60e", "is_reserved": 0}, {"is_disabled": 0, "fusion_lon": 0.0, "fusion_lat": 0.0, "lat": 38.9470535, "type": "electric_scooter", "lon": -77.09071966666667, "bike_id": "5e28b60eb54dfd031b5a2f9cb2f340c9", "rental_uris": {"android": "https://dc.lft.to/lastmile_qr_scan", "ios": "https://dc.lft.to/lastmile_qr_scan"}, "name": "5e28b60eb54dfd031b5a2f9cb2f340c9", "is_reserved": 0}, {"is_disabled": 0, "fusion_lon": 0.0, "fusion_lat": 0.0, "lat": 38.9145645, "type": "electric_scooter", "lon": -77.020001, "bike_id": "824361c32a966d654aca7a33560fbd28", "rental_uris": {"android": "https://dc.lft.to/lastmile_qr_scan", "ios": "https://dc.lft.to/lastmile_qr_scan"}, "name": "824361c32a966d654aca7a33560fbd28", "is_reserved": 0}, {"is_disabled": 0, "fusion_lon": 0.0, "fusion_lat": 0.0, "lat": 38.936746, "type": "electric_bike", "lon": -76.95203333333333, "bike_id": "6c8c9f7a7523873fa530a7dd557cfcfa", "rental_uris": {"android": "https://dc.lft.to/lastmile_qr_scan", "ios": "https://dc.lft.to/lastmile_qr_scan"}, "name": "6c8c9f7a7523873fa530a7dd557cfcfa", "is_reserved": 0}, {"is_disabled": 0, "fusion_lon": 0.0, "fusion_lat": 0.0, "lat": 38.924319, "type": "electric_scooter", "lon": -77.0317705, "bike_id": "02ff88c56331d6eb3692d36fbd9e0a64", "rental_uris": {"android": "https://dc.lft.to/lastmile_qr_scan", "ios": "https://dc.lft.to/lastmile_qr_scan"}, "name": "02ff88c56331d6eb3692d36fbd9e0a64", "is_reserved": 0}, {"is_disabled": 0, "fusion_lon": 0.0, "fusion_lat": 0.0, "lat": 38.897577166666665, "type": "electric_scooter", "lon": -77.05129733333334, "bike_id": "6d6918cf1f97fa7f799a955a5e0f4d44", "rental_uris": {"android": "https://dc.lft.to/lastmile_qr_scan", "ios": "https://dc.lft.to/lastmile_qr_scan"}, "name": "6d6918cf1f97fa7f799a955a5e0f4d44", "is_reserved": 0}, {"is_disabled": 0, "fusion_lon": 0.0, "fusion_lat": 0.0, "lat": 38.88436183333334, "type": "electric_scooter", "lon": -77.029635, "bike_id": "d5bc7e7e7fd64624a43cfc16fdfc3bb6", "rental_uris": {"android": "https://dc.lft.to/lastmile_qr_scan", "ios": "https://dc.lft.to/lastmile_qr_scan"}, "name": "d5bc7e7e7fd64624a43cfc16fdfc3bb6", "is_reserved": 0}, {"is_disabled": 0, "fusion_lon": 0.0, "fusion_lat": 0.0, "lat": 38.88743983333333, "type": "electric_scooter", "lon": -77.0137775, "bike_id": "bde9199854cb612717ed3b63e24579bb", "rental_uris": {"android": "https://dc.lft.to/lastmile_qr_scan", "ios": "https://dc.lft.to/lastmile_qr_scan"}, "name": "bde9199854cb612717ed3b63e24579bb", "is_reserved": 0}, {"is_disabled": 0, "fusion_lon": 0.0, "fusion_lat": 0.0, "lat": 38.92175116666667, "type": "electric_scooter", "lon": -77.0422275, "bike_id": "5f108bebe3c644b92efdf9f3d361be49", "rental_uris": {"android": "https://dc.lft.to/lastmile_qr_scan", "ios": "https://dc.lft.to/lastmile_qr_scan"}, "name": "5f108bebe3c644b92efdf9f3d361be49", "is_reserved": 0}, {"is_disabled": 0, "fusion_lon": 0.0, "fusion_lat": 0.0, "lat": 38.912108333333336, "type": "electric_scooter", "lon": -77.03850116666666, "bike_id": "7e057a04a12f6df82c03a2b946490f9a", "rental_uris": {"android": "https://dc.lft.to/lastmile_qr_scan", "ios": "https://dc.lft.to/lastmile_qr_scan"}, "name": "7e057a04a12f6df82c03a2b946490f9a", "is_reserved": 0}, {"is_disabled": 0, "fusion_lon": 0.0, "fusion_lat": 0.0, "lat": 38.88309616666667, "type": "electric_scooter", "lon": -77.045268, "bike_id": "e2f31ff5e3ab51e4c5283f2e8a0ecf14", "rental_uris": {"android": "https://dc.lft.to/lastmile_qr_scan", "ios": "https://dc.lft.to/lastmile_qr_scan"}, "name": "e2f31ff5e3ab51e4c5283f2e8a0ecf14", "is_reserved": 0}, {"is_disabled": 0, "fusion_lon": 0.0, "fusion_lat": 0.0, "lat": 38.886004166666666, "type": "electric_scooter", "lon": -77.01535283333334, "bike_id": "2363d1c9dfd6de3160d6b377400217fc", "rental_uris": {"android": "https://dc.lft.to/lastmile_qr_scan", "ios": "https://dc.lft.to/lastmile_qr_scan"}, "name": "2363d1c9dfd6de3160d6b377400217fc", "is_reserved": 0}, {"is_disabled": 0, "fusion_lon": 0.0, "fusion_lat": 0.0, "lat": 38.93901966666667, "type": "electric_scooter", "lon": -77.0333835, "bike_id": "e7a835825396832e6cb39b940dfcfdfe", "rental_uris": {"android": "https://dc.lft.to/lastmile_qr_scan", "ios": "https://dc.lft.to/lastmile_qr_scan"}, "name": "e7a835825396832e6cb39b940dfcfdfe", "is_reserved": 0}, {"is_disabled": 0, "fusion_lon": 0.0, "fusion_lat": 0.0, "lat": 38.89138166666667, "type": "electric_bike", "lon": -77.0142335, "bike_id": "98bdd8a9f44298698e08ef4018f6fb5f", "rental_uris": {"android": "https://dc.lft.to/lastmile_qr_scan", "ios": "https://dc.lft.to/lastmile_qr_scan"}, "name": "98bdd8a9f44298698e08ef4018f6fb5f", "is_reserved": 0}, {"is_disabled": 0, "fusion_lon": 0.0, "fusion_lat": 0.0, "lat": 38.903494333333335, "type": "electric_scooter", "lon": -77.05342483333334, "bike_id": "62679aa7d6ffea5ab98921826b81b81a", "rental_uris": {"android": "https://dc.lft.to/lastmile_qr_scan", "ios": "https://dc.lft.to/lastmile_qr_scan"}, "name": "62679aa7d6ffea5ab98921826b81b81a", "is_reserved": 0}, {"is_disabled": 0, "fusion_lon": 0.0, "fusion_lat": 0.0, "lat": 38.905786666666664, "type": "electric_scooter", "lon": -77.00889833333333, "bike_id": "1b9555a0f1aff5ab0978db7a4bd22f7f", "rental_uris": {"android": "https://dc.lft.to/lastmile_qr_scan", "ios": "https://dc.lft.to/lastmile_qr_scan"}, "name": "1b9555a0f1aff5ab0978db7a4bd22f7f", "is_reserved": 0}, {"is_disabled": 0, "fusion_lon": 0.0, "fusion_lat": 0.0, "lat": 38.930852333333334, "type": "electric_scooter", "lon": -77.02149316666667, "bike_id": "6671db0eafeb4055ece5c0db1a4b05e0", "rental_uris": {"android": "https://dc.lft.to/lastmile_qr_scan", "ios": "https://dc.lft.to/lastmile_qr_scan"}, "name": "6671db0eafeb4055ece5c0db1a4b05e0", "is_reserved": 0}, {"is_disabled": 0, "fusion_lon": 0.0, "fusion_lat": 0.0, "lat": 38.92873483333333, "type": "electric_scooter", "lon": -77.01403283333333, "bike_id": "e1da3ae1c128106d169cee23e4ffbc8b", "rental_uris": {"android": "https://dc.lft.to/lastmile_qr_scan", "ios": "https://dc.lft.to/lastmile_qr_scan"}, "name": "e1da3ae1c128106d169cee23e4ffbc8b", "is_reserved": 0}, {"is_disabled": 0, "fusion_lon": 0.0, "fusion_lat": 0.0, "lat": 38.918178, "type": "electric_scooter", "lon": -77.02481383333334, "bike_id": "44fed9ea69295f04f8c19cc347f592a0", "rental_uris": {"android": "https://dc.lft.to/lastmile_qr_scan", "ios": "https://dc.lft.to/lastmile_qr_scan"}, "name": "44fed9ea69295f04f8c19cc347f592a0", "is_reserved": 0}, {"is_disabled": 0, "fusion_lon": 0.0, "fusion_lat": 0.0, "lat": 38.9353195, "type": "electric_scooter", "lon": -77.02361733333333, "bike_id": "c1103752e3b7788479beb244b580dd5e", "rental_uris": {"android": "https://dc.lft.to/lastmile_qr_scan", "ios": "https://dc.lft.to/lastmile_qr_scan"}, "name": "c1103752e3b7788479beb244b580dd5e", "is_reserved": 0}, {"is_disabled": 0, "fusion_lon": 0.0, "fusion_lat": 0.0, "lat": 38.923041833333336, "type": "electric_scooter", "lon": -77.04739333333333, "bike_id": "903920b315e3166bb14f18a8fb4d596b", "rental_uris": {"android": "https://dc.lft.to/lastmile_qr_scan", "ios": "https://dc.lft.to/lastmile_qr_scan"}, "name": "903920b315e3166bb14f18a8fb4d596b", "is_reserved": 0}, {"is_disabled": 0, "fusion_lon": 0.0, "fusion_lat": 0.0, "lat": 38.90687466666667, "type": "electric_scooter", "lon": -77.02718366666667, "bike_id": "c4c1a45e4239a58afae042b09e539894", "rental_uris": {"android": "https://dc.lft.to/lastmile_qr_scan", "ios": "https://dc.lft.to/lastmile_qr_scan"}, "name": "c4c1a45e4239a58afae042b09e539894", "is_reserved": 0}, {"is_disabled": 0, "fusion_lon": 0.0, "fusion_lat": 0.0, "lat": 38.844340333333335, "type": "electric_scooter", "lon": -76.99789166666666, "bike_id": "2a8570bebc35168a810409ee02d292d1", "rental_uris": {"android": "https://dc.lft.to/lastmile_qr_scan", "ios": "https://dc.lft.to/lastmile_qr_scan"}, "name": "2a8570bebc35168a810409ee02d292d1", "is_reserved": 0}, {"is_disabled": 0, "fusion_lon": 0.0, "fusion_lat": 0.0, "lat": 38.9133785, "type": "electric_scooter", "lon": -77.03985933333334, "bike_id": "422278924bb03e834fed76493c4530a8", "rental_uris": {"android": "https://dc.lft.to/lastmile_qr_scan", "ios": "https://dc.lft.to/lastmile_qr_scan"}, "name": "422278924bb03e834fed76493c4530a8", "is_reserved": 0}, {"is_disabled": 0, "fusion_lon": 0.0, "fusion_lat": 0.0, "lat": 38.935063, "type": "electric_scooter", "lon": -77.08226983333333, "bike_id": "44a0dbff366cdb408cfa9a0dec6e526e", "rental_uris": {"android": "https://dc.lft.to/lastmile_qr_scan", "ios": "https://dc.lft.to/lastmile_qr_scan"}, "name": "44a0dbff366cdb408cfa9a0dec6e526e", "is_reserved": 0}, {"is_disabled": 0, "fusion_lon": 0.0, "fusion_lat": 0.0, "lat": 38.9644665, "type": "electric_bike", "lon": -76.977261, "bike_id": "0a0230116053a0d0ed437fde3e04f2a5", "rental_uris": {"android": "https://dc.lft.to/lastmile_qr_scan", "ios": "https://dc.lft.to/lastmile_qr_scan"}, "name": "0a0230116053a0d0ed437fde3e04f2a5", "is_reserved": 0}, {"is_disabled": 0, "fusion_lon": 0.0, "fusion_lat": 0.0, "lat": 38.909611166666664, "type": "electric_scooter", "lon": -77.02285633333334, "bike_id": "0e98d23499467fee24eae55e2a130c39", "rental_uris": {"android": "https://dc.lft.to/lastmile_qr_scan", "ios": "https://dc.lft.to/lastmile_qr_scan"}, "name": "0e98d23499467fee24eae55e2a130c39", "is_reserved": 0}, {"is_disabled": 0, "fusion_lon": 0.0, "fusion_lat": 0.0, "lat": 38.9044095, "type": "electric_scooter", "lon": -77.04894566666667, "bike_id": "35649eae3e3f89d08931120b5d59ffdc", "rental_uris": {"android": "https://dc.lft.to/lastmile_qr_scan", "ios": "https://dc.lft.to/lastmile_qr_scan"}, "name": "35649eae3e3f89d08931120b5d59ffdc", "is_reserved": 0}, {"is_disabled": 0, "fusion_lon": 0.0, "fusion_lat": 0.0, "lat": 38.921460833333335, "type": "electric_scooter", "lon": -77.0297315, "bike_id": "765727090328b07fbabae8bb78a1ac7e", "rental_uris": {"android": "https://dc.lft.to/lastmile_qr_scan", "ios": "https://dc.lft.to/lastmile_qr_scan"}, "name": "765727090328b07fbabae8bb78a1ac7e", "is_reserved": 0}, {"is_disabled": 0, "fusion_lon": 0.0, "fusion_lat": 0.0, "lat": 38.952044, "type": "electric_scooter", "lon": -77.02739833333334, "bike_id": "07669590d690ee9ccda32df355615afe", "rental_uris": {"android": "https://dc.lft.to/lastmile_qr_scan", "ios": "https://dc.lft.to/lastmile_qr_scan"}, "name": "07669590d690ee9ccda32df355615afe", "is_reserved": 0},