{"data": {"bikes": [{"type": "electric_scooter", "rental_uris": {"ios": "https://dc.lft.to/lastmile_qr_scan", "android": "https://dc.lft.to/lastmile_qr_scan"}, "lon": -77.01476433333333, "fusion_lon": 0.0, "is_disabled": 0, "lat": 38.8764375, "bike_id": "a4bab88dcf3667239f15956801a79838", "name": "a4bab88dcf3667239f15956801a79838", "is_reserved": 0, "fusion_lat": 0.0}, {"type": "electric_scooter", "rental_uris": {"ios": "https://dc.lft.to/lastmile_qr_scan", "android": "https://dc.lft.to/lastmile_qr_scan"}, "lon": -77.0402255, "fusion_lon": 0.0, "is_disabled": 0, "lat": 38.924502833333335, "bike_id": "ff49131dfac3ee6c562b2977961e5166", "name": "ff49131dfac3ee6c562b2977961e5166", "is_reserved": 0, "fusion_lat": 0.0}, {"type": "electric_scooter", "rental_uris": {"ios": "https://dc.lft.to/lastmile_qr_scan", "android": "https://dc.lft.to/lastmile_qr_scan"}, "lon": -77.04333483333333, "fusion_lon": 0.0, "is_disabled": 0, "lat": 38.90434333333333, "bike_id": "264add00426e0aac92c6a67eb76a7268", "name": "264add00426e0aac92c6a67eb76a7268", "is_reserved": 0, "fusion_lat": 0.0}, {"type": "electric_scooter", "rental_uris": {"ios": "https://dc.lft.to/lastmile_qr_scan", "android": "https://dc.lft.to/lastmile_qr_scan"}, "lon": -77.04627333333333, "fusion_lon": 0.0, "is_disabled": 0, "lat": 38.915534666666666, "bike_id": "bb74f03e3e127687bd94e3aea302ea73", "name": "bb74f03e3e127687bd94e3aea302ea73", "is_reserved": 0, "fusion_lat": 0.0}, {"type": "electric_bike", "rental_uris": {"ios": "https://dc.lft.to/lastmile_qr_scan", "android": "https://dc.lft.to/lastmile_qr_scan"}, "lon": -76.98100016666666, "fusion_lon": 0.0, "is_disabled": 0, "lat": 38.9535095, "bike_id": "2d24828b7763d52c482c886f9f9ed6ff", "name": "2d24828b7763d52c482c886f9f9ed6ff", "is_reserved": 0, "fusion_lat": 0.0}, {"type": "electric_scooter", "rental_uris": {"ios": "https://dc.lft.to/lastmile_qr_scan", "android": "https://dc.lft.to/lastmile_qr_scan"}, "lon": -77.04011233333334, "fusion_lon": 0.0, "is_disabled": 0, "lat": 38.90997866666667, "bike_id": "32ddefd6618b4ea9ad53356f66b67bb8", "name": "32ddefd6618b4ea9ad53356f66b67bb8", "is_reserved": 0, "fusion_lat": 0.0}, {"type": "electric_scooter", "rental_uris": {"ios": "https://dc.lft.to/lastmile_qr_scan", "android": "https://dc.lft.to/lastmile_qr_scan"}, "lon": -77.04386183333334, "fusion_lon": 0.0, "is_disabled": 0, "lat": 38.933343666666666, "bike_id": "7bbe2f05e5f756303a7b8bddee192216", "name": "7bbe2f05e5f756303a7b8bddee192216", "is_reserved": 0, "fusion_lat": 0.0}, {"type": "electric_scooter", "rental_uris": {"ios": "https://dc.lft.to/lastmile_qr_scan", "android": "https://dc.lft.to/lastmile_qr_scan"}, "lon": -77.03671683333333, "fusion_lon": 0.0, "is_disabled": 0, "lat": 38.91710066666667, "bike_id": "ec51be43e664575fa2f20492c15d85cf", "name": "ec51be43e664575fa2f20492c15d85cf", "is_reserved": 0, "fusion_lat": 0.0}, {"type": "electric_bike", "rental_uris": {"ios": "https://dc.lft.to/lastmile_qr_scan", "android": "https://dc.lft.to/lastmile_qr_scan"}, "lon": -76.93232116666667, "fusion_lon": 0.0, "is_disabled": 0, "lat": 38.8659675, "bike_id": "358da131d81a16cc4f37391e9ca07b85", "name": "358da131d81a16cc4f37391e9ca07b85", "is_reserved": 0, "fusion_lat": 0.0}, {"type": "electric_bike", "rental_uris": {"ios": "https://dc.lft.to/lastmile_qr_scan", "android": "https://dc.lft.to/lastmile_qr_scan"}, "lon": -77.12960983333333, "fusion_lon": 0.0, "is_disabled": 0, "lat": 38.85221883333333, "bike_id": "83137cee3b5cd97ff7e07a3b2cd95d6e", "name": "83137cee3b5cd97ff7e07a3b2cd95d6e", "is_reserved": 0, "fusion_lat": 0.0}, {"type": "electric_bike", "rental_uris": {"ios": "https://dc.lft.to/lastmile_qr_scan", "android": "https://dc.lft.to/lastmile_qr_scan"}, "lon": -77.09478283333333, "fusion_lon": 0.0, "is_disabled": 0, "lat": 38.80758066666667, "bike_id": "b819812c61ae1b4240dabd291bbb027c", "name": "b819812c61ae1b4240dabd291bbb027c", "is_reserved": 0, "fusion_lat": 0.0}, {"type": "electric_scooter", "rental_uris": {"ios": "https://dc.lft.to/lastmile_qr_scan", "android": "https://dc.lft.to/lastmile_qr_scan"}, "lon": -77.03182033333333, "fusion_lon": 0.0, "is_disabled": 0, "lat": 38.909797166666664, "bike_id": "2ffcea3d2009a5fe8bad3048bcda5450", "name": "2ffcea3d2009a5fe8bad3048bcda5450", "is_reserved": 0, "fusion_lat": 0.0}, {"type": "electric_scooter", "rental_uris": {"ios": "https://dc.lft.to/lastmile_qr_scan", "android": "https://dc.lft.to/lastmile_qr_scan"}, "lon": -77.024152, "fusion_lon": 0.0, "is_disabled": 0, "lat": 38.898259333333336, "bike_id": "75c44a91609d75bfa441e44ddbb9d88a", "name": "75c44a91609d75bfa441e44ddbb9d88a", "is_reserved": 0, "fusion_lat": 0.0}, {"type": "electric_scooter", "rental_uris": {"ios": "https://dc.lft.to/lastmile_qr_scan", "android": "https://dc.lft.to/lastmile_qr_scan"}, "lon": -77.01759133333333, "fusion_lon": 0.0, "is_disabled": 0, "lat": 38.876769833333334, "bike_id": "fa256b6ef20e594a8816c9e120f95b24", "name": "fa256b6ef20e594a8816c9e120f95b24", "is_reserved": 0, "fusion_lat": 0.0}, {"type": "electric_scooter", "rental_uris": {"ios": "https://dc.lft.to/lastmile_qr_scan", "android": "https://dc.lft.to/lastmile_qr_scan"}, "lon": -77.02625066666667, "fusion_lon": 0.0, "is_disabled": 0, "lat": 38.892232666666665, "bike_id": "91802cac122d8cc57f51de333bde76db", "name": "91802cac122d8cc57f51de333bde76db", "is_reserved": 0, "fusion_lat": 0.0}, {"type": "electric_scooter", "rental_uris": {"ios": "https://dc.lft.to/lastmile_qr_scan", "android": "https://dc.lft.to/lastmile_qr_scan"}, "lon": -77.03951183333334, "fusion_lon": 0.0, "is_disabled": 0, "lat": 38.91711683333333, "bike_id": "1d0de7b959dd72cbe304f965d900a01e", "name": "1d0de7b959dd72cbe304f965d900a01e", "is_reserved": 0, "fusion_lat": 0.0}, {"type": "electric_scooter", "rental_uris": {"ios": "https://dc.lft.to/lastmile_qr_scan", "android": "https://dc.lft.to/lastmile_qr_scan"}, "lon": -76.99030316666666, "fusion_lon": 0.0, "is_disabled": 0, "lat": 38.865187666666664, "bike_id": "ff17c340f5997fbc1b3e587e7e38d343", "name": "ff17c340f5997fbc1b3e587e7e38d343", "is_reserved": 0, "fusion_lat": 0.0}, {"type": "electric_scooter", "rental_uris": {"ios": "https://dc.lft.to/lastmile_qr_scan", "android": "https://dc.lft.to/lastmile_qr_scan"}, "lon": -76.98692633333333, "fusion_lon": 0.0, "is_disabled": 0, "lat": 38.86254683333333, "bike_id": "abafdab38b6e445b54f2b760cac91a5b", "name": "abafdab38b6e445b54f2b760cac91a5b", "is_reserved": 0, "fusion_lat": 0.0}, {"type": "electric_scooter", "rental_uris": {"ios": "https://dc.lft.to/lastmile_qr_scan", "android": "https://dc.lft.to/lastmile_qr_scan"}, "lon": -77.04238983333333, "fusion_lon": 0.0, "is_disabled": 0, "lat": 38.922239166666664, "bike_id": "c3e7520c90c92f645878a3833cf74cc2", "name": "c3e7520c90c92f645878a3833cf74cc2", "is_reserved": 0, "fusion_lat": 0.0}, {"type": "electric_scooter", "rental_uris": {"ios": "https://dc.lft.to/lastmile_qr_scan", "android": "https://dc.lft.to/lastmile_qr_scan"}, "lon": -77.03179933333334, "fusion_lon": 0.0, "is_disabled": 0, "lat": 38.917473, "bike_id": "30d29853dd926b852c93350dfb8f9a4f", "name": "30d29853dd926b852c93350dfb8f9a4f", "is_reserved": 0, "fusion_lat": 0.0}, {"type": "electric_scooter", "rental_uris": {"ios": "https://dc.lft.to/lastmile_qr_scan", "android": "https://dc.lft.to/lastmile_qr_scan"}, "lon": -76.98727033333333, "fusion_lon": 0.0, "is_disabled": 0, "lat": 38.8671915, "bike_id": "1a3537b179a10f798e2e750fecaccec9", "name": "1a3537b179a10f798e2e750fecaccec9", "is_reserved": 0, "fusion_lat": 0.0}, {"type": "electric_scooter", "rental_uris": {"ios": "https://dc.lft.to/lastmile_qr_scan", "android": "https://dc.lft.to/lastmile_qr_scan"}, "lon": -77.02666916666666, "fusion_lon": 0.0, "is_disabled": 0, "lat": 38.91707433333333, "bike_id": "651598e7810819ce5af6d61f67d23b2d", "name": "651598e7810819ce5af6d61f67d23b2d", "is_reserved": 0, "fusion_lat": 0.0}, {"type": "electric_scooter", "rental_uris": {"ios": "https://dc.lft.to/lastmile_qr_scan", "android": "https://dc.lft.to/lastmile_qr_scan"}, "lon": -77.00986016666667, "fusion_lon": 0.0, "is_disabled": 0, "lat": 38.872945, "bike_id": "ea981353efe38e8e87b0d2261449ee66", "name": "ea981353efe38e8e87b0d2261449ee66", "is_reserved": 0, "fusion_lat": 0.0}, {"type": "electric_scooter", "rental_uris": {"ios": "https://dc.lft.to/lastmile_qr_scan", "android": "https://dc.lft.to/lastmile_qr_scan"}, "lon": -77.03628433333333, "fusion_lon": 0.0, "is_disabled": 0, "lat": 38.936852, "bike_id": "53d41fe80bc23c09b439224e3de7538d", "name": "53d41fe80bc23c09b439224e3de7538d", "is_reserved": 0, "fusion_lat": 0.0}, {"type": "electric_scooter", "rental_uris": {"ios": "https://dc.lft.to/lastmile_qr_scan", "android": "https://dc.lft.to/lastmile_qr_scan"}, "lon": -77.02804583333334, "fusion_lon": 0.0, "is_disabled": 0, "lat": 38.91106666666667, "bike_id": "e94b94a145ca430a5860249189875d82", "name": "e94b94a145ca430a5860249189875d82", "is_reserved": 0, "fusion_lat": 0.0}, {"type": "electric_scooter", "rental_uris": {"ios": "https://dc.lft.to/lastmile_qr_scan", "android": "https://dc.lft.to/lastmile_qr_scan"}, "lon": -77.04190866666667, "fusion_lon": 0.0, "is_disabled": 0, "lat": 38.92056633333333, "bike_id": "98368583eca0a0d1db763b0253cd86ce", "name": "98368583eca0a0d1db763b0253cd86ce", "is_reserved": 0, "fusion_lat": 0.0}, {"type": "electric_scooter", "rental_uris": {"ios": "https://dc.lft.to/lastmile_qr_scan", "android": "https://dc.lft.to/lastmile_qr_scan"}, "lon": -77.03257433333333, "fusion_lon": 0.0, "is_disabled": 0, "lat": 38.929466, "bike_id": "0ddb914e806c0b295832d9f45a96b023", "name": "0ddb914e806c0b295832d9f45a96b023", "is_reserved": 0, "fusion_lat": 0.0}, {"type": "electric_scooter", "rental_uris": {"ios": "https://dc.lft.to/lastmile_qr_scan", "android": "https://dc.lft.to/lastmile_qr_scan"}, "lon": -77.03183483333333, "fusion_lon": 0.0, "is_disabled": 0, "lat": 38.897661666666664, "bike_id": "e4d8aa60a1bb92040ef67371991ef01c", "name": "e4d8aa60a1bb92040ef67371991ef01c", "is_reserved": 0, "fusion_lat": 0.0}, {"type": "electric_scooter", "rental_uris": {"ios": "https://dc.lft.to/lastmile_qr_scan", "android": "https://dc.lft.to/lastmile_qr_scan"}, "lon": -77.02502016666666, "fusion_lon": 0.0, "is_disabled": 0, "lat": 38.91981966666667, "bike_id": "bc3ff5e462bdf4b67bc2192b5d326b46", "name": "bc3ff5e462bdf4b67bc2192b5d326b46", "is_reserved": 0, "fusion_lat": 0.0}, {"type": "electric_bike", "rental_uris": {"ios": "https://dc.lft.to/lastmile_qr_scan", "android": "https://dc.lft.to/lastmile_qr_scan"}, "lon": -77.05339966666666, "fusion_lon": 0.0, "is_disabled": 0, "lat": 38.90239016666666, "bike_id": "f0f2188d0e995201ff41ac3b7bca0b50", "name": "f0f2188d0e995201ff41ac3b7bca0b50", "is_reserved": 0, "fusion_lat": 0.0}, {"type": "electric_scooter", "rental_uris": {"ios": "https://dc.lft.to/lastmile_qr_scan", "android": "https://dc.lft.to/lastmile_qr_scan"}, "lon": -77.03064416666666, "fusion_lon": 0.0, "is_disabled": 0, "lat": 38.88623783333333, "bike_id": "0fdd5c32987aff0903b39d9c333b21f8", "name": "0fdd5c32987aff0903b39d9c333b21f8", "is_reserved": 0, "fusion_lat": 0.0}, {"type": "electric_scooter", "rental_uris": {"ios": "https://dc.lft.to/lastmile_qr_scan", "android": "https://dc.lft.to/lastmile_qr_scan"}, "lon": -77.02589216666667, "fusion_lon": 0.0, "is_disabled": 0, "lat": 38.90739266666667, "bike_id": "a821836e4ab29335e666a7bdb70d00f4", "name": "a821836e4ab29335e666a7bdb70d00f4", "is_reserved": 0, "fusion_lat": 0.0}, {"type": "electric_scooter", "rental_uris": {"ios": "https://dc.lft.to/lastmile_qr_scan", "android": "https://dc.lft.to/lastmile_qr_scan"}, "lon": -77.0344595, "fusion_lon": 0.0, "is_disabled": 0, "lat": 38.906789833333335, "bike_id": "04558ab3840597d96b53288664215a4f", "name": "04558ab3840597d96b53288664215a4f", "is_reserved": 0, "fusion_lat": 0.0}, {"type": "electric_scooter", "rental_uris": {"ios": "https://dc.lft.to/lastmile_qr_scan", "android": "https://dc.lft.to/lastmile_qr_scan"}, "lon": -77.034595, "fusion_lon": 0.0, "is_disabled": 0, "lat": 38.918185666666666, "bike_id": "47663a799599f4b3e0a3c3d11195ddff", "name": "47663a799599f4b3e0a3c3d11195ddff", "is_reserved": 0, "fusion_lat": 0.0}, {"type": "electric_scooter", "rental_uris": {"ios": "https://dc.lft.to/lastmile_qr_scan", "android": "https://dc.lft.to/lastmile_qr_scan"}, "lon": -77.02973066666667, "fusion_lon": 0.0, "is_disabled": 0, "lat": 38.93247316666667, "bike_id": "c0a6c420b1fdfd4b102775abe33f85b0", "name": "c0a6c420b1fdfd4b102775abe33f85b0", "is_reserved": 0, "fusion_lat": 0.0}, {"type": "electric_scooter", "rental_uris": {"ios": "https://dc.lft.to/lastmile_qr_scan", "android": "https://dc.lft.to/lastmile_qr_scan"}, "lon": -77.022101, "fusion_lon": 0.0, "is_disabled": 0, "lat": 38.887465166666665, "bike_id": "58c81ebf740e47b5ef95481f4de7206f", "name": "58c81ebf740e47b5ef95481f4de7206f", "is_reserved": 0, "fusion_lat": 0.0}, {"type": "electric_scooter", "rental_uris": {"ios": "https://dc.lft.to/lastmile_qr_scan", "android": "https://dc.lft.to/lastmile_qr_scan"}, "lon": -76.976324, "fusion_lon": 0.0, "is_disabled": 0, "lat": 38.851959666666666, "bike_id": "c1902b6a54d2786d7d2cf70a8ec68794", "name": "c1902b6a54d2786d7d2cf70a8ec68794", "is_reserved": 0, "fusion_lat": 0.0}, {"type": "electric_scooter", "rental_uris": {"ios": "https://dc.lft.to/lastmile_qr_scan", "android": "https://dc.lft.to/lastmile_qr_scan"}, "lon": -77.01745733333334, "fusion_lon": 0.0, "is_disabled": 0, "lat": 38.902672333333335, "bike_id": "15773458e5f228d3f34780dfbf6703fc", "name": "15773458e5f228d3f34780dfbf6703fc", "is_reserved": 0, "fusion_lat": 0.0}, {"type": "electric_scooter", "rental_uris": {"ios": "https://dc.lft.to/lastmile_qr_scan", "android": "https://dc.lft.to/lastmile_qr_scan"}, "lon": -77.04361133333333, "fusion_lon": 0.0, "is_disabled": 0, "lat": 38.920683, "bike_id": "2b5848124645a5ff33d0288f52fdfa87", "name": "2b5848124645a5ff33d0288f52fdfa87", "is_reserved": 0, "fusion_lat": 0.0}, {"type": "electric_scooter", "rental_uris": {"ios": "https://dc.lft.to/lastmile_qr_scan", "android": "https://dc.lft.to/lastmile_qr_scan"}, "lon": -77.03070666666666, "fusion_lon": 0.0, "is_disabled": 0, "lat": 38.899724, "bike_id": "9a2db4e7a04f35bfc97b149363da2f66", "name": "9a2db4e7a04f35bfc97b149363da2f66", "is_reserved": 0, "fusion_lat": 0.0}, {"type": "electric_scooter", "rental_uris": {"ios": "https://dc.lft.to/lastmile_qr_scan", "android": "https://dc.lft.to/lastmile_qr_scan"}, "lon": -77.028, "fusion_lon": 0.0, "is_disabled": 0, "lat": 38.902454166666665, "bike_id": "fb9547f40f986145f43a1f677a05c401", "name": "fb9547f40f986145f43a1f677a05c401", "is_reserved": 0, "fusion_lat": 0.0}, {"type": "electric_scooter", "rental_uris": {"ios": "https://dc.lft.to/lastmile_qr_scan", "android": "https://dc.lft.to/lastmile_qr_scan"}, "lon": -76.9897705, "fusion_lon": 0.0, "is_disabled": 0, "lat": 38.86507066666667, "bike_id": "d210aee5851ff4f42d8dbd6ab0789201", "name": "d210aee5851ff4f42d8dbd6ab0789201", "is_reserved": 0, "fusion_lat": 0.0}, {"type": "electric_bike", "rental_uris": {"ios": "https://dc.lft.to/lastmile_qr_scan", "android": "https://dc.lft.to/lastmile_qr_scan"}, "lon": -76.89538766666666, "fusion_lon": 0.0, "is_disabled": 0, "lat": 38.94552216666666, "bike_id": "87f271186b32cad8eb272c0b05bf9444", "name": "87f271186b32cad8eb272c0b05bf9444", "is_reserved": 0, "fusion_lat": 0.0}, {"type": "electric_scooter", "rental_uris": {"ios": "https://dc.lft.to/lastmile_qr_scan", "android": "https://dc.lft.to/lastmile_qr_scan"}, "lon": -77.03791366666667, "fusion_lon": 0.0, "is_disabled": 0, "lat": 38.909744833333335, "bike_id": "c215d7d0110198633f47690a580e141c", "name": "c215d7d0110198633f47690a580e141c", "is_reserved": 0, "fusion_lat": 0.0}, {"type": "electric_scooter", "rental_uris": {"ios": "https://dc.lft.to/lastmile_qr_scan", "android": "https://dc.lft.to/lastmile_qr_scan"}, "lon": -77.041483, "fusion_lon": 0.0, "is_disabled": 0, "lat": 38.89352933333333, "bike_id": "26113c4ab77a14db1f5ea37813acf956", "name": "26113c4ab77a14db1f5ea37813acf956", "is_reserved": 0, "fusion_lat": 0.0}, {"type": "electric_scooter", "rental_uris": {"ios": "https://dc.lft.to/lastmile_qr_scan", "android": "https://dc.lft.to/lastmile_qr_scan"}, "lon": -77.04464583333333, "fusion_lon": 0.0, "is_disabled": 0, "lat": 38.89613, "bike_id": "b3d180461f96483ae093a17fa514672a", "name": "b3d180461f96483ae093a17fa514672a", "is_reserved": 0, "fusion_lat": 0.0}, {"type": "electric_scooter", "rental_uris": {"ios": "https://dc.lft.to/lastmile_qr_scan", "android": "https://dc.lft.to/lastmile_qr_scan"}, "lon": -77.044611, "fusion_lon": 0.0, "is_disabled": 0, "lat": 38.9112035, "bike_id": "8915435d138824a5abcd201a55ea00a1", "name": "8915435d138824a5abcd201a55ea00a1", "is_reserved": 0, "fusion_lat": 0.0}, {"type": "electric_bike", "rental_uris": {"ios": "https://dc.lft.to/lastmile_qr_scan", "android": "https://dc.lft.to/lastmile_qr_scan"}, "lon": -76.97975266666667, "fusion_lon": 0.0, "is_disabled": 0, "lat": 38.953719666666665, "bike_id": "0f8a7a6c2dd68d13c09048ac2078cebb", "name": "0f8a7a6c2dd68d13c09048ac2078cebb", "is_reserved": 0, "fusion_lat": 0.0}, {"type": "electric_scooter", "rental_uris": {"ios": "https://dc.lft.to/lastmile_qr_scan", "android": "https://dc.lft.to/lastmile_qr_scan"}, "lon": -77.01131866666667, "fusion_lon": 0.0, "is_disabled": 0, "lat": 38.88526533333334, "bike_id": "9d14366ecfae38837535c09aab4a9b8d", "name": "9d14366ecfae38837535c09aab4a9b8d", "is_reserved": 0, "fusion_lat": 0.0}, {"type": "electric_scooter", "rental_uris": {"ios": "https://dc.lft.to/lastmile_qr_scan", "android": "https://dc.lft.to/lastmile_qr_scan"}, "lon": -77.04227766666666, "fusion_lon": 0.0, "is_disabled": 0, "lat": 38.92171783333333, "bike_id": "8f3081c752e6a387493db3e6aef7a76b", "name": "8f3081c752e6a387493db3e6aef7a76b", "is_reserved": 0, "fusion_lat": 0.0}, {"type": "electric_scooter", "rental_uris": {"ios": "https://dc.lft.to/lastmile_qr_scan", "android": "https://dc.lft.to/lastmile_qr_scan"}, "lon": -77.03423116666667, "fusion_lon": 0.0, "is_disabled": 0, "lat": 38.9309155, "bike_id": "1ee294626db6d02622952ebec4b8930b", "name": "1ee294626db6d02622952ebec4b8930b", "is_reserved": 0, "fusion_lat": 0.0}, {"type": "electric_scooter", "rental_uris": {"ios": "https://dc.lft.to/lastmile_qr_scan", "android": "https://dc.lft.to/lastmile_qr_scan"}, "lon": -76.98080683333333, "fusion_lon": 0.0, "is_disabled": 0, "lat": 38.91950716666667, "bike_id": "22d1ca96317f1a3a11f4b32dbdd36a93", "name": "22d1ca96317f1a3a11f4b32dbdd36a93", "is_reserved": 0, "fusion_lat": 0.0}, {"type": "electric_scooter", "rental_uris": {"ios": "https://dc.lft.to/lastmile_qr_scan", "android": "https://dc.lft.to/lastmile_qr_scan"}, "lon": -77.02978316666666, "fusion_lon": 0.0, "is_disabled": 0, "lat": 38.90510833333333, "bike_id": "3659346de685fb24f0536c5fa0f9b843", "name": "3659346de685fb24f0536c5fa0f9b843", "is_reserved": 0, "fusion_lat": 0.0}, {"type": "electric_bike", "rental_uris": {"ios": "https://dc.lft.to/lastmile_qr_scan", "android": "https://dc.lft.to/lastmile_qr_scan"}, "lon": -77.01015716666667, "fusion_lon": 0.0, "is_disabled": 0, "lat": 38.955956666666665, "bike_id": "72aaefc12086e7266e291a5135ecf8a7", "name": "72aaefc12086e7266e291a5135ecf8a7", "is_reserved": 0, "fusion_lat": 0.0}, {"type": "electric_scooter", "rental_uris": {"ios": "https://dc.lft.to/lastmile_qr_scan", "android": "https://dc.lft.to/lastmile_qr_scan"}, "lon": -76.97703333333334, "fusion_lon": 0.0, "is_disabled": 0, "lat": 38.90258866666667, "bike_id": "1b0d5bee646be0b2d565fb0418021c91", "name": "1b0d5bee646be0b2d565fb0418021c91", "is_reserved": 0, "fusion_lat": 0.0}, {"type": "electric_scooter", "rental_uris": {"ios": "https://dc.lft.to/lastmile_qr_scan", "android": "https://dc.lft.to/lastmile_qr_scan"}, "lon": -77.02733933333333, "fusion_lon": 0.0, "is_disabled": 0, "lat": 38.932543, "bike_id": "de9046fb6306e471786e59fdcac72805", "name": "de9046fb6306e471786e59fdcac72805", "is_reserved": 0, "fusion_lat": 0.0}, {"type": "electric_bike", "rental_uris": {"ios": "https://dc.lft.to/lastmile_qr_scan", "android": "https://dc.lft.to/lastmile_qr_scan"}, "lon": -77.03322733333333, "fusion_lon": 0.0, "is_disabled": 0, "lat": 38.92627516666667, "bike_id": "d9cefc3292fc950d9442d65338423bc9", "name": "d9cefc3292fc950d9442d65338423bc9", "is_reserved": 0, "fusion_lat": 0.0}, {"type": "electric_scooter", "rental_uris": {"ios": "https://dc.lft.to/lastmile_qr_scan", "android": "https://dc.lft.to/lastmile_qr_scan"}, "lon": -77.0395925, "fusion_lon": 0.0, "is_disabled": 0, "lat": 38.892462, "bike_id": "620fd2dc4c351cac0022fa1f8fd9f755", "name": "620fd2dc4c351cac0022fa1f8fd9f755", "is_reserved": 0, "fusion_lat": 0.0}, {"type": "electric_scooter", "rental_uris": {"ios": "https://dc.lft.to/lastmile_qr_scan", "android": "https://dc.lft.to/lastmile_qr_scan"}, "lon": -77.03880916666667, "fusion_lon": 0.0, "is_disabled": 0, "lat": 38.902522166666664, "bike_id": "84a674abe0825e556dfcba852db1c26b", "name": "84a674abe0825e556dfcba852db1c26b", "is_reserved": 0, "fusion_lat": 0.0}, {"type": "electric_scooter", "rental_uris": {"ios": "https://dc.lft.to/lastmile_qr_scan", "android": "https://dc.lft.to/lastmile_qr_scan"}, "lon": -77.0436975, "fusion_lon": 0.0, "is_disabled": 0, "lat": 38.93342083333334, "bike_id": "0e6e93dffd4bad9b86af1ad525ec6d2e", "name": "0e6e93dffd4bad9b86af1ad525ec6d2e", "is_reserved": 0, "fusion_lat": 0.0}, {"type": "electric_bike", "rental_uris": {"ios": "https://dc.lft.to/lastmile_qr_scan", "android": "https://dc.lft.to/lastmile_qr_scan"}, "lon": -77.10603233333333, "fusion_lon": 0.0, "is_disabled": 0, "lat": 38.92902633333333, "bike_id": "e384e32fc217c9b2097e9d73e091ddff", "name": "e384e32fc217c9b2097e9d73e091ddff", "is_reserved": 0, "fusion_lat": 0.0}, {"type": "electric_scooter", "rental_uris": {"ios": "https://dc.lft.to/lastmile_qr_scan", "android": "https://dc.lft.to/lastmile_qr_scan"}, "lon": -77.02129883333333, "fusion_lon": 0.0, "is_disabled": 0, "lat": 38.887459, "bike_id": "846e160c12b5a325d761fda47708c904", "name": "846e160c12b5a325d761fda47708c904", "is_reserved": 0, "fusion_lat": 0.0}, {"type": "electric_scooter", "rental_uris": {"ios": "https://dc.lft.to/lastmile_qr_scan", "android": "https://dc.lft.to/lastmile_qr_scan"}, "lon": -77.01576016666667, "fusion_lon": 0.0, "is_disabled": 0, "lat": 38.91684716666666, "bike_id": "6c45e59f0922990ddf5ed340f334ac80", "name": "6c45e59f0922990ddf5ed340f334ac80", "is_reserved": 0, "fusion_lat": 0.0}, {"type": "electric_scooter", "rental_uris": {"ios": "https://dc.lft.to/lastmile_qr_scan", "android": "https://dc.lft.to/lastmile_qr_scan"}, "lon": -76.9273475, "fusion_lon": 0.0, "is_disabled": 0, "lat": 38.899707, "bike_id": "a37a14cf6f0f6d603a47ffdf5cc1835f", "name": "a37a14cf6f0f6d603a47ffdf5cc1835f", "is_reserved": 0, "fusion_lat": 0.0}, {"type": "electric_scooter", "rental_uris": {"ios": "https://dc.lft.to/lastmile_qr_scan", "android": "https://dc.lft.to/lastmile_qr_scan"}, "lon": -77.01131483333333, "fusion_lon": 0.0, "is_disabled": 0, "lat": 38.917031, "bike_id": "ca7d8c24cd885c20b9ad3e1a8fc942f2", "name": "ca7d8c24cd885c20b9ad3e1a8fc942f2", "is_reserved": 0, "fusion_lat": 0.0}, {"type": "electric_scooter", "rental_uris": {"ios": "https://dc.lft.to/lastmile_qr_scan", "android": "https://dc.lft.to/lastmile_qr_scan"}, "lon": -77.0322015, "fusion_lon": 0.0, "is_disabled": 0, "lat": 38.90285133333333, "bike_id": "7c8620f26729384b9893cea6bd91cc7d", "name": "7c8620f26729384b9893cea6bd91cc7d", "is_reserved": 0, "fusion_lat": 0.0}, {"type": "electric_scooter", "rental_uris": {"ios": "https://dc.lft.to/lastmile_qr_scan", "android": "https://dc.lft.to/lastmile_qr_scan"}, "lon": -77.04031083333334, "fusion_lon": 0.0, "is_disabled": 0, "lat": 38.92443933333333, "bike_id": "62a2a014f399bac1d907645a1dc72b14", "name": "62a2a014f399bac1d907645a1dc72b14", "is_reserved": 0, "fusion_lat": 0.0}, {"type": "electric_scooter", "rental_uris": {"ios": "https://dc.lft.to/lastmile_qr_scan", "android": "https://dc.lft.to/lastmile_qr_scan"}, "lon": -77.01319633333334, "fusion_lon": 0.0, "is_disabled": 0, "lat": 38.906049333333335, "bike_id": "8c4cf10ac149a7289963d3f8f782f703", "name": "8c4cf10ac149a7289963d3f8f782f703", "is_reserved": 0, "fusion_lat": 0.0}, {"type": "electric_scooter", "rental_uris": {"ios": "https://dc.lft.to/lastmile_qr_scan", "android": "https://dc.lft.to/lastmile_qr_scan"}, "lon": -76.98835733333334, "fusion_lon": 0.0, "is_disabled": 0, "lat": 38.8925095, "bike_id": "586f9535ebada42cdc800d114f126f67", "name": "586f9535ebada42cdc800d114f126f67", "is_reserved": 0, "fusion_lat": 0.0}, {"type": "electric_scooter", "rental_uris": {"ios": "https://dc.lft.to/lastmile_qr_scan", "android": "https://dc.lft.to/lastmile_qr_scan"}, "lon": -77.0317165, "fusion_lon": 0.0, "is_disabled": 0, "lat": 38.899828666666664, "bike_id": "7e1f99b1d06288eafa45701f90cc3ab1", "name": "7e1f99b1d06288eafa45701f90cc3ab1", "is_reserved": 0, "fusion_lat": 0.0}, {"type": "electric_scooter", "rental_uris": {"ios": "https://dc.lft.to/lastmile_qr_scan", "android": "https://dc.lft.to/lastmile_qr_scan"}, "lon": -77.04480983333333, "fusion_lon": 0.0, "is_disabled": 0, "lat": 38.911643833333336, "bike_id": "2ccd6ee46e9fb807920d32809ed8d900", "name": "2ccd6ee46e9fb807920d32809ed8d900", "is_reserved": 0, "fusion_lat": 0.0}, {"type": "electric_scooter", "rental_uris": {"ios": "https://dc.lft.to/lastmile_qr_scan", "android": "https://dc.lft.to/lastmile_qr_scan"}, "lon": -77.03288766666667, "fusion_lon": 0.0, "is_disabled": 0, "lat": 38.925502333333334, "bike_id": "3cec1562a24d68a9363f145c4e55cedf", "name": "3cec1562a24d68a9363f145c4e55cedf", "is_reserved": 0, "fusion_lat": 0.0}, {"type": "electric_scooter", "rental_uris": {"ios": "https://dc.lft.to/lastmile_qr_scan", "android": "https://dc.lft.to/lastmile_qr_scan"}, "lon": -77.01195133333333, "fusion_lon": 0.0, "is_disabled": 0, "lat": 38.90324016666667, "bike_id": "60e9866d2c139bf3d37265037d3b34d1", "name": "60e9866d2c139bf3d37265037d3b34d1", "is_reserved": 0, "fusion_lat": 0.0}, {"type": "electric_scooter", "rental_uris": {"ios": "https://dc.lft.to/lastmile_qr_scan", "android": "https://dc.lft.to/lastmile_qr_scan"}, "lon": -77.0402745, "fusion_lon": 0.0, "is_disabled": 0, "lat": 38.923647833333334, "bike_id": "1d5504565bdc28eb8acbd4e3c7a7ba1d", "name": "1d5504565bdc28eb8acbd4e3c7a7ba1d", "is_reserved": 0, "fusion_lat": 0.0}, {"type": "electric_scooter", "rental_uris": {"ios": "https://dc.lft.to/lastmile_qr_scan", "android": "https://dc.lft.to/lastmile_qr_scan"}, "lon": -76.99780916666667, "fusion_lon": 0.0, "is_disabled": 0, "lat": 38.84427566666667, "bike_id": "357ea0f53484eb57b6b3ea5ead8c9da2", "name": "357ea0f53484eb57b6b3ea5ead8c9da2", "is_reserved": 0, "fusion_lat": 0.0}, {"type": "electric_scooter", "rental_uris": {"ios": "https://dc.lft.to/lastmile_qr_scan", "android": "https://dc.lft.to/lastmile_qr_scan"}, "lon": -77.04045983333333, "fusion_lon": 0.0, "is_disabled": 0, "lat": 38.9141, "bike_id": "6ebcee88a1e7e2f9696586c4e1e44ca5", "name": "6ebcee88a1e7e2f9696586c4e1e44ca5", "is_reserved": 0, "fusion_lat": 0.0}, {"type": "electric_scooter", "rental_uris": {"ios": "https://dc.lft.to/lastmile_qr_scan", "android": "https://dc.lft.to/lastmile_qr_scan"}, "lon": -76.9575785, "fusion_lon": 0.0, "is_disabled": 0, "lat": 38.88432233333333, "bike_id": "e809c7a7fbfd6d10f4a30fc5530bfa65", "name": "e809c7a7fbfd6d10f4a30fc5530bfa65", "is_reserved": 0, "fusion_lat": 0.0}, {"type": "electric_scooter", "rental_uris": {"ios": "https://dc.lft.to/lastmile_qr_scan", "android": "https://dc.lft.to/lastmile_qr_scan"}, "lon": -77.03445083333334, "fusion_lon": 0.0, "is_disabled": 0, "lat": 38.930896833333335, "bike_id": "558be8e2ec45d58146f0ccc351ec2680", "name": "558be8e2ec45d58146f0ccc351ec2680", "is_reserved": 0, "fusion_lat": 0.0}, {"type": "electric_scooter", "rental_uris": {"ios": "https://dc.lft.to/lastmile_qr_scan", "android": "https://dc.lft.to/lastmile_qr_scan"}, "lon": -77.0272145, "fusion_lon": 0.0, "is_disabled": 0, "lat": 38.906749833333336, "bike_id": "a605006c07b018af0aca5c324824e6b3", "name": "a605006c07b018af0aca5c324824e6b3", "is_reserved": 0, "fusion_lat": 0.0}, {"type": "electric_scooter", "rental_uris": {"ios": "https://dc.lft.to/lastmile_qr_scan", "android": "https://dc.lft.to/lastmile_qr_scan"}, "lon": -77.022224, "fusion_lon": 0.0, "is_disabled": 0, "lat": 38.912772, "bike_id": "cd5516e7da6242e38fd1e37e01dc280a", "name": "cd5516e7da6242e38fd1e37e01dc280a", "is_reserved": 0, "fusion_lat": 0.0}, {"type": "electric_scooter", "rental_uris": {"ios": "https://dc.lft.to/lastmile_qr_scan", "android": "https://dc.lft.to/lastmile_qr_scan"}, "lon": -77.00387416666666, "fusion_lon": 0.0, "is_disabled": 0, "lat": 38.91066633333333, "bike_id": "cc6e17ef416f9eee8014d689729a9b6c", "name": "cc6e17ef416f9eee8014d689729a9b6c", "is_reserved": 0, "fusion_lat": 0.0}, {"type": "electric_scooter", "rental_uris": {"ios": "https://dc.lft.to/lastmile_qr_scan", "android": "https://dc.lft.to/lastmile_qr_scan"}, "lon": -77.0372935, "fusion_lon": 0.0, "is_disabled": 0, "lat": 38.917122, "bike_id": "ca86bc06b2cd4e6373cc9d9bcb79f638", "name": "ca86bc06b2cd4e6373cc9d9bcb79f638", "is_reserved": 0, "fusion_lat": 0.0}, {"type": "electric_scooter", "rental_uris": {"ios": "https://dc.lft.to/lastmile_qr_scan", "android": "https://dc.lft.to/lastmile_qr_scan"}, "lon": -77.035395, "fusion_lon": 0.0, "is_disabled": 0, "lat": 38.92642816666667, "bike_id": "ade3a21fb47379ef8cd6b2b07aeef5b3", "name": "ade3a21fb47379ef8cd6b2b07aeef5b3", "is_reserved": 0, "fusion_lat": 0.0}, {"type": "electric_scooter", "rental_uris": {"ios": "https://dc.lft.to/lastmile_qr_scan", "android": "https://dc.lft.to/lastmile_qr_scan"}, "lon": -77.02717833333334, "fusion_lon": 0.0, "is_disabled": 0, "lat": 38.90737933333333, "bike_id": "58fac1a2147eb481546c844c19e4c98c", "name": "58fac1a2147eb481546c844c19e4c98c", "is_reserved": 0, "fusion_lat": 0.0}, {"type": "electric_scooter", "rental_uris": {"ios": "https://dc.lft.to/lastmile_qr_scan", "android": "https://dc.lft.to/lastmile_qr_scan"}, "lon": -77.02760616666667, "fusion_lon": 0.0, "is_disabled": 0, "lat": 38.89732266666667, "bike_id": "3ebb71fc1ec9eb50945bc94d23836f3d", "name": "3ebb71fc1ec9eb50945bc94d23836f3d", "is_reserved": 0, "fusion_lat": 0.0}, {"type": "electric_scooter", "rental_uris": {"ios": "https://dc.lft.to/lastmile_qr_scan", "android": "https://dc.lft.to/lastmile_qr_scan"}, "lon": -77.0432835, "fusion_lon": 0.0, "is_disabled": 0, "lat": 38.892237333333334, "bike_id": "09e8c7f9e294be443df2df99ac55d4a4", "name": "09e8c7f9e294be443df2df99ac55d4a4", "is_reserved": 0, "fusion_lat": 0.0}, {"type": "electric_scooter", "rental_uris": {"ios": "https://dc.lft.to/lastmile_qr_scan", "android": "https://dc.lft.to/lastmile_qr_scan"}, "lon": -77.02794483333334, "fusion_lon": 0.0, "is_disabled": 0, "lat": 38.89229666666667, "bike_id": "3584a4a44bdd2ac34beb01bb2f586c55", "name": "3584a4a44bdd2ac34beb01bb2f586c55", "is_reserved": 0, "fusion_lat": 0.0}, {"type": "electric_scooter", "rental_uris": {"ios": "https://dc.lft.to/lastmile_qr_scan", "android": "https://dc.lft.to/lastmile_qr_scan"}, "lon": -77.013742, "fusion_lon": 0.0, "is_disabled": 0, "lat": 38.89225883333334, "bike_id": "5ddd1dd946450fb1bd71cf97744a875d", "name": "5ddd1dd946450fb1bd71cf97744a875d", "is_reserved": 0, "fusion_lat": 0.0}, {"type": "electric_scooter", "rental_uris": {"ios": "https://dc.lft.to/lastmile_qr_scan", "android": "https://dc.lft.to/lastmile_qr_scan"}, "lon": -77.033384, "fusion_lon": 0.0, "is_disabled": 0, "lat": 38.89229533333334, "bike_id": "93c24099facdc4d92f8ad4b878ff95e0", "name": "93c24099facdc4d92f8ad4b878ff95e0", "is_reserved": 0, "fusion_lat": 0.0}, {"type": "electric_scooter", "rental_uris": {"ios": "https://dc.lft.to/lastmile_qr_scan", "android": "https://dc.lft.to/lastmile_qr_scan"}, "lon": -76.989242, "fusion_lon": 0.0, "is_disabled": 0, "lat": 38.840765833333336, "bike_id": "5283981da5a74d43212264e6d2406cd4", "name": "5283981da5a74d43212264e6d2406cd4", "is_reserved": 0, "fusion_lat": 0.0}, {"type": "electric_scooter", "rental_uris": {"ios": "https://dc.lft.to/lastmile_qr_scan", "android": "https://dc.lft.to/lastmile_qr_scan"}, "lon": -76.99613816666667, "fusion_lon": 0.0, "is_disabled": 0, "lat": 38.88721816666666, "bike_id": "a9e9520b18485cc070807f59aec1c730", "name": "a9e9520b18485cc070807f59aec1c730", "is_reserved": 0, "fusion_lat": 0.0}, {"type": "electric_scooter", "rental_uris": {"ios": "https://dc.lft.to/lastmile_qr_scan", "android": "https://dc.lft.to/lastmile_qr_scan"}, "lon": -76.99088283333333, "fusion_lon": 0.0, "is_disabled": 0, "lat": 38.92953, "bike_id": "7451d104840c7b29a986f94e1f43839f", "name": "7451d104840c7b29a986f94e1f43839f", "is_reserved": 0, "fusion_lat": 0.0}, {"type": "electric_scooter", "rental_uris": {"ios": "https://dc.lft.to/lastmile_qr_scan", "android": "https://dc.lft.to/lastmile_qr_scan"}, "lon": -77.031766, "fusion_lon": 0.0, "is_disabled": 0, "lat": 38.9052205, "bike_id": "f6abcd847fe4201ac289559c8d8cf573", "name": "f6abcd847fe4201ac289559c8d8cf573", "is_reserved": 0, "fusion_lat": 0.0}, {"type": "electric_scooter", "rental_uris": {"ios": "https://dc.lft.to/lastmile_qr_scan", "android": "https://dc.lft.to/lastmile_qr_scan"}, "lon": -77.04186633333333, "fusion_lon": 0.0, "is_disabled": 0, "lat": 38.920616333333335, "bike_id": "553d34f8a59ca432edc7dc66d0498b3e", "name": "553d34f8a59ca432edc7dc66d0498b3e", "is_reserved": 0, "fusion_lat": 0.0}, {"type": "electric_scooter", "rental_uris": {"ios": "https://dc.lft.to/lastmile_qr_scan", "android": "https://dc.lft.to/lastmile_qr_scan"}, "lon": -76.9960625, "fusion_lon": 0.0, "is_disabled": 0, "lat": 38.909702833333334, "bike_id": "b122752443d1166fcebcec495e3efab5", "name": "b122752443d1166fcebcec495e3efab5", "is_reserved": 0, "fusion_lat": 0.0}, {"type": "electric_scooter", "rental_uris": {"ios": "https://dc.lft.to/lastmile_qr_scan", "android": "https://dc.lft.to/lastmile_qr_scan"}, "lon": -77.01712883333333, "fusion_lon": 0.0, "is_disabled": 0, "lat": 38.911143, "bike_id": "53473b3f611c8452bb7c148531260f1d", "name": "53473b3f611c8452bb7c148531260f1d", "is_reserved": 0, "fusion_lat": 0.0}, {"type": "electric_scooter", "rental_uris": {"ios": "https://dc.lft.to/lastmile_qr_scan", "android": "https://dc.lft.to/lastmile_qr_scan"}, "lon": -76.95851983333333, "fusion_lon": 0.0, "is_disabled": 0, "lat": 38.892845666666666, "bike_id": "a682c7451d3701336e5559a883f6cace", "name": "a682c7451d3701336e5559a883f6cace", "is_reserved": 0, "fusion_lat": 0.0}, {"type": "electric_scooter", "rental_uris": {"ios": "https://dc.lft.to/lastmile_qr_scan", "android": "https://dc.lft.to/lastmile_qr_scan"}, "lon": -76.94633733333333, "fusion_lon": 0.0, "is_disabled": 0, "lat": 38.89844733333334, "bike_id": "cc9f5f215dc8ffbc44d7f83da582d371", "name": "cc9f5f215dc8ffbc44d7f83da582d371", "is_reserved": 0, "fusion_lat": 0.0}, {"type": "electric_scooter", "rental_uris": {"ios": "https://dc.lft.to/lastmile_qr_scan", "android": "https://dc.lft.to/lastmile_qr_scan"}, "lon": -76.946325, "fusion_lon": 0.0, "is_disabled": 0, "lat": 38.89846383333333, "bike_id": "70dd1a0818b52c9f7dd57576fcbfee86", "name": "70dd1a0818b52c9f7dd57576fcbfee86", "is_reserved": 0, "fusion_lat": 0.0}, {"type": "electric_bike", "rental_uris": {"ios": "https://dc.lft.to/lastmile_qr_scan", "android": "https://dc.lft.to/lastmile_qr_scan"}, "lon": -77.04413466666666, "fusion_lon": 0.0, "is_disabled": 0, "lat": 39.0156695, "bike_id": "9dfba5613ade1ab8cff14b2b9dfe7b5d", "name": "9dfba5613ade1ab8cff14b2b9dfe7b5d", "is_reserved": 0, "fusion_lat": 0.0}, {"type": "electric_scooter", "rental_uris": {"ios": "https://dc.lft.to/lastmile_qr_scan", "android": "https://dc.lft.to/lastmile_qr_scan"}, "lon": -77.026046, "fusion_lon": 0.0, "is_disabled": 0, "lat": 38.914150666666664, "bike_id": "c5393694feb986661642f7e1324bad72", "name": "c5393694feb986661642f7e1324bad72", "is_reserved": 0, "fusion_lat": 0.0}, {"type": "electric_bike", "rental_uris": {"ios": "https://dc.lft.to/lastmile_qr_scan", "android": "https://dc.lft.to/lastmile_qr_scan"}, "lon": -77.0381385, "fusion_lon": 0.0, "is_disabled": 0, "lat": 38.91401666666667, "bike_id": "6a7f8e612d1185993488d071b71e27a0", "name": "6a7f8e612d1185993488d071b71e27a0", "is_reserved": 0, "fusion_lat": 0.0}, {"type": "electric_scooter", "rental_uris": {"ios": "https://dc.lft.to/lastmile_qr_scan", "android": "https://dc.lft.to/lastmile_qr_scan"}, "lon": -77.02589116666667, "fusion_lon": 0.0, "is_disabled": 0, "lat": 38.905331333333336, "bike_id": "470f75d32b52d9b9262b2ab626a55a21", "name": "470f75d32b52d9b9262b2ab626a55a21", "is_reserved": 0, "fusion_lat": 0.0}, {"type": "electric_scooter", "rental_uris": {"ios": "https://dc.lft.to/lastmile_qr_scan", "android": "https://dc.lft.to/lastmile_qr_scan"}, "lon": -77.04028616666666, "fusion_lon": 0.0, "is_disabled": 0, "lat": 38.918073666666665, "bike_id": "ff897d6b9f12e7ed58533a97118621b5", "name": "ff897d6b9f12e7ed58533a97118621b5", "is_reserved": 0, "fusion_lat": 0.0}, {"type": "electric_scooter", "rental_uris": {"ios": "https://dc.lft.to/lastmile_qr_scan", "android": "https://dc.lft.to/lastmile_qr_scan"}, "lon": -77.012846, "fusion_lon": 0.0, "is_disabled": 0, "lat": 38.8815385, "bike_id": "b3f46b8fb9f5e936324a894ada852812", "name": "b3f46b8fb9f5e936324a894ada852812", "is_reserved": 0, "fusion_lat": 0.0}, {"type": "electric_scooter", "rental_uris": {"ios": "https://dc.lft.to/lastmile_qr_scan", "android": "https://dc.lft.to/lastmile_qr_scan"}, "lon": -77.02682, "fusion_lon": 0.0, "is_disabled": 0, "lat": 38.89935233333333, "bike_id": "61b36fbc326aef2d3742f18281ce3177", "name": "61b36fbc326aef2d3742f18281ce3177", "is_reserved": 0, "fusion_lat": 0.0}, {"type": "electric_scooter", "rental_uris": {"ios": "https://dc.lft.to/lastmile_qr_scan", "android": "https://dc.lft.to/lastmile_qr_scan"}, "lon": -77.04366866666666, "fusion_lon": 0.0, "is_disabled": 0, "lat": 38.892213166666664, "bike_id": "125b254b518f94cc575d928f95ae0de3", "name": "125b254b518f94cc575d928f95ae0de3", "is_reserved": 0, "fusion_lat": 0.0}, {"type": "electric_scooter", "rental_uris": {"ios": "https://dc.lft.to/lastmile_qr_scan", "android": "https://dc.lft.to/lastmile_qr_scan"}, "lon": -77.02689416666666, "fusion_lon": 0.0, "is_disabled": 0, "lat": 38.916933, "bike_id": "721e4fa6b07fbadd48616a788058fed0", "name": "721e4fa6b07fbadd48616a788058fed0", "is_reserved": 0, "fusion_lat": 0.0}, {"type": "electric_scooter", "rental_uris": {"ios": "https://dc.lft.to/lastmile_qr_scan", "android": "https://dc.lft.to/lastmile_qr_scan"}, "lon": -77.02788783333334, "fusion_lon": 0.0, "is_disabled": 0, "lat": 38.961291833333334, "bike_id": "5922c7db5120fc7b68349b5bb6d0697e", "name": "5922c7db5120fc7b68349b5bb6d0697e", "is_reserved": 0, "fusion_lat": 0.0}, {"type": "electric_scooter", "rental_uris": {"ios": "https://dc.lft.to/lastmile_qr_scan", "android": "https://dc.lft.to/lastmile_qr_scan"}, "lon": -77.03078683333334, "fusion_lon": 0.0, "is_disabled": 0, "lat": 38.91116133333333, "bike_id": "422f670860bd9516d52b239a15a7829a", "name": "422f670860bd9516d52b239a15a7829a", "is_reserved": 0, "fusion_lat": 0.0}, {"type": "electric_scooter", "rental_uris": {"ios": "https://dc.lft.to/lastmile_qr_scan", "android": "https://dc.lft.to/lastmile_qr_scan"}, "lon": -77.02330983333333, "fusion_lon": 0.0, "is_disabled": 0, "lat": 38.91777966666667, "bike_id": "8d91e1438207b111dea84f588ab892d9", "name": "8d91e1438207b111dea84f588ab892d9", "is_reserved": 0, "fusion_lat": 0.0}, {"type": "electric_scooter", "rental_uris": {"ios": "https://dc.lft.to/lastmile_qr_scan", "android": "https://dc.lft.to/lastmile_qr_scan"}, "lon": -77.044682, "fusion_lon": 0.0, "is_disabled": 0, "lat": 38.91534516666667, "bike_id": "69c91035a3bded68c04e8ff6663368ab", "name": "69c91035a3bded68c04e8ff6663368ab", "is_reserved": 0, "fusion_lat": 0.0}, {"type": "electric_scooter", "rental_uris": {"ios": "https://dc.lft.to/lastmile_qr_scan", "android": "https://dc.lft.to/lastmile_qr_scan"}, "lon": -77.042593, "fusion_lon": 0.0, "is_disabled": 0, "lat": 38.907647833333336, "bike_id": "d9c90e81bf42cebd9d85d2ec868e0ebf", "name": "d9c90e81bf42cebd9d85d2ec868e0ebf", "is_reserved": 0, "fusion_lat": 0.0}, {"type": "electric_scooter", "rental_uris": {"ios": "https://dc.lft.to/lastmile_qr_scan", "android": "https://dc.lft.to/lastmile_qr_scan"}, "lon": -77.04016316666667, "fusion_lon": 0.0, "is_disabled": 0, "lat": 38.922031833333335, "bike_id": "cd5e7e38b6a6ab74c3cdd29d86391ea4", "name": "cd5e7e38b6a6ab74c3cdd29d86391ea4", "is_reserved": 0, "fusion_lat": 0.0}, {"type": "electric_bike", "rental_uris": {"ios": "https://dc.lft.to/lastmile_qr_scan", "android": "https://dc.lft.to/lastmile_qr_scan"}, "lon": -77.18735233333334, "fusion_lon": 0.0, "is_disabled": 0, "lat": 38.89357666666667, "bike_id": "ed158bcfc0267f3ddb8d125c676c6e8c", "name": "ed158bcfc0267f3ddb8d125c676c6e8c", "is_reserved": 0, "fusion_lat": 0.0}, {"type": "electric_scooter", "rental_uris": {"ios": "https://dc.lft.to/lastmile_qr_scan", "android": "https://dc.lft.to/lastmile_qr_scan"}, "lon": -77.04474833333333, "fusion_lon": 0.0, "is_disabled": 0, "lat": 38.91213066666667, "bike_id": "a04db10634192b88ce3cbc003747dbf9", "name": "a04db10634192b88ce3cbc003747dbf9", "is_reserved": 0, "fusion_lat": 0.0}, {"type": "electric_scooter", "rental_uris": {"ios": "https://dc.lft.to/lastmile_qr_scan", "android": "https://dc.lft.to/lastmile_qr_scan"}, "lon": -77.03663833333333, "fusion_lon": 0.0, "is_disabled": 0, "lat": 38.917267, "bike_id": "c68736fd8363e2d0ceb0a54f11f5f821", "name": "c68736fd8363e2d0ceb0a54f11f5f821", "is_reserved": 0, "fusion_lat": 0.0}, {"type": "electric_scooter", "rental_uris": {"ios": "https://dc.lft.to/lastmile_qr_scan", "android": "https://dc.lft.to/lastmile_qr_scan"}, "lon": -77.032852, "fusion_lon": 0.0, "is_disabled": 0, "lat": 38.8993335, "bike_id": "717f5ded375f770243ab2f2f35138264", "name": "717f5ded375f770243ab2f2f35138264", "is_reserved": 0, "fusion_lat": 0.0}, {"type": "electric_scooter", "rental_uris": {"ios": "https://dc.lft.to/lastmile_qr_scan", "android": "https://dc.lft.to/lastmile_qr_scan"}, "lon": -77.0318565, "fusion_lon": 0.0, "is_disabled": 0, "lat": 38.91333233333334, "bike_id": "275a23d3dfd9664fdef2a1d0f6cc11f2", "name": "275a23d3dfd9664fdef2a1d0f6cc11f2", "is_reserved": 0, "fusion_lat": 0.0}, {"type": "electric_scooter", "rental_uris": {"ios": "https://dc.lft.to/lastmile_qr_scan", "android": "https://dc.lft.to/lastmile_qr_scan"}, "lon": -77.032514, "fusion_lon": 0.0, "is_disabled": 0, "lat": 38.89896516666667, "bike_id": "8dbdd4d9e95c1792712efc817d41076d", "name": "8dbdd4d9e95c1792712efc817d41076d", "is_reserved": 0, "fusion_lat": 0.0}, {"type": "electric_scooter", "rental_uris": {"ios": "https://dc.lft.to/lastmile_qr_scan", "android": "https://dc.lft.to/lastmile_qr_scan"}, "lon": -77.01742783333333, "fusion_lon": 0.0, "is_disabled": 0, "lat": 38.9204195, "bike_id": "a5adab1bce98a78f734ce5855f68cf55", "name": "a5adab1bce98a78f734ce5855f68cf55", "is_reserved": 0, "fusion_lat": 0.0}, {"type": "electric_scooter", "rental_uris": {"ios": "https://dc.lft.to/lastmile_qr_scan", "android": "https://dc.lft.to/lastmile_qr_scan"}, "lon": -77.010578, "fusion_lon": 0.0, "is_disabled": 0, "lat": 38.89588916666666, "bike_id": "e2022a5cd1ac1dd461889d81073764c4", "name": "e2022a5cd1ac1dd461889d81073764c4", "is_reserved": 0, "fusion_lat": 0.0}, {"type": "electric_scooter", "rental_uris": {"ios": "https://dc.lft.to/lastmile_qr_scan", "android": "https://dc.lft.to/lastmile_qr_scan"}, "lon": -77.032107, "fusion_lon": 0.0, "is_disabled": 0, "lat": 38.89575416666667, "bike_id": "9e66915edf7d89a88e2e653d4818ec3a", "name": "9e66915edf7d89a88e2e653d4818ec3a", "is_reserved": 0, "fusion_lat": 0.0}, {"type": "electric_scooter", "rental_uris": {"ios": "https://dc.lft.to/lastmile_qr_scan", "android": "https://dc.lft.to/lastmile_qr_scan"}, "lon": -76.93526883333334, "fusion_lon": 0.0, "is_disabled": 0, "lat": 38.87899383333333, "bike_id": "24938fede48fdc00d3f56b58ee4c2070", "name": "24938fede48fdc00d3f56b58ee4c2070", "is_reserved": 0, "fusion_lat": 0.0}, {"type": "electric_scooter", "rental_uris": {"ios": "https://dc.lft.to/lastmile_qr_scan", "android": "https://dc.lft.to/lastmile_qr_scan"}, "lon": -77.03623716666667, "fusion_lon": 0.0, "is_disabled": 0, "lat": 38.932880833333336, "bike_id": "b5e08a85a1450fd383e0e4eb7bdc7baa", "name": "b5e08a85a1450fd383e0e4eb7bdc7baa", "is_reserved": 0, "fusion_lat": 0.0}, {"type": "electric_scooter", "rental_uris": {"ios": "https://dc.lft.to/lastmile_qr_scan", "android": "https://dc.lft.to/lastmile_qr_scan"}, "lon": -77.041978, "fusion_lon": 0.0, "is_disabled": 0, "lat": 38.89223466666667, "bike_id": "c0a4d64d18fb22fdc658b0ca4e9ef258", "name": "c0a4d64d18fb22fdc658b0ca4e9ef258", "is_reserved": 0, "fusion_lat": 0.0}, {"type": "electric_scooter", "rental_uris": {"ios": "https://dc.lft.to/lastmile_qr_scan", "android": "https://dc.lft.to/lastmile_qr_scan"}, "lon": -77.05330933333333, "fusion_lon": 0.0, "is_disabled": 0, "lat": 38.92334816666666, "bike_id": "c705dbd992ecea61fd4404f4d17671a0", "name": "c705dbd992ecea61fd4404f4d17671a0", "is_reserved": 0, "fusion_lat": 0.0}, {"type": "electric_scooter", "rental_uris": {"ios": "https://dc.lft.to/lastmile_qr_scan", "android": "https://dc.lft.to/lastmile_qr_scan"}, "lon": -77.0689055, "fusion_lon": 0.0, "is_disabled": 0, "lat": 38.90419766666667, "bike_id": "c9c3ad9053741f20cdebb67625cc9ad8", "name": "c9c3ad9053741f20cdebb67625cc9ad8", "is_reserved": 0, "fusion_lat": 0.0}, {"type": "electric_scooter", "rental_uris": {"ios": "https://dc.lft.to/lastmile_qr_scan", "android": "https://dc.lft.to/lastmile_qr_scan"}, "lon": -77.03642416666666, "fusion_lon": 0.0, "is_disabled": 0, "lat": 38.920837166666665, "bike_id": "835abbaebcd7e8a660fb47868349c1b1", "name": "835abbaebcd7e8a660fb47868349c1b1", "is_reserved": 0, "fusion_lat": 0.0}, {"type": "electric_scooter", "rental_uris": {"ios": "https://dc.lft.to/lastmile_qr_scan", "android": "https://dc.lft.to/lastmile_qr_scan"}, "lon": -77.03677116666667, "fusion_lon": 0.0, "is_disabled": 0, "lat": 38.91912716666667, "bike_id": "49cb55c4d934eb5706caf0c693946252", "name": "49cb55c4d934eb5706caf0c693946252", "is_reserved": 0, "fusion_lat": 0.0}, {"type": "electric_scooter", "rental_uris": {"ios": "https://dc.lft.to/lastmile_qr_scan", "android": "https://dc.lft.to/lastmile_qr_scan"}, "lon": -76.99390616666666, "fusion_lon": 0.0, "is_disabled": 0, "lat": 38.91017683333333, "bike_id": "cf2c3047904114b6e0b678a221007dfb", "name": "cf2c3047904114b6e0b678a221007dfb", "is_reserved": 0, "fusion_lat": 0.0}, {"type": "electric_scooter", "rental_uris": {"ios": "https://dc.lft.to/lastmile_qr_scan", "android": "https://dc.lft.to/lastmile_qr_scan"}, "lon": -77.04865016666666, "fusion_lon": 0.0, "is_disabled": 0, "lat": 38.90957516666667, "bike_id": "8441fa382a86a7bd0fb3c006b6d71ff4", "name": "8441fa382a86a7bd0fb3c006b6d71ff4", "is_reserved": 0, "fusion_lat": 0.0}, {"type": "electric_scooter", "rental_uris": {"ios": "https://dc.lft.to/lastmile_qr_scan", "android": "https://dc.lft.to/lastmile_qr_scan"}, "lon": -77.04145316666667, "fusion_lon": 0.0, "is_disabled": 0, "lat": 38.892232166666666, "bike_id": "fdeeb0bdeda025d86a1b5629735803c7", "name": "fdeeb0bdeda025d86a1b5629735803c7", "is_reserved": 0, "fusion_lat": 0.0}, {"type": "electric_scooter", "rental_uris": {"ios": "https://dc.lft.to/lastmile_qr_scan", "android": "https://dc.lft.to/lastmile_qr_scan"}, "lon": -77.01757566666667, "fusion_lon": 0.0, "is_disabled": 0, "lat": 38.877182, "bike_id": "f487d2722aff46924f131dec77235212", "name": "f487d2722aff46924f131dec77235212", "is_reserved": 0, "fusion_lat": 0.0}, {"type": "electric_scooter", "rental_uris": {"ios": "https://dc.lft.to/lastmile_qr_scan", "android": "https://dc.lft.to/lastmile_qr_scan"}, "lon": -77.02660033333333, "fusion_lon": 0.0, "is_disabled": 0, "lat": 38.91708, "bike_id": "ca89de82cab17904f558f991538f9d88", "name": "ca89de82cab17904f558f991538f9d88", "is_reserved": 0, "fusion_lat": 0.0}, {"type": "electric_scooter", "rental_uris": {"ios": "https://dc.lft.to/lastmile_qr_scan", "android": "https://dc.lft.to/lastmile_qr_scan"}, "lon": -77.02697933333333, "fusion_lon": 0.0, "is_disabled": 0, "lat": 38.91825333333333, "bike_id": "1201b61b70b9ca448e7ad47300a6971a", "name": "1201b61b70b9ca448e7ad47300a6971a", "is_reserved": 0, "fusion_lat": 0.0}, {"type": "electric_scooter", "rental_uris": {"ios": "https://dc.lft.to/lastmile_qr_scan", "android": "https://dc.lft.to/lastmile_qr_scan"}, "lon": -77.03385183333333, "fusion_lon": 0.0, "is_disabled": 0, "lat": 38.906982666666664, "bike_id": "904030bad156e32b90eb48a5ac229866", "name": "904030bad156e32b90eb48a5ac229866", "is_reserved": 0, "fusion_lat": 0.0}, {"type": "electric_scooter", "rental_uris": {"ios": "https://dc.lft.to/lastmile_qr_scan", "android": "https://dc.lft.to/lastmile_qr_scan"}, "lon": -77.026954, "fusion_lon": 0.0, "is_disabled": 0, "lat": 38.906813, "bike_id": "4efec908092f017ea111bbb148ad85f3", "name": "4efec908092f017ea111bbb148ad85f3", "is_reserved": 0, "fusion_lat": 0.0}, {"type": "electric_scooter", "rental_uris": {"ios": "https://dc.lft.to/lastmile_qr_scan", "android": "https://dc.lft.to/lastmile_qr_scan"}, "lon": -77.02976533333333, "fusion_lon": 0.0, "is_disabled": 0, "lat": 38.916861, "bike_id": "598b69f404dad0cbcc3a44a43ff4e43e", "name": "598b69f404dad0cbcc3a44a43ff4e43e", "is_reserved": 0, "fusion_lat": 0.0}, {"type": "electric_scooter", "rental_uris": {"ios": "https://dc.lft.to/lastmile_qr_scan", "android": "https://dc.lft.to/lastmile_qr_scan"}, "lon": -77.0148155, "fusion_lon": 0.0, "is_disabled": 0, "lat": 38.8881705, "bike_id": "97dd40c7902c53f208077d24327ef067", "name": "97dd40c7902c53f208077d24327ef067", "is_reserved": 0, "fusion_lat": 0.0}, {"type": "electric_scooter", "rental_uris": {"ios": "https://dc.lft.to/lastmile_qr_scan", "android": "https://dc.lft.to/lastmile_qr_scan"}, "lon": -77.0241245, "fusion_lon": 0.0, "is_disabled": 0, "lat": 38.891951666666664, "bike_id": "4b99c1f32a866d3d7fa65bfd99e10c1f", "name": "4b99c1f32a866d3d7fa65bfd99e10c1f", "is_reserved": 0, "fusion_lat": 0.0}, {"type": "electric_scooter", "rental_uris": {"ios": "https://dc.lft.to/lastmile_qr_scan", "android": "https://dc.lft.to/lastmile_qr_scan"}, "lon": -77.026033, "fusion_lon": 0.0, "is_disabled": 0, "lat": 38.9056615, "bike_id": "df404cae643fa1642b45b96c321a95d5", "name": "df404cae643fa1642b45b96c321a95d5", "is_reserved": 0, "fusion_lat": 0.0}, {"type": "electric_scooter", "rental_uris": {"ios": "https://dc.lft.to/lastmile_qr_scan", "android": "https://dc.lft.to/lastmile_qr_scan"}, "lon": -77.0289925, "fusion_lon": 0.0, "is_disabled": 0, "lat": 38.9257235, "bike_id": "1d76f03b21d781c18a5e92a683b59427", "name": "1d76f03b21d781c18a5e92a683b59427", "is_reserved": 0, "fusion_lat": 0.0}, {"type": "electric_scooter", "rental_uris": {"ios": "https://dc.lft.to/lastmile_qr_scan", "android": "https://dc.lft.to/lastmile_qr_scan"}, "lon": -77.03095783333333, "fusion_lon": 0.0, "is_disabled": 0, "lat": 38.879181333333335, "bike_id": "80c5eb8d0b7d745cb1d0e6a260b5ba1f", "name": "80c5eb8d0b7d745cb1d0e6a260b5ba1f", "is_reserved": 0, "fusion_lat": 0.0}, {"type": "electric_scooter", "rental_uris": {"ios": "https://dc.lft.to/lastmile_qr_scan", "android": "https://dc.lft.to/lastmile_qr_scan"}, "lon": -76.931855, "fusion_lon": 0.0, "is_disabled": 0, "lat": 38.89877416666667, "bike_id": "29030c53bc579d61610eaff78344573b", "name": "29030c53bc579d61610eaff78344573b", "is_reserved": 0, "fusion_lat": 0.0}, {"type": "electric_scooter", "rental_uris": {"ios": "https://dc.lft.to/lastmile_qr_scan", "android": "https://dc.lft.to/lastmile_qr_scan"}, "lon": -77.04801466666666, "fusion_lon": 0.0, "is_disabled": 0, "lat": 38.90546916666667, "bike_id": "e185e502dbaab243793d837c883b8a61", "name": "e185e502dbaab243793d837c883b8a61", "is_reserved": 0, "fusion_lat": 0.0}, {"type": "electric_bike", "rental_uris": {"ios": "https://dc.lft.to/lastmile_qr_scan", "android": "https://dc.lft.to/lastmile_qr_scan"}, "lon": -77.1012655, "fusion_lon": 0.0, "is_disabled": 0, "lat": 38.85206383333333, "bike_id": "7d01f42b87fb93f7da166381ddc53b9d", "name": "7d01f42b87fb93f7da166381ddc53b9d", "is_reserved": 0, "fusion_lat": 0.0}, {"type": "electric_scooter", "rental_uris": {"ios": "https://dc.lft.to/lastmile_qr_scan", "android": "https://dc.lft.to/lastmile_qr_scan"}, "lon": -77.03732383333333, "fusion_lon": 0.0, "is_disabled": 0, "lat": 38.930686, "bike_id": "b9fdec9c363d7f26115b84d650ad804c", "name": "b9fdec9c363d7f26115b84d650ad804c", "is_reserved": 0, "fusion_lat": 0.0}, {"type": "electric_scooter", "rental_uris": {"ios": "https://dc.lft.to/lastmile_qr_scan", "android": "https://dc.lft.to/lastmile_qr_scan"}, "lon": -77.00580316666667, "fusion_lon": 0.0, "is_disabled": 0, "lat": 38.881877833333334, "bike_id": "18960d7310265b4fd46e9014608ce931", "name": "18960d7310265b4fd46e9014608ce931", "is_reserved": 0, "fusion_lat": 0.0}, {"type": "electric_scooter", "rental_uris": {"ios": "https://dc.lft.to/lastmile_qr_scan", "android": "https://dc.lft.to/lastmile_qr_scan"}, "lon": -77.03387383333333, "fusion_lon": 0.0, "is_disabled": 0, "lat": 38.9245255, "bike_id": "451e74ba13a908861301ae30c85d5e4b", "name": "451e74ba13a908861301ae30c85d5e4b", "is_reserved": 0, "fusion_lat": 0.0}, {"type": "electric_bike", "rental_uris": {"ios": "https://dc.lft.to/lastmile_qr_scan", "android": "https://dc.lft.to/lastmile_qr_scan"}, "lon": -77.07514383333333, "fusion_lon": 0.0, "is_disabled": 0, "lat": 38.848040166666664, "bike_id": "a56db51a3288fc7e3caace54cb7a4354", "name": "a56db51a3288fc7e3caace54cb7a4354", "is_reserved": 0, "fusion_lat": 0.0}, {"type": "electric_bike", "rental_uris": {"ios": "https://dc.lft.to/lastmile_qr_scan", "android": "https://dc.lft.to/lastmile_qr_scan"}, "lon": -77.03946483333333, "fusion_lon": 0.0, "is_disabled": 0, "lat": 38.865058, "bike_id": "12fbf7a275c6bee8288a73399e309134", "name": "12fbf7a275c6bee8288a73399e309134", "is_reserved": 0, "fusion_lat": 0.0}, {"type": "electric_bike", "rental_uris": {"ios": "https://dc.lft.to/lastmile_qr_scan", "android": "https://dc.lft.to/lastmile_qr_scan"}, "lon": -77.1189515, "fusion_lon": 0.0, "is_disabled": 0, "lat": 39.07500616666667, "bike_id": "369467c4c9b3b6ed634bd4626de36080", "name": "369467c4c9b3b6ed634bd4626de36080", "is_reserved": 0, "fusion_lat": 0.0}, {"type": "electric_scooter", "rental_uris": {"ios": "https://dc.lft.to/lastmile_qr_scan", "android": "https://dc.lft.to/lastmile_qr_scan"}, "lon": -77.01779266666667, "fusion_lon": 0.0, "is_disabled": 0, "lat": 38.88717666666667, "bike_id": "07645678908f359e5c8235ec3ba1e4ee", "name": "07645678908f359e5c8235ec3ba1e4ee", "is_reserved": 0, "fusion_lat": 0.0}, {"type": "electric_scooter", "rental_uris": {"ios": "https://dc.lft.to/lastmile_qr_scan", "android": "https://dc.lft.to/lastmile_qr_scan"}, "lon": -77.0222105, "fusion_lon": 0.0, "is_disabled": 0, "lat": 38.93553333333333, "bike_id": "7db36da5124a3d3c189b02d1f6f70a8e", "name": "7db36da5124a3d3c189b02d1f6f70a8e", "is_reserved": 0, "fusion_lat": 0.0}, {"type": "electric_scooter", "rental_uris": {"ios": "https://dc.lft.to/lastmile_qr_scan", "android": "https://dc.lft.to/lastmile_qr_scan"}, "lon": -76.95125683333333, "fusion_lon": 0.0, "is_disabled": 0, "lat": 38.890336166666664, "bike_id": "d125d617df83a01933977dd7970ab270", "name": "d125d617df83a01933977dd7970ab270", "is_reserved": 0, "fusion_lat": 0.0}, {"type": "electric_scooter", "rental_uris": {"ios": "https://dc.lft.to/lastmile_qr_scan", "android": "https://dc.lft.to/lastmile_qr_scan"}, "lon": -77.03638416666666, "fusion_lon": 0.0, "is_disabled": 0, "lat": 38.930609, "bike_id": "b5d441363af9b31dbac6618a533cb20f", "name": "b5d441363af9b31dbac6618a533cb20f", "is_reserved": 0, "fusion_lat": 0.0}, {"type": "electric_bike", "rental_uris": {"ios": "https://dc.lft.to/lastmile_qr_scan", "android": "https://dc.lft.to/lastmile_qr_scan"}, "lon": -77.05092466666666, "fusion_lon": 0.0, "is_disabled": 0, "lat": 38.813361, "bike_id": "294203d3cfed9d799cc13949969af2bc", "name": "294203d3cfed9d799cc13949969af2bc", "is_reserved": 0, "fusion_lat": 0.0}, {"type": "electric_scooter", "rental_uris": {"ios": "https://dc.lft.to/lastmile_qr_scan", "android": "https://dc.lft.to/lastmile_qr_scan"}, "lon": -76.9951825, "fusion_lon": 0.0, "is_disabled": 0, "lat": 38.88376266666667, "bike_id": "5a505ae161125df1e4de0b5cf8356c6d", "name": "5a505ae161125df1e4de0b5cf8356c6d", "is_reserved": 0, "fusion_lat": 0.0}, {"type": "electric_scooter", "rental_uris": {"ios": "https://dc.lft.to/lastmile_qr_scan", "android": "https://dc.lft.to/lastmile_qr_scan"}, "lon": -76.9818, "fusion_lon": 0.0, "is_disabled": 0, "lat": 38.895873333333334, "bike_id": "1ccffd143af78e1965966c30e388628b", "name": "1ccffd143af78e1965966c30e388628b", "is_reserved": 0, "fusion_lat": 0.0}, {"type": "electric_bike", "rental_uris": {"ios": "https://dc.lft.to/lastmile_qr_scan", "android": "https://dc.lft.to/lastmile_qr_scan"}, "lon": -77.1248595, "fusion_lon": 0.0, "is_disabled": 0, "lat": 38.8539715, "bike_id": "88b4628371c4ce6b298bd3ea38970f34", "name": "88b4628371c4ce6b298bd3ea38970f34", "is_reserved": 0, "fusion_lat": 0.0}, {"type": "electric_scooter", "rental_uris": {"ios": "https://dc.lft.to/lastmile_qr_scan", "android": "https://dc.lft.to/lastmile_qr_scan"}, "lon": -77.046879, "fusion_lon": 0.0, "is_disabled": 0, "lat": 38.89733533333333, "bike_id": "582c32e9b2b2b026bdf6a8f840d4f7f8", "name": "582c32e9b2b2b026bdf6a8f840d4f7f8", "is_reserved": 0, "fusion_lat": 0.0}, {"type": "electric_bike", "rental_uris": {"ios": "https://dc.lft.to/lastmile_qr_scan", "android": "https://dc.lft.to/lastmile_qr_scan"}, "lon": -76.97529883333333, "fusion_lon": 0.0, "is_disabled": 0, "lat": 38.840138333333336, "bike_id": "8434e0fd042eb6a3676b279fa1662ac3", "name": "8434e0fd042eb6a3676b279fa1662ac3", "is_reserved": 0, "fusion_lat": 0.0}, {"type": "electric_scooter", "rental_uris": {"ios": "https://dc.lft.to/lastmile_qr_scan", "android": "https://dc.lft.to/lastmile_qr_scan"}, "lon": -77.0319525, "fusion_lon": 0.0, "is_disabled": 0, "lat": 38.896035833333336, "bike_id": "9bda28d5bf6d8fde3446599e618d77c7", "name": "9bda28d5bf6d8fde3446599e618d77c7", "is_reserved": 0, "fusion_lat": 0.0}, {"type": "electric_bike", "rental_uris": {"ios": "https://dc.lft.to/lastmile_qr_scan", "android": "https://dc.lft.to/lastmile_qr_scan"}, "lon": -77.02423166666667, "fusion_lon": 0.0, "is_disabled": 0, "lat": 38.896951666666666, "bike_id": "893f65186ff8c33fd7308c967af4865e", "name": "893f65186ff8c33fd7308c967af4865e", "is_reserved": 0, "fusion_lat": 0.0}, {"type": "electric_scooter", "rental_uris": {"ios": "https://dc.lft.to/lastmile_qr_scan", "android": "https://dc.lft.to/lastmile_qr_scan"}, "lon": -77.03037066666667, "fusion_lon": 0.0, "is_disabled": 0, "lat": 38.9311775, "bike_id": "caec6c9f7b80c9a3406ca6164951b026", "name": "caec6c9f7b80c9a3406ca6164951b026", "is_reserved": 0, "fusion_lat": 0.0}, {"type": "electric_scooter", "rental_uris": {"ios": "https://dc.lft.to/lastmile_qr_scan", "android": "https://dc.lft.to/lastmile_qr_scan"}, "lon": -77.034704, "fusion_lon": 0.0, "is_disabled": 0, "lat": 38.9096355, "bike_id": "be1960f368c0ac5b1f26c8446e047161", "name": "be1960f368c0ac5b1f26c8446e047161", "is_reserved": 0, "fusion_lat": 0.0}, {"type": "electric_scooter", "rental_uris": {"ios": "https://dc.lft.to/lastmile_qr_scan", "android": "https://dc.lft.to/lastmile_qr_scan"}, "lon": -77.04004966666666, "fusion_lon": 0.0, "is_disabled": 0, "lat": 38.907839, "bike_id": "bbc6c1829d1426610cc998e8e3e8464f", "name": "bbc6c1829d1426610cc998e8e3e8464f", "is_reserved": 0, "fusion_lat": 0.0}, {"type": "electric_scooter", "rental_uris": {"ios": "https://dc.lft.to/lastmile_qr_scan", "android": "https://dc.lft.to/lastmile_qr_scan"}, "lon": -77.00114533333333, "fusion_lon": 0.0, "is_disabled": 0, "lat": 38.917064, "bike_id": "1b473183fa1b257ef9afb0c714f6ba58", "name": "1b473183fa1b257ef9afb0c714f6ba58", "is_reserved": 0, "fusion_lat": 0.0}, {"type": "electric_scooter", "rental_uris": {"ios": "https://dc.lft.to/lastmile_qr_scan", "android": "https://dc.lft.to/lastmile_qr_scan"}, "lon": -77.02498533333333, "fusion_lon": 0.0, "is_disabled": 0, "lat": 38.918086, "bike_id": "27c9b5639c9c5b483aade2361f040252", "name": "27c9b5639c9c5b483aade2361f040252", "is_reserved": 0, "fusion_lat": 0.0}, {"type": "electric_scooter", "rental_uris": {"ios": "https://dc.lft.to/lastmile_qr_scan", "android": "https://dc.lft.to/lastmile_qr_scan"}, "lon": -77.02292083333333, "fusion_lon": 0.0, "is_disabled": 0, "lat": 38.91637333333333, "bike_id": "19230544da36628f5bc1492adece61c4", "name": "19230544da36628f5bc1492adece61c4", "is_reserved": 0, "fusion_lat": 0.0}, {"type": "electric_scooter", "rental_uris": {"ios": "https://dc.lft.to/lastmile_qr_scan", "android": "https://dc.lft.to/lastmile_qr_scan"}, "lon": -77.03410366666667, "fusion_lon": 0.0, "is_disabled": 0, "lat": 38.919245833333335, "bike_id": "5b2c73373835af51c2ae2819bb2bcb42", "name": "5b2c73373835af51c2ae2819bb2bcb42", "is_reserved": 0, "fusion_lat": 0.0}, {"type": "electric_scooter", "rental_uris": {"ios": "https://dc.lft.to/lastmile_qr_scan", "android": "https://dc.lft.to/lastmile_qr_scan"}, "lon": -77.0317905, "fusion_lon": 0.0, "is_disabled": 0, "lat": 38.91919716666666, "bike_id": "b37d715fc66a4c28446d171b5508f305", "name": "b37d715fc66a4c28446d171b5508f305", "is_reserved": 0, "fusion_lat": 0.0}, {"type": "electric_scooter", "rental_uris": {"ios": "https://dc.lft.to/lastmile_qr_scan", "android": "https://dc.lft.to/lastmile_qr_scan"}, "lon": -77.03346916666666, "fusion_lon": 0.0, "is_disabled": 0, "lat": 38.88769216666667, "bike_id": "8e517632ac49019a66c02ba05d639105", "name": "8e517632ac49019a66c02ba05d639105", "is_reserved": 0, "fusion_lat": 0.0}, {"type": "electric_scooter", "rental_uris": {"ios": "https://dc.lft.to/lastmile_qr_scan", "android": "https://dc.lft.to/lastmile_qr_scan"}, "lon": -77.03859333333334, "fusion_lon": 0.0, "is_disabled": 0, "lat": 38.910182166666665, "bike_id": "7e95d7b64d9272b096c5911b20a6a8c4", "name": "7e95d7b64d9272b096c5911b20a6a8c4", "is_reserved": 0, "fusion_lat": 0.0}, {"type": "electric_bike", "rental_uris": {"ios": "https://dc.lft.to/lastmile_qr_scan", "android": "https://dc.lft.to/lastmile_qr_scan"}, "lon": -77.134674, "fusion_lon": 0.0, "is_disabled": 0, "lat": 38.85357116666667, "bike_id": "58ac02f1445ac7caaa2dd051cb225f67", "name": "58ac02f1445ac7caaa2dd051cb225f67", "is_reserved": 0, "fusion_lat": 0.0}, {"type": "electric_scooter", "rental_uris": {"ios": "https://dc.lft.to/lastmile_qr_scan", "android": "https://dc.lft.to/lastmile_qr_scan"}, "lon": -77.032094, "fusion_lon": 0.0, "is_disabled": 0, "lat": 38.9089435, "bike_id": "5617b45c9bfa020cfce59a812a88552e", "name": "5617b45c9bfa020cfce59a812a88552e", "is_reserved": 0, "fusion_lat": 0.0}, {"type": "electric_bike", "rental_uris": {"ios": "https://dc.lft.to/lastmile_qr_scan", "android": "https://dc.lft.to/lastmile_qr_scan"}, "lon": -76.92501216666666, "fusion_lon": 0.0, "is_disabled": 0, "lat": 38.958804666666666, "bike_id": "0aafb59d109a5ebe1de87c6d07863484", "name": "0aafb59d109a5ebe1de87c6d07863484", "is_reserved": 0, "fusion_lat": 0.0}, {"type": "electric_scooter", "rental_uris": {"ios": "https://dc.lft.to/lastmile_qr_scan", "android": "https://dc.lft.to/lastmile_qr_scan"}, "lon": -77.03259483333333, "fusion_lon": 0.0, "is_disabled": 0, "lat": 38.9072625, "bike_id": "11cb933cafa7b812a5d9c0adffd19c60", "name": "11cb933cafa7b812a5d9c0adffd19c60", "is_reserved": 0, "fusion_lat": 0.0}, {"type": "electric_scooter", "rental_uris": {"ios": "https://dc.lft.to/lastmile_qr_scan", "android": "https://dc.lft.to/lastmile_qr_scan"}, "lon": -77.01657116666667, "fusion_lon": 0.0, "is_disabled": 0, "lat": 38.910570666666665, "bike_id": "106e633ae7e7de29d78d6e3cee2c0523", "name": "106e633ae7e7de29d78d6e3cee2c0523", "is_reserved": 0, "fusion_lat": 0.0}, {"type": "electric_bike", "rental_uris": {"ios": "https://dc.lft.to/lastmile_qr_scan", "android": "https://dc.lft.to/lastmile_qr_scan"}, "lon": -76.98021116666666, "fusion_lon": 0.0, "is_disabled": 0, "lat": 38.957562, "bike_id": "1df95dbc77fbf85a8be6392081e432c5", "name": "1df95dbc77fbf85a8be6392081e432c5", "is_reserved": 0, "fusion_lat": 0.0}, {"type": "electric_scooter", "rental_uris": {"ios": "https://dc.lft.to/lastmile_qr_scan", "android": "https://dc.lft.to/lastmile_qr_scan"}, "lon": -76.93173966666667, "fusion_lon": 0.0, "is_disabled": 0, "lat": 38.898901, "bike_id": "68d116fb0fc957c6b8337a24059703dd", "name": "68d116fb0fc957c6b8337a24059703dd", "is_reserved": 0, "fusion_lat": 0.0}, {"type": "electric_scooter", "rental_uris": {"ios": "https://dc.lft.to/lastmile_qr_scan", "android": "https://dc.lft.to/lastmile_qr_scan"}, "lon": -77.01221416666667, "fusion_lon": 0.0, "is_disabled": 0, "lat": 38.9150045, "bike_id": "911c1df6ccb4aef4ce5ee2959d2f2f0c", "name": "911c1df6ccb4aef4ce5ee2959d2f2f0c", "is_reserved": 0, "fusion_lat": 0.0}, {"type": "electric_scooter", "rental_uris": {"ios": "https://dc.lft.to/lastmile_qr_scan", "android": "https://dc.lft.to/lastmile_qr_scan"}, "lon": -77.03401333333333, "fusion_lon": 0.0, "is_disabled": 0, "lat": 38.931211833333336, "bike_id": "903e7e3cc1ea4b0a2effcdf396f2c5d5", "name": "903e7e3cc1ea4b0a2effcdf396f2c5d5", "is_reserved": 0, "fusion_lat": 0.0}, {"type": "electric_scooter", "rental_uris": {"ios": "https://dc.lft.to/lastmile_qr_scan", "android": "https://dc.lft.to/lastmile_qr_scan"}, "lon": -77.03170633333333, "fusion_lon": 0.0, "is_disabled": 0, "lat": 38.9166855, "bike_id": "f27496148c15d5e9b890af430f6244e0", "name": "f27496148c15d5e9b890af430f6244e0", "is_reserved": 0, "fusion_lat": 0.0}, {"type": "electric_scooter", "rental_uris": {"ios": "https://dc.lft.to/lastmile_qr_scan", "android": "https://dc.lft.to/lastmile_qr_scan"}, "lon": -77.0348885, "fusion_lon": 0.0, "is_disabled": 0, "lat": 38.919275, "bike_id": "ff9dd9da346d3556f395c8285dbf7478", "name": "ff9dd9da346d3556f395c8285dbf7478", "is_reserved": 0, "fusion_lat": 0.0}, {"type": "electric_scooter", "rental_uris": {"ios": "https://dc.lft.to/lastmile_qr_scan", "android": "https://dc.lft.to/lastmile_qr_scan"}, "lon": -77.05727233333333, "fusion_lon": 0.0, "is_disabled": 0, "lat": 38.933648833333336, "bike_id": "daed6730ee684afafc55ad6d68531021", "name": "daed6730ee684afafc55ad6d68531021", "is_reserved": 0, "fusion_lat": 0.0}, {"type": "electric_scooter", "rental_uris": {"ios": "https://dc.lft.to/lastmile_qr_scan", "android": "https://dc.lft.to/lastmile_qr_scan"}, "lon": -77.0316585, "fusion_lon": 0.0, "is_disabled": 0, "lat": 38.915699833333335, "bike_id": "77d42f33c5b4ce99206eb032b55bb94e", "name": "77d42f33c5b4ce99206eb032b55bb94e", "is_reserved": 0, "fusion_lat": 0.0}, {"type": "electric_bike", "rental_uris": {"ios": "https://dc.lft.to/lastmile_qr_scan", "android": "https://dc.lft.to/lastmile_qr_scan"}, "lon": -76.98766, "fusion_lon": 0.0, "is_disabled": 0, "lat": 38.857716833333335, "bike_id": "ba7f1b0cdcccca9b99560d98ce5d54e6", "name": "ba7f1b0cdcccca9b99560d98ce5d54e6", "is_reserved": 0, "fusion_lat": 0.0}, {"type": "electric_scooter", "rental_uris": {"ios": "https://dc.lft.to/lastmile_qr_scan", "android": "https://dc.lft.to/lastmile_qr_scan"}, "lon": -77.036768, "fusion_lon": 0.0, "is_disabled": 0, "lat": 38.91810133333333, "bike_id": "e84da12278ad8eee1ab7934cf1f334a6", "name": "e84da12278ad8eee1ab7934cf1f334a6", "is_reserved": 0, "fusion_lat": 0.0}, {"type": "electric_scooter", "rental_uris": {"ios": "https://dc.lft.to/lastmile_qr_scan", "android": "https://dc.lft.to/lastmile_qr_scan"}, "lon": -77.02692766666667, "fusion_lon": 0.0, "is_disabled": 0, "lat": 38.91125783333333, "bike_id": "a12358fd2053af6e24e02f9b5e2299f1", "name": "a12358fd2053af6e24e02f9b5e2299f1", "is_reserved": 0, "fusion_lat": 0.0}, {"type": "electric_scooter", "rental_uris": {"ios": "https://dc.lft.to/lastmile_qr_scan", "android": "https://dc.lft.to/lastmile_qr_scan"}, "lon": -77.00206466666667, "fusion_lon": 0.0, "is_disabled": 0, "lat": 38.90032033333333, "bike_id": "5c3d3c55365e9b73b5e83dd559dc6149", "name": "5c3d3c55365e9b73b5e83dd559dc6149", "is_reserved": 0, "fusion_lat": 0.0}, {"type": "electric_scooter", "rental_uris": {"ios": "https://dc.lft.to/lastmile_qr_scan", "android": "https://dc.lft.to/lastmile_qr_scan"}, "lon": -77.02759683333333, "fusion_lon": 0.0, "is_disabled": 0, "lat": 38.907283666666665, "bike_id": "f40c959b907f39616d80999a68aa2cab", "name": "f40c959b907f39616d80999a68aa2cab", "is_reserved": 0, "fusion_lat": 0.0}, {"type": "electric_scooter", "rental_uris": {"ios": "https://dc.lft.to/lastmile_qr_scan", "android": "https://dc.lft.to/lastmile_qr_scan"}, "lon": -77.062936, "fusion_lon": 0.0, "is_disabled": 0, "lat": 38.90330083333333, "bike_id": "f44576a881506039062b47efae3f32e8", "name": "f44576a881506039062b47efae3f32e8", "is_reserved": 0, "fusion_lat": 0.0}, {"type": "electric_bike", "rental_uris": {"ios": "https://dc.lft.to/lastmile_qr_scan", "android": "https://dc.lft.to/lastmile_qr_scan"}, "lon": -77.04932433333333, "fusion_lon": 0.0, "is_disabled": 0, "lat": 38.813524, "bike_id": "274ff87242fc34fbbb6706601bf5329b", "name": "274ff87242fc34fbbb6706601bf5329b", "is_reserved": 0, "fusion_lat": 0.0}, {"type": "electric_scooter", "rental_uris": {"ios": "https://dc.lft.to/lastmile_qr_scan", "android": "https://dc.lft.to/lastmile_qr_scan"}, "lon": -77.00479016666667, "fusion_lon": 0.0, "is_disabled": 0, "lat": 38.91152666666667, "bike_id": "3940d2d622898334c2d1700a5651ad19", "name": "3940d2d622898334c2d1700a5651ad19", "is_reserved": 0, "fusion_lat": 0.0}, {"type": "electric_scooter", "rental_uris": {"ios": "https://dc.lft.to/lastmile_qr_scan", "android": "https://dc.lft.to/lastmile_qr_scan"}, "lon": -77.03659133333333, "fusion_lon": 0.0, "is_disabled": 0, "lat": 38.92295266666667, "bike_id": "a91ac0cbaf0faea4e84a5ddcf4bfc0a2", "name": "a91ac0cbaf0faea4e84a5ddcf4bfc0a2", "is_reserved": 0, "fusion_lat": 0.0}, {"type": "electric_scooter", "rental_uris": {"ios": "https://dc.lft.to/lastmile_qr_scan", "android": "https://dc.lft.to/lastmile_qr_scan"}, "lon": -77.0555485, "fusion_lon": 0.0, "is_disabled": 0, "lat": 38.93423416666667, "bike_id": "e43f0b8bf7ff132e7f9f81e2c315601f", "name": "e43f0b8bf7ff132e7f9f81e2c315601f", "is_reserved": 0, "fusion_lat": 0.0}, {"type": "electric_scooter", "rental_uris": {"ios": "https://dc.lft.to/lastmile_qr_scan", "android": "https://dc.lft.to/lastmile_qr_scan"}, "lon": -77.05242033333333, "fusion_lon": 0.0, "is_disabled": 0, "lat": 38.924722833333334, "bike_id": "6dcb107eaa779bed6a5b6f52d7b67a09", "name": "6dcb107eaa779bed6a5b6f52d7b67a09", "is_reserved": 0, "fusion_lat": 0.0}, {"type": "electric_bike", "rental_uris": {"ios": "https://dc.lft.to/lastmile_qr_scan", "android": "https://dc.lft.to/lastmile_qr_scan"}, "lon": -76.9868735, "fusion_lon": 0.0, "is_disabled": 0, "lat": 38.9447285, "bike_id": "240e8d4bd0e0fff455f433bd51a8e694", "name": "240e8d4bd0e0fff455f433bd51a8e694", "is_reserved": 0, "fusion_lat": 0.0}, {"type": "electric_scooter", "rental_uris": {"ios": "https://dc.lft.to/lastmile_qr_scan", "android": "https://dc.lft.to/lastmile_qr_scan"}, "lon": -77.04588933333334, "fusion_lon": 0.0, "is_disabled": 0, "lat": 38.9186045, "bike_id": "14fd405cf503dafa1cb9de4cd23b3b24", "name": "14fd405cf503dafa1cb9de4cd23b3b24", "is_reserved": 0, "fusion_lat": 0.0}, {"type": "electric_scooter", "rental_uris": {"ios": "https://dc.lft.to/lastmile_qr_scan", "android": "https://dc.lft.to/lastmile_qr_scan"}, "lon": -77.0350585, "fusion_lon": 0.0, "is_disabled": 0, "lat": 38.921576, "bike_id": "f3240f715bb94c9ec1599d93051f42ad", "name": "f3240f715bb94c9ec1599d93051f42ad", "is_reserved": 0, "fusion_lat": 0.0}, {"type": "electric_scooter", "rental_uris": {"ios": "https://dc.lft.to/lastmile_qr_scan", "android": "https://dc.lft.to/lastmile_qr_scan"}, "lon": -77.029838, "fusion_lon": 0.0, "is_disabled": 0, "lat": 38.922447, "bike_id": "9ac4c41b388452d0f293fc78ac288216", "name": "9ac4c41b388452d0f293fc78ac288216", "is_reserved": 0, "fusion_lat": 0.0}, {"type": "electric_scooter", "rental_uris": {"ios": "https://dc.lft.to/lastmile_qr_scan", "android": "https://dc.lft.to/lastmile_qr_scan"}, "lon": -77.02759483333334, "fusion_lon": 0.0, "is_disabled": 0, "lat": 38.957809166666664, "bike_id": "7e7d02842e67e88f91a4d04c6c35351c", "name": "7e7d02842e67e88f91a4d04c6c35351c", "is_reserved": 0, "fusion_lat": 0.0}, {"type": "electric_scooter", "rental_uris": {"ios": "https://dc.lft.to/lastmile_qr_scan", "android": "https://dc.lft.to/lastmile_qr_scan"}, "lon": -77.05228933333333, "fusion_lon": 0.0, "is_disabled": 0, "lat": 38.924608166666665, "bike_id": "eeb0eb9eb7caccf87b7a82a98c425c6d", "name": "eeb0eb9eb7caccf87b7a82a98c425c6d", "is_reserved": 0, "fusion_lat": 0.0}, {"type": "electric_scooter", "rental_uris": {"ios": "https://dc.lft.to/lastmile_qr_scan", "android": "https://dc.lft.to/lastmile_qr_scan"}, "lon": -77.02179033333333, "fusion_lon": 0.0, "is_disabled": 0, "lat": 38.892988333333335, "bike_id": "e4809da56d50bd41bb36cdebbcf44d36", "name": "e4809da56d50bd41bb36cdebbcf44d36", "is_reserved": 0, "fusion_lat": 0.0}, {"type": "electric_scooter", "rental_uris": {"ios": "https://dc.lft.to/lastmile_qr_scan", "android": "https://dc.lft.to/lastmile_qr_scan"}, "lon": -77.03428083333333, "fusion_lon": 0.0, "is_disabled": 0, "lat": 38.90978366666667, "bike_id": "273996baf91abf124366546d8d321f54", "name": "273996baf91abf124366546d8d321f54", "is_reserved": 0, "fusion_lat": 0.0}, {"type": "electric_scooter", "rental_uris": {"ios": "https://dc.lft.to/lastmile_qr_scan", "android": "https://dc.lft.to/lastmile_qr_scan"}, "lon": -76.95753533333334, "fusion_lon": 0.0, "is_disabled": 0, "lat": 38.88427733333333, "bike_id": "04f1bc0f54120954db2b920dd076048d", "name": "04f1bc0f54120954db2b920dd076048d", "is_reserved": 0, "fusion_lat": 0.0}, {"type": "electric_scooter", "rental_uris": {"ios": "https://dc.lft.to/lastmile_qr_scan", "android": "https://dc.lft.to/lastmile_qr_scan"}, "lon": -77.0242565, "fusion_lon": 0.0, "is_disabled": 0, "lat": 38.92749933333333, "bike_id": "d6eec89b814afe737e25c2349dd4a366", "name": "d6eec89b814afe737e25c2349dd4a366", "is_reserved": 0, "fusion_lat": 0.0}, {"type": "electric_scooter", "rental_uris": {"ios": "https://dc.lft.to/lastmile_qr_scan", "android": "https://dc.lft.to/lastmile_qr_scan"}, "lon": -77.0326195, "fusion_lon": 0.0, "is_disabled": 0, "lat": 38.91995683333333, "bike_id": "a7cf1eaa2c9aa534dff8610c316deea9", "name": "a7cf1eaa2c9aa534dff8610c316deea9", "is_reserved": 0, "fusion_lat": 0.0}, {"type": "electric_scooter", "rental_uris": {"ios": "https://dc.lft.to/lastmile_qr_scan", "android": "https://dc.lft.to/lastmile_qr_scan"}, "lon": -77.049221, "fusion_lon": 0.0, "is_disabled": 0, "lat": 38.900831333333336, "bike_id": "13580426c9aaeb8817fda00d18516b6d", "name": "13580426c9aaeb8817fda00d18516b6d", "is_reserved": 0, "fusion_lat": 0.0}, {"type": "electric_scooter", "rental_uris": {"ios": "https://dc.lft.to/lastmile_qr_scan", "android": "https://dc.lft.to/lastmile_qr_scan"}, "lon": -77.04480516666666, "fusion_lon": 0.0, "is_disabled": 0, "lat": 38.919189333333335, "bike_id": "6075e8bebe40961be8c71608305f0956", "name": "6075e8bebe40961be8c71608305f0956", "is_reserved": 0, "fusion_lat": 0.0}, {"type": "electric_scooter", "rental_uris": {"ios": "https://dc.lft.to/lastmile_qr_scan", "android": "https://dc.lft.to/lastmile_qr_scan"}, "lon": -76.965183, "fusion_lon": 0.0, "is_disabled": 0, "lat": 38.87625166666667, "bike_id": "7cf28a5f5a7fd754233a79cce9818aa8", "name": "7cf28a5f5a7fd754233a79cce9818aa8", "is_reserved": 0, "fusion_lat": 0.0}, {"type": "electric_scooter", "rental_uris": {"ios": "https://dc.lft.to/lastmile_qr_scan", "android": "https://dc.lft.to/lastmile_qr_scan"}, "lon": -77.01506983333333, "fusion_lon": 0.0, "is_disabled": 0, "lat": 38.94328083333333, "bike_id": "6d88e2e7448a055c40d221e3d8f09984", "name": "6d88e2e7448a055c40d221e3d8f09984", "is_reserved": 0, "fusion_lat": 0.0}, {"type": "electric_scooter", "rental_uris": {"ios": "https://dc.lft.to/lastmile_qr_scan", "android": "https://dc.lft.to/lastmile_qr_scan"}, "lon": -77.043322, "fusion_lon": 0.0, "is_disabled": 0, "lat": 38.892225, "bike_id": "e916366c71df8fda9cbdec5e4a6a4eb4", "name": "e916366c71df8fda9cbdec5e4a6a4eb4", "is_reserved": 0, "fusion_lat": 0.0}, {"type": "electric_bike", "rental_uris": {"ios": "https://dc.lft.to/lastmile_qr_scan", "android": "https://dc.lft.to/lastmile_qr_scan"}, "lon": -76.90965416666667, "fusion_lon": 0.0, "is_disabled": 0, "lat": 38.85427716666667, "bike_id": "92fc6d04a5c29c0f1844342b32e4f400", "name": "92fc6d04a5c29c0f1844342b32e4f400", "is_reserved": 0, "fusion_lat": 0.0}, {"type": "electric_scooter", "rental_uris": {"ios": "https://dc.lft.to/lastmile_qr_scan", "android": "https://dc.lft.to/lastmile_qr_scan"}, "lon": -77.02168233333333, "fusion_lon": 0.0, "is_disabled": 0, "lat": 38.8972725, "bike_id": "7de4043896b11c5b1913bc181fdc9500", "name": "7de4043896b11c5b1913bc181fdc9500", "is_reserved": 0, "fusion_lat": 0.0}, {"type": "electric_bike", "rental_uris": {"ios": "https://dc.lft.to/lastmile_qr_scan", "android": "https://dc.lft.to/lastmile_qr_scan"}, "lon": -76.98595516666667, "fusion_lon": 0.0, "is_disabled": 0, "lat": 38.906223833333335, "bike_id": "281d0366f38506b46c678986fe18d2cc", "name": "281d0366f38506b46c678986fe18d2cc", "is_reserved": 0, "fusion_lat": 0.0}, {"type": "electric_scooter", "rental_uris": {"ios": "https://dc.lft.to/lastmile_qr_scan", "android": "https://dc.lft.to/lastmile_qr_scan"}, "lon": -77.028387, "fusion_lon": 0.0, "is_disabled": 0, "lat": 38.92780166666667, "bike_id": "5f19f7aed093a3b86fbed4adecdbeb6a", "name": "5f19f7aed093a3b86fbed4adecdbeb6a", "is_reserved": 0, "fusion_lat": 0.0}, {"type": "electric_scooter", "rental_uris": {"ios": "https://dc.lft.to/lastmile_qr_scan", "android": "https://dc.lft.to/lastmile_qr_scan"}, "lon": -76.99961316666666, "fusion_lon": 0.0, "is_disabled": 0, "lat": 38.90111666666667, "bike_id": "59c37e108d7bc84ff99c3baf6784a240", "name": "59c37e108d7bc84ff99c3baf6784a240", "is_reserved": 0, "fusion_lat": 0.0}, {"type": "electric_scooter", "rental_uris": {"ios": "https://dc.lft.to/lastmile_qr_scan", "android": "https://dc.lft.to/lastmile_qr_scan"}, "lon": -76.99559566666667, "fusion_lon": 0.0, "is_disabled": 0, "lat": 38.90031466666667, "bike_id": "88e6c8478772567576dfd07887ccfcf0", "name": "88e6c8478772567576dfd07887ccfcf0", "is_reserved": 0, "fusion_lat": 0.0}, {"type": "electric_scooter", "rental_uris": {"ios": "https://dc.lft.to/lastmile_qr_scan", "android": "https://dc.lft.to/lastmile_qr_scan"}, "lon": -77.05233916666667, "fusion_lon": 0.0, "is_disabled": 0, "lat": 38.924687166666665, "bike_id": "42a2dd401c82720cbf53107045402ddb", "name": "42a2dd401c82720cbf53107045402ddb", "is_reserved": 0, "fusion_lat": 0.0}, {"type": "electric_scooter", "rental_uris": {"ios": "https://dc.lft.to/lastmile_qr_scan", "android": "https://dc.lft.to/lastmile_qr_scan"}, "lon": -77.0512945, "fusion_lon": 0.0, "is_disabled": 0, "lat": 38.923644, "bike_id": "8cc7967c7402c4327acf0d6371bf1f3d", "name": "8cc7967c7402c4327acf0d6371bf1f3d", "is_reserved": 0, "fusion_lat": 0.0}, {"type": "electric_bike", "rental_uris": {"ios": "https://dc.lft.to/lastmile_qr_scan", "android": "https://dc.lft.to/lastmile_qr_scan"}, "lon": -77.00912, "fusion_lon": 0.0, "is_disabled": 0, "lat": 38.82786466666667, "bike_id": "f19c7e00a8448f58afc26d82f51f717f", "name": "f19c7e00a8448f58afc26d82f51f717f", "is_reserved": 0, "fusion_lat": 0.0}, {"type": "electric_scooter", "rental_uris": {"ios": "https://dc.lft.to/lastmile_qr_scan", "android": "https://dc.lft.to/lastmile_qr_scan"}, "lon": -77.02761983333333, "fusion_lon": 0.0, "is_disabled": 0, "lat": 38.956165, "bike_id": "64d70d96e6a31eff873ac664630d3339", "name": "64d70d96e6a31eff873ac664630d3339", "is_reserved": 0, "fusion_lat": 0.0}, {"type": "electric_scooter", "rental_uris": {"ios": "https://dc.lft.to/lastmile_qr_scan", "android": "https://dc.lft.to/lastmile_qr_scan"}, "lon": -77.05129, "fusion_lon": 0.0, "is_disabled": 0, "lat": 38.923678833333334, "bike_id": "5591f37690ddefe7e0d781bdb0792a8a", "name": "5591f37690ddefe7e0d781bdb0792a8a", "is_reserved": 0, "fusion_lat": 0.0}, {"type": "electric_scooter", "rental_uris": {"ios": "https://dc.lft.to/lastmile_qr_scan", "android": "https://dc.lft.to/lastmile_qr_scan"}, "lon": -77.01105616666666, "fusion_lon": 0.0, "is_disabled": 0, "lat": 38.89350066666667, "bike_id": "ce9e939effe3dda67b4eab776f317c0d", "name": "ce9e939effe3dda67b4eab776f317c0d", "is_reserved": 0, "fusion_lat": 0.0}, {"type": "electric_scooter", "rental_uris": {"ios": "https://dc.lft.to/lastmile_qr_scan", "android": "https://dc.lft.to/lastmile_qr_scan"}, "lon": -76.99219816666667, "fusion_lon": 0.0, "is_disabled": 0, "lat": 38.895214833333334, "bike_id": "64d0e261ff263dbe3e28dd4122e2053d", "name": "64d0e261ff263dbe3e28dd4122e2053d", "is_reserved": 0, "fusion_lat": 0.0}, {"type": "electric_scooter", "rental_uris": {"ios": "https://dc.lft.to/lastmile_qr_scan", "android": "https://dc.lft.to/lastmile_qr_scan"}, "lon": -76.983105, "fusion_lon": 0.0, "is_disabled": 0, "lat": 38.86893933333333, "bike_id": "99b7ad13373a503a91cbc213335f281c", "name": "99b7ad13373a503a91cbc213335f281c", "is_reserved": 0, "fusion_lat": 0.0}, {"type": "electric_scooter", "rental_uris": {"ios": "https://dc.lft.to/lastmile_qr_scan", "android": "https://dc.lft.to/lastmile_qr_scan"}, "lon": -77.01751, "fusion_lon": 0.0, "is_disabled": 0, "lat": 38.9026685, "bike_id": "bf97be9d98ac4599d9eb66b3e93b810c", "name": "bf97be9d98ac4599d9eb66b3e93b810c", "is_reserved": 0, "fusion_lat": 0.0}, {"type": "electric_scooter", "rental_uris": {"ios": "https://dc.lft.to/lastmile_qr_scan", "android": "https://dc.lft.to/lastmile_qr_scan"}, "lon": -76.99035366666666, "fusion_lon": 0.0, "is_disabled": 0, "lat": 38.89853466666667, "bike_id": "681482a92488c1d3f3beb70fc60ea729", "name": "681482a92488c1d3f3beb70fc60ea729", "is_reserved": 0, "fusion_lat": 0.0}, {"type": "electric_scooter", "rental_uris": {"ios": "https://dc.lft.to/lastmile_qr_scan", "android": "https://dc.lft.to/lastmile_qr_scan"}, "lon": -77.07981666666667, "fusion_lon": 0.0, "is_disabled": 0, "lat": 38.91950416666667, "bike_id": "492e048f2bca268dcfe3233ea7e93424", "name": "492e048f2bca268dcfe3233ea7e93424", "is_reserved": 0, "fusion_lat": 0.0}, {"type": "electric_scooter", "rental_uris": {"ios": "https://dc.lft.to/lastmile_qr_scan", "android": "https://dc.lft.to/lastmile_qr_scan"}, "lon": -76.9977955, "fusion_lon": 0.0, "is_disabled": 0, "lat": 38.84431933333333, "bike_id": "6b210e66e9c9602cf7055c549170d6cc", "name": "6b210e66e9c9602cf7055c549170d6cc", "is_reserved": 0, "fusion_lat": 0.0}, {"type": "electric_scooter", "rental_uris": {"ios": "https://dc.lft.to/lastmile_qr_scan", "android": "https://dc.lft.to/lastmile_qr_scan"}, "lon": -76.93173266666666, "fusion_lon": 0.0, "is_disabled": 0, "lat": 38.89885566666667, "bike_id": "6a880975b12cb18ed31b6a6f03371015", "name": "6a880975b12cb18ed31b6a6f03371015", "is_reserved": 0, "fusion_lat": 0.0}, {"type": "electric_scooter", "rental_uris": {"ios": "https://dc.lft.to/lastmile_qr_scan", "android": "https://dc.lft.to/lastmile_qr_scan"}, "lon": -77.02822266666666, "fusion_lon": 0.0, "is_disabled": 0, "lat": 38.887398166666664, "bike_id": "bf907acb4af705e06bffa03249762629", "name": "bf907acb4af705e06bffa03249762629", "is_reserved": 0, "fusion_lat": 0.0}, {"type": "electric_scooter", "rental_uris": {"ios": "https://dc.lft.to/lastmile_qr_scan", "android": "https://dc.lft.to/lastmile_qr_scan"}, "lon": -77.021944, "fusion_lon": 0.0, "is_disabled": 0, "lat": 38.914246, "bike_id": "8a67ecbbd8791a6c7a46b8c24e58f1f6", "name": "8a67ecbbd8791a6c7a46b8c24e58f1f6", "is_reserved": 0, "fusion_lat": 0.0}, {"type": "electric_scooter", "rental_uris": {"ios": "https://dc.lft.to/lastmile_qr_scan", "android": "https://dc.lft.to/lastmile_qr_scan"}, "lon": -77.02420916666667, "fusion_lon": 0.0, "is_disabled": 0, "lat": 38.92294616666667, "bike_id": "46231e18931c1b209ca6b4c51bfd29d9", "name": "46231e18931c1b209ca6b4c51bfd29d9", "is_reserved": 0, "fusion_lat": 0.0}, {"type": "electric_scooter", "rental_uris": {"ios": "https://dc.lft.to/lastmile_qr_scan", "android": "https://dc.lft.to/lastmile_qr_scan"}, "lon": -77.029918, "fusion_lon": 0.0, "is_disabled": 0, "lat": 38.9204885, "bike_id": "a3d1dca81133a36aacb3a008d85cd060", "name": "a3d1dca81133a36aacb3a008d85cd060", "is_reserved": 0, "fusion_lat": 0.0}, {"type": "electric_scooter", "rental_uris": {"ios": "https://dc.lft.to/lastmile_qr_scan", "android": "https://dc.lft.to/lastmile_qr_scan"}, "lon": -77.04294866666666, "fusion_lon": 0.0, "is_disabled": 0, "lat": 38.92065683333333, "bike_id": "6588edb5874d51d20c62b5b201030ba7", "name": "6588edb5874d51d20c62b5b201030ba7", "is_reserved": 0, "fusion_lat": 0.0}, {"type": "electric_scooter", "rental_uris": {"ios": "https://dc.lft.to/lastmile_qr_scan", "android": "https://dc.lft.to/lastmile_qr_scan"}, "lon": -77.00608766666667, "fusion_lon": 0.0, "is_disabled": 0, "lat": 38.87181916666667, "bike_id": "6ea1b6a82103711c0d198073742b125b", "name": "6ea1b6a82103711c0d198073742b125b", "is_reserved": 0, "fusion_lat": 0.0}, {"type": "electric_scooter", "rental_uris": {"ios": "https://dc.lft.to/lastmile_qr_scan", "android": "https://dc.lft.to/lastmile_qr_scan"}, "lon": -77.0229565, "fusion_lon": 0.0, "is_disabled": 0, "lat": 38.92611316666667, "bike_id": "67a6614b3461229671f2cc4c3998a7a9", "name": "67a6614b3461229671f2cc4c3998a7a9", "is_reserved": 0, "fusion_lat": 0.0}, {"type": "electric_scooter", "rental_uris": {"ios": "https://dc.lft.to/lastmile_qr_scan", "android": "https://dc.lft.to/lastmile_qr_scan"}, "lon": -77.032927, "fusion_lon": 0.0, "is_disabled": 0, "lat": 38.94715683333333, "bike_id": "dcb637263134ff78d2cbed82c6eec7bd", "name": "dcb637263134ff78d2cbed82c6eec7bd", "is_reserved": 0, "fusion_lat": 0.0}, {"type": "electric_scooter", "rental_uris": {"ios": "https://dc.lft.to/lastmile_qr_scan", "android": "https://dc.lft.to/lastmile_qr_scan"}, "lon": -77.03363983333334, "fusion_lon": 0.0, "is_disabled": 0, "lat": 38.91361366666667, "bike_id": "c0abb983f4bb6fa9ad99281d8c2f30e0", "name": "c0abb983f4bb6fa9ad99281d8c2f30e0", "is_reserved": 0, "fusion_lat": 0.0}, {"type": "electric_scooter", "rental_uris": {"ios": "https://dc.lft.to/lastmile_qr_scan", "android": "https://dc.lft.to/lastmile_qr_scan"}, "lon": -77.02635683333334, "fusion_lon": 0.0, "is_disabled": 0, "lat": 38.89989633333333, "bike_id": "c09b50f47458bd34f47bbf60a4c765a3", "name": "c09b50f47458bd34f47bbf60a4c765a3", "is_reserved": 0, "fusion_lat": 0.0}, {"type": "electric_scooter", "rental_uris": {"ios": "https://dc.lft.to/lastmile_qr_scan", "android": "https://dc.lft.to/lastmile_qr_scan"}, "lon": -77.05600816666667, "fusion_lon": 0.0, "is_disabled": 0, "lat": 38.900941, "bike_id": "4b28492b47efb9fc0fde9475c6d7fa71", "name": "4b28492b47efb9fc0fde9475c6d7fa71", "is_reserved": 0, "fusion_lat": 0.0}, {"type": "electric_scooter", "rental_uris": {"ios": "https://dc.lft.to/lastmile_qr_scan", "android": "https://dc.lft.to/lastmile_qr_scan"}, "lon": -77.0099435, "fusion_lon": 0.0, "is_disabled": 0, "lat": 38.90263483333333, "bike_id": "5e5022dfcbbcc1373309a7964cdd6397", "name": "5e5022dfcbbcc1373309a7964cdd6397", "is_reserved": 0, "fusion_lat": 0.0}, {"type": "electric_scooter", "rental_uris": {"ios": "https://dc.lft.to/lastmile_qr_scan", "android": "https://dc.lft.to/lastmile_qr_scan"}, "lon": -77.0512355, "fusion_lon": 0.0, "is_disabled": 0, "lat": 38.89662933333334, "bike_id": "aef85c4b272128d77bcfb362e443a28d", "name": "aef85c4b272128d77bcfb362e443a28d", "is_reserved": 0, "fusion_lat": 0.0}, {"type": "electric_scooter", "rental_uris": {"ios": "https://dc.lft.to/lastmile_qr_scan", "android": "https://dc.lft.to/lastmile_qr_scan"}, "lon": -76.93295933333333, "fusion_lon": 0.0, "is_disabled": 0, "lat": 38.89227283333334, "bike_id": "e00db34e4cdc5a8c7ce334dd2d53658c", "name": "e00db34e4cdc5a8c7ce334dd2d53658c", "is_reserved": 0, "fusion_lat": 0.0}, {"type": "electric_scooter", "rental_uris": {"ios": "https://dc.lft.to/lastmile_qr_scan", "android": "https://dc.lft.to/lastmile_qr_scan"}, "lon": -77.04183516666667, "fusion_lon": 0.0, "is_disabled": 0, "lat": 38.89293466666667, "bike_id": "c4b02dd8acc18b9fbcecd322fbbd4170", "name": "c4b02dd8acc18b9fbcecd322fbbd4170", "is_reserved": 0, "fusion_lat": 0.0}, {"type": "electric_scooter", "rental_uris": {"ios": "https://dc.lft.to/lastmile_qr_scan", "android": "https://dc.lft.to/lastmile_qr_scan"}, "lon": -77.0340845, "fusion_lon": 0.0, "is_disabled": 0, "lat": 38.919236, "bike_id": "45631026e9f67cee07d8a77cad01d8b9", "name": "45631026e9f67cee07d8a77cad01d8b9", "is_reserved": 0, "fusion_lat": 0.0}, {"type": "electric_scooter", "rental_uris": {"ios": "https://dc.lft.to/lastmile_qr_scan", "android": "https://dc.lft.to/lastmile_qr_scan"}, "lon": -77.022132, "fusion_lon": 0.0, "is_disabled": 0, "lat": 38.887458, "bike_id": "50589190c189a4565872ba2618cb92ac", "name": "50589190c189a4565872ba2618cb92ac", "is_reserved": 0, "fusion_lat": 0.0}, {"type": "electric_scooter", "rental_uris": {"ios": "https://dc.lft.to/lastmile_qr_scan", "android": "https://dc.lft.to/lastmile_qr_scan"}, "lon": -77.0136815, "fusion_lon": 0.0, "is_disabled": 0, "lat": 38.89229266666667, "bike_id": "a9848a2872b015297733b812e06fd016", "name": "a9848a2872b015297733b812e06fd016", "is_reserved": 0, "fusion_lat": 0.0}, {"type": "electric_scooter", "rental_uris": {"ios": "https://dc.lft.to/lastmile_qr_scan", "android": "https://dc.lft.to/lastmile_qr_scan"}, "lon": -77.024897, "fusion_lon": 0.0, "is_disabled": 0, "lat": 38.941873333333334, "bike_id": "847eb041570f565aa3ea068f146936c0", "name": "847eb041570f565aa3ea068f146936c0", "is_reserved": 0, "fusion_lat": 0.0}, {"type": "electric_scooter", "rental_uris": {"ios": "https://dc.lft.to/lastmile_qr_scan", "android": "https://dc.lft.to/lastmile_qr_scan"}, "lon": -77.024392, "fusion_lon": 0.0, "is_disabled": 0, "lat": 38.91894933333333, "bike_id": "7632732602ec854efdcef3bf9d064633", "name": "7632732602ec854efdcef3bf9d064633", "is_reserved": 0, "fusion_lat": 0.0}, {"type": "electric_scooter", "rental_uris": {"ios": "https://dc.lft.to/lastmile_qr_scan", "android": "https://dc.lft.to/lastmile_qr_scan"}, "lon": -77.0104125, "fusion_lon": 0.0, "is_disabled": 0, "lat": 38.866671333333336, "bike_id": "fc1cd4b6076d255fab8e42fbc454560d", "name": "fc1cd4b6076d255fab8e42fbc454560d", "is_reserved": 0, "fusion_lat": 0.0}, {"type": "electric_scooter", "rental_uris": {"ios": "https://dc.lft.to/lastmile_qr_scan", "android": "https://dc.lft.to/lastmile_qr_scan"}, "lon": -77.02977, "fusion_lon": 0.0, "is_disabled": 0, "lat": 38.90505816666666, "bike_id": "ee52f6c71016bdb6e659073595a30197", "name": "ee52f6c71016bdb6e659073595a30197", "is_reserved": 0, "fusion_lat": 0.0}, {"type": "electric_scooter", "rental_uris": {"ios": "https://dc.lft.to/lastmile_qr_scan", "android": "https://dc.lft.to/lastmile_qr_scan"}, "lon": -77.02304883333333, "fusion_lon": 0.0, "is_disabled": 0, "lat": 38.91607783333333, "bike_id": "79fda316b545f8d90c325dde1c4ae44d", "name": "79fda316b545f8d90c325dde1c4ae44d", "is_reserved": 0, "fusion_lat": 0.0}, {"type": "electric_scooter", "rental_uris": {"ios": "https://dc.lft.to/lastmile_qr_scan", "android": "https://dc.lft.to/lastmile_qr_scan"}, "lon": -77.01975166666666, "fusion_lon": 0.0, "is_disabled": 0, "lat": 38.92935516666667, "bike_id": "4f2b01f0b5101928767849130fe649f7", "name": "4f2b01f0b5101928767849130fe649f7", "is_reserved": 0, "fusion_lat": 0.0}, {"type": "electric_scooter", "rental_uris": {"ios": "https://dc.lft.to/lastmile_qr_scan", "android": "https://dc.lft.to/lastmile_qr_scan"}, "lon": -76.98688683333333, "fusion_lon": 0.0, "is_disabled": 0, "lat": 38.867222166666664, "bike_id": "79ecf9e4b9261ea913d7f0ca78486056", "name": "79ecf9e4b9261ea913d7f0ca78486056", "is_reserved": 0, "fusion_lat": 0.0}, {"type": "electric_scooter", "rental_uris": {"ios": "https://dc.lft.to/lastmile_qr_scan", "android": "https://dc.lft.to/lastmile_qr_scan"}, "lon": -77.03364433333333, "fusion_lon": 0.0, "is_disabled": 0, "lat": 38.899036, "bike_id": "510882900301e64b842c9c8ca27ddda3", "name": "510882900301e64b842c9c8ca27ddda3", "is_reserved": 0, "fusion_lat": 0.0}, {"type": "electric_scooter", "rental_uris": {"ios": "https://dc.lft.to/lastmile_qr_scan", "android": "https://dc.lft.to/lastmile_qr_scan"}, "lon": -77.03504066666666, "fusion_lon": 0.0, "is_disabled": 0, "lat": 38.921538166666664, "bike_id": "f1e4af87285dba6dde51bd736f38a708", "name": "f1e4af87285dba6dde51bd736f38a708", "is_reserved": 0, "fusion_lat": 0.0}, {"type": "electric_scooter", "rental_uris": {"ios": "https://dc.lft.to/lastmile_qr_scan", "android": "https://dc.lft.to/lastmile_qr_scan"}, "lon": -77.00300616666667, "fusion_lon": 0.0, "is_disabled": 0, "lat": 38.90854983333333, "bike_id": "99a8bee7013b96759c59e745919bb222", "name": "99a8bee7013b96759c59e745919bb222", "is_reserved": 0, "fusion_lat": 0.0}, {"type": "electric_scooter", "rental_uris": {"ios": "https://dc.lft.to/lastmile_qr_scan", "android": "https://dc.lft.to/lastmile_qr_scan"}, "lon": -77.0403325, "fusion_lon": 0.0, "is_disabled": 0, "lat": 38.930618, "bike_id": "5341f19fcb7ad35c2fa470233e553e4c", "name": "5341f19fcb7ad35c2fa470233e553e4c", "is_reserved": 0, "fusion_lat": 0.0}, {"type": "electric_bike", "rental_uris": {"ios": "https://dc.lft.to/lastmile_qr_scan", "android": "https://dc.lft.to/lastmile_qr_scan"}, "lon": -76.93651216666666, "fusion_lon": 0.0, "is_disabled": 0, "lat": 38.871571833333334, "bike_id": "3031d46a2f6f88f7280a648897a701f6", "name": "3031d46a2f6f88f7280a648897a701f6", "is_reserved": 0, "fusion_lat": 0.0}, {"type": "electric_scooter", "rental_uris": {"ios": "https://dc.lft.to/lastmile_qr_scan", "android": "https://dc.lft.to/lastmile_qr_scan"}, "lon": -77.02777116666667, "fusion_lon": 0.0, "is_disabled": 0, "lat": 38.8922195, "bike_id": "fb2037f95334380147b2ca9357a345eb", "name": "fb2037f95334380147b2ca9357a345eb", "is_reserved": 0, "fusion_lat": 0.0}, {"type": "electric_scooter", "rental_uris": {"ios": "https://dc.lft.to/lastmile_qr_scan", "android": "https://dc.lft.to/lastmile_qr_scan"}, "lon": -77.038531, "fusion_lon": 0.0, "is_disabled": 0, "lat": 38.93250716666667, "bike_id": "2389890a1ff2bb1ec06abb536d8129da", "name": "2389890a1ff2bb1ec06abb536d8129da", "is_reserved": 0, "fusion_lat": 0.0}, {"type": "electric_scooter", "rental_uris": {"ios": "https://dc.lft.to/lastmile_qr_scan", "android": "https://dc.lft.to/lastmile_qr_scan"}, "lon": -76.96866466666667, "fusion_lon": 0.0, "is_disabled": 0, "lat": 38.870977833333335, "bike_id": "02b8f6d59a7b3e0a48c27273dad7220d", "name": "02b8f6d59a7b3e0a48c27273dad7220d", "is_reserved": 0, "fusion_lat": 0.0}, {"type": "electric_scooter", "rental_uris": {"ios": "https://dc.lft.to/lastmile_qr_scan", "android": "https://dc.lft.to/lastmile_qr_scan"}, "lon": -77.032039, "fusion_lon": 0.0, "is_disabled": 0, "lat": 38.9078995, "bike_id": "39aa5d0cf618aaca780d00ea9a242d98", "name": "39aa5d0cf618aaca780d00ea9a242d98", "is_reserved": 0, "fusion_lat": 0.0}, {"type": "electric_scooter", "rental_uris": {"ios": "https://dc.lft.to/lastmile_qr_scan", "android": "https://dc.lft.to/lastmile_qr_scan"}, "lon": -77.02972266666667, "fusion_lon": 0.0, "is_disabled": 0, "lat": 38.916856833333334, "bike_id": "7011a24e6b68a0576a89703d895a8a51", "name": "7011a24e6b68a0576a89703d895a8a51", "is_reserved": 0, "fusion_lat": 0.0}, {"type": "electric_scooter", "rental_uris": {"ios": "https://dc.lft.to/lastmile_qr_scan", "android": "https://dc.lft.to/lastmile_qr_scan"}, "lon": -77.0265795, "fusion_lon": 0.0, "is_disabled": 0, "lat": 38.89213766666667, "bike_id": "2e76ceb45937b9e0413781e932d53eb3", "name": "2e76ceb45937b9e0413781e932d53eb3", "is_reserved": 0, "fusion_lat": 0.0}, {"type": "electric_scooter", "rental_uris": {"ios": "https://dc.lft.to/lastmile_qr_scan", "android": "https://dc.lft.to/lastmile_qr_scan"}, "lon": -76.97433033333333, "fusion_lon": 0.0, "is_disabled": 0, "lat": 38.86409833333333, "bike_id": "ae87b8ff718d72d5df3651fe91115983", "name": "ae87b8ff718d72d5df3651fe91115983", "is_reserved": 0, "fusion_lat": 0.0}, {"type": "electric_scooter", "rental_uris": {"ios": "https://dc.lft.to/lastmile_qr_scan", "android": "https://dc.lft.to/lastmile_qr_scan"}, "lon": -77.020971, "fusion_lon": 0.0, "is_disabled": 0, "lat": 38.9311485, "bike_id": "8c9a2be4c6681f0ae2efa1b3e832a924", "name": "8c9a2be4c6681f0ae2efa1b3e832a924", "is_reserved": 0, "fusion_lat": 0.0}, {"type": "electric_scooter", "rental_uris": {"ios": "https://dc.lft.to/lastmile_qr_scan", "android": "https://dc.lft.to/lastmile_qr_scan"}, "lon": -76.92621416666667, "fusion_lon": 0.0, "is_disabled": 0, "lat": 38.88458166666667, "bike_id": "d471bfa39e92291e60a1e63dfadeb3c2", "name": "d471bfa39e92291e60a1e63dfadeb3c2", "is_reserved": 0, "fusion_lat": 0.0}, {"type": "electric_scooter", "rental_uris": {"ios": "https://dc.lft.to/lastmile_qr_scan", "android": "https://dc.lft.to/lastmile_qr_scan"}, "lon": -77.04657766666666, "fusion_lon": 0.0, "is_disabled": 0, "lat": 38.892430833333336, "bike_id": "bd31f8329f5c6100e9d6f1a3c08142d2", "name": "bd31f8329f5c6100e9d6f1a3c08142d2", "is_reserved": 0, "fusion_lat": 0.0}, {"type": "electric_scooter", "rental_uris": {"ios": "https://dc.lft.to/lastmile_qr_scan", "android": "https://dc.lft.to/lastmile_qr_scan"}, "lon": -77.04527433333334, "fusion_lon": 0.0, "is_disabled": 0, "lat": 38.91814683333333, "bike_id": "4095312c0c7ba09657fa238e03538aae", "name": "4095312c0c7ba09657fa238e03538aae", "is_reserved": 0, "fusion_lat": 0.0}, {"type": "electric_scooter", "rental_uris": {"ios": "https://dc.lft.to/lastmile_qr_scan", "android": "https://dc.lft.to/lastmile_qr_scan"}, "lon": -77.02342016666667, "fusion_lon": 0.0, "is_disabled": 0, "lat": 38.91663633333334, "bike_id": "0b50ef7250e912dc2d16617d39afe69c", "name": "0b50ef7250e912dc2d16617d39afe69c", "is_reserved": 0, "fusion_lat": 0.0}, {"type": "electric_scooter", "rental_uris": {"ios": "https://dc.lft.to/lastmile_qr_scan", "android": "https://dc.lft.to/lastmile_qr_scan"}, "lon": -77.04013466666666, "fusion_lon": 0.0, "is_disabled": 0, "lat": 38.9216965, "bike_id": "fb5f6505facbc7410bdfbd1049fb473b", "name": "fb5f6505facbc7410bdfbd1049fb473b", "is_reserved": 0, "fusion_lat": 0.0}, {"type": "electric_scooter", "rental_uris": {"ios": "https://dc.lft.to/lastmile_qr_scan", "android": "https://dc.lft.to/lastmile_qr_scan"}, "lon": -77.03356766666667, "fusion_lon": 0.0, "is_disabled": 0, "lat": 38.88760716666667, "bike_id": "c8b3f4d2d24de543e18694e35a5a521c", "name": "c8b3f4d2d24de543e18694e35a5a521c", "is_reserved": 0, "fusion_lat": 0.0}, {"type": "electric_scooter", "rental_uris": {"ios": "https://dc.lft.to/lastmile_qr_scan", "android": "https://dc.lft.to/lastmile_qr_scan"}, "lon": -76.99504983333334, "fusion_lon": 0.0, "is_disabled": 0, "lat": 38.894918833333335, "bike_id": "1823ef950354cbef087e1fdfc9f54b0f", "name": "1823ef950354cbef087e1fdfc9f54b0f", "is_reserved": 0, "fusion_lat": 0.0}, {"type": "electric_scooter", "rental_uris": {"ios": "https://dc.lft.to/lastmile_qr_scan", "android": "https://dc.lft.to/lastmile_qr_scan"}, "lon": -77.0450435, "fusion_lon": 0.0, "is_disabled": 0, "lat": 38.89224216666667, "bike_id": "3860f23e7bbde181529b4188ff968fb2", "name": "3860f23e7bbde181529b4188ff968fb2", "is_reserved": 0, "fusion_lat": 0.0}, {"type": "electric_scooter", "rental_uris": {"ios": "https://dc.lft.to/lastmile_qr_scan", "android": "https://dc.lft.to/lastmile_qr_scan"}, "lon": -77.037949, "fusion_lon": 0.0, "is_disabled": 0, "lat": 38.92624166666667, "bike_id": "9ac703aab3af3291e7ecfff2175c9829", "name": "9ac703aab3af3291e7ecfff2175c9829", "is_reserved": 0, "fusion_lat": 0.0}, {"type": "electric_scooter", "rental_uris": {"ios": "https://dc.lft.to/lastmile_qr_scan", "android": "https://dc.lft.to/lastmile_qr_scan"}, "lon": -76.96603116666667, "fusion_lon": 0.0, "is_disabled": 0, "lat": 38.873860666666666, "bike_id": "9cb2022cfa46a6dfcf95a32c3b49c1cd", "name": "9cb2022cfa46a6dfcf95a32c3b49c1cd", "is_reserved": 0, "fusion_lat": 0.0},