{"data": {"bikes": [{"is_disabled": 0, "is_reserved": 0, "fusion_lat": 0.0, "lat": 38.9096415, "fusion_lon": 0.0, "rental_uris": {"ios": "https://dc.lft.to/lastmile_qr_scan", "android": "https://dc.lft.to/lastmile_qr_scan"}, "lon": -77.03842933333334, "bike_id": "1096c9f7883351e4d8ce8a4f55388dcc", "type": "electric_scooter", "name": "1096c9f7883351e4d8ce8a4f55388dcc"}, {"is_disabled": 0, "is_reserved": 0, "fusion_lat": 0.0, "lat": 38.909076, "fusion_lon": 0.0, "rental_uris": {"ios": "https://dc.lft.to/lastmile_qr_scan", "android": "https://dc.lft.to/lastmile_qr_scan"}, "lon": -77.03514283333334, "bike_id": "2b71e57113bb17f86accf1bd77c67050", "type": "electric_scooter", "name": "2b71e57113bb17f86accf1bd77c67050"}, {"is_disabled": 0, "is_reserved": 0, "fusion_lat": 0.0, "lat": 38.930069333333336, "fusion_lon": 0.0, "rental_uris": {"ios": "https://dc.lft.to/lastmile_qr_scan", "android": "https://dc.lft.to/lastmile_qr_scan"}, "lon": -77.02626566666666, "bike_id": "735727e2d286ee9aead12ffca841d7cb", "type": "electric_scooter", "name": "735727e2d286ee9aead12ffca841d7cb"}, {"is_disabled": 0, "is_reserved": 0, "fusion_lat": 0.0, "lat": 38.91306516666667, "fusion_lon": 0.0, "rental_uris": {"ios": "https://dc.lft.to/lastmile_qr_scan", "android": "https://dc.lft.to/lastmile_qr_scan"}, "lon": -77.04331633333334, "bike_id": "087f6862cc77ef3a09072a8546ea57b4", "type": "electric_scooter", "name": "087f6862cc77ef3a09072a8546ea57b4"}, {"is_disabled": 0, "is_reserved": 0, "fusion_lat": 0.0, "lat": 38.8913475, "fusion_lon": 0.0, "rental_uris": {"ios": "https://dc.lft.to/lastmile_qr_scan", "android": "https://dc.lft.to/lastmile_qr_scan"}, "lon": -76.99941616666666, "bike_id": "719b2371979068d8abc5e4e518745ddf", "type": "electric_scooter", "name": "719b2371979068d8abc5e4e518745ddf"}, {"is_disabled": 0, "is_reserved": 0, "fusion_lat": 0.0, "lat": 38.864709166666664, "fusion_lon": 0.0, "rental_uris": {"ios": "https://dc.lft.to/lastmile_qr_scan", "android": "https://dc.lft.to/lastmile_qr_scan"}, "lon": -76.9776245, "bike_id": "24fe91fd529053f2d6739049a36858b8", "type": "electric_scooter", "name": "24fe91fd529053f2d6739049a36858b8"}, {"is_disabled": 0, "is_reserved": 0, "fusion_lat": 0.0, "lat": 38.831579, "fusion_lon": 0.0, "rental_uris": {"ios": "https://dc.lft.to/lastmile_qr_scan", "android": "https://dc.lft.to/lastmile_qr_scan"}, "lon": -76.9954355, "bike_id": "271085099f08aa22c0386b562ee4d3bd", "type": "electric_bike", "name": "271085099f08aa22c0386b562ee4d3bd"}, {"is_disabled": 0, "is_reserved": 0, "fusion_lat": 0.0, "lat": 38.924845833333336, "fusion_lon": 0.0, "rental_uris": {"ios": "https://dc.lft.to/lastmile_qr_scan", "android": "https://dc.lft.to/lastmile_qr_scan"}, "lon": -77.0318435, "bike_id": "9b93a14953435661bba5f64695937577", "type": "electric_scooter", "name": "9b93a14953435661bba5f64695937577"}, {"is_disabled": 0, "is_reserved": 0, "fusion_lat": 0.0, "lat": 38.905897, "fusion_lon": 0.0, "rental_uris": {"ios": "https://dc.lft.to/lastmile_qr_scan", "android": "https://dc.lft.to/lastmile_qr_scan"}, "lon": -77.04093533333334, "bike_id": "884de2574c26a1fdc6d8d2875762d799", "type": "electric_scooter", "name": "884de2574c26a1fdc6d8d2875762d799"}, {"is_disabled": 0, "is_reserved": 0, "fusion_lat": 0.0, "lat": 38.91605666666667, "fusion_lon": 0.0, "rental_uris": {"ios": "https://dc.lft.to/lastmile_qr_scan", "android": "https://dc.lft.to/lastmile_qr_scan"}, "lon": -76.98304433333334, "bike_id": "7eeb6e7c6aaf0f652885f33f67630635", "type": "electric_scooter", "name": "7eeb6e7c6aaf0f652885f33f67630635"}, {"is_disabled": 0, "is_reserved": 0, "fusion_lat": 0.0, "lat": 38.876410166666666, "fusion_lon": 0.0, "rental_uris": {"ios": "https://dc.lft.to/lastmile_qr_scan", "android": "https://dc.lft.to/lastmile_qr_scan"}, "lon": -76.99295366666666, "bike_id": "90ec59990d8942fa9a09113c9117effa", "type": "electric_scooter", "name": "90ec59990d8942fa9a09113c9117effa"}, {"is_disabled": 0, "is_reserved": 0, "fusion_lat": 0.0, "lat": 38.92381533333333, "fusion_lon": 0.0, "rental_uris": {"ios": "https://dc.lft.to/lastmile_qr_scan", "android": "https://dc.lft.to/lastmile_qr_scan"}, "lon": -77.03092166666667, "bike_id": "5012bc041142fcff42e72b1baacfbabd", "type": "electric_scooter", "name": "5012bc041142fcff42e72b1baacfbabd"}, {"is_disabled": 0, "is_reserved": 0, "fusion_lat": 0.0, "lat": 38.901861833333335, "fusion_lon": 0.0, "rental_uris": {"ios": "https://dc.lft.to/lastmile_qr_scan", "android": "https://dc.lft.to/lastmile_qr_scan"}, "lon": -76.976743, "bike_id": "31af2e4cf6b1e3529b4ef03689d8801c", "type": "electric_scooter", "name": "31af2e4cf6b1e3529b4ef03689d8801c"}, {"is_disabled": 0, "is_reserved": 0, "fusion_lat": 0.0, "lat": 38.901439, "fusion_lon": 0.0, "rental_uris": {"ios": "https://dc.lft.to/lastmile_qr_scan", "android": "https://dc.lft.to/lastmile_qr_scan"}, "lon": -77.02942016666667, "bike_id": "a823138e709bdd861015a18c5c7e350a", "type": "electric_scooter", "name": "a823138e709bdd861015a18c5c7e350a"}, {"is_disabled": 0, "is_reserved": 0, "fusion_lat": 0.0, "lat": 38.887113, "fusion_lon": 0.0, "rental_uris": {"ios": "https://dc.lft.to/lastmile_qr_scan", "android": "https://dc.lft.to/lastmile_qr_scan"}, "lon": -76.98383266666667, "bike_id": "76c97fb46b1eb1118bc94322a251d646", "type": "electric_scooter", "name": "76c97fb46b1eb1118bc94322a251d646"}, {"is_disabled": 0, "is_reserved": 0, "fusion_lat": 0.0, "lat": 38.894671, "fusion_lon": 0.0, "rental_uris": {"ios": "https://dc.lft.to/lastmile_qr_scan", "android": "https://dc.lft.to/lastmile_qr_scan"}, "lon": -77.002366, "bike_id": "8d004363b90ec9b14888758d8e323370", "type": "electric_scooter", "name": "8d004363b90ec9b14888758d8e323370"}, {"is_disabled": 0, "is_reserved": 0, "fusion_lat": 0.0, "lat": 38.932835, "fusion_lon": 0.0, "rental_uris": {"ios": "https://dc.lft.to/lastmile_qr_scan", "android": "https://dc.lft.to/lastmile_qr_scan"}, "lon": -77.04135083333334, "bike_id": "76f55c853e54c7992cdceeeca7afaee2", "type": "electric_scooter", "name": "76f55c853e54c7992cdceeeca7afaee2"}, {"is_disabled": 0, "is_reserved": 0, "fusion_lat": 0.0, "lat": 38.90331966666667, "fusion_lon": 0.0, "rental_uris": {"ios": "https://dc.lft.to/lastmile_qr_scan", "android": "https://dc.lft.to/lastmile_qr_scan"}, "lon": -77.032132, "bike_id": "c1faaa8f856c6471b41759edd016c99a", "type": "electric_scooter", "name": "c1faaa8f856c6471b41759edd016c99a"}, {"is_disabled": 0, "is_reserved": 0, "fusion_lat": 0.0, "lat": 38.923521, "fusion_lon": 0.0, "rental_uris": {"ios": "https://dc.lft.to/lastmile_qr_scan", "android": "https://dc.lft.to/lastmile_qr_scan"}, "lon": -76.97206, "bike_id": "159543ec89110f21a06a382fc7bbc188", "type": "electric_scooter", "name": "159543ec89110f21a06a382fc7bbc188"}, {"is_disabled": 0, "is_reserved": 0, "fusion_lat": 0.0, "lat": 39.084774833333334, "fusion_lon": 0.0, "rental_uris": {"ios": "https://dc.lft.to/lastmile_qr_scan", "android": "https://dc.lft.to/lastmile_qr_scan"}, "lon": -76.95068216666667, "bike_id": "2f6780cab60811a174be8dc27f3aeada", "type": "electric_bike", "name": "2f6780cab60811a174be8dc27f3aeada"}, {"is_disabled": 0, "is_reserved": 0, "fusion_lat": 0.0, "lat": 38.953451, "fusion_lon": 0.0, "rental_uris": {"ios": "https://dc.lft.to/lastmile_qr_scan", "android": "https://dc.lft.to/lastmile_qr_scan"}, "lon": -77.08157883333334, "bike_id": "7c043df05616005ae8d6369c0aaa3a9b", "type": "electric_scooter", "name": "7c043df05616005ae8d6369c0aaa3a9b"}, {"is_disabled": 0, "is_reserved": 0, "fusion_lat": 0.0, "lat": 38.89969416666667, "fusion_lon": 0.0, "rental_uris": {"ios": "https://dc.lft.to/lastmile_qr_scan", "android": "https://dc.lft.to/lastmile_qr_scan"}, "lon": -76.92623516666667, "bike_id": "aaa369f06a8234a34c7cf2042c0b2369", "type": "electric_scooter", "name": "aaa369f06a8234a34c7cf2042c0b2369"}, {"is_disabled": 0, "is_reserved": 0, "fusion_lat": 0.0, "lat": 38.93002233333333, "fusion_lon": 0.0, "rental_uris": {"ios": "https://dc.lft.to/lastmile_qr_scan", "android": "https://dc.lft.to/lastmile_qr_scan"}, "lon": -77.0379865, "bike_id": "3f3dab6a90e0d995da50ef6f035d99ca", "type": "electric_scooter", "name": "3f3dab6a90e0d995da50ef6f035d99ca"}, {"is_disabled": 0, "is_reserved": 0, "fusion_lat": 0.0, "lat": 38.906628166666664, "fusion_lon": 0.0, "rental_uris": {"ios": "https://dc.lft.to/lastmile_qr_scan", "android": "https://dc.lft.to/lastmile_qr_scan"}, "lon": -77.01621766666666, "bike_id": "13a54a558ce9f030ce0a78b7e55a7a9a", "type": "electric_scooter", "name": "13a54a558ce9f030ce0a78b7e55a7a9a"}, {"is_disabled": 0, "is_reserved": 0, "fusion_lat": 0.0, "lat": 38.898307333333335, "fusion_lon": 0.0, "rental_uris": {"ios": "https://dc.lft.to/lastmile_qr_scan", "android": "https://dc.lft.to/lastmile_qr_scan"}, "lon": -77.02202516666667, "bike_id": "7df2c43a28511e20a7ded0067d01b101", "type": "electric_scooter", "name": "7df2c43a28511e20a7ded0067d01b101"}, {"is_disabled": 0, "is_reserved": 0, "fusion_lat": 0.0, "lat": 38.88888433333334, "fusion_lon": 0.0, "rental_uris": {"ios": "https://dc.lft.to/lastmile_qr_scan", "android": "https://dc.lft.to/lastmile_qr_scan"}, "lon": -76.9903665, "bike_id": "b8699ab8acd8cf425b31e7b2378dfa1f", "type": "electric_scooter", "name": "b8699ab8acd8cf425b31e7b2378dfa1f"}, {"is_disabled": 0, "is_reserved": 0, "fusion_lat": 0.0, "lat": 38.910471666666666, "fusion_lon": 0.0, "rental_uris": {"ios": "https://dc.lft.to/lastmile_qr_scan", "android": "https://dc.lft.to/lastmile_qr_scan"}, "lon": -77.015127, "bike_id": "0a67aed3422ed1fde72747b76128baca", "type": "electric_scooter", "name": "0a67aed3422ed1fde72747b76128baca"}, {"is_disabled": 0, "is_reserved": 0, "fusion_lat": 0.0, "lat": 39.025203833333336, "fusion_lon": 0.0, "rental_uris": {"ios": "https://dc.lft.to/lastmile_qr_scan", "android": "https://dc.lft.to/lastmile_qr_scan"}, "lon": -77.01968466666666, "bike_id": "16a031aba5624c360a750b4a92a9bcde", "type": "electric_bike", "name": "16a031aba5624c360a750b4a92a9bcde"}, {"is_disabled": 0, "is_reserved": 0, "fusion_lat": 0.0, "lat": 38.92858916666667, "fusion_lon": 0.0, "rental_uris": {"ios": "https://dc.lft.to/lastmile_qr_scan", "android": "https://dc.lft.to/lastmile_qr_scan"}, "lon": -77.0373655, "bike_id": "6e0758a4c2e06adff1297884163a0ce9", "type": "electric_scooter", "name": "6e0758a4c2e06adff1297884163a0ce9"}, {"is_disabled": 0, "is_reserved": 0, "fusion_lat": 0.0, "lat": 38.91701466666667, "fusion_lon": 0.0, "rental_uris": {"ios": "https://dc.lft.to/lastmile_qr_scan", "android": "https://dc.lft.to/lastmile_qr_scan"}, "lon": -77.02856083333333, "bike_id": "458cc206d55006126ab44323370a2ad3", "type": "electric_scooter", "name": "458cc206d55006126ab44323370a2ad3"}, {"is_disabled": 0, "is_reserved": 0, "fusion_lat": 0.0, "lat": 38.89514116666667, "fusion_lon": 0.0, "rental_uris": {"ios": "https://dc.lft.to/lastmile_qr_scan", "android": "https://dc.lft.to/lastmile_qr_scan"}, "lon": -77.02282966666667, "bike_id": "c092a9fae5bd27be9647e3954e5ed21d", "type": "electric_scooter", "name": "c092a9fae5bd27be9647e3954e5ed21d"}, {"is_disabled": 0, "is_reserved": 0, "fusion_lat": 0.0, "lat": 38.9366585, "fusion_lon": 0.0, "rental_uris": {"ios": "https://dc.lft.to/lastmile_qr_scan", "android": "https://dc.lft.to/lastmile_qr_scan"}, "lon": -77.06608583333333, "bike_id": "9a97d126635220125824e9be200df01a", "type": "electric_scooter", "name": "9a97d126635220125824e9be200df01a"}, {"is_disabled": 0, "is_reserved": 0, "fusion_lat": 0.0, "lat": 38.92894366666667, "fusion_lon": 0.0, "rental_uris": {"ios": "https://dc.lft.to/lastmile_qr_scan", "android": "https://dc.lft.to/lastmile_qr_scan"}, "lon": -77.01940033333334, "bike_id": "1d015813d3a75988966aa1896e114583", "type": "electric_scooter", "name": "1d015813d3a75988966aa1896e114583"}, {"is_disabled": 0, "is_reserved": 0, "fusion_lat": 0.0, "lat": 38.95356666666667, "fusion_lon": 0.0, "rental_uris": {"ios": "https://dc.lft.to/lastmile_qr_scan", "android": "https://dc.lft.to/lastmile_qr_scan"}, "lon": -76.98093816666666, "bike_id": "746d7aa2f26c7ac4348b397ad4c4e921", "type": "electric_bike", "name": "746d7aa2f26c7ac4348b397ad4c4e921"}, {"is_disabled": 0, "is_reserved": 0, "fusion_lat": 0.0, "lat": 38.92874233333333, "fusion_lon": 0.0, "rental_uris": {"ios": "https://dc.lft.to/lastmile_qr_scan", "android": "https://dc.lft.to/lastmile_qr_scan"}, "lon": -77.029671, "bike_id": "ff99f9426cc440f0e61309dd045b8cb4", "type": "electric_scooter", "name": "ff99f9426cc440f0e61309dd045b8cb4"}, {"is_disabled": 0, "is_reserved": 0, "fusion_lat": 0.0, "lat": 38.898314666666664, "fusion_lon": 0.0, "rental_uris": {"ios": "https://dc.lft.to/lastmile_qr_scan", "android": "https://dc.lft.to/lastmile_qr_scan"}, "lon": -76.99021283333333, "bike_id": "fccf15e7962412e832aca009483dc3c9", "type": "electric_scooter", "name": "fccf15e7962412e832aca009483dc3c9"}, {"is_disabled": 0, "is_reserved": 0, "fusion_lat": 0.0, "lat": 38.906920666666664, "fusion_lon": 0.0, "rental_uris": {"ios": "https://dc.lft.to/lastmile_qr_scan", "android": "https://dc.lft.to/lastmile_qr_scan"}, "lon": -77.04214683333333, "bike_id": "45f6bcd7530df25acedc0dc0901f3e31", "type": "electric_scooter", "name": "45f6bcd7530df25acedc0dc0901f3e31"}, {"is_disabled": 0, "is_reserved": 0, "fusion_lat": 0.0, "lat": 38.922147833333334, "fusion_lon": 0.0, "rental_uris": {"ios": "https://dc.lft.to/lastmile_qr_scan", "android": "https://dc.lft.to/lastmile_qr_scan"}, "lon": -77.04307966666667, "bike_id": "4511b956a8f3716d305d1091a9812986", "type": "electric_scooter", "name": "4511b956a8f3716d305d1091a9812986"}, {"is_disabled": 0, "is_reserved": 0, "fusion_lat": 0.0, "lat": 38.90449983333333, "fusion_lon": 0.0, "rental_uris": {"ios": "https://dc.lft.to/lastmile_qr_scan", "android": "https://dc.lft.to/lastmile_qr_scan"}, "lon": -76.932834, "bike_id": "ced4513a3d3b39fe7e6a47e7060d1775", "type": "electric_scooter", "name": "ced4513a3d3b39fe7e6a47e7060d1775"}, {"is_disabled": 0, "is_reserved": 0, "fusion_lat": 0.0, "lat": 38.926778, "fusion_lon": 0.0, "rental_uris": {"ios": "https://dc.lft.to/lastmile_qr_scan", "android": "https://dc.lft.to/lastmile_qr_scan"}, "lon": -77.0075585, "bike_id": "bd64aa07442cbfe0fd6dbfcd9d6e796e", "type": "electric_scooter", "name": "bd64aa07442cbfe0fd6dbfcd9d6e796e"}, {"is_disabled": 0, "is_reserved": 0, "fusion_lat": 0.0, "lat": 38.93990216666667, "fusion_lon": 0.0, "rental_uris": {"ios": "https://dc.lft.to/lastmile_qr_scan", "android": "https://dc.lft.to/lastmile_qr_scan"}, "lon": -77.02894616666667, "bike_id": "f1de24d61974da39522b93f31f0450be", "type": "electric_scooter", "name": "f1de24d61974da39522b93f31f0450be"}, {"is_disabled": 0, "is_reserved": 0, "fusion_lat": 0.0, "lat": 38.930844, "fusion_lon": 0.0, "rental_uris": {"ios": "https://dc.lft.to/lastmile_qr_scan", "android": "https://dc.lft.to/lastmile_qr_scan"}, "lon": -77.0317025, "bike_id": "a3ad04bac24822dbacd95247d0c1d17c", "type": "electric_scooter", "name": "a3ad04bac24822dbacd95247d0c1d17c"}, {"is_disabled": 0, "is_reserved": 0, "fusion_lat": 0.0, "lat": 38.912284, "fusion_lon": 0.0, "rental_uris": {"ios": "https://dc.lft.to/lastmile_qr_scan", "android": "https://dc.lft.to/lastmile_qr_scan"}, "lon": -77.03202166666667, "bike_id": "b7adf276451519c9f6bae4c0715a0b97", "type": "electric_scooter", "name": "b7adf276451519c9f6bae4c0715a0b97"}, {"is_disabled": 0, "is_reserved": 0, "fusion_lat": 0.0, "lat": 38.91472816666667, "fusion_lon": 0.0, "rental_uris": {"ios": "https://dc.lft.to/lastmile_qr_scan", "android": "https://dc.lft.to/lastmile_qr_scan"}, "lon": -77.0212855, "bike_id": "f6b1be980a943606c5faebeec643349c", "type": "electric_scooter", "name": "f6b1be980a943606c5faebeec643349c"}, {"is_disabled": 0, "is_reserved": 0, "fusion_lat": 0.0, "lat": 38.91484833333333, "fusion_lon": 0.0, "rental_uris": {"ios": "https://dc.lft.to/lastmile_qr_scan", "android": "https://dc.lft.to/lastmile_qr_scan"}, "lon": -77.02130283333334, "bike_id": "a08691ac7d0a1a93a7df5ca3bde7358d", "type": "electric_scooter", "name": "a08691ac7d0a1a93a7df5ca3bde7358d"}, {"is_disabled": 0, "is_reserved": 0, "fusion_lat": 0.0, "lat": 38.920276666666666, "fusion_lon": 0.0, "rental_uris": {"ios": "https://dc.lft.to/lastmile_qr_scan", "android": "https://dc.lft.to/lastmile_qr_scan"}, "lon": -77.03635416666667, "bike_id": "eab76ed5eac322bef33ee687fbbd8265", "type": "electric_scooter", "name": "eab76ed5eac322bef33ee687fbbd8265"}, {"is_disabled": 0, "is_reserved": 0, "fusion_lat": 0.0, "lat": 38.90247016666667, "fusion_lon": 0.0, "rental_uris": {"ios": "https://dc.lft.to/lastmile_qr_scan", "android": "https://dc.lft.to/lastmile_qr_scan"}, "lon": -77.031667, "bike_id": "eb2e242ef55684de487dd25e069d8249", "type": "electric_scooter", "name": "eb2e242ef55684de487dd25e069d8249"}, {"is_disabled": 0, "is_reserved": 0, "fusion_lat": 0.0, "lat": 38.91554433333334, "fusion_lon": 0.0, "rental_uris": {"ios": "https://dc.lft.to/lastmile_qr_scan", "android": "https://dc.lft.to/lastmile_qr_scan"}, "lon": -77.023561, "bike_id": "0efc3650f8fb2eed06bbcb90de9b50a4", "type": "electric_scooter", "name": "0efc3650f8fb2eed06bbcb90de9b50a4"}, {"is_disabled": 0, "is_reserved": 0, "fusion_lat": 0.0, "lat": 38.904722, "fusion_lon": 0.0, "rental_uris": {"ios": "https://dc.lft.to/lastmile_qr_scan", "android": "https://dc.lft.to/lastmile_qr_scan"}, "lon": -76.95054133333333, "bike_id": "bbb64f6d31b5b9df686d871c521be979", "type": "electric_scooter", "name": "bbb64f6d31b5b9df686d871c521be979"}, {"is_disabled": 0, "is_reserved": 0, "fusion_lat": 0.0, "lat": 38.85521816666667, "fusion_lon": 0.0, "rental_uris": {"ios": "https://dc.lft.to/lastmile_qr_scan", "android": "https://dc.lft.to/lastmile_qr_scan"}, "lon": -76.99148033333333, "bike_id": "9f9c939505b382ed679762ccbe58951c", "type": "electric_scooter", "name": "9f9c939505b382ed679762ccbe58951c"}, {"is_disabled": 0, "is_reserved": 0, "fusion_lat": 0.0, "lat": 38.92432733333333, "fusion_lon": 0.0, "rental_uris": {"ios": "https://dc.lft.to/lastmile_qr_scan", "android": "https://dc.lft.to/lastmile_qr_scan"}, "lon": -77.02993166666667, "bike_id": "10d9a1d2662b87468e285266c4e23e40", "type": "electric_scooter", "name": "10d9a1d2662b87468e285266c4e23e40"}, {"is_disabled": 0, "is_reserved": 0, "fusion_lat": 0.0, "lat": 38.897098, "fusion_lon": 0.0, "rental_uris": {"ios": "https://dc.lft.to/lastmile_qr_scan", "android": "https://dc.lft.to/lastmile_qr_scan"}, "lon": -77.048752, "bike_id": "666f285627f1f00ea3ecc701238d1cfd", "type": "electric_scooter", "name": "666f285627f1f00ea3ecc701238d1cfd"}, {"is_disabled": 0, "is_reserved": 0, "fusion_lat": 0.0, "lat": 38.916293333333336, "fusion_lon": 0.0, "rental_uris": {"ios": "https://dc.lft.to/lastmile_qr_scan", "android": "https://dc.lft.to/lastmile_qr_scan"}, "lon": -77.02402466666666, "bike_id": "b79d855af73027592e02de8c06204e63", "type": "electric_scooter", "name": "b79d855af73027592e02de8c06204e63"}, {"is_disabled": 0, "is_reserved": 0, "fusion_lat": 0.0, "lat": 38.922225, "fusion_lon": 0.0, "rental_uris": {"ios": "https://dc.lft.to/lastmile_qr_scan", "android": "https://dc.lft.to/lastmile_qr_scan"}, "lon": -77.032996, "bike_id": "36a1892ca9c7460fe25f750644da4da2", "type": "electric_scooter", "name": "36a1892ca9c7460fe25f750644da4da2"}, {"is_disabled": 0, "is_reserved": 0, "fusion_lat": 0.0, "lat": 38.88037933333333, "fusion_lon": 0.0, "rental_uris": {"ios": "https://dc.lft.to/lastmile_qr_scan", "android": "https://dc.lft.to/lastmile_qr_scan"}, "lon": -76.98632233333333, "bike_id": "138fb85883a9cba4985369a9e7c650e1", "type": "electric_bike", "name": "138fb85883a9cba4985369a9e7c650e1"}, {"is_disabled": 0, "is_reserved": 0, "fusion_lat": 0.0, "lat": 38.90850366666667, "fusion_lon": 0.0, "rental_uris": {"ios": "https://dc.lft.to/lastmile_qr_scan", "android": "https://dc.lft.to/lastmile_qr_scan"}, "lon": -77.02062116666667, "bike_id": "cc67522133de14b5347f5c8bc58bd41f", "type": "electric_scooter", "name": "cc67522133de14b5347f5c8bc58bd41f"}, {"is_disabled": 0, "is_reserved": 0, "fusion_lat": 0.0, "lat": 38.9530695, "fusion_lon": 0.0, "rental_uris": {"ios": "https://dc.lft.to/lastmile_qr_scan", "android": "https://dc.lft.to/lastmile_qr_scan"}, "lon": -77.02020066666667, "bike_id": "6a93efd9f1082821bc818c08cd96a26c", "type": "electric_scooter", "name": "6a93efd9f1082821bc818c08cd96a26c"}, {"is_disabled": 0, "is_reserved": 0, "fusion_lat": 0.0, "lat": 38.921104166666666, "fusion_lon": 0.0, "rental_uris": {"ios": "https://dc.lft.to/lastmile_qr_scan", "android": "https://dc.lft.to/lastmile_qr_scan"}, "lon": -77.03637816666667, "bike_id": "d7e5aa480f7ead5f54e711bf555cd696", "type": "electric_scooter", "name": "d7e5aa480f7ead5f54e711bf555cd696"}, {"is_disabled": 0, "is_reserved": 0, "fusion_lat": 0.0, "lat": 38.93697183333333, "fusion_lon": 0.0, "rental_uris": {"ios": "https://dc.lft.to/lastmile_qr_scan", "android": "https://dc.lft.to/lastmile_qr_scan"}, "lon": -77.0560345, "bike_id": "4cc528f021a9dba1d5949ac2aa9d6899", "type": "electric_scooter", "name": "4cc528f021a9dba1d5949ac2aa9d6899"}, {"is_disabled": 0, "is_reserved": 0, "fusion_lat": 0.0, "lat": 38.88583466666667, "fusion_lon": 0.0, "rental_uris": {"ios": "https://dc.lft.to/lastmile_qr_scan", "android": "https://dc.lft.to/lastmile_qr_scan"}, "lon": -77.01226183333333, "bike_id": "d407690842f363ecbc735c1ccdb3be23", "type": "electric_scooter", "name": "d407690842f363ecbc735c1ccdb3be23"}, {"is_disabled": 0, "is_reserved": 0, "fusion_lat": 0.0, "lat": 38.953581666666665, "fusion_lon": 0.0, "rental_uris": {"ios": "https://dc.lft.to/lastmile_qr_scan", "android": "https://dc.lft.to/lastmile_qr_scan"}, "lon": -76.99854466666666, "bike_id": "9b9ab773f43cc79a2b6c86b984f57a12", "type": "electric_scooter", "name": "9b9ab773f43cc79a2b6c86b984f57a12"}, {"is_disabled": 0, "is_reserved": 0, "fusion_lat": 0.0, "lat": 38.920741, "fusion_lon": 0.0, "rental_uris": {"ios": "https://dc.lft.to/lastmile_qr_scan", "android": "https://dc.lft.to/lastmile_qr_scan"}, "lon": -77.024168, "bike_id": "0f5299096a11de8443ea846f3e1a5c7e", "type": "electric_scooter", "name": "0f5299096a11de8443ea846f3e1a5c7e"}, {"is_disabled": 0, "is_reserved": 0, "fusion_lat": 0.0, "lat": 38.90384983333333, "fusion_lon": 0.0, "rental_uris": {"ios": "https://dc.lft.to/lastmile_qr_scan", "android": "https://dc.lft.to/lastmile_qr_scan"}, "lon": -77.018484, "bike_id": "b3b301ea07e62e8ed420e2afb58ca1f2", "type": "electric_scooter", "name": "b3b301ea07e62e8ed420e2afb58ca1f2"}, {"is_disabled": 0, "is_reserved": 0, "fusion_lat": 0.0, "lat": 38.9460665, "fusion_lon": 0.0, "rental_uris": {"ios": "https://dc.lft.to/lastmile_qr_scan", "android": "https://dc.lft.to/lastmile_qr_scan"}, "lon": -77.01736666666666, "bike_id": "001ebf0ad56ab8b141eba79e14e4ce05", "type": "electric_bike", "name": "001ebf0ad56ab8b141eba79e14e4ce05"}, {"is_disabled": 0, "is_reserved": 0, "fusion_lat": 0.0, "lat": 38.920822333333334, "fusion_lon": 0.0, "rental_uris": {"ios": "https://dc.lft.to/lastmile_qr_scan", "android": "https://dc.lft.to/lastmile_qr_scan"}, "lon": -77.00452516666667, "bike_id": "7669b0b7eb061815107ecb114896fd3e", "type": "electric_scooter", "name": "7669b0b7eb061815107ecb114896fd3e"}, {"is_disabled": 0, "is_reserved": 0, "fusion_lat": 0.0, "lat": 38.92477783333333, "fusion_lon": 0.0, "rental_uris": {"ios": "https://dc.lft.to/lastmile_qr_scan", "android": "https://dc.lft.to/lastmile_qr_scan"}, "lon": -77.02554633333334, "bike_id": "5fbabf0d0c4509d0044d109e7413f0f1", "type": "electric_scooter", "name": "5fbabf0d0c4509d0044d109e7413f0f1"}, {"is_disabled": 0, "is_reserved": 0, "fusion_lat": 0.0, "lat": 38.933520333333334, "fusion_lon": 0.0, "rental_uris": {"ios": "https://dc.lft.to/lastmile_qr_scan", "android": "https://dc.lft.to/lastmile_qr_scan"}, "lon": -77.03416866666667, "bike_id": "8b93ee611f2f3208774be0a91f2dae46", "type": "electric_scooter", "name": "8b93ee611f2f3208774be0a91f2dae46"}, {"is_disabled": 0, "is_reserved": 0, "fusion_lat": 0.0, "lat": 38.894313333333336, "fusion_lon": 0.0, "rental_uris": {"ios": "https://dc.lft.to/lastmile_qr_scan", "android": "https://dc.lft.to/lastmile_qr_scan"}, "lon": -77.010886, "bike_id": "96495c4168838fc3730ec3c48387a9f7", "type": "electric_scooter", "name": "96495c4168838fc3730ec3c48387a9f7"}, {"is_disabled": 0, "is_reserved": 0, "fusion_lat": 0.0, "lat": 38.92077716666667, "fusion_lon": 0.0, "rental_uris": {"ios": "https://dc.lft.to/lastmile_qr_scan", "android": "https://dc.lft.to/lastmile_qr_scan"}, "lon": -77.023684, "bike_id": "49fe0af070069dfb4c38c5f853aa8964", "type": "electric_scooter", "name": "49fe0af070069dfb4c38c5f853aa8964"}, {"is_disabled": 0, "is_reserved": 0, "fusion_lat": 0.0, "lat": 38.900116833333335, "fusion_lon": 0.0, "rental_uris": {"ios": "https://dc.lft.to/lastmile_qr_scan", "android": "https://dc.lft.to/lastmile_qr_scan"}, "lon": -76.97986566666667, "bike_id": "0c8db4fc15c03f38d6566ef4c9bf4e91", "type": "electric_scooter", "name": "0c8db4fc15c03f38d6566ef4c9bf4e91"}, {"is_disabled": 0, "is_reserved": 0, "fusion_lat": 0.0, "lat": 38.87923383333333, "fusion_lon": 0.0, "rental_uris": {"ios": "https://dc.lft.to/lastmile_qr_scan", "android": "https://dc.lft.to/lastmile_qr_scan"}, "lon": -77.01376316666666, "bike_id": "2d4ba79214ca2c4b6c27aeab3f83caa5", "type": "electric_scooter", "name": "2d4ba79214ca2c4b6c27aeab3f83caa5"}, {"is_disabled": 0, "is_reserved": 0, "fusion_lat": 0.0, "lat": 38.922371166666665, "fusion_lon": 0.0, "rental_uris": {"ios": "https://dc.lft.to/lastmile_qr_scan", "android": "https://dc.lft.to/lastmile_qr_scan"}, "lon": -77.04015416666667, "bike_id": "40ef7f813f8c4df0d09636f523658aea", "type": "electric_scooter", "name": "40ef7f813f8c4df0d09636f523658aea"}, {"is_disabled": 0, "is_reserved": 0, "fusion_lat": 0.0, "lat": 38.900640333333335, "fusion_lon": 0.0, "rental_uris": {"ios": "https://dc.lft.to/lastmile_qr_scan", "android": "https://dc.lft.to/lastmile_qr_scan"}, "lon": -77.0066945, "bike_id": "86f09e306032c63abf62876274cd85ac", "type": "electric_scooter", "name": "86f09e306032c63abf62876274cd85ac"}, {"is_disabled": 0, "is_reserved": 0, "fusion_lat": 0.0, "lat": 38.91640116666667, "fusion_lon": 0.0, "rental_uris": {"ios": "https://dc.lft.to/lastmile_qr_scan", "android": "https://dc.lft.to/lastmile_qr_scan"}, "lon": -77.02696066666667, "bike_id": "d878f93341cc50191c6fc58be33ce117", "type": "electric_scooter", "name": "d878f93341cc50191c6fc58be33ce117"}, {"is_disabled": 0, "is_reserved": 0, "fusion_lat": 0.0, "lat": 38.91827516666667, "fusion_lon": 0.0, "rental_uris": {"ios": "https://dc.lft.to/lastmile_qr_scan", "android": "https://dc.lft.to/lastmile_qr_scan"}, "lon": -77.02707566666666, "bike_id": "93836a32007b8036fec0b0a8cd1040bc", "type": "electric_scooter", "name": "93836a32007b8036fec0b0a8cd1040bc"}, {"is_disabled": 0, "is_reserved": 0, "fusion_lat": 0.0, "lat": 38.87061466666667, "fusion_lon": 0.0, "rental_uris": {"ios": "https://dc.lft.to/lastmile_qr_scan", "android": "https://dc.lft.to/lastmile_qr_scan"}, "lon": -77.110443, "bike_id": "2632f05f36d7b4528c84a8247239a811", "type": "electric_bike", "name": "2632f05f36d7b4528c84a8247239a811"}, {"is_disabled": 0, "is_reserved": 0, "fusion_lat": 0.0, "lat": 38.904217333333335, "fusion_lon": 0.0, "rental_uris": {"ios": "https://dc.lft.to/lastmile_qr_scan", "android": "https://dc.lft.to/lastmile_qr_scan"}, "lon": -77.02394833333334, "bike_id": "3fd47234ff3a44481699f386ed522952", "type": "electric_scooter", "name": "3fd47234ff3a44481699f386ed522952"}, {"is_disabled": 0, "is_reserved": 0, "fusion_lat": 0.0, "lat": 38.94734666666667, "fusion_lon": 0.0, "rental_uris": {"ios": "https://dc.lft.to/lastmile_qr_scan", "android": "https://dc.lft.to/lastmile_qr_scan"}, "lon": -77.01942633333333, "bike_id": "692ea8023768647278d8f190ab030bac", "type": "electric_scooter", "name": "692ea8023768647278d8f190ab030bac"}, {"is_disabled": 0, "is_reserved": 0, "fusion_lat": 0.0, "lat": 38.89670016666667, "fusion_lon": 0.0, "rental_uris": {"ios": "https://dc.lft.to/lastmile_qr_scan", "android": "https://dc.lft.to/lastmile_qr_scan"}, "lon": -76.93209483333334, "bike_id": "85e5c87e503b7f0f17b2fa511674280e", "type": "electric_scooter", "name": "85e5c87e503b7f0f17b2fa511674280e"}, {"is_disabled": 0, "is_reserved": 0, "fusion_lat": 0.0, "lat": 38.898331666666664, "fusion_lon": 0.0, "rental_uris": {"ios": "https://dc.lft.to/lastmile_qr_scan", "android": "https://dc.lft.to/lastmile_qr_scan"}, "lon": -77.03335166666666, "bike_id": "231468e383079c53ba62981cc0267b3c", "type": "electric_scooter", "name": "231468e383079c53ba62981cc0267b3c"}, {"is_disabled": 0, "is_reserved": 0, "fusion_lat": 0.0, "lat": 38.882787666666665, "fusion_lon": 0.0, "rental_uris": {"ios": "https://dc.lft.to/lastmile_qr_scan", "android": "https://dc.lft.to/lastmile_qr_scan"}, "lon": -76.98613716666667, "bike_id": "c337223e1baa279c2571162c6fd1230a", "type": "electric_scooter", "name": "c337223e1baa279c2571162c6fd1230a"}, {"is_disabled": 0, "is_reserved": 0, "fusion_lat": 0.0, "lat": 38.931451333333335, "fusion_lon": 0.0, "rental_uris": {"ios": "https://dc.lft.to/lastmile_qr_scan", "android": "https://dc.lft.to/lastmile_qr_scan"}, "lon": -77.02989966666667, "bike_id": "8b5b1a3ecefc606a86b393fa8cf742f2", "type": "electric_scooter", "name": "8b5b1a3ecefc606a86b393fa8cf742f2"}, {"is_disabled": 0, "is_reserved": 0, "fusion_lat": 0.0, "lat": 38.88623333333334, "fusion_lon": 0.0, "rental_uris": {"ios": "https://dc.lft.to/lastmile_qr_scan", "android": "https://dc.lft.to/lastmile_qr_scan"}, "lon": -77.0282805, "bike_id": "30df24f103ada0d663801db7c7da3bf8", "type": "electric_scooter", "name": "30df24f103ada0d663801db7c7da3bf8"}, {"is_disabled": 0, "is_reserved": 0, "fusion_lat": 0.0, "lat": 38.86813433333333, "fusion_lon": 0.0, "rental_uris": {"ios": "https://dc.lft.to/lastmile_qr_scan", "android": "https://dc.lft.to/lastmile_qr_scan"}, "lon": -76.98026216666666, "bike_id": "c56173f2ba99fb69b0f4ae8831463e32", "type": "electric_bike", "name": "c56173f2ba99fb69b0f4ae8831463e32"}, {"is_disabled": 0, "is_reserved": 0, "fusion_lat": 0.0, "lat": 38.879328, "fusion_lon": 0.0, "rental_uris": {"ios": "https://dc.lft.to/lastmile_qr_scan", "android": "https://dc.lft.to/lastmile_qr_scan"}, "lon": -77.0086375, "bike_id": "4f98347984334b75a2aa8713b0fc4106", "type": "electric_scooter", "name": "4f98347984334b75a2aa8713b0fc4106"}, {"is_disabled": 0, "is_reserved": 0, "fusion_lat": 0.0, "lat": 38.9233655, "fusion_lon": 0.0, "rental_uris": {"ios": "https://dc.lft.to/lastmile_qr_scan", "android": "https://dc.lft.to/lastmile_qr_scan"}, "lon": -76.98482966666667, "bike_id": "d1a59ad47f72df757a13a13b851c6725", "type": "electric_scooter", "name": "d1a59ad47f72df757a13a13b851c6725"}, {"is_disabled": 0, "is_reserved": 0, "fusion_lat": 0.0, "lat": 38.9090815, "fusion_lon": 0.0, "rental_uris": {"ios": "https://dc.lft.to/lastmile_qr_scan", "android": "https://dc.lft.to/lastmile_qr_scan"}, "lon": -77.04558316666666, "bike_id": "3c0d0bcd19e8613f0ebb2bb4371e87f1", "type": "electric_scooter", "name": "3c0d0bcd19e8613f0ebb2bb4371e87f1"}, {"is_disabled": 0, "is_reserved": 0, "fusion_lat": 0.0, "lat": 38.91274283333333, "fusion_lon": 0.0, "rental_uris": {"ios": "https://dc.lft.to/lastmile_qr_scan", "android": "https://dc.lft.to/lastmile_qr_scan"}, "lon": -77.045042, "bike_id": "6328a83eaca06b6fb718e1b8cfad6254", "type": "electric_scooter", "name": "6328a83eaca06b6fb718e1b8cfad6254"}, {"is_disabled": 0, "is_reserved": 0, "fusion_lat": 0.0, "lat": 38.89509366666667, "fusion_lon": 0.0, "rental_uris": {"ios": "https://dc.lft.to/lastmile_qr_scan", "android": "https://dc.lft.to/lastmile_qr_scan"}, "lon": -77.0228245, "bike_id": "cebf2c407f59d9140dfd864a68668b9f", "type": "electric_scooter", "name": "cebf2c407f59d9140dfd864a68668b9f"}, {"is_disabled": 0, "is_reserved": 0, "fusion_lat": 0.0, "lat": 38.8987525, "fusion_lon": 0.0, "rental_uris": {"ios": "https://dc.lft.to/lastmile_qr_scan", "android": "https://dc.lft.to/lastmile_qr_scan"}, "lon": -77.01880166666666, "bike_id": "02471712a27e8eef2a807a35f9c6dc71", "type": "electric_scooter", "name": "02471712a27e8eef2a807a35f9c6dc71"}, {"is_disabled": 0, "is_reserved": 0, "fusion_lat": 0.0, "lat": 38.9278985, "fusion_lon": 0.0, "rental_uris": {"ios": "https://dc.lft.to/lastmile_qr_scan", "android": "https://dc.lft.to/lastmile_qr_scan"}, "lon": -77.03153, "bike_id": "ad132aa2b313c5f1a69a0377f86d6651", "type": "electric_scooter", "name": "ad132aa2b313c5f1a69a0377f86d6651"}, {"is_disabled": 0, "is_reserved": 0, "fusion_lat": 0.0, "lat": 38.9603035, "fusion_lon": 0.0, "rental_uris": {"ios": "https://dc.lft.to/lastmile_qr_scan", "android": "https://dc.lft.to/lastmile_qr_scan"}, "lon": -77.03393966666667, "bike_id": "ddb44f2a1e8fd998373c671b19e8d9de", "type": "electric_bike", "name": "ddb44f2a1e8fd998373c671b19e8d9de"}, {"is_disabled": 0, "is_reserved": 0, "fusion_lat": 0.0, "lat": 38.91888133333333, "fusion_lon": 0.0, "rental_uris": {"ios": "https://dc.lft.to/lastmile_qr_scan", "android": "https://dc.lft.to/lastmile_qr_scan"}, "lon": -77.03489716666667, "bike_id": "eb14e0a4e4b2fecc44519390d6f07709", "type": "electric_scooter", "name": "eb14e0a4e4b2fecc44519390d6f07709"}, {"is_disabled": 0, "is_reserved": 0, "fusion_lat": 0.0, "lat": 38.89426616666667, "fusion_lon": 0.0, "rental_uris": {"ios": "https://dc.lft.to/lastmile_qr_scan", "android": "https://dc.lft.to/lastmile_qr_scan"}, "lon": -77.05598916666666, "bike_id": "62e51555fcc94b570a4d6e66ed71d9b0", "type": "electric_scooter", "name": "62e51555fcc94b570a4d6e66ed71d9b0"}, {"is_disabled": 0, "is_reserved": 0, "fusion_lat": 0.0, "lat": 38.9033485, "fusion_lon": 0.0, "rental_uris": {"ios": "https://dc.lft.to/lastmile_qr_scan", "android": "https://dc.lft.to/lastmile_qr_scan"}, "lon": -76.98285916666667, "bike_id": "ea9486c9e35eb616117d9eaee11d70d1", "type": "electric_scooter", "name": "ea9486c9e35eb616117d9eaee11d70d1"}, {"is_disabled": 0, "is_reserved": 0, "fusion_lat": 0.0, "lat": 38.899707, "fusion_lon": 0.0, "rental_uris": {"ios": "https://dc.lft.to/lastmile_qr_scan", "android": "https://dc.lft.to/lastmile_qr_scan"}, "lon": -76.937615, "bike_id": "ad84350ecb523c057f88c23ea5ea3d07", "type": "electric_scooter", "name": "ad84350ecb523c057f88c23ea5ea3d07"}, {"is_disabled": 0, "is_reserved": 0, "fusion_lat": 0.0, "lat": 38.830407666666666, "fusion_lon": 0.0, "rental_uris": {"ios": "https://dc.lft.to/lastmile_qr_scan", "android": "https://dc.lft.to/lastmile_qr_scan"}, "lon": -77.008241, "bike_id": "1522256f30b83962f8d75ae7678291b7", "type": "electric_bike", "name": "1522256f30b83962f8d75ae7678291b7"}, {"is_disabled": 0, "is_reserved": 0, "fusion_lat": 0.0, "lat": 38.923741666666665, "fusion_lon": 0.0, "rental_uris": {"ios": "https://dc.lft.to/lastmile_qr_scan", "android": "https://dc.lft.to/lastmile_qr_scan"}, "lon": -77.01913083333334, "bike_id": "ab61309af47e566e2f45c445c8098c39", "type": "electric_scooter", "name": "ab61309af47e566e2f45c445c8098c39"}, {"is_disabled": 0, "is_reserved": 0, "fusion_lat": 0.0, "lat": 38.88299933333333, "fusion_lon": 0.0, "rental_uris": {"ios": "https://dc.lft.to/lastmile_qr_scan", "android": "https://dc.lft.to/lastmile_qr_scan"}, "lon": -76.931995, "bike_id": "e1b45c958e02ec1482f152fa33e059d6", "type": "electric_scooter", "name": "e1b45c958e02ec1482f152fa33e059d6"}, {"is_disabled": 0, "is_reserved": 0, "fusion_lat": 0.0, "lat": 38.92378316666667, "fusion_lon": 0.0, "rental_uris": {"ios": "https://dc.lft.to/lastmile_qr_scan", "android": "https://dc.lft.to/lastmile_qr_scan"}, "lon": -77.03123033333334, "bike_id": "c74520c3fcde6ffea9c02b9495c9023d", "type": "electric_scooter", "name": "c74520c3fcde6ffea9c02b9495c9023d"}, {"is_disabled": 0, "is_reserved": 0, "fusion_lat": 0.0, "lat": 38.900035833333334, "fusion_lon": 0.0, "rental_uris": {"ios": "https://dc.lft.to/lastmile_qr_scan", "android": "https://dc.lft.to/lastmile_qr_scan"}, "lon": -77.00094983333334, "bike_id": "ccdb221a60bd6bef4a6d86720cbaf964", "type": "electric_scooter", "name": "ccdb221a60bd6bef4a6d86720cbaf964"}, {"is_disabled": 0, "is_reserved": 0, "fusion_lat": 0.0, "lat": 38.845873, "fusion_lon": 0.0, "rental_uris": {"ios": "https://dc.lft.to/lastmile_qr_scan", "android": "https://dc.lft.to/lastmile_qr_scan"}, "lon": -77.07466183333334, "bike_id": "9910b3ec2340091ed459146de112bec4", "type": "electric_bike", "name": "9910b3ec2340091ed459146de112bec4"}, {"is_disabled": 0, "is_reserved": 0, "fusion_lat": 0.0, "lat": 38.876847833333336, "fusion_lon": 0.0, "rental_uris": {"ios": "https://dc.lft.to/lastmile_qr_scan", "android": "https://dc.lft.to/lastmile_qr_scan"}, "lon": -77.00065916666667, "bike_id": "8663ed7f20ac14520b16ddb524d8ef5e", "type": "electric_scooter", "name": "8663ed7f20ac14520b16ddb524d8ef5e"}, {"is_disabled": 0, "is_reserved": 0, "fusion_lat": 0.0, "lat": 38.904815, "fusion_lon": 0.0, "rental_uris": {"ios": "https://dc.lft.to/lastmile_qr_scan", "android": "https://dc.lft.to/lastmile_qr_scan"}, "lon": -77.008726, "bike_id": "a68b315c55003079e3f755b484e058d9", "type": "electric_scooter", "name": "a68b315c55003079e3f755b484e058d9"}, {"is_disabled": 0, "is_reserved": 0, "fusion_lat": 0.0, "lat": 38.9089585, "fusion_lon": 0.0, "rental_uris": {"ios": "https://dc.lft.to/lastmile_qr_scan", "android": "https://dc.lft.to/lastmile_qr_scan"}, "lon": -77.03393183333333, "bike_id": "b37ce5e61746c33f14761fa71bfb251f", "type": "electric_scooter", "name": "b37ce5e61746c33f14761fa71bfb251f"}, {"is_disabled": 0, "is_reserved": 0, "fusion_lat": 0.0, "lat": 38.92354733333333, "fusion_lon": 0.0, "rental_uris": {"ios": "https://dc.lft.to/lastmile_qr_scan", "android": "https://dc.lft.to/lastmile_qr_scan"}, "lon": -77.033766, "bike_id": "8d11f60b08a1b175e35e70c2b730c2e7", "type": "electric_scooter", "name": "8d11f60b08a1b175e35e70c2b730c2e7"}, {"is_disabled": 0, "is_reserved": 0, "fusion_lat": 0.0, "lat": 38.924145, "fusion_lon": 0.0, "rental_uris": {"ios": "https://dc.lft.to/lastmile_qr_scan", "android": "https://dc.lft.to/lastmile_qr_scan"}, "lon": -77.034136, "bike_id": "0e2eac369b8a98cec04fa3b12b4debef", "type": "electric_scooter", "name": "0e2eac369b8a98cec04fa3b12b4debef"}, {"is_disabled": 0, "is_reserved": 0, "fusion_lat": 0.0, "lat": 38.910588833333335, "fusion_lon": 0.0, "rental_uris": {"ios": "https://dc.lft.to/lastmile_qr_scan", "android": "https://dc.lft.to/lastmile_qr_scan"}, "lon": -77.0519425, "bike_id": "91df31557e22174bf56b9e821b4ba363", "type": "electric_scooter", "name": "91df31557e22174bf56b9e821b4ba363"}, {"is_disabled": 0, "is_reserved": 0, "fusion_lat": 0.0, "lat": 38.89824733333333, "fusion_lon": 0.0, "rental_uris": {"ios": "https://dc.lft.to/lastmile_qr_scan", "android": "https://dc.lft.to/lastmile_qr_scan"}, "lon": -77.00213166666667, "bike_id": "52df936a77f3585da6a3aedf2016330e", "type": "electric_scooter", "name": "52df936a77f3585da6a3aedf2016330e"}, {"is_disabled": 0, "is_reserved": 0, "fusion_lat": 0.0, "lat": 38.924403166666664, "fusion_lon": 0.0, "rental_uris": {"ios": "https://dc.lft.to/lastmile_qr_scan", "android": "https://dc.lft.to/lastmile_qr_scan"}, "lon": -77.03407683333333, "bike_id": "7940716c39567b0359f8f13319ba8d09", "type": "electric_scooter", "name": "7940716c39567b0359f8f13319ba8d09"}, {"is_disabled": 0, "is_reserved": 0, "fusion_lat": 0.0, "lat": 38.94203783333333, "fusion_lon": 0.0, "rental_uris": {"ios": "https://dc.lft.to/lastmile_qr_scan", "android": "https://dc.lft.to/lastmile_qr_scan"}, "lon": -77.02563283333333, "bike_id": "c006a998472d19c6b59e9c6ce839f574", "type": "electric_scooter", "name": "c006a998472d19c6b59e9c6ce839f574"}, {"is_disabled": 0, "is_reserved": 0, "fusion_lat": 0.0, "lat": 38.898920833333335, "fusion_lon": 0.0, "rental_uris": {"ios": "https://dc.lft.to/lastmile_qr_scan", "android": "https://dc.lft.to/lastmile_qr_scan"}, "lon": -77.01970833333333, "bike_id": "a24e483f2d5a21fe380880acc739714c", "type": "electric_scooter", "name": "a24e483f2d5a21fe380880acc739714c"}, {"is_disabled": 0, "is_reserved": 0, "fusion_lat": 0.0, "lat": 38.89516033333334, "fusion_lon": 0.0, "rental_uris": {"ios": "https://dc.lft.to/lastmile_qr_scan", "android": "https://dc.lft.to/lastmile_qr_scan"}, "lon": -77.0257405, "bike_id": "257fe45449d36bc8fe36a61257a80c9c", "type": "electric_scooter", "name": "257fe45449d36bc8fe36a61257a80c9c"}, {"is_disabled": 0, "is_reserved": 0, "fusion_lat": 0.0, "lat": 38.92989933333333, "fusion_lon": 0.0, "rental_uris": {"ios": "https://dc.lft.to/lastmile_qr_scan", "android": "https://dc.lft.to/lastmile_qr_scan"}, "lon": -77.0347465, "bike_id": "0d614cef88d4bc5171b8baa67ccf124d", "type": "electric_scooter", "name": "0d614cef88d4bc5171b8baa67ccf124d"}, {"is_disabled": 0, "is_reserved": 0, "fusion_lat": 0.0, "lat": 38.91741233333333, "fusion_lon": 0.0, "rental_uris": {"ios": "https://dc.lft.to/lastmile_qr_scan", "android": "https://dc.lft.to/lastmile_qr_scan"}, "lon": -77.02312033333334, "bike_id": "5bac5ab600e8867adb0eac4364df70be", "type": "electric_scooter", "name": "5bac5ab600e8867adb0eac4364df70be"}, {"is_disabled": 0, "is_reserved": 0, "fusion_lat": 0.0, "lat": 38.910650833333335, "fusion_lon": 0.0, "rental_uris": {"ios": "https://dc.lft.to/lastmile_qr_scan", "android": "https://dc.lft.to/lastmile_qr_scan"}, "lon": -77.04414233333334, "bike_id": "5d615d0a5cd957ee4cc1909ac584185a", "type": "electric_scooter", "name": "5d615d0a5cd957ee4cc1909ac584185a"}, {"is_disabled": 0, "is_reserved": 0, "fusion_lat": 0.0, "lat": 38.89546466666667, "fusion_lon": 0.0, "rental_uris": {"ios": "https://dc.lft.to/lastmile_qr_scan", "android": "https://dc.lft.to/lastmile_qr_scan"}, "lon": -77.0267195, "bike_id": "85fed6fe8bed9de0479d2e36a7f45fcb", "type": "electric_scooter", "name": "85fed6fe8bed9de0479d2e36a7f45fcb"}, {"is_disabled": 0, "is_reserved": 0, "fusion_lat": 0.0, "lat": 38.93416283333333, "fusion_lon": 0.0, "rental_uris": {"ios": "https://dc.lft.to/lastmile_qr_scan", "android": "https://dc.lft.to/lastmile_qr_scan"}, "lon": -77.04280416666667, "bike_id": "f89ed62a9357b238886876a4b68691b6", "type": "electric_scooter", "name": "f89ed62a9357b238886876a4b68691b6"}, {"is_disabled": 0, "is_reserved": 0, "fusion_lat": 0.0, "lat": 38.842808, "fusion_lon": 0.0, "rental_uris": {"ios": "https://dc.lft.to/lastmile_qr_scan", "android": "https://dc.lft.to/lastmile_qr_scan"}, "lon": -76.98842966666666, "bike_id": "81235e17c8f3a63af2c964a5e129c3b6", "type": "electric_bike", "name": "81235e17c8f3a63af2c964a5e129c3b6"}, {"is_disabled": 0, "is_reserved": 0, "fusion_lat": 0.0, "lat": 38.90896216666667, "fusion_lon": 0.0, "rental_uris": {"ios": "https://dc.lft.to/lastmile_qr_scan", "android": "https://dc.lft.to/lastmile_qr_scan"}, "lon": -76.9978075, "bike_id": "df92ee092ff9ccb8a7d02689e2b2cfe1", "type": "electric_scooter", "name": "df92ee092ff9ccb8a7d02689e2b2cfe1"}, {"is_disabled": 0, "is_reserved": 0, "fusion_lat": 0.0, "lat": 38.887629833333335, "fusion_lon": 0.0, "rental_uris": {"ios": "https://dc.lft.to/lastmile_qr_scan", "android": "https://dc.lft.to/lastmile_qr_scan"}, "lon": -77.1565545, "bike_id": "93e443694c37fbd953a6a93cdcef1500", "type": "electric_bike", "name": "93e443694c37fbd953a6a93cdcef1500"}, {"is_disabled": 0, "is_reserved": 0, "fusion_lat": 0.0, "lat": 38.922415, "fusion_lon": 0.0, "rental_uris": {"ios": "https://dc.lft.to/lastmile_qr_scan", "android": "https://dc.lft.to/lastmile_qr_scan"}, "lon": -77.022675, "bike_id": "641774d0a0078d8a46ddf4251ca27729", "type": "electric_scooter", "name": "641774d0a0078d8a46ddf4251ca27729"}, {"is_disabled": 0, "is_reserved": 0, "fusion_lat": 0.0, "lat": 38.936043166666664, "fusion_lon": 0.0, "rental_uris": {"ios": "https://dc.lft.to/lastmile_qr_scan", "android": "https://dc.lft.to/lastmile_qr_scan"}, "lon": -77.0387765, "bike_id": "e9e57d3f141d03d6430e0603dd6e0198", "type": "electric_scooter", "name": "e9e57d3f141d03d6430e0603dd6e0198"}, {"is_disabled": 0, "is_reserved": 0, "fusion_lat": 0.0, "lat": 38.9337215, "fusion_lon": 0.0, "rental_uris": {"ios": "https://dc.lft.to/lastmile_qr_scan", "android": "https://dc.lft.to/lastmile_qr_scan"}, "lon": -77.0240705, "bike_id": "c85f4b337c51369f7d2785b70f792836", "type": "electric_scooter", "name": "c85f4b337c51369f7d2785b70f792836"}, {"is_disabled": 0, "is_reserved": 0, "fusion_lat": 0.0, "lat": 38.9524475, "fusion_lon": 0.0, "rental_uris": {"ios": "https://dc.lft.to/lastmile_qr_scan", "android": "https://dc.lft.to/lastmile_qr_scan"}, "lon": -76.9824555, "bike_id": "51e7bc6100283ffd596b6806ff19020b", "type": "electric_bike", "name": "51e7bc6100283ffd596b6806ff19020b"}, {"is_disabled": 0, "is_reserved": 0, "fusion_lat": 0.0, "lat": 38.901572333333334, "fusion_lon": 0.0, "rental_uris": {"ios": "https://dc.lft.to/lastmile_qr_scan", "android": "https://dc.lft.to/lastmile_qr_scan"}, "lon": -77.01508333333334, "bike_id": "48d841457cead0e966894fd1b9c81732", "type": "electric_scooter", "name": "48d841457cead0e966894fd1b9c81732"}, {"is_disabled": 0, "is_reserved": 0, "fusion_lat": 0.0, "lat": 38.97245816666667, "fusion_lon": 0.0, "rental_uris": {"ios": "https://dc.lft.to/lastmile_qr_scan", "android": "https://dc.lft.to/lastmile_qr_scan"}, "lon": -77.02568633333334, "bike_id": "8a4fe5818eb2451773ab5dfee245e4e8", "type": "electric_scooter", "name": "8a4fe5818eb2451773ab5dfee245e4e8"}, {"is_disabled": 0, "is_reserved": 0, "fusion_lat": 0.0, "lat": 38.9213835, "fusion_lon": 0.0, "rental_uris": {"ios": "https://dc.lft.to/lastmile_qr_scan", "android": "https://dc.lft.to/lastmile_qr_scan"}, "lon": -77.00401633333334, "bike_id": "023b8f534a32292a5f112a2830420c83", "type": "electric_scooter", "name": "023b8f534a32292a5f112a2830420c83"}, {"is_disabled": 0, "is_reserved": 0, "fusion_lat": 0.0, "lat": 38.92822233333333, "fusion_lon": 0.0, "rental_uris": {"ios": "https://dc.lft.to/lastmile_qr_scan", "android": "https://dc.lft.to/lastmile_qr_scan"}, "lon": -77.04337616666666, "bike_id": "394e415ec85ab7b52e4381c704d41c12", "type": "electric_scooter", "name": "394e415ec85ab7b52e4381c704d41c12"}, {"is_disabled": 0, "is_reserved": 0, "fusion_lat": 0.0, "lat": 38.925064166666665, "fusion_lon": 0.0, "rental_uris": {"ios": "https://dc.lft.to/lastmile_qr_scan", "android": "https://dc.lft.to/lastmile_qr_scan"}, "lon": -77.024414, "bike_id": "c8079d6e051c86ec68298b0ac429056d", "type": "electric_scooter", "name": "c8079d6e051c86ec68298b0ac429056d"}, {"is_disabled": 0, "is_reserved": 0, "fusion_lat": 0.0, "lat": 38.883816, "fusion_lon": 0.0, "rental_uris": {"ios": "https://dc.lft.to/lastmile_qr_scan", "android": "https://dc.lft.to/lastmile_qr_scan"}, "lon": -77.04610333333333, "bike_id": "2f37ddec46a424c8dbbd880834b829ac", "type": "electric_scooter", "name": "2f37ddec46a424c8dbbd880834b829ac"}, {"is_disabled": 0, "is_reserved": 0, "fusion_lat": 0.0, "lat": 38.90630216666667, "fusion_lon": 0.0, "rental_uris": {"ios": "https://dc.lft.to/lastmile_qr_scan", "android": "https://dc.lft.to/lastmile_qr_scan"}, "lon": -77.02488483333333, "bike_id": "4a3a4ed8d27d303be80f4f496eb1758a", "type": "electric_scooter", "name": "4a3a4ed8d27d303be80f4f496eb1758a"}, {"is_disabled": 0, "is_reserved": 0, "fusion_lat": 0.0, "lat": 38.96127383333334, "fusion_lon": 0.0, "rental_uris": {"ios": "https://dc.lft.to/lastmile_qr_scan", "android": "https://dc.lft.to/lastmile_qr_scan"}, "lon": -77.03278016666667, "bike_id": "ce7e0e2e4fe36630419777263c3076fc", "type": "electric_bike", "name": "ce7e0e2e4fe36630419777263c3076fc"}, {"is_disabled": 0, "is_reserved": 0, "fusion_lat": 0.0, "lat": 38.91477616666667, "fusion_lon": 0.0, "rental_uris": {"ios": "https://dc.lft.to/lastmile_qr_scan", "android": "https://dc.lft.to/lastmile_qr_scan"}, "lon": -77.021233, "bike_id": "3b477b9d85494a3de2a3bacfebe788cb", "type": "electric_scooter", "name": "3b477b9d85494a3de2a3bacfebe788cb"}, {"is_disabled": 0, "is_reserved": 0, "fusion_lat": 0.0, "lat": 38.927915666666664, "fusion_lon": 0.0, "rental_uris": {"ios": "https://dc.lft.to/lastmile_qr_scan", "android": "https://dc.lft.to/lastmile_qr_scan"}, "lon": -77.02132, "bike_id": "67f08e58d1d878932b374e3f57cb0d68", "type": "electric_scooter", "name": "67f08e58d1d878932b374e3f57cb0d68"}, {"is_disabled": 0, "is_reserved": 0, "fusion_lat": 0.0, "lat": 38.896140333333335, "fusion_lon": 0.0, "rental_uris": {"ios": "https://dc.lft.to/lastmile_qr_scan", "android": "https://dc.lft.to/lastmile_qr_scan"}, "lon": -76.9831145, "bike_id": "f6731ffe240e81ea6e1aead3eee53225", "type": "electric_scooter", "name": "f6731ffe240e81ea6e1aead3eee53225"}, {"is_disabled": 0, "is_reserved": 0, "fusion_lat": 0.0, "lat": 38.86891933333333, "fusion_lon": 0.0, "rental_uris": {"ios": "https://dc.lft.to/lastmile_qr_scan", "android": "https://dc.lft.to/lastmile_qr_scan"}, "lon": -76.99004166666667, "bike_id": "9a844cfc9a3a18fe48ce63100748c553", "type": "electric_scooter", "name": "9a844cfc9a3a18fe48ce63100748c553"}, {"is_disabled": 0, "is_reserved": 0, "fusion_lat": 0.0, "lat": 38.922579999999996, "fusion_lon": 0.0, "rental_uris": {"ios": "https://dc.lft.to/lastmile_qr_scan", "android": "https://dc.lft.to/lastmile_qr_scan"}, "lon": -77.02827116666667, "bike_id": "0fbbbcfc2bbe372de442960d4265d690", "type": "electric_scooter", "name": "0fbbbcfc2bbe372de442960d4265d690"}, {"is_disabled": 0, "is_reserved": 0, "fusion_lat": 0.0, "lat": 38.9007355, "fusion_lon": 0.0, "rental_uris": {"ios": "https://dc.lft.to/lastmile_qr_scan", "android": "https://dc.lft.to/lastmile_qr_scan"}, "lon": -77.050546, "bike_id": "0f4facb48b41868f67f449e07c978273", "type": "electric_scooter", "name": "0f4facb48b41868f67f449e07c978273"}, {"is_disabled": 0, "is_reserved": 0, "fusion_lat": 0.0, "lat": 38.920630333333335, "fusion_lon": 0.0, "rental_uris": {"ios": "https://dc.lft.to/lastmile_qr_scan", "android": "https://dc.lft.to/lastmile_qr_scan"}, "lon": -77.025605, "bike_id": "f2b3acaf9133013ab2c7cd28d020e00d", "type": "electric_scooter", "name": "f2b3acaf9133013ab2c7cd28d020e00d"}, {"is_disabled": 0, "is_reserved": 0, "fusion_lat": 0.0, "lat": 38.91268766666666, "fusion_lon": 0.0, "rental_uris": {"ios": "https://dc.lft.to/lastmile_qr_scan", "android": "https://dc.lft.to/lastmile_qr_scan"}, "lon": -77.04715066666667, "bike_id": "0f40de768d465bc22f5b55e880728ed1", "type": "electric_scooter", "name": "0f40de768d465bc22f5b55e880728ed1"}, {"is_disabled": 0, "is_reserved": 0, "fusion_lat": 0.0, "lat": 38.938685166666666, "fusion_lon": 0.0, "rental_uris": {"ios": "https://dc.lft.to/lastmile_qr_scan", "android": "https://dc.lft.to/lastmile_qr_scan"}, "lon": -77.03046316666666, "bike_id": "1102444da762334e3e48a547906e3187", "type": "electric_scooter", "name": "1102444da762334e3e48a547906e3187"}, {"is_disabled": 0, "is_reserved": 0, "fusion_lat": 0.0, "lat": 38.91471683333333, "fusion_lon": 0.0, "rental_uris": {"ios": "https://dc.lft.to/lastmile_qr_scan", "android": "https://dc.lft.to/lastmile_qr_scan"}, "lon": -77.02122583333333, "bike_id": "21b03ab1b4e69862a8c9bd606be265ac", "type": "electric_scooter", "name": "21b03ab1b4e69862a8c9bd606be265ac"}, {"is_disabled": 0, "is_reserved": 0, "fusion_lat": 0.0, "lat": 38.947185166666664, "fusion_lon": 0.0, "rental_uris": {"ios": "https://dc.lft.to/lastmile_qr_scan", "android": "https://dc.lft.to/lastmile_qr_scan"}, "lon": -77.026197, "bike_id": "c6ca09184c3355d2d1bec9b86ee006f6", "type": "electric_scooter", "name": "c6ca09184c3355d2d1bec9b86ee006f6"}, {"is_disabled": 0, "is_reserved": 0, "fusion_lat": 0.0, "lat": 38.874433333333336, "fusion_lon": 0.0, "rental_uris": {"ios": "https://dc.lft.to/lastmile_qr_scan", "android": "https://dc.lft.to/lastmile_qr_scan"}, "lon": -77.002873, "bike_id": "93ce7012e9f0f05423dcd16eb85b9382", "type": "electric_scooter", "name": "93ce7012e9f0f05423dcd16eb85b9382"}, {"is_disabled": 0, "is_reserved": 0, "fusion_lat": 0.0, "lat": 38.84478333333333, "fusion_lon": 0.0, "rental_uris": {"ios": "https://dc.lft.to/lastmile_qr_scan", "android": "https://dc.lft.to/lastmile_qr_scan"}, "lon": -76.99591433333333, "bike_id": "bc1a8da63c2f3d1def7daf1996b6b984", "type": "electric_bike", "name": "bc1a8da63c2f3d1def7daf1996b6b984"}, {"is_disabled": 0, "is_reserved": 0, "fusion_lat": 0.0, "lat": 38.87699083333333, "fusion_lon": 0.0, "rental_uris": {"ios": "https://dc.lft.to/lastmile_qr_scan", "android": "https://dc.lft.to/lastmile_qr_scan"}, "lon": -76.99625583333334, "bike_id": "a07b9e57fc17c6571b9ff49ff732db8f", "type": "electric_scooter", "name": "a07b9e57fc17c6571b9ff49ff732db8f"}, {"is_disabled": 0, "is_reserved": 0, "fusion_lat": 0.0, "lat": 38.928613666666664, "fusion_lon": 0.0, "rental_uris": {"ios": "https://dc.lft.to/lastmile_qr_scan", "android": "https://dc.lft.to/lastmile_qr_scan"}, "lon": -77.02989116666667, "bike_id": "b1b13a21c979108ffcbf421ee94cb148", "type": "electric_scooter", "name": "b1b13a21c979108ffcbf421ee94cb148"}, {"is_disabled": 0, "is_reserved": 0, "fusion_lat": 0.0, "lat": 38.88453583333333, "fusion_lon": 0.0, "rental_uris": {"ios": "https://dc.lft.to/lastmile_qr_scan", "android": "https://dc.lft.to/lastmile_qr_scan"}, "lon": -76.985452, "bike_id": "a04987d2a98a789023c61559b3ada438", "type": "electric_scooter", "name": "a04987d2a98a789023c61559b3ada438"}, {"is_disabled": 0, "is_reserved": 0, "fusion_lat": 0.0, "lat": 38.9452305, "fusion_lon": 0.0, "rental_uris": {"ios": "https://dc.lft.to/lastmile_qr_scan", "android": "https://dc.lft.to/lastmile_qr_scan"}, "lon": -77.02368266666667, "bike_id": "7f26abb4a2e9f829cac7976661a78eb4", "type": "electric_bike", "name": "7f26abb4a2e9f829cac7976661a78eb4"}, {"is_disabled": 0, "is_reserved": 0, "fusion_lat": 0.0, "lat": 38.924012166666664, "fusion_lon": 0.0, "rental_uris": {"ios": "https://dc.lft.to/lastmile_qr_scan", "android": "https://dc.lft.to/lastmile_qr_scan"}, "lon": -77.02539066666667, "bike_id": "80f771c09706e7618af7acac6c989728", "type": "electric_scooter", "name": "80f771c09706e7618af7acac6c989728"}, {"is_disabled": 0, "is_reserved": 0, "fusion_lat": 0.0, "lat": 38.87694183333333, "fusion_lon": 0.0, "rental_uris": {"ios": "https://dc.lft.to/lastmile_qr_scan", "android": "https://dc.lft.to/lastmile_qr_scan"}, "lon": -77.01766733333334, "bike_id": "1477b801da2a43039cb9ae6cb4e8c812", "type": "electric_scooter", "name": "1477b801da2a43039cb9ae6cb4e8c812"}, {"is_disabled": 0, "is_reserved": 0, "fusion_lat": 0.0, "lat": 38.90544366666666, "fusion_lon": 0.0, "rental_uris": {"ios": "https://dc.lft.to/lastmile_qr_scan", "android": "https://dc.lft.to/lastmile_qr_scan"}, "lon": -77.04854783333333, "bike_id": "c2c86653638cbbe192cab4baaa4b2bd7", "type": "electric_scooter", "name": "c2c86653638cbbe192cab4baaa4b2bd7"}, {"is_disabled": 0, "is_reserved": 0, "fusion_lat": 0.0, "lat": 38.941995166666665, "fusion_lon": 0.0, "rental_uris": {"ios": "https://dc.lft.to/lastmile_qr_scan", "android": "https://dc.lft.to/lastmile_qr_scan"}, "lon": -77.08827883333333, "bike_id": "ab0499bd99c7556801c2add4905bc781", "type": "electric_scooter", "name": "ab0499bd99c7556801c2add4905bc781"}, {"is_disabled": 0, "is_reserved": 0, "fusion_lat": 0.0, "lat": 38.89713233333333, "fusion_lon": 0.0, "rental_uris": {"ios": "https://dc.lft.to/lastmile_qr_scan", "android": "https://dc.lft.to/lastmile_qr_scan"}, "lon": -77.04792666666667, "bike_id": "9831aeb428fe0ce7a661497a5aa63c68", "type": "electric_scooter", "name": "9831aeb428fe0ce7a661497a5aa63c68"}, {"is_disabled": 0, "is_reserved": 0, "fusion_lat": 0.0, "lat": 38.895548, "fusion_lon": 0.0, "rental_uris": {"ios": "https://dc.lft.to/lastmile_qr_scan", "android": "https://dc.lft.to/lastmile_qr_scan"}, "lon": -77.01625716666666, "bike_id": "cbde7f4ce90120e510eb986251c1625e", "type": "electric_scooter", "name": "cbde7f4ce90120e510eb986251c1625e"}, {"is_disabled": 0, "is_reserved": 0, "fusion_lat": 0.0, "lat": 38.91485616666667, "fusion_lon": 0.0, "rental_uris": {"ios": "https://dc.lft.to/lastmile_qr_scan", "android": "https://dc.lft.to/lastmile_qr_scan"}, "lon": -77.02125766666667, "bike_id": "6d5a61c683b7a77297c65dd99ce8e29e", "type": "electric_scooter", "name": "6d5a61c683b7a77297c65dd99ce8e29e"}, {"is_disabled": 0, "is_reserved": 0, "fusion_lat": 0.0, "lat": 38.92567, "fusion_lon": 0.0, "rental_uris": {"ios": "https://dc.lft.to/lastmile_qr_scan", "android": "https://dc.lft.to/lastmile_qr_scan"}, "lon": -77.02283916666667, "bike_id": "9eaf32c6b7b2d49c002fe7337a6ae6f6", "type": "electric_scooter", "name": "9eaf32c6b7b2d49c002fe7337a6ae6f6"}, {"is_disabled": 0, "is_reserved": 0, "fusion_lat": 0.0, "lat": 38.914780666666665, "fusion_lon": 0.0, "rental_uris": {"ios": "https://dc.lft.to/lastmile_qr_scan", "android": "https://dc.lft.to/lastmile_qr_scan"}, "lon": -77.02114933333333, "bike_id": "52c441afc94b7b1ecf6dab15811a6ece", "type": "electric_scooter", "name": "52c441afc94b7b1ecf6dab15811a6ece"}, {"is_disabled": 0, "is_reserved": 0, "fusion_lat": 0.0, "lat": 38.931208, "fusion_lon": 0.0, "rental_uris": {"ios": "https://dc.lft.to/lastmile_qr_scan", "android": "https://dc.lft.to/lastmile_qr_scan"}, "lon": -77.030273, "bike_id": "34bd4946edb710c85f20c983d8bcb607", "type": "electric_scooter", "name": "34bd4946edb710c85f20c983d8bcb607"}, {"is_disabled": 0, "is_reserved": 0, "fusion_lat": 0.0, "lat": 38.92040183333334, "fusion_lon": 0.0, "rental_uris": {"ios": "https://dc.lft.to/lastmile_qr_scan", "android": "https://dc.lft.to/lastmile_qr_scan"}, "lon": -76.97954066666667, "bike_id": "8354ca3c1b2a0b0b6cecd7e21606e096", "type": "electric_bike", "name": "8354ca3c1b2a0b0b6cecd7e21606e096"}, {"is_disabled": 0, "is_reserved": 0, "fusion_lat": 0.0, "lat": 38.92176466666667, "fusion_lon": 0.0, "rental_uris": {"ios": "https://dc.lft.to/lastmile_qr_scan", "android": "https://dc.lft.to/lastmile_qr_scan"}, "lon": -76.99807016666666, "bike_id": "41ba5ea4d679802ce3aa4c5c2ef93fb8", "type": "electric_scooter", "name": "41ba5ea4d679802ce3aa4c5c2ef93fb8"}, {"is_disabled": 0, "is_reserved": 0, "fusion_lat": 0.0, "lat": 38.9167945, "fusion_lon": 0.0, "rental_uris": {"ios": "https://dc.lft.to/lastmile_qr_scan", "android": "https://dc.lft.to/lastmile_qr_scan"}, "lon": -77.095769, "bike_id": "45a055f75731ea64903c855e9ee12ae2", "type": "electric_scooter", "name": "45a055f75731ea64903c855e9ee12ae2"}, {"is_disabled": 0, "is_reserved": 0, "fusion_lat": 0.0, "lat": 39.00383133333333, "fusion_lon": 0.0, "rental_uris": {"ios": "https://dc.lft.to/lastmile_qr_scan", "android": "https://dc.lft.to/lastmile_qr_scan"}, "lon": -77.01285616666667, "bike_id": "06c67cf021b012c7b5d29707017e4f14", "type": "electric_bike", "name": "06c67cf021b012c7b5d29707017e4f14"}, {"is_disabled": 0, "is_reserved": 0, "fusion_lat": 0.0, "lat": 38.9248795, "fusion_lon": 0.0, "rental_uris": {"ios": "https://dc.lft.to/lastmile_qr_scan", "android": "https://dc.lft.to/lastmile_qr_scan"}, "lon": -77.031028, "bike_id": "ec11122af6d700b03f10b1aa656f87da", "type": "electric_scooter", "name": "ec11122af6d700b03f10b1aa656f87da"}, {"is_disabled": 0, "is_reserved": 0, "fusion_lat": 0.0, "lat": 38.93972566666667, "fusion_lon": 0.0, "rental_uris": {"ios": "https://dc.lft.to/lastmile_qr_scan", "android": "https://dc.lft.to/lastmile_qr_scan"}, "lon": -77.0342955, "bike_id": "a11f2cc920f0a6ec1c3d89493f6be7f7", "type": "electric_scooter", "name": "a11f2cc920f0a6ec1c3d89493f6be7f7"}, {"is_disabled": 0, "is_reserved": 0, "fusion_lat": 0.0, "lat": 38.89230283333333, "fusion_lon": 0.0, "rental_uris": {"ios": "https://dc.lft.to/lastmile_qr_scan", "android": "https://dc.lft.to/lastmile_qr_scan"}, "lon": -77.05004116666667, "bike_id": "45089198a0e315def86809f8978f93d6", "type": "electric_scooter", "name": "45089198a0e315def86809f8978f93d6"}, {"is_disabled": 0, "is_reserved": 0, "fusion_lat": 0.0, "lat": 38.91337433333333, "fusion_lon": 0.0, "rental_uris": {"ios": "https://dc.lft.to/lastmile_qr_scan", "android": "https://dc.lft.to/lastmile_qr_scan"}, "lon": -77.04335583333334, "bike_id": "d66fdbf2ff07c6674f39d8a1ddb3bfa8", "type": "electric_scooter", "name": "d66fdbf2ff07c6674f39d8a1ddb3bfa8"}, {"is_disabled": 0, "is_reserved": 0, "fusion_lat": 0.0, "lat": 38.9187965, "fusion_lon": 0.0, "rental_uris": {"ios": "https://dc.lft.to/lastmile_qr_scan", "android": "https://dc.lft.to/lastmile_qr_scan"}, "lon": -77.0447205, "bike_id": "277a55c814afbc45c96fed92c0d673e0", "type": "electric_scooter", "name": "277a55c814afbc45c96fed92c0d673e0"}, {"is_disabled": 0, "is_reserved": 0, "fusion_lat": 0.0, "lat": 38.82208466666667, "fusion_lon": 0.0, "rental_uris": {"ios": "https://dc.lft.to/lastmile_qr_scan", "android": "https://dc.lft.to/lastmile_qr_scan"}, "lon": -76.977039, "bike_id": "21d880073f107e74bae30574e03efdbc", "type": "electric_bike", "name": "21d880073f107e74bae30574e03efdbc"}, {"is_disabled": 0, "is_reserved": 0, "fusion_lat": 0.0, "lat": 38.9035465, "fusion_lon": 0.0, "rental_uris": {"ios": "https://dc.lft.to/lastmile_qr_scan", "android": "https://dc.lft.to/lastmile_qr_scan"}, "lon": -77.01619333333333, "bike_id": "86ea5bbeb03bb1d48cd80ed19ac4509c", "type": "electric_scooter", "name": "86ea5bbeb03bb1d48cd80ed19ac4509c"}, {"is_disabled": 0, "is_reserved": 0, "fusion_lat": 0.0, "lat": 38.92241166666667, "fusion_lon": 0.0, "rental_uris": {"ios": "https://dc.lft.to/lastmile_qr_scan", "android": "https://dc.lft.to/lastmile_qr_scan"}, "lon": -77.04631833333333, "bike_id": "060e4c6c0ce0952b7cf82b69f2f0b108", "type": "electric_scooter", "name": "060e4c6c0ce0952b7cf82b69f2f0b108"}, {"is_disabled": 0, "is_reserved": 0, "fusion_lat": 0.0, "lat": 38.906196666666666, "fusion_lon": 0.0, "rental_uris": {"ios": "https://dc.lft.to/lastmile_qr_scan", "android": "https://dc.lft.to/lastmile_qr_scan"}, "lon": -77.04134216666667, "bike_id": "88f97d3d17dbe378eda85f5b9dc586fe", "type": "electric_scooter", "name": "88f97d3d17dbe378eda85f5b9dc586fe"}, {"is_disabled": 0, "is_reserved": 0, "fusion_lat": 0.0, "lat": 38.9169245, "fusion_lon": 0.0, "rental_uris": {"ios": "https://dc.lft.to/lastmile_qr_scan", "android": "https://dc.lft.to/lastmile_qr_scan"}, "lon": -77.02423566666667, "bike_id": "1e97bd545825ff9ff96327627ab6f98e", "type": "electric_scooter", "name": "1e97bd545825ff9ff96327627ab6f98e"}, {"is_disabled": 0, "is_reserved": 0, "fusion_lat": 0.0, "lat": 38.92826383333333, "fusion_lon": 0.0, "rental_uris": {"ios": "https://dc.lft.to/lastmile_qr_scan", "android": "https://dc.lft.to/lastmile_qr_scan"}, "lon": -76.97607066666667, "bike_id": "9d8b4228cfb7fdca32d9c8d65dc72228", "type": "electric_scooter", "name": "9d8b4228cfb7fdca32d9c8d65dc72228"}, {"is_disabled": 0, "is_reserved": 0, "fusion_lat": 0.0, "lat": 38.901022833333336, "fusion_lon": 0.0, "rental_uris": {"ios": "https://dc.lft.to/lastmile_qr_scan", "android": "https://dc.lft.to/lastmile_qr_scan"}, "lon": -77.02982, "bike_id": "35c386297d34b6169003aaee833d54c1", "type": "electric_scooter", "name": "35c386297d34b6169003aaee833d54c1"}, {"is_disabled": 0, "is_reserved": 0, "fusion_lat": 0.0, "lat": 38.909577666666664, "fusion_lon": 0.0, "rental_uris": {"ios": "https://dc.lft.to/lastmile_qr_scan", "android": "https://dc.lft.to/lastmile_qr_scan"}, "lon": -77.04826933333334, "bike_id": "b617661fe2ed162103c0cec4356d2c3b", "type": "electric_scooter", "name": "b617661fe2ed162103c0cec4356d2c3b"}, {"is_disabled": 0, "is_reserved": 0, "fusion_lat": 0.0, "lat": 38.90595183333333, "fusion_lon": 0.0, "rental_uris": {"ios": "https://dc.lft.to/lastmile_qr_scan", "android": "https://dc.lft.to/lastmile_qr_scan"}, "lon": -77.01613016666667, "bike_id": "7efc31958bb825289dece562e7c3352b", "type": "electric_scooter", "name": "7efc31958bb825289dece562e7c3352b"}, {"is_disabled": 0, "is_reserved": 0, "fusion_lat": 0.0, "lat": 38.898428333333335, "fusion_lon": 0.0, "rental_uris": {"ios": "https://dc.lft.to/lastmile_qr_scan", "android": "https://dc.lft.to/lastmile_qr_scan"}, "lon": -77.0227865, "bike_id": "48bb4c09658829091b55f1d79e0e7569", "type": "electric_scooter", "name": "48bb4c09658829091b55f1d79e0e7569"}, {"is_disabled": 0, "is_reserved": 0, "fusion_lat": 0.0, "lat": 38.9213585, "fusion_lon": 0.0, "rental_uris": {"ios": "https://dc.lft.to/lastmile_qr_scan", "android": "https://dc.lft.to/lastmile_qr_scan"}, "lon": -77.04560066666667, "bike_id": "8a628c1de0041348a0b940d857726a96", "type": "electric_scooter", "name": "8a628c1de0041348a0b940d857726a96"}, {"is_disabled": 0, "is_reserved": 0, "fusion_lat": 0.0, "lat": 38.917576333333336, "fusion_lon": 0.0, "rental_uris": {"ios": "https://dc.lft.to/lastmile_qr_scan", "android": "https://dc.lft.to/lastmile_qr_scan"}, "lon": -77.0476215, "bike_id": "016adeb989cd493f9da816dcfba57d00", "type": "electric_scooter", "name": "016adeb989cd493f9da816dcfba57d00"}, {"is_disabled": 0, "is_reserved": 0, "fusion_lat": 0.0, "lat": 38.90453083333333, "fusion_lon": 0.0, "rental_uris": {"ios": "https://dc.lft.to/lastmile_qr_scan", "android": "https://dc.lft.to/lastmile_qr_scan"}, "lon": -77.03105916666667, "bike_id": "bfa23889f81e4aee0be00887503bfae6", "type": "electric_scooter", "name": "bfa23889f81e4aee0be00887503bfae6"}, {"is_disabled": 0, "is_reserved": 0, "fusion_lat": 0.0, "lat": 38.968022, "fusion_lon": 0.0, "rental_uris": {"ios": "https://dc.lft.to/lastmile_qr_scan", "android": "https://dc.lft.to/lastmile_qr_scan"}, "lon": -77.0255765, "bike_id": "c061b6c8cabad1a18a4fdd0c10d8a2e9", "type": "electric_scooter", "name": "c061b6c8cabad1a18a4fdd0c10d8a2e9"}, {"is_disabled": 0, "is_reserved": 0, "fusion_lat": 0.0, "lat": 38.884351833333334, "fusion_lon": 0.0, "rental_uris": {"ios": "https://dc.lft.to/lastmile_qr_scan", "android": "https://dc.lft.to/lastmile_qr_scan"}, "lon": -77.02511966666667, "bike_id": "3349f5db68b834f223266b6e7bebbcd2", "type": "electric_scooter", "name": "3349f5db68b834f223266b6e7bebbcd2"}, {"is_disabled": 0, "is_reserved": 0, "fusion_lat": 0.0, "lat": 38.92218916666667, "fusion_lon": 0.0, "rental_uris": {"ios": "https://dc.lft.to/lastmile_qr_scan", "android": "https://dc.lft.to/lastmile_qr_scan"}, "lon": -77.07440966666667, "bike_id": "ead2e964031a42927dd22a63f54f1433", "type": "electric_scooter", "name": "ead2e964031a42927dd22a63f54f1433"}, {"is_disabled": 0, "is_reserved": 0, "fusion_lat": 0.0, "lat": 38.95635583333333, "fusion_lon": 0.0, "rental_uris": {"ios": "https://dc.lft.to/lastmile_qr_scan", "android": "https://dc.lft.to/lastmile_qr_scan"}, "lon": -77.0363005, "bike_id": "ba3a279896cc6f71615b2895d73dfa58", "type": "electric_scooter", "name": "ba3a279896cc6f71615b2895d73dfa58"}, {"is_disabled": 0, "is_reserved": 0, "fusion_lat": 0.0, "lat": 38.926593, "fusion_lon": 0.0, "rental_uris": {"ios": "https://dc.lft.to/lastmile_qr_scan", "android": "https://dc.lft.to/lastmile_qr_scan"}, "lon": -76.992993, "bike_id": "b505f192c4b2d9177e98876af0cd387c", "type": "electric_scooter", "name": "b505f192c4b2d9177e98876af0cd387c"}, {"is_disabled": 0, "is_reserved": 0, "fusion_lat": 0.0, "lat": 38.893334333333335, "fusion_lon": 0.0, "rental_uris": {"ios": "https://dc.lft.to/lastmile_qr_scan", "android": "https://dc.lft.to/lastmile_qr_scan"}, "lon": -76.92888216666667, "bike_id": "1a8b44c44b51c0e765243a8c143adee6", "type": "electric_scooter", "name": "1a8b44c44b51c0e765243a8c143adee6"}, {"is_disabled": 0, "is_reserved": 0, "fusion_lat": 0.0, "lat": 38.93364666666667, "fusion_lon": 0.0, "rental_uris": {"ios": "https://dc.lft.to/lastmile_qr_scan", "android": "https://dc.lft.to/lastmile_qr_scan"}, "lon": -77.038919, "bike_id": "e8eace2b87912a07cdef85f77c26c2f5", "type": "electric_scooter", "name": "e8eace2b87912a07cdef85f77c26c2f5"}, {"is_disabled": 0, "is_reserved": 0, "fusion_lat": 0.0, "lat": 38.916888166666666, "fusion_lon": 0.0, "rental_uris": {"ios": "https://dc.lft.to/lastmile_qr_scan", "android": "https://dc.lft.to/lastmile_qr_scan"}, "lon": -77.02974733333333, "bike_id": "1afc10f3c33d0bdef6d5d4212690250f", "type": "electric_scooter", "name": "1afc10f3c33d0bdef6d5d4212690250f"}, {"is_disabled": 0, "is_reserved": 0, "fusion_lat": 0.0, "lat": 38.929998833333336, "fusion_lon": 0.0, "rental_uris": {"ios": "https://dc.lft.to/lastmile_qr_scan", "android": "https://dc.lft.to/lastmile_qr_scan"}, "lon": -77.03800283333334, "bike_id": "549d47c900d37e3cafcd4ef22487e17d", "type": "electric_scooter", "name": "549d47c900d37e3cafcd4ef22487e17d"}, {"is_disabled": 0, "is_reserved": 0, "fusion_lat": 0.0, "lat": 38.929864, "fusion_lon": 0.0, "rental_uris": {"ios": "https://dc.lft.to/lastmile_qr_scan", "android": "https://dc.lft.to/lastmile_qr_scan"}, "lon": -77.0347295, "bike_id": "3521fd16a4ac2a540bb9ed8863b9841a", "type": "electric_scooter", "name": "3521fd16a4ac2a540bb9ed8863b9841a"}, {"is_disabled": 0, "is_reserved": 0, "fusion_lat": 0.0, "lat": 38.92930783333333, "fusion_lon": 0.0, "rental_uris": {"ios": "https://dc.lft.to/lastmile_qr_scan", "android": "https://dc.lft.to/lastmile_qr_scan"}, "lon": -77.03281783333334, "bike_id": "366365ba0039f2f49723f8ff017a0483", "type": "electric_scooter", "name": "366365ba0039f2f49723f8ff017a0483"}, {"is_disabled": 0, "is_reserved": 0, "fusion_lat": 0.0, "lat": 38.92220916666667, "fusion_lon": 0.0, "rental_uris": {"ios": "https://dc.lft.to/lastmile_qr_scan", "android": "https://dc.lft.to/lastmile_qr_scan"}, "lon": -77.04336416666666, "bike_id": "89c0b31b61bb7f666efa18270e087424", "type": "electric_scooter", "name": "89c0b31b61bb7f666efa18270e087424"}, {"is_disabled": 0, "is_reserved": 0, "fusion_lat": 0.0, "lat": 38.8925345, "fusion_lon": 0.0, "rental_uris": {"ios": "https://dc.lft.to/lastmile_qr_scan", "android": "https://dc.lft.to/lastmile_qr_scan"}, "lon": -77.0465165, "bike_id": "384e398fb4a64c321cd45203800ff5c4", "type": "electric_scooter", "name": "384e398fb4a64c321cd45203800ff5c4"}, {"is_disabled": 0, "is_reserved": 0, "fusion_lat": 0.0, "lat": 38.8783515, "fusion_lon": 0.0, "rental_uris": {"ios": "https://dc.lft.to/lastmile_qr_scan", "android": "https://dc.lft.to/lastmile_qr_scan"}, "lon": -76.98610833333333, "bike_id": "71a507f2501f5af4f1f2c7e79ea6880f", "type": "electric_scooter", "name": "71a507f2501f5af4f1f2c7e79ea6880f"}, {"is_disabled": 0, "is_reserved": 0, "fusion_lat": 0.0, "lat": 38.846000333333336, "fusion_lon": 0.0, "rental_uris": {"ios": "https://dc.lft.to/lastmile_qr_scan", "android": "https://dc.lft.to/lastmile_qr_scan"}, "lon": -76.97416966666667, "bike_id": "55ec7a9d121b7f9154e8ef27c0cf722e", "type": "electric_scooter", "name": "55ec7a9d121b7f9154e8ef27c0cf722e"}, {"is_disabled": 0, "is_reserved": 0, "fusion_lat": 0.0, "lat": 38.9379075, "fusion_lon": 0.0, "rental_uris": {"ios": "https://dc.lft.to/lastmile_qr_scan", "android": "https://dc.lft.to/lastmile_qr_scan"}, "lon": -77.0231425, "bike_id": "c30112061a02c5110d5f75fc5f435d51", "type": "electric_scooter", "name": "c30112061a02c5110d5f75fc5f435d51"}, {"is_disabled": 0, "is_reserved": 0, "fusion_lat": 0.0, "lat": 38.895221666666664, "fusion_lon": 0.0, "rental_uris": {"ios": "https://dc.lft.to/lastmile_qr_scan", "android": "https://dc.lft.to/lastmile_qr_scan"}, "lon": -77.02271766666667, "bike_id": "507f06bf3e60aebc2613fcb9d5d3e251", "type": "electric_scooter", "name": "507f06bf3e60aebc2613fcb9d5d3e251"}, {"is_disabled": 0, "is_reserved": 0, "fusion_lat": 0.0, "lat": 38.897474333333335, "fusion_lon": 0.0, "rental_uris": {"ios": "https://dc.lft.to/lastmile_qr_scan", "android": "https://dc.lft.to/lastmile_qr_scan"}, "lon": -77.003569, "bike_id": "e6ebe5ec54bc68b597b78c4cc430790c", "type": "electric_scooter", "name": "e6ebe5ec54bc68b597b78c4cc430790c"}, {"is_disabled": 0, "is_reserved": 0, "fusion_lat": 0.0, "lat": 38.914558666666665, "fusion_lon": 0.0, "rental_uris": {"ios": "https://dc.lft.to/lastmile_qr_scan", "android": "https://dc.lft.to/lastmile_qr_scan"}, "lon": -77.00889466666666, "bike_id": "73f1d1c4040ece73377675166a744719", "type": "electric_scooter", "name": "73f1d1c4040ece73377675166a744719"}, {"is_disabled": 0, "is_reserved": 0, "fusion_lat": 0.0, "lat": 38.950757333333335, "fusion_lon": 0.0, "rental_uris": {"ios": "https://dc.lft.to/lastmile_qr_scan", "android": "https://dc.lft.to/lastmile_qr_scan"}, "lon": -76.996036, "bike_id": "3bf17b91bd8e8fa00c496b79b2e9b888", "type": "electric_bike", "name": "3bf17b91bd8e8fa00c496b79b2e9b888"}, {"is_disabled": 0, "is_reserved": 0, "fusion_lat": 0.0, "lat": 38.953293333333335, "fusion_lon": 0.0, "rental_uris": {"ios": "https://dc.lft.to/lastmile_qr_scan", "android": "https://dc.lft.to/lastmile_qr_scan"}, "lon": -76.98249666666666, "bike_id": "24201f1dcb8ca191f5e94d6cbb631c75", "type": "electric_bike", "name": "24201f1dcb8ca191f5e94d6cbb631c75"}, {"is_disabled": 0, "is_reserved": 0, "fusion_lat": 0.0, "lat": 38.88158466666667, "fusion_lon": 0.0, "rental_uris": {"ios": "https://dc.lft.to/lastmile_qr_scan", "android": "https://dc.lft.to/lastmile_qr_scan"}, "lon": -77.01313766666667, "bike_id": "0228dedbab196903f9097ad8871d6751", "type": "electric_scooter", "name": "0228dedbab196903f9097ad8871d6751"}, {"is_disabled": 0, "is_reserved": 0, "fusion_lat": 0.0, "lat": 38.91716183333333, "fusion_lon": 0.0, "rental_uris": {"ios": "https://dc.lft.to/lastmile_qr_scan", "android": "https://dc.lft.to/lastmile_qr_scan"}, "lon": -77.032117, "bike_id": "fac7661d0615ce5535ade194b2277b22", "type": "electric_scooter", "name": "fac7661d0615ce5535ade194b2277b22"}, {"is_disabled": 0, "is_reserved": 0, "fusion_lat": 0.0, "lat": 38.90566916666667, "fusion_lon": 0.0, "rental_uris": {"ios": "https://dc.lft.to/lastmile_qr_scan", "android": "https://dc.lft.to/lastmile_qr_scan"}, "lon": -77.02743133333334, "bike_id": "dccffd15d80dbc2f50473e73c506608f", "type": "electric_scooter", "name": "dccffd15d80dbc2f50473e73c506608f"}, {"is_disabled": 0, "is_reserved": 0, "fusion_lat": 0.0, "lat": 38.909512166666666, "fusion_lon": 0.0, "rental_uris": {"ios": "https://dc.lft.to/lastmile_qr_scan", "android": "https://dc.lft.to/lastmile_qr_scan"}, "lon": -77.02222733333333, "bike_id": "4c492ed2acc077116edeae5c71a53086", "type": "electric_scooter", "name": "4c492ed2acc077116edeae5c71a53086"}, {"is_disabled": 0, "is_reserved": 0, "fusion_lat": 0.0, "lat": 38.8964035, "fusion_lon": 0.0, "rental_uris": {"ios": "https://dc.lft.to/lastmile_qr_scan", "android": "https://dc.lft.to/lastmile_qr_scan"}, "lon": -76.93929416666667, "bike_id": "7921338b81ed0941140aaf202c5e3830", "type": "electric_scooter", "name": "7921338b81ed0941140aaf202c5e3830"}, {"is_disabled": 0, "is_reserved": 0, "fusion_lat": 0.0, "lat": 38.8983245, "fusion_lon": 0.0, "rental_uris": {"ios": "https://dc.lft.to/lastmile_qr_scan", "android": "https://dc.lft.to/lastmile_qr_scan"}, "lon": -77.04653583333334, "bike_id": "d7bb3651cab8f940440da6e5756d161b", "type": "electric_scooter", "name": "d7bb3651cab8f940440da6e5756d161b"}, {"is_disabled": 0, "is_reserved": 0, "fusion_lat": 0.0, "lat": 38.8976185, "fusion_lon": 0.0, "rental_uris": {"ios": "https://dc.lft.to/lastmile_qr_scan", "android": "https://dc.lft.to/lastmile_qr_scan"}, "lon": -77.05490533333334, "bike_id": "de3b5038cdbd2510d28fd5cfc4e59d4b", "type": "electric_scooter", "name": "de3b5038cdbd2510d28fd5cfc4e59d4b"}, {"is_disabled": 0, "is_reserved": 0, "fusion_lat": 0.0, "lat": 38.905461333333335, "fusion_lon": 0.0, "rental_uris": {"ios": "https://dc.lft.to/lastmile_qr_scan", "android": "https://dc.lft.to/lastmile_qr_scan"}, "lon": -77.0260165, "bike_id": "402bc6b950cccdab80a78021d3d5e8d9", "type": "electric_scooter", "name": "402bc6b950cccdab80a78021d3d5e8d9"}, {"is_disabled": 0, "is_reserved": 0, "fusion_lat": 0.0, "lat": 38.933975, "fusion_lon": 0.0, "rental_uris": {"ios": "https://dc.lft.to/lastmile_qr_scan", "android": "https://dc.lft.to/lastmile_qr_scan"}, "lon": -77.02614066666666, "bike_id": "c24bb6bcdb057d6c00e64e5b3511c3dc", "type": "electric_scooter", "name": "c24bb6bcdb057d6c00e64e5b3511c3dc"}, {"is_disabled": 0, "is_reserved": 0, "fusion_lat": 0.0, "lat": 38.8967155, "fusion_lon": 0.0, "rental_uris": {"ios": "https://dc.lft.to/lastmile_qr_scan", "android": "https://dc.lft.to/lastmile_qr_scan"}, "lon": -76.9491425, "bike_id": "a02a7b673c51801c073de0507b93ae86", "type": "electric_scooter", "name": "a02a7b673c51801c073de0507b93ae86"}, {"is_disabled": 0, "is_reserved": 0, "fusion_lat": 0.0, "lat": 38.90342233333333, "fusion_lon": 0.0, "rental_uris": {"ios": "https://dc.lft.to/lastmile_qr_scan", "android": "https://dc.lft.to/lastmile_qr_scan"}, "lon": -77.01664416666667, "bike_id": "a33e0035a3d18f48588ee35121ff1e4c", "type": "electric_scooter", "name": "a33e0035a3d18f48588ee35121ff1e4c"}, {"is_disabled": 0, "is_reserved": 0, "fusion_lat": 0.0, "lat": 38.9117705, "fusion_lon": 0.0, "rental_uris": {"ios": "https://dc.lft.to/lastmile_qr_scan", "android": "https://dc.lft.to/lastmile_qr_scan"}, "lon": -77.00457766666666, "bike_id": "a7c3558de3101fc1c1ebb766cc0ff4b1", "type": "electric_scooter", "name": "a7c3558de3101fc1c1ebb766cc0ff4b1"}, {"is_disabled": 0, "is_reserved": 0, "fusion_lat": 0.0, "lat": 38.917909333333334, "fusion_lon": 0.0, "rental_uris": {"ios": "https://dc.lft.to/lastmile_qr_scan", "android": "https://dc.lft.to/lastmile_qr_scan"}, "lon": -77.03454783333333, "bike_id": "123c8bf2b842db3f8481a14ef91bd19d", "type": "electric_scooter", "name": "123c8bf2b842db3f8481a14ef91bd19d"}, {"is_disabled": 0, "is_reserved": 0, "fusion_lat": 0.0, "lat": 38.93403, "fusion_lon": 0.0, "rental_uris": {"ios": "https://dc.lft.to/lastmile_qr_scan", "android": "https://dc.lft.to/lastmile_qr_scan"}, "lon": -77.035189, "bike_id": "0fa13429aadc49f00f1c93e052e7379a", "type": "electric_scooter", "name": "0fa13429aadc49f00f1c93e052e7379a"}, {"is_disabled": 0, "is_reserved": 0, "fusion_lat": 0.0, "lat": 38.910409, "fusion_lon": 0.0, "rental_uris": {"ios": "https://dc.lft.to/lastmile_qr_scan", "android": "https://dc.lft.to/lastmile_qr_scan"}, "lon": -77.01301816666667, "bike_id": "6dc238910d21c7f583db7e72967c2a4b", "type": "electric_scooter", "name": "6dc238910d21c7f583db7e72967c2a4b"}, {"is_disabled": 0, "is_reserved": 0, "fusion_lat": 0.0, "lat": 38.900681, "fusion_lon": 0.0, "rental_uris": {"ios": "https://dc.lft.to/lastmile_qr_scan", "android": "https://dc.lft.to/lastmile_qr_scan"}, "lon": -77.04996566666667, "bike_id": "ff62ff73bb5b8652fadfa5d813b6eb74", "type": "electric_scooter", "name": "ff62ff73bb5b8652fadfa5d813b6eb74"}, {"is_disabled": 0, "is_reserved": 0, "fusion_lat": 0.0, "lat": 38.89823616666666, "fusion_lon": 0.0, "rental_uris": {"ios": "https://dc.lft.to/lastmile_qr_scan", "android": "https://dc.lft.to/lastmile_qr_scan"}, "lon": -77.00208983333333, "bike_id": "f5a5c7e7c3813a6afc3f8a3184b46cbe", "type": "electric_scooter", "name": "f5a5c7e7c3813a6afc3f8a3184b46cbe"}, {"is_disabled": 0, "is_reserved": 0, "fusion_lat": 0.0, "lat": 38.92256883333334, "fusion_lon": 0.0, "rental_uris": {"ios": "https://dc.lft.to/lastmile_qr_scan", "android": "https://dc.lft.to/lastmile_qr_scan"}, "lon": -77.03074966666667, "bike_id": "56a6b0dec3ece58e08fc53b51feb4c4f", "type": "electric_scooter", "name": "56a6b0dec3ece58e08fc53b51feb4c4f"}, {"is_disabled": 0, "is_reserved": 0, "fusion_lat": 0.0, "lat": 38.91536166666667, "fusion_lon": 0.0, "rental_uris": {"ios": "https://dc.lft.to/lastmile_qr_scan", "android": "https://dc.lft.to/lastmile_qr_scan"}, "lon": -76.983537, "bike_id": "1ce27c366fd9a8afe956b2e267b198af", "type": "electric_scooter", "name": "1ce27c366fd9a8afe956b2e267b198af"}, {"is_disabled": 0, "is_reserved": 0, "fusion_lat": 0.0, "lat": 38.92488016666667, "fusion_lon": 0.0, "rental_uris": {"ios": "https://dc.lft.to/lastmile_qr_scan", "android": "https://dc.lft.to/lastmile_qr_scan"}, "lon": -77.05103166666666, "bike_id": "b712dd68135164372d426921f012c896", "type": "electric_scooter", "name": "b712dd68135164372d426921f012c896"}, {"is_disabled": 0, "is_reserved": 0, "fusion_lat": 0.0, "lat": 38.902750166666664, "fusion_lon": 0.0, "rental_uris": {"ios": "https://dc.lft.to/lastmile_qr_scan", "android": "https://dc.lft.to/lastmile_qr_scan"}, "lon": -77.049391, "bike_id": "f7a2be974564c7600a2be0f94200beae", "type": "electric_scooter", "name": "f7a2be974564c7600a2be0f94200beae"}, {"is_disabled": 0, "is_reserved": 0, "fusion_lat": 0.0, "lat": 38.921496, "fusion_lon": 0.0, "rental_uris": {"ios": "https://dc.lft.to/lastmile_qr_scan", "android": "https://dc.lft.to/lastmile_qr_scan"}, "lon": -77.04688333333333, "bike_id": "7f81856410f1f55e0150132bc2961dbd", "type": "electric_scooter", "name": "7f81856410f1f55e0150132bc2961dbd"}, {"is_disabled": 0, "is_reserved": 0, "fusion_lat": 0.0, "lat": 38.91405566666667, "fusion_lon": 0.0, "rental_uris": {"ios": "https://dc.lft.to/lastmile_qr_scan", "android": "https://dc.lft.to/lastmile_qr_scan"}, "lon": -77.01230266666667, "bike_id": "7bfc0e8f6aa3d8b08c47169b1f71aa53", "type": "electric_scooter", "name": "7bfc0e8f6aa3d8b08c47169b1f71aa53"}, {"is_disabled": 0, "is_reserved": 0, "fusion_lat": 0.0, "lat": 38.8983515, "fusion_lon": 0.0, "rental_uris": {"ios": "https://dc.lft.to/lastmile_qr_scan", "android": "https://dc.lft.to/lastmile_qr_scan"}, "lon": -76.94634433333333, "bike_id": "32ab828a7781e269673a8adfe371f989", "type": "electric_scooter", "name": "32ab828a7781e269673a8adfe371f989"}, {"is_disabled": 0, "is_reserved": 0, "fusion_lat": 0.0, "lat": 38.870673833333335, "fusion_lon": 0.0, "rental_uris": {"ios": "https://dc.lft.to/lastmile_qr_scan", "android": "https://dc.lft.to/lastmile_qr_scan"}, "lon": -76.97939966666667, "bike_id": "1bed0dd57b245dde8777dbdd689a4a06", "type": "electric_scooter", "name": "1bed0dd57b245dde8777dbdd689a4a06"}, {"is_disabled": 0, "is_reserved": 0, "fusion_lat": 0.0, "lat": 38.8985965, "fusion_lon": 0.0, "rental_uris": {"ios": "https://dc.lft.to/lastmile_qr_scan", "android": "https://dc.lft.to/lastmile_qr_scan"}, "lon": -76.94641866666667, "bike_id": "714d99acdf6b39e2379b7976ff6e060c", "type": "electric_scooter", "name": "714d99acdf6b39e2379b7976ff6e060c"}, {"is_disabled": 0, "is_reserved": 0, "fusion_lat": 0.0, "lat": 38.9518935, "fusion_lon": 0.0, "rental_uris": {"ios": "https://dc.lft.to/lastmile_qr_scan", "android": "https://dc.lft.to/lastmile_qr_scan"}, "lon": -77.02618133333333, "bike_id": "d9266fa74852a1b79d357778142eb62d", "type": "electric_scooter", "name": "d9266fa74852a1b79d357778142eb62d"}, {"is_disabled": 0, "is_reserved": 0, "fusion_lat": 0.0, "lat": 38.927790333333334, "fusion_lon": 0.0, "rental_uris": {"ios": "https://dc.lft.to/lastmile_qr_scan", "android": "https://dc.lft.to/lastmile_qr_scan"}, "lon": -77.052608, "bike_id": "a0bd95d3c27c44b054fba3371e5db98c", "type": "electric_scooter", "name": "a0bd95d3c27c44b054fba3371e5db98c"}, {"is_disabled": 0, "is_reserved": 0, "fusion_lat": 0.0, "lat": 38.92058433333333, "fusion_lon": 0.0, "rental_uris": {"ios": "https://dc.lft.to/lastmile_qr_scan", "android": "https://dc.lft.to/lastmile_qr_scan"}, "lon": -77.02426716666666, "bike_id": "04c90eaef92f01ee588dc3a738aef817", "type": "electric_scooter", "name": "04c90eaef92f01ee588dc3a738aef817"}, {"is_disabled": 0, "is_reserved": 0, "fusion_lat": 0.0, "lat": 38.92614283333333, "fusion_lon": 0.0, "rental_uris": {"ios": "https://dc.lft.to/lastmile_qr_scan", "android": "https://dc.lft.to/lastmile_qr_scan"}, "lon": -77.00651616666667, "bike_id": "a83eddad70accbf153540222e936a6f3", "type": "electric_scooter", "name": "a83eddad70accbf153540222e936a6f3"}, {"is_disabled": 0, "is_reserved": 0, "fusion_lat": 0.0, "lat": 38.93633, "fusion_lon": 0.0, "rental_uris": {"ios": "https://dc.lft.to/lastmile_qr_scan", "android": "https://dc.lft.to/lastmile_qr_scan"}, "lon": -77.03261383333333, "bike_id": "298d93d3d412336f5720cb13e713702d", "type": "electric_scooter", "name": "298d93d3d412336f5720cb13e713702d"}, {"is_disabled": 0, "is_reserved": 0, "fusion_lat": 0.0, "lat": 38.9398465, "fusion_lon": 0.0, "rental_uris": {"ios": "https://dc.lft.to/lastmile_qr_scan", "android": "https://dc.lft.to/lastmile_qr_scan"}, "lon": -77.01912366666667, "bike_id": "ef3dd9f4e616712ebbc714f22ea1b574", "type": "electric_scooter", "name": "ef3dd9f4e616712ebbc714f22ea1b574"}, {"is_disabled": 0, "is_reserved": 0, "fusion_lat": 0.0, "lat": 38.98205383333333, "fusion_lon": 0.0, "rental_uris": {"ios": "https://dc.lft.to/lastmile_qr_scan", "android": "https://dc.lft.to/lastmile_qr_scan"}, "lon": -76.97819133333333, "bike_id": "09aa7ac73298e56367afaed690275d2c", "type": "electric_bike", "name": "09aa7ac73298e56367afaed690275d2c"}, {"is_disabled": 0, "is_reserved": 0, "fusion_lat": 0.0, "lat": 38.95110066666667, "fusion_lon": 0.0, "rental_uris": {"ios": "https://dc.lft.to/lastmile_qr_scan", "android": "https://dc.lft.to/lastmile_qr_scan"}, "lon": -77.01889, "bike_id": "fb583b54f44633dfeac7b0da2d27ac14", "type": "electric_scooter", "name": "fb583b54f44633dfeac7b0da2d27ac14"}, {"is_disabled": 0, "is_reserved": 0, "fusion_lat": 0.0, "lat": 38.893641833333334, "fusion_lon": 0.0, "rental_uris": {"ios": "https://dc.lft.to/lastmile_qr_scan", "android": "https://dc.lft.to/lastmile_qr_scan"}, "lon": -77.044788, "bike_id": "5bdc3adb992bbbebd78e8cd84cbb5dfb", "type": "electric_scooter", "name": "5bdc3adb992bbbebd78e8cd84cbb5dfb"}, {"is_disabled": 0, "is_reserved": 0, "fusion_lat": 0.0, "lat": 38.936038333333336, "fusion_lon": 0.0, "rental_uris": {"ios": "https://dc.lft.to/lastmile_qr_scan", "android": "https://dc.lft.to/lastmile_qr_scan"}, "lon": -77.05592933333334, "bike_id": "0f8ec6512670b0ade6c44a8265302251", "type": "electric_scooter", "name": "0f8ec6512670b0ade6c44a8265302251"}, {"is_disabled": 0, "is_reserved": 0, "fusion_lat": 0.0, "lat": 38.94167733333333, "fusion_lon": 0.0, "rental_uris": {"ios": "https://dc.lft.to/lastmile_qr_scan", "android": "https://dc.lft.to/lastmile_qr_scan"}, "lon": -76.9941085, "bike_id": "c621fc21ce0b1add2b778c03cdf9f560", "type": "electric_bike", "name": "c621fc21ce0b1add2b778c03cdf9f560"}, {"is_disabled": 0, "is_reserved": 0, "fusion_lat": 0.0, "lat": 38.87830783333333, "fusion_lon": 0.0, "rental_uris": {"ios": "https://dc.lft.to/lastmile_qr_scan", "android": "https://dc.lft.to/lastmile_qr_scan"}, "lon": -76.98612033333333, "bike_id": "bad22ca722edaec44a40c21fce831217", "type": "electric_scooter", "name": "bad22ca722edaec44a40c21fce831217"}, {"is_disabled": 0, "is_reserved": 0, "fusion_lat": 0.0, "lat": 38.900496833333335, "fusion_lon": 0.0, "rental_uris": {"ios": "https://dc.lft.to/lastmile_qr_scan", "android": "https://dc.lft.to/lastmile_qr_scan"}, "lon": -77.01770783333333, "bike_id": "0024805f6366ece9d9826e3ec7505cb4", "type": "electric_scooter", "name": "0024805f6366ece9d9826e3ec7505cb4"}, {"is_disabled": 0, "is_reserved": 0, "fusion_lat": 0.0, "lat": 38.932931333333336, "fusion_lon": 0.0, "rental_uris": {"ios": "https://dc.lft.to/lastmile_qr_scan", "android": "https://dc.lft.to/lastmile_qr_scan"}, "lon": -77.02449516666667, "bike_id": "1675cd5928320c186c9e8a24731ad051", "type": "electric_scooter", "name": "1675cd5928320c186c9e8a24731ad051"}, {"is_disabled": 0, "is_reserved": 0, "fusion_lat": 0.0, "lat": 38.846495833333336, "fusion_lon": 0.0, "rental_uris": {"ios": "https://dc.lft.to/lastmile_qr_scan", "android": "https://dc.lft.to/lastmile_qr_scan"}, "lon": -77.00369766666667, "bike_id": "065a176929e7f44e5c5406e22d3667b6", "type": "electric_scooter", "name": "065a176929e7f44e5c5406e22d3667b6"}, {"is_disabled": 0, "is_reserved": 0, "fusion_lat": 0.0, "lat": 38.9070955, "fusion_lon": 0.0, "rental_uris": {"ios": "https://dc.lft.to/lastmile_qr_scan", "android": "https://dc.lft.to/lastmile_qr_scan"}, "lon": -77.04200733333333, "bike_id": "a40624080be2354483f0d4964e12dcde", "type": "electric_scooter", "name": "a40624080be2354483f0d4964e12dcde"}, {"is_disabled": 0, "is_reserved": 0, "fusion_lat": 0.0, "lat": 38.84618566666666, "fusion_lon": 0.0, "rental_uris": {"ios": "https://dc.lft.to/lastmile_qr_scan", "android": "https://dc.lft.to/lastmile_qr_scan"}, "lon": -76.9783935, "bike_id": "2c42f68951648516f3011d1420d4e31c", "type": "electric_bike", "name": "2c42f68951648516f3011d1420d4e31c"}, {"is_disabled": 0, "is_reserved": 0, "fusion_lat": 0.0, "lat": 38.8989615, "fusion_lon": 0.0, "rental_uris": {"ios": "https://dc.lft.to/lastmile_qr_scan", "android": "https://dc.lft.to/lastmile_qr_scan"}, "lon": -77.0195185, "bike_id": "cace3d8ebbea31656c6a722c1483c39b", "type": "electric_scooter", "name": "cace3d8ebbea31656c6a722c1483c39b"}, {"is_disabled": 0, "is_reserved": 0, "fusion_lat": 0.0, "lat": 38.9046765, "fusion_lon": 0.0, "rental_uris": {"ios": "https://dc.lft.to/lastmile_qr_scan", "android": "https://dc.lft.to/lastmile_qr_scan"}, "lon": -77.0627445, "bike_id": "4a5d33488e313808e782bbec20b6dc69", "type": "electric_scooter", "name": "4a5d33488e313808e782bbec20b6dc69"}, {"is_disabled": 0, "is_reserved": 0, "fusion_lat": 0.0, "lat": 38.88706033333333, "fusion_lon": 0.0, "rental_uris": {"ios": "https://dc.lft.to/lastmile_qr_scan", "android": "https://dc.lft.to/lastmile_qr_scan"}, "lon": -76.983448, "bike_id": "0d9a8e10c8c8bb5c7c04343c4dab518e", "type": "electric_scooter", "name": "0d9a8e10c8c8bb5c7c04343c4dab518e"}, {"is_disabled": 0, "is_reserved": 0, "fusion_lat": 0.0, "lat": 38.88027683333333, "fusion_lon": 0.0, "rental_uris": {"ios": "https://dc.lft.to/lastmile_qr_scan", "android": "https://dc.lft.to/lastmile_qr_scan"}, "lon": -76.94322333333334, "bike_id": "beae837ee24311983569bcd296ac2ef4", "type": "electric_scooter", "name": "beae837ee24311983569bcd296ac2ef4"}, {"is_disabled": 0, "is_reserved": 0, "fusion_lat": 0.0, "lat": 38.90278766666667, "fusion_lon": 0.0, "rental_uris": {"ios": "https://dc.lft.to/lastmile_qr_scan", "android": "https://dc.lft.to/lastmile_qr_scan"}, "lon": -77.03478533333333, "bike_id": "e9ee61e3802b72b8c98a161410c1686c", "type": "electric_scooter", "name": "e9ee61e3802b72b8c98a161410c1686c"}, {"is_disabled": 0, "is_reserved": 0, "fusion_lat": 0.0, "lat": 38.914178666666665, "fusion_lon": 0.0, "rental_uris": {"ios": "https://dc.lft.to/lastmile_qr_scan", "android": "https://dc.lft.to/lastmile_qr_scan"}, "lon": -77.04395416666667, "bike_id": "e38332c63efba2fdd8ebf4dbd0ee9ec3", "type": "electric_scooter", "name": "e38332c63efba2fdd8ebf4dbd0ee9ec3"}, {"is_disabled": 0, "is_reserved": 0, "fusion_lat": 0.0, "lat": 38.91010766666667, "fusion_lon": 0.0, "rental_uris": {"ios": "https://dc.lft.to/lastmile_qr_scan", "android": "https://dc.lft.to/lastmile_qr_scan"}, "lon": -77.040133, "bike_id": "8ace56f14f59b51b3dae6a0ac51c5d5b", "type": "electric_scooter", "name": "8ace56f14f59b51b3dae6a0ac51c5d5b"}, {"is_disabled": 0, "is_reserved": 0, "fusion_lat": 0.0, "lat": 38.92657033333333, "fusion_lon": 0.0, "rental_uris": {"ios": "https://dc.lft.to/lastmile_qr_scan", "android": "https://dc.lft.to/lastmile_qr_scan"}, "lon": -77.0244415, "bike_id": "ae09484d8faa6dde6efadef26059dcf1", "type": "electric_scooter", "name": "ae09484d8faa6dde6efadef26059dcf1"}, {"is_disabled": 0, "is_reserved": 0, "fusion_lat": 0.0, "lat": 38.937052, "fusion_lon": 0.0, "rental_uris": {"ios": "https://dc.lft.to/lastmile_qr_scan", "android": "https://dc.lft.to/lastmile_qr_scan"}, "lon": -77.05602316666666, "bike_id": "8ebc03546bc805ffdf5b831711b06f44", "type": "electric_scooter", "name": "8ebc03546bc805ffdf5b831711b06f44"}, {"is_disabled": 0, "is_reserved": 0, "fusion_lat": 0.0, "lat": 38.923633, "fusion_lon": 0.0, "rental_uris": {"ios": "https://dc.lft.to/lastmile_qr_scan", "android": "https://dc.lft.to/lastmile_qr_scan"}, "lon": -77.07312966666667, "bike_id": "39d65ff45f8bd7402e8db8b563b451a7", "type": "electric_scooter", "name": "39d65ff45f8bd7402e8db8b563b451a7"}, {"is_disabled": 0, "is_reserved": 0, "fusion_lat": 0.0, "lat": 38.926538, "fusion_lon": 0.0, "rental_uris": {"ios": "https://dc.lft.to/lastmile_qr_scan", "android": "https://dc.lft.to/lastmile_qr_scan"}, "lon": -77.02425083333333, "bike_id": "a6529198fb1205a82883630b3960c4f9", "type": "electric_scooter", "name": "a6529198fb1205a82883630b3960c4f9"}, {"is_disabled": 0, "is_reserved": 0, "fusion_lat": 0.0, "lat": 38.93612433333333, "fusion_lon": 0.0, "rental_uris": {"ios": "https://dc.lft.to/lastmile_qr_scan", "android": "https://dc.lft.to/lastmile_qr_scan"}, "lon": -77.055847, "bike_id": "5fc14155dac28026e66f08db361ecb28", "type": "electric_scooter", "name": "5fc14155dac28026e66f08db361ecb28"}, {"is_disabled": 0, "is_reserved": 0, "fusion_lat": 0.0, "lat": 38.85720166666667, "fusion_lon": 0.0, "rental_uris": {"ios": "https://dc.lft.to/lastmile_qr_scan", "android": "https://dc.lft.to/lastmile_qr_scan"}, "lon": -76.98091733333334, "bike_id": "7abac96ffb481469d21f607cfc9d5f0a", "type": "electric_scooter", "name": "7abac96ffb481469d21f607cfc9d5f0a"}, {"is_disabled": 0, "is_reserved": 0, "fusion_lat": 0.0, "lat": 38.964316333333336, "fusion_lon": 0.0, "rental_uris": {"ios": "https://dc.lft.to/lastmile_qr_scan", "android": "https://dc.lft.to/lastmile_qr_scan"}, "lon": -77.0742795, "bike_id": "1ea6f49a0359dee8e351543d7d24e37d", "type": "electric_scooter", "name": "1ea6f49a0359dee8e351543d7d24e37d"}, {"is_disabled": 0, "is_reserved": 0, "fusion_lat": 0.0, "lat": 38.896799666666666, "fusion_lon": 0.0, "rental_uris": {"ios": "https://dc.lft.to/lastmile_qr_scan", "android": "https://dc.lft.to/lastmile_qr_scan"}, "lon": -77.05464283333333, "bike_id": "2213f7fe5825f805c3e0f6fc9d78be25", "type": "electric_scooter", "name": "2213f7fe5825f805c3e0f6fc9d78be25"}, {"is_disabled": 0, "is_reserved": 0, "fusion_lat": 0.0, "lat": 38.83410766666667, "fusion_lon": 0.0, "rental_uris": {"ios": "https://dc.lft.to/lastmile_qr_scan", "android": "https://dc.lft.to/lastmile_qr_scan"}, "lon": -77.05017016666666, "bike_id": "48fdaaa9d318cf21096e31be73212d78", "type": "electric_bike", "name": "48fdaaa9d318cf21096e31be73212d78"}, {"is_disabled": 0, "is_reserved": 0, "fusion_lat": 0.0, "lat": 38.924706666666665, "fusion_lon": 0.0, "rental_uris": {"ios": "https://dc.lft.to/lastmile_qr_scan", "android": "https://dc.lft.to/lastmile_qr_scan"}, "lon": -77.07862733333333, "bike_id": "6e47240f8fbd2104554eea27488a599e", "type": "electric_scooter", "name": "6e47240f8fbd2104554eea27488a599e"}, {"is_disabled": 0, "is_reserved": 0, "fusion_lat": 0.0, "lat": 38.89608, "fusion_lon": 0.0, "rental_uris": {"ios": "https://dc.lft.to/lastmile_qr_scan", "android": "https://dc.lft.to/lastmile_qr_scan"}, "lon": -77.00334366666667, "bike_id": "f040a88960210a09aa201ddf6acfefcb", "type": "electric_scooter", "name": "f040a88960210a09aa201ddf6acfefcb"}, {"is_disabled": 0, "is_reserved": 0, "fusion_lat": 0.0, "lat": 38.949261, "fusion_lon": 0.0, "rental_uris": {"ios": "https://dc.lft.to/lastmile_qr_scan", "android": "https://dc.lft.to/lastmile_qr_scan"}, "lon": -77.02309683333333, "bike_id": "f9256f42d14abecdd7fc76d2845f1b69", "type": "electric_scooter", "name": "f9256f42d14abecdd7fc76d2845f1b69"}, {"is_disabled": 0, "is_reserved": 0, "fusion_lat": 0.0, "lat": 38.90914633333333, "fusion_lon": 0.0, "rental_uris": {"ios": "https://dc.lft.to/lastmile_qr_scan", "android": "https://dc.lft.to/lastmile_qr_scan"}, "lon": -77.0418955, "bike_id": "0f673e5d5c8c655292e19608cb09c717", "type": "electric_scooter", "name": "0f673e5d5c8c655292e19608cb09c717"}, {"is_disabled": 0, "is_reserved": 0, "fusion_lat": 0.0, "lat": 38.902380666666666, "fusion_lon": 0.0, "rental_uris": {"ios": "https://dc.lft.to/lastmile_qr_scan", "android": "https://dc.lft.to/lastmile_qr_scan"}, "lon": -77.03926316666667, "bike_id": "31096fc3471adab80b0ca34392a9f83a", "type": "electric_scooter", "name": "31096fc3471adab80b0ca34392a9f83a"}, {"is_disabled": 0, "is_reserved": 0, "fusion_lat": 0.0, "lat": 38.92751833333333, "fusion_lon": 0.0, "rental_uris": {"ios": "https://dc.lft.to/lastmile_qr_scan", "android": "https://dc.lft.to/lastmile_qr_scan"}, "lon": -77.03129366666667, "bike_id": "8c90e5e6c0a60228b10a8e894cadd580", "type": "electric_scooter", "name": "8c90e5e6c0a60228b10a8e894cadd580"}, {"is_disabled": 0, "is_reserved": 0, "fusion_lat": 0.0, "lat": 38.898748, "fusion_lon": 0.0, "rental_uris": {"ios": "https://dc.lft.to/lastmile_qr_scan", "android": "https://dc.lft.to/lastmile_qr_scan"}, "lon": -76.93143933333333, "bike_id": "5dc3b279d2d079ced1f09f313ab60631", "type": "electric_scooter", "name": "5dc3b279d2d079ced1f09f313ab60631"}, {"is_disabled": 0, "is_reserved": 0, "fusion_lat": 0.0, "lat": 38.90531566666667, "fusion_lon": 0.0, "rental_uris": {"ios": "https://dc.lft.to/lastmile_qr_scan", "android": "https://dc.lft.to/lastmile_qr_scan"}, "lon": -77.0499585, "bike_id": "7551d6a5beb00ca5face41208c9934a8", "type": "electric_scooter", "name": "7551d6a5beb00ca5face41208c9934a8"}, {"is_disabled": 0, "is_reserved": 0, "fusion_lat": 0.0, "lat": 38.93075983333333, "fusion_lon": 0.0, "rental_uris": {"ios": "https://dc.lft.to/lastmile_qr_scan", "android": "https://dc.lft.to/lastmile_qr_scan"}, "lon": -77.02336233333334, "bike_id": "2e30561f61ae60063e15486c866342cc", "type": "electric_scooter", "name": "2e30561f61ae60063e15486c866342cc"}, {"is_disabled": 0, "is_reserved": 0, "fusion_lat": 0.0, "lat": 38.88541166666667, "fusion_lon": 0.0, "rental_uris": {"ios": "https://dc.lft.to/lastmile_qr_scan", "android": "https://dc.lft.to/lastmile_qr_scan"}, "lon": -76.978882, "bike_id": "7c28c382c0e611861b6f8b8407472b57", "type": "electric_scooter", "name": "7c28c382c0e611861b6f8b8407472b57"}, {"is_disabled": 0, "is_reserved": 0, "fusion_lat": 0.0, "lat": 38.901922, "fusion_lon": 0.0, "rental_uris": {"ios": "https://dc.lft.to/lastmile_qr_scan", "android": "https://dc.lft.to/lastmile_qr_scan"}, "lon": -77.00212866666666, "bike_id": "3ab1bd8a624e9cca935d3eeb7969bc94", "type": "electric_scooter", "name": "3ab1bd8a624e9cca935d3eeb7969bc94"}, {"is_disabled": 0, "is_reserved": 0, "fusion_lat": 0.0, "lat": 38.93248066666666, "fusion_lon": 0.0, "rental_uris": {"ios": "https://dc.lft.to/lastmile_qr_scan", "android": "https://dc.lft.to/lastmile_qr_scan"}, "lon": -77.0284935, "bike_id": "cab2ab2c5aa14b497ae5e53db10d9d8e", "type": "electric_scooter", "name": "cab2ab2c5aa14b497ae5e53db10d9d8e"}, {"is_disabled": 0, "is_reserved": 0, "fusion_lat": 0.0, "lat": 38.88884133333333, "fusion_lon": 0.0, "rental_uris": {"ios": "https://dc.lft.to/lastmile_qr_scan", "android": "https://dc.lft.to/lastmile_qr_scan"}, "lon": -76.95701683333333, "bike_id": "0bf5c21017bcc1a543f4abce2013260b", "type": "electric_bike", "name": "0bf5c21017bcc1a543f4abce2013260b"}, {"is_disabled": 0, "is_reserved": 0, "fusion_lat": 0.0, "lat": 38.879603333333336, "fusion_lon": 0.0, "rental_uris": {"ios": "https://dc.lft.to/lastmile_qr_scan", "android": "https://dc.lft.to/lastmile_qr_scan"}, "lon": -76.93186866666667, "bike_id": "ac490c72268acf2707fc58f500101656", "type": "electric_bike", "name": "ac490c72268acf2707fc58f500101656"}, {"is_disabled": 0, "is_reserved": 0, "fusion_lat": 0.0, "lat": 38.873595, "fusion_lon": 0.0, "rental_uris": {"ios": "https://dc.lft.to/lastmile_qr_scan", "android": "https://dc.lft.to/lastmile_qr_scan"}, "lon": -77.11869016666667, "bike_id": "f9cac704c2d51bbeedb961ac9a4228d0", "type": "electric_bike", "name": "f9cac704c2d51bbeedb961ac9a4228d0"}, {"is_disabled": 0, "is_reserved": 0, "fusion_lat": 0.0, "lat": 38.9093285, "fusion_lon": 0.0, "rental_uris": {"ios": "https://dc.lft.to/lastmile_qr_scan", "android": "https://dc.lft.to/lastmile_qr_scan"}, "lon": -76.9990625, "bike_id": "44c6b32febe58f70dd6e7f73a6b0660e", "type": "electric_scooter", "name": "44c6b32febe58f70dd6e7f73a6b0660e"}, {"is_disabled": 0, "is_reserved": 0, "fusion_lat": 0.0, "lat": 38.90303516666667, "fusion_lon": 0.0, "rental_uris": {"ios": "https://dc.lft.to/lastmile_qr_scan", "android": "https://dc.lft.to/lastmile_qr_scan"}, "lon": -77.03991133333334, "bike_id": "ed11eebaf53ed4910fc89cd733c5b02c", "type": "electric_scooter", "name": "ed11eebaf53ed4910fc89cd733c5b02c"}, {"is_disabled": 0, "is_reserved": 0, "fusion_lat": 0.0, "lat": 38.91470416666667, "fusion_lon": 0.0, "rental_uris": {"ios": "https://dc.lft.to/lastmile_qr_scan", "android": "https://dc.lft.to/lastmile_qr_scan"}, "lon": -77.02104483333333, "bike_id": "cfe4bfb0462bde45eaa6f11bf190fba2", "type": "electric_scooter", "name": "cfe4bfb0462bde45eaa6f11bf190fba2"}, {"is_disabled": 0, "is_reserved": 0, "fusion_lat": 0.0, "lat": 38.90267766666667, "fusion_lon": 0.0, "rental_uris": {"ios": "https://dc.lft.to/lastmile_qr_scan", "android": "https://dc.lft.to/lastmile_qr_scan"}, "lon": -77.00897166666667, "bike_id": "9abf3d3806ddb5ace44c8133f9c4fbeb", "type": "electric_scooter", "name": "9abf3d3806ddb5ace44c8133f9c4fbeb"}, {"is_disabled": 0, "is_reserved": 0, "fusion_lat": 0.0, "lat": 38.92462583333333, "fusion_lon": 0.0, "rental_uris": {"ios": "https://dc.lft.to/lastmile_qr_scan", "android": "https://dc.lft.to/lastmile_qr_scan"}, "lon": -77.0575545, "bike_id": "416621c4a804b0c899e6fe8df7d5d180", "type": "electric_scooter", "name": "416621c4a804b0c899e6fe8df7d5d180"},