{"data": {"bikes": [{"name": "081f6c0b0655afec1ab31e4e082d9fa7", "lon": -77.0060565, "lat": 38.906369833333336, "type": "electric_scooter", "fusion_lon": 0.0, "is_reserved": 0, "bike_id": "081f6c0b0655afec1ab31e4e082d9fa7", "fusion_lat": 0.0, "is_disabled": 0, "rental_uris": {"ios": "https://dc.lft.to/lastmile_qr_scan", "android": "https://dc.lft.to/lastmile_qr_scan"}}, {"name": "692c7cfd8d1c0a0c01aa629bbfe58559", "lon": -77.00922283333334, "lat": 38.82787533333333, "type": "electric_scooter", "fusion_lon": 0.0, "is_reserved": 0, "bike_id": "692c7cfd8d1c0a0c01aa629bbfe58559", "fusion_lat": 0.0, "is_disabled": 0, "rental_uris": {"ios": "https://dc.lft.to/lastmile_qr_scan", "android": "https://dc.lft.to/lastmile_qr_scan"}}, {"name": "fc8be5ea25384aeb222bc41f9d9c560c", "lon": -77.05590816666667, "lat": 38.936038333333336, "type": "electric_scooter", "fusion_lon": 0.0, "is_reserved": 0, "bike_id": "fc8be5ea25384aeb222bc41f9d9c560c", "fusion_lat": 0.0, "is_disabled": 0, "rental_uris": {"ios": "https://dc.lft.to/lastmile_qr_scan", "android": "https://dc.lft.to/lastmile_qr_scan"}}, {"name": "b5d7f2c1444100f4ac060fe40478bb81", "lon": -76.99219, "lat": 38.89739266666667, "type": "electric_bike", "fusion_lon": 0.0, "is_reserved": 0, "bike_id": "b5d7f2c1444100f4ac060fe40478bb81", "fusion_lat": 0.0, "is_disabled": 0, "rental_uris": {"ios": "https://dc.lft.to/lastmile_qr_scan", "android": "https://dc.lft.to/lastmile_qr_scan"}}, {"name": "5c54e503bdd829b0b96d3970a7e73525", "lon": -77.04485733333334, "lat": 38.924008666666666, "type": "electric_scooter", "fusion_lon": 0.0, "is_reserved": 0, "bike_id": "5c54e503bdd829b0b96d3970a7e73525", "fusion_lat": 0.0, "is_disabled": 0, "rental_uris": {"ios": "https://dc.lft.to/lastmile_qr_scan", "android": "https://dc.lft.to/lastmile_qr_scan"}}, {"name": "b649ac96272ca91812cbc22c59d71f27", "lon": -77.00473983333333, "lat": 38.88050116666667, "type": "electric_scooter", "fusion_lon": 0.0, "is_reserved": 0, "bike_id": "b649ac96272ca91812cbc22c59d71f27", "fusion_lat": 0.0, "is_disabled": 0, "rental_uris": {"ios": "https://dc.lft.to/lastmile_qr_scan", "android": "https://dc.lft.to/lastmile_qr_scan"}}, {"name": "f9c180f34722baed8dfd9cc936a34a01", "lon": -77.0309935, "lat": 38.90754833333333, "type": "electric_scooter", "fusion_lon": 0.0, "is_reserved": 0, "bike_id": "f9c180f34722baed8dfd9cc936a34a01", "fusion_lat": 0.0, "is_disabled": 0, "rental_uris": {"ios": "https://dc.lft.to/lastmile_qr_scan", "android": "https://dc.lft.to/lastmile_qr_scan"}}, {"name": "5a7451a8f54cdfdd02fc59b00bf00f18", "lon": -77.04130633333334, "lat": 38.8049855, "type": "electric_bike", "fusion_lon": 0.0, "is_reserved": 0, "bike_id": "5a7451a8f54cdfdd02fc59b00bf00f18", "fusion_lat": 0.0, "is_disabled": 0, "rental_uris": {"ios": "https://dc.lft.to/lastmile_qr_scan", "android": "https://dc.lft.to/lastmile_qr_scan"}}, {"name": "5fa6d7615ef295d52d90ba93443792fe", "lon": -76.9336735, "lat": 38.899143, "type": "electric_scooter", "fusion_lon": 0.0, "is_reserved": 0, "bike_id": "5fa6d7615ef295d52d90ba93443792fe", "fusion_lat": 0.0, "is_disabled": 0, "rental_uris": {"ios": "https://dc.lft.to/lastmile_qr_scan", "android": "https://dc.lft.to/lastmile_qr_scan"}}, {"name": "10af8221132293826f78a0a6fb43777c", "lon": -77.023033, "lat": 38.915461, "type": "electric_scooter", "fusion_lon": 0.0, "is_reserved": 0, "bike_id": "10af8221132293826f78a0a6fb43777c", "fusion_lat": 0.0, "is_disabled": 0, "rental_uris": {"ios": "https://dc.lft.to/lastmile_qr_scan", "android": "https://dc.lft.to/lastmile_qr_scan"}}, {"name": "24d0a9cb0b9ad5c13f71ffa354a0eb35", "lon": -77.00347783333333, "lat": 38.90748583333333, "type": "electric_scooter", "fusion_lon": 0.0, "is_reserved": 0, "bike_id": "24d0a9cb0b9ad5c13f71ffa354a0eb35", "fusion_lat": 0.0, "is_disabled": 0, "rental_uris": {"ios": "https://dc.lft.to/lastmile_qr_scan", "android": "https://dc.lft.to/lastmile_qr_scan"}}, {"name": "02fa93926d033edb7b400a594d313ee4", "lon": -77.022859, "lat": 38.9167775, "type": "electric_scooter", "fusion_lon": 0.0, "is_reserved": 0, "bike_id": "02fa93926d033edb7b400a594d313ee4", "fusion_lat": 0.0, "is_disabled": 0, "rental_uris": {"ios": "https://dc.lft.to/lastmile_qr_scan", "android": "https://dc.lft.to/lastmile_qr_scan"}}, {"name": "84d588f2fd2deabd654d11879593a300", "lon": -76.95095583333334, "lat": 38.884502, "type": "electric_scooter", "fusion_lon": 0.0, "is_reserved": 0, "bike_id": "84d588f2fd2deabd654d11879593a300", "fusion_lat": 0.0, "is_disabled": 0, "rental_uris": {"ios": "https://dc.lft.to/lastmile_qr_scan", "android": "https://dc.lft.to/lastmile_qr_scan"}}, {"name": "6c184c753139be89c819de57c62c00d5", "lon": -77.00764183333334, "lat": 38.898391833333335, "type": "electric_scooter", "fusion_lon": 0.0, "is_reserved": 0, "bike_id": "6c184c753139be89c819de57c62c00d5", "fusion_lat": 0.0, "is_disabled": 0, "rental_uris": {"ios": "https://dc.lft.to/lastmile_qr_scan", "android": "https://dc.lft.to/lastmile_qr_scan"}}, {"name": "f3987322a49e49d841908f044e242ecd", "lon": -77.01802483333333, "lat": 38.920216333333336, "type": "electric_scooter", "fusion_lon": 0.0, "is_reserved": 0, "bike_id": "f3987322a49e49d841908f044e242ecd", "fusion_lat": 0.0, "is_disabled": 0, "rental_uris": {"ios": "https://dc.lft.to/lastmile_qr_scan", "android": "https://dc.lft.to/lastmile_qr_scan"}}, {"name": "92d4cbcf8d6a798b19e46fe4e7a88fdd", "lon": -77.03659083333334, "lat": 38.923346333333335, "type": "electric_scooter", "fusion_lon": 0.0, "is_reserved": 0, "bike_id": "92d4cbcf8d6a798b19e46fe4e7a88fdd", "fusion_lat": 0.0, "is_disabled": 0, "rental_uris": {"ios": "https://dc.lft.to/lastmile_qr_scan", "android": "https://dc.lft.to/lastmile_qr_scan"}}, {"name": "a4989c49e6e9eaeef52ef1385288bcef", "lon": -77.01210033333334, "lat": 38.870937, "type": "electric_bike", "fusion_lon": 0.0, "is_reserved": 0, "bike_id": "a4989c49e6e9eaeef52ef1385288bcef", "fusion_lat": 0.0, "is_disabled": 0, "rental_uris": {"ios": "https://dc.lft.to/lastmile_qr_scan", "android": "https://dc.lft.to/lastmile_qr_scan"}}, {"name": "944cc6bcb58d0bae63d86886d946da09", "lon": -77.01365166666666, "lat": 38.88706583333333, "type": "electric_scooter", "fusion_lon": 0.0, "is_reserved": 0, "bike_id": "944cc6bcb58d0bae63d86886d946da09", "fusion_lat": 0.0, "is_disabled": 0, "rental_uris": {"ios": "https://dc.lft.to/lastmile_qr_scan", "android": "https://dc.lft.to/lastmile_qr_scan"}}, {"name": "63ff7ef98bbfdab630c12b3c00543684", "lon": -77.002031, "lat": 38.819343833333335, "type": "electric_bike", "fusion_lon": 0.0, "is_reserved": 0, "bike_id": "63ff7ef98bbfdab630c12b3c00543684", "fusion_lat": 0.0, "is_disabled": 0, "rental_uris": {"ios": "https://dc.lft.to/lastmile_qr_scan", "android": "https://dc.lft.to/lastmile_qr_scan"}}, {"name": "1007098fb734ab2e878662c6471580ae", "lon": -77.04233833333333, "lat": 38.9216355, "type": "electric_scooter", "fusion_lon": 0.0, "is_reserved": 0, "bike_id": "1007098fb734ab2e878662c6471580ae", "fusion_lat": 0.0, "is_disabled": 0, "rental_uris": {"ios": "https://dc.lft.to/lastmile_qr_scan", "android": "https://dc.lft.to/lastmile_qr_scan"}}, {"name": "d071c8216d9feec8d748fd026a3b73ff", "lon": -77.03553683333334, "lat": 38.908226666666664, "type": "electric_scooter", "fusion_lon": 0.0, "is_reserved": 0, "bike_id": "d071c8216d9feec8d748fd026a3b73ff", "fusion_lat": 0.0, "is_disabled": 0, "rental_uris": {"ios": "https://dc.lft.to/lastmile_qr_scan", "android": "https://dc.lft.to/lastmile_qr_scan"}}, {"name": "a2f5f249b7443ac6277550edcfd52c6a", "lon": -77.04366316666666, "lat": 38.908014333333334, "type": "electric_scooter", "fusion_lon": 0.0, "is_reserved": 0, "bike_id": "a2f5f249b7443ac6277550edcfd52c6a", "fusion_lat": 0.0, "is_disabled": 0, "rental_uris": {"ios": "https://dc.lft.to/lastmile_qr_scan", "android": "https://dc.lft.to/lastmile_qr_scan"}}, {"name": "c3a5f74c8b4b0ab76175ee068345ad6f", "lon": -77.0480635, "lat": 38.90050566666667, "type": "electric_scooter", "fusion_lon": 0.0, "is_reserved": 0, "bike_id": "c3a5f74c8b4b0ab76175ee068345ad6f", "fusion_lat": 0.0, "is_disabled": 0, "rental_uris": {"ios": "https://dc.lft.to/lastmile_qr_scan", "android": "https://dc.lft.to/lastmile_qr_scan"}}, {"name": "3080f67252e10b4c82c59ae14098c8ff", "lon": -77.035016, "lat": 38.91706283333333, "type": "electric_scooter", "fusion_lon": 0.0, "is_reserved": 0, "bike_id": "3080f67252e10b4c82c59ae14098c8ff", "fusion_lat": 0.0, "is_disabled": 0, "rental_uris": {"ios": "https://dc.lft.to/lastmile_qr_scan", "android": "https://dc.lft.to/lastmile_qr_scan"}}, {"name": "0510d29543e2aa2f407657c018628717", "lon": -77.033707, "lat": 38.9358765, "type": "electric_scooter", "fusion_lon": 0.0, "is_reserved": 0, "bike_id": "0510d29543e2aa2f407657c018628717", "fusion_lat": 0.0, "is_disabled": 0, "rental_uris": {"ios": "https://dc.lft.to/lastmile_qr_scan", "android": "https://dc.lft.to/lastmile_qr_scan"}}, {"name": "a2119e552c371dc16c3ca4feff626ce5", "lon": -77.032009, "lat": 38.917021, "type": "electric_scooter", "fusion_lon": 0.0, "is_reserved": 0, "bike_id": "a2119e552c371dc16c3ca4feff626ce5", "fusion_lat": 0.0, "is_disabled": 0, "rental_uris": {"ios": "https://dc.lft.to/lastmile_qr_scan", "android": "https://dc.lft.to/lastmile_qr_scan"}}, {"name": "a8a2338dd20865f46832e5e16530d51f", "lon": -77.18742183333333, "lat": 38.893526666666666, "type": "electric_bike", "fusion_lon": 0.0, "is_reserved": 0, "bike_id": "a8a2338dd20865f46832e5e16530d51f", "fusion_lat": 0.0, "is_disabled": 0, "rental_uris": {"ios": "https://dc.lft.to/lastmile_qr_scan", "android": "https://dc.lft.to/lastmile_qr_scan"}}, {"name": "b0f1131cf94e0725d4fe2aaa17aa5b9a", "lon": -77.04483266666666, "lat": 38.903782, "type": "electric_scooter", "fusion_lon": 0.0, "is_reserved": 0, "bike_id": "b0f1131cf94e0725d4fe2aaa17aa5b9a", "fusion_lat": 0.0, "is_disabled": 0, "rental_uris": {"ios": "https://dc.lft.to/lastmile_qr_scan", "android": "https://dc.lft.to/lastmile_qr_scan"}}, {"name": "2fbca4eae8f44fcc3e69093b8f1ec397", "lon": -77.02965366666666, "lat": 38.923243, "type": "electric_scooter", "fusion_lon": 0.0, "is_reserved": 0, "bike_id": "2fbca4eae8f44fcc3e69093b8f1ec397", "fusion_lat": 0.0, "is_disabled": 0, "rental_uris": {"ios": "https://dc.lft.to/lastmile_qr_scan", "android": "https://dc.lft.to/lastmile_qr_scan"}}, {"name": "99110098ad07a08f51046e867bf489bd", "lon": -77.03870866666666, "lat": 38.921525833333334, "type": "electric_scooter", "fusion_lon": 0.0, "is_reserved": 0, "bike_id": "99110098ad07a08f51046e867bf489bd", "fusion_lat": 0.0, "is_disabled": 0, "rental_uris": {"ios": "https://dc.lft.to/lastmile_qr_scan", "android": "https://dc.lft.to/lastmile_qr_scan"}}, {"name": "e81cbe0af40a199a7383cb7765c48f77", "lon": -77.0501665, "lat": 38.906258, "type": "electric_scooter", "fusion_lon": 0.0, "is_reserved": 0, "bike_id": "e81cbe0af40a199a7383cb7765c48f77", "fusion_lat": 0.0, "is_disabled": 0, "rental_uris": {"ios": "https://dc.lft.to/lastmile_qr_scan", "android": "https://dc.lft.to/lastmile_qr_scan"}}, {"name": "b6e91293c7d81227ffe271965406971b", "lon": -77.01541216666666, "lat": 38.88577983333333, "type": "electric_scooter", "fusion_lon": 0.0, "is_reserved": 0, "bike_id": "b6e91293c7d81227ffe271965406971b", "fusion_lat": 0.0, "is_disabled": 0, "rental_uris": {"ios": "https://dc.lft.to/lastmile_qr_scan", "android": "https://dc.lft.to/lastmile_qr_scan"}}, {"name": "c669287221bdbb19d248fdccec9dcc9e", "lon": -77.03822916666667, "lat": 38.92473866666667, "type": "electric_scooter", "fusion_lon": 0.0, "is_reserved": 0, "bike_id": "c669287221bdbb19d248fdccec9dcc9e", "fusion_lat": 0.0, "is_disabled": 0, "rental_uris": {"ios": "https://dc.lft.to/lastmile_qr_scan", "android": "https://dc.lft.to/lastmile_qr_scan"}}, {"name": "0eed664e3782b0770a455c756e1a75d2", "lon": -77.02950516666667, "lat": 38.90535216666667, "type": "electric_scooter", "fusion_lon": 0.0, "is_reserved": 0, "bike_id": "0eed664e3782b0770a455c756e1a75d2", "fusion_lat": 0.0, "is_disabled": 0, "rental_uris": {"ios": "https://dc.lft.to/lastmile_qr_scan", "android": "https://dc.lft.to/lastmile_qr_scan"}}, {"name": "95a61e488eb3b29da55d9e188b1e8fca", "lon": -77.06284683333334, "lat": 38.964997333333336, "type": "electric_scooter", "fusion_lon": 0.0, "is_reserved": 0, "bike_id": "95a61e488eb3b29da55d9e188b1e8fca", "fusion_lat": 0.0, "is_disabled": 0, "rental_uris": {"ios": "https://dc.lft.to/lastmile_qr_scan", "android": "https://dc.lft.to/lastmile_qr_scan"}}, {"name": "b0ce3bf61e5a65531651a1a94a100569", "lon": -77.04366483333334, "lat": 38.89220666666667, "type": "electric_scooter", "fusion_lon": 0.0, "is_reserved": 0, "bike_id": "b0ce3bf61e5a65531651a1a94a100569", "fusion_lat": 0.0, "is_disabled": 0, "rental_uris": {"ios": "https://dc.lft.to/lastmile_qr_scan", "android": "https://dc.lft.to/lastmile_qr_scan"}}, {"name": "73582eb2977810e31505151da02a2e12", "lon": -77.05877383333333, "lat": 38.942963666666664, "type": "electric_scooter", "fusion_lon": 0.0, "is_reserved": 0, "bike_id": "73582eb2977810e31505151da02a2e12", "fusion_lat": 0.0, "is_disabled": 0, "rental_uris": {"ios": "https://dc.lft.to/lastmile_qr_scan", "android": "https://dc.lft.to/lastmile_qr_scan"}}, {"name": "92e649b29c7c01d336b6a667bbca954e", "lon": -77.02192966666667, "lat": 38.908326833333334, "type": "electric_scooter", "fusion_lon": 0.0, "is_reserved": 0, "bike_id": "92e649b29c7c01d336b6a667bbca954e", "fusion_lat": 0.0, "is_disabled": 0, "rental_uris": {"ios": "https://dc.lft.to/lastmile_qr_scan", "android": "https://dc.lft.to/lastmile_qr_scan"}}, {"name": "10786c9db102618dcd40046bdf0c445c", "lon": -77.03638966666666, "lat": 38.923406166666666, "type": "electric_scooter", "fusion_lon": 0.0, "is_reserved": 0, "bike_id": "10786c9db102618dcd40046bdf0c445c", "fusion_lat": 0.0, "is_disabled": 0, "rental_uris": {"ios": "https://dc.lft.to/lastmile_qr_scan", "android": "https://dc.lft.to/lastmile_qr_scan"}}, {"name": "46ab0d9cc7a4ba789c13f31dd8a604c8", "lon": -77.03162766666667, "lat": 38.89837166666667, "type": "electric_scooter", "fusion_lon": 0.0, "is_reserved": 0, "bike_id": "46ab0d9cc7a4ba789c13f31dd8a604c8", "fusion_lat": 0.0, "is_disabled": 0, "rental_uris": {"ios": "https://dc.lft.to/lastmile_qr_scan", "android": "https://dc.lft.to/lastmile_qr_scan"}}, {"name": "9e5865e93abc585d982af79527e067a0", "lon": -77.04599983333334, "lat": 38.9026155, "type": "electric_scooter", "fusion_lon": 0.0, "is_reserved": 0, "bike_id": "9e5865e93abc585d982af79527e067a0", "fusion_lat": 0.0, "is_disabled": 0, "rental_uris": {"ios": "https://dc.lft.to/lastmile_qr_scan", "android": "https://dc.lft.to/lastmile_qr_scan"}}, {"name": "e9f19cb16271ff1b942635dbdd6d4ae2", "lon": -77.01212583333333, "lat": 38.870861166666664, "type": "electric_scooter", "fusion_lon": 0.0, "is_reserved": 0, "bike_id": "e9f19cb16271ff1b942635dbdd6d4ae2", "fusion_lat": 0.0, "is_disabled": 0, "rental_uris": {"ios": "https://dc.lft.to/lastmile_qr_scan", "android": "https://dc.lft.to/lastmile_qr_scan"}}, {"name": "48c572d2a78f8ce6661c8d7373517059", "lon": -77.04157116666667, "lat": 38.917472833333335, "type": "electric_scooter", "fusion_lon": 0.0, "is_reserved": 0, "bike_id": "48c572d2a78f8ce6661c8d7373517059", "fusion_lat": 0.0, "is_disabled": 0, "rental_uris": {"ios": "https://dc.lft.to/lastmile_qr_scan", "android": "https://dc.lft.to/lastmile_qr_scan"}}, {"name": "f7d9cf937f1c8ee723bf112b9a3c6ddd", "lon": -77.0019875, "lat": 38.90242766666667, "type": "electric_scooter", "fusion_lon": 0.0, "is_reserved": 0, "bike_id": "f7d9cf937f1c8ee723bf112b9a3c6ddd", "fusion_lat": 0.0, "is_disabled": 0, "rental_uris": {"ios": "https://dc.lft.to/lastmile_qr_scan", "android": "https://dc.lft.to/lastmile_qr_scan"}}, {"name": "e5a59641f25581ecb0988c5af277b7c4", "lon": -77.00797733333333, "lat": 38.94920316666666, "type": "electric_bike", "fusion_lon": 0.0, "is_reserved": 0, "bike_id": "e5a59641f25581ecb0988c5af277b7c4", "fusion_lat": 0.0, "is_disabled": 0, "rental_uris": {"ios": "https://dc.lft.to/lastmile_qr_scan", "android": "https://dc.lft.to/lastmile_qr_scan"}}, {"name": "ca1287b71602b13ffd1d4227259accb3", "lon": -76.997003, "lat": 38.88422933333333, "type": "electric_scooter", "fusion_lon": 0.0, "is_reserved": 0, "bike_id": "ca1287b71602b13ffd1d4227259accb3", "fusion_lat": 0.0, "is_disabled": 0, "rental_uris": {"ios": "https://dc.lft.to/lastmile_qr_scan", "android": "https://dc.lft.to/lastmile_qr_scan"}}, {"name": "1fac82d748157bdb5dafa3036a0b9aec", "lon": -76.9733995, "lat": 38.865535333333334, "type": "electric_scooter", "fusion_lon": 0.0, "is_reserved": 0, "bike_id": "1fac82d748157bdb5dafa3036a0b9aec", "fusion_lat": 0.0, "is_disabled": 0, "rental_uris": {"ios": "https://dc.lft.to/lastmile_qr_scan", "android": "https://dc.lft.to/lastmile_qr_scan"}}, {"name": "5dca743d16a81c99c93b148facd87857", "lon": -77.03493466666667, "lat": 38.924795833333334, "type": "electric_scooter", "fusion_lon": 0.0, "is_reserved": 0, "bike_id": "5dca743d16a81c99c93b148facd87857", "fusion_lat": 0.0, "is_disabled": 0, "rental_uris": {"ios": "https://dc.lft.to/lastmile_qr_scan", "android": "https://dc.lft.to/lastmile_qr_scan"}}, {"name": "a2013f6303b5cc7626649c60ec774b2b", "lon": -77.04688416666667, "lat": 39.023963, "type": "electric_bike", "fusion_lon": 0.0, "is_reserved": 0, "bike_id": "a2013f6303b5cc7626649c60ec774b2b", "fusion_lat": 0.0, "is_disabled": 0, "rental_uris": {"ios": "https://dc.lft.to/lastmile_qr_scan", "android": "https://dc.lft.to/lastmile_qr_scan"}}, {"name": "1e40a345f99c0f4b84608eaa33a99a03", "lon": -77.04427683333333, "lat": 38.90373483333333, "type": "electric_scooter", "fusion_lon": 0.0, "is_reserved": 0, "bike_id": "1e40a345f99c0f4b84608eaa33a99a03", "fusion_lat": 0.0, "is_disabled": 0, "rental_uris": {"ios": "https://dc.lft.to/lastmile_qr_scan", "android": "https://dc.lft.to/lastmile_qr_scan"}}, {"name": "44686a5a7b3a54d17122a4a50e28f093", "lon": -77.04362466666667, "lat": 38.90511216666667, "type": "electric_scooter", "fusion_lon": 0.0, "is_reserved": 0, "bike_id": "44686a5a7b3a54d17122a4a50e28f093", "fusion_lat": 0.0, "is_disabled": 0, "rental_uris": {"ios": "https://dc.lft.to/lastmile_qr_scan", "android": "https://dc.lft.to/lastmile_qr_scan"}}, {"name": "dafcfc0ff3abea01690964b0ea8e19d2", "lon": -77.0333435, "lat": 38.905686833333334, "type": "electric_scooter", "fusion_lon": 0.0, "is_reserved": 0, "bike_id": "dafcfc0ff3abea01690964b0ea8e19d2", "fusion_lat": 0.0, "is_disabled": 0, "rental_uris": {"ios": "https://dc.lft.to/lastmile_qr_scan", "android": "https://dc.lft.to/lastmile_qr_scan"}}, {"name": "a878b94657b8f4fc209a707c746c3034", "lon": -77.00495766666667, "lat": 38.897040833333335, "type": "electric_scooter", "fusion_lon": 0.0, "is_reserved": 0, "bike_id": "a878b94657b8f4fc209a707c746c3034", "fusion_lat": 0.0, "is_disabled": 0, "rental_uris": {"ios": "https://dc.lft.to/lastmile_qr_scan", "android": "https://dc.lft.to/lastmile_qr_scan"}}, {"name": "921b79a8970462cd338ef24adae099c2", "lon": -77.00876716666667, "lat": 38.91253283333333, "type": "electric_bike", "fusion_lon": 0.0, "is_reserved": 0, "bike_id": "921b79a8970462cd338ef24adae099c2", "fusion_lat": 0.0, "is_disabled": 0, "rental_uris": {"ios": "https://dc.lft.to/lastmile_qr_scan", "android": "https://dc.lft.to/lastmile_qr_scan"}}, {"name": "6c6ede3fb62496151984d90bf0734522", "lon": -77.00622883333334, "lat": 38.90580633333333, "type": "electric_scooter", "fusion_lon": 0.0, "is_reserved": 0, "bike_id": "6c6ede3fb62496151984d90bf0734522", "fusion_lat": 0.0, "is_disabled": 0, "rental_uris": {"ios": "https://dc.lft.to/lastmile_qr_scan", "android": "https://dc.lft.to/lastmile_qr_scan"}}, {"name": "a0611098d2f5a7863f67fafba97358c6", "lon": -77.01272933333334, "lat": 38.8973365, "type": "electric_scooter", "fusion_lon": 0.0, "is_reserved": 0, "bike_id": "a0611098d2f5a7863f67fafba97358c6", "fusion_lat": 0.0, "is_disabled": 0, "rental_uris": {"ios": "https://dc.lft.to/lastmile_qr_scan", "android": "https://dc.lft.to/lastmile_qr_scan"}}, {"name": "f36d2388497c58bdf6852276809b862c", "lon": -76.98505266666666, "lat": 38.910761666666666, "type": "electric_scooter", "fusion_lon": 0.0, "is_reserved": 0, "bike_id": "f36d2388497c58bdf6852276809b862c", "fusion_lat": 0.0, "is_disabled": 0, "rental_uris": {"ios": "https://dc.lft.to/lastmile_qr_scan", "android": "https://dc.lft.to/lastmile_qr_scan"}}, {"name": "b9a8ebc9280f841b6643aac9a68d174f", "lon": -76.95664083333334, "lat": 38.89409633333333, "type": "electric_scooter", "fusion_lon": 0.0, "is_reserved": 0, "bike_id": "b9a8ebc9280f841b6643aac9a68d174f", "fusion_lat": 0.0, "is_disabled": 0, "rental_uris": {"ios": "https://dc.lft.to/lastmile_qr_scan", "android": "https://dc.lft.to/lastmile_qr_scan"}}, {"name": "9fa7f3babdfccd446996d4b47d58c838", "lon": -76.96778416666666, "lat": 38.859253333333335, "type": "electric_scooter", "fusion_lon": 0.0, "is_reserved": 0, "bike_id": "9fa7f3babdfccd446996d4b47d58c838", "fusion_lat": 0.0, "is_disabled": 0, "rental_uris": {"ios": "https://dc.lft.to/lastmile_qr_scan", "android": "https://dc.lft.to/lastmile_qr_scan"}}, {"name": "d75e759646947cf9c27b81f31d342150", "lon": -77.00918583333333, "lat": 38.901798, "type": "electric_scooter", "fusion_lon": 0.0, "is_reserved": 0, "bike_id": "d75e759646947cf9c27b81f31d342150", "fusion_lat": 0.0, "is_disabled": 0, "rental_uris": {"ios": "https://dc.lft.to/lastmile_qr_scan", "android": "https://dc.lft.to/lastmile_qr_scan"}}, {"name": "eee306f20831060d3b9390f2734c6190", "lon": -77.03342516666666, "lat": 38.89746133333333, "type": "electric_scooter", "fusion_lon": 0.0, "is_reserved": 0, "bike_id": "eee306f20831060d3b9390f2734c6190", "fusion_lat": 0.0, "is_disabled": 0, "rental_uris": {"ios": "https://dc.lft.to/lastmile_qr_scan", "android": "https://dc.lft.to/lastmile_qr_scan"}}, {"name": "f9e13f5de7194a5402759c0cb878a162", "lon": -77.03187733333333, "lat": 38.913491, "type": "electric_scooter", "fusion_lon": 0.0, "is_reserved": 0, "bike_id": "f9e13f5de7194a5402759c0cb878a162", "fusion_lat": 0.0, "is_disabled": 0, "rental_uris": {"ios": "https://dc.lft.to/lastmile_qr_scan", "android": "https://dc.lft.to/lastmile_qr_scan"}}, {"name": "0e3551a859bed31b5cce123b08f4e94f", "lon": -76.99627866666667, "lat": 38.8856165, "type": "electric_scooter", "fusion_lon": 0.0, "is_reserved": 0, "bike_id": "0e3551a859bed31b5cce123b08f4e94f", "fusion_lat": 0.0, "is_disabled": 0, "rental_uris": {"ios": "https://dc.lft.to/lastmile_qr_scan", "android": "https://dc.lft.to/lastmile_qr_scan"}}, {"name": "57b258922df6102c293c46b71668101b", "lon": -77.01795883333334, "lat": 38.87675333333333, "type": "electric_scooter", "fusion_lon": 0.0, "is_reserved": 0, "bike_id": "57b258922df6102c293c46b71668101b", "fusion_lat": 0.0, "is_disabled": 0, "rental_uris": {"ios": "https://dc.lft.to/lastmile_qr_scan", "android": "https://dc.lft.to/lastmile_qr_scan"}}, {"name": "c0b3698509fa73e6f2f491b1ca4e7ee6", "lon": -76.98382533333333, "lat": 38.861204, "type": "electric_scooter", "fusion_lon": 0.0, "is_reserved": 0, "bike_id": "c0b3698509fa73e6f2f491b1ca4e7ee6", "fusion_lat": 0.0, "is_disabled": 0, "rental_uris": {"ios": "https://dc.lft.to/lastmile_qr_scan", "android": "https://dc.lft.to/lastmile_qr_scan"}}, {"name": "19685106e179378f1b0c52168f8b6239", "lon": -77.07237283333333, "lat": 38.940058, "type": "electric_scooter", "fusion_lon": 0.0, "is_reserved": 0, "bike_id": "19685106e179378f1b0c52168f8b6239", "fusion_lat": 0.0, "is_disabled": 0, "rental_uris": {"ios": "https://dc.lft.to/lastmile_qr_scan", "android": "https://dc.lft.to/lastmile_qr_scan"}}, {"name": "12f654f754e2cc837bd4d9506d9bf5f9", "lon": -77.02824316666667, "lat": 38.96077, "type": "electric_scooter", "fusion_lon": 0.0, "is_reserved": 0, "bike_id": "12f654f754e2cc837bd4d9506d9bf5f9", "fusion_lat": 0.0, "is_disabled": 0, "rental_uris": {"ios": "https://dc.lft.to/lastmile_qr_scan", "android": "https://dc.lft.to/lastmile_qr_scan"}}, {"name": "298c460434215fd39892716dda9a1913", "lon": -76.99519133333334, "lat": 38.895432666666665, "type": "electric_scooter", "fusion_lon": 0.0, "is_reserved": 0, "bike_id": "298c460434215fd39892716dda9a1913", "fusion_lat": 0.0, "is_disabled": 0, "rental_uris": {"ios": "https://dc.lft.to/lastmile_qr_scan", "android": "https://dc.lft.to/lastmile_qr_scan"}}, {"name": "63ea336f460cd4e86d81d8aee76975d6", "lon": -77.01762333333333, "lat": 38.890803166666664, "type": "electric_scooter", "fusion_lon": 0.0, "is_reserved": 0, "bike_id": "63ea336f460cd4e86d81d8aee76975d6", "fusion_lat": 0.0, "is_disabled": 0, "rental_uris": {"ios": "https://dc.lft.to/lastmile_qr_scan", "android": "https://dc.lft.to/lastmile_qr_scan"}}, {"name": "e7e6a640de7e74ae1c6068d15a8c6504", "lon": -77.00913583333333, "lat": 38.9066585, "type": "electric_scooter", "fusion_lon": 0.0, "is_reserved": 0, "bike_id": "e7e6a640de7e74ae1c6068d15a8c6504", "fusion_lat": 0.0, "is_disabled": 0, "rental_uris": {"ios": "https://dc.lft.to/lastmile_qr_scan", "android": "https://dc.lft.to/lastmile_qr_scan"}}, {"name": "cfd974384639c29394f5cd35c23f3520", "lon": -77.02331366666667, "lat": 38.92887616666667, "type": "electric_scooter", "fusion_lon": 0.0, "is_reserved": 0, "bike_id": "cfd974384639c29394f5cd35c23f3520", "fusion_lat": 0.0, "is_disabled": 0, "rental_uris": {"ios": "https://dc.lft.to/lastmile_qr_scan", "android": "https://dc.lft.to/lastmile_qr_scan"}}, {"name": "cc6a20a569f9f1edd0b31efe164506de", "lon": -77.04169916666666, "lat": 38.919813166666664, "type": "electric_scooter", "fusion_lon": 0.0, "is_reserved": 0, "bike_id": "cc6a20a569f9f1edd0b31efe164506de", "fusion_lat": 0.0, "is_disabled": 0, "rental_uris": {"ios": "https://dc.lft.to/lastmile_qr_scan", "android": "https://dc.lft.to/lastmile_qr_scan"}}, {"name": "ec4785fc65f6a44385cf1e91b92e47b5", "lon": -77.05658966666667, "lat": 38.905279, "type": "electric_scooter", "fusion_lon": 0.0, "is_reserved": 0, "bike_id": "ec4785fc65f6a44385cf1e91b92e47b5", "fusion_lat": 0.0, "is_disabled": 0, "rental_uris": {"ios": "https://dc.lft.to/lastmile_qr_scan", "android": "https://dc.lft.to/lastmile_qr_scan"}}, {"name": "785dcca60abcf1d5ed67569e742204af", "lon": -76.93159583333333, "lat": 38.89875466666667, "type": "electric_scooter", "fusion_lon": 0.0, "is_reserved": 0, "bike_id": "785dcca60abcf1d5ed67569e742204af", "fusion_lat": 0.0, "is_disabled": 0, "rental_uris": {"ios": "https://dc.lft.to/lastmile_qr_scan", "android": "https://dc.lft.to/lastmile_qr_scan"}}, {"name": "a06cbe7fcd1685e1114dccea7d5bbe61", "lon": -77.01940283333333, "lat": 38.94698916666667, "type": "electric_scooter", "fusion_lon": 0.0, "is_reserved": 0, "bike_id": "a06cbe7fcd1685e1114dccea7d5bbe61", "fusion_lat": 0.0, "is_disabled": 0, "rental_uris": {"ios": "https://dc.lft.to/lastmile_qr_scan", "android": "https://dc.lft.to/lastmile_qr_scan"}}, {"name": "e9547263092a7a5d5370526e8462a7d5", "lon": -77.0024515, "lat": 38.902660833333336, "type": "electric_scooter", "fusion_lon": 0.0, "is_reserved": 0, "bike_id": "e9547263092a7a5d5370526e8462a7d5", "fusion_lat": 0.0, "is_disabled": 0, "rental_uris": {"ios": "https://dc.lft.to/lastmile_qr_scan", "android": "https://dc.lft.to/lastmile_qr_scan"}}, {"name": "b82cc40c9c82220c4bf6a5043f66869e", "lon": -77.03657766666667, "lat": 38.923071, "type": "electric_scooter", "fusion_lon": 0.0, "is_reserved": 0, "bike_id": "b82cc40c9c82220c4bf6a5043f66869e", "fusion_lat": 0.0, "is_disabled": 0, "rental_uris": {"ios": "https://dc.lft.to/lastmile_qr_scan", "android": "https://dc.lft.to/lastmile_qr_scan"}}, {"name": "1bd3b709477049dea766fc6a3bf988dc", "lon": -76.92738633333333, "lat": 38.889655833333336, "type": "electric_scooter", "fusion_lon": 0.0, "is_reserved": 0, "bike_id": "1bd3b709477049dea766fc6a3bf988dc", "fusion_lat": 0.0, "is_disabled": 0, "rental_uris": {"ios": "https://dc.lft.to/lastmile_qr_scan", "android": "https://dc.lft.to/lastmile_qr_scan"}}, {"name": "80e909c96a2ee93332653dd06eff1c85", "lon": -77.046741, "lat": 38.895542166666665, "type": "electric_scooter", "fusion_lon": 0.0, "is_reserved": 0, "bike_id": "80e909c96a2ee93332653dd06eff1c85", "fusion_lat": 0.0, "is_disabled": 0, "rental_uris": {"ios": "https://dc.lft.to/lastmile_qr_scan", "android": "https://dc.lft.to/lastmile_qr_scan"}}, {"name": "62ade77299fe7ea1eed346dd878a8613", "lon": -77.07369916666667, "lat": 38.933571666666666, "type": "electric_scooter", "fusion_lon": 0.0, "is_reserved": 0, "bike_id": "62ade77299fe7ea1eed346dd878a8613", "fusion_lat": 0.0, "is_disabled": 0, "rental_uris": {"ios": "https://dc.lft.to/lastmile_qr_scan", "android": "https://dc.lft.to/lastmile_qr_scan"}}, {"name": "d855e52c2d01e68b1aa8efef1994930e", "lon": -77.05038316666666, "lat": 38.923556, "type": "electric_scooter", "fusion_lon": 0.0, "is_reserved": 0, "bike_id": "d855e52c2d01e68b1aa8efef1994930e", "fusion_lat": 0.0, "is_disabled": 0, "rental_uris": {"ios": "https://dc.lft.to/lastmile_qr_scan", "android": "https://dc.lft.to/lastmile_qr_scan"}}, {"name": "c2ffde0e6cfc650e146d30eda015e4d3", "lon": -76.98516616666667, "lat": 38.866674333333336, "type": "electric_scooter", "fusion_lon": 0.0, "is_reserved": 0, "bike_id": "c2ffde0e6cfc650e146d30eda015e4d3", "fusion_lat": 0.0, "is_disabled": 0, "rental_uris": {"ios": "https://dc.lft.to/lastmile_qr_scan", "android": "https://dc.lft.to/lastmile_qr_scan"}}, {"name": "c70d7ba835cd6050b342d35a11aadf7f", "lon": -77.04352233333333, "lat": 38.9025245, "type": "electric_scooter", "fusion_lon": 0.0, "is_reserved": 0, "bike_id": "c70d7ba835cd6050b342d35a11aadf7f", "fusion_lat": 0.0, "is_disabled": 0, "rental_uris": {"ios": "https://dc.lft.to/lastmile_qr_scan", "android": "https://dc.lft.to/lastmile_qr_scan"}}, {"name": "bc864fe94dfdb785198683a29ecb5612", "lon": -77.03178433333333, "lat": 38.897412, "type": "electric_scooter", "fusion_lon": 0.0, "is_reserved": 0, "bike_id": "bc864fe94dfdb785198683a29ecb5612", "fusion_lat": 0.0, "is_disabled": 0, "rental_uris": {"ios": "https://dc.lft.to/lastmile_qr_scan", "android": "https://dc.lft.to/lastmile_qr_scan"}}, {"name": "632d612549f6af545ca050e0dabba6f3", "lon": -77.0306275, "lat": 38.9236585, "type": "electric_scooter", "fusion_lon": 0.0, "is_reserved": 0, "bike_id": "632d612549f6af545ca050e0dabba6f3", "fusion_lat": 0.0, "is_disabled": 0, "rental_uris": {"ios": "https://dc.lft.to/lastmile_qr_scan", "android": "https://dc.lft.to/lastmile_qr_scan"}}, {"name": "9c1d1aebf6cb1ffb5580b226109eadc2", "lon": -77.0465245, "lat": 38.904175333333335, "type": "electric_scooter", "fusion_lon": 0.0, "is_reserved": 0, "bike_id": "9c1d1aebf6cb1ffb5580b226109eadc2", "fusion_lat": 0.0, "is_disabled": 0, "rental_uris": {"ios": "https://dc.lft.to/lastmile_qr_scan", "android": "https://dc.lft.to/lastmile_qr_scan"}}, {"name": "53a7d8ee67753731df1e0b57aae98a83", "lon": -77.042535, "lat": 38.9206295, "type": "electric_scooter", "fusion_lon": 0.0, "is_reserved": 0, "bike_id": "53a7d8ee67753731df1e0b57aae98a83", "fusion_lat": 0.0, "is_disabled": 0, "rental_uris": {"ios": "https://dc.lft.to/lastmile_qr_scan", "android": "https://dc.lft.to/lastmile_qr_scan"}}, {"name": "4065a5ca4742b70435e5a956a19b8560", "lon": -77.0461965, "lat": 38.9192415, "type": "electric_scooter", "fusion_lon": 0.0, "is_reserved": 0, "bike_id": "4065a5ca4742b70435e5a956a19b8560", "fusion_lat": 0.0, "is_disabled": 0, "rental_uris": {"ios": "https://dc.lft.to/lastmile_qr_scan", "android": "https://dc.lft.to/lastmile_qr_scan"}}, {"name": "1aa813be873a71e6cab60092e23a2c91", "lon": -77.0270305, "lat": 38.897166, "type": "electric_scooter", "fusion_lon": 0.0, "is_reserved": 0, "bike_id": "1aa813be873a71e6cab60092e23a2c91", "fusion_lat": 0.0, "is_disabled": 0, "rental_uris": {"ios": "https://dc.lft.to/lastmile_qr_scan", "android": "https://dc.lft.to/lastmile_qr_scan"}}, {"name": "88dd03499d87ad662c0c08cdce69443b", "lon": -77.0866155, "lat": 38.934755, "type": "electric_scooter", "fusion_lon": 0.0, "is_reserved": 0, "bike_id": "88dd03499d87ad662c0c08cdce69443b", "fusion_lat": 0.0, "is_disabled": 0, "rental_uris": {"ios": "https://dc.lft.to/lastmile_qr_scan", "android": "https://dc.lft.to/lastmile_qr_scan"}}, {"name": "718a103a9bf513f7a42bc14c5869f138", "lon": -77.0727065, "lat": 38.93480116666667, "type": "electric_scooter", "fusion_lon": 0.0, "is_reserved": 0, "bike_id": "718a103a9bf513f7a42bc14c5869f138", "fusion_lat": 0.0, "is_disabled": 0, "rental_uris": {"ios": "https://dc.lft.to/lastmile_qr_scan", "android": "https://dc.lft.to/lastmile_qr_scan"}}, {"name": "bc8d9223e773c2603f801a58e96f4c4c", "lon": -77.04361233333333, "lat": 38.906265, "type": "electric_scooter", "fusion_lon": 0.0, "is_reserved": 0, "bike_id": "bc8d9223e773c2603f801a58e96f4c4c", "fusion_lat": 0.0, "is_disabled": 0, "rental_uris": {"ios": "https://dc.lft.to/lastmile_qr_scan", "android": "https://dc.lft.to/lastmile_qr_scan"}}, {"name": "fefaea5c8ccee4bed82ea4d184f6957f", "lon": -77.06172, "lat": 38.90528883333333, "type": "electric_bike", "fusion_lon": 0.0, "is_reserved": 0, "bike_id": "fefaea5c8ccee4bed82ea4d184f6957f", "fusion_lat": 0.0, "is_disabled": 0, "rental_uris": {"ios": "https://dc.lft.to/lastmile_qr_scan", "android": "https://dc.lft.to/lastmile_qr_scan"}}, {"name": "1a3885fa5c5ed7985f59b748c4148b21", "lon": -77.05740733333333, "lat": 38.933874833333334, "type": "electric_scooter", "fusion_lon": 0.0, "is_reserved": 0, "bike_id": "1a3885fa5c5ed7985f59b748c4148b21", "fusion_lat": 0.0, "is_disabled": 0, "rental_uris": {"ios": "https://dc.lft.to/lastmile_qr_scan", "android": "https://dc.lft.to/lastmile_qr_scan"}}, {"name": "47feaaec7f0d414c5a70243184147bc9", "lon": -77.05216716666666, "lat": 38.92483583333333, "type": "electric_scooter", "fusion_lon": 0.0, "is_reserved": 0, "bike_id": "47feaaec7f0d414c5a70243184147bc9", "fusion_lat": 0.0, "is_disabled": 0, "rental_uris": {"ios": "https://dc.lft.to/lastmile_qr_scan", "android": "https://dc.lft.to/lastmile_qr_scan"}}, {"name": "b7ec26bc3a2fae75969c016f85c79a74", "lon": -76.94877266666667, "lat": 38.89547983333333, "type": "electric_scooter", "fusion_lon": 0.0, "is_reserved": 0, "bike_id": "b7ec26bc3a2fae75969c016f85c79a74", "fusion_lat": 0.0, "is_disabled": 0, "rental_uris": {"ios": "https://dc.lft.to/lastmile_qr_scan", "android": "https://dc.lft.to/lastmile_qr_scan"}}, {"name": "8dfa1a4a678f9dfd0089ace8f3e3b74a", "lon": -77.07332383333333, "lat": 38.92606383333333, "type": "electric_scooter", "fusion_lon": 0.0, "is_reserved": 0, "bike_id": "8dfa1a4a678f9dfd0089ace8f3e3b74a", "fusion_lat": 0.0, "is_disabled": 0, "rental_uris": {"ios": "https://dc.lft.to/lastmile_qr_scan", "android": "https://dc.lft.to/lastmile_qr_scan"}}, {"name": "92b6d8135409d167727e76437814a500", "lon": -76.9937885, "lat": 38.971863666666664, "type": "electric_bike", "fusion_lon": 0.0, "is_reserved": 0, "bike_id": "92b6d8135409d167727e76437814a500", "fusion_lat": 0.0, "is_disabled": 0, "rental_uris": {"ios": "https://dc.lft.to/lastmile_qr_scan", "android": "https://dc.lft.to/lastmile_qr_scan"}}, {"name": "dad9f5a459dd347c8d5d0ef72ebb61d4", "lon": -77.02487133333334, "lat": 38.937528666666665, "type": "electric_scooter", "fusion_lon": 0.0, "is_reserved": 0, "bike_id": "dad9f5a459dd347c8d5d0ef72ebb61d4", "fusion_lat": 0.0, "is_disabled": 0, "rental_uris": {"ios": "https://dc.lft.to/lastmile_qr_scan", "android": "https://dc.lft.to/lastmile_qr_scan"}}, {"name": "5602ac04c4a7a9371b74ff6f64bc5178", "lon": -77.03265566666667, "lat": 38.938899166666666, "type": "electric_scooter", "fusion_lon": 0.0, "is_reserved": 0, "bike_id": "5602ac04c4a7a9371b74ff6f64bc5178", "fusion_lat": 0.0, "is_disabled": 0, "rental_uris": {"ios": "https://dc.lft.to/lastmile_qr_scan", "android": "https://dc.lft.to/lastmile_qr_scan"}}, {"name": "dd40dd494e4a369fbeeeaf4b640fc128", "lon": -77.02296566666666, "lat": 38.916039833333336, "type": "electric_scooter", "fusion_lon": 0.0, "is_reserved": 0, "bike_id": "dd40dd494e4a369fbeeeaf4b640fc128", "fusion_lat": 0.0, "is_disabled": 0, "rental_uris": {"ios": "https://dc.lft.to/lastmile_qr_scan", "android": "https://dc.lft.to/lastmile_qr_scan"}}, {"name": "6fb1ab1705bd929c9f7a1a38227f410d", "lon": -77.0220355, "lat": 38.878922833333334, "type": "electric_scooter", "fusion_lon": 0.0, "is_reserved": 0, "bike_id": "6fb1ab1705bd929c9f7a1a38227f410d", "fusion_lat": 0.0, "is_disabled": 0, "rental_uris": {"ios": "https://dc.lft.to/lastmile_qr_scan", "android": "https://dc.lft.to/lastmile_qr_scan"}}, {"name": "d0db883de61f09dfb1331dd2b9d71f27", "lon": -76.9887565, "lat": 38.9003075, "type": "electric_scooter", "fusion_lon": 0.0, "is_reserved": 0, "bike_id": "d0db883de61f09dfb1331dd2b9d71f27", "fusion_lat": 0.0, "is_disabled": 0, "rental_uris": {"ios": "https://dc.lft.to/lastmile_qr_scan", "android": "https://dc.lft.to/lastmile_qr_scan"}}, {"name": "8105480552981b4c31fd5f1fb7f428e7", "lon": -77.070345, "lat": 38.906347, "type": "electric_scooter", "fusion_lon": 0.0, "is_reserved": 0, "bike_id": "8105480552981b4c31fd5f1fb7f428e7", "fusion_lat": 0.0, "is_disabled": 0, "rental_uris": {"ios": "https://dc.lft.to/lastmile_qr_scan", "android": "https://dc.lft.to/lastmile_qr_scan"}}, {"name": "6ece595642bc18bd1ffebc3a72032f04", "lon": -77.03637766666667, "lat": 38.92747583333333, "type": "electric_scooter", "fusion_lon": 0.0, "is_reserved": 0, "bike_id": "6ece595642bc18bd1ffebc3a72032f04", "fusion_lat": 0.0, "is_disabled": 0, "rental_uris": {"ios": "https://dc.lft.to/lastmile_qr_scan", "android": "https://dc.lft.to/lastmile_qr_scan"}}, {"name": "846a95c3a6576f747bf12a3340282743", "lon": -77.0260065, "lat": 38.916927, "type": "electric_scooter", "fusion_lon": 0.0, "is_reserved": 0, "bike_id": "846a95c3a6576f747bf12a3340282743", "fusion_lat": 0.0, "is_disabled": 0, "rental_uris": {"ios": "https://dc.lft.to/lastmile_qr_scan", "android": "https://dc.lft.to/lastmile_qr_scan"}}, {"name": "60322408c557276fd93417fa823e4078", "lon": -77.1124275, "lat": 38.856432166666664, "type": "electric_bike", "fusion_lon": 0.0, "is_reserved": 0, "bike_id": "60322408c557276fd93417fa823e4078", "fusion_lat": 0.0, "is_disabled": 0, "rental_uris": {"ios": "https://dc.lft.to/lastmile_qr_scan", "android": "https://dc.lft.to/lastmile_qr_scan"}}, {"name": "98d0899e24a7ccde739f1b0d816ec4f8", "lon": -76.931989, "lat": 38.89877383333334, "type": "electric_scooter", "fusion_lon": 0.0, "is_reserved": 0, "bike_id": "98d0899e24a7ccde739f1b0d816ec4f8", "fusion_lat": 0.0, "is_disabled": 0, "rental_uris": {"ios": "https://dc.lft.to/lastmile_qr_scan", "android": "https://dc.lft.to/lastmile_qr_scan"}}, {"name": "907dda4abec4bba0d1401e558e4bcaa8", "lon": -77.1273145, "lat": 38.89561066666667, "type": "electric_bike", "fusion_lon": 0.0, "is_reserved": 0, "bike_id": "907dda4abec4bba0d1401e558e4bcaa8", "fusion_lat": 0.0, "is_disabled": 0, "rental_uris": {"ios": "https://dc.lft.to/lastmile_qr_scan", "android": "https://dc.lft.to/lastmile_qr_scan"}}, {"name": "e109de9f6c22c15efe6a381a19b615ec", "lon": -77.02697883333333, "lat": 38.9287475, "type": "electric_scooter", "fusion_lon": 0.0, "is_reserved": 0, "bike_id": "e109de9f6c22c15efe6a381a19b615ec", "fusion_lat": 0.0, "is_disabled": 0, "rental_uris": {"ios": "https://dc.lft.to/lastmile_qr_scan", "android": "https://dc.lft.to/lastmile_qr_scan"}}, {"name": "cb0681f6ac3a12447bddd6baf8f526f9", "lon": -77.03265466666667, "lat": 38.93524416666666, "type": "electric_scooter", "fusion_lon": 0.0, "is_reserved": 0, "bike_id": "cb0681f6ac3a12447bddd6baf8f526f9", "fusion_lat": 0.0, "is_disabled": 0, "rental_uris": {"ios": "https://dc.lft.to/lastmile_qr_scan", "android": "https://dc.lft.to/lastmile_qr_scan"}}, {"name": "f0bb56ada862fc844491f2ec65375cab", "lon": -77.029385, "lat": 38.899477833333336, "type": "electric_scooter", "fusion_lon": 0.0, "is_reserved": 0, "bike_id": "f0bb56ada862fc844491f2ec65375cab", "fusion_lat": 0.0, "is_disabled": 0, "rental_uris": {"ios": "https://dc.lft.to/lastmile_qr_scan", "android": "https://dc.lft.to/lastmile_qr_scan"}}, {"name": "a4921ef392946359abc08ab19d8b4f59", "lon": -76.99905166666667, "lat": 38.94815233333333, "type": "electric_scooter", "fusion_lon": 0.0, "is_reserved": 0, "bike_id": "a4921ef392946359abc08ab19d8b4f59", "fusion_lat": 0.0, "is_disabled": 0, "rental_uris": {"ios": "https://dc.lft.to/lastmile_qr_scan", "android": "https://dc.lft.to/lastmile_qr_scan"}}, {"name": "f5ab44922d6940c563b933d7d3831b0f", "lon": -77.023755, "lat": 38.8867115, "type": "electric_scooter", "fusion_lon": 0.0, "is_reserved": 0, "bike_id": "f5ab44922d6940c563b933d7d3831b0f", "fusion_lat": 0.0, "is_disabled": 0, "rental_uris": {"ios": "https://dc.lft.to/lastmile_qr_scan", "android": "https://dc.lft.to/lastmile_qr_scan"}}, {"name": "4335541932ca13fd2d75e833c5e05b53", "lon": -77.0669715, "lat": 38.8317945, "type": "electric_bike", "fusion_lon": 0.0, "is_reserved": 0, "bike_id": "4335541932ca13fd2d75e833c5e05b53", "fusion_lat": 0.0, "is_disabled": 0, "rental_uris": {"ios": "https://dc.lft.to/lastmile_qr_scan", "android": "https://dc.lft.to/lastmile_qr_scan"}}, {"name": "2d9a2081fe0e20b24fb90fa152e250d9", "lon": -77.0022985, "lat": 38.924716833333335, "type": "electric_scooter", "fusion_lon": 0.0, "is_reserved": 0, "bike_id": "2d9a2081fe0e20b24fb90fa152e250d9", "fusion_lat": 0.0, "is_disabled": 0, "rental_uris": {"ios": "https://dc.lft.to/lastmile_qr_scan", "android": "https://dc.lft.to/lastmile_qr_scan"}}, {"name": "672cf958607fcb799d838eab4a90aa65", "lon": -77.03866333333333, "lat": 38.905856166666666, "type": "electric_scooter", "fusion_lon": 0.0, "is_reserved": 0, "bike_id": "672cf958607fcb799d838eab4a90aa65", "fusion_lat": 0.0, "is_disabled": 0, "rental_uris": {"ios": "https://dc.lft.to/lastmile_qr_scan", "android": "https://dc.lft.to/lastmile_qr_scan"}}, {"name": "d428fa2a83406cc9709d7f6779e2e070", "lon": -77.03963533333334, "lat": 38.90001683333333, "type": "electric_scooter", "fusion_lon": 0.0, "is_reserved": 0, "bike_id": "d428fa2a83406cc9709d7f6779e2e070", "fusion_lat": 0.0, "is_disabled": 0, "rental_uris": {"ios": "https://dc.lft.to/lastmile_qr_scan", "android": "https://dc.lft.to/lastmile_qr_scan"}}, {"name": "616813aace63122741e3fc7fb9bc6c7c", "lon": -77.03394583333333, "lat": 38.930730833333335, "type": "electric_scooter", "fusion_lon": 0.0, "is_reserved": 0, "bike_id": "616813aace63122741e3fc7fb9bc6c7c", "fusion_lat": 0.0, "is_disabled": 0, "rental_uris": {"ios": "https://dc.lft.to/lastmile_qr_scan", "android": "https://dc.lft.to/lastmile_qr_scan"}}, {"name": "b74831d6726787420092bdca8504e6bc", "lon": -76.91913116666667, "lat": 38.885773666666665, "type": "electric_scooter", "fusion_lon": 0.0, "is_reserved": 0, "bike_id": "b74831d6726787420092bdca8504e6bc", "fusion_lat": 0.0, "is_disabled": 0, "rental_uris": {"ios": "https://dc.lft.to/lastmile_qr_scan", "android": "https://dc.lft.to/lastmile_qr_scan"}}, {"name": "d055b2d2c73e09c9011089210a785bd1", "lon": -76.94584133333333, "lat": 38.93743816666667, "type": "electric_bike", "fusion_lon": 0.0, "is_reserved": 0, "bike_id": "d055b2d2c73e09c9011089210a785bd1", "fusion_lat": 0.0, "is_disabled": 0, "rental_uris": {"ios": "https://dc.lft.to/lastmile_qr_scan", "android": "https://dc.lft.to/lastmile_qr_scan"}}, {"name": "37a19eeb2b30213004072a2c2f1a27ba", "lon": -77.02280933333333, "lat": 38.90959016666667, "type": "electric_scooter", "fusion_lon": 0.0, "is_reserved": 0, "bike_id": "37a19eeb2b30213004072a2c2f1a27ba", "fusion_lat": 0.0, "is_disabled": 0, "rental_uris": {"ios": "https://dc.lft.to/lastmile_qr_scan", "android": "https://dc.lft.to/lastmile_qr_scan"}}, {"name": "516307d485038caac44eb2e0d01a43b4", "lon": -77.04667183333333, "lat": 38.9056325, "type": "electric_scooter", "fusion_lon": 0.0, "is_reserved": 0, "bike_id": "516307d485038caac44eb2e0d01a43b4", "fusion_lat": 0.0, "is_disabled": 0, "rental_uris": {"ios": "https://dc.lft.to/lastmile_qr_scan", "android": "https://dc.lft.to/lastmile_qr_scan"}}, {"name": "f1add542201021d3dfd080b56c919594", "lon": -77.03237216666666, "lat": 38.9096405, "type": "electric_scooter", "fusion_lon": 0.0, "is_reserved": 0, "bike_id": "f1add542201021d3dfd080b56c919594", "fusion_lat": 0.0, "is_disabled": 0, "rental_uris": {"ios": "https://dc.lft.to/lastmile_qr_scan", "android": "https://dc.lft.to/lastmile_qr_scan"}}, {"name": "1761706eb3561b42737997bce8c0bcf2", "lon": -77.03496916666667, "lat": 38.924784, "type": "electric_scooter", "fusion_lon": 0.0, "is_reserved": 0, "bike_id": "1761706eb3561b42737997bce8c0bcf2", "fusion_lat": 0.0, "is_disabled": 0, "rental_uris": {"ios": "https://dc.lft.to/lastmile_qr_scan", "android": "https://dc.lft.to/lastmile_qr_scan"}}, {"name": "16daefaff6ccd7456e25e90ee3ba0eca", "lon": -77.0072095, "lat": 38.89893166666667, "type": "electric_scooter", "fusion_lon": 0.0, "is_reserved": 0, "bike_id": "16daefaff6ccd7456e25e90ee3ba0eca", "fusion_lat": 0.0, "is_disabled": 0, "rental_uris": {"ios": "https://dc.lft.to/lastmile_qr_scan", "android": "https://dc.lft.to/lastmile_qr_scan"}}, {"name": "62e366cfd80a2922cfe365fee73a1af7", "lon": -77.03188066666667, "lat": 38.910997, "type": "electric_scooter", "fusion_lon": 0.0, "is_reserved": 0, "bike_id": "62e366cfd80a2922cfe365fee73a1af7", "fusion_lat": 0.0, "is_disabled": 0, "rental_uris": {"ios": "https://dc.lft.to/lastmile_qr_scan", "android": "https://dc.lft.to/lastmile_qr_scan"}}, {"name": "1f68dbd39102ab117f039ab72fc832c9", "lon": -77.06409333333333, "lat": 38.913090333333336, "type": "electric_scooter", "fusion_lon": 0.0, "is_reserved": 0, "bike_id": "1f68dbd39102ab117f039ab72fc832c9", "fusion_lat": 0.0, "is_disabled": 0, "rental_uris": {"ios": "https://dc.lft.to/lastmile_qr_scan", "android": "https://dc.lft.to/lastmile_qr_scan"}}, {"name": "86a6e8ead87b8f19a499b639065a8704", "lon": -77.0359735, "lat": 38.93303383333333, "type": "electric_bike", "fusion_lon": 0.0, "is_reserved": 0, "bike_id": "86a6e8ead87b8f19a499b639065a8704", "fusion_lat": 0.0, "is_disabled": 0, "rental_uris": {"ios": "https://dc.lft.to/lastmile_qr_scan", "android": "https://dc.lft.to/lastmile_qr_scan"}}, {"name": "81d563abd291df073349924c33b52e33", "lon": -77.0438745, "lat": 38.90387066666667, "type": "electric_scooter", "fusion_lon": 0.0, "is_reserved": 0, "bike_id": "81d563abd291df073349924c33b52e33", "fusion_lat": 0.0, "is_disabled": 0, "rental_uris": {"ios": "https://dc.lft.to/lastmile_qr_scan", "android": "https://dc.lft.to/lastmile_qr_scan"}}, {"name": "98781f53344d0ae91c6dd2c76d31f38c", "lon": -77.016652, "lat": 38.92061983333333, "type": "electric_scooter", "fusion_lon": 0.0, "is_reserved": 0, "bike_id": "98781f53344d0ae91c6dd2c76d31f38c", "fusion_lat": 0.0, "is_disabled": 0, "rental_uris": {"ios": "https://dc.lft.to/lastmile_qr_scan", "android": "https://dc.lft.to/lastmile_qr_scan"}}, {"name": "5e0ea6f708f4c75b59cf49db57454baf", "lon": -77.02114766666666, "lat": 38.921687666666664, "type": "electric_scooter", "fusion_lon": 0.0, "is_reserved": 0, "bike_id": "5e0ea6f708f4c75b59cf49db57454baf", "fusion_lat": 0.0, "is_disabled": 0, "rental_uris": {"ios": "https://dc.lft.to/lastmile_qr_scan", "android": "https://dc.lft.to/lastmile_qr_scan"}}, {"name": "de97815218d4615900911877dfe23fbf", "lon": -77.03544166666667, "lat": 38.92705733333333, "type": "electric_scooter", "fusion_lon": 0.0, "is_reserved": 0, "bike_id": "de97815218d4615900911877dfe23fbf", "fusion_lat": 0.0, "is_disabled": 0, "rental_uris": {"ios": "https://dc.lft.to/lastmile_qr_scan", "android": "https://dc.lft.to/lastmile_qr_scan"}}, {"name": "63c410e32a418cd6723cd86efc05c262", "lon": -77.043657, "lat": 38.9040745, "type": "electric_scooter", "fusion_lon": 0.0, "is_reserved": 0, "bike_id": "63c410e32a418cd6723cd86efc05c262", "fusion_lat": 0.0, "is_disabled": 0, "rental_uris": {"ios": "https://dc.lft.to/lastmile_qr_scan", "android": "https://dc.lft.to/lastmile_qr_scan"}}, {"name": "3fe07766d391d99baaeb4e507538ebf3", "lon": -76.98360816666667, "lat": 38.91545833333333, "type": "electric_scooter", "fusion_lon": 0.0, "is_reserved": 0, "bike_id": "3fe07766d391d99baaeb4e507538ebf3", "fusion_lat": 0.0, "is_disabled": 0, "rental_uris": {"ios": "https://dc.lft.to/lastmile_qr_scan", "android": "https://dc.lft.to/lastmile_qr_scan"}}, {"name": "72dc7354c93344f3ba52b75afcd437eb", "lon": -77.02485616666667, "lat": 38.93866966666667, "type": "electric_scooter", "fusion_lon": 0.0, "is_reserved": 0, "bike_id": "72dc7354c93344f3ba52b75afcd437eb", "fusion_lat": 0.0, "is_disabled": 0, "rental_uris": {"ios": "https://dc.lft.to/lastmile_qr_scan", "android": "https://dc.lft.to/lastmile_qr_scan"}}, {"name": "78dc01999e46b942a45184563d9964b7", "lon": -77.05241116666667, "lat": 38.92360083333333, "type": "electric_scooter", "fusion_lon": 0.0, "is_reserved": 0, "bike_id": "78dc01999e46b942a45184563d9964b7", "fusion_lat": 0.0, "is_disabled": 0, "rental_uris": {"ios": "https://dc.lft.to/lastmile_qr_scan", "android": "https://dc.lft.to/lastmile_qr_scan"}}, {"name": "55031432d144445f79bc3cf4c19481c8", "lon": -77.02794566666667, "lat": 38.954101333333334, "type": "electric_scooter", "fusion_lon": 0.0, "is_reserved": 0, "bike_id": "55031432d144445f79bc3cf4c19481c8", "fusion_lat": 0.0, "is_disabled": 0, "rental_uris": {"ios": "https://dc.lft.to/lastmile_qr_scan", "android": "https://dc.lft.to/lastmile_qr_scan"}}, {"name": "abf78451d6d75fd1082cc96368c6e41a", "lon": -77.002096, "lat": 38.895444166666664, "type": "electric_scooter", "fusion_lon": 0.0, "is_reserved": 0, "bike_id": "abf78451d6d75fd1082cc96368c6e41a", "fusion_lat": 0.0, "is_disabled": 0, "rental_uris": {"ios": "https://dc.lft.to/lastmile_qr_scan", "android": "https://dc.lft.to/lastmile_qr_scan"}}, {"name": "92721fc681874606e813d99c670844a1", "lon": -77.0272095, "lat": 38.91667266666666, "type": "electric_scooter", "fusion_lon": 0.0, "is_reserved": 0, "bike_id": "92721fc681874606e813d99c670844a1", "fusion_lat": 0.0, "is_disabled": 0, "rental_uris": {"ios": "https://dc.lft.to/lastmile_qr_scan", "android": "https://dc.lft.to/lastmile_qr_scan"}}, {"name": "caa73629cb0bb13addd25a6703db42d5", "lon": -77.03454233333333, "lat": 38.9215265, "type": "electric_scooter", "fusion_lon": 0.0, "is_reserved": 0, "bike_id": "caa73629cb0bb13addd25a6703db42d5", "fusion_lat": 0.0, "is_disabled": 0, "rental_uris": {"ios": "https://dc.lft.to/lastmile_qr_scan", "android": "https://dc.lft.to/lastmile_qr_scan"}}, {"name": "f96b7f10709489c213cc59b0a057a52d", "lon": -77.038308, "lat": 38.90720966666667, "type": "electric_scooter", "fusion_lon": 0.0, "is_reserved": 0, "bike_id": "f96b7f10709489c213cc59b0a057a52d", "fusion_lat": 0.0, "is_disabled": 0, "rental_uris": {"ios": "https://dc.lft.to/lastmile_qr_scan", "android": "https://dc.lft.to/lastmile_qr_scan"}}, {"name": "4566e12cbcb92a7100cf9f35b77faab0", "lon": -77.04330683333333, "lat": 38.892226, "type": "electric_scooter", "fusion_lon": 0.0, "is_reserved": 0, "bike_id": "4566e12cbcb92a7100cf9f35b77faab0", "fusion_lat": 0.0, "is_disabled": 0, "rental_uris": {"ios": "https://dc.lft.to/lastmile_qr_scan", "android": "https://dc.lft.to/lastmile_qr_scan"}}, {"name": "7bf5ec32df6d0b4128b0b63ae9e369b5", "lon": -76.98876316666667, "lat": 38.90032083333333, "type": "electric_scooter", "fusion_lon": 0.0, "is_reserved": 0, "bike_id": "7bf5ec32df6d0b4128b0b63ae9e369b5", "fusion_lat": 0.0, "is_disabled": 0, "rental_uris": {"ios": "https://dc.lft.to/lastmile_qr_scan", "android": "https://dc.lft.to/lastmile_qr_scan"}}, {"name": "cf77b86596d31a7b14424cf2f42df915", "lon": -77.03306433333333, "lat": 38.909641666666666, "type": "electric_scooter", "fusion_lon": 0.0, "is_reserved": 0, "bike_id": "cf77b86596d31a7b14424cf2f42df915", "fusion_lat": 0.0, "is_disabled": 0, "rental_uris": {"ios": "https://dc.lft.to/lastmile_qr_scan", "android": "https://dc.lft.to/lastmile_qr_scan"}}, {"name": "7eaa3406ad5ea581ae6f0592b304e9b2", "lon": -76.98691183333334, "lat": 38.8625375, "type": "electric_scooter", "fusion_lon": 0.0, "is_reserved": 0, "bike_id": "7eaa3406ad5ea581ae6f0592b304e9b2", "fusion_lat": 0.0, "is_disabled": 0, "rental_uris": {"ios": "https://dc.lft.to/lastmile_qr_scan", "android": "https://dc.lft.to/lastmile_qr_scan"}}, {"name": "387de4a46a075fb2012866994229db5e", "lon": -77.03320366666667, "lat": 38.921614166666664, "type": "electric_scooter", "fusion_lon": 0.0, "is_reserved": 0, "bike_id": "387de4a46a075fb2012866994229db5e", "fusion_lat": 0.0, "is_disabled": 0, "rental_uris": {"ios": "https://dc.lft.to/lastmile_qr_scan", "android": "https://dc.lft.to/lastmile_qr_scan"}}, {"name": "6e3a171bd22cc5fee6e7c7c6678bf70c", "lon": -77.03220016666667, "lat": 38.9043225, "type": "electric_scooter", "fusion_lon": 0.0, "is_reserved": 0, "bike_id": "6e3a171bd22cc5fee6e7c7c6678bf70c", "fusion_lat": 0.0, "is_disabled": 0, "rental_uris": {"ios": "https://dc.lft.to/lastmile_qr_scan", "android": "https://dc.lft.to/lastmile_qr_scan"}}, {"name": "f40a125b3f6a58ab90b3fa22e5b99cb1", "lon": -77.05862733333333, "lat": 38.936053666666666, "type": "electric_scooter", "fusion_lon": 0.0, "is_reserved": 0, "bike_id": "f40a125b3f6a58ab90b3fa22e5b99cb1", "fusion_lat": 0.0, "is_disabled": 0, "rental_uris": {"ios": "https://dc.lft.to/lastmile_qr_scan", "android": "https://dc.lft.to/lastmile_qr_scan"}}, {"name": "251d9e236ccdbdedcecf52aad5123739", "lon": -76.9936495, "lat": 38.9283655, "type": "electric_scooter", "fusion_lon": 0.0, "is_reserved": 0, "bike_id": "251d9e236ccdbdedcecf52aad5123739", "fusion_lat": 0.0, "is_disabled": 0, "rental_uris": {"ios": "https://dc.lft.to/lastmile_qr_scan", "android": "https://dc.lft.to/lastmile_qr_scan"}}, {"name": "69581b2bf76d2ebf16c6bfaf22f328ae", "lon": -77.02974833333333, "lat": 38.896385333333335, "type": "electric_scooter", "fusion_lon": 0.0, "is_reserved": 0, "bike_id": "69581b2bf76d2ebf16c6bfaf22f328ae", "fusion_lat": 0.0, "is_disabled": 0, "rental_uris": {"ios": "https://dc.lft.to/lastmile_qr_scan", "android": "https://dc.lft.to/lastmile_qr_scan"}}, {"name": "5915028bac2702402f263e018a902e89", "lon": -77.04224966666666, "lat": 38.907250833333336, "type": "electric_scooter", "fusion_lon": 0.0, "is_reserved": 0, "bike_id": "5915028bac2702402f263e018a902e89", "fusion_lat": 0.0, "is_disabled": 0, "rental_uris": {"ios": "https://dc.lft.to/lastmile_qr_scan", "android": "https://dc.lft.to/lastmile_qr_scan"}}, {"name": "bcbf0eff01ca05e0ffa8047223218ca4", "lon": -76.93258933333334, "lat": 38.898948833333336, "type": "electric_scooter", "fusion_lon": 0.0, "is_reserved": 0, "bike_id": "bcbf0eff01ca05e0ffa8047223218ca4", "fusion_lat": 0.0, "is_disabled": 0, "rental_uris": {"ios": "https://dc.lft.to/lastmile_qr_scan", "android": "https://dc.lft.to/lastmile_qr_scan"}}, {"name": "fdc08f8b3c35cf540f2cfd3b3f8494ba", "lon": -77.02133133333334, "lat": 38.90309883333333, "type": "electric_scooter", "fusion_lon": 0.0, "is_reserved": 0, "bike_id": "fdc08f8b3c35cf540f2cfd3b3f8494ba", "fusion_lat": 0.0, "is_disabled": 0, "rental_uris": {"ios": "https://dc.lft.to/lastmile_qr_scan", "android": "https://dc.lft.to/lastmile_qr_scan"}}, {"name": "73f8937e6f9693401c159d0eec61e079", "lon": -77.04792883333333, "lat": 38.9187325, "type": "electric_scooter", "fusion_lon": 0.0, "is_reserved": 0, "bike_id": "73f8937e6f9693401c159d0eec61e079", "fusion_lat": 0.0, "is_disabled": 0, "rental_uris": {"ios": "https://dc.lft.to/lastmile_qr_scan", "android": "https://dc.lft.to/lastmile_qr_scan"}}, {"name": "b14b22d130bdda610bd3811e0caf201f", "lon": -77.03048533333333, "lat": 38.8840365, "type": "electric_scooter", "fusion_lon": 0.0, "is_reserved": 0, "bike_id": "b14b22d130bdda610bd3811e0caf201f", "fusion_lat": 0.0, "is_disabled": 0, "rental_uris": {"ios": "https://dc.lft.to/lastmile_qr_scan", "android": "https://dc.lft.to/lastmile_qr_scan"}}, {"name": "d0710fd8e3cd6c0f3f4f2d16b9be0552", "lon": -77.032085, "lat": 38.908948, "type": "electric_scooter", "fusion_lon": 0.0, "is_reserved": 0, "bike_id": "d0710fd8e3cd6c0f3f4f2d16b9be0552", "fusion_lat": 0.0, "is_disabled": 0, "rental_uris": {"ios": "https://dc.lft.to/lastmile_qr_scan", "android": "https://dc.lft.to/lastmile_qr_scan"}}, {"name": "d6678b005386960c2c9c72a3c0b9a1f8", "lon": -77.03480116666667, "lat": 38.92533933333333, "type": "electric_scooter", "fusion_lon": 0.0, "is_reserved": 0, "bike_id": "d6678b005386960c2c9c72a3c0b9a1f8", "fusion_lat": 0.0, "is_disabled": 0, "rental_uris": {"ios": "https://dc.lft.to/lastmile_qr_scan", "android": "https://dc.lft.to/lastmile_qr_scan"}}, {"name": "2795fb543f5d4de8c7347cafdf96eb28", "lon": -77.05908866666667, "lat": 38.903093, "type": "electric_scooter", "fusion_lon": 0.0, "is_reserved": 0, "bike_id": "2795fb543f5d4de8c7347cafdf96eb28", "fusion_lat": 0.0, "is_disabled": 0, "rental_uris": {"ios": "https://dc.lft.to/lastmile_qr_scan", "android": "https://dc.lft.to/lastmile_qr_scan"}}, {"name": "4203d6d632c632dd3bf3ffffca2cee05", "lon": -77.02161733333334, "lat": 38.909695166666666, "type": "electric_scooter", "fusion_lon": 0.0, "is_reserved": 0, "bike_id": "4203d6d632c632dd3bf3ffffca2cee05", "fusion_lat": 0.0, "is_disabled": 0, "rental_uris": {"ios": "https://dc.lft.to/lastmile_qr_scan", "android": "https://dc.lft.to/lastmile_qr_scan"}}, {"name": "7263ab5a4c4d9b43a800effff09995e8", "lon": -77.048615, "lat": 38.9053345, "type": "electric_scooter", "fusion_lon": 0.0, "is_reserved": 0, "bike_id": "7263ab5a4c4d9b43a800effff09995e8", "fusion_lat": 0.0, "is_disabled": 0, "rental_uris": {"ios": "https://dc.lft.to/lastmile_qr_scan", "android": "https://dc.lft.to/lastmile_qr_scan"}}, {"name": "a20a81e8de418904c2086dbad8bd8b19", "lon": -76.987664, "lat": 38.90027966666667, "type": "electric_scooter", "fusion_lon": 0.0, "is_reserved": 0, "bike_id": "a20a81e8de418904c2086dbad8bd8b19", "fusion_lat": 0.0, "is_disabled": 0, "rental_uris": {"ios": "https://dc.lft.to/lastmile_qr_scan", "android": "https://dc.lft.to/lastmile_qr_scan"}}, {"name": "3e738a1bf0444c6cfb68677f02ae2b50", "lon": -77.02383783333333, "lat": 38.90035266666667, "type": "electric_scooter", "fusion_lon": 0.0, "is_reserved": 0, "bike_id": "3e738a1bf0444c6cfb68677f02ae2b50", "fusion_lat": 0.0, "is_disabled": 0, "rental_uris": {"ios": "https://dc.lft.to/lastmile_qr_scan", "android": "https://dc.lft.to/lastmile_qr_scan"}}, {"name": "73f583db50179cdaae4c43f22ea41611", "lon": -77.05649366666667, "lat": 38.9076155, "type": "electric_scooter", "fusion_lon": 0.0, "is_reserved": 0, "bike_id": "73f583db50179cdaae4c43f22ea41611", "fusion_lat": 0.0, "is_disabled": 0, "rental_uris": {"ios": "https://dc.lft.to/lastmile_qr_scan", "android": "https://dc.lft.to/lastmile_qr_scan"}}, {"name": "4be4317132f487843e8fbbf639302e69", "lon": -77.02105816666666, "lat": 38.91107433333333, "type": "electric_scooter", "fusion_lon": 0.0, "is_reserved": 0, "bike_id": "4be4317132f487843e8fbbf639302e69", "fusion_lat": 0.0, "is_disabled": 0, "rental_uris": {"ios": "https://dc.lft.to/lastmile_qr_scan", "android": "https://dc.lft.to/lastmile_qr_scan"}}, {"name": "baaef4af70f714973687fa04905d96b2", "lon": -77.02323083333333, "lat": 38.9305775, "type": "electric_scooter", "fusion_lon": 0.0, "is_reserved": 0, "bike_id": "baaef4af70f714973687fa04905d96b2", "fusion_lat": 0.0, "is_disabled": 0, "rental_uris": {"ios": "https://dc.lft.to/lastmile_qr_scan", "android": "https://dc.lft.to/lastmile_qr_scan"}}, {"name": "bf7e0a29152c0ea0b88a11ab4772adc5", "lon": -77.20837633333333, "lat": 38.92466783333333, "type": "electric_bike", "fusion_lon": 0.0, "is_reserved": 0, "bike_id": "bf7e0a29152c0ea0b88a11ab4772adc5", "fusion_lat": 0.0, "is_disabled": 0, "rental_uris": {"ios": "https://dc.lft.to/lastmile_qr_scan", "android": "https://dc.lft.to/lastmile_qr_scan"}}, {"name": "c99ea54c0a5a9546646bd8fb18a6d4e3", "lon": -76.99883266666667, "lat": 38.920568833333334, "type": "electric_scooter", "fusion_lon": 0.0, "is_reserved": 0, "bike_id": "c99ea54c0a5a9546646bd8fb18a6d4e3", "fusion_lat": 0.0, "is_disabled": 0, "rental_uris": {"ios": "https://dc.lft.to/lastmile_qr_scan", "android": "https://dc.lft.to/lastmile_qr_scan"}}, {"name": "346d8843fa2ac7300585964cf845bdc8", "lon": -76.933671, "lat": 38.89913283333333, "type": "electric_scooter", "fusion_lon": 0.0, "is_reserved": 0, "bike_id": "346d8843fa2ac7300585964cf845bdc8", "fusion_lat": 0.0, "is_disabled": 0, "rental_uris": {"ios": "https://dc.lft.to/lastmile_qr_scan", "android": "https://dc.lft.to/lastmile_qr_scan"}}, {"name": "83738b6a845375a5e0c501085c35c04a", "lon": -77.0072695, "lat": 38.899002, "type": "electric_scooter", "fusion_lon": 0.0, "is_reserved": 0, "bike_id": "83738b6a845375a5e0c501085c35c04a", "fusion_lat": 0.0, "is_disabled": 0, "rental_uris": {"ios": "https://dc.lft.to/lastmile_qr_scan", "android": "https://dc.lft.to/lastmile_qr_scan"}}, {"name": "68d284ee0f86b068a5ebceefe7642c37", "lon": -77.12487783333333, "lat": 38.827841166666666, "type": "electric_bike", "fusion_lon": 0.0, "is_reserved": 0, "bike_id": "68d284ee0f86b068a5ebceefe7642c37", "fusion_lat": 0.0, "is_disabled": 0, "rental_uris": {"ios": "https://dc.lft.to/lastmile_qr_scan", "android": "https://dc.lft.to/lastmile_qr_scan"}}, {"name": "006f965d99766db732e449ecfac3126c", "lon": -77.03737316666667, "lat": 38.9357095, "type": "electric_scooter", "fusion_lon": 0.0, "is_reserved": 0, "bike_id": "006f965d99766db732e449ecfac3126c", "fusion_lat": 0.0, "is_disabled": 0, "rental_uris": {"ios": "https://dc.lft.to/lastmile_qr_scan", "android": "https://dc.lft.to/lastmile_qr_scan"}}, {"name": "c89afc58e2a0462f453d1a1741a3c5ad", "lon": -77.0182285, "lat": 38.922107833333335, "type": "electric_scooter", "fusion_lon": 0.0, "is_reserved": 0, "bike_id": "c89afc58e2a0462f453d1a1741a3c5ad", "fusion_lat": 0.0, "is_disabled": 0, "rental_uris": {"ios": "https://dc.lft.to/lastmile_qr_scan", "android": "https://dc.lft.to/lastmile_qr_scan"}}, {"name": "d5f00a7e531319410d3b77d209656a0f", "lon": -77.18306966666667, "lat": 38.8908255, "type": "electric_bike", "fusion_lon": 0.0, "is_reserved": 0, "bike_id": "d5f00a7e531319410d3b77d209656a0f", "fusion_lat": 0.0, "is_disabled": 0, "rental_uris": {"ios": "https://dc.lft.to/lastmile_qr_scan", "android": "https://dc.lft.to/lastmile_qr_scan"}}, {"name": "f32080a0297c7c43f88f9dcc124f22b7", "lon": -76.93987433333334, "lat": 38.89983433333333, "type": "electric_scooter", "fusion_lon": 0.0, "is_reserved": 0, "bike_id": "f32080a0297c7c43f88f9dcc124f22b7", "fusion_lat": 0.0, "is_disabled": 0, "rental_uris": {"ios": "https://dc.lft.to/lastmile_qr_scan", "android": "https://dc.lft.to/lastmile_qr_scan"}}, {"name": "52066473e2ff87f447436164d128f2e0", "lon": -77.033319, "lat": 38.9582655, "type": "electric_scooter", "fusion_lon": 0.0, "is_reserved": 0, "bike_id": "52066473e2ff87f447436164d128f2e0", "fusion_lat": 0.0, "is_disabled": 0, "rental_uris": {"ios": "https://dc.lft.to/lastmile_qr_scan", "android": "https://dc.lft.to/lastmile_qr_scan"}}, {"name": "1774cfb15aa77c19975505208c74c74a", "lon": -77.03322916666667, "lat": 38.913179666666665, "type": "electric_scooter", "fusion_lon": 0.0, "is_reserved": 0, "bike_id": "1774cfb15aa77c19975505208c74c74a", "fusion_lat": 0.0, "is_disabled": 0, "rental_uris": {"ios": "https://dc.lft.to/lastmile_qr_scan", "android": "https://dc.lft.to/lastmile_qr_scan"}}, {"name": "18839fefde06c79c6e05bad9f10a2c40", "lon": -76.98492916666666, "lat": 38.9038905, "type": "electric_scooter", "fusion_lon": 0.0, "is_reserved": 0, "bike_id": "18839fefde06c79c6e05bad9f10a2c40", "fusion_lat": 0.0, "is_disabled": 0, "rental_uris": {"ios": "https://dc.lft.to/lastmile_qr_scan", "android": "https://dc.lft.to/lastmile_qr_scan"}}, {"name": "c440127894a7cfc0e3787da4691c4dfa", "lon": -77.046261, "lat": 38.916766833333334, "type": "electric_scooter", "fusion_lon": 0.0, "is_reserved": 0, "bike_id": "c440127894a7cfc0e3787da4691c4dfa", "fusion_lat": 0.0, "is_disabled": 0, "rental_uris": {"ios": "https://dc.lft.to/lastmile_qr_scan", "android": "https://dc.lft.to/lastmile_qr_scan"}}, {"name": "122b9089919547502a480f504720a198", "lon": -76.99008316666666, "lat": 38.858838, "type": "electric_scooter", "fusion_lon": 0.0, "is_reserved": 0, "bike_id": "122b9089919547502a480f504720a198", "fusion_lat": 0.0, "is_disabled": 0, "rental_uris": {"ios": "https://dc.lft.to/lastmile_qr_scan", "android": "https://dc.lft.to/lastmile_qr_scan"}}, {"name": "b57a997d681e31ec518ba97885d75fda", "lon": -77.01169866666666, "lat": 38.915588, "type": "electric_scooter", "fusion_lon": 0.0, "is_reserved": 0, "bike_id": "b57a997d681e31ec518ba97885d75fda", "fusion_lat": 0.0, "is_disabled": 0, "rental_uris": {"ios": "https://dc.lft.to/lastmile_qr_scan", "android": "https://dc.lft.to/lastmile_qr_scan"}}, {"name": "eef394b54344f7fd436b9d5d0e03369b", "lon": -77.02319866666667, "lat": 38.92804866666667, "type": "electric_scooter", "fusion_lon": 0.0, "is_reserved": 0, "bike_id": "eef394b54344f7fd436b9d5d0e03369b", "fusion_lat": 0.0, "is_disabled": 0, "rental_uris": {"ios": "https://dc.lft.to/lastmile_qr_scan", "android": "https://dc.lft.to/lastmile_qr_scan"}}, {"name": "c742741078eb94d306efc74b3d613ebc", "lon": -77.00202866666666, "lat": 38.90239783333333, "type": "electric_scooter", "fusion_lon": 0.0, "is_reserved": 0, "bike_id": "c742741078eb94d306efc74b3d613ebc", "fusion_lat": 0.0, "is_disabled": 0, "rental_uris": {"ios": "https://dc.lft.to/lastmile_qr_scan", "android": "https://dc.lft.to/lastmile_qr_scan"}}, {"name": "918754790f28891c03433c016f05522d", "lon": -76.9865255, "lat": 38.867264166666665, "type": "electric_scooter", "fusion_lon": 0.0, "is_reserved": 0, "bike_id": "918754790f28891c03433c016f05522d", "fusion_lat": 0.0, "is_disabled": 0, "rental_uris": {"ios": "https://dc.lft.to/lastmile_qr_scan", "android": "https://dc.lft.to/lastmile_qr_scan"}}, {"name": "c27a6ffb9757041546037533e5afd012", "lon": -77.01805183333333, "lat": 38.914149, "type": "electric_scooter", "fusion_lon": 0.0, "is_reserved": 0, "bike_id": "c27a6ffb9757041546037533e5afd012", "fusion_lat": 0.0, "is_disabled": 0, "rental_uris": {"ios": "https://dc.lft.to/lastmile_qr_scan", "android": "https://dc.lft.to/lastmile_qr_scan"}}, {"name": "2057c646edb5c3f147d47e0f9c8793b0", "lon": -77.03192066666666, "lat": 38.91777116666667, "type": "electric_scooter", "fusion_lon": 0.0, "is_reserved": 0, "bike_id": "2057c646edb5c3f147d47e0f9c8793b0", "fusion_lat": 0.0, "is_disabled": 0, "rental_uris": {"ios": "https://dc.lft.to/lastmile_qr_scan", "android": "https://dc.lft.to/lastmile_qr_scan"}}, {"name": "f9b7b8c243ece20bdd16a0497869514a", "lon": -76.954745, "lat": 38.886386333333334, "type": "electric_scooter", "fusion_lon": 0.0, "is_reserved": 0, "bike_id": "f9b7b8c243ece20bdd16a0497869514a", "fusion_lat": 0.0, "is_disabled": 0, "rental_uris": {"ios": "https://dc.lft.to/lastmile_qr_scan", "android": "https://dc.lft.to/lastmile_qr_scan"}}, {"name": "02bf0cce21b378e2b6366524919e94da", "lon": -77.0340585, "lat": 38.922531166666666, "type": "electric_scooter", "fusion_lon": 0.0, "is_reserved": 0, "bike_id": "02bf0cce21b378e2b6366524919e94da", "fusion_lat": 0.0, "is_disabled": 0, "rental_uris": {"ios": "https://dc.lft.to/lastmile_qr_scan", "android": "https://dc.lft.to/lastmile_qr_scan"}}, {"name": "954150b735f7bf54a030b7dc65edcb0b", "lon": -76.94638183333333, "lat": 38.898433, "type": "electric_scooter", "fusion_lon": 0.0, "is_reserved": 0, "bike_id": "954150b735f7bf54a030b7dc65edcb0b", "fusion_lat": 0.0, "is_disabled": 0, "rental_uris": {"ios": "https://dc.lft.to/lastmile_qr_scan", "android": "https://dc.lft.to/lastmile_qr_scan"}}, {"name": "36c016aa708c886f4a33bfb0ea803901", "lon": -77.03812366666666, "lat": 38.90667966666667, "type": "electric_scooter", "fusion_lon": 0.0, "is_reserved": 0, "bike_id": "36c016aa708c886f4a33bfb0ea803901", "fusion_lat": 0.0, "is_disabled": 0, "rental_uris": {"ios": "https://dc.lft.to/lastmile_qr_scan", "android": "https://dc.lft.to/lastmile_qr_scan"}}, {"name": "6339375f8e98cb4364c025df4c66cc48", "lon": -77.03523383333334, "lat": 38.9003565, "type": "electric_scooter", "fusion_lon": 0.0, "is_reserved": 0, "bike_id": "6339375f8e98cb4364c025df4c66cc48", "fusion_lat": 0.0, "is_disabled": 0, "rental_uris": {"ios": "https://dc.lft.to/lastmile_qr_scan", "android": "https://dc.lft.to/lastmile_qr_scan"}}, {"name": "542baa40963f3c71e43bdeb96d83495c", "lon": -77.04783533333334, "lat": 38.905109333333336, "type": "electric_scooter", "fusion_lon": 0.0, "is_reserved": 0, "bike_id": "542baa40963f3c71e43bdeb96d83495c", "fusion_lat": 0.0, "is_disabled": 0, "rental_uris": {"ios": "https://dc.lft.to/lastmile_qr_scan", "android": "https://dc.lft.to/lastmile_qr_scan"}}, {"name": "9055a070700f0f1809d3c184f8c286c5", "lon": -77.02163533333334, "lat": 38.926107, "type": "electric_scooter", "fusion_lon": 0.0, "is_reserved": 0, "bike_id": "9055a070700f0f1809d3c184f8c286c5", "fusion_lat": 0.0, "is_disabled": 0, "rental_uris": {"ios": "https://dc.lft.to/lastmile_qr_scan", "android": "https://dc.lft.to/lastmile_qr_scan"}}, {"name": "b230c9a3d74a45e23d124b7962564fa5", "lon": -76.9762935, "lat": 38.905721166666666, "type": "electric_scooter", "fusion_lon": 0.0, "is_reserved": 0, "bike_id": "b230c9a3d74a45e23d124b7962564fa5", "fusion_lat": 0.0, "is_disabled": 0, "rental_uris": {"ios": "https://dc.lft.to/lastmile_qr_scan", "android": "https://dc.lft.to/lastmile_qr_scan"}}, {"name": "21e0d7f9e627f3e920254bfc43c13b90", "lon": -77.00750666666667, "lat": 38.89840133333333, "type": "electric_scooter", "fusion_lon": 0.0, "is_reserved": 0, "bike_id": "21e0d7f9e627f3e920254bfc43c13b90", "fusion_lat": 0.0, "is_disabled": 0, "rental_uris": {"ios": "https://dc.lft.to/lastmile_qr_scan", "android": "https://dc.lft.to/lastmile_qr_scan"}}, {"name": "93da765aa79625e6cd2169891245ae07", "lon": -77.04328283333334, "lat": 38.9088035, "type": "electric_scooter", "fusion_lon": 0.0, "is_reserved": 0, "bike_id": "93da765aa79625e6cd2169891245ae07", "fusion_lat": 0.0, "is_disabled": 0, "rental_uris": {"ios": "https://dc.lft.to/lastmile_qr_scan", "android": "https://dc.lft.to/lastmile_qr_scan"}}, {"name": "ab7df6ef1122d297f3b5e62e74d7d65c", "lon": -77.0330985, "lat": 38.956157833333336, "type": "electric_scooter", "fusion_lon": 0.0, "is_reserved": 0, "bike_id": "ab7df6ef1122d297f3b5e62e74d7d65c", "fusion_lat": 0.0, "is_disabled": 0, "rental_uris": {"ios": "https://dc.lft.to/lastmile_qr_scan", "android": "https://dc.lft.to/lastmile_qr_scan"}}, {"name": "c4f2c0c7c1d6883ae96397315faaea00", "lon": -76.9861235, "lat": 38.8652905, "type": "electric_scooter", "fusion_lon": 0.0, "is_reserved": 0, "bike_id": "c4f2c0c7c1d6883ae96397315faaea00", "fusion_lat": 0.0, "is_disabled": 0, "rental_uris": {"ios": "https://dc.lft.to/lastmile_qr_scan", "android": "https://dc.lft.to/lastmile_qr_scan"}}, {"name": "29ec8dbf003ef664e8bf6f2b0093681d", "lon": -77.03860183333333, "lat": 38.906821666666666, "type": "electric_scooter", "fusion_lon": 0.0, "is_reserved": 0, "bike_id": "29ec8dbf003ef664e8bf6f2b0093681d", "fusion_lat": 0.0, "is_disabled": 0, "rental_uris": {"ios": "https://dc.lft.to/lastmile_qr_scan", "android": "https://dc.lft.to/lastmile_qr_scan"}}, {"name": "8b1a88b0d842722a3911bdf252d8637d", "lon": -77.02913533333333, "lat": 38.90043816666667, "type": "electric_scooter", "fusion_lon": 0.0, "is_reserved": 0, "bike_id": "8b1a88b0d842722a3911bdf252d8637d", "fusion_lat": 0.0, "is_disabled": 0, "rental_uris": {"ios": "https://dc.lft.to/lastmile_qr_scan", "android": "https://dc.lft.to/lastmile_qr_scan"}}, {"name": "ff202632a308842ebc5e226b0ca9f9c3", "lon": -76.99859916666666, "lat": 38.9233905, "type": "electric_scooter", "fusion_lon": 0.0, "is_reserved": 0, "bike_id": "ff202632a308842ebc5e226b0ca9f9c3", "fusion_lat": 0.0, "is_disabled": 0, "rental_uris": {"ios": "https://dc.lft.to/lastmile_qr_scan", "android": "https://dc.lft.to/lastmile_qr_scan"}}, {"name": "3dd9cbadabbdaded30ba4147a6e4dff0", "lon": -77.0243965, "lat": 38.90970733333333, "type": "electric_scooter", "fusion_lon": 0.0, "is_reserved": 0, "bike_id": "3dd9cbadabbdaded30ba4147a6e4dff0", "fusion_lat": 0.0, "is_disabled": 0, "rental_uris": {"ios": "https://dc.lft.to/lastmile_qr_scan", "android": "https://dc.lft.to/lastmile_qr_scan"}}, {"name": "26e4c3bbb17a2887cd0dcaa3175e9f01", "lon": -76.96944816666667, "lat": 38.8974685, "type": "electric_bike", "fusion_lon": 0.0, "is_reserved": 0, "bike_id": "26e4c3bbb17a2887cd0dcaa3175e9f01", "fusion_lat": 0.0, "is_disabled": 0, "rental_uris": {"ios": "https://dc.lft.to/lastmile_qr_scan", "android": "https://dc.lft.to/lastmile_qr_scan"}}, {"name": "66960ecf9fa911f7a352fde59a0a1999", "lon": -77.0317425, "lat": 38.920094166666665, "type": "electric_scooter", "fusion_lon": 0.0, "is_reserved": 0, "bike_id": "66960ecf9fa911f7a352fde59a0a1999", "fusion_lat": 0.0, "is_disabled": 0, "rental_uris": {"ios": "https://dc.lft.to/lastmile_qr_scan", "android": "https://dc.lft.to/lastmile_qr_scan"}}, {"name": "0b2d82b0433f7a799fdbe0b796dc4e79", "lon": -77.03425783333333, "lat": 38.9027515, "type": "electric_scooter", "fusion_lon": 0.0, "is_reserved": 0, "bike_id": "0b2d82b0433f7a799fdbe0b796dc4e79", "fusion_lat": 0.0, "is_disabled": 0, "rental_uris": {"ios": "https://dc.lft.to/lastmile_qr_scan", "android": "https://dc.lft.to/lastmile_qr_scan"}}, {"name": "1acc2eb138f4a03376d7ff68716bcd6e", "lon": -77.02948016666667, "lat": 38.8973515, "type": "electric_scooter", "fusion_lon": 0.0, "is_reserved": 0, "bike_id": "1acc2eb138f4a03376d7ff68716bcd6e", "fusion_lat": 0.0, "is_disabled": 0, "rental_uris": {"ios": "https://dc.lft.to/lastmile_qr_scan", "android": "https://dc.lft.to/lastmile_qr_scan"}}, {"name": "9298d135f8d91a799147f7f98b9fc994", "lon": -76.99620733333333, "lat": 38.88493416666667, "type": "electric_bike", "fusion_lon": 0.0, "is_reserved": 0, "bike_id": "9298d135f8d91a799147f7f98b9fc994", "fusion_lat": 0.0, "is_disabled": 0, "rental_uris": {"ios": "https://dc.lft.to/lastmile_qr_scan", "android": "https://dc.lft.to/lastmile_qr_scan"}}, {"name": "57ee8c66e0ec36bb605a5704751273e6", "lon": -77.049346, "lat": 38.909985166666665, "type": "electric_scooter", "fusion_lon": 0.0, "is_reserved": 0, "bike_id": "57ee8c66e0ec36bb605a5704751273e6", "fusion_lat": 0.0, "is_disabled": 0, "rental_uris": {"ios": "https://dc.lft.to/lastmile_qr_scan", "android": "https://dc.lft.to/lastmile_qr_scan"}}, {"name": "95fbc275282472713e4940ffb13b2cda", "lon": -77.01290183333333, "lat": 38.89478416666667, "type": "electric_scooter", "fusion_lon": 0.0, "is_reserved": 0, "bike_id": "95fbc275282472713e4940ffb13b2cda", "fusion_lat": 0.0, "is_disabled": 0, "rental_uris": {"ios": "https://dc.lft.to/lastmile_qr_scan", "android": "https://dc.lft.to/lastmile_qr_scan"}}, {"name": "58c725df9def26e1efcbeb49fe5037c9", "lon": -77.01693016666667, "lat": 38.97506883333333, "type": "electric_scooter", "fusion_lon": 0.0, "is_reserved": 0, "bike_id": "58c725df9def26e1efcbeb49fe5037c9", "fusion_lat": 0.0, "is_disabled": 0, "rental_uris": {"ios": "https://dc.lft.to/lastmile_qr_scan", "android": "https://dc.lft.to/lastmile_qr_scan"}}, {"name": "339c1edcb7344ff9dec8ac309db800a4", "lon": -77.01968683333334, "lat": 38.95651483333333, "type": "electric_scooter", "fusion_lon": 0.0, "is_reserved": 0, "bike_id": "339c1edcb7344ff9dec8ac309db800a4", "fusion_lat": 0.0, "is_disabled": 0, "rental_uris": {"ios": "https://dc.lft.to/lastmile_qr_scan", "android": "https://dc.lft.to/lastmile_qr_scan"}}, {"name": "22d09999097340115f8a734ac6548b65", "lon": -77.03219283333334, "lat": 38.9163755, "type": "electric_scooter", "fusion_lon": 0.0, "is_reserved": 0, "bike_id": "22d09999097340115f8a734ac6548b65", "fusion_lat": 0.0, "is_disabled": 0, "rental_uris": {"ios": "https://dc.lft.to/lastmile_qr_scan", "android": "https://dc.lft.to/lastmile_qr_scan"}}, {"name": "9d9367e5e87b02fbffc966a9cd200b7f", "lon": -76.98875433333333, "lat": 38.866518166666665, "type": "electric_scooter", "fusion_lon": 0.0, "is_reserved": 0, "bike_id": "9d9367e5e87b02fbffc966a9cd200b7f", "fusion_lat": 0.0, "is_disabled": 0, "rental_uris": {"ios": "https://dc.lft.to/lastmile_qr_scan", "android": "https://dc.lft.to/lastmile_qr_scan"}}, {"name": "19bf5afcbadc133b9e47f75e40ee6389", "lon": -77.02973466666667, "lat": 38.897217, "type": "electric_scooter", "fusion_lon": 0.0, "is_reserved": 0, "bike_id": "19bf5afcbadc133b9e47f75e40ee6389", "fusion_lat": 0.0, "is_disabled": 0, "rental_uris": {"ios": "https://dc.lft.to/lastmile_qr_scan", "android": "https://dc.lft.to/lastmile_qr_scan"}}, {"name": "442ecb777137055db58481c4ef198cee", "lon": -77.04612233333333, "lat": 38.92335416666667, "type": "electric_scooter", "fusion_lon": 0.0, "is_reserved": 0, "bike_id": "442ecb777137055db58481c4ef198cee", "fusion_lat": 0.0, "is_disabled": 0, "rental_uris": {"ios": "https://dc.lft.to/lastmile_qr_scan", "android": "https://dc.lft.to/lastmile_qr_scan"}}, {"name": "d43a73373a020635ba4087021904477e", "lon": -77.044118, "lat": 38.92119916666667, "type": "electric_scooter", "fusion_lon": 0.0, "is_reserved": 0, "bike_id": "d43a73373a020635ba4087021904477e", "fusion_lat": 0.0, "is_disabled": 0, "rental_uris": {"ios": "https://dc.lft.to/lastmile_qr_scan", "android": "https://dc.lft.to/lastmile_qr_scan"}}, {"name": "bcd52b3592c6ec15c1f58db96be6e20c", "lon": -77.04185233333334, "lat": 38.90599133333333, "type": "electric_scooter", "fusion_lon": 0.0, "is_reserved": 0, "bike_id": "bcd52b3592c6ec15c1f58db96be6e20c", "fusion_lat": 0.0, "is_disabled": 0, "rental_uris": {"ios": "https://dc.lft.to/lastmile_qr_scan", "android": "https://dc.lft.to/lastmile_qr_scan"}}, {"name": "d089f357a34c4791283ce3b182c88d67", "lon": -77.02721966666667, "lat": 38.918211166666666, "type": "electric_scooter", "fusion_lon": 0.0, "is_reserved": 0, "bike_id": "d089f357a34c4791283ce3b182c88d67", "fusion_lat": 0.0, "is_disabled": 0, "rental_uris": {"ios": "https://dc.lft.to/lastmile_qr_scan", "android": "https://dc.lft.to/lastmile_qr_scan"}}, {"name": "f7dde8c096c19eb8bd046def91caac82", "lon": -77.02909416666667, "lat": 38.916965166666664, "type": "electric_scooter", "fusion_lon": 0.0, "is_reserved": 0, "bike_id": "f7dde8c096c19eb8bd046def91caac82", "fusion_lat": 0.0, "is_disabled": 0, "rental_uris": {"ios": "https://dc.lft.to/lastmile_qr_scan", "android": "https://dc.lft.to/lastmile_qr_scan"}}, {"name": "d690d53312bf91d45208760219a0ecb0", "lon": -77.11568683333333, "lat": 38.99328533333333, "type": "electric_bike", "fusion_lon": 0.0, "is_reserved": 0, "bike_id": "d690d53312bf91d45208760219a0ecb0", "fusion_lat": 0.0, "is_disabled": 0, "rental_uris": {"ios": "https://dc.lft.to/lastmile_qr_scan", "android": "https://dc.lft.to/lastmile_qr_scan"}}, {"name": "200c023e5784734ffc7aa2658b0496e6", "lon": -77.02546683333334, "lat": 38.91921816666667, "type": "electric_scooter", "fusion_lon": 0.0, "is_reserved": 0, "bike_id": "200c023e5784734ffc7aa2658b0496e6", "fusion_lat": 0.0, "is_disabled": 0, "rental_uris": {"ios": "https://dc.lft.to/lastmile_qr_scan", "android": "https://dc.lft.to/lastmile_qr_scan"}}, {"name": "6c96e0ee8318659c6a09602b5bd9a301", "lon": -77.04872783333333, "lat": 38.8926995, "type": "electric_scooter", "fusion_lon": 0.0, "is_reserved": 0, "bike_id": "6c96e0ee8318659c6a09602b5bd9a301", "fusion_lat": 0.0, "is_disabled": 0, "rental_uris": {"ios": "https://dc.lft.to/lastmile_qr_scan", "android": "https://dc.lft.to/lastmile_qr_scan"}}, {"name": "0ab9ea91d32685512b717ea1f30f6d4e", "lon": -77.04336916666666, "lat": 38.90045933333333, "type": "electric_scooter", "fusion_lon": 0.0, "is_reserved": 0, "bike_id": "0ab9ea91d32685512b717ea1f30f6d4e", "fusion_lat": 0.0, "is_disabled": 0, "rental_uris": {"ios": "https://dc.lft.to/lastmile_qr_scan", "android": "https://dc.lft.to/lastmile_qr_scan"}}, {"name": "6fac75c14abf67448f55fd9064ad489e", "lon": -76.99775883333334, "lat": 38.84430183333333, "type": "electric_scooter", "fusion_lon": 0.0, "is_reserved": 0, "bike_id": "6fac75c14abf67448f55fd9064ad489e", "fusion_lat": 0.0, "is_disabled": 0, "rental_uris": {"ios": "https://dc.lft.to/lastmile_qr_scan", "android": "https://dc.lft.to/lastmile_qr_scan"}}, {"name": "6c7d788652c38864999c868cdf3b1363", "lon": -77.01168383333334, "lat": 38.915630166666666, "type": "electric_scooter", "fusion_lon": 0.0, "is_reserved": 0, "bike_id": "6c7d788652c38864999c868cdf3b1363", "fusion_lat": 0.0, "is_disabled": 0, "rental_uris": {"ios": "https://dc.lft.to/lastmile_qr_scan", "android": "https://dc.lft.to/lastmile_qr_scan"}}, {"name": "a7dcfeaad9ef70ff1b0bf4714b46048b", "lon": -76.99550866666667, "lat": 38.86258683333333, "type": "electric_scooter", "fusion_lon": 0.0, "is_reserved": 0, "bike_id": "a7dcfeaad9ef70ff1b0bf4714b46048b", "fusion_lat": 0.0, "is_disabled": 0, "rental_uris": {"ios": "https://dc.lft.to/lastmile_qr_scan", "android": "https://dc.lft.to/lastmile_qr_scan"}}, {"name": "5b46251e7a39db24639ae26c11ebf932", "lon": -77.038655, "lat": 38.911926333333334, "type": "electric_scooter", "fusion_lon": 0.0, "is_reserved": 0, "bike_id": "5b46251e7a39db24639ae26c11ebf932", "fusion_lat": 0.0, "is_disabled": 0, "rental_uris": {"ios": "https://dc.lft.to/lastmile_qr_scan", "android": "https://dc.lft.to/lastmile_qr_scan"}}, {"name": "06c3460553bddbc13c57ae4015c4b08d", "lon": -77.01168266666667, "lat": 38.91694, "type": "electric_scooter", "fusion_lon": 0.0, "is_reserved": 0, "bike_id": "06c3460553bddbc13c57ae4015c4b08d", "fusion_lat": 0.0, "is_disabled": 0, "rental_uris": {"ios": "https://dc.lft.to/lastmile_qr_scan", "android": "https://dc.lft.to/lastmile_qr_scan"}}, {"name": "9ab725503432fc2b7986e87ebfdec3cd", "lon": -77.03041583333334, "lat": 38.884091, "type": "electric_scooter", "fusion_lon": 0.0, "is_reserved": 0, "bike_id": "9ab725503432fc2b7986e87ebfdec3cd", "fusion_lat": 0.0, "is_disabled": 0, "rental_uris": {"ios": "https://dc.lft.to/lastmile_qr_scan", "android": "https://dc.lft.to/lastmile_qr_scan"}}, {"name": "20d5298b0e7bd9e91b447dd47e0fde4f", "lon": -77.00368633333333, "lat": 38.897311333333334, "type": "electric_scooter", "fusion_lon": 0.0, "is_reserved": 0, "bike_id": "20d5298b0e7bd9e91b447dd47e0fde4f", "fusion_lat": 0.0, "is_disabled": 0, "rental_uris": {"ios": "https://dc.lft.to/lastmile_qr_scan", "android": "https://dc.lft.to/lastmile_qr_scan"}}, {"name": "e13b255432c3e13518c35a4aa8e3893a", "lon": -77.01731966666667, "lat": 38.88330216666667, "type": "electric_scooter", "fusion_lon": 0.0, "is_reserved": 0, "bike_id": "e13b255432c3e13518c35a4aa8e3893a", "fusion_lat": 0.0, "is_disabled": 0, "rental_uris": {"ios": "https://dc.lft.to/lastmile_qr_scan", "android": "https://dc.lft.to/lastmile_qr_scan"}}, {"name": "5e3301f5622f158c052f148e4820d12a", "lon": -77.04695416666667, "lat": 38.92156383333333, "type": "electric_scooter", "fusion_lon": 0.0, "is_reserved": 0, "bike_id": "5e3301f5622f158c052f148e4820d12a", "fusion_lat": 0.0, "is_disabled": 0, "rental_uris": {"ios": "https://dc.lft.to/lastmile_qr_scan", "android": "https://dc.lft.to/lastmile_qr_scan"}}, {"name": "fe8572f7b9fef2ae59368a91d2b31bc3", "lon": -77.053373, "lat": 38.900113166666664, "type": "electric_scooter", "fusion_lon": 0.0, "is_reserved": 0, "bike_id": "fe8572f7b9fef2ae59368a91d2b31bc3", "fusion_lat": 0.0, "is_disabled": 0, "rental_uris": {"ios": "https://dc.lft.to/lastmile_qr_scan", "android": "https://dc.lft.to/lastmile_qr_scan"}}, {"name": "38fb4701a28871f3431d81bba8243879", "lon": -77.03647083333334, "lat": 38.903855166666666, "type": "electric_scooter", "fusion_lon": 0.0, "is_reserved": 0, "bike_id": "38fb4701a28871f3431d81bba8243879", "fusion_lat": 0.0, "is_disabled": 0, "rental_uris": {"ios": "https://dc.lft.to/lastmile_qr_scan", "android": "https://dc.lft.to/lastmile_qr_scan"}}, {"name": "091b0b736e0048500e166b9196e5a750", "lon": -77.02761783333334, "lat": 38.95613016666667, "type": "electric_scooter", "fusion_lon": 0.0, "is_reserved": 0, "bike_id": "091b0b736e0048500e166b9196e5a750", "fusion_lat": 0.0, "is_disabled": 0, "rental_uris": {"ios": "https://dc.lft.to/lastmile_qr_scan", "android": "https://dc.lft.to/lastmile_qr_scan"}}, {"name": "c21bb8ad97e9f008c7791211be239461", "lon": -77.04307, "lat": 38.923239833333334, "type": "electric_scooter", "fusion_lon": 0.0, "is_reserved": 0, "bike_id": "c21bb8ad97e9f008c7791211be239461", "fusion_lat": 0.0, "is_disabled": 0, "rental_uris": {"ios": "https://dc.lft.to/lastmile_qr_scan", "android": "https://dc.lft.to/lastmile_qr_scan"}}, {"name": "1f3a5709aae448a06af2738463feff35", "lon": -76.988653, "lat": 38.9548795, "type": "electric_bike", "fusion_lon": 0.0, "is_reserved": 0, "bike_id": "1f3a5709aae448a06af2738463feff35", "fusion_lat": 0.0, "is_disabled": 0, "rental_uris": {"ios": "https://dc.lft.to/lastmile_qr_scan", "android": "https://dc.lft.to/lastmile_qr_scan"}}, {"name": "c614dee0a426021c4bafc14215615846", "lon": -77.00215633333333, "lat": 38.936764833333335, "type": "electric_bike", "fusion_lon": 0.0, "is_reserved": 0, "bike_id": "c614dee0a426021c4bafc14215615846", "fusion_lat": 0.0, "is_disabled": 0, "rental_uris": {"ios": "https://dc.lft.to/lastmile_qr_scan", "android": "https://dc.lft.to/lastmile_qr_scan"}}, {"name": "08b776b76015a47e42e639627916297b", "lon": -76.94799716666667, "lat": 38.89398833333333, "type": "electric_bike", "fusion_lon": 0.0, "is_reserved": 0, "bike_id": "08b776b76015a47e42e639627916297b", "fusion_lat": 0.0, "is_disabled": 0, "rental_uris": {"ios": "https://dc.lft.to/lastmile_qr_scan", "android": "https://dc.lft.to/lastmile_qr_scan"}}, {"name": "06817a0fe7da715116aa69f0df2d97b4", "lon": -77.02610383333334, "lat": 38.931430166666665, "type": "electric_scooter", "fusion_lon": 0.0, "is_reserved": 0, "bike_id": "06817a0fe7da715116aa69f0df2d97b4", "fusion_lat": 0.0, "is_disabled": 0, "rental_uris": {"ios": "https://dc.lft.to/lastmile_qr_scan", "android": "https://dc.lft.to/lastmile_qr_scan"}}, {"name": "c470881794de1414a6ab8e466d61dad5", "lon": -76.96022383333333, "lat": 38.87009966666667, "type": "electric_bike", "fusion_lon": 0.0, "is_reserved": 0, "bike_id": "c470881794de1414a6ab8e466d61dad5", "fusion_lat": 0.0, "is_disabled": 0, "rental_uris": {"ios": "https://dc.lft.to/lastmile_qr_scan", "android": "https://dc.lft.to/lastmile_qr_scan"}}, {"name": "f471bda893a6da0f996616dbbcb0b02c", "lon": -77.031723, "lat": 38.903784, "type": "electric_scooter", "fusion_lon": 0.0, "is_reserved": 0, "bike_id": "f471bda893a6da0f996616dbbcb0b02c", "fusion_lat": 0.0, "is_disabled": 0, "rental_uris": {"ios": "https://dc.lft.to/lastmile_qr_scan", "android": "https://dc.lft.to/lastmile_qr_scan"}}, {"name": "fcf22c3d7a5b9c7f3fb3442e3c9f5e77", "lon": -77.04506133333334, "lat": 38.90458233333333, "type": "electric_scooter", "fusion_lon": 0.0, "is_reserved": 0, "bike_id": "fcf22c3d7a5b9c7f3fb3442e3c9f5e77", "fusion_lat": 0.0, "is_disabled": 0, "rental_uris": {"ios": "https://dc.lft.to/lastmile_qr_scan", "android": "https://dc.lft.to/lastmile_qr_scan"}}, {"name": "23504b50608b2805185c7bd1c310e5f1", "lon": -77.05816883333334, "lat": 38.9356305, "type": "electric_scooter", "fusion_lon": 0.0, "is_reserved": 0, "bike_id": "23504b50608b2805185c7bd1c310e5f1", "fusion_lat": 0.0, "is_disabled": 0, "rental_uris": {"ios": "https://dc.lft.to/lastmile_qr_scan", "android": "https://dc.lft.to/lastmile_qr_scan"}}, {"name": "d886afe2331b3ffdba08683df094f820", "lon": -77.0333615, "lat": 38.92055166666667, "type": "electric_scooter", "fusion_lon": 0.0, "is_reserved": 0, "bike_id": "d886afe2331b3ffdba08683df094f820", "fusion_lat": 0.0, "is_disabled": 0, "rental_uris": {"ios": "https://dc.lft.to/lastmile_qr_scan", "android": "https://dc.lft.to/lastmile_qr_scan"}}, {"name": "887e70c5bfedb8c1a49d55a73e3dfd9d", "lon": -76.99334466666667, "lat": 38.87143533333333, "type": "electric_scooter", "fusion_lon": 0.0, "is_reserved": 0, "bike_id": "887e70c5bfedb8c1a49d55a73e3dfd9d", "fusion_lat": 0.0, "is_disabled": 0, "rental_uris": {"ios": "https://dc.lft.to/lastmile_qr_scan", "android": "https://dc.lft.to/lastmile_qr_scan"}}, {"name": "f0bb8355b8abeb2fb4c78475c3874e79", "lon": -76.995158, "lat": 38.883728, "type": "electric_scooter", "fusion_lon": 0.0, "is_reserved": 0, "bike_id": "f0bb8355b8abeb2fb4c78475c3874e79", "fusion_lat": 0.0, "is_disabled": 0, "rental_uris": {"ios": "https://dc.lft.to/lastmile_qr_scan", "android": "https://dc.lft.to/lastmile_qr_scan"}}, {"name": "eed99467d5605007b81c0876e5952353", "lon": -76.93757866666667, "lat": 38.890469333333336, "type": "electric_scooter", "fusion_lon": 0.0, "is_reserved": 0, "bike_id": "eed99467d5605007b81c0876e5952353", "fusion_lat": 0.0, "is_disabled": 0, "rental_uris": {"ios": "https://dc.lft.to/lastmile_qr_scan", "android": "https://dc.lft.to/lastmile_qr_scan"}}, {"name": "afc7d81dc740e90eeb2c6dedf558a641", "lon": -77.01852716666667, "lat": 38.973773, "type": "electric_scooter", "fusion_lon": 0.0, "is_reserved": 0, "bike_id": "afc7d81dc740e90eeb2c6dedf558a641", "fusion_lat": 0.0, "is_disabled": 0, "rental_uris": {"ios": "https://dc.lft.to/lastmile_qr_scan", "android": "https://dc.lft.to/lastmile_qr_scan"}}, {"name": "744a7b7c384ce9f968915fc03784238d", "lon": -77.02295533333333, "lat": 38.956298833333335, "type": "electric_bike", "fusion_lon": 0.0, "is_reserved": 0, "bike_id": "744a7b7c384ce9f968915fc03784238d", "fusion_lat": 0.0, "is_disabled": 0, "rental_uris": {"ios": "https://dc.lft.to/lastmile_qr_scan", "android": "https://dc.lft.to/lastmile_qr_scan"}}, {"name": "5ad6886ca71494a9b35a8f82a956bf51", "lon": -77.02725166666667, "lat": 38.89497083333333, "type": "electric_scooter", "fusion_lon": 0.0, "is_reserved": 0, "bike_id": "5ad6886ca71494a9b35a8f82a956bf51", "fusion_lat": 0.0, "is_disabled": 0, "rental_uris": {"ios": "https://dc.lft.to/lastmile_qr_scan", "android": "https://dc.lft.to/lastmile_qr_scan"}}, {"name": "ff071594b667a2fa2fff37f199b96ec8", "lon": -77.047251, "lat": 38.909419166666666, "type": "electric_scooter", "fusion_lon": 0.0, "is_reserved": 0, "bike_id": "ff071594b667a2fa2fff37f199b96ec8", "fusion_lat": 0.0, "is_disabled": 0, "rental_uris": {"ios": "https://dc.lft.to/lastmile_qr_scan", "android": "https://dc.lft.to/lastmile_qr_scan"}}, {"name": "de688d701724400c77213ca34faa56f3", "lon": -77.03969666666667, "lat": 38.905606, "type": "electric_scooter", "fusion_lon": 0.0, "is_reserved": 0, "bike_id": "de688d701724400c77213ca34faa56f3", "fusion_lat": 0.0, "is_disabled": 0, "rental_uris": {"ios": "https://dc.lft.to/lastmile_qr_scan", "android": "https://dc.lft.to/lastmile_qr_scan"}}, {"name": "3689c4aab2473867ae64963b343f32f9", "lon": -77.02860866666667, "lat": 38.89868583333333, "type": "electric_scooter", "fusion_lon": 0.0, "is_reserved": 0, "bike_id": "3689c4aab2473867ae64963b343f32f9", "fusion_lat": 0.0, "is_disabled": 0, "rental_uris": {"ios": "https://dc.lft.to/lastmile_qr_scan", "android": "https://dc.lft.to/lastmile_qr_scan"}}, {"name": "dfe45c0d1fed99d9f46756ed15bad1fb", "lon": -77.0450895, "lat": 38.90385083333334, "type": "electric_scooter", "fusion_lon": 0.0, "is_reserved": 0, "bike_id": "dfe45c0d1fed99d9f46756ed15bad1fb", "fusion_lat": 0.0, "is_disabled": 0, "rental_uris": {"ios": "https://dc.lft.to/lastmile_qr_scan", "android": "https://dc.lft.to/lastmile_qr_scan"}}, {"name": "536adcefc9028051c22f685a85379cdc", "lon": -77.0418385, "lat": 38.89286933333333, "type": "electric_scooter", "fusion_lon": 0.0, "is_reserved": 0, "bike_id": "536adcefc9028051c22f685a85379cdc", "fusion_lat": 0.0, "is_disabled": 0, "rental_uris": {"ios": "https://dc.lft.to/lastmile_qr_scan", "android": "https://dc.lft.to/lastmile_qr_scan"}}, {"name": "3305b093f32af996bc66097451083059", "lon": -77.0102105, "lat": 38.917015, "type": "electric_scooter", "fusion_lon": 0.0, "is_reserved": 0, "bike_id": "3305b093f32af996bc66097451083059", "fusion_lat": 0.0, "is_disabled": 0, "rental_uris": {"ios": "https://dc.lft.to/lastmile_qr_scan", "android": "https://dc.lft.to/lastmile_qr_scan"}}, {"name": "9e9d34391a4ff1668bd587a406aca877", "lon": -77.02491383333333, "lat": 38.94184, "type": "electric_scooter", "fusion_lon": 0.0, "is_reserved": 0, "bike_id": "9e9d34391a4ff1668bd587a406aca877", "fusion_lat": 0.0, "is_disabled": 0, "rental_uris": {"ios": "https://dc.lft.to/lastmile_qr_scan", "android": "https://dc.lft.to/lastmile_qr_scan"}}, {"name": "da432f0c34999a80a6c5a60e55a50362", "lon": -77.02984916666666, "lat": 38.90389283333333, "type": "electric_scooter", "fusion_lon": 0.0, "is_reserved": 0, "bike_id": "da432f0c34999a80a6c5a60e55a50362", "fusion_lat": 0.0, "is_disabled": 0, "rental_uris": {"ios": "https://dc.lft.to/lastmile_qr_scan", "android": "https://dc.lft.to/lastmile_qr_scan"}}, {"name": "4e0b9dc1e0b5adb0b1d19a99fce62fe7", "lon": -77.02611183333333, "lat": 38.892404, "type": "electric_scooter", "fusion_lon": 0.0, "is_reserved": 0, "bike_id": "4e0b9dc1e0b5adb0b1d19a99fce62fe7", "fusion_lat": 0.0, "is_disabled": 0, "rental_uris": {"ios": "https://dc.lft.to/lastmile_qr_scan", "android": "https://dc.lft.to/lastmile_qr_scan"}}, {"name": "f6c13292d2b610b872c4e010cfb0843c", "lon": -77.02294616666667, "lat": 38.928074333333335, "type": "electric_scooter", "fusion_lon": 0.0, "is_reserved": 0, "bike_id": "f6c13292d2b610b872c4e010cfb0843c", "fusion_lat": 0.0, "is_disabled": 0, "rental_uris": {"ios": "https://dc.lft.to/lastmile_qr_scan", "android": "https://dc.lft.to/lastmile_qr_scan"}}, {"name": "abd162662463fcfa5767628f4d91a0bb", "lon": -76.991245, "lat": 38.8620285, "type": "electric_scooter", "fusion_lon": 0.0, "is_reserved": 0, "bike_id": "abd162662463fcfa5767628f4d91a0bb", "fusion_lat": 0.0, "is_disabled": 0, "rental_uris": {"ios": "https://dc.lft.to/lastmile_qr_scan", "android": "https://dc.lft.to/lastmile_qr_scan"}}, {"name": "4e1ab973d7dc619333b54256c70446b6", "lon": -76.989684, "lat": 38.865353, "type": "electric_scooter", "fusion_lon": 0.0, "is_reserved": 0, "bike_id": "4e1ab973d7dc619333b54256c70446b6", "fusion_lat": 0.0, "is_disabled": 0, "rental_uris": {"ios": "https://dc.lft.to/lastmile_qr_scan", "android": "https://dc.lft.to/lastmile_qr_scan"}}, {"name": "ef0d44fcea411fcfdf7cf6bbdf53d2a4", "lon": -77.01359916666667, "lat": 38.919253499999996, "type": "electric_scooter", "fusion_lon": 0.0, "is_reserved": 0, "bike_id": "ef0d44fcea411fcfdf7cf6bbdf53d2a4", "fusion_lat": 0.0, "is_disabled": 0, "rental_uris": {"ios": "https://dc.lft.to/lastmile_qr_scan", "android": "https://dc.lft.to/lastmile_qr_scan"}}, {"name": "227c45f7562ccc798fd1fc684e698e58", "lon": -77.017437, "lat": 38.88735916666667, "type": "electric_scooter", "fusion_lon": 0.0, "is_reserved": 0, "bike_id": "227c45f7562ccc798fd1fc684e698e58", "fusion_lat": 0.0, "is_disabled": 0, "rental_uris": {"ios": "https://dc.lft.to/lastmile_qr_scan", "android": "https://dc.lft.to/lastmile_qr_scan"}}, {"name": "96f1a0e64c9eb74ee235f6f115444c93", "lon": -77.01114566666666, "lat": 38.92965616666667, "type": "electric_scooter", "fusion_lon": 0.0, "is_reserved": 0, "bike_id": "96f1a0e64c9eb74ee235f6f115444c93", "fusion_lat": 0.0, "is_disabled": 0, "rental_uris": {"ios": "https://dc.lft.to/lastmile_qr_scan", "android": "https://dc.lft.to/lastmile_qr_scan"}}, {"name": "b84f413ae421b5dbdd5a13af27a5c345", "lon": -77.0347, "lat": 38.90281233333333, "type": "electric_scooter", "fusion_lon": 0.0, "is_reserved": 0, "bike_id": "b84f413ae421b5dbdd5a13af27a5c345", "fusion_lat": 0.0, "is_disabled": 0, "rental_uris": {"ios": "https://dc.lft.to/lastmile_qr_scan", "android": "https://dc.lft.to/lastmile_qr_scan"}}, {"name": "ce63b47fa103df415aa25685cd4624a8", "lon": -77.0321015, "lat": 38.9108645, "type": "electric_scooter", "fusion_lon": 0.0, "is_reserved": 0, "bike_id": "ce63b47fa103df415aa25685cd4624a8", "fusion_lat": 0.0, "is_disabled": 0, "rental_uris": {"ios": "https://dc.lft.to/lastmile_qr_scan", "android": "https://dc.lft.to/lastmile_qr_scan"}}, {"name": "c027c948b4e25938db7f51c5c5485672", "lon": -76.96864633333334, "lat": 38.87090416666667, "type": "electric_scooter", "fusion_lon": 0.0, "is_reserved": 0, "bike_id": "c027c948b4e25938db7f51c5c5485672", "fusion_lat": 0.0, "is_disabled": 0, "rental_uris": {"ios": "https://dc.lft.to/lastmile_qr_scan", "android": "https://dc.lft.to/lastmile_qr_scan"}}, {"name": "56c1e26f56f2b8499d636fdca6fe01ca", "lon": -77.0390455, "lat": 38.918645833333336, "type": "electric_scooter", "fusion_lon": 0.0, "is_reserved": 0, "bike_id": "56c1e26f56f2b8499d636fdca6fe01ca", "fusion_lat": 0.0, "is_disabled": 0, "rental_uris": {"ios": "https://dc.lft.to/lastmile_qr_scan", "android": "https://dc.lft.to/lastmile_qr_scan"}}, {"name": "e841c83a5c720e218c76252f430c738d", "lon": -76.98090866666666, "lat": 38.9535235, "type": "electric_bike", "fusion_lon": 0.0, "is_reserved": 0, "bike_id": "e841c83a5c720e218c76252f430c738d", "fusion_lat": 0.0, "is_disabled": 0, "rental_uris": {"ios": "https://dc.lft.to/lastmile_qr_scan", "android": "https://dc.lft.to/lastmile_qr_scan"}}, {"name": "f4af8941ecc84b4913049e65faa29bd2", "lon": -76.96599716666667, "lat": 38.87388, "type": "electric_scooter", "fusion_lon": 0.0, "is_reserved": 0, "bike_id": "f4af8941ecc84b4913049e65faa29bd2", "fusion_lat": 0.0, "is_disabled": 0, "rental_uris": {"ios": "https://dc.lft.to/lastmile_qr_scan", "android": "https://dc.lft.to/lastmile_qr_scan"}}, {"name": "6bddfd1d3c0b372e98d1b948f629379e", "lon": -76.94602316666666, "lat": 38.901539666666665, "type": "electric_scooter", "fusion_lon": 0.0, "is_reserved": 0, "bike_id": "6bddfd1d3c0b372e98d1b948f629379e", "fusion_lat": 0.0, "is_disabled": 0, "rental_uris": {"ios": "https://dc.lft.to/lastmile_qr_scan", "android": "https://dc.lft.to/lastmile_qr_scan"}}, {"name": "5eafd37bb33e7c7c66f672b9de5fd234", "lon": -77.00340183333333, "lat": 38.891864166666664, "type": "electric_scooter", "fusion_lon": 0.0, "is_reserved": 0, "bike_id": "5eafd37bb33e7c7c66f672b9de5fd234", "fusion_lat": 0.0, "is_disabled": 0, "rental_uris": {"ios": "https://dc.lft.to/lastmile_qr_scan", "android": "https://dc.lft.to/lastmile_qr_scan"}}, {"name": "073624cabda468f3a98b147dab9bf4ba", "lon": -77.06337766666667, "lat": 38.90737416666666, "type": "electric_scooter", "fusion_lon": 0.0, "is_reserved": 0, "bike_id": "073624cabda468f3a98b147dab9bf4ba", "fusion_lat": 0.0, "is_disabled": 0, "rental_uris": {"ios": "https://dc.lft.to/lastmile_qr_scan", "android": "https://dc.lft.to/lastmile_qr_scan"}}, {"name": "e1cb492fee69bce979401ed1decaff21", "lon": -76.99013383333333, "lat": 38.90502733333334, "type": "electric_scooter", "fusion_lon": 0.0, "is_reserved": 0, "bike_id": "e1cb492fee69bce979401ed1decaff21", "fusion_lat": 0.0, "is_disabled": 0, "rental_uris": {"ios": "https://dc.lft.to/lastmile_qr_scan", "android": "https://dc.lft.to/lastmile_qr_scan"}}, {"name": "92ceda3ff4c25f9e92ec007b4a7171fd", "lon": -76.93732933333334, "lat": 38.8901755, "type": "electric_scooter", "fusion_lon": 0.0, "is_reserved": 0, "bike_id": "92ceda3ff4c25f9e92ec007b4a7171fd", "fusion_lat": 0.0, "is_disabled": 0, "rental_uris": {"ios": "https://dc.lft.to/lastmile_qr_scan", "android": "https://dc.lft.to/lastmile_qr_scan"}}, {"name": "fa0694ead0f46ad647de46692ae70d0f", "lon": -77.001952, "lat": 38.89250233333333, "type": "electric_bike", "fusion_lon": 0.0, "is_reserved": 0, "bike_id": "fa0694ead0f46ad647de46692ae70d0f", "fusion_lat": 0.0, "is_disabled": 0, "rental_uris": {"ios": "https://dc.lft.to/lastmile_qr_scan", "android": "https://dc.lft.to/lastmile_qr_scan"}}, {"name": "75c4c89fda8a5b4717d218d917421e8b", "lon": -77.047126, "lat": 38.897374, "type": "electric_scooter", "fusion_lon": 0.0, "is_reserved": 0, "bike_id": "75c4c89fda8a5b4717d218d917421e8b", "fusion_lat": 0.0, "is_disabled": 0, "rental_uris": {"ios": "https://dc.lft.to/lastmile_qr_scan", "android": "https://dc.lft.to/lastmile_qr_scan"}}, {"name": "bdeeef481d430a8390bfbfd6e5549063", "lon": -77.05912533333333, "lat": 38.900996666666664, "type": "electric_scooter", "fusion_lon": 0.0, "is_reserved": 0, "bike_id": "bdeeef481d430a8390bfbfd6e5549063", "fusion_lat": 0.0, "is_disabled": 0, "rental_uris": {"ios": "https://dc.lft.to/lastmile_qr_scan", "android": "https://dc.lft.to/lastmile_qr_scan"}}, {"name": "a3d136970e7aa607cef4f2af1d081b7b", "lon": -76.93646516666666, "lat": 38.871474166666665, "type": "electric_bike", "fusion_lon": 0.0, "is_reserved": 0, "bike_id": "a3d136970e7aa607cef4f2af1d081b7b", "fusion_lat": 0.0, "is_disabled": 0, "rental_uris": {"ios": "https://dc.lft.to/lastmile_qr_scan", "android": "https://dc.lft.to/lastmile_qr_scan"}}, {"name": "c1032336bce58e44392a215c569cb981", "lon": -77.0469895, "lat": 38.921755833333336, "type": "electric_scooter", "fusion_lon": 0.0, "is_reserved": 0, "bike_id": "c1032336bce58e44392a215c569cb981", "fusion_lat": 0.0, "is_disabled": 0, "rental_uris": {"ios": "https://dc.lft.to/lastmile_qr_scan", "android": "https://dc.lft.to/lastmile_qr_scan"}},