{"data": {"bikes": [{"lon": -77.00060916666666, "bike_id": "0e3ed6e9884ec707da9a26c29297f192", "lat": 38.91907166666667, "fusion_lon": 0.0, "fusion_lat": 0.0, "type": "electric_scooter", "name": "0e3ed6e9884ec707da9a26c29297f192", "is_disabled": 0, "rental_uris": {"ios": "https://dc.lft.to/lastmile_qr_scan", "android": "https://dc.lft.to/lastmile_qr_scan"}, "is_reserved": 0}, {"lon": -76.96909166666667, "bike_id": "b0ddae767a2b1b8d427b4b63565490f5", "lat": 38.84613233333334, "fusion_lon": 0.0, "fusion_lat": 0.0, "type": "electric_bike", "name": "b0ddae767a2b1b8d427b4b63565490f5", "is_disabled": 0, "rental_uris": {"ios": "https://dc.lft.to/lastmile_qr_scan", "android": "https://dc.lft.to/lastmile_qr_scan"}, "is_reserved": 0}, {"lon": -77.033385, "bike_id": "ae9f7be80f668c9341d3414e2d23097f", "lat": 38.94510533333333, "fusion_lon": 0.0, "fusion_lat": 0.0, "type": "electric_bike", "name": "ae9f7be80f668c9341d3414e2d23097f", "is_disabled": 0, "rental_uris": {"ios": "https://dc.lft.to/lastmile_qr_scan", "android": "https://dc.lft.to/lastmile_qr_scan"}, "is_reserved": 0}, {"lon": -76.98066066666667, "bike_id": "a1ee89fc48dcf710a2ee00cc977b5c6e", "lat": 38.917049, "fusion_lon": 0.0, "fusion_lat": 0.0, "type": "electric_scooter", "name": "a1ee89fc48dcf710a2ee00cc977b5c6e", "is_disabled": 0, "rental_uris": {"ios": "https://dc.lft.to/lastmile_qr_scan", "android": "https://dc.lft.to/lastmile_qr_scan"}, "is_reserved": 0}, {"lon": -77.024031, "bike_id": "f5dbca2ed70af8d0b9594a05c752ef67", "lat": 38.904095166666664, "fusion_lon": 0.0, "fusion_lat": 0.0, "type": "electric_scooter", "name": "f5dbca2ed70af8d0b9594a05c752ef67", "is_disabled": 0, "rental_uris": {"ios": "https://dc.lft.to/lastmile_qr_scan", "android": "https://dc.lft.to/lastmile_qr_scan"}, "is_reserved": 0}, {"lon": -77.014029, "bike_id": "70c54a2d0f34d448f2e751038efa6776", "lat": 38.928753, "fusion_lon": 0.0, "fusion_lat": 0.0, "type": "electric_scooter", "name": "70c54a2d0f34d448f2e751038efa6776", "is_disabled": 0, "rental_uris": {"ios": "https://dc.lft.to/lastmile_qr_scan", "android": "https://dc.lft.to/lastmile_qr_scan"}, "is_reserved": 0}, {"lon": -77.0228175, "bike_id": "ef27630b07d2a4e83ae5d7c4429e13f6", "lat": 38.9268375, "fusion_lon": 0.0, "fusion_lat": 0.0, "type": "electric_scooter", "name": "ef27630b07d2a4e83ae5d7c4429e13f6", "is_disabled": 0, "rental_uris": {"ios": "https://dc.lft.to/lastmile_qr_scan", "android": "https://dc.lft.to/lastmile_qr_scan"}, "is_reserved": 0}, {"lon": -77.01712683333334, "bike_id": "41bb0b015683bbf7a199071616c00acb", "lat": 38.913603, "fusion_lon": 0.0, "fusion_lat": 0.0, "type": "electric_scooter", "name": "41bb0b015683bbf7a199071616c00acb", "is_disabled": 0, "rental_uris": {"ios": "https://dc.lft.to/lastmile_qr_scan", "android": "https://dc.lft.to/lastmile_qr_scan"}, "is_reserved": 0}, {"lon": -77.11592233333333, "bike_id": "2a8cd9347a66980c2a2f2ab1ddd35b1b", "lat": 39.074963333333336, "fusion_lon": 0.0, "fusion_lat": 0.0, "type": "electric_bike", "name": "2a8cd9347a66980c2a2f2ab1ddd35b1b", "is_disabled": 0, "rental_uris": {"ios": "https://dc.lft.to/lastmile_qr_scan", "android": "https://dc.lft.to/lastmile_qr_scan"}, "is_reserved": 0}, {"lon": -77.02358133333334, "bike_id": "4f9102fa356b2f6ded8a7743921785a1", "lat": 38.89989683333334, "fusion_lon": 0.0, "fusion_lat": 0.0, "type": "electric_scooter", "name": "4f9102fa356b2f6ded8a7743921785a1", "is_disabled": 0, "rental_uris": {"ios": "https://dc.lft.to/lastmile_qr_scan", "android": "https://dc.lft.to/lastmile_qr_scan"}, "is_reserved": 0}, {"lon": -77.02316016666667, "bike_id": "b6cba5ee081ac680218006fa4613c5a6", "lat": 38.9552985, "fusion_lon": 0.0, "fusion_lat": 0.0, "type": "electric_scooter", "name": "b6cba5ee081ac680218006fa4613c5a6", "is_disabled": 0, "rental_uris": {"ios": "https://dc.lft.to/lastmile_qr_scan", "android": "https://dc.lft.to/lastmile_qr_scan"}, "is_reserved": 0}, {"lon": -77.002193, "bike_id": "b886865dc633ba2693fa7dcb9d8b382c", "lat": 38.900348, "fusion_lon": 0.0, "fusion_lat": 0.0, "type": "electric_scooter", "name": "b886865dc633ba2693fa7dcb9d8b382c", "is_disabled": 0, "rental_uris": {"ios": "https://dc.lft.to/lastmile_qr_scan", "android": "https://dc.lft.to/lastmile_qr_scan"}, "is_reserved": 0}, {"lon": -76.945744, "bike_id": "50629097712f21fa7b8132028d6204de", "lat": 38.937546166666664, "fusion_lon": 0.0, "fusion_lat": 0.0, "type": "electric_bike", "name": "50629097712f21fa7b8132028d6204de", "is_disabled": 0, "rental_uris": {"ios": "https://dc.lft.to/lastmile_qr_scan", "android": "https://dc.lft.to/lastmile_qr_scan"}, "is_reserved": 0}, {"lon": -76.98508466666667, "bike_id": "64335b3a57c92b6525b10b3495eff8d0", "lat": 38.90347916666666, "fusion_lon": 0.0, "fusion_lat": 0.0, "type": "electric_scooter", "name": "64335b3a57c92b6525b10b3495eff8d0", "is_disabled": 0, "rental_uris": {"ios": "https://dc.lft.to/lastmile_qr_scan", "android": "https://dc.lft.to/lastmile_qr_scan"}, "is_reserved": 0}, {"lon": -77.03879333333333, "bike_id": "a2afd15777f02e2589c3737562aa72d9", "lat": 38.90725483333333, "fusion_lon": 0.0, "fusion_lat": 0.0, "type": "electric_scooter", "name": "a2afd15777f02e2589c3737562aa72d9", "is_disabled": 0, "rental_uris": {"ios": "https://dc.lft.to/lastmile_qr_scan", "android": "https://dc.lft.to/lastmile_qr_scan"}, "is_reserved": 0}, {"lon": -77.0239595, "bike_id": "946201fd3373985c0711dff8d3cd5a85", "lat": 38.90626816666666, "fusion_lon": 0.0, "fusion_lat": 0.0, "type": "electric_scooter", "name": "946201fd3373985c0711dff8d3cd5a85", "is_disabled": 0, "rental_uris": {"ios": "https://dc.lft.to/lastmile_qr_scan", "android": "https://dc.lft.to/lastmile_qr_scan"}, "is_reserved": 0}, {"lon": -77.03452016666667, "bike_id": "8acedc09fb79815c75678ce1453836b1", "lat": 38.916666166666666, "fusion_lon": 0.0, "fusion_lat": 0.0, "type": "electric_scooter", "name": "8acedc09fb79815c75678ce1453836b1", "is_disabled": 0, "rental_uris": {"ios": "https://dc.lft.to/lastmile_qr_scan", "android": "https://dc.lft.to/lastmile_qr_scan"}, "is_reserved": 0}, {"lon": -77.0271715, "bike_id": "45b03fc72a5adea6d44cdefb7a537807", "lat": 38.9181435, "fusion_lon": 0.0, "fusion_lat": 0.0, "type": "electric_scooter", "name": "45b03fc72a5adea6d44cdefb7a537807", "is_disabled": 0, "rental_uris": {"ios": "https://dc.lft.to/lastmile_qr_scan", "android": "https://dc.lft.to/lastmile_qr_scan"}, "is_reserved": 0}, {"lon": -77.04035516666667, "bike_id": "cf6ae40e101451235ad446079013e767", "lat": 38.91267033333333, "fusion_lon": 0.0, "fusion_lat": 0.0, "type": "electric_scooter", "name": "cf6ae40e101451235ad446079013e767", "is_disabled": 0, "rental_uris": {"ios": "https://dc.lft.to/lastmile_qr_scan", "android": "https://dc.lft.to/lastmile_qr_scan"}, "is_reserved": 0}, {"lon": -77.0174875, "bike_id": "c5005fbbfa88703903168891aaa008c7", "lat": 38.876668, "fusion_lon": 0.0, "fusion_lat": 0.0, "type": "electric_scooter", "name": "c5005fbbfa88703903168891aaa008c7", "is_disabled": 0, "rental_uris": {"ios": "https://dc.lft.to/lastmile_qr_scan", "android": "https://dc.lft.to/lastmile_qr_scan"}, "is_reserved": 0}, {"lon": -77.04316316666667, "bike_id": "575cef028de029a9e373348809352dd7", "lat": 38.91880833333333, "fusion_lon": 0.0, "fusion_lat": 0.0, "type": "electric_scooter", "name": "575cef028de029a9e373348809352dd7", "is_disabled": 0, "rental_uris": {"ios": "https://dc.lft.to/lastmile_qr_scan", "android": "https://dc.lft.to/lastmile_qr_scan"}, "is_reserved": 0}, {"lon": -77.03868483333333, "bike_id": "f5ec3b023691963f2effe7b1605e5789", "lat": 38.914156166666665, "fusion_lon": 0.0, "fusion_lat": 0.0, "type": "electric_scooter", "name": "f5ec3b023691963f2effe7b1605e5789", "is_disabled": 0, "rental_uris": {"ios": "https://dc.lft.to/lastmile_qr_scan", "android": "https://dc.lft.to/lastmile_qr_scan"}, "is_reserved": 0}, {"lon": -77.0423925, "bike_id": "8f7bbd2645609c3dca19658b5f9fce42", "lat": 38.922139666666666, "fusion_lon": 0.0, "fusion_lat": 0.0, "type": "electric_scooter", "name": "8f7bbd2645609c3dca19658b5f9fce42", "is_disabled": 0, "rental_uris": {"ios": "https://dc.lft.to/lastmile_qr_scan", "android": "https://dc.lft.to/lastmile_qr_scan"}, "is_reserved": 0}, {"lon": -77.00710866666667, "bike_id": "aefb8131f9d309a5f3df2c6136fe9bb8", "lat": 38.884921166666665, "fusion_lon": 0.0, "fusion_lat": 0.0, "type": "electric_scooter", "name": "aefb8131f9d309a5f3df2c6136fe9bb8", "is_disabled": 0, "rental_uris": {"ios": "https://dc.lft.to/lastmile_qr_scan", "android": "https://dc.lft.to/lastmile_qr_scan"}, "is_reserved": 0}, {"lon": -77.03292233333333, "bike_id": "1d5c0de0bf96556f7f4338fbfc62778a", "lat": 38.928897666666664, "fusion_lon": 0.0, "fusion_lat": 0.0, "type": "electric_scooter", "name": "1d5c0de0bf96556f7f4338fbfc62778a", "is_disabled": 0, "rental_uris": {"ios": "https://dc.lft.to/lastmile_qr_scan", "android": "https://dc.lft.to/lastmile_qr_scan"}, "is_reserved": 0}, {"lon": -76.98316016666666, "bike_id": "6f88b586400fd708472970abf7c820a9", "lat": 38.90102316666667, "fusion_lon": 0.0, "fusion_lat": 0.0, "type": "electric_scooter", "name": "6f88b586400fd708472970abf7c820a9", "is_disabled": 0, "rental_uris": {"ios": "https://dc.lft.to/lastmile_qr_scan", "android": "https://dc.lft.to/lastmile_qr_scan"}, "is_reserved": 0}, {"lon": -77.02368066666666, "bike_id": "abb6b27fecdf81638bf810b2bf66d4e7", "lat": 38.9195575, "fusion_lon": 0.0, "fusion_lat": 0.0, "type": "electric_scooter", "name": "abb6b27fecdf81638bf810b2bf66d4e7", "is_disabled": 0, "rental_uris": {"ios": "https://dc.lft.to/lastmile_qr_scan", "android": "https://dc.lft.to/lastmile_qr_scan"}, "is_reserved": 0}, {"lon": -77.06188033333333, "bike_id": "ea99a3a08724a4b37674d3e0bdcddcc4", "lat": 38.91052966666667, "fusion_lon": 0.0, "fusion_lat": 0.0, "type": "electric_scooter", "name": "ea99a3a08724a4b37674d3e0bdcddcc4", "is_disabled": 0, "rental_uris": {"ios": "https://dc.lft.to/lastmile_qr_scan", "android": "https://dc.lft.to/lastmile_qr_scan"}, "is_reserved": 0}, {"lon": -77.00187966666667, "bike_id": "003c374d72135602ce7fc7deb62358cb", "lat": 38.911902833333336, "fusion_lon": 0.0, "fusion_lat": 0.0, "type": "electric_scooter", "name": "003c374d72135602ce7fc7deb62358cb", "is_disabled": 0, "rental_uris": {"ios": "https://dc.lft.to/lastmile_qr_scan", "android": "https://dc.lft.to/lastmile_qr_scan"}, "is_reserved": 0}, {"lon": -77.0142925, "bike_id": "ac1aff00e4935e0dbefee8067f41fdc3", "lat": 38.89964416666667, "fusion_lon": 0.0, "fusion_lat": 0.0, "type": "electric_scooter", "name": "ac1aff00e4935e0dbefee8067f41fdc3", "is_disabled": 0, "rental_uris": {"ios": "https://dc.lft.to/lastmile_qr_scan", "android": "https://dc.lft.to/lastmile_qr_scan"}, "is_reserved": 0}, {"lon": -77.03849833333334, "bike_id": "54d7bd61e5f2ecc143c7d20fd9d58b18", "lat": 38.9174925, "fusion_lon": 0.0, "fusion_lat": 0.0, "type": "electric_scooter", "name": "54d7bd61e5f2ecc143c7d20fd9d58b18", "is_disabled": 0, "rental_uris": {"ios": "https://dc.lft.to/lastmile_qr_scan", "android": "https://dc.lft.to/lastmile_qr_scan"}, "is_reserved": 0}, {"lon": -77.04471366666667, "bike_id": "49984dfadb985211e3bdcbafd561a639", "lat": 38.921417166666664, "fusion_lon": 0.0, "fusion_lat": 0.0, "type": "electric_scooter", "name": "49984dfadb985211e3bdcbafd561a639", "is_disabled": 0, "rental_uris": {"ios": "https://dc.lft.to/lastmile_qr_scan", "android": "https://dc.lft.to/lastmile_qr_scan"}, "is_reserved": 0}, {"lon": -77.00743383333334, "bike_id": "b0a21534fe62abe455f9071245efcf0d", "lat": 38.87666883333333, "fusion_lon": 0.0, "fusion_lat": 0.0, "type": "electric_scooter", "name": "b0a21534fe62abe455f9071245efcf0d", "is_disabled": 0, "rental_uris": {"ios": "https://dc.lft.to/lastmile_qr_scan", "android": "https://dc.lft.to/lastmile_qr_scan"}, "is_reserved": 0}, {"lon": -76.94154066666667, "bike_id": "d0667f33c745d2413fea04bfee9190f2", "lat": 38.8790945, "fusion_lon": 0.0, "fusion_lat": 0.0, "type": "electric_scooter", "name": "d0667f33c745d2413fea04bfee9190f2", "is_disabled": 0, "rental_uris": {"ios": "https://dc.lft.to/lastmile_qr_scan", "android": "https://dc.lft.to/lastmile_qr_scan"}, "is_reserved": 0}, {"lon": -77.04605016666666, "bike_id": "474966323af400bea38c0884fda45a8b", "lat": 38.921778833333335, "fusion_lon": 0.0, "fusion_lat": 0.0, "type": "electric_scooter", "name": "474966323af400bea38c0884fda45a8b", "is_disabled": 0, "rental_uris": {"ios": "https://dc.lft.to/lastmile_qr_scan", "android": "https://dc.lft.to/lastmile_qr_scan"}, "is_reserved": 0}, {"lon": -76.99262866666666, "bike_id": "e1c142425fa52bf9f7fcfa486218db87", "lat": 38.8976455, "fusion_lon": 0.0, "fusion_lat": 0.0, "type": "electric_scooter", "name": "e1c142425fa52bf9f7fcfa486218db87", "is_disabled": 0, "rental_uris": {"ios": "https://dc.lft.to/lastmile_qr_scan", "android": "https://dc.lft.to/lastmile_qr_scan"}, "is_reserved": 0}, {"lon": -77.0318085, "bike_id": "0ad214e2c2d4f3746ec84c47d82c3ff3", "lat": 38.88726483333333, "fusion_lon": 0.0, "fusion_lat": 0.0, "type": "electric_scooter", "name": "0ad214e2c2d4f3746ec84c47d82c3ff3", "is_disabled": 0, "rental_uris": {"ios": "https://dc.lft.to/lastmile_qr_scan", "android": "https://dc.lft.to/lastmile_qr_scan"}, "is_reserved": 0}, {"lon": -77.03843683333334, "bike_id": "b8e29b4083f5b4790567b118da8f6d0d", "lat": 38.90770916666666, "fusion_lon": 0.0, "fusion_lat": 0.0, "type": "electric_scooter", "name": "b8e29b4083f5b4790567b118da8f6d0d", "is_disabled": 0, "rental_uris": {"ios": "https://dc.lft.to/lastmile_qr_scan", "android": "https://dc.lft.to/lastmile_qr_scan"}, "is_reserved": 0}, {"lon": -77.05595483333333, "bike_id": "2651b593edc5f2c6dcd74c6885421998", "lat": 38.9161445, "fusion_lon": 0.0, "fusion_lat": 0.0, "type": "electric_scooter", "name": "2651b593edc5f2c6dcd74c6885421998", "is_disabled": 0, "rental_uris": {"ios": "https://dc.lft.to/lastmile_qr_scan", "android": "https://dc.lft.to/lastmile_qr_scan"}, "is_reserved": 0}, {"lon": -77.0534015, "bike_id": "ecddc67a6541d62d4cd0eee277192910", "lat": 38.907162, "fusion_lon": 0.0, "fusion_lat": 0.0, "type": "electric_scooter", "name": "ecddc67a6541d62d4cd0eee277192910", "is_disabled": 0, "rental_uris": {"ios": "https://dc.lft.to/lastmile_qr_scan", "android": "https://dc.lft.to/lastmile_qr_scan"}, "is_reserved": 0}, {"lon": -77.0011365, "bike_id": "9da967fa40925621c8824932b5b6d26e", "lat": 38.917072166666664, "fusion_lon": 0.0, "fusion_lat": 0.0, "type": "electric_scooter", "name": "9da967fa40925621c8824932b5b6d26e", "is_disabled": 0, "rental_uris": {"ios": "https://dc.lft.to/lastmile_qr_scan", "android": "https://dc.lft.to/lastmile_qr_scan"}, "is_reserved": 0}, {"lon": -76.89537166666666, "bike_id": "3223dc6155cda1a0b91482d42d6656cf", "lat": 38.94550783333333, "fusion_lon": 0.0, "fusion_lat": 0.0, "type": "electric_bike", "name": "3223dc6155cda1a0b91482d42d6656cf", "is_disabled": 0, "rental_uris": {"ios": "https://dc.lft.to/lastmile_qr_scan", "android": "https://dc.lft.to/lastmile_qr_scan"}, "is_reserved": 0}, {"lon": -77.03834966666666, "bike_id": "2e734a3a7b869d3f912bafc069048a44", "lat": 38.9109305, "fusion_lon": 0.0, "fusion_lat": 0.0, "type": "electric_scooter", "name": "2e734a3a7b869d3f912bafc069048a44", "is_disabled": 0, "rental_uris": {"ios": "https://dc.lft.to/lastmile_qr_scan", "android": "https://dc.lft.to/lastmile_qr_scan"}, "is_reserved": 0}, {"lon": -77.03544516666666, "bike_id": "d01d191c1d0b5870b064d4f600844bee", "lat": 38.9183655, "fusion_lon": 0.0, "fusion_lat": 0.0, "type": "electric_scooter", "name": "d01d191c1d0b5870b064d4f600844bee", "is_disabled": 0, "rental_uris": {"ios": "https://dc.lft.to/lastmile_qr_scan", "android": "https://dc.lft.to/lastmile_qr_scan"}, "is_reserved": 0}, {"lon": -77.0272825, "bike_id": "6fe165b93c79c844539703d0ce986400", "lat": 38.94082233333334, "fusion_lon": 0.0, "fusion_lat": 0.0, "type": "electric_scooter", "name": "6fe165b93c79c844539703d0ce986400", "is_disabled": 0, "rental_uris": {"ios": "https://dc.lft.to/lastmile_qr_scan", "android": "https://dc.lft.to/lastmile_qr_scan"}, "is_reserved": 0}, {"lon": -77.01981433333333, "bike_id": "7366835c128c554387f3d4bcbac7d2c4", "lat": 38.914946666666665, "fusion_lon": 0.0, "fusion_lat": 0.0, "type": "electric_scooter", "name": "7366835c128c554387f3d4bcbac7d2c4", "is_disabled": 0, "rental_uris": {"ios": "https://dc.lft.to/lastmile_qr_scan", "android": "https://dc.lft.to/lastmile_qr_scan"}, "is_reserved": 0}, {"lon": -77.02159033333334, "bike_id": "a6a7245b99378be7f739a00fa3bcf362", "lat": 38.89219633333333, "fusion_lon": 0.0, "fusion_lat": 0.0, "type": "electric_scooter", "name": "a6a7245b99378be7f739a00fa3bcf362", "is_disabled": 0, "rental_uris": {"ios": "https://dc.lft.to/lastmile_qr_scan", "android": "https://dc.lft.to/lastmile_qr_scan"}, "is_reserved": 0}, {"lon": -77.00445483333333, "bike_id": "441ad4e2de4f2e10b90e806ccf0e8e4e", "lat": 38.89711, "fusion_lon": 0.0, "fusion_lat": 0.0, "type": "electric_bike", "name": "441ad4e2de4f2e10b90e806ccf0e8e4e", "is_disabled": 0, "rental_uris": {"ios": "https://dc.lft.to/lastmile_qr_scan", "android": "https://dc.lft.to/lastmile_qr_scan"}, "is_reserved": 0}, {"lon": -77.0219695, "bike_id": "3a4f5ea5653cc5c1f1e8374619fea211", "lat": 38.8926355, "fusion_lon": 0.0, "fusion_lat": 0.0, "type": "electric_scooter", "name": "3a4f5ea5653cc5c1f1e8374619fea211", "is_disabled": 0, "rental_uris": {"ios": "https://dc.lft.to/lastmile_qr_scan", "android": "https://dc.lft.to/lastmile_qr_scan"}, "is_reserved": 0}, {"lon": -77.0091545, "bike_id": "24fbf35774a5e0963d302a32b118d763", "lat": 38.89605866666667, "fusion_lon": 0.0, "fusion_lat": 0.0, "type": "electric_scooter", "name": "24fbf35774a5e0963d302a32b118d763", "is_disabled": 0, "rental_uris": {"ios": "https://dc.lft.to/lastmile_qr_scan", "android": "https://dc.lft.to/lastmile_qr_scan"}, "is_reserved": 0}, {"lon": -77.03834916666666, "bike_id": "9766a4bf805def3e6e699e58c9c7f36c", "lat": 38.914706333333335, "fusion_lon": 0.0, "fusion_lat": 0.0, "type": "electric_scooter", "name": "9766a4bf805def3e6e699e58c9c7f36c", "is_disabled": 0, "rental_uris": {"ios": "https://dc.lft.to/lastmile_qr_scan", "android": "https://dc.lft.to/lastmile_qr_scan"}, "is_reserved": 0}, {"lon": -76.97809, "bike_id": "c6b16d2572e124f650618008f4e17e3b", "lat": 38.906739, "fusion_lon": 0.0, "fusion_lat": 0.0, "type": "electric_scooter", "name": "c6b16d2572e124f650618008f4e17e3b", "is_disabled": 0, "rental_uris": {"ios": "https://dc.lft.to/lastmile_qr_scan", "android": "https://dc.lft.to/lastmile_qr_scan"}, "is_reserved": 0}, {"lon": -77.04008216666666, "bike_id": "b5e02a45ca7d355d746dec312ae2aa34", "lat": 38.90997733333333, "fusion_lon": 0.0, "fusion_lat": 0.0, "type": "electric_scooter", "name": "b5e02a45ca7d355d746dec312ae2aa34", "is_disabled": 0, "rental_uris": {"ios": "https://dc.lft.to/lastmile_qr_scan", "android": "https://dc.lft.to/lastmile_qr_scan"}, "is_reserved": 0}, {"lon": -77.03624533333333, "bike_id": "47af76ac9d93529140b6a9ebd6c44e39", "lat": 38.91690283333333, "fusion_lon": 0.0, "fusion_lat": 0.0, "type": "electric_scooter", "name": "47af76ac9d93529140b6a9ebd6c44e39", "is_disabled": 0, "rental_uris": {"ios": "https://dc.lft.to/lastmile_qr_scan", "android": "https://dc.lft.to/lastmile_qr_scan"}, "is_reserved": 0}, {"lon": -77.0362, "bike_id": "68244c78c4ebdcd3c2759bfa9e3c71df", "lat": 38.93678216666667, "fusion_lon": 0.0, "fusion_lat": 0.0, "type": "electric_scooter", "name": "68244c78c4ebdcd3c2759bfa9e3c71df", "is_disabled": 0, "rental_uris": {"ios": "https://dc.lft.to/lastmile_qr_scan", "android": "https://dc.lft.to/lastmile_qr_scan"}, "is_reserved": 0}, {"lon": -77.0318285, "bike_id": "1e53a004894c8f4a6485b306c0391554", "lat": 38.91328033333333, "fusion_lon": 0.0, "fusion_lat": 0.0, "type": "electric_scooter", "name": "1e53a004894c8f4a6485b306c0391554", "is_disabled": 0, "rental_uris": {"ios": "https://dc.lft.to/lastmile_qr_scan", "android": "https://dc.lft.to/lastmile_qr_scan"}, "is_reserved": 0}, {"lon": -77.02805466666666, "bike_id": "3bb61bff31898451c81a706e26b5d736", "lat": 38.88184233333333, "fusion_lon": 0.0, "fusion_lat": 0.0, "type": "electric_scooter", "name": "3bb61bff31898451c81a706e26b5d736", "is_disabled": 0, "rental_uris": {"ios": "https://dc.lft.to/lastmile_qr_scan", "android": "https://dc.lft.to/lastmile_qr_scan"}, "is_reserved": 0}, {"lon": -77.0186905, "bike_id": "3bb314bed19a9b66c0f9b7cdd506e397", "lat": 38.89861533333333, "fusion_lon": 0.0, "fusion_lat": 0.0, "type": "electric_scooter", "name": "3bb314bed19a9b66c0f9b7cdd506e397", "is_disabled": 0, "rental_uris": {"ios": "https://dc.lft.to/lastmile_qr_scan", "android": "https://dc.lft.to/lastmile_qr_scan"}, "is_reserved": 0}, {"lon": -76.98467133333334, "bike_id": "71cc26bd95b9bc7fb0de1bb84db59d3b", "lat": 38.903995333333334, "fusion_lon": 0.0, "fusion_lat": 0.0, "type": "electric_scooter", "name": "71cc26bd95b9bc7fb0de1bb84db59d3b", "is_disabled": 0, "rental_uris": {"ios": "https://dc.lft.to/lastmile_qr_scan", "android": "https://dc.lft.to/lastmile_qr_scan"}, "is_reserved": 0}, {"lon": -77.02766083333333, "bike_id": "e8c59cbb17aa9e8151965c37318aa9fa", "lat": 38.95425483333333, "fusion_lon": 0.0, "fusion_lat": 0.0, "type": "electric_scooter", "name": "e8c59cbb17aa9e8151965c37318aa9fa", "is_disabled": 0, "rental_uris": {"ios": "https://dc.lft.to/lastmile_qr_scan", "android": "https://dc.lft.to/lastmile_qr_scan"}, "is_reserved": 0}, {"lon": -77.04866616666666, "bike_id": "60e3cbb96c097505fb6a2afa02bcad9a", "lat": 38.892212, "fusion_lon": 0.0, "fusion_lat": 0.0, "type": "electric_scooter", "name": "60e3cbb96c097505fb6a2afa02bcad9a", "is_disabled": 0, "rental_uris": {"ios": "https://dc.lft.to/lastmile_qr_scan", "android": "https://dc.lft.to/lastmile_qr_scan"}, "is_reserved": 0}, {"lon": -77.06278466666667, "bike_id": "04273563b5cf00c002f887a578207cc2", "lat": 38.906240333333336, "fusion_lon": 0.0, "fusion_lat": 0.0, "type": "electric_scooter", "name": "04273563b5cf00c002f887a578207cc2", "is_disabled": 0, "rental_uris": {"ios": "https://dc.lft.to/lastmile_qr_scan", "android": "https://dc.lft.to/lastmile_qr_scan"}, "is_reserved": 0}, {"lon": -77.0165085, "bike_id": "3692c0f00774a20896dc89004b7b3528", "lat": 38.877164, "fusion_lon": 0.0, "fusion_lat": 0.0, "type": "electric_scooter", "name": "3692c0f00774a20896dc89004b7b3528", "is_disabled": 0, "rental_uris": {"ios": "https://dc.lft.to/lastmile_qr_scan", "android": "https://dc.lft.to/lastmile_qr_scan"}, "is_reserved": 0}, {"lon": -77.01999716666667, "bike_id": "9339f0d9481b9547d1911acf7d31071e", "lat": 38.96627383333333, "fusion_lon": 0.0, "fusion_lat": 0.0, "type": "electric_scooter", "name": "9339f0d9481b9547d1911acf7d31071e", "is_disabled": 0, "rental_uris": {"ios": "https://dc.lft.to/lastmile_qr_scan", "android": "https://dc.lft.to/lastmile_qr_scan"}, "is_reserved": 0}, {"lon": -77.01446516666667, "bike_id": "dd19c6b09420111b04996f80455847e5", "lat": 38.9271035, "fusion_lon": 0.0, "fusion_lat": 0.0, "type": "electric_scooter", "name": "dd19c6b09420111b04996f80455847e5", "is_disabled": 0, "rental_uris": {"ios": "https://dc.lft.to/lastmile_qr_scan", "android": "https://dc.lft.to/lastmile_qr_scan"}, "is_reserved": 0}, {"lon": -77.03285483333333, "bike_id": "645f41781bde1eed49f92763685d12d6", "lat": 38.928778333333334, "fusion_lon": 0.0, "fusion_lat": 0.0, "type": "electric_scooter", "name": "645f41781bde1eed49f92763685d12d6", "is_disabled": 0, "rental_uris": {"ios": "https://dc.lft.to/lastmile_qr_scan", "android": "https://dc.lft.to/lastmile_qr_scan"}, "is_reserved": 0}, {"lon": -77.03187933333334, "bike_id": "56b6dd4252dbc20d197c22cad526666b", "lat": 38.90366816666667, "fusion_lon": 0.0, "fusion_lat": 0.0, "type": "electric_scooter", "name": "56b6dd4252dbc20d197c22cad526666b", "is_disabled": 0, "rental_uris": {"ios": "https://dc.lft.to/lastmile_qr_scan", "android": "https://dc.lft.to/lastmile_qr_scan"}, "is_reserved": 0}, {"lon": -77.0247035, "bike_id": "fcca84eda662047e9e5166b3ea23726c", "lat": 38.904058166666665, "fusion_lon": 0.0, "fusion_lat": 0.0, "type": "electric_scooter", "name": "fcca84eda662047e9e5166b3ea23726c", "is_disabled": 0, "rental_uris": {"ios": "https://dc.lft.to/lastmile_qr_scan", "android": "https://dc.lft.to/lastmile_qr_scan"}, "is_reserved": 0}, {"lon": -77.03184583333334, "bike_id": "4a7626106e94f913d9432ca7fad19e5a", "lat": 38.91247383333334, "fusion_lon": 0.0, "fusion_lat": 0.0, "type": "electric_scooter", "name": "4a7626106e94f913d9432ca7fad19e5a", "is_disabled": 0, "rental_uris": {"ios": "https://dc.lft.to/lastmile_qr_scan", "android": "https://dc.lft.to/lastmile_qr_scan"}, "is_reserved": 0}, {"lon": -77.0410745, "bike_id": "6dcb0bcbb4562c53f94b36af0836c06b", "lat": 38.92803983333334, "fusion_lon": 0.0, "fusion_lat": 0.0, "type": "electric_scooter", "name": "6dcb0bcbb4562c53f94b36af0836c06b", "is_disabled": 0, "rental_uris": {"ios": "https://dc.lft.to/lastmile_qr_scan", "android": "https://dc.lft.to/lastmile_qr_scan"}, "is_reserved": 0}, {"lon": -77.03836966666667, "bike_id": "d806b4a6a2756b5d3a79909f3f0e326d", "lat": 38.9156245, "fusion_lon": 0.0, "fusion_lat": 0.0, "type": "electric_scooter", "name": "d806b4a6a2756b5d3a79909f3f0e326d", "is_disabled": 0, "rental_uris": {"ios": "https://dc.lft.to/lastmile_qr_scan", "android": "https://dc.lft.to/lastmile_qr_scan"}, "is_reserved": 0}, {"lon": -76.99149616666666, "bike_id": "913af0fbf991d4b9f65afd7fe9ce6f97", "lat": 38.881956833333334, "fusion_lon": 0.0, "fusion_lat": 0.0, "type": "electric_scooter", "name": "913af0fbf991d4b9f65afd7fe9ce6f97", "is_disabled": 0, "rental_uris": {"ios": "https://dc.lft.to/lastmile_qr_scan", "android": "https://dc.lft.to/lastmile_qr_scan"}, "is_reserved": 0}, {"lon": -77.007181, "bike_id": "a09e9e35b586bc7fe43afa97d53687a0", "lat": 38.83345116666667, "fusion_lon": 0.0, "fusion_lat": 0.0, "type": "electric_bike", "name": "a09e9e35b586bc7fe43afa97d53687a0", "is_disabled": 0, "rental_uris": {"ios": "https://dc.lft.to/lastmile_qr_scan", "android": "https://dc.lft.to/lastmile_qr_scan"}, "is_reserved": 0}, {"lon": -77.023121, "bike_id": "73c9f0d101381f6df48fa3d98d0a43a1", "lat": 38.920789166666665, "fusion_lon": 0.0, "fusion_lat": 0.0, "type": "electric_scooter", "name": "73c9f0d101381f6df48fa3d98d0a43a1", "is_disabled": 0, "rental_uris": {"ios": "https://dc.lft.to/lastmile_qr_scan", "android": "https://dc.lft.to/lastmile_qr_scan"}, "is_reserved": 0}, {"lon": -77.00933466666666, "bike_id": "23e8a964f53a27c8b9dbe4b32a7e48b3", "lat": 38.88311783333333, "fusion_lon": 0.0, "fusion_lat": 0.0, "type": "electric_scooter", "name": "23e8a964f53a27c8b9dbe4b32a7e48b3", "is_disabled": 0, "rental_uris": {"ios": "https://dc.lft.to/lastmile_qr_scan", "android": "https://dc.lft.to/lastmile_qr_scan"}, "is_reserved": 0}, {"lon": -77.02595433333333, "bike_id": "13fc7a4a62182ca281d34be54ad35621", "lat": 38.92040933333333, "fusion_lon": 0.0, "fusion_lat": 0.0, "type": "electric_scooter", "name": "13fc7a4a62182ca281d34be54ad35621", "is_disabled": 0, "rental_uris": {"ios": "https://dc.lft.to/lastmile_qr_scan", "android": "https://dc.lft.to/lastmile_qr_scan"}, "is_reserved": 0}, {"lon": -77.03763616666667, "bike_id": "b3c0a433e908414adbb215f4e13983d5", "lat": 38.92010966666667, "fusion_lon": 0.0, "fusion_lat": 0.0, "type": "electric_scooter", "name": "b3c0a433e908414adbb215f4e13983d5", "is_disabled": 0, "rental_uris": {"ios": "https://dc.lft.to/lastmile_qr_scan", "android": "https://dc.lft.to/lastmile_qr_scan"}, "is_reserved": 0}, {"lon": -77.02166533333333, "bike_id": "64c17f79d269fd15be92d938f1d56611", "lat": 38.88745566666667, "fusion_lon": 0.0, "fusion_lat": 0.0, "type": "electric_scooter", "name": "64c17f79d269fd15be92d938f1d56611", "is_disabled": 0, "rental_uris": {"ios": "https://dc.lft.to/lastmile_qr_scan", "android": "https://dc.lft.to/lastmile_qr_scan"}, "is_reserved": 0}, {"lon": -77.023892, "bike_id": "45417b3de8bb605bd78aa74490bc12d2", "lat": 38.93477466666667, "fusion_lon": 0.0, "fusion_lat": 0.0, "type": "electric_scooter", "name": "45417b3de8bb605bd78aa74490bc12d2", "is_disabled": 0, "rental_uris": {"ios": "https://dc.lft.to/lastmile_qr_scan", "android": "https://dc.lft.to/lastmile_qr_scan"}, "is_reserved": 0}, {"lon": -77.02971066666667, "bike_id": "74d6e175eb6a73dee65ad6c199a59f2f", "lat": 38.916853333333336, "fusion_lon": 0.0, "fusion_lat": 0.0, "type": "electric_scooter", "name": "74d6e175eb6a73dee65ad6c199a59f2f", "is_disabled": 0, "rental_uris": {"ios": "https://dc.lft.to/lastmile_qr_scan", "android": "https://dc.lft.to/lastmile_qr_scan"}, "is_reserved": 0}, {"lon": -76.98876683333333, "bike_id": "1d1f18f00c2c3d5894e6e3511d77fb8f", "lat": 38.86657666666667, "fusion_lon": 0.0, "fusion_lat": 0.0, "type": "electric_scooter", "name": "1d1f18f00c2c3d5894e6e3511d77fb8f", "is_disabled": 0, "rental_uris": {"ios": "https://dc.lft.to/lastmile_qr_scan", "android": "https://dc.lft.to/lastmile_qr_scan"}, "is_reserved": 0}, {"lon": -77.0318095, "bike_id": "da9cec6a242202413553bc06f3579929", "lat": 38.89575266666667, "fusion_lon": 0.0, "fusion_lat": 0.0, "type": "electric_scooter", "name": "da9cec6a242202413553bc06f3579929", "is_disabled": 0, "rental_uris": {"ios": "https://dc.lft.to/lastmile_qr_scan", "android": "https://dc.lft.to/lastmile_qr_scan"}, "is_reserved": 0}, {"lon": -77.02304716666667, "bike_id": "a9f916a30977bb00381c8caeedfc76a8", "lat": 38.94095, "fusion_lon": 0.0, "fusion_lat": 0.0, "type": "electric_scooter", "name": "a9f916a30977bb00381c8caeedfc76a8", "is_disabled": 0, "rental_uris": {"ios": "https://dc.lft.to/lastmile_qr_scan", "android": "https://dc.lft.to/lastmile_qr_scan"}, "is_reserved": 0}, {"lon": -77.04814716666667, "bike_id": "086f6c6b38bc1ea5b99e585525fc5a61", "lat": 38.91332516666667, "fusion_lon": 0.0, "fusion_lat": 0.0, "type": "electric_scooter", "name": "086f6c6b38bc1ea5b99e585525fc5a61", "is_disabled": 0, "rental_uris": {"ios": "https://dc.lft.to/lastmile_qr_scan", "android": "https://dc.lft.to/lastmile_qr_scan"}, "is_reserved": 0}, {"lon": -77.0398975, "bike_id": "fa40a776ccd599b7d3931d8a1cf7389a", "lat": 38.924654333333336, "fusion_lon": 0.0, "fusion_lat": 0.0, "type": "electric_scooter", "name": "fa40a776ccd599b7d3931d8a1cf7389a", "is_disabled": 0, "rental_uris": {"ios": "https://dc.lft.to/lastmile_qr_scan", "android": "https://dc.lft.to/lastmile_qr_scan"}, "is_reserved": 0}, {"lon": -77.02157233333334, "bike_id": "df6e780a732e34d044c05ae681eaa2af", "lat": 38.8921845, "fusion_lon": 0.0, "fusion_lat": 0.0, "type": "electric_scooter", "name": "df6e780a732e34d044c05ae681eaa2af", "is_disabled": 0, "rental_uris": {"ios": "https://dc.lft.to/lastmile_qr_scan", "android": "https://dc.lft.to/lastmile_qr_scan"}, "is_reserved": 0}, {"lon": -77.0463045, "bike_id": "c9ff210a128ae1020ec59a1127be3451", "lat": 38.9033585, "fusion_lon": 0.0, "fusion_lat": 0.0, "type": "electric_scooter", "name": "c9ff210a128ae1020ec59a1127be3451", "is_disabled": 0, "rental_uris": {"ios": "https://dc.lft.to/lastmile_qr_scan", "android": "https://dc.lft.to/lastmile_qr_scan"}, "is_reserved": 0}, {"lon": -77.02394733333334, "bike_id": "bea74210ba0e66531f8daa4b2261fca4", "lat": 38.920012166666666, "fusion_lon": 0.0, "fusion_lat": 0.0, "type": "electric_scooter", "name": "bea74210ba0e66531f8daa4b2261fca4", "is_disabled": 0, "rental_uris": {"ios": "https://dc.lft.to/lastmile_qr_scan", "android": "https://dc.lft.to/lastmile_qr_scan"}, "is_reserved": 0}, {"lon": -77.02015483333334, "bike_id": "789c8298f38d0bf955c9d0f118fcc58b", "lat": 38.89288966666667, "fusion_lon": 0.0, "fusion_lat": 0.0, "type": "electric_bike", "name": "789c8298f38d0bf955c9d0f118fcc58b", "is_disabled": 0, "rental_uris": {"ios": "https://dc.lft.to/lastmile_qr_scan", "android": "https://dc.lft.to/lastmile_qr_scan"}, "is_reserved": 0}, {"lon": -77.05088633333334, "bike_id": "6dcb4dccaebf64289df6b0153d1faf65", "lat": 39.036745, "fusion_lon": 0.0, "fusion_lat": 0.0, "type": "electric_bike", "name": "6dcb4dccaebf64289df6b0153d1faf65", "is_disabled": 0, "rental_uris": {"ios": "https://dc.lft.to/lastmile_qr_scan", "android": "https://dc.lft.to/lastmile_qr_scan"}, "is_reserved": 0}, {"lon": -77.02601783333333, "bike_id": "06864ae34915645a6f9139a5b83fd53e", "lat": 38.92662266666667, "fusion_lon": 0.0, "fusion_lat": 0.0, "type": "electric_scooter", "name": "06864ae34915645a6f9139a5b83fd53e", "is_disabled": 0, "rental_uris": {"ios": "https://dc.lft.to/lastmile_qr_scan", "android": "https://dc.lft.to/lastmile_qr_scan"}, "is_reserved": 0}, {"lon": -77.02425016666666, "bike_id": "45cfdc68cfddedd6c464b28164104391", "lat": 38.91405266666666, "fusion_lon": 0.0, "fusion_lat": 0.0, "type": "electric_scooter", "name": "45cfdc68cfddedd6c464b28164104391", "is_disabled": 0, "rental_uris": {"ios": "https://dc.lft.to/lastmile_qr_scan", "android": "https://dc.lft.to/lastmile_qr_scan"}, "is_reserved": 0}, {"lon": -76.99014366666667, "bike_id": "6228411a77ef0b27ac0c087a4e4e62ba", "lat": 38.89411783333333, "fusion_lon": 0.0, "fusion_lat": 0.0, "type": "electric_scooter", "name": "6228411a77ef0b27ac0c087a4e4e62ba", "is_disabled": 0, "rental_uris": {"ios": "https://dc.lft.to/lastmile_qr_scan", "android": "https://dc.lft.to/lastmile_qr_scan"}, "is_reserved": 0}, {"lon": -77.04159366666667, "bike_id": "8da5eb80d93f4b3d63cb3e19f0162b97", "lat": 38.9035925, "fusion_lon": 0.0, "fusion_lat": 0.0, "type": "electric_scooter", "name": "8da5eb80d93f4b3d63cb3e19f0162b97", "is_disabled": 0, "rental_uris": {"ios": "https://dc.lft.to/lastmile_qr_scan", "android": "https://dc.lft.to/lastmile_qr_scan"}, "is_reserved": 0}, {"lon": -76.9741325, "bike_id": "ea225b9e79e82028f21df521af6cf0ea", "lat": 38.932379, "fusion_lon": 0.0, "fusion_lat": 0.0, "type": "electric_bike", "name": "ea225b9e79e82028f21df521af6cf0ea", "is_disabled": 0, "rental_uris": {"ios": "https://dc.lft.to/lastmile_qr_scan", "android": "https://dc.lft.to/lastmile_qr_scan"}, "is_reserved": 0}, {"lon": -77.02613833333334, "bike_id": "fe4b5442b115e70bc278c277dcca9d92", "lat": 38.905661333333335, "fusion_lon": 0.0, "fusion_lat": 0.0, "type": "electric_scooter", "name": "fe4b5442b115e70bc278c277dcca9d92", "is_disabled": 0, "rental_uris": {"ios": "https://dc.lft.to/lastmile_qr_scan", "android": "https://dc.lft.to/lastmile_qr_scan"}, "is_reserved": 0}, {"lon": -77.0315055, "bike_id": "0d3a16a0ee05748e29628f96b2478396", "lat": 38.92013633333333, "fusion_lon": 0.0, "fusion_lat": 0.0, "type": "electric_scooter", "name": "0d3a16a0ee05748e29628f96b2478396", "is_disabled": 0, "rental_uris": {"ios": "https://dc.lft.to/lastmile_qr_scan", "android": "https://dc.lft.to/lastmile_qr_scan"}, "is_reserved": 0}, {"lon": -77.007255, "bike_id": "ca5e571399ed65ad9a929d817161febd", "lat": 38.95960516666667, "fusion_lon": 0.0, "fusion_lat": 0.0, "type": "electric_scooter", "name": "ca5e571399ed65ad9a929d817161febd", "is_disabled": 0, "rental_uris": {"ios": "https://dc.lft.to/lastmile_qr_scan", "android": "https://dc.lft.to/lastmile_qr_scan"}, "is_reserved": 0}, {"lon": -77.04630183333333, "bike_id": "85748391c8f385db4b2086bf5258a15e", "lat": 38.9191425, "fusion_lon": 0.0, "fusion_lat": 0.0, "type": "electric_scooter", "name": "85748391c8f385db4b2086bf5258a15e", "is_disabled": 0, "rental_uris": {"ios": "https://dc.lft.to/lastmile_qr_scan", "android": "https://dc.lft.to/lastmile_qr_scan"}, "is_reserved": 0}, {"lon": -77.02935366666667, "bike_id": "e64bce7cffdbb916caff6e4a52deaca6", "lat": 38.93464866666667, "fusion_lon": 0.0, "fusion_lat": 0.0, "type": "electric_scooter", "name": "e64bce7cffdbb916caff6e4a52deaca6", "is_disabled": 0, "rental_uris": {"ios": "https://dc.lft.to/lastmile_qr_scan", "android": "https://dc.lft.to/lastmile_qr_scan"}, "is_reserved": 0}, {"lon": -76.99885033333334, "bike_id": "14f003e982a318a13f3f3ded28a03838", "lat": 38.901291666666665, "fusion_lon": 0.0, "fusion_lat": 0.0, "type": "electric_scooter", "name": "14f003e982a318a13f3f3ded28a03838", "is_disabled": 0, "rental_uris": {"ios": "https://dc.lft.to/lastmile_qr_scan", "android": "https://dc.lft.to/lastmile_qr_scan"}, "is_reserved": 0}, {"lon": -77.03882333333334, "bike_id": "9ce5160cfef094aa752bf349623d57d9", "lat": 38.932206666666666, "fusion_lon": 0.0, "fusion_lat": 0.0, "type": "electric_scooter", "name": "9ce5160cfef094aa752bf349623d57d9", "is_disabled": 0, "rental_uris": {"ios": "https://dc.lft.to/lastmile_qr_scan", "android": "https://dc.lft.to/lastmile_qr_scan"}, "is_reserved": 0}, {"lon": -77.04980433333333, "bike_id": "ba0ab198e27dea51f3d967bcc6801e4e", "lat": 38.905377666666666, "fusion_lon": 0.0, "fusion_lat": 0.0, "type": "electric_scooter", "name": "ba0ab198e27dea51f3d967bcc6801e4e", "is_disabled": 0, "rental_uris": {"ios": "https://dc.lft.to/lastmile_qr_scan", "android": "https://dc.lft.to/lastmile_qr_scan"}, "is_reserved": 0}, {"lon": -77.0019465, "bike_id": "ccedf3b22e65738619566ee9f8595154", "lat": 38.915906, "fusion_lon": 0.0, "fusion_lat": 0.0, "type": "electric_scooter", "name": "ccedf3b22e65738619566ee9f8595154", "is_disabled": 0, "rental_uris": {"ios": "https://dc.lft.to/lastmile_qr_scan", "android": "https://dc.lft.to/lastmile_qr_scan"}, "is_reserved": 0}, {"lon": -77.05497166666666, "bike_id": "81c5eba6406c3775387f02c030e657f7", "lat": 38.92973883333333, "fusion_lon": 0.0, "fusion_lat": 0.0, "type": "electric_scooter", "name": "81c5eba6406c3775387f02c030e657f7", "is_disabled": 0, "rental_uris": {"ios": "https://dc.lft.to/lastmile_qr_scan", "android": "https://dc.lft.to/lastmile_qr_scan"}, "is_reserved": 0}, {"lon": -76.98021916666667, "bike_id": "20e363cdc117361b135f12e3ffe8b306", "lat": 38.902944, "fusion_lon": 0.0, "fusion_lat": 0.0, "type": "electric_scooter", "name": "20e363cdc117361b135f12e3ffe8b306", "is_disabled": 0, "rental_uris": {"ios": "https://dc.lft.to/lastmile_qr_scan", "android": "https://dc.lft.to/lastmile_qr_scan"}, "is_reserved": 0}, {"lon": -77.02201733333334, "bike_id": "097dce975113beb06e98ad572ca7172f", "lat": 38.920428333333334, "fusion_lon": 0.0, "fusion_lat": 0.0, "type": "electric_scooter", "name": "097dce975113beb06e98ad572ca7172f", "is_disabled": 0, "rental_uris": {"ios": "https://dc.lft.to/lastmile_qr_scan", "android": "https://dc.lft.to/lastmile_qr_scan"}, "is_reserved": 0}, {"lon": -77.03669216666667, "bike_id": "014071c198e132ccb934a058a8e92473", "lat": 38.9095875, "fusion_lon": 0.0, "fusion_lat": 0.0, "type": "electric_scooter", "name": "014071c198e132ccb934a058a8e92473", "is_disabled": 0, "rental_uris": {"ios": "https://dc.lft.to/lastmile_qr_scan", "android": "https://dc.lft.to/lastmile_qr_scan"}, "is_reserved": 0}, {"lon": -77.02473316666666, "bike_id": "9cd0d74ccd1c1dae345dd1ccdbb4969a", "lat": 38.918698166666665, "fusion_lon": 0.0, "fusion_lat": 0.0, "type": "electric_scooter", "name": "9cd0d74ccd1c1dae345dd1ccdbb4969a", "is_disabled": 0, "rental_uris": {"ios": "https://dc.lft.to/lastmile_qr_scan", "android": "https://dc.lft.to/lastmile_qr_scan"}, "is_reserved": 0}, {"lon": -77.02901633333333, "bike_id": "8a11e3f624d8a9c63cbeece510241768", "lat": 38.928205166666665, "fusion_lon": 0.0, "fusion_lat": 0.0, "type": "electric_scooter", "name": "8a11e3f624d8a9c63cbeece510241768", "is_disabled": 0, "rental_uris": {"ios": "https://dc.lft.to/lastmile_qr_scan", "android": "https://dc.lft.to/lastmile_qr_scan"}, "is_reserved": 0}, {"lon": -77.00192483333333, "bike_id": "68d8d80f2031966959ea55d99f63371b", "lat": 38.91476316666667, "fusion_lon": 0.0, "fusion_lat": 0.0, "type": "electric_scooter", "name": "68d8d80f2031966959ea55d99f63371b", "is_disabled": 0, "rental_uris": {"ios": "https://dc.lft.to/lastmile_qr_scan", "android": "https://dc.lft.to/lastmile_qr_scan"}, "is_reserved": 0}, {"lon": -77.02623516666667, "bike_id": "a1446731b9ea638739bad039c8fc1f61", "lat": 38.887415, "fusion_lon": 0.0, "fusion_lat": 0.0, "type": "electric_scooter", "name": "a1446731b9ea638739bad039c8fc1f61", "is_disabled": 0, "rental_uris": {"ios": "https://dc.lft.to/lastmile_qr_scan", "android": "https://dc.lft.to/lastmile_qr_scan"}, "is_reserved": 0}, {"lon": -77.01772866666667, "bike_id": "40304607cc56ce971b359e9f1cd5fe21", "lat": 38.901279333333335, "fusion_lon": 0.0, "fusion_lat": 0.0, "type": "electric_scooter", "name": "40304607cc56ce971b359e9f1cd5fe21", "is_disabled": 0, "rental_uris": {"ios": "https://dc.lft.to/lastmile_qr_scan", "android": "https://dc.lft.to/lastmile_qr_scan"}, "is_reserved": 0}, {"lon": -77.043582, "bike_id": "508f93c381534adc0da67750de5cf104", "lat": 38.92064716666667, "fusion_lon": 0.0, "fusion_lat": 0.0, "type": "electric_scooter", "name": "508f93c381534adc0da67750de5cf104", "is_disabled": 0, "rental_uris": {"ios": "https://dc.lft.to/lastmile_qr_scan", "android": "https://dc.lft.to/lastmile_qr_scan"}, "is_reserved": 0}, {"lon": -77.026571, "bike_id": "61e7de9bf7623c9cf3d860545b3a0279", "lat": 38.9310055, "fusion_lon": 0.0, "fusion_lat": 0.0, "type": "electric_scooter", "name": "61e7de9bf7623c9cf3d860545b3a0279", "is_disabled": 0, "rental_uris": {"ios": "https://dc.lft.to/lastmile_qr_scan", "android": "https://dc.lft.to/lastmile_qr_scan"}, "is_reserved": 0}, {"lon": -77.0640335, "bike_id": "8aa9871c42da885092cf2ab6d05c2aea", "lat": 38.840651333333334, "fusion_lon": 0.0, "fusion_lat": 0.0, "type": "electric_bike", "name": "8aa9871c42da885092cf2ab6d05c2aea", "is_disabled": 0, "rental_uris": {"ios": "https://dc.lft.to/lastmile_qr_scan", "android": "https://dc.lft.to/lastmile_qr_scan"}, "is_reserved": 0}, {"lon": -77.03639416666667, "bike_id": "a86cc4d5c840ffe26859096cfa7200f6", "lat": 38.921845, "fusion_lon": 0.0, "fusion_lat": 0.0, "type": "electric_scooter", "name": "a86cc4d5c840ffe26859096cfa7200f6", "is_disabled": 0, "rental_uris": {"ios": "https://dc.lft.to/lastmile_qr_scan", "android": "https://dc.lft.to/lastmile_qr_scan"}, "is_reserved": 0}, {"lon": -77.024437, "bike_id": "6562fdc7fac16abe13f8fcf65551853f", "lat": 38.89953033333333, "fusion_lon": 0.0, "fusion_lat": 0.0, "type": "electric_scooter", "name": "6562fdc7fac16abe13f8fcf65551853f", "is_disabled": 0, "rental_uris": {"ios": "https://dc.lft.to/lastmile_qr_scan", "android": "https://dc.lft.to/lastmile_qr_scan"}, "is_reserved": 0}, {"lon": -77.04874033333333, "bike_id": "11b76913a489331f2738b4375079542b", "lat": 38.8929695, "fusion_lon": 0.0, "fusion_lat": 0.0, "type": "electric_scooter", "name": "11b76913a489331f2738b4375079542b", "is_disabled": 0, "rental_uris": {"ios": "https://dc.lft.to/lastmile_qr_scan", "android": "https://dc.lft.to/lastmile_qr_scan"}, "is_reserved": 0}, {"lon": -76.97854433333333, "bike_id": "11c9613b9f8fda858d1620727239c95a", "lat": 38.87072366666666, "fusion_lon": 0.0, "fusion_lat": 0.0, "type": "electric_scooter", "name": "11c9613b9f8fda858d1620727239c95a", "is_disabled": 0, "rental_uris": {"ios": "https://dc.lft.to/lastmile_qr_scan", "android": "https://dc.lft.to/lastmile_qr_scan"}, "is_reserved": 0}, {"lon": -77.02951133333333, "bike_id": "b037cf8cb6e597d0bfe632d4133a0f75", "lat": 38.92176533333333, "fusion_lon": 0.0, "fusion_lat": 0.0, "type": "electric_scooter", "name": "b037cf8cb6e597d0bfe632d4133a0f75", "is_disabled": 0, "rental_uris": {"ios": "https://dc.lft.to/lastmile_qr_scan", "android": "https://dc.lft.to/lastmile_qr_scan"}, "is_reserved": 0}, {"lon": -77.02384733333334, "bike_id": "2d5ec0ac6339b7d41f9a436779a3bf34", "lat": 38.90099766666667, "fusion_lon": 0.0, "fusion_lat": 0.0, "type": "electric_scooter", "name": "2d5ec0ac6339b7d41f9a436779a3bf34", "is_disabled": 0, "rental_uris": {"ios": "https://dc.lft.to/lastmile_qr_scan", "android": "https://dc.lft.to/lastmile_qr_scan"}, "is_reserved": 0}, {"lon": -77.02376666666666, "bike_id": "f10e0d9aacf0116d9c90f38852d5e53d", "lat": 38.920579000000004, "fusion_lon": 0.0, "fusion_lat": 0.0, "type": "electric_scooter", "name": "f10e0d9aacf0116d9c90f38852d5e53d", "is_disabled": 0, "rental_uris": {"ios": "https://dc.lft.to/lastmile_qr_scan", "android": "https://dc.lft.to/lastmile_qr_scan"}, "is_reserved": 0}, {"lon": -77.05144383333334, "bike_id": "141eeadf3eaeb0582316ee70bb92be9a", "lat": 38.898632, "fusion_lon": 0.0, "fusion_lat": 0.0, "type": "electric_scooter", "name": "141eeadf3eaeb0582316ee70bb92be9a", "is_disabled": 0, "rental_uris": {"ios": "https://dc.lft.to/lastmile_qr_scan", "android": "https://dc.lft.to/lastmile_qr_scan"}, "is_reserved": 0}, {"lon": -76.99011483333334, "bike_id": "685e0cd9bec6208c11060684a61ebf27", "lat": 38.94598116666667, "fusion_lon": 0.0, "fusion_lat": 0.0, "type": "electric_scooter", "name": "685e0cd9bec6208c11060684a61ebf27", "is_disabled": 0, "rental_uris": {"ios": "https://dc.lft.to/lastmile_qr_scan", "android": "https://dc.lft.to/lastmile_qr_scan"}, "is_reserved": 0}, {"lon": -77.04979633333333, "bike_id": "7215e0376829008b8aa626cd95b0f7c3", "lat": 39.06292766666667, "fusion_lon": 0.0, "fusion_lat": 0.0, "type": "electric_bike", "name": "7215e0376829008b8aa626cd95b0f7c3", "is_disabled": 0, "rental_uris": {"ios": "https://dc.lft.to/lastmile_qr_scan", "android": "https://dc.lft.to/lastmile_qr_scan"}, "is_reserved": 0}, {"lon": -76.93763966666667, "bike_id": "e0e9cda89a54b95f9e73a6763bf6acb6", "lat": 38.87858716666667, "fusion_lon": 0.0, "fusion_lat": 0.0, "type": "electric_scooter", "name": "e0e9cda89a54b95f9e73a6763bf6acb6", "is_disabled": 0, "rental_uris": {"ios": "https://dc.lft.to/lastmile_qr_scan", "android": "https://dc.lft.to/lastmile_qr_scan"}, "is_reserved": 0}, {"lon": -76.99364916666667, "bike_id": "2eeea68e9f463101b43342fec4be1d24", "lat": 38.94024, "fusion_lon": 0.0, "fusion_lat": 0.0, "type": "electric_scooter", "name": "2eeea68e9f463101b43342fec4be1d24", "is_disabled": 0, "rental_uris": {"ios": "https://dc.lft.to/lastmile_qr_scan", "android": "https://dc.lft.to/lastmile_qr_scan"}, "is_reserved": 0}, {"lon": -77.03288716666667, "bike_id": "b879e91fbadb0f50d0dd2ea48e14d69c", "lat": 38.95652416666667, "fusion_lon": 0.0, "fusion_lat": 0.0, "type": "electric_scooter", "name": "b879e91fbadb0f50d0dd2ea48e14d69c", "is_disabled": 0, "rental_uris": {"ios": "https://dc.lft.to/lastmile_qr_scan", "android": "https://dc.lft.to/lastmile_qr_scan"}, "is_reserved": 0}, {"lon": -77.0012, "bike_id": "03aef9fa4fb9b7436d79a4e3b2aebdef", "lat": 38.905066166666664, "fusion_lon": 0.0, "fusion_lat": 0.0, "type": "electric_scooter", "name": "03aef9fa4fb9b7436d79a4e3b2aebdef", "is_disabled": 0, "rental_uris": {"ios": "https://dc.lft.to/lastmile_qr_scan", "android": "https://dc.lft.to/lastmile_qr_scan"}, "is_reserved": 0}, {"lon": -77.03870266666667, "bike_id": "764d3d6d994c73a6de356b1107f72d4f", "lat": 38.92018016666667, "fusion_lon": 0.0, "fusion_lat": 0.0, "type": "electric_scooter", "name": "764d3d6d994c73a6de356b1107f72d4f", "is_disabled": 0, "rental_uris": {"ios": "https://dc.lft.to/lastmile_qr_scan", "android": "https://dc.lft.to/lastmile_qr_scan"}, "is_reserved": 0}, {"lon": -77.02321633333334, "bike_id": "d3c7bc18835e0f44efbfe4341b3503b7", "lat": 38.90888666666667, "fusion_lon": 0.0, "fusion_lat": 0.0, "type": "electric_scooter", "name": "d3c7bc18835e0f44efbfe4341b3503b7", "is_disabled": 0, "rental_uris": {"ios": "https://dc.lft.to/lastmile_qr_scan", "android": "https://dc.lft.to/lastmile_qr_scan"}, "is_reserved": 0}, {"lon": -76.93772483333333, "bike_id": "2a384a4375f3c84acec3c30b97d69e02", "lat": 38.899677, "fusion_lon": 0.0, "fusion_lat": 0.0, "type": "electric_scooter", "name": "2a384a4375f3c84acec3c30b97d69e02", "is_disabled": 0, "rental_uris": {"ios": "https://dc.lft.to/lastmile_qr_scan", "android": "https://dc.lft.to/lastmile_qr_scan"}, "is_reserved": 0}, {"lon": -76.9450475, "bike_id": "47439e7bc2669563edf10b7f7e820a4f", "lat": 38.86487066666667, "fusion_lon": 0.0, "fusion_lat": 0.0, "type": "electric_bike", "name": "47439e7bc2669563edf10b7f7e820a4f", "is_disabled": 0, "rental_uris": {"ios": "https://dc.lft.to/lastmile_qr_scan", "android": "https://dc.lft.to/lastmile_qr_scan"}, "is_reserved": 0}, {"lon": -76.998608, "bike_id": "6c633fa4ed3f5808eba048cee45c668c", "lat": 38.89415666666667, "fusion_lon": 0.0, "fusion_lat": 0.0, "type": "electric_scooter", "name": "6c633fa4ed3f5808eba048cee45c668c", "is_disabled": 0, "rental_uris": {"ios": "https://dc.lft.to/lastmile_qr_scan", "android": "https://dc.lft.to/lastmile_qr_scan"}, "is_reserved": 0}, {"lon": -76.92738433333334, "bike_id": "2cf4f6a4c952e7b4560d092f1d0316b7", "lat": 38.8896785, "fusion_lon": 0.0, "fusion_lat": 0.0, "type": "electric_scooter", "name": "2cf4f6a4c952e7b4560d092f1d0316b7", "is_disabled": 0, "rental_uris": {"ios": "https://dc.lft.to/lastmile_qr_scan", "android": "https://dc.lft.to/lastmile_qr_scan"}, "is_reserved": 0}, {"lon": -77.01428083333333, "bike_id": "78cc7f893d33bd13a714927ef7b645ae", "lat": 38.87653066666667, "fusion_lon": 0.0, "fusion_lat": 0.0, "type": "electric_scooter", "name": "78cc7f893d33bd13a714927ef7b645ae", "is_disabled": 0, "rental_uris": {"ios": "https://dc.lft.to/lastmile_qr_scan", "android": "https://dc.lft.to/lastmile_qr_scan"}, "is_reserved": 0}, {"lon": -76.93355766666667, "bike_id": "40b05e5044ccbfc4506711881157d163", "lat": 38.89908633333334, "fusion_lon": 0.0, "fusion_lat": 0.0, "type": "electric_scooter", "name": "40b05e5044ccbfc4506711881157d163", "is_disabled": 0, "rental_uris": {"ios": "https://dc.lft.to/lastmile_qr_scan", "android": "https://dc.lft.to/lastmile_qr_scan"}, "is_reserved": 0}, {"lon": -76.98283533333333, "bike_id": "2ccdb3686a2a44de57e5b2bad300f0a0", "lat": 38.90046733333333, "fusion_lon": 0.0, "fusion_lat": 0.0, "type": "electric_scooter", "name": "2ccdb3686a2a44de57e5b2bad300f0a0", "is_disabled": 0, "rental_uris": {"ios": "https://dc.lft.to/lastmile_qr_scan", "android": "https://dc.lft.to/lastmile_qr_scan"}, "is_reserved": 0}, {"lon": -77.04518033333333, "bike_id": "57eb7d7ce254c70aea49c5940325f0c7", "lat": 38.909723, "fusion_lon": 0.0, "fusion_lat": 0.0, "type": "electric_scooter", "name": "57eb7d7ce254c70aea49c5940325f0c7", "is_disabled": 0, "rental_uris": {"ios": "https://dc.lft.to/lastmile_qr_scan", "android": "https://dc.lft.to/lastmile_qr_scan"}, "is_reserved": 0}, {"lon": -77.021552, "bike_id": "b111c708d7caa5d944d870d149474840", "lat": 38.92599, "fusion_lon": 0.0, "fusion_lat": 0.0, "type": "electric_bike", "name": "b111c708d7caa5d944d870d149474840", "is_disabled": 0, "rental_uris": {"ios": "https://dc.lft.to/lastmile_qr_scan", "android": "https://dc.lft.to/lastmile_qr_scan"}, "is_reserved": 0}, {"lon": -77.05130966666667, "bike_id": "cbc411ebc04f717bed3a83db99a9022f", "lat": 38.92362333333333, "fusion_lon": 0.0, "fusion_lat": 0.0, "type": "electric_scooter", "name": "cbc411ebc04f717bed3a83db99a9022f", "is_disabled": 0, "rental_uris": {"ios": "https://dc.lft.to/lastmile_qr_scan", "android": "https://dc.lft.to/lastmile_qr_scan"}, "is_reserved": 0}, {"lon": -77.03986216666667, "bike_id": "00dd85400e4a535cb71156078560d67d", "lat": 38.92455833333333, "fusion_lon": 0.0, "fusion_lat": 0.0, "type": "electric_scooter", "name": "00dd85400e4a535cb71156078560d67d", "is_disabled": 0, "rental_uris": {"ios": "https://dc.lft.to/lastmile_qr_scan", "android": "https://dc.lft.to/lastmile_qr_scan"}, "is_reserved": 0}, {"lon": -77.08329066666667, "bike_id": "c02a023dfa8365798b8185a04887d956", "lat": 38.92991266666667, "fusion_lon": 0.0, "fusion_lat": 0.0, "type": "electric_scooter", "name": "c02a023dfa8365798b8185a04887d956", "is_disabled": 0, "rental_uris": {"ios": "https://dc.lft.to/lastmile_qr_scan", "android": "https://dc.lft.to/lastmile_qr_scan"}, "is_reserved": 0}, {"lon": -77.048658, "bike_id": "5f3bfb5838e9856ff68ec889dc97b3be", "lat": 38.90501, "fusion_lon": 0.0, "fusion_lat": 0.0, "type": "electric_scooter", "name": "5f3bfb5838e9856ff68ec889dc97b3be", "is_disabled": 0, "rental_uris": {"ios": "https://dc.lft.to/lastmile_qr_scan", "android": "https://dc.lft.to/lastmile_qr_scan"}, "is_reserved": 0}, {"lon": -77.03033233333333, "bike_id": "20e881019f38138b6cb0114e5ee146c8", "lat": 38.90572816666667, "fusion_lon": 0.0, "fusion_lat": 0.0, "type": "electric_scooter", "name": "20e881019f38138b6cb0114e5ee146c8", "is_disabled": 0, "rental_uris": {"ios": "https://dc.lft.to/lastmile_qr_scan", "android": "https://dc.lft.to/lastmile_qr_scan"}, "is_reserved": 0}, {"lon": -77.02210333333333, "bike_id": "f23411461e9fa1bf20980c66556da929", "lat": 38.910117666666665, "fusion_lon": 0.0, "fusion_lat": 0.0, "type": "electric_scooter", "name": "f23411461e9fa1bf20980c66556da929", "is_disabled": 0, "rental_uris": {"ios": "https://dc.lft.to/lastmile_qr_scan", "android": "https://dc.lft.to/lastmile_qr_scan"}, "is_reserved": 0}, {"lon": -77.1265655, "bike_id": "bd629e29d9ff3bc0e1253bbb4a069018", "lat": 38.815145666666666, "fusion_lon": 0.0, "fusion_lat": 0.0, "type": "electric_bike", "name": "bd629e29d9ff3bc0e1253bbb4a069018", "is_disabled": 0, "rental_uris": {"ios": "https://dc.lft.to/lastmile_qr_scan", "android": "https://dc.lft.to/lastmile_qr_scan"}, "is_reserved": 0}, {"lon": -77.03452833333333, "bike_id": "0b61bdef29c237f5d9cdae75376d8b90", "lat": 38.908888166666664, "fusion_lon": 0.0, "fusion_lat": 0.0, "type": "electric_scooter", "name": "0b61bdef29c237f5d9cdae75376d8b90", "is_disabled": 0, "rental_uris": {"ios": "https://dc.lft.to/lastmile_qr_scan", "android": "https://dc.lft.to/lastmile_qr_scan"}, "is_reserved": 0}, {"lon": -76.98548666666667, "bike_id": "790ef2e2dc57a761c45cacf83c451add", "lat": 38.920028, "fusion_lon": 0.0, "fusion_lat": 0.0, "type": "electric_scooter", "name": "790ef2e2dc57a761c45cacf83c451add", "is_disabled": 0, "rental_uris": {"ios": "https://dc.lft.to/lastmile_qr_scan", "android": "https://dc.lft.to/lastmile_qr_scan"}, "is_reserved": 0}, {"lon": -77.02235416666667, "bike_id": "06218bd1bd8d283592be575c72720bbc", "lat": 38.915627, "fusion_lon": 0.0, "fusion_lat": 0.0, "type": "electric_scooter", "name": "06218bd1bd8d283592be575c72720bbc", "is_disabled": 0, "rental_uris": {"ios": "https://dc.lft.to/lastmile_qr_scan", "android": "https://dc.lft.to/lastmile_qr_scan"}, "is_reserved": 0}, {"lon": -76.99464783333333, "bike_id": "9a6d1780c8d9ea2c54e61a4e53f58aba", "lat": 38.940673833333335, "fusion_lon": 0.0, "fusion_lat": 0.0, "type": "electric_scooter", "name": "9a6d1780c8d9ea2c54e61a4e53f58aba", "is_disabled": 0, "rental_uris": {"ios": "https://dc.lft.to/lastmile_qr_scan", "android": "https://dc.lft.to/lastmile_qr_scan"}, "is_reserved": 0}, {"lon": -77.0794565, "bike_id": "c48dcc5e701625aa318b61dbb3fd3ff0", "lat": 38.9311755, "fusion_lon": 0.0, "fusion_lat": 0.0, "type": "electric_scooter", "name": "c48dcc5e701625aa318b61dbb3fd3ff0", "is_disabled": 0, "rental_uris": {"ios": "https://dc.lft.to/lastmile_qr_scan", "android": "https://dc.lft.to/lastmile_qr_scan"}, "is_reserved": 0}, {"lon": -77.0238955, "bike_id": "d970f53245d9d5276b5f7da2d52e51f4", "lat": 38.907376166666666, "fusion_lon": 0.0, "fusion_lat": 0.0, "type": "electric_scooter", "name": "d970f53245d9d5276b5f7da2d52e51f4", "is_disabled": 0, "rental_uris": {"ios": "https://dc.lft.to/lastmile_qr_scan", "android": "https://dc.lft.to/lastmile_qr_scan"}, "is_reserved": 0}, {"lon": -77.03596966666667, "bike_id": "5d079c44eb16291bc1cb6e5e6ae2aa7a", "lat": 38.939366666666665, "fusion_lon": 0.0, "fusion_lat": 0.0, "type": "electric_scooter", "name": "5d079c44eb16291bc1cb6e5e6ae2aa7a", "is_disabled": 0, "rental_uris": {"ios": "https://dc.lft.to/lastmile_qr_scan", "android": "https://dc.lft.to/lastmile_qr_scan"}, "is_reserved": 0}, {"lon": -77.028773, "bike_id": "f97c55c4a36b785dda769232bfa02f1a", "lat": 38.9045755, "fusion_lon": 0.0, "fusion_lat": 0.0, "type": "electric_scooter", "name": "f97c55c4a36b785dda769232bfa02f1a", "is_disabled": 0, "rental_uris": {"ios": "https://dc.lft.to/lastmile_qr_scan", "android": "https://dc.lft.to/lastmile_qr_scan"}, "is_reserved": 0}, {"lon": -77.048653, "bike_id": "15b5859fd11489e8f2c31d19ddf8fcd4", "lat": 38.8922335, "fusion_lon": 0.0, "fusion_lat": 0.0, "type": "electric_scooter", "name": "15b5859fd11489e8f2c31d19ddf8fcd4", "is_disabled": 0, "rental_uris": {"ios": "https://dc.lft.to/lastmile_qr_scan", "android": "https://dc.lft.to/lastmile_qr_scan"}, "is_reserved": 0}, {"lon": -77.09506016666667, "bike_id": "66a3c436e3bf7aad497782e5776e3a18", "lat": 38.94480266666667, "fusion_lon": 0.0, "fusion_lat": 0.0, "type": "electric_bike", "name": "66a3c436e3bf7aad497782e5776e3a18", "is_disabled": 0, "rental_uris": {"ios": "https://dc.lft.to/lastmile_qr_scan", "android": "https://dc.lft.to/lastmile_qr_scan"}, "is_reserved": 0}, {"lon": -77.04323016666666, "bike_id": "5881bbfd29cc16c50c983c9b2890afa2", "lat": 38.9080995, "fusion_lon": 0.0, "fusion_lat": 0.0, "type": "electric_scooter", "name": "5881bbfd29cc16c50c983c9b2890afa2", "is_disabled": 0, "rental_uris": {"ios": "https://dc.lft.to/lastmile_qr_scan", "android": "https://dc.lft.to/lastmile_qr_scan"}, "is_reserved": 0}, {"lon": -76.98149716666667, "bike_id": "5c7c049e226982fbde4e4fd19541a682", "lat": 38.903255333333334, "fusion_lon": 0.0, "fusion_lat": 0.0, "type": "electric_scooter", "name": "5c7c049e226982fbde4e4fd19541a682", "is_disabled": 0, "rental_uris": {"ios": "https://dc.lft.to/lastmile_qr_scan", "android": "https://dc.lft.to/lastmile_qr_scan"}, "is_reserved": 0}, {"lon": -77.02974, "bike_id": "adaa8a1f3bc218188c7bcacc3b37bb26", "lat": 38.90701383333333, "fusion_lon": 0.0, "fusion_lat": 0.0, "type": "electric_scooter", "name": "adaa8a1f3bc218188c7bcacc3b37bb26", "is_disabled": 0, "rental_uris": {"ios": "https://dc.lft.to/lastmile_qr_scan", "android": "https://dc.lft.to/lastmile_qr_scan"}, "is_reserved": 0}, {"lon": -76.97669583333334, "bike_id": "bf6307062b64943e9a7450ded16eb7b8", "lat": 38.95245466666667, "fusion_lon": 0.0, "fusion_lat": 0.0, "type": "electric_bike", "name": "bf6307062b64943e9a7450ded16eb7b8", "is_disabled": 0, "rental_uris": {"ios": "https://dc.lft.to/lastmile_qr_scan", "android": "https://dc.lft.to/lastmile_qr_scan"}, "is_reserved": 0}, {"lon": -77.0238505, "bike_id": "6a5da35e684c3139d9de4739ef22907f", "lat": 38.883737333333336, "fusion_lon": 0.0, "fusion_lat": 0.0, "type": "electric_scooter", "name": "6a5da35e684c3139d9de4739ef22907f", "is_disabled": 0, "rental_uris": {"ios": "https://dc.lft.to/lastmile_qr_scan", "android": "https://dc.lft.to/lastmile_qr_scan"}, "is_reserved": 0}, {"lon": -76.98795533333333, "bike_id": "177063bf2a819d866240d76ed5bf8c5d", "lat": 38.867355333333336, "fusion_lon": 0.0, "fusion_lat": 0.0, "type": "electric_scooter", "name": "177063bf2a819d866240d76ed5bf8c5d", "is_disabled": 0, "rental_uris": {"ios": "https://dc.lft.to/lastmile_qr_scan", "android": "https://dc.lft.to/lastmile_qr_scan"}, "is_reserved": 0}, {"lon": -77.03259383333334, "bike_id": "9658c8a4a5192eaa725fdfbf5a2c1744", "lat": 38.90590233333333, "fusion_lon": 0.0, "fusion_lat": 0.0, "type": "electric_scooter", "name": "9658c8a4a5192eaa725fdfbf5a2c1744", "is_disabled": 0, "rental_uris": {"ios": "https://dc.lft.to/lastmile_qr_scan", "android": "https://dc.lft.to/lastmile_qr_scan"}, "is_reserved": 0}, {"lon": -77.03086683333333, "bike_id": "f0accf4efec4a99b0b63937d861e08bd", "lat": 38.92721183333333, "fusion_lon": 0.0, "fusion_lat": 0.0, "type": "electric_scooter", "name": "f0accf4efec4a99b0b63937d861e08bd", "is_disabled": 0, "rental_uris": {"ios": "https://dc.lft.to/lastmile_qr_scan", "android": "https://dc.lft.to/lastmile_qr_scan"}, "is_reserved": 0}, {"lon": -76.998506, "bike_id": "8388e84ef537d497a32dd7ff2f51410a", "lat": 38.8908595, "fusion_lon": 0.0, "fusion_lat": 0.0, "type": "electric_scooter", "name": "8388e84ef537d497a32dd7ff2f51410a", "is_disabled": 0, "rental_uris": {"ios": "https://dc.lft.to/lastmile_qr_scan", "android": "https://dc.lft.to/lastmile_qr_scan"}, "is_reserved": 0}, {"lon": -77.00195116666667, "bike_id": "6bcce20a595a6d7ed209760d9c7238f9", "lat": 38.9024265, "fusion_lon": 0.0, "fusion_lat": 0.0, "type": "electric_scooter", "name": "6bcce20a595a6d7ed209760d9c7238f9", "is_disabled": 0, "rental_uris": {"ios": "https://dc.lft.to/lastmile_qr_scan", "android": "https://dc.lft.to/lastmile_qr_scan"}, "is_reserved": 0}, {"lon": -77.023069, "bike_id": "6146fe5a7dd5bbc1d82766895ad72881", "lat": 38.9273175, "fusion_lon": 0.0, "fusion_lat": 0.0, "type": "electric_scooter", "name": "6146fe5a7dd5bbc1d82766895ad72881", "is_disabled": 0, "rental_uris": {"ios": "https://dc.lft.to/lastmile_qr_scan", "android": "https://dc.lft.to/lastmile_qr_scan"}, "is_reserved": 0}, {"lon": -77.10800683333333, "bike_id": "6d21c2b90731c4ac3251919129b3b7dc", "lat": 38.81201633333333, "fusion_lon": 0.0, "fusion_lat": 0.0, "type": "electric_bike", "name": "6d21c2b90731c4ac3251919129b3b7dc", "is_disabled": 0, "rental_uris": {"ios": "https://dc.lft.to/lastmile_qr_scan", "android": "https://dc.lft.to/lastmile_qr_scan"}, "is_reserved": 0}, {"lon": -77.01525816666667, "bike_id": "301e0219026364868b0566d68c7ac8f2", "lat": 38.884949666666664, "fusion_lon": 0.0, "fusion_lat": 0.0, "type": "electric_scooter", "name": "301e0219026364868b0566d68c7ac8f2", "is_disabled": 0, "rental_uris": {"ios": "https://dc.lft.to/lastmile_qr_scan", "android": "https://dc.lft.to/lastmile_qr_scan"}, "is_reserved": 0}, {"lon": -77.04521516666667, "bike_id": "dcb22b282d052e259ba28e21b26e7141", "lat": 38.91953483333333, "fusion_lon": 0.0, "fusion_lat": 0.0, "type": "electric_scooter", "name": "dcb22b282d052e259ba28e21b26e7141", "is_disabled": 0, "rental_uris": {"ios": "https://dc.lft.to/lastmile_qr_scan", "android": "https://dc.lft.to/lastmile_qr_scan"}, "is_reserved": 0}, {"lon": -77.000059, "bike_id": "d449aae98186ea014653317704ec9c67", "lat": 38.897425166666665, "fusion_lon": 0.0, "fusion_lat": 0.0, "type": "electric_scooter", "name": "d449aae98186ea014653317704ec9c67", "is_disabled": 0, "rental_uris": {"ios": "https://dc.lft.to/lastmile_qr_scan", "android": "https://dc.lft.to/lastmile_qr_scan"}, "is_reserved": 0}, {"lon": -76.9649315, "bike_id": "3cb7ca06012191b781d4997dcbe29c48", "lat": 38.876454, "fusion_lon": 0.0, "fusion_lat": 0.0, "type": "electric_scooter", "name": "3cb7ca06012191b781d4997dcbe29c48", "is_disabled": 0, "rental_uris": {"ios": "https://dc.lft.to/lastmile_qr_scan", "android": "https://dc.lft.to/lastmile_qr_scan"}, "is_reserved": 0}, {"lon": -76.99753483333333, "bike_id": "16b3b418f0ccf65a8e38c0c4029afc90", "lat": 38.88768866666667, "fusion_lon": 0.0, "fusion_lat": 0.0, "type": "electric_scooter", "name": "16b3b418f0ccf65a8e38c0c4029afc90", "is_disabled": 0, "rental_uris": {"ios": "https://dc.lft.to/lastmile_qr_scan", "android": "https://dc.lft.to/lastmile_qr_scan"}, "is_reserved": 0}, {"lon": -77.057467, "bike_id": "3f97c30cbc4b36f7f8c121580644bd79", "lat": 38.925021666666666, "fusion_lon": 0.0, "fusion_lat": 0.0, "type": "electric_bike", "name": "3f97c30cbc4b36f7f8c121580644bd79", "is_disabled": 0, "rental_uris": {"ios": "https://dc.lft.to/lastmile_qr_scan", "android": "https://dc.lft.to/lastmile_qr_scan"}, "is_reserved": 0}, {"lon": -77.034169, "bike_id": "c924982e5a176e008d798d447abdd6a8", "lat": 38.92737066666667, "fusion_lon": 0.0, "fusion_lat": 0.0, "type": "electric_scooter", "name": "c924982e5a176e008d798d447abdd6a8", "is_disabled": 0, "rental_uris": {"ios": "https://dc.lft.to/lastmile_qr_scan", "android": "https://dc.lft.to/lastmile_qr_scan"}, "is_reserved": 0}, {"lon": -77.03182766666667, "bike_id": "7d3ed55a46eee6a85aedaa4222f0887e", "lat": 38.914215166666665, "fusion_lon": 0.0, "fusion_lat": 0.0, "type": "electric_scooter", "name": "7d3ed55a46eee6a85aedaa4222f0887e", "is_disabled": 0, "rental_uris": {"ios": "https://dc.lft.to/lastmile_qr_scan", "android": "https://dc.lft.to/lastmile_qr_scan"}, "is_reserved": 0}, {"lon": -76.9853835, "bike_id": "e9338c416e5f66a53f22cf8b5f514f55", "lat": 38.9250675, "fusion_lon": 0.0, "fusion_lat": 0.0, "type": "electric_bike", "name": "e9338c416e5f66a53f22cf8b5f514f55", "is_disabled": 0, "rental_uris": {"ios": "https://dc.lft.to/lastmile_qr_scan", "android": "https://dc.lft.to/lastmile_qr_scan"}, "is_reserved": 0}, {"lon": -76.99626266666667, "bike_id": "79e3fd79f768879d483542b279681396", "lat": 38.8999455, "fusion_lon": 0.0, "fusion_lat": 0.0, "type": "electric_scooter", "name": "79e3fd79f768879d483542b279681396", "is_disabled": 0, "rental_uris": {"ios": "https://dc.lft.to/lastmile_qr_scan", "android": "https://dc.lft.to/lastmile_qr_scan"}, "is_reserved": 0}, {"lon": -77.03331316666667, "bike_id": "e0a75a7d31288c4f44a72c5755f94bb7", "lat": 38.92869983333333, "fusion_lon": 0.0, "fusion_lat": 0.0, "type": "electric_scooter", "name": "e0a75a7d31288c4f44a72c5755f94bb7", "is_disabled": 0, "rental_uris": {"ios": "https://dc.lft.to/lastmile_qr_scan", "android": "https://dc.lft.to/lastmile_qr_scan"}, "is_reserved": 0}, {"lon": -76.981069, "bike_id": "2c29d811ff1db1453b17eb49e15fb6b7", "lat": 38.904041666666664, "fusion_lon": 0.0, "fusion_lat": 0.0, "type": "electric_scooter", "name": "2c29d811ff1db1453b17eb49e15fb6b7", "is_disabled": 0, "rental_uris": {"ios": "https://dc.lft.to/lastmile_qr_scan", "android": "https://dc.lft.to/lastmile_qr_scan"}, "is_reserved": 0}, {"lon": -77.05133616666667, "bike_id": "6329e0e4846224789364edba0c601c84", "lat": 38.9236175, "fusion_lon": 0.0, "fusion_lat": 0.0, "type": "electric_scooter", "name": "6329e0e4846224789364edba0c601c84", "is_disabled": 0, "rental_uris": {"ios": "https://dc.lft.to/lastmile_qr_scan", "android": "https://dc.lft.to/lastmile_qr_scan"}, "is_reserved": 0}, {"lon": -77.04339116666667, "bike_id": "b498f38acbb3ac972cc08d40cecc99d3", "lat": 38.92196666666667, "fusion_lon": 0.0, "fusion_lat": 0.0, "type": "electric_scooter", "name": "b498f38acbb3ac972cc08d40cecc99d3", "is_disabled": 0, "rental_uris": {"ios": "https://dc.lft.to/lastmile_qr_scan", "android": "https://dc.lft.to/lastmile_qr_scan"}, "is_reserved": 0}, {"lon": -77.055073, "bike_id": "b716c44887ab1b338b10bf9954a35ee0", "lat": 38.90440016666667, "fusion_lon": 0.0, "fusion_lat": 0.0, "type": "electric_scooter", "name": "b716c44887ab1b338b10bf9954a35ee0", "is_disabled": 0, "rental_uris": {"ios": "https://dc.lft.to/lastmile_qr_scan", "android": "https://dc.lft.to/lastmile_qr_scan"}, "is_reserved": 0}, {"lon": -76.98006633333334, "bike_id": "7bca295768294ba67dfd94405178a746", "lat": 38.90431616666667, "fusion_lon": 0.0, "fusion_lat": 0.0, "type": "electric_scooter", "name": "7bca295768294ba67dfd94405178a746", "is_disabled": 0, "rental_uris": {"ios": "https://dc.lft.to/lastmile_qr_scan", "android": "https://dc.lft.to/lastmile_qr_scan"}, "is_reserved": 0}, {"lon": -77.04495433333334, "bike_id": "8ccf955070d24cb08a2ff6bc25d8eb08", "lat": 38.90097433333333, "fusion_lon": 0.0, "fusion_lat": 0.0, "type": "electric_scooter", "name": "8ccf955070d24cb08a2ff6bc25d8eb08", "is_disabled": 0, "rental_uris": {"ios": "https://dc.lft.to/lastmile_qr_scan", "android": "https://dc.lft.to/lastmile_qr_scan"}, "is_reserved": 0}, {"lon": -77.02842933333334, "bike_id": "60509be8acbe64cb141f344dc190f247", "lat": 38.89724983333333, "fusion_lon": 0.0, "fusion_lat": 0.0, "type": "electric_bike", "name": "60509be8acbe64cb141f344dc190f247", "is_disabled": 0, "rental_uris": {"ios": "https://dc.lft.to/lastmile_qr_scan", "android": "https://dc.lft.to/lastmile_qr_scan"}, "is_reserved": 0}, {"lon": -77.00360416666666, "bike_id": "a7cc77d0bf1f182c05b124c99135b3de", "lat": 38.89940083333333, "fusion_lon": 0.0, "fusion_lat": 0.0, "type": "electric_scooter", "name": "a7cc77d0bf1f182c05b124c99135b3de", "is_disabled": 0, "rental_uris": {"ios": "https://dc.lft.to/lastmile_qr_scan", "android": "https://dc.lft.to/lastmile_qr_scan"}, "is_reserved": 0}, {"lon": -77.02959066666666, "bike_id": "e6903d5a05165d0269156eef284c36ee", "lat": 38.921612833333334, "fusion_lon": 0.0, "fusion_lat": 0.0, "type": "electric_scooter", "name": "e6903d5a05165d0269156eef284c36ee", "is_disabled": 0, "rental_uris": {"ios": "https://dc.lft.to/lastmile_qr_scan", "android": "https://dc.lft.to/lastmile_qr_scan"}, "is_reserved": 0}, {"lon": -76.98844916666667, "bike_id": "d5b3595d0bd4621c2b38e5ba1a9765d7", "lat": 38.901259833333334, "fusion_lon": 0.0, "fusion_lat": 0.0, "type": "electric_scooter", "name": "d5b3595d0bd4621c2b38e5ba1a9765d7", "is_disabled": 0, "rental_uris": {"ios": "https://dc.lft.to/lastmile_qr_scan", "android": "https://dc.lft.to/lastmile_qr_scan"}, "is_reserved": 0}, {"lon": -77.03922283333333, "bike_id": "c36deb9ab74eb7c27042cbd259093642", "lat": 38.926140333333336, "fusion_lon": 0.0, "fusion_lat": 0.0, "type": "electric_scooter", "name": "c36deb9ab74eb7c27042cbd259093642", "is_disabled": 0, "rental_uris": {"ios": "https://dc.lft.to/lastmile_qr_scan", "android": "https://dc.lft.to/lastmile_qr_scan"}, "is_reserved": 0}, {"lon": -77.00954416666667, "bike_id": "c480ad047d9c89b425f817b365a58f94", "lat": 38.87634383333334, "fusion_lon": 0.0, "fusion_lat": 0.0, "type": "electric_scooter", "name": "c480ad047d9c89b425f817b365a58f94", "is_disabled": 0, "rental_uris": {"ios": "https://dc.lft.to/lastmile_qr_scan", "android": "https://dc.lft.to/lastmile_qr_scan"}, "is_reserved": 0}, {"lon": -76.99860333333334, "bike_id": "b84d40ede3edbc11905235d87a1e657b", "lat": 38.9024775, "fusion_lon": 0.0, "fusion_lat": 0.0, "type": "electric_scooter", "name": "b84d40ede3edbc11905235d87a1e657b", "is_disabled": 0, "rental_uris": {"ios": "https://dc.lft.to/lastmile_qr_scan", "android": "https://dc.lft.to/lastmile_qr_scan"}, "is_reserved": 0}, {"lon": -77.02729966666666, "bike_id": "d1a8daa10a49c525a393e37a99b58e35", "lat": 38.8817035, "fusion_lon": 0.0, "fusion_lat": 0.0, "type": "electric_scooter", "name": "d1a8daa10a49c525a393e37a99b58e35", "is_disabled": 0, "rental_uris": {"ios": "https://dc.lft.to/lastmile_qr_scan", "android": "https://dc.lft.to/lastmile_qr_scan"}, "is_reserved": 0}, {"lon": -77.00140816666666, "bike_id": "42a068f60e9633a3065bfde6c1cb9356", "lat": 38.875140333333334, "fusion_lon": 0.0, "fusion_lat": 0.0, "type": "electric_scooter", "name": "42a068f60e9633a3065bfde6c1cb9356", "is_disabled": 0, "rental_uris": {"ios": "https://dc.lft.to/lastmile_qr_scan", "android": "https://dc.lft.to/lastmile_qr_scan"}, "is_reserved": 0}, {"lon": -77.12523416666667, "bike_id": "2eec7e32566e0095c3e9341811edf1f9", "lat": 39.056368166666665, "fusion_lon": 0.0, "fusion_lat": 0.0, "type": "electric_bike", "name": "2eec7e32566e0095c3e9341811edf1f9", "is_disabled": 0, "rental_uris": {"ios": "https://dc.lft.to/lastmile_qr_scan", "android": "https://dc.lft.to/lastmile_qr_scan"}, "is_reserved": 0}, {"lon": -77.023938, "bike_id": "f89f776505a8da63fe8a587925e9be09", "lat": 38.91525983333333, "fusion_lon": 0.0, "fusion_lat": 0.0, "type": "electric_scooter", "name": "f89f776505a8da63fe8a587925e9be09", "is_disabled": 0, "rental_uris": {"ios": "https://dc.lft.to/lastmile_qr_scan", "android": "https://dc.lft.to/lastmile_qr_scan"}, "is_reserved": 0}, {"lon": -77.02827016666667, "bike_id": "712cc04d66d379d062a293f58c260303", "lat": 38.932421166666664, "fusion_lon": 0.0, "fusion_lat": 0.0, "type": "electric_scooter", "name": "712cc04d66d379d062a293f58c260303", "is_disabled": 0, "rental_uris": {"ios": "https://dc.lft.to/lastmile_qr_scan", "android": "https://dc.lft.to/lastmile_qr_scan"}, "is_reserved": 0}, {"lon": -77.022737, "bike_id": "6bac2e1c9883c4744ed7e44ce3231bbb", "lat": 38.916497666666665, "fusion_lon": 0.0, "fusion_lat": 0.0, "type": "electric_scooter", "name": "6bac2e1c9883c4744ed7e44ce3231bbb", "is_disabled": 0, "rental_uris": {"ios": "https://dc.lft.to/lastmile_qr_scan", "android": "https://dc.lft.to/lastmile_qr_scan"}, "is_reserved": 0}, {"lon": -77.01503016666666, "bike_id": "95d5961cfd14cde8d2d9b6ef1f972a7e", "lat": 38.890410833333334, "fusion_lon": 0.0, "fusion_lat": 0.0, "type": "electric_scooter", "name": "95d5961cfd14cde8d2d9b6ef1f972a7e", "is_disabled": 0, "rental_uris": {"ios": "https://dc.lft.to/lastmile_qr_scan", "android": "https://dc.lft.to/lastmile_qr_scan"}, "is_reserved": 0}, {"lon": -77.074513, "bike_id": "88dc0b41eb78ec6c584d566737b8525d", "lat": 38.945101, "fusion_lon": 0.0, "fusion_lat": 0.0, "type": "electric_scooter", "name": "88dc0b41eb78ec6c584d566737b8525d", "is_disabled": 0, "rental_uris": {"ios": "https://dc.lft.to/lastmile_qr_scan", "android": "https://dc.lft.to/lastmile_qr_scan"}, "is_reserved": 0}, {"lon": -77.0335875, "bike_id": "e5c8f193359a81a83ee4cb060ea545ed", "lat": 38.88693983333334, "fusion_lon": 0.0, "fusion_lat": 0.0, "type": "electric_scooter", "name": "e5c8f193359a81a83ee4cb060ea545ed", "is_disabled": 0, "rental_uris": {"ios": "https://dc.lft.to/lastmile_qr_scan", "android": "https://dc.lft.to/lastmile_qr_scan"}, "is_reserved": 0}, {"lon": -77.05910583333333, "bike_id": "a3c10fac58257588fa10f4358988ccf7", "lat": 38.903642, "fusion_lon": 0.0, "fusion_lat": 0.0, "type": "electric_scooter", "name": "a3c10fac58257588fa10f4358988ccf7", "is_disabled": 0, "rental_uris": {"ios": "https://dc.lft.to/lastmile_qr_scan", "android": "https://dc.lft.to/lastmile_qr_scan"}, "is_reserved": 0}, {"lon": -76.99234316666667, "bike_id": "99fe264e26f0eb58a81b6e977e79f107", "lat": 38.904776166666664, "fusion_lon": 0.0, "fusion_lat": 0.0, "type": "electric_scooter", "name": "99fe264e26f0eb58a81b6e977e79f107", "is_disabled": 0, "rental_uris": {"ios": "https://dc.lft.to/lastmile_qr_scan", "android": "https://dc.lft.to/lastmile_qr_scan"}, "is_reserved": 0}, {"lon": -77.03620233333334, "bike_id": "77e9832cbc6f5d32a4e0ffba38b42211", "lat": 38.93162816666667, "fusion_lon": 0.0, "fusion_lat": 0.0, "type": "electric_scooter", "name": "77e9832cbc6f5d32a4e0ffba38b42211", "is_disabled": 0, "rental_uris": {"ios": "https://dc.lft.to/lastmile_qr_scan", "android": "https://dc.lft.to/lastmile_qr_scan"}, "is_reserved": 0}, {"lon": -77.0257545, "bike_id": "e4b6735a710ba3bcace8d00bd959188f", "lat": 38.9141475, "fusion_lon": 0.0, "fusion_lat": 0.0, "type": "electric_scooter", "name": "e4b6735a710ba3bcace8d00bd959188f", "is_disabled": 0, "rental_uris": {"ios": "https://dc.lft.to/lastmile_qr_scan", "android": "https://dc.lft.to/lastmile_qr_scan"}, "is_reserved": 0}, {"lon": -77.003048, "bike_id": "0564c4e0be58b5abe06c2427891b90bc", "lat": 38.89497766666667, "fusion_lon": 0.0, "fusion_lat": 0.0, "type": "electric_scooter", "name": "0564c4e0be58b5abe06c2427891b90bc", "is_disabled": 0, "rental_uris": {"ios": "https://dc.lft.to/lastmile_qr_scan", "android": "https://dc.lft.to/lastmile_qr_scan"}, "is_reserved": 0}, {"lon": -77.02013183333334, "bike_id": "584ed1a07932c9e53c96fdc5cfe11bd5", "lat": 38.924183, "fusion_lon": 0.0, "fusion_lat": 0.0, "type": "electric_scooter", "name": "584ed1a07932c9e53c96fdc5cfe11bd5", "is_disabled": 0, "rental_uris": {"ios": "https://dc.lft.to/lastmile_qr_scan", "android": "https://dc.lft.to/lastmile_qr_scan"}, "is_reserved": 0}, {"lon": -77.04687583333333, "bike_id": "589a692b263747bf91bc15324b675518", "lat": 38.902673166666666, "fusion_lon": 0.0, "fusion_lat": 0.0, "type": "electric_scooter", "name": "589a692b263747bf91bc15324b675518", "is_disabled": 0, "rental_uris": {"ios": "https://dc.lft.to/lastmile_qr_scan", "android": "https://dc.lft.to/lastmile_qr_scan"}, "is_reserved": 0}, {"lon": -77.011081, "bike_id": "47ecb7c475c6799e715fcbafe55ee7d9", "lat": 38.90348683333333, "fusion_lon": 0.0, "fusion_lat": 0.0, "type": "electric_scooter", "name": "47ecb7c475c6799e715fcbafe55ee7d9", "is_disabled": 0, "rental_uris": {"ios": "https://dc.lft.to/lastmile_qr_scan", "android": "https://dc.lft.to/lastmile_qr_scan"}, "is_reserved": 0}, {"lon": -77.05234766666666, "bike_id": "8781bcf1c6420e7a16b3db812e7a9a7c", "lat": 38.924630666666665, "fusion_lon": 0.0, "fusion_lat": 0.0, "type": "electric_scooter", "name": "8781bcf1c6420e7a16b3db812e7a9a7c", "is_disabled": 0, "rental_uris": {"ios": "https://dc.lft.to/lastmile_qr_scan", "android": "https://dc.lft.to/lastmile_qr_scan"}, "is_reserved": 0}, {"lon": -77.02234333333334, "bike_id": "b3f77a8c2ff5c84f99e5d31b37218277", "lat": 38.91561883333333, "fusion_lon": 0.0, "fusion_lat": 0.0, "type": "electric_scooter", "name": "b3f77a8c2ff5c84f99e5d31b37218277", "is_disabled": 0, "rental_uris": {"ios": "https://dc.lft.to/lastmile_qr_scan", "android": "https://dc.lft.to/lastmile_qr_scan"}, "is_reserved": 0}, {"lon": -77.0249295, "bike_id": "4eccb56f9b7746d13de00d3c4c43ede0", "lat": 38.907352333333336, "fusion_lon": 0.0, "fusion_lat": 0.0, "type": "electric_scooter", "name": "4eccb56f9b7746d13de00d3c4c43ede0", "is_disabled": 0, "rental_uris": {"ios": "https://dc.lft.to/lastmile_qr_scan", "android": "https://dc.lft.to/lastmile_qr_scan"}, "is_reserved": 0}, {"lon": -77.03042183333334, "bike_id": "eda4a110070fb9bb0f716c33181fa135", "lat": 38.87837733333333, "fusion_lon": 0.0, "fusion_lat": 0.0, "type": "electric_scooter", "name": "eda4a110070fb9bb0f716c33181fa135", "is_disabled": 0, "rental_uris": {"ios": "https://dc.lft.to/lastmile_qr_scan", "android": "https://dc.lft.to/lastmile_qr_scan"}, "is_reserved": 0}, {"lon": -77.01817733333333, "bike_id": "8fe8a6fc5dfe4c9ac95e3676dcd25010", "lat": 38.923687, "fusion_lon": 0.0, "fusion_lat": 0.0, "type": "electric_scooter", "name": "8fe8a6fc5dfe4c9ac95e3676dcd25010", "is_disabled": 0, "rental_uris": {"ios": "https://dc.lft.to/lastmile_qr_scan", "android": "https://dc.lft.to/lastmile_qr_scan"}, "is_reserved": 0}, {"lon": -77.04031116666667, "bike_id": "f4dacfd706af389dfd27dd1e9af4b8a5", "lat": 38.90005216666667, "fusion_lon": 0.0, "fusion_lat": 0.0, "type": "electric_scooter", "name": "f4dacfd706af389dfd27dd1e9af4b8a5", "is_disabled": 0, "rental_uris": {"ios": "https://dc.lft.to/lastmile_qr_scan", "android": "https://dc.lft.to/lastmile_qr_scan"}, "is_reserved": 0}, {"lon": -77.02949216666667, "bike_id": "1a10ff7f424ad0b6e029b8aa343b3f08", "lat": 38.905010833333336, "fusion_lon": 0.0, "fusion_lat": 0.0, "type": "electric_scooter", "name": "1a10ff7f424ad0b6e029b8aa343b3f08", "is_disabled": 0, "rental_uris": {"ios": "https://dc.lft.to/lastmile_qr_scan", "android": "https://dc.lft.to/lastmile_qr_scan"}, "is_reserved": 0}, {"lon": -77.003274, "bike_id": "31aa0c6728f8aaad4462ab8eae40aa53", "lat": 38.885033666666665, "fusion_lon": 0.0, "fusion_lat": 0.0, "type": "electric_scooter", "name": "31aa0c6728f8aaad4462ab8eae40aa53", "is_disabled": 0, "rental_uris": {"ios": "https://dc.lft.to/lastmile_qr_scan", "android": "https://dc.lft.to/lastmile_qr_scan"}, "is_reserved": 0}, {"lon": -77.010276, "bike_id": "d3bc75d72e3e1598964242cccd4d4e05", "lat": 38.86663133333333, "fusion_lon": 0.0, "fusion_lat": 0.0, "type": "electric_scooter", "name": "d3bc75d72e3e1598964242cccd4d4e05", "is_disabled": 0, "rental_uris": {"ios": "https://dc.lft.to/lastmile_qr_scan", "android": "https://dc.lft.to/lastmile_qr_scan"}, "is_reserved": 0}, {"lon": -77.01310116666667, "bike_id": "1d2db22db31834a8ccc5346b8f3f35f0", "lat": 38.90732766666667, "fusion_lon": 0.0, "fusion_lat": 0.0, "type": "electric_scooter", "name": "1d2db22db31834a8ccc5346b8f3f35f0", "is_disabled": 0, "rental_uris": {"ios": "https://dc.lft.to/lastmile_qr_scan", "android": "https://dc.lft.to/lastmile_qr_scan"}, "is_reserved": 0}, {"lon": -77.05104533333333, "bike_id": "d18eeec703914eacbca2cfed6349e1eb", "lat": 38.92305266666666, "fusion_lon": 0.0, "fusion_lat": 0.0, "type": "electric_scooter", "name": "d18eeec703914eacbca2cfed6349e1eb", "is_disabled": 0, "rental_uris": {"ios": "https://dc.lft.to/lastmile_qr_scan", "android": "https://dc.lft.to/lastmile_qr_scan"}, "is_reserved": 0}, {"lon": -77.02198966666667, "bike_id": "86b551bf7eda4aa8d647879db93033fd", "lat": 38.911245, "fusion_lon": 0.0, "fusion_lat": 0.0, "type": "electric_scooter", "name": "86b551bf7eda4aa8d647879db93033fd", "is_disabled": 0, "rental_uris": {"ios": "https://dc.lft.to/lastmile_qr_scan", "android": "https://dc.lft.to/lastmile_qr_scan"}, "is_reserved": 0}, {"lon": -76.99367566666666, "bike_id": "ad5220c29eb3fd917a0e6b81f872293d", "lat": 38.87974283333333, "fusion_lon": 0.0, "fusion_lat": 0.0, "type": "electric_scooter", "name": "ad5220c29eb3fd917a0e6b81f872293d", "is_disabled": 0, "rental_uris": {"ios": "https://dc.lft.to/lastmile_qr_scan", "android": "https://dc.lft.to/lastmile_qr_scan"}, "is_reserved": 0}, {"lon": -76.99453133333333, "bike_id": "98621d28fd5aa8d2e52c46568dc99b31", "lat": 38.966175666666665, "fusion_lon": 0.0, "fusion_lat": 0.0, "type": "electric_bike", "name": "98621d28fd5aa8d2e52c46568dc99b31", "is_disabled": 0, "rental_uris": {"ios": "https://dc.lft.to/lastmile_qr_scan", "android": "https://dc.lft.to/lastmile_qr_scan"}, "is_reserved": 0}, {"lon": -76.990031, "bike_id": "33a4e1b9448693f204611aed79fedea6", "lat": 38.8650515, "fusion_lon": 0.0, "fusion_lat": 0.0, "type": "electric_scooter", "name": "33a4e1b9448693f204611aed79fedea6", "is_disabled": 0, "rental_uris": {"ios": "https://dc.lft.to/lastmile_qr_scan", "android": "https://dc.lft.to/lastmile_qr_scan"}, "is_reserved": 0}, {"lon": -77.02488433333333, "bike_id": "49be42dc0e6d8eb7d07865be44745443", "lat": 38.91922, "fusion_lon": 0.0, "fusion_lat": 0.0, "type": "electric_scooter", "name": "49be42dc0e6d8eb7d07865be44745443", "is_disabled": 0, "rental_uris": {"ios": "https://dc.lft.to/lastmile_qr_scan", "android": "https://dc.lft.to/lastmile_qr_scan"}, "is_reserved": 0}, {"lon": -77.0354775, "bike_id": "c2541d0ac0a4a00790a9b8fa09653d6b", "lat": 38.91714733333333, "fusion_lon": 0.0, "fusion_lat": 0.0, "type": "electric_scooter", "name": "c2541d0ac0a4a00790a9b8fa09653d6b", "is_disabled": 0, "rental_uris": {"ios": "https://dc.lft.to/lastmile_qr_scan", "android": "https://dc.lft.to/lastmile_qr_scan"}, "is_reserved": 0}, {"lon": -77.00375066666666, "bike_id": "77700243ee24dc5536dfe13b2c89979e", "lat": 38.8972835, "fusion_lon": 0.0, "fusion_lat": 0.0, "type": "electric_scooter", "name": "77700243ee24dc5536dfe13b2c89979e", "is_disabled": 0, "rental_uris": {"ios": "https://dc.lft.to/lastmile_qr_scan", "android": "https://dc.lft.to/lastmile_qr_scan"}, "is_reserved": 0}, {"lon": -77.00882933333334, "bike_id": "0142271af361f449a98269b238adf21a", "lat": 38.906362666666666, "fusion_lon": 0.0, "fusion_lat": 0.0, "type": "electric_scooter", "name": "0142271af361f449a98269b238adf21a", "is_disabled": 0, "rental_uris": {"ios": "https://dc.lft.to/lastmile_qr_scan", "android": "https://dc.lft.to/lastmile_qr_scan"}, "is_reserved": 0}, {"lon": -77.00657916666667, "bike_id": "7633675b1fd9eca702c3f1ac7211328d", "lat": 38.876629666666666, "fusion_lon": 0.0, "fusion_lat": 0.0, "type": "electric_scooter", "name": "7633675b1fd9eca702c3f1ac7211328d", "is_disabled": 0, "rental_uris": {"ios": "https://dc.lft.to/lastmile_qr_scan", "android": "https://dc.lft.to/lastmile_qr_scan"}, "is_reserved": 0}, {"lon": -77.03120716666666, "bike_id": "1cb8c7d715f11e797d909cdc3eaf7caa", "lat": 38.917074666666664, "fusion_lon": 0.0, "fusion_lat": 0.0, "type": "electric_scooter", "name": "1cb8c7d715f11e797d909cdc3eaf7caa", "is_disabled": 0, "rental_uris": {"ios": "https://dc.lft.to/lastmile_qr_scan", "android": "https://dc.lft.to/lastmile_qr_scan"}, "is_reserved": 0}, {"lon": -76.99540666666667, "bike_id": "ece2f55d698a0bd5a32fb3a100d3c941", "lat": 38.862599333333335, "fusion_lon": 0.0, "fusion_lat": 0.0, "type": "electric_scooter", "name": "ece2f55d698a0bd5a32fb3a100d3c941", "is_disabled": 0, "rental_uris": {"ios": "https://dc.lft.to/lastmile_qr_scan", "android": "https://dc.lft.to/lastmile_qr_scan"}, "is_reserved": 0}, {"lon": -77.00045016666667, "bike_id": "04de28804f96bb1595e277cca6b25e10", "lat": 38.89644216666667, "fusion_lon": 0.0, "fusion_lat": 0.0, "type": "electric_scooter", "name": "04de28804f96bb1595e277cca6b25e10", "is_disabled": 0, "rental_uris": {"ios": "https://dc.lft.to/lastmile_qr_scan", "android": "https://dc.lft.to/lastmile_qr_scan"}, "is_reserved": 0}, {"lon": -77.0083575, "bike_id": "e6ea70d23235fb4cf1e8c4a6366c5af5", "lat": 38.913475166666665, "fusion_lon": 0.0, "fusion_lat": 0.0, "type": "electric_scooter", "name": "e6ea70d23235fb4cf1e8c4a6366c5af5", "is_disabled": 0, "rental_uris": {"ios": "https://dc.lft.to/lastmile_qr_scan", "android": "https://dc.lft.to/lastmile_qr_scan"}, "is_reserved": 0}, {"lon": -77.01322883333333, "bike_id": "fac55a0e47b5098977bcf49b9885a00f", "lat": 38.87153466666667, "fusion_lon": 0.0, "fusion_lat": 0.0, "type": "electric_scooter", "name": "fac55a0e47b5098977bcf49b9885a00f", "is_disabled": 0, "rental_uris": {"ios": "https://dc.lft.to/lastmile_qr_scan", "android": "https://dc.lft.to/lastmile_qr_scan"}, "is_reserved": 0}, {"lon": -77.09863516666667, "bike_id": "a2ef9f1e0f60e8ec5f4ac137ee84bf7e", "lat": 38.94970283333333, "fusion_lon": 0.0, "fusion_lat": 0.0, "type": "electric_scooter", "name": "a2ef9f1e0f60e8ec5f4ac137ee84bf7e", "is_disabled": 0, "rental_uris": {"ios": "https://dc.lft.to/lastmile_qr_scan", "android": "https://dc.lft.to/lastmile_qr_scan"}, "is_reserved": 0}, {"lon": -77.02913016666666, "bike_id": "576626be0f3bca96bdf967705839d1b2", "lat": 38.8981615, "fusion_lon": 0.0, "fusion_lat": 0.0, "type": "electric_scooter", "name": "576626be0f3bca96bdf967705839d1b2", "is_disabled": 0, "rental_uris": {"ios": "https://dc.lft.to/lastmile_qr_scan", "android": "https://dc.lft.to/lastmile_qr_scan"}, "is_reserved": 0}, {"lon": -77.027108, "bike_id": "551c1cf5c3f13c6beeab679bdf74d8d8", "lat": 38.91018433333333, "fusion_lon": 0.0, "fusion_lat": 0.0, "type": "electric_scooter", "name": "551c1cf5c3f13c6beeab679bdf74d8d8", "is_disabled": 0, "rental_uris": {"ios": "https://dc.lft.to/lastmile_qr_scan", "android": "https://dc.lft.to/lastmile_qr_scan"}, "is_reserved": 0}, {"lon": -77.0195975, "bike_id": "e97cea5bb5a7ecbb49ec564e76afc6a0", "lat": 38.95233316666667, "fusion_lon": 0.0, "fusion_lat": 0.0, "type": "electric_scooter", "name": "e97cea5bb5a7ecbb49ec564e76afc6a0", "is_disabled": 0, "rental_uris": {"ios": "https://dc.lft.to/lastmile_qr_scan", "android": "https://dc.lft.to/lastmile_qr_scan"}, "is_reserved": 0}, {"lon": -77.00747066666666, "bike_id": "b2848bc1f7d90fee611726e8327d7e03", "lat": 38.876608166666664, "fusion_lon": 0.0, "fusion_lat": 0.0, "type": "electric_scooter", "name": "b2848bc1f7d90fee611726e8327d7e03", "is_disabled": 0, "rental_uris": {"ios": "https://dc.lft.to/lastmile_qr_scan", "android": "https://dc.lft.to/lastmile_qr_scan"}, "is_reserved": 0}, {"lon": -76.99137433333334, "bike_id": "d87edadac379703e8301d2e09f25c496", "lat": 38.88247666666667, "fusion_lon": 0.0, "fusion_lat": 0.0, "type": "electric_scooter", "name": "d87edadac379703e8301d2e09f25c496", "is_disabled": 0, "rental_uris": {"ios": "https://dc.lft.to/lastmile_qr_scan", "android": "https://dc.lft.to/lastmile_qr_scan"}, "is_reserved": 0}, {"lon": -76.98821333333333, "bike_id": "14655ec2e7c550f9dc2671af067187c4", "lat": 38.89073466666667, "fusion_lon": 0.0, "fusion_lat": 0.0, "type": "electric_scooter", "name": "14655ec2e7c550f9dc2671af067187c4", "is_disabled": 0, "rental_uris": {"ios": "https://dc.lft.to/lastmile_qr_scan", "android": "https://dc.lft.to/lastmile_qr_scan"}, "is_reserved": 0}, {"lon": -77.05365583333334, "bike_id": "d95f686cd9f2c23129257e1d94ce19f7", "lat": 38.927322, "fusion_lon": 0.0, "fusion_lat": 0.0, "type": "electric_scooter", "name": "d95f686cd9f2c23129257e1d94ce19f7", "is_disabled": 0, "rental_uris": {"ios": "https://dc.lft.to/lastmile_qr_scan", "android": "https://dc.lft.to/lastmile_qr_scan"}, "is_reserved": 0}, {"lon": -77.01362966666667, "bike_id": "36a45d1d3f27b2c03beeef3c8a2e28c3", "lat": 38.887048166666666, "fusion_lon": 0.0, "fusion_lat": 0.0, "type": "electric_scooter", "name": "36a45d1d3f27b2c03beeef3c8a2e28c3", "is_disabled": 0, "rental_uris": {"ios": "https://dc.lft.to/lastmile_qr_scan", "android": "https://dc.lft.to/lastmile_qr_scan"}, "is_reserved": 0}, {"lon": -77.046033, "bike_id": "f8c6dc8681bb7b0f240657136705f6bd", "lat": 38.916097, "fusion_lon": 0.0, "fusion_lat": 0.0, "type": "electric_scooter", "name": "f8c6dc8681bb7b0f240657136705f6bd", "is_disabled": 0, "rental_uris": {"ios": "https://dc.lft.to/lastmile_qr_scan", "android": "https://dc.lft.to/lastmile_qr_scan"}, "is_reserved": 0}, {"lon": -77.02382783333333, "bike_id": "a4fbc1bed7a56bd44f8cd4d4e63a4996", "lat": 38.91999033333333, "fusion_lon": 0.0, "fusion_lat": 0.0, "type": "electric_scooter", "name": "a4fbc1bed7a56bd44f8cd4d4e63a4996", "is_disabled": 0, "rental_uris": {"ios": "https://dc.lft.to/lastmile_qr_scan", "android": "https://dc.lft.to/lastmile_qr_scan"}, "is_reserved": 0}, {"lon": -77.04114283333334, "bike_id": "8bb16b347777df6b36e335d0e488e923", "lat": 38.934648, "fusion_lon": 0.0, "fusion_lat": 0.0, "type": "electric_scooter", "name": "8bb16b347777df6b36e335d0e488e923", "is_disabled": 0, "rental_uris": {"ios": "https://dc.lft.to/lastmile_qr_scan", "android": "https://dc.lft.to/lastmile_qr_scan"}, "is_reserved": 0}, {"lon": -77.01349183333333, "bike_id": "f496f76d452dcc72c8595c7f0daa2128", "lat": 38.8971235, "fusion_lon": 0.0, "fusion_lat": 0.0, "type": "electric_scooter", "name": "f496f76d452dcc72c8595c7f0daa2128", "is_disabled": 0, "rental_uris": {"ios": "https://dc.lft.to/lastmile_qr_scan", "android": "https://dc.lft.to/lastmile_qr_scan"}, "is_reserved": 0}, {"lon": -76.99606966666667, "bike_id": "93768985ad259f715b4979557f9edf21", "lat": 38.8875195, "fusion_lon": 0.0, "fusion_lat": 0.0, "type": "electric_scooter", "name": "93768985ad259f715b4979557f9edf21", "is_disabled": 0, "rental_uris": {"ios": "https://dc.lft.to/lastmile_qr_scan", "android": "https://dc.lft.to/lastmile_qr_scan"}, "is_reserved": 0}, {"lon": -76.982078, "bike_id": "bda4407ec997b143b62934a81a67d0d3", "lat": 38.9010265, "fusion_lon": 0.0, "fusion_lat": 0.0, "type": "electric_scooter", "name": "bda4407ec997b143b62934a81a67d0d3", "is_disabled": 0, "rental_uris": {"ios": "https://dc.lft.to/lastmile_qr_scan", "android": "https://dc.lft.to/lastmile_qr_scan"}, "is_reserved": 0}, {"lon": -77.0218995, "bike_id": "e8f85d4d0f101675ff6f6141b8c4671b", "lat": 38.911273, "fusion_lon": 0.0, "fusion_lat": 0.0, "type": "electric_scooter", "name": "e8f85d4d0f101675ff6f6141b8c4671b", "is_disabled": 0, "rental_uris": {"ios": "https://dc.lft.to/lastmile_qr_scan", "android": "https://dc.lft.to/lastmile_qr_scan"}, "is_reserved": 0}, {"lon": -77.04879083333333, "bike_id": "08db05cb33cc6cd73476ed82cee4f7f5", "lat": 38.90542516666667, "fusion_lon": 0.0, "fusion_lat": 0.0, "type": "electric_scooter", "name": "08db05cb33cc6cd73476ed82cee4f7f5", "is_disabled": 0, "rental_uris": {"ios": "https://dc.lft.to/lastmile_qr_scan", "android": "https://dc.lft.to/lastmile_qr_scan"}, "is_reserved": 0}, {"lon": -77.00790583333334, "bike_id": "59d6e7310b4dd3d787b5f32d0c8616e2", "lat": 38.89645183333333, "fusion_lon": 0.0, "fusion_lat": 0.0, "type": "electric_scooter", "name": "59d6e7310b4dd3d787b5f32d0c8616e2", "is_disabled": 0, "rental_uris": {"ios": "https://dc.lft.to/lastmile_qr_scan", "android": "https://dc.lft.to/lastmile_qr_scan"}, "is_reserved": 0}, {"lon": -77.03626866666667, "bike_id": "00cf5cb74536bfa03cfdc62eb83d965f", "lat": 38.94501133333333, "fusion_lon": 0.0, "fusion_lat": 0.0, "type": "electric_scooter", "name": "00cf5cb74536bfa03cfdc62eb83d965f", "is_disabled": 0, "rental_uris": {"ios": "https://dc.lft.to/lastmile_qr_scan", "android": "https://dc.lft.to/lastmile_qr_scan"}, "is_reserved": 0}, {"lon": -77.028527, "bike_id": "721376e0ed71e9ec46d737895f76f889", "lat": 38.92768866666667, "fusion_lon": 0.0, "fusion_lat": 0.0, "type": "electric_scooter", "name": "721376e0ed71e9ec46d737895f76f889", "is_disabled": 0, "rental_uris": {"ios": "https://dc.lft.to/lastmile_qr_scan", "android": "https://dc.lft.to/lastmile_qr_scan"}, "is_reserved": 0}, {"lon": -77.03359583333334, "bike_id": "6134743e79d406c5b764289361d48f1f", "lat": 38.935752666666666, "fusion_lon": 0.0, "fusion_lat": 0.0, "type": "electric_scooter", "name": "6134743e79d406c5b764289361d48f1f", "is_disabled": 0, "rental_uris": {"ios": "https://dc.lft.to/lastmile_qr_scan", "android": "https://dc.lft.to/lastmile_qr_scan"}, "is_reserved": 0}, {"lon": -77.087721, "bike_id": "7e0150717aab0a2a0d0d511572faac64", "lat": 38.83899983333333, "fusion_lon": 0.0, "fusion_lat": 0.0, "type": "electric_bike", "name": "7e0150717aab0a2a0d0d511572faac64", "is_disabled": 0, "rental_uris": {"ios": "https://dc.lft.to/lastmile_qr_scan", "android": "https://dc.lft.to/lastmile_qr_scan"}, "is_reserved": 0}, {"lon": -76.977115, "bike_id": "2db077a9e02a72be1956ff2cf4dc271c", "lat": 38.887778, "fusion_lon": 0.0, "fusion_lat": 0.0, "type": "electric_scooter", "name": "2db077a9e02a72be1956ff2cf4dc271c", "is_disabled": 0, "rental_uris": {"ios": "https://dc.lft.to/lastmile_qr_scan", "android": "https://dc.lft.to/lastmile_qr_scan"}, "is_reserved": 0}, {"lon": -77.02652333333333, "bike_id": "8577419f0d6a98657a6a8a28dc27bc4f", "lat": 38.97813133333333, "fusion_lon": 0.0, "fusion_lat": 0.0, "type": "electric_scooter", "name": "8577419f0d6a98657a6a8a28dc27bc4f", "is_disabled": 0, "rental_uris": {"ios": "https://dc.lft.to/lastmile_qr_scan", "android": "https://dc.lft.to/lastmile_qr_scan"}, "is_reserved": 0}, {"lon": -76.97868583333333, "bike_id": "3ed8f025e9c67574f7a41783ac2b234e", "lat": 38.88304016666667, "fusion_lon": 0.0, "fusion_lat": 0.0, "type": "electric_scooter", "name": "3ed8f025e9c67574f7a41783ac2b234e", "is_disabled": 0, "rental_uris": {"ios": "https://dc.lft.to/lastmile_qr_scan", "android": "https://dc.lft.to/lastmile_qr_scan"}, "is_reserved": 0}, {"lon": -77.04499216666666, "bike_id": "7c858187229129a16a53ab076b5ee57d", "lat": 38.90356516666667, "fusion_lon": 0.0, "fusion_lat": 0.0, "type": "electric_scooter", "name": "7c858187229129a16a53ab076b5ee57d", "is_disabled": 0, "rental_uris": {"ios": "https://dc.lft.to/lastmile_qr_scan", "android": "https://dc.lft.to/lastmile_qr_scan"}, "is_reserved": 0}, {"lon": -77.04614083333334, "bike_id": "d49b5214d2aaa5ece3790e543439624c", "lat": 38.905422, "fusion_lon": 0.0, "fusion_lat": 0.0, "type": "electric_scooter", "name": "d49b5214d2aaa5ece3790e543439624c", "is_disabled": 0, "rental_uris": {"ios": "https://dc.lft.to/lastmile_qr_scan", "android": "https://dc.lft.to/lastmile_qr_scan"}, "is_reserved": 0}, {"lon": -77.024138, "bike_id": "f4432160e4d491de58ea90d1ddddb34e", "lat": 38.91779316666667, "fusion_lon": 0.0, "fusion_lat": 0.0, "type": "electric_scooter", "name": "f4432160e4d491de58ea90d1ddddb34e", "is_disabled": 0, "rental_uris": {"ios": "https://dc.lft.to/lastmile_qr_scan", "android": "https://dc.lft.to/lastmile_qr_scan"}, "is_reserved": 0}, {"lon": -77.07228533333334, "bike_id": "2da55d0578a96af4a1e1077e529c49ea", "lat": 38.89908033333333, "fusion_lon": 0.0, "fusion_lat": 0.0, "type": "electric_scooter", "name": "2da55d0578a96af4a1e1077e529c49ea", "is_disabled": 0, "rental_uris": {"ios": "https://dc.lft.to/lastmile_qr_scan", "android": "https://dc.lft.to/lastmile_qr_scan"}, "is_reserved": 0}, {"lon": -77.02960683333333, "bike_id": "ec885328308ab8c195382ac15b93b2ab", "lat": 38.912515, "fusion_lon": 0.0, "fusion_lat": 0.0, "type": "electric_scooter", "name": "ec885328308ab8c195382ac15b93b2ab", "is_disabled": 0, "rental_uris": {"ios": "https://dc.lft.to/lastmile_qr_scan", "android": "https://dc.lft.to/lastmile_qr_scan"}, "is_reserved": 0}, {"lon": -77.03475466666667, "bike_id": "550ae641fc5120f6ef6c913128943b61", "lat": 38.919145666666665, "fusion_lon": 0.0, "fusion_lat": 0.0, "type": "electric_scooter", "name": "550ae641fc5120f6ef6c913128943b61", "is_disabled": 0, "rental_uris": {"ios": "https://dc.lft.to/lastmile_qr_scan", "android": "https://dc.lft.to/lastmile_qr_scan"}, "is_reserved": 0}, {"lon": -77.02667766666667, "bike_id": "3d57d4a109296c495b63d193bb278afd", "lat": 38.927747833333335, "fusion_lon": 0.0, "fusion_lat": 0.0, "type": "electric_scooter", "name": "3d57d4a109296c495b63d193bb278afd", "is_disabled": 0, "rental_uris": {"ios": "https://dc.lft.to/lastmile_qr_scan", "android": "https://dc.lft.to/lastmile_qr_scan"}, "is_reserved": 0}, {"lon": -77.04481983333334, "bike_id": "0616885d8284cbf6d2c3d891ccac7af2", "lat": 38.91264416666667, "fusion_lon": 0.0, "fusion_lat": 0.0, "type": "electric_scooter", "name": "0616885d8284cbf6d2c3d891ccac7af2", "is_disabled": 0, "rental_uris": {"ios": "https://dc.lft.to/lastmile_qr_scan", "android": "https://dc.lft.to/lastmile_qr_scan"}, "is_reserved": 0}, {"lon": -77.04603433333334, "bike_id": "21119087b2078e93d1a4ee42bd09dc01", "lat": 38.853047833333335, "fusion_lon": 0.0, "fusion_lat": 0.0, "type": "electric_bike", "name": "21119087b2078e93d1a4ee42bd09dc01", "is_disabled": 0, "rental_uris": {"ios": "https://dc.lft.to/lastmile_qr_scan", "android": "https://dc.lft.to/lastmile_qr_scan"}, "is_reserved": 0}, {"lon": -77.02271116666667, "bike_id": "868ceaf6e2ba83b0f26c1cc2fb17a8d9", "lat": 38.91620533333333, "fusion_lon": 0.0, "fusion_lat": 0.0, "type": "electric_scooter", "name": "868ceaf6e2ba83b0f26c1cc2fb17a8d9", "is_disabled": 0, "rental_uris": {"ios": "https://dc.lft.to/lastmile_qr_scan", "android": "https://dc.lft.to/lastmile_qr_scan"}, "is_reserved": 0}, {"lon": -77.02362683333334, "bike_id": "d42a7c7e4c45191ed439aaf52e17ce09", "lat": 38.89221166666667, "fusion_lon": 0.0, "fusion_lat": 0.0, "type": "electric_scooter", "name": "d42a7c7e4c45191ed439aaf52e17ce09", "is_disabled": 0, "rental_uris": {"ios": "https://dc.lft.to/lastmile_qr_scan", "android": "https://dc.lft.to/lastmile_qr_scan"}, "is_reserved": 0}, {"lon": -77.0257205, "bike_id": "77a6c7c8593310a6361332a19eab8b6c", "lat": 38.887425666666665, "fusion_lon": 0.0, "fusion_lat": 0.0, "type": "electric_scooter", "name": "77a6c7c8593310a6361332a19eab8b6c", "is_disabled": 0, "rental_uris": {"ios": "https://dc.lft.to/lastmile_qr_scan", "android": "https://dc.lft.to/lastmile_qr_scan"}, "is_reserved": 0}, {"lon": -77.05731183333333, "bike_id": "5880810305e4f753d8bad3514f34792f", "lat": 38.93367683333334, "fusion_lon": 0.0, "fusion_lat": 0.0, "type": "electric_scooter", "name": "5880810305e4f753d8bad3514f34792f", "is_disabled": 0, "rental_uris": {"ios": "https://dc.lft.to/lastmile_qr_scan", "android": "https://dc.lft.to/lastmile_qr_scan"}, "is_reserved": 0}, {"lon": -77.02604383333333, "bike_id": "67c904047629c1e71cfe3213306aa11b", "lat": 38.920361, "fusion_lon": 0.0, "fusion_lat": 0.0, "type": "electric_scooter", "name": "67c904047629c1e71cfe3213306aa11b", "is_disabled": 0, "rental_uris": {"ios": "https://dc.lft.to/lastmile_qr_scan", "android": "https://dc.lft.to/lastmile_qr_scan"}, "is_reserved": 0}, {"lon": -76.9982715, "bike_id": "b078f02750e3ba6737d025b3cfdd2945", "lat": 38.8854165, "fusion_lon": 0.0, "fusion_lat": 0.0, "type": "electric_scooter", "name": "b078f02750e3ba6737d025b3cfdd2945", "is_disabled": 0, "rental_uris": {"ios": "https://dc.lft.to/lastmile_qr_scan", "android": "https://dc.lft.to/lastmile_qr_scan"}, "is_reserved": 0}, {"lon": -77.00050916666666, "bike_id": "2a482bd262f05068a53a16c04a2aa304", "lat": 38.923960666666666, "fusion_lon": 0.0, "fusion_lat": 0.0, "type": "electric_scooter", "name": "2a482bd262f05068a53a16c04a2aa304", "is_disabled": 0, "rental_uris": {"ios": "https://dc.lft.to/lastmile_qr_scan", "android": "https://dc.lft.to/lastmile_qr_scan"}, "is_reserved": 0}, {"lon": -76.97048883333333, "bike_id": "dbcd19f6fbeec2ccbc2258bf634bcc0d", "lat": 38.897716, "fusion_lon": 0.0, "fusion_lat": 0.0, "type": "electric_scooter", "name": "dbcd19f6fbeec2ccbc2258bf634bcc0d", "is_disabled": 0, "rental_uris": {"ios": "https://dc.lft.to/lastmile_qr_scan", "android": "https://dc.lft.to/lastmile_qr_scan"}, "is_reserved": 0}, {"lon": -76.956532, "bike_id": "137eee8201338179f7bcb861d71d7108", "lat": 38.896255333333336, "fusion_lon": 0.0, "fusion_lat": 0.0, "type": "electric_scooter", "name": "137eee8201338179f7bcb861d71d7108", "is_disabled": 0, "rental_uris": {"ios": "https://dc.lft.to/lastmile_qr_scan", "android": "https://dc.lft.to/lastmile_qr_scan"}, "is_reserved": 0}, {"lon": -77.127343, "bike_id": "38b87a16f721c3fb4001b288221908d8", "lat": 38.895582833333336, "fusion_lon": 0.0, "fusion_lat": 0.0, "type": "electric_bike", "name": "38b87a16f721c3fb4001b288221908d8", "is_disabled": 0, "rental_uris": {"ios": "https://dc.lft.to/lastmile_qr_scan", "android": "https://dc.lft.to/lastmile_qr_scan"}, "is_reserved": 0}, {"lon": -77.01807316666667, "bike_id": "3641c10f0b1d9da72b70fa6c393aa986", "lat": 38.96484233333334, "fusion_lon": 0.0, "fusion_lat": 0.0, "type": "electric_scooter", "name": "3641c10f0b1d9da72b70fa6c393aa986", "is_disabled": 0, "rental_uris": {"ios": "https://dc.lft.to/lastmile_qr_scan", "android": "https://dc.lft.to/lastmile_qr_scan"}, "is_reserved": 0}, {"lon": -77.03881616666666, "bike_id": "67c2844abc207a96e59ffeaf85c391c2", "lat": 38.94867283333333, "fusion_lon": 0.0, "fusion_lat": 0.0, "type": "electric_scooter", "name": "67c2844abc207a96e59ffeaf85c391c2", "is_disabled": 0, "rental_uris": {"ios": "https://dc.lft.to/lastmile_qr_scan", "android": "https://dc.lft.to/lastmile_qr_scan"}, "is_reserved": 0},