{"data": {"bikes": [{"fusion_lat": 0.0, "name": "7c13d654517d9dfe20e1ed956a7f9dac", "is_disabled": 0, "rental_uris": {"android": "https://dc.lft.to/lastmile_qr_scan", "ios": "https://dc.lft.to/lastmile_qr_scan"}, "fusion_lon": 0.0, "lat": 38.8637035, "bike_id": "7c13d654517d9dfe20e1ed956a7f9dac", "type": "electric_bike", "is_reserved": 0, "lon": -76.97007866666667}, {"fusion_lat": 0.0, "name": "2090db290ff8f8c46345407fe4af6833", "is_disabled": 0, "rental_uris": {"android": "https://dc.lft.to/lastmile_qr_scan", "ios": "https://dc.lft.to/lastmile_qr_scan"}, "fusion_lon": 0.0, "lat": 38.905659166666666, "bike_id": "2090db290ff8f8c46345407fe4af6833", "type": "electric_scooter", "is_reserved": 0, "lon": -77.02916383333333}, {"fusion_lat": 0.0, "name": "2d4d57820c3e8c9e9ae4e19418d816b5", "is_disabled": 0, "rental_uris": {"android": "https://dc.lft.to/lastmile_qr_scan", "ios": "https://dc.lft.to/lastmile_qr_scan"}, "fusion_lon": 0.0, "lat": 38.8877345, "bike_id": "2d4d57820c3e8c9e9ae4e19418d816b5", "type": "electric_scooter", "is_reserved": 0, "lon": -76.977489}, {"fusion_lat": 0.0, "name": "18620f33a0f2c47d83e4899c318fcbb8", "is_disabled": 0, "rental_uris": {"android": "https://dc.lft.to/lastmile_qr_scan", "ios": "https://dc.lft.to/lastmile_qr_scan"}, "fusion_lon": 0.0, "lat": 38.90152033333333, "bike_id": "18620f33a0f2c47d83e4899c318fcbb8", "type": "electric_scooter", "is_reserved": 0, "lon": -76.93063966666666}, {"fusion_lat": 0.0, "name": "5e010ef7f1d123fe897c91316c7ac710", "is_disabled": 0, "rental_uris": {"android": "https://dc.lft.to/lastmile_qr_scan", "ios": "https://dc.lft.to/lastmile_qr_scan"}, "fusion_lon": 0.0, "lat": 38.897426833333334, "bike_id": "5e010ef7f1d123fe897c91316c7ac710", "type": "electric_scooter", "is_reserved": 0, "lon": -77.02499083333333}, {"fusion_lat": 0.0, "name": "2a87dd3b2fa4d9e5d8697ca910ec5b03", "is_disabled": 0, "rental_uris": {"android": "https://dc.lft.to/lastmile_qr_scan", "ios": "https://dc.lft.to/lastmile_qr_scan"}, "fusion_lon": 0.0, "lat": 38.93768333333333, "bike_id": "2a87dd3b2fa4d9e5d8697ca910ec5b03", "type": "electric_scooter", "is_reserved": 0, "lon": -77.03280916666667}, {"fusion_lat": 0.0, "name": "a8f18d67fb40f4daee9d816a38c72fd6", "is_disabled": 0, "rental_uris": {"android": "https://dc.lft.to/lastmile_qr_scan", "ios": "https://dc.lft.to/lastmile_qr_scan"}, "fusion_lon": 0.0, "lat": 38.93150983333334, "bike_id": "a8f18d67fb40f4daee9d816a38c72fd6", "type": "electric_bike", "is_reserved": 0, "lon": -77.03828716666666}, {"fusion_lat": 0.0, "name": "4567089c78bc7b22bed04136160d6e01", "is_disabled": 0, "rental_uris": {"android": "https://dc.lft.to/lastmile_qr_scan", "ios": "https://dc.lft.to/lastmile_qr_scan"}, "fusion_lon": 0.0, "lat": 38.9093985, "bike_id": "4567089c78bc7b22bed04136160d6e01", "type": "electric_scooter", "is_reserved": 0, "lon": -77.0184575}, {"fusion_lat": 0.0, "name": "18a9625ba3f97fee3162a6e4037f60a8", "is_disabled": 0, "rental_uris": {"android": "https://dc.lft.to/lastmile_qr_scan", "ios": "https://dc.lft.to/lastmile_qr_scan"}, "fusion_lon": 0.0, "lat": 38.90687583333333, "bike_id": "18a9625ba3f97fee3162a6e4037f60a8", "type": "electric_bike", "is_reserved": 0, "lon": -76.94494433333334}, {"fusion_lat": 0.0, "name": "769a09270e233ceaa1471743240ccf2f", "is_disabled": 0, "rental_uris": {"android": "https://dc.lft.to/lastmile_qr_scan", "ios": "https://dc.lft.to/lastmile_qr_scan"}, "fusion_lon": 0.0, "lat": 38.91655866666667, "bike_id": "769a09270e233ceaa1471743240ccf2f", "type": "electric_scooter", "is_reserved": 0, "lon": -77.0240865}, {"fusion_lat": 0.0, "name": "9e8394d7a72b1456c3fcb2ac4d514ce9", "is_disabled": 0, "rental_uris": {"android": "https://dc.lft.to/lastmile_qr_scan", "ios": "https://dc.lft.to/lastmile_qr_scan"}, "fusion_lon": 0.0, "lat": 38.92299033333333, "bike_id": "9e8394d7a72b1456c3fcb2ac4d514ce9", "type": "electric_scooter", "is_reserved": 0, "lon": -77.07294866666666}, {"fusion_lat": 0.0, "name": "264e880b5a584c751fdd302f67c6c7fc", "is_disabled": 0, "rental_uris": {"android": "https://dc.lft.to/lastmile_qr_scan", "ios": "https://dc.lft.to/lastmile_qr_scan"}, "fusion_lon": 0.0, "lat": 38.995248, "bike_id": "264e880b5a584c751fdd302f67c6c7fc", "type": "electric_bike", "is_reserved": 0, "lon": -77.029026}, {"fusion_lat": 0.0, "name": "8503b7a9fc622776c31d172e36c48394", "is_disabled": 0, "rental_uris": {"android": "https://dc.lft.to/lastmile_qr_scan", "ios": "https://dc.lft.to/lastmile_qr_scan"}, "fusion_lon": 0.0, "lat": 38.899635, "bike_id": "8503b7a9fc622776c31d172e36c48394", "type": "electric_scooter", "is_reserved": 0, "lon": -77.04531316666667}, {"fusion_lat": 0.0, "name": "7f0c10f849057d6f395f8e6676f36be8", "is_disabled": 0, "rental_uris": {"android": "https://dc.lft.to/lastmile_qr_scan", "ios": "https://dc.lft.to/lastmile_qr_scan"}, "fusion_lon": 0.0, "lat": 38.9376605, "bike_id": "7f0c10f849057d6f395f8e6676f36be8", "type": "electric_scooter", "is_reserved": 0, "lon": -77.076009}, {"fusion_lat": 0.0, "name": "d33854ffb738e8dcb88f81003206bbf2", "is_disabled": 0, "rental_uris": {"android": "https://dc.lft.to/lastmile_qr_scan", "ios": "https://dc.lft.to/lastmile_qr_scan"}, "fusion_lon": 0.0, "lat": 38.9073925, "bike_id": "d33854ffb738e8dcb88f81003206bbf2", "type": "electric_scooter", "is_reserved": 0, "lon": -76.99832616666667}, {"fusion_lat": 0.0, "name": "f8cded37c56b71421fe2ca00a499f918", "is_disabled": 0, "rental_uris": {"android": "https://dc.lft.to/lastmile_qr_scan", "ios": "https://dc.lft.to/lastmile_qr_scan"}, "fusion_lon": 0.0, "lat": 38.902927166666665, "bike_id": "f8cded37c56b71421fe2ca00a499f918", "type": "electric_scooter", "is_reserved": 0, "lon": -76.99037916666667}, {"fusion_lat": 0.0, "name": "76da2a7c13f3680ecdf884fc5b15e075", "is_disabled": 0, "rental_uris": {"android": "https://dc.lft.to/lastmile_qr_scan", "ios": "https://dc.lft.to/lastmile_qr_scan"}, "fusion_lon": 0.0, "lat": 38.900590666666666, "bike_id": "76da2a7c13f3680ecdf884fc5b15e075", "type": "electric_scooter", "is_reserved": 0, "lon": -76.98684816666666}, {"fusion_lat": 0.0, "name": "96c5156061bcdec34e6656a951723082", "is_disabled": 0, "rental_uris": {"android": "https://dc.lft.to/lastmile_qr_scan", "ios": "https://dc.lft.to/lastmile_qr_scan"}, "fusion_lon": 0.0, "lat": 38.8850535, "bike_id": "96c5156061bcdec34e6656a951723082", "type": "electric_scooter", "is_reserved": 0, "lon": -76.99752916666667}, {"fusion_lat": 0.0, "name": "bc7988f05a9d3ec3146e84e56e126e7e", "is_disabled": 0, "rental_uris": {"android": "https://dc.lft.to/lastmile_qr_scan", "ios": "https://dc.lft.to/lastmile_qr_scan"}, "fusion_lon": 0.0, "lat": 38.90856983333333, "bike_id": "bc7988f05a9d3ec3146e84e56e126e7e", "type": "electric_scooter", "is_reserved": 0, "lon": -77.0473455}, {"fusion_lat": 0.0, "name": "948a1776f5a6de6cd9d11c13620064bb", "is_disabled": 0, "rental_uris": {"android": "https://dc.lft.to/lastmile_qr_scan", "ios": "https://dc.lft.to/lastmile_qr_scan"}, "fusion_lon": 0.0, "lat": 38.9172565, "bike_id": "948a1776f5a6de6cd9d11c13620064bb", "type": "electric_scooter", "is_reserved": 0, "lon": -77.02811566666666}, {"fusion_lat": 0.0, "name": "d443580a050ebca7e08422faf7b3ebd6", "is_disabled": 0, "rental_uris": {"android": "https://dc.lft.to/lastmile_qr_scan", "ios": "https://dc.lft.to/lastmile_qr_scan"}, "fusion_lon": 0.0, "lat": 39.014210166666665, "bike_id": "d443580a050ebca7e08422faf7b3ebd6", "type": "electric_bike", "is_reserved": 0, "lon": -77.044977}, {"fusion_lat": 0.0, "name": "84d300dac69306d6fa9067db8734c43b", "is_disabled": 0, "rental_uris": {"android": "https://dc.lft.to/lastmile_qr_scan", "ios": "https://dc.lft.to/lastmile_qr_scan"}, "fusion_lon": 0.0, "lat": 38.89563966666667, "bike_id": "84d300dac69306d6fa9067db8734c43b", "type": "electric_scooter", "is_reserved": 0, "lon": -76.99425583333333}, {"fusion_lat": 0.0, "name": "59534e994ff3318335973aea3458728a", "is_disabled": 0, "rental_uris": {"android": "https://dc.lft.to/lastmile_qr_scan", "ios": "https://dc.lft.to/lastmile_qr_scan"}, "fusion_lon": 0.0, "lat": 38.921681666666665, "bike_id": "59534e994ff3318335973aea3458728a", "type": "electric_scooter", "is_reserved": 0, "lon": -77.02091433333334}, {"fusion_lat": 0.0, "name": "d2d9bce9080deb7153f275aeaa597deb", "is_disabled": 0, "rental_uris": {"android": "https://dc.lft.to/lastmile_qr_scan", "ios": "https://dc.lft.to/lastmile_qr_scan"}, "fusion_lon": 0.0, "lat": 38.90987333333333, "bike_id": "d2d9bce9080deb7153f275aeaa597deb", "type": "electric_scooter", "is_reserved": 0, "lon": -77.05482366666666}, {"fusion_lat": 0.0, "name": "15b5814d44bb79ccca2c001bfc8ceb35", "is_disabled": 0, "rental_uris": {"android": "https://dc.lft.to/lastmile_qr_scan", "ios": "https://dc.lft.to/lastmile_qr_scan"}, "fusion_lon": 0.0, "lat": 38.90389666666667, "bike_id": "15b5814d44bb79ccca2c001bfc8ceb35", "type": "electric_scooter", "is_reserved": 0, "lon": -77.06720066666666}, {"fusion_lat": 0.0, "name": "359e720d262deaf9a3e76b7e83fa80da", "is_disabled": 0, "rental_uris": {"android": "https://dc.lft.to/lastmile_qr_scan", "ios": "https://dc.lft.to/lastmile_qr_scan"}, "fusion_lon": 0.0, "lat": 38.90322, "bike_id": "359e720d262deaf9a3e76b7e83fa80da", "type": "electric_scooter", "is_reserved": 0, "lon": -77.053176}, {"fusion_lat": 0.0, "name": "445d2d998c9702e1614d690206654ca4", "is_disabled": 0, "rental_uris": {"android": "https://dc.lft.to/lastmile_qr_scan", "ios": "https://dc.lft.to/lastmile_qr_scan"}, "fusion_lon": 0.0, "lat": 38.88303366666667, "bike_id": "445d2d998c9702e1614d690206654ca4", "type": "electric_scooter", "is_reserved": 0, "lon": -77.0135005}, {"fusion_lat": 0.0, "name": "73fdef656c6f676aabd12681c9eac046", "is_disabled": 0, "rental_uris": {"android": "https://dc.lft.to/lastmile_qr_scan", "ios": "https://dc.lft.to/lastmile_qr_scan"}, "fusion_lon": 0.0, "lat": 38.90264283333333, "bike_id": "73fdef656c6f676aabd12681c9eac046", "type": "electric_bike", "is_reserved": 0, "lon": -77.002487}, {"fusion_lat": 0.0, "name": "0a342b337467dcb3a46c662af26d269d", "is_disabled": 0, "rental_uris": {"android": "https://dc.lft.to/lastmile_qr_scan", "ios": "https://dc.lft.to/lastmile_qr_scan"}, "fusion_lon": 0.0, "lat": 38.92222733333333, "bike_id": "0a342b337467dcb3a46c662af26d269d", "type": "electric_scooter", "is_reserved": 0, "lon": -77.03510516666667}, {"fusion_lat": 0.0, "name": "126ae1b03669c5757fe1db79d7071dff", "is_disabled": 0, "rental_uris": {"android": "https://dc.lft.to/lastmile_qr_scan", "ios": "https://dc.lft.to/lastmile_qr_scan"}, "fusion_lon": 0.0, "lat": 38.88396083333333, "bike_id": "126ae1b03669c5757fe1db79d7071dff", "type": "electric_scooter", "is_reserved": 0, "lon": -76.93045666666667}, {"fusion_lat": 0.0, "name": "d7378a0672821779f2f8d67e7b680159", "is_disabled": 0, "rental_uris": {"android": "https://dc.lft.to/lastmile_qr_scan", "ios": "https://dc.lft.to/lastmile_qr_scan"}, "fusion_lon": 0.0, "lat": 38.935808333333334, "bike_id": "d7378a0672821779f2f8d67e7b680159", "type": "electric_scooter", "is_reserved": 0, "lon": -77.01919366666667}, {"fusion_lat": 0.0, "name": "cd77f98891a7711b64b71277490546a8", "is_disabled": 0, "rental_uris": {"android": "https://dc.lft.to/lastmile_qr_scan", "ios": "https://dc.lft.to/lastmile_qr_scan"}, "fusion_lon": 0.0, "lat": 38.917834, "bike_id": "cd77f98891a7711b64b71277490546a8", "type": "electric_scooter", "is_reserved": 0, "lon": -77.043442}, {"fusion_lat": 0.0, "name": "4127934677c38b807f84017bddd08618", "is_disabled": 0, "rental_uris": {"android": "https://dc.lft.to/lastmile_qr_scan", "ios": "https://dc.lft.to/lastmile_qr_scan"}, "fusion_lon": 0.0, "lat": 38.89475016666667, "bike_id": "4127934677c38b807f84017bddd08618", "type": "electric_scooter", "is_reserved": 0, "lon": -77.01037566666666}, {"fusion_lat": 0.0, "name": "fd19430b0932ed3e55088d5af1c61682", "is_disabled": 0, "rental_uris": {"android": "https://dc.lft.to/lastmile_qr_scan", "ios": "https://dc.lft.to/lastmile_qr_scan"}, "fusion_lon": 0.0, "lat": 38.9145205, "bike_id": "fd19430b0932ed3e55088d5af1c61682", "type": "electric_scooter", "is_reserved": 0, "lon": -77.01282766666667}, {"fusion_lat": 0.0, "name": "12be42e5865f762a25a7dabaab5b55a3", "is_disabled": 0, "rental_uris": {"android": "https://dc.lft.to/lastmile_qr_scan", "ios": "https://dc.lft.to/lastmile_qr_scan"}, "fusion_lon": 0.0, "lat": 38.917093333333334, "bike_id": "12be42e5865f762a25a7dabaab5b55a3", "type": "electric_scooter", "is_reserved": 0, "lon": -77.04036983333333}, {"fusion_lat": 0.0, "name": "4dcbb1a8a2c8d40d6bf12294597ab126", "is_disabled": 0, "rental_uris": {"android": "https://dc.lft.to/lastmile_qr_scan", "ios": "https://dc.lft.to/lastmile_qr_scan"}, "fusion_lon": 0.0, "lat": 38.893037666666665, "bike_id": "4dcbb1a8a2c8d40d6bf12294597ab126", "type": "electric_scooter", "is_reserved": 0, "lon": -77.04657266666666}, {"fusion_lat": 0.0, "name": "7166d76dfb267fb738313835c07c66ed", "is_disabled": 0, "rental_uris": {"android": "https://dc.lft.to/lastmile_qr_scan", "ios": "https://dc.lft.to/lastmile_qr_scan"}, "fusion_lon": 0.0, "lat": 38.93117383333333, "bike_id": "7166d76dfb267fb738313835c07c66ed", "type": "electric_scooter", "is_reserved": 0, "lon": -77.03638933333333}, {"fusion_lat": 0.0, "name": "1eaa95f9387d46855bdb62e1ddb67b95", "is_disabled": 0, "rental_uris": {"android": "https://dc.lft.to/lastmile_qr_scan", "ios": "https://dc.lft.to/lastmile_qr_scan"}, "fusion_lon": 0.0, "lat": 38.929079333333334, "bike_id": "1eaa95f9387d46855bdb62e1ddb67b95", "type": "electric_scooter", "is_reserved": 0, "lon": -77.03757}, {"fusion_lat": 0.0, "name": "44ee62319df84f5841cf8126544c1127", "is_disabled": 0, "rental_uris": {"android": "https://dc.lft.to/lastmile_qr_scan", "ios": "https://dc.lft.to/lastmile_qr_scan"}, "fusion_lon": 0.0, "lat": 38.90784466666667, "bike_id": "44ee62319df84f5841cf8126544c1127", "type": "electric_scooter", "is_reserved": 0, "lon": -77.03857983333333}, {"fusion_lat": 0.0, "name": "cfe8d04f6e9d15df8b7bc9f70929128f", "is_disabled": 0, "rental_uris": {"android": "https://dc.lft.to/lastmile_qr_scan", "ios": "https://dc.lft.to/lastmile_qr_scan"}, "fusion_lon": 0.0, "lat": 38.91961416666667, "bike_id": "cfe8d04f6e9d15df8b7bc9f70929128f", "type": "electric_scooter", "is_reserved": 0, "lon": -77.01784866666667}, {"fusion_lat": 0.0, "name": "5ffcee16114d0b4cdf8d1cd6c01e8916", "is_disabled": 0, "rental_uris": {"android": "https://dc.lft.to/lastmile_qr_scan", "ios": "https://dc.lft.to/lastmile_qr_scan"}, "fusion_lon": 0.0, "lat": 38.94234016666667, "bike_id": "5ffcee16114d0b4cdf8d1cd6c01e8916", "type": "electric_scooter", "is_reserved": 0, "lon": -77.02340283333334}, {"fusion_lat": 0.0, "name": "5014e86708e41333f718593e26d981de", "is_disabled": 0, "rental_uris": {"android": "https://dc.lft.to/lastmile_qr_scan", "ios": "https://dc.lft.to/lastmile_qr_scan"}, "fusion_lon": 0.0, "lat": 38.914067, "bike_id": "5014e86708e41333f718593e26d981de", "type": "electric_scooter", "is_reserved": 0, "lon": -77.03216966666666}, {"fusion_lat": 0.0, "name": "bb1351b9cd96a55ee7e3e3e4848aa055", "is_disabled": 0, "rental_uris": {"android": "https://dc.lft.to/lastmile_qr_scan", "ios": "https://dc.lft.to/lastmile_qr_scan"}, "fusion_lon": 0.0, "lat": 38.930504666666664, "bike_id": "bb1351b9cd96a55ee7e3e3e4848aa055", "type": "electric_scooter", "is_reserved": 0, "lon": -77.04067083333334}, {"fusion_lat": 0.0, "name": "4dff106f1c353645b704b7be47c9a97d", "is_disabled": 0, "rental_uris": {"android": "https://dc.lft.to/lastmile_qr_scan", "ios": "https://dc.lft.to/lastmile_qr_scan"}, "fusion_lon": 0.0, "lat": 38.92207466666667, "bike_id": "4dff106f1c353645b704b7be47c9a97d", "type": "electric_scooter", "is_reserved": 0, "lon": -77.041364}, {"fusion_lat": 0.0, "name": "bc84c4d0b3f8a37147c6c6c1e753f78f", "is_disabled": 0, "rental_uris": {"android": "https://dc.lft.to/lastmile_qr_scan", "ios": "https://dc.lft.to/lastmile_qr_scan"}, "fusion_lon": 0.0, "lat": 38.89972183333333, "bike_id": "bc84c4d0b3f8a37147c6c6c1e753f78f", "type": "electric_scooter", "is_reserved": 0, "lon": -77.01510016666667}, {"fusion_lat": 0.0, "name": "d0f4b21ef3cde61d881056df7fdc8889", "is_disabled": 0, "rental_uris": {"android": "https://dc.lft.to/lastmile_qr_scan", "ios": "https://dc.lft.to/lastmile_qr_scan"}, "fusion_lon": 0.0, "lat": 38.914235166666664, "bike_id": "d0f4b21ef3cde61d881056df7fdc8889", "type": "electric_scooter", "is_reserved": 0, "lon": -77.04157083333334}, {"fusion_lat": 0.0, "name": "0862704dcbdce42216927cb3962db687", "is_disabled": 0, "rental_uris": {"android": "https://dc.lft.to/lastmile_qr_scan", "ios": "https://dc.lft.to/lastmile_qr_scan"}, "fusion_lon": 0.0, "lat": 38.9241975, "bike_id": "0862704dcbdce42216927cb3962db687", "type": "electric_scooter", "is_reserved": 0, "lon": -77.02008166666667}, {"fusion_lat": 0.0, "name": "fd46be832b47c2f1296cc79234644fdf", "is_disabled": 0, "rental_uris": {"android": "https://dc.lft.to/lastmile_qr_scan", "ios": "https://dc.lft.to/lastmile_qr_scan"}, "fusion_lon": 0.0, "lat": 39.010783333333336, "bike_id": "fd46be832b47c2f1296cc79234644fdf", "type": "electric_bike", "is_reserved": 0, "lon": -76.91065233333333}, {"fusion_lat": 0.0, "name": "6c8b8a3e1b954a0acbbd74fa80b8ccf1", "is_disabled": 0, "rental_uris": {"android": "https://dc.lft.to/lastmile_qr_scan", "ios": "https://dc.lft.to/lastmile_qr_scan"}, "fusion_lon": 0.0, "lat": 38.90939133333333, "bike_id": "6c8b8a3e1b954a0acbbd74fa80b8ccf1", "type": "electric_scooter", "is_reserved": 0, "lon": -77.0385445}, {"fusion_lat": 0.0, "name": "dfee3353a2710a7e12edcd7b7267979b", "is_disabled": 0, "rental_uris": {"android": "https://dc.lft.to/lastmile_qr_scan", "ios": "https://dc.lft.to/lastmile_qr_scan"}, "fusion_lon": 0.0, "lat": 38.956593166666664, "bike_id": "dfee3353a2710a7e12edcd7b7267979b", "type": "electric_scooter", "is_reserved": 0, "lon": -77.03321516666666}, {"fusion_lat": 0.0, "name": "bccd4b72ddbf8c6821f0c4b788b250db", "is_disabled": 0, "rental_uris": {"android": "https://dc.lft.to/lastmile_qr_scan", "ios": "https://dc.lft.to/lastmile_qr_scan"}, "fusion_lon": 0.0, "lat": 38.87689533333333, "bike_id": "bccd4b72ddbf8c6821f0c4b788b250db", "type": "electric_scooter", "is_reserved": 0, "lon": -77.01757733333334}, {"fusion_lat": 0.0, "name": "a4046ca242988200774c978ea410f7b9", "is_disabled": 0, "rental_uris": {"android": "https://dc.lft.to/lastmile_qr_scan", "ios": "https://dc.lft.to/lastmile_qr_scan"}, "fusion_lon": 0.0, "lat": 38.93564816666667, "bike_id": "a4046ca242988200774c978ea410f7b9", "type": "electric_bike", "is_reserved": 0, "lon": -77.036988}, {"fusion_lat": 0.0, "name": "6109d9b032f2fcb3581a943889f95308", "is_disabled": 0, "rental_uris": {"android": "https://dc.lft.to/lastmile_qr_scan", "ios": "https://dc.lft.to/lastmile_qr_scan"}, "fusion_lon": 0.0, "lat": 38.92063516666666, "bike_id": "6109d9b032f2fcb3581a943889f95308", "type": "electric_scooter", "is_reserved": 0, "lon": -77.04197716666667}, {"fusion_lat": 0.0, "name": "d48b07ccd59072c0da53775a39bcdcc0", "is_disabled": 0, "rental_uris": {"android": "https://dc.lft.to/lastmile_qr_scan", "ios": "https://dc.lft.to/lastmile_qr_scan"}, "fusion_lon": 0.0, "lat": 38.927918166666664, "bike_id": "d48b07ccd59072c0da53775a39bcdcc0", "type": "electric_scooter", "is_reserved": 0, "lon": -76.97975916666667}, {"fusion_lat": 0.0, "name": "0b476dede1ae3a0c050a67b2f96fa789", "is_disabled": 0, "rental_uris": {"android": "https://dc.lft.to/lastmile_qr_scan", "ios": "https://dc.lft.to/lastmile_qr_scan"}, "fusion_lon": 0.0, "lat": 38.91025583333333, "bike_id": "0b476dede1ae3a0c050a67b2f96fa789", "type": "electric_scooter", "is_reserved": 0, "lon": -77.00752716666666}, {"fusion_lat": 0.0, "name": "cbbd1261e9701546a73950e79dcc5abb", "is_disabled": 0, "rental_uris": {"android": "https://dc.lft.to/lastmile_qr_scan", "ios": "https://dc.lft.to/lastmile_qr_scan"}, "fusion_lon": 0.0, "lat": 38.920694833333336, "bike_id": "cbbd1261e9701546a73950e79dcc5abb", "type": "electric_scooter", "is_reserved": 0, "lon": -76.99858716666667}, {"fusion_lat": 0.0, "name": "25d7c99709401eabe952f9fc4df5b701", "is_disabled": 0, "rental_uris": {"android": "https://dc.lft.to/lastmile_qr_scan", "ios": "https://dc.lft.to/lastmile_qr_scan"}, "fusion_lon": 0.0, "lat": 38.88620983333333, "bike_id": "25d7c99709401eabe952f9fc4df5b701", "type": "electric_scooter", "is_reserved": 0, "lon": -77.019871}, {"fusion_lat": 0.0, "name": "e1830987eba020120a23beb33d6fafc0", "is_disabled": 0, "rental_uris": {"android": "https://dc.lft.to/lastmile_qr_scan", "ios": "https://dc.lft.to/lastmile_qr_scan"}, "fusion_lon": 0.0, "lat": 38.90096116666667, "bike_id": "e1830987eba020120a23beb33d6fafc0", "type": "electric_scooter", "is_reserved": 0, "lon": -77.0193085}, {"fusion_lat": 0.0, "name": "b89f4d2e9fa03813ccb91276a0886acc", "is_disabled": 0, "rental_uris": {"android": "https://dc.lft.to/lastmile_qr_scan", "ios": "https://dc.lft.to/lastmile_qr_scan"}, "fusion_lon": 0.0, "lat": 38.894807, "bike_id": "b89f4d2e9fa03813ccb91276a0886acc", "type": "electric_scooter", "is_reserved": 0, "lon": -77.02182366666666}, {"fusion_lat": 0.0, "name": "7c95dfd490386c559aa9a862e5809584", "is_disabled": 0, "rental_uris": {"android": "https://dc.lft.to/lastmile_qr_scan", "ios": "https://dc.lft.to/lastmile_qr_scan"}, "fusion_lon": 0.0, "lat": 38.920755166666666, "bike_id": "7c95dfd490386c559aa9a862e5809584", "type": "electric_scooter", "is_reserved": 0, "lon": -77.04199116666666}, {"fusion_lat": 0.0, "name": "848243404e2f71b4be28ac1b386819ce", "is_disabled": 0, "rental_uris": {"android": "https://dc.lft.to/lastmile_qr_scan", "ios": "https://dc.lft.to/lastmile_qr_scan"}, "fusion_lon": 0.0, "lat": 38.9236115, "bike_id": "848243404e2f71b4be28ac1b386819ce", "type": "electric_scooter", "is_reserved": 0, "lon": -77.04234216666667}, {"fusion_lat": 0.0, "name": "b0ce9d7beebdf6ffed304f6718950633", "is_disabled": 0, "rental_uris": {"android": "https://dc.lft.to/lastmile_qr_scan", "ios": "https://dc.lft.to/lastmile_qr_scan"}, "fusion_lon": 0.0, "lat": 38.907349833333335, "bike_id": "b0ce9d7beebdf6ffed304f6718950633", "type": "electric_scooter", "is_reserved": 0, "lon": -77.04510616666667}, {"fusion_lat": 0.0, "name": "ed9f068a8942127041c32a7190ef383f", "is_disabled": 0, "rental_uris": {"android": "https://dc.lft.to/lastmile_qr_scan", "ios": "https://dc.lft.to/lastmile_qr_scan"}, "fusion_lon": 0.0, "lat": 39.00778233333333, "bike_id": "ed9f068a8942127041c32a7190ef383f", "type": "electric_bike", "is_reserved": 0, "lon": -76.8896775}, {"fusion_lat": 0.0, "name": "40b7fd77940b639208e8c4258ca9c513", "is_disabled": 0, "rental_uris": {"android": "https://dc.lft.to/lastmile_qr_scan", "ios": "https://dc.lft.to/lastmile_qr_scan"}, "fusion_lon": 0.0, "lat": 38.862686333333336, "bike_id": "40b7fd77940b639208e8c4258ca9c513", "type": "electric_bike", "is_reserved": 0, "lon": -76.9834755}, {"fusion_lat": 0.0, "name": "036972413afb21e7fd648588bc4f9519", "is_disabled": 0, "rental_uris": {"android": "https://dc.lft.to/lastmile_qr_scan", "ios": "https://dc.lft.to/lastmile_qr_scan"}, "fusion_lon": 0.0, "lat": 38.92467716666667, "bike_id": "036972413afb21e7fd648588bc4f9519", "type": "electric_scooter", "is_reserved": 0, "lon": -76.99334466666667}, {"fusion_lat": 0.0, "name": "374c8ae2729154834d7d1f466f3ef051", "is_disabled": 0, "rental_uris": {"android": "https://dc.lft.to/lastmile_qr_scan", "ios": "https://dc.lft.to/lastmile_qr_scan"}, "fusion_lon": 0.0, "lat": 38.893456, "bike_id": "374c8ae2729154834d7d1f466f3ef051", "type": "electric_scooter", "is_reserved": 0, "lon": -76.99378316666666}, {"fusion_lat": 0.0, "name": "993bca5d07dbe914a3d77f83d48fc0a2", "is_disabled": 0, "rental_uris": {"android": "https://dc.lft.to/lastmile_qr_scan", "ios": "https://dc.lft.to/lastmile_qr_scan"}, "fusion_lon": 0.0, "lat": 38.8652255, "bike_id": "993bca5d07dbe914a3d77f83d48fc0a2", "type": "electric_bike", "is_reserved": 0, "lon": -76.973345}, {"fusion_lat": 0.0, "name": "55710cc27280710ce1b82690b6fb1285", "is_disabled": 0, "rental_uris": {"android": "https://dc.lft.to/lastmile_qr_scan", "ios": "https://dc.lft.to/lastmile_qr_scan"}, "fusion_lon": 0.0, "lat": 38.87689266666667, "bike_id": "55710cc27280710ce1b82690b6fb1285", "type": "electric_scooter", "is_reserved": 0, "lon": -77.017578}, {"fusion_lat": 0.0, "name": "dc56c9ee5471b581fc49bfc6fdc5c856", "is_disabled": 0, "rental_uris": {"android": "https://dc.lft.to/lastmile_qr_scan", "ios": "https://dc.lft.to/lastmile_qr_scan"}, "fusion_lon": 0.0, "lat": 38.84915, "bike_id": "dc56c9ee5471b581fc49bfc6fdc5c856", "type": "electric_bike", "is_reserved": 0, "lon": -77.099787}, {"fusion_lat": 0.0, "name": "d50d8801929d2a85b4f4310878ee881b", "is_disabled": 0, "rental_uris": {"android": "https://dc.lft.to/lastmile_qr_scan", "ios": "https://dc.lft.to/lastmile_qr_scan"}, "fusion_lon": 0.0, "lat": 38.92376633333333, "bike_id": "d50d8801929d2a85b4f4310878ee881b", "type": "electric_scooter", "is_reserved": 0, "lon": -77.0253115}, {"fusion_lat": 0.0, "name": "f0e2b7544cdb64bdfd83f6fa0efeeb26", "is_disabled": 0, "rental_uris": {"android": "https://dc.lft.to/lastmile_qr_scan", "ios": "https://dc.lft.to/lastmile_qr_scan"}, "fusion_lon": 0.0, "lat": 38.924833166666666, "bike_id": "f0e2b7544cdb64bdfd83f6fa0efeeb26", "type": "electric_scooter", "is_reserved": 0, "lon": -77.03179883333334}, {"fusion_lat": 0.0, "name": "56f3286a6446aa083bd810c43f4feed9", "is_disabled": 0, "rental_uris": {"android": "https://dc.lft.to/lastmile_qr_scan", "ios": "https://dc.lft.to/lastmile_qr_scan"}, "fusion_lon": 0.0, "lat": 38.90358833333333, "bike_id": "56f3286a6446aa083bd810c43f4feed9", "type": "electric_scooter", "is_reserved": 0, "lon": -77.06263433333334}, {"fusion_lat": 0.0, "name": "f6b7d0ebc44e8ee941bdcc3848cc86da", "is_disabled": 0, "rental_uris": {"android": "https://dc.lft.to/lastmile_qr_scan", "ios": "https://dc.lft.to/lastmile_qr_scan"}, "fusion_lon": 0.0, "lat": 38.91413883333333, "bike_id": "f6b7d0ebc44e8ee941bdcc3848cc86da", "type": "electric_scooter", "is_reserved": 0, "lon": -77.03140616666667}, {"fusion_lat": 0.0, "name": "3a8e957d91980b85628cdbd8d2a2466a", "is_disabled": 0, "rental_uris": {"android": "https://dc.lft.to/lastmile_qr_scan", "ios": "https://dc.lft.to/lastmile_qr_scan"}, "fusion_lon": 0.0, "lat": 38.92874283333333, "bike_id": "3a8e957d91980b85628cdbd8d2a2466a", "type": "electric_scooter", "is_reserved": 0, "lon": -77.03482266666667}, {"fusion_lat": 0.0, "name": "a8cf0998d3fccf9b57ab2dc81825004f", "is_disabled": 0, "rental_uris": {"android": "https://dc.lft.to/lastmile_qr_scan", "ios": "https://dc.lft.to/lastmile_qr_scan"}, "fusion_lon": 0.0, "lat": 38.93888833333333, "bike_id": "a8cf0998d3fccf9b57ab2dc81825004f", "type": "electric_scooter", "is_reserved": 0, "lon": -77.02458033333333}, {"fusion_lat": 0.0, "name": "4d5e48693beaddae12c35f47f2b0ff69", "is_disabled": 0, "rental_uris": {"android": "https://dc.lft.to/lastmile_qr_scan", "ios": "https://dc.lft.to/lastmile_qr_scan"}, "fusion_lon": 0.0, "lat": 38.92381433333333, "bike_id": "4d5e48693beaddae12c35f47f2b0ff69", "type": "electric_scooter", "is_reserved": 0, "lon": -77.036578}, {"fusion_lat": 0.0, "name": "21937d9f4f56fba38326ee13f8ca7cd6", "is_disabled": 0, "rental_uris": {"android": "https://dc.lft.to/lastmile_qr_scan", "ios": "https://dc.lft.to/lastmile_qr_scan"}, "fusion_lon": 0.0, "lat": 38.958869, "bike_id": "21937d9f4f56fba38326ee13f8ca7cd6", "type": "electric_scooter", "is_reserved": 0, "lon": -77.011676}, {"fusion_lat": 0.0, "name": "61623e8343bd907c73bb82381e47c026", "is_disabled": 0, "rental_uris": {"android": "https://dc.lft.to/lastmile_qr_scan", "ios": "https://dc.lft.to/lastmile_qr_scan"}, "fusion_lon": 0.0, "lat": 38.907804166666665, "bike_id": "61623e8343bd907c73bb82381e47c026", "type": "electric_scooter", "is_reserved": 0, "lon": -77.018603}, {"fusion_lat": 0.0, "name": "f0592e568de2c142c31053391fd6a87f", "is_disabled": 0, "rental_uris": {"android": "https://dc.lft.to/lastmile_qr_scan", "ios": "https://dc.lft.to/lastmile_qr_scan"}, "fusion_lon": 0.0, "lat": 38.876597, "bike_id": "f0592e568de2c142c31053391fd6a87f", "type": "electric_scooter", "is_reserved": 0, "lon": -77.00907233333334}, {"fusion_lat": 0.0, "name": "bf1e560089ce5d5c5622bbcd6c78f9aa", "is_disabled": 0, "rental_uris": {"android": "https://dc.lft.to/lastmile_qr_scan", "ios": "https://dc.lft.to/lastmile_qr_scan"}, "fusion_lon": 0.0, "lat": 38.91193583333333, "bike_id": "bf1e560089ce5d5c5622bbcd6c78f9aa", "type": "electric_scooter", "is_reserved": 0, "lon": -77.03817816666667}, {"fusion_lat": 0.0, "name": "0e20e362c06ab12ec03066194dc8edbd", "is_disabled": 0, "rental_uris": {"android": "https://dc.lft.to/lastmile_qr_scan", "ios": "https://dc.lft.to/lastmile_qr_scan"}, "fusion_lon": 0.0, "lat": 38.9134, "bike_id": "0e20e362c06ab12ec03066194dc8edbd", "type": "electric_scooter", "is_reserved": 0, "lon": -77.04288516666666}, {"fusion_lat": 0.0, "name": "38514a095e2b38663273c7f7bb8c3d69", "is_disabled": 0, "rental_uris": {"android": "https://dc.lft.to/lastmile_qr_scan", "ios": "https://dc.lft.to/lastmile_qr_scan"}, "fusion_lon": 0.0, "lat": 38.9240385, "bike_id": "38514a095e2b38663273c7f7bb8c3d69", "type": "electric_scooter", "is_reserved": 0, "lon": -77.05257833333333}, {"fusion_lat": 0.0, "name": "cda9bb35b9e61f4f50f56f073ee3cc0d", "is_disabled": 0, "rental_uris": {"android": "https://dc.lft.to/lastmile_qr_scan", "ios": "https://dc.lft.to/lastmile_qr_scan"}, "fusion_lon": 0.0, "lat": 38.923211333333334, "bike_id": "cda9bb35b9e61f4f50f56f073ee3cc0d", "type": "electric_scooter", "is_reserved": 0, "lon": -77.0203815}, {"fusion_lat": 0.0, "name": "fea2f8d30434e46f7c9514a7644e9451", "is_disabled": 0, "rental_uris": {"android": "https://dc.lft.to/lastmile_qr_scan", "ios": "https://dc.lft.to/lastmile_qr_scan"}, "fusion_lon": 0.0, "lat": 38.9073205, "bike_id": "fea2f8d30434e46f7c9514a7644e9451", "type": "electric_scooter", "is_reserved": 0, "lon": -77.0288185}, {"fusion_lat": 0.0, "name": "2b2d33d182e105575fc0df93871b85ec", "is_disabled": 0, "rental_uris": {"android": "https://dc.lft.to/lastmile_qr_scan", "ios": "https://dc.lft.to/lastmile_qr_scan"}, "fusion_lon": 0.0, "lat": 38.952380166666664, "bike_id": "2b2d33d182e105575fc0df93871b85ec", "type": "electric_scooter", "is_reserved": 0, "lon": -76.99009933333333}, {"fusion_lat": 0.0, "name": "7aaf4e0f59ad92888050ec26af592d5a", "is_disabled": 0, "rental_uris": {"android": "https://dc.lft.to/lastmile_qr_scan", "ios": "https://dc.lft.to/lastmile_qr_scan"}, "fusion_lon": 0.0, "lat": 38.922123166666665, "bike_id": "7aaf4e0f59ad92888050ec26af592d5a", "type": "electric_scooter", "is_reserved": 0, "lon": -77.04252666666666}, {"fusion_lat": 0.0, "name": "023e390b7f23b6b77a3623960ef7d4c2", "is_disabled": 0, "rental_uris": {"android": "https://dc.lft.to/lastmile_qr_scan", "ios": "https://dc.lft.to/lastmile_qr_scan"}, "fusion_lon": 0.0, "lat": 38.90731916666667, "bike_id": "023e390b7f23b6b77a3623960ef7d4c2", "type": "electric_scooter", "is_reserved": 0, "lon": -77.01222533333333}, {"fusion_lat": 0.0, "name": "768bd973624ad6c41425f2c99771873b", "is_disabled": 0, "rental_uris": {"android": "https://dc.lft.to/lastmile_qr_scan", "ios": "https://dc.lft.to/lastmile_qr_scan"}, "fusion_lon": 0.0, "lat": 38.903991500000004, "bike_id": "768bd973624ad6c41425f2c99771873b", "type": "electric_scooter", "is_reserved": 0, "lon": -76.9900845}, {"fusion_lat": 0.0, "name": "daf0da0a6c6437884891beae7ac79957", "is_disabled": 0, "rental_uris": {"android": "https://dc.lft.to/lastmile_qr_scan", "ios": "https://dc.lft.to/lastmile_qr_scan"}, "fusion_lon": 0.0, "lat": 38.86020533333333, "bike_id": "daf0da0a6c6437884891beae7ac79957", "type": "electric_bike", "is_reserved": 0, "lon": -77.128081}, {"fusion_lat": 0.0, "name": "9977bcf5e9249e5f5f3b2ccf9e9eab5b", "is_disabled": 0, "rental_uris": {"android": "https://dc.lft.to/lastmile_qr_scan", "ios": "https://dc.lft.to/lastmile_qr_scan"}, "fusion_lon": 0.0, "lat": 38.90411, "bike_id": "9977bcf5e9249e5f5f3b2ccf9e9eab5b", "type": "electric_scooter", "is_reserved": 0, "lon": -76.9733155}, {"fusion_lat": 0.0, "name": "37e2cd46a5b7e7f998bd6c01fc0ce93c", "is_disabled": 0, "rental_uris": {"android": "https://dc.lft.to/lastmile_qr_scan", "ios": "https://dc.lft.to/lastmile_qr_scan"}, "fusion_lon": 0.0, "lat": 38.9352685, "bike_id": "37e2cd46a5b7e7f998bd6c01fc0ce93c", "type": "electric_scooter", "is_reserved": 0, "lon": -77.03261116666667}, {"fusion_lat": 0.0, "name": "38722dbaba3ba3fcf137f8e31c470058", "is_disabled": 0, "rental_uris": {"android": "https://dc.lft.to/lastmile_qr_scan", "ios": "https://dc.lft.to/lastmile_qr_scan"}, "fusion_lon": 0.0, "lat": 38.902583666666665, "bike_id": "38722dbaba3ba3fcf137f8e31c470058", "type": "electric_scooter", "is_reserved": 0, "lon": -76.97449016666667}, {"fusion_lat": 0.0, "name": "bf68df1d5dabcbd458e177239118b3b1", "is_disabled": 0, "rental_uris": {"android": "https://dc.lft.to/lastmile_qr_scan", "ios": "https://dc.lft.to/lastmile_qr_scan"}, "fusion_lon": 0.0, "lat": 38.9293065, "bike_id": "bf68df1d5dabcbd458e177239118b3b1", "type": "electric_scooter", "is_reserved": 0, "lon": -77.02335633333334}, {"fusion_lat": 0.0, "name": "11ae72f5107512d4f1d1899f8db88ffc", "is_disabled": 0, "rental_uris": {"android": "https://dc.lft.to/lastmile_qr_scan", "ios": "https://dc.lft.to/lastmile_qr_scan"}, "fusion_lon": 0.0, "lat": 38.93080833333333, "bike_id": "11ae72f5107512d4f1d1899f8db88ffc", "type": "electric_scooter", "is_reserved": 0, "lon": -77.0776465}, {"fusion_lat": 0.0, "name": "e89e453395abdba6a6dc9af1395f414f", "is_disabled": 0, "rental_uris": {"android": "https://dc.lft.to/lastmile_qr_scan", "ios": "https://dc.lft.to/lastmile_qr_scan"}, "fusion_lon": 0.0, "lat": 38.9498435, "bike_id": "e89e453395abdba6a6dc9af1395f414f", "type": "electric_scooter", "is_reserved": 0, "lon": -77.02698233333334}, {"fusion_lat": 0.0, "name": "2e717ad359d86109a9adba9d426669b7", "is_disabled": 0, "rental_uris": {"android": "https://dc.lft.to/lastmile_qr_scan", "ios": "https://dc.lft.to/lastmile_qr_scan"}, "fusion_lon": 0.0, "lat": 38.892263666666665, "bike_id": "2e717ad359d86109a9adba9d426669b7", "type": "electric_scooter", "is_reserved": 0, "lon": -77.01495966666667}, {"fusion_lat": 0.0, "name": "d49c9746fe18bdc3f89e747f2213a0b1", "is_disabled": 0, "rental_uris": {"android": "https://dc.lft.to/lastmile_qr_scan", "ios": "https://dc.lft.to/lastmile_qr_scan"}, "fusion_lon": 0.0, "lat": 38.925396166666665, "bike_id": "d49c9746fe18bdc3f89e747f2213a0b1", "type": "electric_scooter", "is_reserved": 0, "lon": -77.0512075}, {"fusion_lat": 0.0, "name": "2557daad3b0fd4b825cc2cf9baec23c6", "is_disabled": 0, "rental_uris": {"android": "https://dc.lft.to/lastmile_qr_scan", "ios": "https://dc.lft.to/lastmile_qr_scan"}, "fusion_lon": 0.0, "lat": 38.93388366666667, "bike_id": "2557daad3b0fd4b825cc2cf9baec23c6", "type": "electric_scooter", "is_reserved": 0, "lon": -77.032912}, {"fusion_lat": 0.0, "name": "7f025b2f11d8cc4e9d6c1012979760a2", "is_disabled": 0, "rental_uris": {"android": "https://dc.lft.to/lastmile_qr_scan", "ios": "https://dc.lft.to/lastmile_qr_scan"}, "fusion_lon": 0.0, "lat": 38.95734983333333, "bike_id": "7f025b2f11d8cc4e9d6c1012979760a2", "type": "electric_scooter", "is_reserved": 0, "lon": -77.02403616666666}, {"fusion_lat": 0.0, "name": "c4aae84a7b026c2965242b845948997b", "is_disabled": 0, "rental_uris": {"android": "https://dc.lft.to/lastmile_qr_scan", "ios": "https://dc.lft.to/lastmile_qr_scan"}, "fusion_lon": 0.0, "lat": 38.87571116666667, "bike_id": "c4aae84a7b026c2965242b845948997b", "type": "electric_scooter", "is_reserved": 0, "lon": -77.00726216666666}, {"fusion_lat": 0.0, "name": "d8ac0bd6f22e08bb6b2dddc3b4fe88a8", "is_disabled": 0, "rental_uris": {"android": "https://dc.lft.to/lastmile_qr_scan", "ios": "https://dc.lft.to/lastmile_qr_scan"}, "fusion_lon": 0.0, "lat": 38.945176333333336, "bike_id": "d8ac0bd6f22e08bb6b2dddc3b4fe88a8", "type": "electric_bike", "is_reserved": 0, "lon": -77.00681566666667}, {"fusion_lat": 0.0, "name": "d6a766f7632806d8bc416a5a5cc60208", "is_disabled": 0, "rental_uris": {"android": "https://dc.lft.to/lastmile_qr_scan", "ios": "https://dc.lft.to/lastmile_qr_scan"}, "fusion_lon": 0.0, "lat": 38.90662583333334, "bike_id": "d6a766f7632806d8bc416a5a5cc60208", "type": "electric_scooter", "is_reserved": 0, "lon": -77.0296185}, {"fusion_lat": 0.0, "name": "84922b783bc1d068f9d964169e3e23b0", "is_disabled": 0, "rental_uris": {"android": "https://dc.lft.to/lastmile_qr_scan", "ios": "https://dc.lft.to/lastmile_qr_scan"}, "fusion_lon": 0.0, "lat": 38.8711255, "bike_id": "84922b783bc1d068f9d964169e3e23b0", "type": "electric_scooter", "is_reserved": 0, "lon": -76.99029783333333}, {"fusion_lat": 0.0, "name": "5600d1e5e64b2d0a4e4c1f4ecd51e0fa", "is_disabled": 0, "rental_uris": {"android": "https://dc.lft.to/lastmile_qr_scan", "ios": "https://dc.lft.to/lastmile_qr_scan"}, "fusion_lon": 0.0, "lat": 38.942947, "bike_id": "5600d1e5e64b2d0a4e4c1f4ecd51e0fa", "type": "electric_scooter", "is_reserved": 0, "lon": -77.0770155}, {"fusion_lat": 0.0, "name": "cd79b3895d2256ed9d9cfcc7cd11e2cc", "is_disabled": 0, "rental_uris": {"android": "https://dc.lft.to/lastmile_qr_scan", "ios": "https://dc.lft.to/lastmile_qr_scan"}, "fusion_lon": 0.0, "lat": 38.89520983333333, "bike_id": "cd79b3895d2256ed9d9cfcc7cd11e2cc", "type": "electric_scooter", "is_reserved": 0, "lon": -76.9808245}, {"fusion_lat": 0.0, "name": "3e353e4a7ab28c731a9ed9c93915a805", "is_disabled": 0, "rental_uris": {"android": "https://dc.lft.to/lastmile_qr_scan", "ios": "https://dc.lft.to/lastmile_qr_scan"}, "fusion_lon": 0.0, "lat": 38.9355335, "bike_id": "3e353e4a7ab28c731a9ed9c93915a805", "type": "electric_scooter", "is_reserved": 0, "lon": -77.02224133333333}, {"fusion_lat": 0.0, "name": "2a2bc59125d2421aac65af50a9b08a93", "is_disabled": 0, "rental_uris": {"android": "https://dc.lft.to/lastmile_qr_scan", "ios": "https://dc.lft.to/lastmile_qr_scan"}, "fusion_lon": 0.0, "lat": 38.953498, "bike_id": "2a2bc59125d2421aac65af50a9b08a93", "type": "electric_scooter", "is_reserved": 0, "lon": -77.079496}, {"fusion_lat": 0.0, "name": "5198d6f55783b76855ecd7935c5d8278", "is_disabled": 0, "rental_uris": {"android": "https://dc.lft.to/lastmile_qr_scan", "ios": "https://dc.lft.to/lastmile_qr_scan"}, "fusion_lon": 0.0, "lat": 38.908096666666665, "bike_id": "5198d6f55783b76855ecd7935c5d8278", "type": "electric_bike", "is_reserved": 0, "lon": -77.01882066666667}, {"fusion_lat": 0.0, "name": "de9b28c2b07168ecebe3f40813e10976", "is_disabled": 0, "rental_uris": {"android": "https://dc.lft.to/lastmile_qr_scan", "ios": "https://dc.lft.to/lastmile_qr_scan"}, "fusion_lon": 0.0, "lat": 38.91115966666667, "bike_id": "de9b28c2b07168ecebe3f40813e10976", "type": "electric_scooter", "is_reserved": 0, "lon": -76.99762066666666}, {"fusion_lat": 0.0, "name": "d4859eb8775b0953ffb762d3d70f67df", "is_disabled": 0, "rental_uris": {"android": "https://dc.lft.to/lastmile_qr_scan", "ios": "https://dc.lft.to/lastmile_qr_scan"}, "fusion_lon": 0.0, "lat": 38.9165455, "bike_id": "d4859eb8775b0953ffb762d3d70f67df", "type": "electric_bike", "is_reserved": 0, "lon": -76.98223633333333}, {"fusion_lat": 0.0, "name": "f3a34f377bfa12068883b47d797276ae", "is_disabled": 0, "rental_uris": {"android": "https://dc.lft.to/lastmile_qr_scan", "ios": "https://dc.lft.to/lastmile_qr_scan"}, "fusion_lon": 0.0, "lat": 38.930618, "bike_id": "f3a34f377bfa12068883b47d797276ae", "type": "electric_scooter", "is_reserved": 0, "lon": -77.039455}, {"fusion_lat": 0.0, "name": "049e4cddbc57dd99c477385b1efab692", "is_disabled": 0, "rental_uris": {"android": "https://dc.lft.to/lastmile_qr_scan", "ios": "https://dc.lft.to/lastmile_qr_scan"}, "fusion_lon": 0.0, "lat": 38.9498075, "bike_id": "049e4cddbc57dd99c477385b1efab692", "type": "electric_scooter", "is_reserved": 0, "lon": -77.02699866666667}, {"fusion_lat": 0.0, "name": "87abd9871cb71e6bf4d5c72e25e28388", "is_disabled": 0, "rental_uris": {"android": "https://dc.lft.to/lastmile_qr_scan", "ios": "https://dc.lft.to/lastmile_qr_scan"}, "fusion_lon": 0.0, "lat": 38.92569833333334, "bike_id": "87abd9871cb71e6bf4d5c72e25e28388", "type": "electric_scooter", "is_reserved": 0, "lon": -77.02263933333333}, {"fusion_lat": 0.0, "name": "d2c3e5228a61a046113ff73da059df03", "is_disabled": 0, "rental_uris": {"android": "https://dc.lft.to/lastmile_qr_scan", "ios": "https://dc.lft.to/lastmile_qr_scan"}, "fusion_lon": 0.0, "lat": 38.935573833333336, "bike_id": "d2c3e5228a61a046113ff73da059df03", "type": "electric_scooter", "is_reserved": 0, "lon": -77.03457733333333}, {"fusion_lat": 0.0, "name": "d944c523e14bf85cb456921b3fb3d995", "is_disabled": 0, "rental_uris": {"android": "https://dc.lft.to/lastmile_qr_scan", "ios": "https://dc.lft.to/lastmile_qr_scan"}, "fusion_lon": 0.0, "lat": 39.07054883333333, "bike_id": "d944c523e14bf85cb456921b3fb3d995", "type": "electric_bike", "is_reserved": 0, "lon": -77.114818}, {"fusion_lat": 0.0, "name": "87e506ae3187aadaa8090fea28552e45", "is_disabled": 0, "rental_uris": {"android": "https://dc.lft.to/lastmile_qr_scan", "ios": "https://dc.lft.to/lastmile_qr_scan"}, "fusion_lon": 0.0, "lat": 38.91121033333334, "bike_id": "87e506ae3187aadaa8090fea28552e45", "type": "electric_scooter", "is_reserved": 0, "lon": -76.99767216666666}, {"fusion_lat": 0.0, "name": "9f16baebc31da276d6e6d3c59aca3f0c", "is_disabled": 0, "rental_uris": {"android": "https://dc.lft.to/lastmile_qr_scan", "ios": "https://dc.lft.to/lastmile_qr_scan"}, "fusion_lon": 0.0, "lat": 38.922908, "bike_id": "9f16baebc31da276d6e6d3c59aca3f0c", "type": "electric_scooter", "is_reserved": 0, "lon": -77.03674}, {"fusion_lat": 0.0, "name": "cdae1ebecd5c7dff42a30d939642a5c0", "is_disabled": 0, "rental_uris": {"android": "https://dc.lft.to/lastmile_qr_scan", "ios": "https://dc.lft.to/lastmile_qr_scan"}, "fusion_lon": 0.0, "lat": 38.915961333333335, "bike_id": "cdae1ebecd5c7dff42a30d939642a5c0", "type": "electric_scooter", "is_reserved": 0, "lon": -77.01109733333334}, {"fusion_lat": 0.0, "name": "4c9c342ec97a3962134545f0cba3408a", "is_disabled": 0, "rental_uris": {"android": "https://dc.lft.to/lastmile_qr_scan", "ios": "https://dc.lft.to/lastmile_qr_scan"}, "fusion_lon": 0.0, "lat": 38.88492516666667, "bike_id": "4c9c342ec97a3962134545f0cba3408a", "type": "electric_scooter", "is_reserved": 0, "lon": -77.01083583333333}, {"fusion_lat": 0.0, "name": "95976bdf215eb54c178f0d5c7067e8a4", "is_disabled": 0, "rental_uris": {"android": "https://dc.lft.to/lastmile_qr_scan", "ios": "https://dc.lft.to/lastmile_qr_scan"}, "fusion_lon": 0.0, "lat": 38.909215833333334, "bike_id": "95976bdf215eb54c178f0d5c7067e8a4", "type": "electric_scooter", "is_reserved": 0, "lon": -77.04400233333334}, {"fusion_lat": 0.0, "name": "e658cd631992e1a07563debece5451a6", "is_disabled": 0, "rental_uris": {"android": "https://dc.lft.to/lastmile_qr_scan", "ios": "https://dc.lft.to/lastmile_qr_scan"}, "fusion_lon": 0.0, "lat": 38.8885025, "bike_id": "e658cd631992e1a07563debece5451a6", "type": "electric_scooter", "is_reserved": 0, "lon": -76.92675666666666}, {"fusion_lat": 0.0, "name": "fc8f460a8652d6820b2afd874dd3bd15", "is_disabled": 0, "rental_uris": {"android": "https://dc.lft.to/lastmile_qr_scan", "ios": "https://dc.lft.to/lastmile_qr_scan"}, "fusion_lon": 0.0, "lat": 38.921385666666666, "bike_id": "fc8f460a8652d6820b2afd874dd3bd15", "type": "electric_scooter", "is_reserved": 0, "lon": -77.04578833333333}, {"fusion_lat": 0.0, "name": "0625bc66771f1f80f4166c161baaef77", "is_disabled": 0, "rental_uris": {"android": "https://dc.lft.to/lastmile_qr_scan", "ios": "https://dc.lft.to/lastmile_qr_scan"}, "fusion_lon": 0.0, "lat": 38.913238666666665, "bike_id": "0625bc66771f1f80f4166c161baaef77", "type": "electric_scooter", "is_reserved": 0, "lon": -77.02165466666666}, {"fusion_lat": 0.0, "name": "1dffe31ef8281ba5d53a7bd2f7a1c0f1", "is_disabled": 0, "rental_uris": {"android": "https://dc.lft.to/lastmile_qr_scan", "ios": "https://dc.lft.to/lastmile_qr_scan"}, "fusion_lon": 0.0, "lat": 38.897292166666666, "bike_id": "1dffe31ef8281ba5d53a7bd2f7a1c0f1", "type": "electric_scooter", "is_reserved": 0, "lon": -77.022518}, {"fusion_lat": 0.0, "name": "e2113ccf1870077d2065889a197345a5", "is_disabled": 0, "rental_uris": {"android": "https://dc.lft.to/lastmile_qr_scan", "ios": "https://dc.lft.to/lastmile_qr_scan"}, "fusion_lon": 0.0, "lat": 38.924565, "bike_id": "e2113ccf1870077d2065889a197345a5", "type": "electric_bike", "is_reserved": 0, "lon": -77.00214583333333}, {"fusion_lat": 0.0, "name": "2d90e4134aa9e49c54d7b9451b0ad8ae", "is_disabled": 0, "rental_uris": {"android": "https://dc.lft.to/lastmile_qr_scan", "ios": "https://dc.lft.to/lastmile_qr_scan"}, "fusion_lon": 0.0, "lat": 38.925097666666666, "bike_id": "2d90e4134aa9e49c54d7b9451b0ad8ae", "type": "electric_scooter", "is_reserved": 0, "lon": -77.0233145}, {"fusion_lat": 0.0, "name": "30a332429a621398f4ec68ba27cb42f0", "is_disabled": 0, "rental_uris": {"android": "https://dc.lft.to/lastmile_qr_scan", "ios": "https://dc.lft.to/lastmile_qr_scan"}, "fusion_lon": 0.0, "lat": 38.877189, "bike_id": "30a332429a621398f4ec68ba27cb42f0", "type": "electric_scooter", "is_reserved": 0, "lon": -77.00303083333333}, {"fusion_lat": 0.0, "name": "516b550eb008c3abe78ab3c9b218bcdf", "is_disabled": 0, "rental_uris": {"android": "https://dc.lft.to/lastmile_qr_scan", "ios": "https://dc.lft.to/lastmile_qr_scan"}, "fusion_lon": 0.0, "lat": 38.928945666666664, "bike_id": "516b550eb008c3abe78ab3c9b218bcdf", "type": "electric_scooter", "is_reserved": 0, "lon": -77.0421975}, {"fusion_lat": 0.0, "name": "e0d934eadab9ac8426949072200efcdc", "is_disabled": 0, "rental_uris": {"android": "https://dc.lft.to/lastmile_qr_scan", "ios": "https://dc.lft.to/lastmile_qr_scan"}, "fusion_lon": 0.0, "lat": 38.84355266666667, "bike_id": "e0d934eadab9ac8426949072200efcdc", "type": "electric_bike", "is_reserved": 0, "lon": -76.97823416666667}, {"fusion_lat": 0.0, "name": "dadb53ade802f18d7a59d42ed4f48ab7", "is_disabled": 0, "rental_uris": {"android": "https://dc.lft.to/lastmile_qr_scan", "ios": "https://dc.lft.to/lastmile_qr_scan"}, "fusion_lon": 0.0, "lat": 38.91967233333333, "bike_id": "dadb53ade802f18d7a59d42ed4f48ab7", "type": "electric_scooter", "is_reserved": 0, "lon": -77.02386183333333}, {"fusion_lat": 0.0, "name": "ecedb99f0f0cc86f56fdbc38d74c873f", "is_disabled": 0, "rental_uris": {"android": "https://dc.lft.to/lastmile_qr_scan", "ios": "https://dc.lft.to/lastmile_qr_scan"}, "fusion_lon": 0.0, "lat": 38.9461965, "bike_id": "ecedb99f0f0cc86f56fdbc38d74c873f", "type": "electric_scooter", "is_reserved": 0, "lon": -77.0801505}, {"fusion_lat": 0.0, "name": "a945a27e729189f08fea357dac5dc4d7", "is_disabled": 0, "rental_uris": {"android": "https://dc.lft.to/lastmile_qr_scan", "ios": "https://dc.lft.to/lastmile_qr_scan"}, "fusion_lon": 0.0, "lat": 38.93607766666667, "bike_id": "a945a27e729189f08fea357dac5dc4d7", "type": "electric_scooter", "is_reserved": 0, "lon": -77.05895883333334}, {"fusion_lat": 0.0, "name": "6baef6102c9dde563b23f48d771d91d9", "is_disabled": 0, "rental_uris": {"android": "https://dc.lft.to/lastmile_qr_scan", "ios": "https://dc.lft.to/lastmile_qr_scan"}, "fusion_lon": 0.0, "lat": 38.941135333333335, "bike_id": "6baef6102c9dde563b23f48d771d91d9", "type": "electric_scooter", "is_reserved": 0, "lon": -77.02545583333334}, {"fusion_lat": 0.0, "name": "ca638e23865a27e8d6f749c29e9ab3ae", "is_disabled": 0, "rental_uris": {"android": "https://dc.lft.to/lastmile_qr_scan", "ios": "https://dc.lft.to/lastmile_qr_scan"}, "fusion_lon": 0.0, "lat": 38.962363333333336, "bike_id": "ca638e23865a27e8d6f749c29e9ab3ae", "type": "electric_bike", "is_reserved": 0, "lon": -77.02630483333333}, {"fusion_lat": 0.0, "name": "3016bd21c720af8cf54574fc226fecba", "is_disabled": 0, "rental_uris": {"android": "https://dc.lft.to/lastmile_qr_scan", "ios": "https://dc.lft.to/lastmile_qr_scan"}, "fusion_lon": 0.0, "lat": 38.925425, "bike_id": "3016bd21c720af8cf54574fc226fecba", "type": "electric_scooter", "is_reserved": 0, "lon": -77.05120066666667}, {"fusion_lat": 0.0, "name": "6b286fb4449f6412abb0be8f98c94452", "is_disabled": 0, "rental_uris": {"android": "https://dc.lft.to/lastmile_qr_scan", "ios": "https://dc.lft.to/lastmile_qr_scan"}, "fusion_lon": 0.0, "lat": 38.88364966666666, "bike_id": "6b286fb4449f6412abb0be8f98c94452", "type": "electric_scooter", "is_reserved": 0, "lon": -76.94161233333334}, {"fusion_lat": 0.0, "name": "a4b8d8dd8b4573ac199aedda38ac1a91", "is_disabled": 0, "rental_uris": {"android": "https://dc.lft.to/lastmile_qr_scan", "ios": "https://dc.lft.to/lastmile_qr_scan"}, "fusion_lon": 0.0, "lat": 38.958887833333335, "bike_id": "a4b8d8dd8b4573ac199aedda38ac1a91", "type": "electric_bike", "is_reserved": 0, "lon": -76.92483283333334}, {"fusion_lat": 0.0, "name": "fcb96b27e86a987256bb89de99872f30", "is_disabled": 0, "rental_uris": {"android": "https://dc.lft.to/lastmile_qr_scan", "ios": "https://dc.lft.to/lastmile_qr_scan"}, "fusion_lon": 0.0, "lat": 38.93968666666667, "bike_id": "fcb96b27e86a987256bb89de99872f30", "type": "electric_scooter", "is_reserved": 0, "lon": -77.0328585}, {"fusion_lat": 0.0, "name": "394f14b9c379139f0464c2b85bb16785", "is_disabled": 0, "rental_uris": {"android": "https://dc.lft.to/lastmile_qr_scan", "ios": "https://dc.lft.to/lastmile_qr_scan"}, "fusion_lon": 0.0, "lat": 38.91634966666667, "bike_id": "394f14b9c379139f0464c2b85bb16785", "type": "electric_scooter", "is_reserved": 0, "lon": -77.00102733333334}, {"fusion_lat": 0.0, "name": "806caa6d2460539d23ccb8f5f0baa138", "is_disabled": 0, "rental_uris": {"android": "https://dc.lft.to/lastmile_qr_scan", "ios": "https://dc.lft.to/lastmile_qr_scan"}, "fusion_lon": 0.0, "lat": 38.91758383333333, "bike_id": "806caa6d2460539d23ccb8f5f0baa138", "type": "electric_scooter", "is_reserved": 0, "lon": -77.030774}, {"fusion_lat": 0.0, "name": "51b0795d2c203b41d94cea18426146b0", "is_disabled": 0, "rental_uris": {"android": "https://dc.lft.to/lastmile_qr_scan", "ios": "https://dc.lft.to/lastmile_qr_scan"}, "fusion_lon": 0.0, "lat": 38.883249, "bike_id": "51b0795d2c203b41d94cea18426146b0", "type": "electric_bike", "is_reserved": 0, "lon": -76.9605705}, {"fusion_lat": 0.0, "name": "aa07e8e9bddd0b84b8b96b15e8f0af19", "is_disabled": 0, "rental_uris": {"android": "https://dc.lft.to/lastmile_qr_scan", "ios": "https://dc.lft.to/lastmile_qr_scan"}, "fusion_lon": 0.0, "lat": 38.89616633333333, "bike_id": "aa07e8e9bddd0b84b8b96b15e8f0af19", "type": "electric_scooter", "is_reserved": 0, "lon": -77.0092695}, {"fusion_lat": 0.0, "name": "dd5a632085aa36a82b8b575828b2a183", "is_disabled": 0, "rental_uris": {"android": "https://dc.lft.to/lastmile_qr_scan", "ios": "https://dc.lft.to/lastmile_qr_scan"}, "fusion_lon": 0.0, "lat": 38.92228516666667, "bike_id": "dd5a632085aa36a82b8b575828b2a183", "type": "electric_scooter", "is_reserved": 0, "lon": -77.02367683333334}, {"fusion_lat": 0.0, "name": "e45b23338ea3d7d91ce328c570b70a79", "is_disabled": 0, "rental_uris": {"android": "https://dc.lft.to/lastmile_qr_scan", "ios": "https://dc.lft.to/lastmile_qr_scan"}, "fusion_lon": 0.0, "lat": 38.930753833333334, "bike_id": "e45b23338ea3d7d91ce328c570b70a79", "type": "electric_scooter", "is_reserved": 0, "lon": -77.021783}, {"fusion_lat": 0.0, "name": "eef17d8b48c8b7d4894b358f316ea800", "is_disabled": 0, "rental_uris": {"android": "https://dc.lft.to/lastmile_qr_scan", "ios": "https://dc.lft.to/lastmile_qr_scan"}, "fusion_lon": 0.0, "lat": 38.91276466666667, "bike_id": "eef17d8b48c8b7d4894b358f316ea800", "type": "electric_scooter", "is_reserved": 0, "lon": -77.03866666666667}, {"fusion_lat": 0.0, "name": "6320f7a1e4de7d53444ef1dbc248b196", "is_disabled": 0, "rental_uris": {"android": "https://dc.lft.to/lastmile_qr_scan", "ios": "https://dc.lft.to/lastmile_qr_scan"}, "fusion_lon": 0.0, "lat": 38.8972355, "bike_id": "6320f7a1e4de7d53444ef1dbc248b196", "type": "electric_scooter", "is_reserved": 0, "lon": -77.04634116666666}, {"fusion_lat": 0.0, "name": "dbef4825f7e5fec88609e0d0e875247d", "is_disabled": 0, "rental_uris": {"android": "https://dc.lft.to/lastmile_qr_scan", "ios": "https://dc.lft.to/lastmile_qr_scan"}, "fusion_lon": 0.0, "lat": 38.911209, "bike_id": "dbef4825f7e5fec88609e0d0e875247d", "type": "electric_scooter", "is_reserved": 0, "lon": -77.0813125}, {"fusion_lat": 0.0, "name": "78d259566456284c53115c9014ceb2b1", "is_disabled": 0, "rental_uris": {"android": "https://dc.lft.to/lastmile_qr_scan", "ios": "https://dc.lft.to/lastmile_qr_scan"}, "fusion_lon": 0.0, "lat": 38.937783, "bike_id": "78d259566456284c53115c9014ceb2b1", "type": "electric_scooter", "is_reserved": 0, "lon": -77.03261083333334}, {"fusion_lat": 0.0, "name": "afcb6fc298000493abf8725cda8d55db", "is_disabled": 0, "rental_uris": {"android": "https://dc.lft.to/lastmile_qr_scan", "ios": "https://dc.lft.to/lastmile_qr_scan"}, "fusion_lon": 0.0, "lat": 38.8278945, "bike_id": "afcb6fc298000493abf8725cda8d55db", "type": "electric_bike", "is_reserved": 0, "lon": -77.12487666666667}, {"fusion_lat": 0.0, "name": "41de632020abdb9830b004c3012ddfcb", "is_disabled": 0, "rental_uris": {"android": "https://dc.lft.to/lastmile_qr_scan", "ios": "https://dc.lft.to/lastmile_qr_scan"}, "fusion_lon": 0.0, "lat": 38.92160966666667, "bike_id": "41de632020abdb9830b004c3012ddfcb", "type": "electric_scooter", "is_reserved": 0, "lon": -77.0336245}, {"fusion_lat": 0.0, "name": "accc18f98a9ecf163bbf8c3ada485e94", "is_disabled": 0, "rental_uris": {"android": "https://dc.lft.to/lastmile_qr_scan", "ios": "https://dc.lft.to/lastmile_qr_scan"}, "fusion_lon": 0.0, "lat": 38.914816333333334, "bike_id": "accc18f98a9ecf163bbf8c3ada485e94", "type": "electric_scooter", "is_reserved": 0, "lon": -77.04015083333333}, {"fusion_lat": 0.0, "name": "d10dce2109879f8d308c5dae688e2f67", "is_disabled": 0, "rental_uris": {"android": "https://dc.lft.to/lastmile_qr_scan", "ios": "https://dc.lft.to/lastmile_qr_scan"}, "fusion_lon": 0.0, "lat": 38.90572, "bike_id": "d10dce2109879f8d308c5dae688e2f67", "type": "electric_scooter", "is_reserved": 0, "lon": -77.0415705}, {"fusion_lat": 0.0, "name": "69847ec05767f0ef547fae8772c7d625", "is_disabled": 0, "rental_uris": {"android": "https://dc.lft.to/lastmile_qr_scan", "ios": "https://dc.lft.to/lastmile_qr_scan"}, "fusion_lon": 0.0, "lat": 38.89714516666667, "bike_id": "69847ec05767f0ef547fae8772c7d625", "type": "electric_scooter", "is_reserved": 0, "lon": -77.02284516666667}, {"fusion_lat": 0.0, "name": "907797f6fd93747abbde7483bbf08570", "is_disabled": 0, "rental_uris": {"android": "https://dc.lft.to/lastmile_qr_scan", "ios": "https://dc.lft.to/lastmile_qr_scan"}, "fusion_lon": 0.0, "lat": 38.928251333333336, "bike_id": "907797f6fd93747abbde7483bbf08570", "type": "electric_scooter", "is_reserved": 0, "lon": -77.02258733333333}, {"fusion_lat": 0.0, "name": "9cdc0334578f2b0d23eb3c96c431b88b", "is_disabled": 0, "rental_uris": {"android": "https://dc.lft.to/lastmile_qr_scan", "ios": "https://dc.lft.to/lastmile_qr_scan"}, "fusion_lon": 0.0, "lat": 38.8923675, "bike_id": "9cdc0334578f2b0d23eb3c96c431b88b", "type": "electric_scooter", "is_reserved": 0, "lon": -77.00291033333333}, {"fusion_lat": 0.0, "name": "e1fbcffaff8e0154ef3f897019af756f", "is_disabled": 0, "rental_uris": {"android": "https://dc.lft.to/lastmile_qr_scan", "ios": "https://dc.lft.to/lastmile_qr_scan"}, "fusion_lon": 0.0, "lat": 38.9076805, "bike_id": "e1fbcffaff8e0154ef3f897019af756f", "type": "electric_scooter", "is_reserved": 0, "lon": -77.056526}, {"fusion_lat": 0.0, "name": "52bbf76924544a22a08038e69723e4b1", "is_disabled": 0, "rental_uris": {"android": "https://dc.lft.to/lastmile_qr_scan", "ios": "https://dc.lft.to/lastmile_qr_scan"}, "fusion_lon": 0.0, "lat": 38.90230733333333, "bike_id": "52bbf76924544a22a08038e69723e4b1", "type": "electric_scooter", "is_reserved": 0, "lon": -77.03476883333333}, {"fusion_lat": 0.0, "name": "bfe2f9d39c442a20e613ad91197b0109", "is_disabled": 0, "rental_uris": {"android": "https://dc.lft.to/lastmile_qr_scan", "ios": "https://dc.lft.to/lastmile_qr_scan"}, "fusion_lon": 0.0, "lat": 38.91427566666667, "bike_id": "bfe2f9d39c442a20e613ad91197b0109", "type": "electric_scooter", "is_reserved": 0, "lon": -76.98441033333333}, {"fusion_lat": 0.0, "name": "35beba7410addc12fa2c4703bd8112e4", "is_disabled": 0, "rental_uris": {"android": "https://dc.lft.to/lastmile_qr_scan", "ios": "https://dc.lft.to/lastmile_qr_scan"}, "fusion_lon": 0.0, "lat": 38.900454333333336, "bike_id": "35beba7410addc12fa2c4703bd8112e4", "type": "electric_scooter", "is_reserved": 0, "lon": -77.0447865}, {"fusion_lat": 0.0, "name": "97e2358fe204216ed65dfb4abec8fd9c", "is_disabled": 0, "rental_uris": {"android": "https://dc.lft.to/lastmile_qr_scan", "ios": "https://dc.lft.to/lastmile_qr_scan"}, "fusion_lon": 0.0, "lat": 38.91566483333333, "bike_id": "97e2358fe204216ed65dfb4abec8fd9c", "type": "electric_scooter", "is_reserved": 0, "lon": -77.03154366666666}, {"fusion_lat": 0.0, "name": "10a97ee6a32fd88d044e528d42b85ed9", "is_disabled": 0, "rental_uris": {"android": "https://dc.lft.to/lastmile_qr_scan", "ios": "https://dc.lft.to/lastmile_qr_scan"}, "fusion_lon": 0.0, "lat": 38.878299, "bike_id": "10a97ee6a32fd88d044e528d42b85ed9", "type": "electric_scooter", "is_reserved": 0, "lon": -76.99018566666666}, {"fusion_lat": 0.0, "name": "90880b56dc2324ad9ee16b8e0cd7bbc2", "is_disabled": 0, "rental_uris": {"android": "https://dc.lft.to/lastmile_qr_scan", "ios": "https://dc.lft.to/lastmile_qr_scan"}, "fusion_lon": 0.0, "lat": 38.90006666666667, "bike_id": "90880b56dc2324ad9ee16b8e0cd7bbc2", "type": "electric_scooter", "is_reserved": 0, "lon": -76.99835633333333}, {"fusion_lat": 0.0, "name": "3db163c5b0c08f6cabc29625d9e61c72", "is_disabled": 0, "rental_uris": {"android": "https://dc.lft.to/lastmile_qr_scan", "ios": "https://dc.lft.to/lastmile_qr_scan"}, "fusion_lon": 0.0, "lat": 38.93011583333333, "bike_id": "3db163c5b0c08f6cabc29625d9e61c72", "type": "electric_scooter", "is_reserved": 0, "lon": -77.02077133333333}, {"fusion_lat": 0.0, "name": "6def3a7a698267f601c97e7bc63868a3", "is_disabled": 0, "rental_uris": {"android": "https://dc.lft.to/lastmile_qr_scan", "ios": "https://dc.lft.to/lastmile_qr_scan"}, "fusion_lon": 0.0, "lat": 38.853646, "bike_id": "6def3a7a698267f601c97e7bc63868a3", "type": "electric_bike", "is_reserved": 0, "lon": -77.11509183333334}, {"fusion_lat": 0.0, "name": "d37d676b1c8c78e2b0bba8c526e40cbe", "is_disabled": 0, "rental_uris": {"android": "https://dc.lft.to/lastmile_qr_scan", "ios": "https://dc.lft.to/lastmile_qr_scan"}, "fusion_lon": 0.0, "lat": 38.9001735, "bike_id": "d37d676b1c8c78e2b0bba8c526e40cbe", "type": "electric_scooter", "is_reserved": 0, "lon": -76.99746433333334}, {"fusion_lat": 0.0, "name": "37032302d0510c0dc3414e39ef2f888a", "is_disabled": 0, "rental_uris": {"android": "https://dc.lft.to/lastmile_qr_scan", "ios": "https://dc.lft.to/lastmile_qr_scan"}, "fusion_lon": 0.0, "lat": 38.92488616666667, "bike_id": "37032302d0510c0dc3414e39ef2f888a", "type": "electric_scooter", "is_reserved": 0, "lon": -77.02717966666667}, {"fusion_lat": 0.0, "name": "80541e2fe4e41b9e3ce7d1a0479d6c39", "is_disabled": 0, "rental_uris": {"android": "https://dc.lft.to/lastmile_qr_scan", "ios": "https://dc.lft.to/lastmile_qr_scan"}, "fusion_lon": 0.0, "lat": 38.90969783333333, "bike_id": "80541e2fe4e41b9e3ce7d1a0479d6c39", "type": "electric_scooter", "is_reserved": 0, "lon": -77.04735566666666}, {"fusion_lat": 0.0, "name": "8743549d27eb6ee74796a51ebe9a4090", "is_disabled": 0, "rental_uris": {"android": "https://dc.lft.to/lastmile_qr_scan", "ios": "https://dc.lft.to/lastmile_qr_scan"}, "fusion_lon": 0.0, "lat": 39.03428266666667, "bike_id": "8743549d27eb6ee74796a51ebe9a4090", "type": "electric_bike", "is_reserved": 0, "lon": -77.04312083333333}, {"fusion_lat": 0.0, "name": "318ce1afd8ea273893379835b36e0bd4", "is_disabled": 0, "rental_uris": {"android": "https://dc.lft.to/lastmile_qr_scan", "ios": "https://dc.lft.to/lastmile_qr_scan"}, "fusion_lon": 0.0, "lat": 38.92749466666667, "bike_id": "318ce1afd8ea273893379835b36e0bd4", "type": "electric_scooter", "is_reserved": 0, "lon": -77.03300766666666}, {"fusion_lat": 0.0, "name": "2bf55cd8715a610bcf30a895bc32298e", "is_disabled": 0, "rental_uris": {"android": "https://dc.lft.to/lastmile_qr_scan", "ios": "https://dc.lft.to/lastmile_qr_scan"}, "fusion_lon": 0.0, "lat": 38.90742216666666, "bike_id": "2bf55cd8715a610bcf30a895bc32298e", "type": "electric_scooter", "is_reserved": 0, "lon": -77.0260565}, {"fusion_lat": 0.0, "name": "4e35494daa3d1c8e8c0be34e39e9814f", "is_disabled": 0, "rental_uris": {"android": "https://dc.lft.to/lastmile_qr_scan", "ios": "https://dc.lft.to/lastmile_qr_scan"}, "fusion_lon": 0.0, "lat": 38.938672833333335, "bike_id": "4e35494daa3d1c8e8c0be34e39e9814f", "type": "electric_scooter", "is_reserved": 0, "lon": -77.03205333333334}, {"fusion_lat": 0.0, "name": "009ce93780cd6da844dd2d3a157fdb95", "is_disabled": 0, "rental_uris": {"android": "https://dc.lft.to/lastmile_qr_scan", "ios": "https://dc.lft.to/lastmile_qr_scan"}, "fusion_lon": 0.0, "lat": 38.90267866666667, "bike_id": "009ce93780cd6da844dd2d3a157fdb95", "type": "electric_scooter", "is_reserved": 0, "lon": -77.04344133333333}, {"fusion_lat": 0.0, "name": "ad853351926887bb4d3cab94140f7a51", "is_disabled": 0, "rental_uris": {"android": "https://dc.lft.to/lastmile_qr_scan", "ios": "https://dc.lft.to/lastmile_qr_scan"}, "fusion_lon": 0.0, "lat": 38.88319666666666, "bike_id": "ad853351926887bb4d3cab94140f7a51", "type": "electric_scooter", "is_reserved": 0, "lon": -77.01381233333333}, {"fusion_lat": 0.0, "name": "d2dc9b78644befb1cfa3a5e6bbf9cdae", "is_disabled": 0, "rental_uris": {"android": "https://dc.lft.to/lastmile_qr_scan", "ios": "https://dc.lft.to/lastmile_qr_scan"}, "fusion_lon": 0.0, "lat": 38.896513666666664, "bike_id": "d2dc9b78644befb1cfa3a5e6bbf9cdae", "type": "electric_scooter", "is_reserved": 0, "lon": -77.0508225}, {"fusion_lat": 0.0, "name": "8b2663bfc5eea8b9041c473e7074df22", "is_disabled": 0, "rental_uris": {"android": "https://dc.lft.to/lastmile_qr_scan", "ios": "https://dc.lft.to/lastmile_qr_scan"}, "fusion_lon": 0.0, "lat": 38.92096016666667, "bike_id": "8b2663bfc5eea8b9041c473e7074df22", "type": "electric_scooter", "is_reserved": 0, "lon": -77.02507383333334}, {"fusion_lat": 0.0, "name": "3c5d7b8890c84334b3ce6e2a07cc0139", "is_disabled": 0, "rental_uris": {"android": "https://dc.lft.to/lastmile_qr_scan", "ios": "https://dc.lft.to/lastmile_qr_scan"}, "fusion_lon": 0.0, "lat": 38.924506, "bike_id": "3c5d7b8890c84334b3ce6e2a07cc0139", "type": "electric_scooter", "is_reserved": 0, "lon": -77.00876033333333}, {"fusion_lat": 0.0, "name": "6be19c3f070968fb17fd6ddecfb1f3aa", "is_disabled": 0, "rental_uris": {"android": "https://dc.lft.to/lastmile_qr_scan", "ios": "https://dc.lft.to/lastmile_qr_scan"}, "fusion_lon": 0.0, "lat": 38.89948316666667, "bike_id": "6be19c3f070968fb17fd6ddecfb1f3aa", "type": "electric_scooter", "is_reserved": 0, "lon": -76.99728933333333}, {"fusion_lat": 0.0, "name": "bb38667ed8be870fd7c0fedce74bb8c9", "is_disabled": 0, "rental_uris": {"android": "https://dc.lft.to/lastmile_qr_scan", "ios": "https://dc.lft.to/lastmile_qr_scan"}, "fusion_lon": 0.0, "lat": 38.93584216666667, "bike_id": "bb38667ed8be870fd7c0fedce74bb8c9", "type": "electric_scooter", "is_reserved": 0, "lon": -77.0335805}, {"fusion_lat": 0.0, "name": "440f61c7fe9c9f94a524d20e785ace29", "is_disabled": 0, "rental_uris": {"android": "https://dc.lft.to/lastmile_qr_scan", "ios": "https://dc.lft.to/lastmile_qr_scan"}, "fusion_lon": 0.0, "lat": 38.92880783333333, "bike_id": "440f61c7fe9c9f94a524d20e785ace29", "type": "electric_scooter", "is_reserved": 0, "lon": -77.0335225}, {"fusion_lat": 0.0, "name": "bde0a03c5e1b2ac9de5c8de92cf6cbae", "is_disabled": 0, "rental_uris": {"android": "https://dc.lft.to/lastmile_qr_scan", "ios": "https://dc.lft.to/lastmile_qr_scan"}, "fusion_lon": 0.0, "lat": 38.9975105, "bike_id": "bde0a03c5e1b2ac9de5c8de92cf6cbae", "type": "electric_bike", "is_reserved": 0, "lon": -77.02686883333334}, {"fusion_lat": 0.0, "name": "36c5e2ce627ee15612a87d42a3a70875", "is_disabled": 0, "rental_uris": {"android": "https://dc.lft.to/lastmile_qr_scan", "ios": "https://dc.lft.to/lastmile_qr_scan"}, "fusion_lon": 0.0, "lat": 38.922903166666664, "bike_id": "36c5e2ce627ee15612a87d42a3a70875", "type": "electric_scooter", "is_reserved": 0, "lon": -77.02340766666667}, {"fusion_lat": 0.0, "name": "808c99016bde7151f706a6d25f49b426", "is_disabled": 0, "rental_uris": {"android": "https://dc.lft.to/lastmile_qr_scan", "ios": "https://dc.lft.to/lastmile_qr_scan"}, "fusion_lon": 0.0, "lat": 38.92855333333333, "bike_id": "808c99016bde7151f706a6d25f49b426", "type": "electric_scooter", "is_reserved": 0, "lon": -77.0328495}, {"fusion_lat": 0.0, "name": "e7f64ff688363f71f91edaa8e0ac43e1", "is_disabled": 0, "rental_uris": {"android": "https://dc.lft.to/lastmile_qr_scan", "ios": "https://dc.lft.to/lastmile_qr_scan"}, "fusion_lon": 0.0, "lat": 38.824631, "bike_id": "e7f64ff688363f71f91edaa8e0ac43e1", "type": "electric_bike", "is_reserved": 0, "lon": -77.0079625}, {"fusion_lat": 0.0, "name": "bc51abd5dabeb10bf399cd7ae5f7883e", "is_disabled": 0, "rental_uris": {"android": "https://dc.lft.to/lastmile_qr_scan", "ios": "https://dc.lft.to/lastmile_qr_scan"}, "fusion_lon": 0.0, "lat": 38.8991895, "bike_id": "bc51abd5dabeb10bf399cd7ae5f7883e", "type": "electric_scooter", "is_reserved": 0, "lon": -76.94554066666667}, {"fusion_lat": 0.0, "name": "8fac41be1ef4f4da94df05c0bd328d0e", "is_disabled": 0, "rental_uris": {"android": "https://dc.lft.to/lastmile_qr_scan", "ios": "https://dc.lft.to/lastmile_qr_scan"}, "fusion_lon": 0.0, "lat": 38.91623533333333, "bike_id": "8fac41be1ef4f4da94df05c0bd328d0e", "type": "electric_scooter", "is_reserved": 0, "lon": -77.03855366666667}, {"fusion_lat": 0.0, "name": "a8a890e75f80f136284da2288fd7ebb1", "is_disabled": 0, "rental_uris": {"android": "https://dc.lft.to/lastmile_qr_scan", "ios": "https://dc.lft.to/lastmile_qr_scan"}, "fusion_lon": 0.0, "lat": 38.909581833333334, "bike_id": "a8a890e75f80f136284da2288fd7ebb1", "type": "electric_scooter", "is_reserved": 0, "lon": -76.98551333333333}, {"fusion_lat": 0.0, "name": "3804b4bcffebb675d7293d749c3d4742", "is_disabled": 0, "rental_uris": {"android": "https://dc.lft.to/lastmile_qr_scan", "ios": "https://dc.lft.to/lastmile_qr_scan"}, "fusion_lon": 0.0, "lat": 38.909876, "bike_id": "3804b4bcffebb675d7293d749c3d4742", "type": "electric_scooter", "is_reserved": 0, "lon": -77.03839366666666}, {"fusion_lat": 0.0, "name": "f07833ce95bc33fbbebb11b26166326d", "is_disabled": 0, "rental_uris": {"android": "https://dc.lft.to/lastmile_qr_scan", "ios": "https://dc.lft.to/lastmile_qr_scan"}, "fusion_lon": 0.0, "lat": 38.94463783333333, "bike_id": "f07833ce95bc33fbbebb11b26166326d", "type": "electric_scooter", "is_reserved": 0, "lon": -77.0065935}, {"fusion_lat": 0.0, "name": "c5a4cc8c0a1845bef71eef7260c373e3", "is_disabled": 0, "rental_uris": {"android": "https://dc.lft.to/lastmile_qr_scan", "ios": "https://dc.lft.to/lastmile_qr_scan"}, "fusion_lon": 0.0, "lat": 38.887678333333334, "bike_id": "c5a4cc8c0a1845bef71eef7260c373e3", "type": "electric_scooter", "is_reserved": 0, "lon": -76.97755166666667}, {"fusion_lat": 0.0, "name": "c45d86180772248f30599c4496a52e95", "is_disabled": 0, "rental_uris": {"android": "https://dc.lft.to/lastmile_qr_scan", "ios": "https://dc.lft.to/lastmile_qr_scan"}, "fusion_lon": 0.0, "lat": 38.874769, "bike_id": "c45d86180772248f30599c4496a52e95", "type": "electric_scooter", "is_reserved": 0, "lon": -77.01893933333334}, {"fusion_lat": 0.0, "name": "57f48ace067d914fb3538a36c1870c78", "is_disabled": 0, "rental_uris": {"android": "https://dc.lft.to/lastmile_qr_scan", "ios": "https://dc.lft.to/lastmile_qr_scan"}, "fusion_lon": 0.0, "lat": 38.93899366666667, "bike_id": "57f48ace067d914fb3538a36c1870c78", "type": "electric_scooter", "is_reserved": 0, "lon": -77.03319733333333}, {"fusion_lat": 0.0, "name": "82b730810c29f7c7f19ad948faac7d07", "is_disabled": 0, "rental_uris": {"android": "https://dc.lft.to/lastmile_qr_scan", "ios": "https://dc.lft.to/lastmile_qr_scan"}, "fusion_lon": 0.0, "lat": 38.902448666666665, "bike_id": "82b730810c29f7c7f19ad948faac7d07", "type": "electric_scooter", "is_reserved": 0, "lon": -77.02591516666666}, {"fusion_lat": 0.0, "name": "4d255183e2c2a6ee9c9ef94f9b786333", "is_disabled": 0, "rental_uris": {"android": "https://dc.lft.to/lastmile_qr_scan", "ios": "https://dc.lft.to/lastmile_qr_scan"}, "fusion_lon": 0.0, "lat": 38.923204, "bike_id": "4d255183e2c2a6ee9c9ef94f9b786333", "type": "electric_scooter", "is_reserved": 0, "lon": -77.02792216666667}, {"fusion_lat": 0.0, "name": "496889a365d090d3b6388ace546cf364", "is_disabled": 0, "rental_uris": {"android": "https://dc.lft.to/lastmile_qr_scan", "ios": "https://dc.lft.to/lastmile_qr_scan"}, "fusion_lon": 0.0, "lat": 38.9279765, "bike_id": "496889a365d090d3b6388ace546cf364", "type": "electric_scooter", "is_reserved": 0, "lon": -77.03149716666667}, {"fusion_lat": 0.0, "name": "e1d9959346a68d757f1b07d8afc29087", "is_disabled": 0, "rental_uris": {"android": "https://dc.lft.to/lastmile_qr_scan", "ios": "https://dc.lft.to/lastmile_qr_scan"}, "fusion_lon": 0.0, "lat": 38.93368433333333, "bike_id": "e1d9959346a68d757f1b07d8afc29087", "type": "electric_scooter", "is_reserved": 0, "lon": -77.02427233333333}, {"fusion_lat": 0.0, "name": "5ef7574dfe9b1b88590fd433b0b8695f", "is_disabled": 0, "rental_uris": {"android": "https://dc.lft.to/lastmile_qr_scan", "ios": "https://dc.lft.to/lastmile_qr_scan"}, "fusion_lon": 0.0, "lat": 38.935303833333336, "bike_id": "5ef7574dfe9b1b88590fd433b0b8695f", "type": "electric_scooter", "is_reserved": 0, "lon": -77.0452175}, {"fusion_lat": 0.0, "name": "19f4e9c0894fbf2cd632b82f0b8e3125", "is_disabled": 0, "rental_uris": {"android": "https://dc.lft.to/lastmile_qr_scan", "ios": "https://dc.lft.to/lastmile_qr_scan"}, "fusion_lon": 0.0, "lat": 38.92454983333333, "bike_id": "19f4e9c0894fbf2cd632b82f0b8e3125", "type": "electric_scooter", "is_reserved": 0, "lon": -77.0331985}, {"fusion_lat": 0.0, "name": "0817c10c9b503c19da43da6e14e535de", "is_disabled": 0, "rental_uris": {"android": "https://dc.lft.to/lastmile_qr_scan", "ios": "https://dc.lft.to/lastmile_qr_scan"}, "fusion_lon": 0.0, "lat": 38.93537166666667, "bike_id": "0817c10c9b503c19da43da6e14e535de", "type": "electric_scooter", "is_reserved": 0, "lon": -77.02354483333333}, {"fusion_lat": 0.0, "name": "891a678da3f7bed2cdf52d913cd97d33", "is_disabled": 0, "rental_uris": {"android": "https://dc.lft.to/lastmile_qr_scan", "ios": "https://dc.lft.to/lastmile_qr_scan"}, "fusion_lon": 0.0, "lat": 38.88994916666667, "bike_id": "891a678da3f7bed2cdf52d913cd97d33", "type": "electric_scooter", "is_reserved": 0, "lon": -76.98227033333333}, {"fusion_lat": 0.0, "name": "4529d01ee3d94d8884789dd57c9ace8b", "is_disabled": 0, "rental_uris": {"android": "https://dc.lft.to/lastmile_qr_scan", "ios": "https://dc.lft.to/lastmile_qr_scan"}, "fusion_lon": 0.0, "lat": 38.97123583333333, "bike_id": "4529d01ee3d94d8884789dd57c9ace8b", "type": "electric_bike", "is_reserved": 0, "lon": -77.02086216666666}, {"fusion_lat": 0.0, "name": "6f9f96641485a73d328222b915b9ed02", "is_disabled": 0, "rental_uris": {"android": "https://dc.lft.to/lastmile_qr_scan", "ios": "https://dc.lft.to/lastmile_qr_scan"}, "fusion_lon": 0.0, "lat": 38.93390483333334, "bike_id": "6f9f96641485a73d328222b915b9ed02", "type": "electric_scooter", "is_reserved": 0, "lon": -77.02420483333333}, {"fusion_lat": 0.0, "name": "eed429e037154c2a3e6ad01bfeef0bd4", "is_disabled": 0, "rental_uris": {"android": "https://dc.lft.to/lastmile_qr_scan", "ios": "https://dc.lft.to/lastmile_qr_scan"}, "fusion_lon": 0.0, "lat": 38.94920916666667, "bike_id": "eed429e037154c2a3e6ad01bfeef0bd4", "type": "electric_bike", "is_reserved": 0, "lon": -77.00795766666667}, {"fusion_lat": 0.0, "name": "435f836026da752554da124b3622d26d", "is_disabled": 0, "rental_uris": {"android": "https://dc.lft.to/lastmile_qr_scan", "ios": "https://dc.lft.to/lastmile_qr_scan"}, "fusion_lon": 0.0, "lat": 38.89973533333333, "bike_id": "435f836026da752554da124b3622d26d", "type": "electric_scooter", "is_reserved": 0, "lon": -77.01508883333334}, {"fusion_lat": 0.0, "name": "84b0f99e0c959359560264712d500306", "is_disabled": 0, "rental_uris": {"android": "https://dc.lft.to/lastmile_qr_scan", "ios": "https://dc.lft.to/lastmile_qr_scan"}, "fusion_lon": 0.0, "lat": 38.95873783333333, "bike_id": "84b0f99e0c959359560264712d500306", "type": "electric_bike", "is_reserved": 0, "lon": -76.97057666666667}, {"fusion_lat": 0.0, "name": "277d7a0c30a36456e1982be6cb1aeefd", "is_disabled": 0, "rental_uris": {"android": "https://dc.lft.to/lastmile_qr_scan", "ios": "https://dc.lft.to/lastmile_qr_scan"}, "fusion_lon": 0.0, "lat": 38.91986883333333, "bike_id": "277d7a0c30a36456e1982be6cb1aeefd", "type": "electric_scooter", "is_reserved": 0, "lon": -77.03325783333334}, {"fusion_lat": 0.0, "name": "d4ca86c3477c11b2a9d145cf02b3c682", "is_disabled": 0, "rental_uris": {"android": "https://dc.lft.to/lastmile_qr_scan", "ios": "https://dc.lft.to/lastmile_qr_scan"}, "fusion_lon": 0.0, "lat": 38.89977916666667, "bike_id": "d4ca86c3477c11b2a9d145cf02b3c682", "type": "electric_scooter", "is_reserved": 0, "lon": -77.03347266666667}, {"fusion_lat": 0.0, "name": "206f364122fe99e55ba99539b2117976", "is_disabled": 0, "rental_uris": {"android": "https://dc.lft.to/lastmile_qr_scan", "ios": "https://dc.lft.to/lastmile_qr_scan"}, "fusion_lon": 0.0, "lat": 38.92345616666667, "bike_id": "206f364122fe99e55ba99539b2117976", "type": "electric_scooter", "is_reserved": 0, "lon": -77.03536966666667}, {"fusion_lat": 0.0, "name": "4f9d4403516a74e89181ed29f5a1a202", "is_disabled": 0, "rental_uris": {"android": "https://dc.lft.to/lastmile_qr_scan", "ios": "https://dc.lft.to/lastmile_qr_scan"}, "fusion_lon": 0.0, "lat": 38.936098666666666, "bike_id": "4f9d4403516a74e89181ed29f5a1a202", "type": "electric_scooter", "is_reserved": 0, "lon": -77.02296}, {"fusion_lat": 0.0, "name": "43bac9dd1dadc6b803d4572fd5145d71", "is_disabled": 0, "rental_uris": {"android": "https://dc.lft.to/lastmile_qr_scan", "ios": "https://dc.lft.to/lastmile_qr_scan"}, "fusion_lon": 0.0, "lat": 38.906258, "bike_id": "43bac9dd1dadc6b803d4572fd5145d71", "type": "electric_scooter", "is_reserved": 0, "lon": -77.02956816666666}, {"fusion_lat": 0.0, "name": "015f10b9b1e798de755d1794225a8830", "is_disabled": 0, "rental_uris": {"android": "https://dc.lft.to/lastmile_qr_scan", "ios": "https://dc.lft.to/lastmile_qr_scan"}, "fusion_lon": 0.0, "lat": 38.956405333333336, "bike_id": "015f10b9b1e798de755d1794225a8830", "type": "electric_scooter", "is_reserved": 0, "lon": -77.0330265}, {"fusion_lat": 0.0, "name": "013bad6aca8eff9eee69a0d2f1b49d57", "is_disabled": 0, "rental_uris": {"android": "https://dc.lft.to/lastmile_qr_scan", "ios": "https://dc.lft.to/lastmile_qr_scan"}, "fusion_lon": 0.0, "lat": 38.92315683333333, "bike_id": "013bad6aca8eff9eee69a0d2f1b49d57", "type": "electric_scooter", "is_reserved": 0, "lon": -77.04373766666667}, {"fusion_lat": 0.0, "name": "95042d0ddadff2e103c19906ccf300f5", "is_disabled": 0, "rental_uris": {"android": "https://dc.lft.to/lastmile_qr_scan", "ios": "https://dc.lft.to/lastmile_qr_scan"}, "fusion_lon": 0.0, "lat": 38.909609833333334, "bike_id": "95042d0ddadff2e103c19906ccf300f5", "type": "electric_scooter", "is_reserved": 0, "lon": -77.0394585}, {"fusion_lat": 0.0, "name": "1cc11eb09096876929a1e9f2c01489fa", "is_disabled": 0, "rental_uris": {"android": "https://dc.lft.to/lastmile_qr_scan", "ios": "https://dc.lft.to/lastmile_qr_scan"}, "fusion_lon": 0.0, "lat": 38.90611, "bike_id": "1cc11eb09096876929a1e9f2c01489fa", "type": "electric_scooter", "is_reserved": 0, "lon": -77.04694683333334}, {"fusion_lat": 0.0, "name": "bb20493c3dea2a842178436bd6d80b88", "is_disabled": 0, "rental_uris": {"android": "https://dc.lft.to/lastmile_qr_scan", "ios": "https://dc.lft.to/lastmile_qr_scan"}, "fusion_lon": 0.0, "lat": 38.93221, "bike_id": "bb20493c3dea2a842178436bd6d80b88", "type": "electric_scooter", "is_reserved": 0, "lon": -77.04411166666667}, {"fusion_lat": 0.0, "name": "08410a0f36b28d8f0abd3ec09c03a96b", "is_disabled": 0, "rental_uris": {"android": "https://dc.lft.to/lastmile_qr_scan", "ios": "https://dc.lft.to/lastmile_qr_scan"}, "fusion_lon": 0.0, "lat": 38.92087083333333, "bike_id": "08410a0f36b28d8f0abd3ec09c03a96b", "type": "electric_scooter", "is_reserved": 0, "lon": -77.01216383333333}, {"fusion_lat": 0.0, "name": "7f24842526c98c04d2c501f1cdb266a0", "is_disabled": 0, "rental_uris": {"android": "https://dc.lft.to/lastmile_qr_scan", "ios": "https://dc.lft.to/lastmile_qr_scan"}, "fusion_lon": 0.0, "lat": 38.899862, "bike_id": "7f24842526c98c04d2c501f1cdb266a0", "type": "electric_scooter", "is_reserved": 0, "lon": -77.04043483333334}, {"fusion_lat": 0.0, "name": "c93070e775044c99f8ce1530ff06d789", "is_disabled": 0, "rental_uris": {"android": "https://dc.lft.to/lastmile_qr_scan", "ios": "https://dc.lft.to/lastmile_qr_scan"}, "fusion_lon": 0.0, "lat": 38.845084666666665, "bike_id": "c93070e775044c99f8ce1530ff06d789", "type": "electric_bike", "is_reserved": 0, "lon": -76.9935145}, {"fusion_lat": 0.0, "name": "bb53bf8abfa4bbb464a2754e6f21ae4f", "is_disabled": 0, "rental_uris": {"android": "https://dc.lft.to/lastmile_qr_scan", "ios": "https://dc.lft.to/lastmile_qr_scan"}, "fusion_lon": 0.0, "lat": 38.92943283333334, "bike_id": "bb53bf8abfa4bbb464a2754e6f21ae4f", "type": "electric_scooter", "is_reserved": 0, "lon": -77.02338283333333}, {"fusion_lat": 0.0, "name": "a5446f80fdf313f5c5d525ac5b1d2652", "is_disabled": 0, "rental_uris": {"android": "https://dc.lft.to/lastmile_qr_scan", "ios": "https://dc.lft.to/lastmile_qr_scan"}, "fusion_lon": 0.0, "lat": 38.895565, "bike_id": "a5446f80fdf313f5c5d525ac5b1d2652", "type": "electric_scooter", "is_reserved": 0, "lon": -76.99840466666667}, {"fusion_lat": 0.0, "name": "57bfe7ce82eec2a83a7799ba920eeae2", "is_disabled": 0, "rental_uris": {"android": "https://dc.lft.to/lastmile_qr_scan", "ios": "https://dc.lft.to/lastmile_qr_scan"}, "fusion_lon": 0.0, "lat": 38.919258166666665, "bike_id": "57bfe7ce82eec2a83a7799ba920eeae2", "type": "electric_scooter", "is_reserved": 0, "lon": -77.01446366666667}, {"fusion_lat": 0.0, "name": "e7bd79f5c19de811a8163780a188e3e2", "is_disabled": 0, "rental_uris": {"android": "https://dc.lft.to/lastmile_qr_scan", "ios": "https://dc.lft.to/lastmile_qr_scan"}, "fusion_lon": 0.0, "lat": 38.925987166666665, "bike_id": "e7bd79f5c19de811a8163780a188e3e2", "type": "electric_scooter", "is_reserved": 0, "lon": -77.07334066666667}, {"fusion_lat": 0.0, "name": "7d76d8b98d4a0f95635c7c96ba8a2e84", "is_disabled": 0, "rental_uris": {"android": "https://dc.lft.to/lastmile_qr_scan", "ios": "https://dc.lft.to/lastmile_qr_scan"}, "fusion_lon": 0.0, "lat": 38.92238916666667, "bike_id": "7d76d8b98d4a0f95635c7c96ba8a2e84", "type": "electric_scooter", "is_reserved": 0, "lon": -77.04249566666667}, {"fusion_lat": 0.0, "name": "2a5f0158f4db39f0589ed3714aae84d6", "is_disabled": 0, "rental_uris": {"android": "https://dc.lft.to/lastmile_qr_scan", "ios": "https://dc.lft.to/lastmile_qr_scan"}, "fusion_lon": 0.0, "lat": 38.904686166666664, "bike_id": "2a5f0158f4db39f0589ed3714aae84d6", "type": "electric_scooter", "is_reserved": 0, "lon": -77.01700333333334}, {"fusion_lat": 0.0, "name": "806970cebb0e3ac11083931744b53aec", "is_disabled": 0, "rental_uris": {"android": "https://dc.lft.to/lastmile_qr_scan", "ios": "https://dc.lft.to/lastmile_qr_scan"}, "fusion_lon": 0.0, "lat": 38.892273, "bike_id": "806970cebb0e3ac11083931744b53aec", "type": "electric_scooter", "is_reserved": 0, "lon": -77.0503385}, {"fusion_lat": 0.0, "name": "ff3f34dc15b1699324c004d54bc28f5b", "is_disabled": 0, "rental_uris": {"android": "https://dc.lft.to/lastmile_qr_scan", "ios": "https://dc.lft.to/lastmile_qr_scan"}, "fusion_lon": 0.0, "lat": 38.94979216666667, "bike_id": "ff3f34dc15b1699324c004d54bc28f5b", "type": "electric_scooter", "is_reserved": 0, "lon": -77.02445283333333}, {"fusion_lat": 0.0, "name": "ac37065b1ff4377cd7784d4442621437", "is_disabled": 0, "rental_uris": {"android": "https://dc.lft.to/lastmile_qr_scan", "ios": "https://dc.lft.to/lastmile_qr_scan"}, "fusion_lon": 0.0, "lat": 38.877977333333334, "bike_id": "ac37065b1ff4377cd7784d4442621437", "type": "electric_scooter", "is_reserved": 0, "lon": -77.00126266666666}, {"fusion_lat": 0.0, "name": "09990d30402dcb12571a85447968e084", "is_disabled": 0, "rental_uris": {"android": "https://dc.lft.to/lastmile_qr_scan", "ios": "https://dc.lft.to/lastmile_qr_scan"}, "fusion_lon": 0.0, "lat": 38.927542, "bike_id": "09990d30402dcb12571a85447968e084", "type": "electric_scooter", "is_reserved": 0, "lon": -77.03295633333333}, {"fusion_lat": 0.0, "name": "6a12e40d2e43f9fbd112b6f6c4b214f5", "is_disabled": 0, "rental_uris": {"android": "https://dc.lft.to/lastmile_qr_scan", "ios": "https://dc.lft.to/lastmile_qr_scan"}, "fusion_lon": 0.0, "lat": 38.931002166666666, "bike_id": "6a12e40d2e43f9fbd112b6f6c4b214f5", "type": "electric_scooter", "is_reserved": 0, "lon": -77.02475466666667}, {"fusion_lat": 0.0, "name": "df73df857464e7099bcb88dff04305bc", "is_disabled": 0, "rental_uris": {"android": "https://dc.lft.to/lastmile_qr_scan", "ios": "https://dc.lft.to/lastmile_qr_scan"}, "fusion_lon": 0.0, "lat": 38.8871535, "bike_id": "df73df857464e7099bcb88dff04305bc", "type": "electric_scooter", "is_reserved": 0, "lon": -76.99671883333333}, {"fusion_lat": 0.0, "name": "4f1187faa88f5ac4a21e01cc3b30db47", "is_disabled": 0, "rental_uris": {"android": "https://dc.lft.to/lastmile_qr_scan", "ios": "https://dc.lft.to/lastmile_qr_scan"}, "fusion_lon": 0.0, "lat": 38.946088, "bike_id": "4f1187faa88f5ac4a21e01cc3b30db47", "type": "electric_bike", "is_reserved": 0, "lon": -77.02871416666666}, {"fusion_lat": 0.0, "name": "729398d39dbd3713f8265a70adf6c1de", "is_disabled": 0, "rental_uris": {"android": "https://dc.lft.to/lastmile_qr_scan", "ios": "https://dc.lft.to/lastmile_qr_scan"}, "fusion_lon": 0.0, "lat": 38.961284666666664, "bike_id": "729398d39dbd3713f8265a70adf6c1de", "type": "electric_bike", "is_reserved": 0, "lon": -77.08477783333333}, {"fusion_lat": 0.0, "name": "ab04fcb034cedb37cd3401663ed207ca", "is_disabled": 0, "rental_uris": {"android": "https://dc.lft.to/lastmile_qr_scan", "ios": "https://dc.lft.to/lastmile_qr_scan"}, "fusion_lon": 0.0, "lat": 38.92261516666667, "bike_id": "ab04fcb034cedb37cd3401663ed207ca", "type": "electric_scooter", "is_reserved": 0, "lon": -77.07488633333334}, {"fusion_lat": 0.0, "name": "f4da646209c14f3a2db3d05a164f6467", "is_disabled": 0, "rental_uris": {"android": "https://dc.lft.to/lastmile_qr_scan", "ios": "https://dc.lft.to/lastmile_qr_scan"}, "fusion_lon": 0.0, "lat": 38.91953783333334, "bike_id": "f4da646209c14f3a2db3d05a164f6467", "type": "electric_scooter", "is_reserved": 0, "lon": -77.02502716666666}, {"fusion_lat": 0.0, "name": "234572d0e12882f31a293ff2cf13d9eb", "is_disabled": 0, "rental_uris": {"android": "https://dc.lft.to/lastmile_qr_scan", "ios": "https://dc.lft.to/lastmile_qr_scan"}, "fusion_lon": 0.0, "lat": 38.917461833333334, "bike_id": "234572d0e12882f31a293ff2cf13d9eb", "type": "electric_bike", "is_reserved": 0, "lon": -77.03511633333333}, {"fusion_lat": 0.0, "name": "31eed88cba0286114b6e7d145406250c", "is_disabled": 0, "rental_uris": {"android": "https://dc.lft.to/lastmile_qr_scan", "ios": "https://dc.lft.to/lastmile_qr_scan"}, "fusion_lon": 0.0, "lat": 38.90404516666667, "bike_id": "31eed88cba0286114b6e7d145406250c", "type": "electric_scooter", "is_reserved": 0, "lon": -77.03530216666667}, {"fusion_lat": 0.0, "name": "f3805efaabcf623268c8cc7bd0a09df3", "is_disabled": 0, "rental_uris": {"android": "https://dc.lft.to/lastmile_qr_scan", "ios": "https://dc.lft.to/lastmile_qr_scan"}, "fusion_lon": 0.0, "lat": 38.86626183333333, "bike_id": "f3805efaabcf623268c8cc7bd0a09df3", "type": "electric_bike", "is_reserved": 0, "lon": -76.94567933333333}, {"fusion_lat": 0.0, "name": "72f10ed2097048c5b35afcbbb4a09180", "is_disabled": 0, "rental_uris": {"android": "https://dc.lft.to/lastmile_qr_scan", "ios": "https://dc.lft.to/lastmile_qr_scan"}, "fusion_lon": 0.0, "lat": 38.91914933333334, "bike_id": "72f10ed2097048c5b35afcbbb4a09180", "type": "electric_scooter", "is_reserved": 0, "lon": -77.0345995}, {"fusion_lat": 0.0, "name": "53a2c01c5f4ea43aeb6859f3d84cc8da", "is_disabled": 0, "rental_uris": {"android": "https://dc.lft.to/lastmile_qr_scan", "ios": "https://dc.lft.to/lastmile_qr_scan"}, "fusion_lon": 0.0, "lat": 38.91407066666667, "bike_id": "53a2c01c5f4ea43aeb6859f3d84cc8da", "type": "electric_scooter", "is_reserved": 0, "lon": -77.0456885}, {"fusion_lat": 0.0, "name": "381da6c77ded92af4a7bdd127a6924fc", "is_disabled": 0, "rental_uris": {"android": "https://dc.lft.to/lastmile_qr_scan", "ios": "https://dc.lft.to/lastmile_qr_scan"}, "fusion_lon": 0.0, "lat": 38.91186066666667, "bike_id": "381da6c77ded92af4a7bdd127a6924fc", "type": "electric_scooter", "is_reserved": 0, "lon": -77.04545766666666}, {"fusion_lat": 0.0, "name": "e8b3099a67d55b26e74b1e1702e566c2", "is_disabled": 0, "rental_uris": {"android": "https://dc.lft.to/lastmile_qr_scan", "ios": "https://dc.lft.to/lastmile_qr_scan"}, "fusion_lon": 0.0, "lat": 38.907955, "bike_id": "e8b3099a67d55b26e74b1e1702e566c2", "type": "electric_scooter", "is_reserved": 0, "lon": -77.04325483333334}, {"fusion_lat": 0.0, "name": "6c2b77f2a0e7b4165b74680e92d7f698", "is_disabled": 0, "rental_uris": {"android": "https://dc.lft.to/lastmile_qr_scan", "ios": "https://dc.lft.to/lastmile_qr_scan"}, "fusion_lon": 0.0, "lat": 38.90873766666667, "bike_id": "6c2b77f2a0e7b4165b74680e92d7f698", "type": "electric_scooter", "is_reserved": 0, "lon": -77.00920316666667}, {"fusion_lat": 0.0, "name": "736b11eb803635e85fc19e12f6b66e66", "is_disabled": 0, "rental_uris": {"android": "https://dc.lft.to/lastmile_qr_scan", "ios": "https://dc.lft.to/lastmile_qr_scan"}, "fusion_lon": 0.0, "lat": 38.906756333333334, "bike_id": "736b11eb803635e85fc19e12f6b66e66", "type": "electric_scooter", "is_reserved": 0, "lon": -77.0271825}, {"fusion_lat": 0.0, "name": "fdca439c6427fca6e275a0df8fbc8540", "is_disabled": 0, "rental_uris": {"android": "https://dc.lft.to/lastmile_qr_scan", "ios": "https://dc.lft.to/lastmile_qr_scan"}, "fusion_lon": 0.0, "lat": 38.92244016666667, "bike_id": "fdca439c6427fca6e275a0df8fbc8540", "type": "electric_scooter", "is_reserved": 0, "lon": -76.98406816666666}, {"fusion_lat": 0.0, "name": "29ecf142b185feb7a0a14705d9da7ade", "is_disabled": 0, "rental_uris": {"android": "https://dc.lft.to/lastmile_qr_scan", "ios": "https://dc.lft.to/lastmile_qr_scan"}, "fusion_lon": 0.0, "lat": 38.91487266666667, "bike_id": "29ecf142b185feb7a0a14705d9da7ade", "type": "electric_scooter", "is_reserved": 0, "lon": -77.012313}, {"fusion_lat": 0.0, "name": "dabf3def77a63d70b1ceb43eff48c969", "is_disabled": 0, "rental_uris": {"android": "https://dc.lft.to/lastmile_qr_scan", "ios": "https://dc.lft.to/lastmile_qr_scan"}, "fusion_lon": 0.0, "lat": 38.919597833333334, "bike_id": "dabf3def77a63d70b1ceb43eff48c969", "type": "electric_bike", "is_reserved": 0, "lon": -77.1010535}, {"fusion_lat": 0.0, "name": "08c49e4cd5c8e384fa53c3ecd10aa24b", "is_disabled": 0, "rental_uris": {"android": "https://dc.lft.to/lastmile_qr_scan", "ios": "https://dc.lft.to/lastmile_qr_scan"}, "fusion_lon": 0.0, "lat": 38.897448833333335, "bike_id": "08c49e4cd5c8e384fa53c3ecd10aa24b", "type": "electric_scooter", "is_reserved": 0, "lon": -77.04630916666666}, {"fusion_lat": 0.0, "name": "07e1b70f614d3b2f9dae8c664bdbf2d5", "is_disabled": 0, "rental_uris": {"android": "https://dc.lft.to/lastmile_qr_scan", "ios": "https://dc.lft.to/lastmile_qr_scan"}, "fusion_lon": 0.0, "lat": 38.876551, "bike_id": "07e1b70f614d3b2f9dae8c664bdbf2d5", "type": "electric_scooter", "is_reserved": 0, "lon": -77.00115466666666}, {"fusion_lat": 0.0, "name": "c482703bf4942a62eb8a6fe6fd955a68", "is_disabled": 0, "rental_uris": {"android": "https://dc.lft.to/lastmile_qr_scan", "ios": "https://dc.lft.to/lastmile_qr_scan"}, "fusion_lon": 0.0, "lat": 38.92134933333333, "bike_id": "c482703bf4942a62eb8a6fe6fd955a68", "type": "electric_scooter", "is_reserved": 0, "lon": -77.01802333333333}, {"fusion_lat": 0.0, "name": "4b3d01525ce1b350aa4d5a94547fb8ca", "is_disabled": 0, "rental_uris": {"android": "https://dc.lft.to/lastmile_qr_scan", "ios": "https://dc.lft.to/lastmile_qr_scan"}, "fusion_lon": 0.0, "lat": 38.902283833333335, "bike_id": "4b3d01525ce1b350aa4d5a94547fb8ca", "type": "electric_scooter", "is_reserved": 0, "lon": -77.05128616666667}, {"fusion_lat": 0.0, "name": "2afffd4908e94662ac7093fd4bc91e75", "is_disabled": 0, "rental_uris": {"android": "https://dc.lft.to/lastmile_qr_scan", "ios": "https://dc.lft.to/lastmile_qr_scan"}, "fusion_lon": 0.0, "lat": 38.931173, "bike_id": "2afffd4908e94662ac7093fd4bc91e75", "type": "electric_scooter", "is_reserved": 0, "lon": -77.021365}, {"fusion_lat": 0.0, "name": "af372bd02df390245e7db18183fea314", "is_disabled": 0, "rental_uris": {"android": "https://dc.lft.to/lastmile_qr_scan", "ios": "https://dc.lft.to/lastmile_qr_scan"}, "fusion_lon": 0.0, "lat": 38.923645666666665, "bike_id": "af372bd02df390245e7db18183fea314", "type": "electric_scooter", "is_reserved": 0, "lon": -77.02057266666667}, {"fusion_lat": 0.0, "name": "42d277bb7fb8bbf8994f0febc021016d", "is_disabled": 0, "rental_uris": {"android": "https://dc.lft.to/lastmile_qr_scan", "ios": "https://dc.lft.to/lastmile_qr_scan"}, "fusion_lon": 0.0, "lat": 38.90583083333333, "bike_id": "42d277bb7fb8bbf8994f0febc021016d", "type": "electric_scooter", "is_reserved": 0, "lon": -77.02976516666666}, {"fusion_lat": 0.0, "name": "fdfa64565015dfacb8d9a2684448cff5", "is_disabled": 0, "rental_uris": {"android": "https://dc.lft.to/lastmile_qr_scan", "ios": "https://dc.lft.to/lastmile_qr_scan"}, "fusion_lon": 0.0, "lat": 38.9045625, "bike_id": "fdfa64565015dfacb8d9a2684448cff5", "type": "electric_scooter", "is_reserved": 0, "lon": -77.03365483333333}, {"fusion_lat": 0.0, "name": "4a30ae7f8ae820d85f7439e22098de19", "is_disabled": 0, "rental_uris": {"android": "https://dc.lft.to/lastmile_qr_scan", "ios": "https://dc.lft.to/lastmile_qr_scan"}, "fusion_lon": 0.0, "lat": 38.91359933333333, "bike_id": "4a30ae7f8ae820d85f7439e22098de19", "type": "electric_scooter", "is_reserved": 0, "lon": -77.048792}, {"fusion_lat": 0.0, "name": "bd031ce4268e6fd396318049a820643f", "is_disabled": 0, "rental_uris": {"android": "https://dc.lft.to/lastmile_qr_scan", "ios": "https://dc.lft.to/lastmile_qr_scan"}, "fusion_lon": 0.0, "lat": 38.91273266666666, "bike_id": "bd031ce4268e6fd396318049a820643f", "type": "electric_scooter", "is_reserved": 0, "lon": -77.03389616666666}, {"fusion_lat": 0.0, "name": "ed2a81520ee0623b04c6534e348264ae", "is_disabled": 0, "rental_uris": {"android": "https://dc.lft.to/lastmile_qr_scan", "ios": "https://dc.lft.to/lastmile_qr_scan"}, "fusion_lon": 0.0, "lat": 38.91258333333333, "bike_id": "ed2a81520ee0623b04c6534e348264ae", "type": "electric_scooter", "is_reserved": 0, "lon": -77.0491425}, {"fusion_lat": 0.0, "name": "e07564ca11cf7e14db8478ed5b156751", "is_disabled": 0, "rental_uris": {"android": "https://dc.lft.to/lastmile_qr_scan", "ios": "https://dc.lft.to/lastmile_qr_scan"}, "fusion_lon": 0.0, "lat": 38.89954766666666, "bike_id": "e07564ca11cf7e14db8478ed5b156751", "type": "electric_scooter", "is_reserved": 0, "lon": -77.04875166666666}, {"fusion_lat": 0.0, "name": "ccef8f11290343ced46928d4306320c4", "is_disabled": 0, "rental_uris": {"android": "https://dc.lft.to/lastmile_qr_scan", "ios": "https://dc.lft.to/lastmile_qr_scan"}, "fusion_lon": 0.0, "lat": 38.92307483333333, "bike_id": "ccef8f11290343ced46928d4306320c4", "type": "electric_scooter", "is_reserved": 0, "lon": -77.04256783333334}, {"fusion_lat": 0.0, "name": "09e40b1534fec534bc5eecb0c50f8984", "is_disabled": 0, "rental_uris": {"android": "https://dc.lft.to/lastmile_qr_scan", "ios": "https://dc.lft.to/lastmile_qr_scan"}, "fusion_lon": 0.0, "lat": 38.8765175, "bike_id": "09e40b1534fec534bc5eecb0c50f8984", "type": "electric_scooter", "is_reserved": 0, "lon": -77.00764766666667}, {"fusion_lat": 0.0, "name": "b4085caa2c64302df5c9f671106226da", "is_disabled": 0, "rental_uris": {"android": "https://dc.lft.to/lastmile_qr_scan", "ios": "https://dc.lft.to/lastmile_qr_scan"}, "fusion_lon": 0.0, "lat": 38.9414995, "bike_id": "b4085caa2c64302df5c9f671106226da", "type": "electric_bike", "is_reserved": 0, "lon": -77.00203633333334}, {"fusion_lat": 0.0, "name": "d121432630fe594e9a4720a8f7c3b48f", "is_disabled": 0, "rental_uris": {"android": "https://dc.lft.to/lastmile_qr_scan", "ios": "https://dc.lft.to/lastmile_qr_scan"}, "fusion_lon": 0.0, "lat": 38.92977316666666, "bike_id": "d121432630fe594e9a4720a8f7c3b48f", "type": "electric_scooter", "is_reserved": 0, "lon": -77.03133316666667}, {"fusion_lat": 0.0, "name": "dde1e1fb70931d33bb2321e0e9d83338", "is_disabled": 0, "rental_uris": {"android": "https://dc.lft.to/lastmile_qr_scan", "ios": "https://dc.lft.to/lastmile_qr_scan"}, "fusion_lon": 0.0, "lat": 38.9021675, "bike_id": "dde1e1fb70931d33bb2321e0e9d83338", "type": "electric_scooter", "is_reserved": 0, "lon": -77.05989866666667}, {"fusion_lat": 0.0, "name": "d64daaa6575cb1f85c7ae153bc19fbe4", "is_disabled": 0, "rental_uris": {"android": "https://dc.lft.to/lastmile_qr_scan", "ios": "https://dc.lft.to/lastmile_qr_scan"}, "fusion_lon": 0.0, "lat": 38.987909, "bike_id": "d64daaa6575cb1f85c7ae153bc19fbe4", "type": "electric_bike", "is_reserved": 0, "lon": -77.14104216666667}, {"fusion_lat": 0.0, "name": "104abb2ae289744b464cfd630e3b136b", "is_disabled": 0, "rental_uris": {"android": "https://dc.lft.to/lastmile_qr_scan", "ios": "https://dc.lft.to/lastmile_qr_scan"}, "fusion_lon": 0.0, "lat": 38.904122, "bike_id": "104abb2ae289744b464cfd630e3b136b", "type": "electric_scooter", "is_reserved": 0, "lon": -76.97329633333334}, {"fusion_lat": 0.0, "name": "25f88764c2bfe07a2d4cea6699e8dda9", "is_disabled": 0, "rental_uris": {"android": "https://dc.lft.to/lastmile_qr_scan", "ios": "https://dc.lft.to/lastmile_qr_scan"}, "fusion_lon": 0.0, "lat": 38.941703833333335, "bike_id": "25f88764c2bfe07a2d4cea6699e8dda9", "type": "electric_bike", "is_reserved": 0, "lon": -76.96644433333333}, {"fusion_lat": 0.0, "name": "f93eb82eb9703a90a2c95e9da73ddb69", "is_disabled": 0, "rental_uris": {"android": "https://dc.lft.to/lastmile_qr_scan", "ios": "https://dc.lft.to/lastmile_qr_scan"}, "fusion_lon": 0.0, "lat": 38.8850825, "bike_id": "f93eb82eb9703a90a2c95e9da73ddb69", "type": "electric_scooter", "is_reserved": 0, "lon": -76.99761716666667}, {"fusion_lat": 0.0, "name": "c6b102cff380a4038f7d7e585a9bb2dd", "is_disabled": 0, "rental_uris": {"android": "https://dc.lft.to/lastmile_qr_scan", "ios": "https://dc.lft.to/lastmile_qr_scan"}, "fusion_lon": 0.0, "lat": 38.91578366666667, "bike_id": "c6b102cff380a4038f7d7e585a9bb2dd", "type": "electric_scooter", "is_reserved": 0, "lon": -77.01251016666667}, {"fusion_lat": 0.0, "name": "0b6f6f1ed9286dbf9380176f82e0d4fb", "is_disabled": 0, "rental_uris": {"android": "https://dc.lft.to/lastmile_qr_scan", "ios": "https://dc.lft.to/lastmile_qr_scan"}, "fusion_lon": 0.0, "lat": 38.84757166666667, "bike_id": "0b6f6f1ed9286dbf9380176f82e0d4fb", "type": "electric_scooter", "is_reserved": 0, "lon": -76.99499183333333}, {"fusion_lat": 0.0, "name": "1dddd79cc467a1be651b1f8a67f497af", "is_disabled": 0, "rental_uris": {"android": "https://dc.lft.to/lastmile_qr_scan", "ios": "https://dc.lft.to/lastmile_qr_scan"}, "fusion_lon": 0.0, "lat": 38.9370875, "bike_id": "1dddd79cc467a1be651b1f8a67f497af", "type": "electric_scooter", "is_reserved": 0, "lon": -77.06099033333334}, {"fusion_lat": 0.0, "name": "3a480f0a3e7ea4204a77d54e0b8c2483", "is_disabled": 0, "rental_uris": {"android": "https://dc.lft.to/lastmile_qr_scan", "ios": "https://dc.lft.to/lastmile_qr_scan"}, "fusion_lon": 0.0, "lat": 38.901326166666664, "bike_id": "3a480f0a3e7ea4204a77d54e0b8c2483", "type": "electric_scooter", "is_reserved": 0, "lon": -77.0402555}, {"fusion_lat": 0.0, "name": "3d280d3ed7a4d89a044ee9c0043e18e8", "is_disabled": 0, "rental_uris": {"android": "https://dc.lft.to/lastmile_qr_scan", "ios": "https://dc.lft.to/lastmile_qr_scan"}, "fusion_lon": 0.0, "lat": 38.9411, "bike_id": "3d280d3ed7a4d89a044ee9c0043e18e8", "type": "electric_scooter", "is_reserved": 0, "lon": -77.0347375}, {"fusion_lat": 0.0, "name": "8486eff08bdef44e5ef47fabae180a21", "is_disabled": 0, "rental_uris": {"android": "https://dc.lft.to/lastmile_qr_scan", "ios": "https://dc.lft.to/lastmile_qr_scan"}, "fusion_lon": 0.0, "lat": 38.93583433333333, "bike_id": "8486eff08bdef44e5ef47fabae180a21", "type": "electric_scooter", "is_reserved": 0, "lon": -77.02372966666667}, {"fusion_lat": 0.0, "name": "e2934dd549f292251abe026f80939ace", "is_disabled": 0, "rental_uris": {"android": "https://dc.lft.to/lastmile_qr_scan", "ios": "https://dc.lft.to/lastmile_qr_scan"}, "fusion_lon": 0.0, "lat": 38.903160166666666, "bike_id": "e2934dd549f292251abe026f80939ace", "type": "electric_scooter", "is_reserved": 0, "lon": -77.03200233333334}, {"fusion_lat": 0.0, "name": "424a3d81e709b8287046a1a15b5f3ce5", "is_disabled": 0, "rental_uris": {"android": "https://dc.lft.to/lastmile_qr_scan", "ios": "https://dc.lft.to/lastmile_qr_scan"}, "fusion_lon": 0.0, "lat": 38.887581, "bike_id": "424a3d81e709b8287046a1a15b5f3ce5", "type": "electric_scooter", "is_reserved": 0, "lon": -76.99781683333333}, {"fusion_lat": 0.0, "name": "a89c08ca6335fcdd3ce18caa5004de63", "is_disabled": 0, "rental_uris": {"android": "https://dc.lft.to/lastmile_qr_scan", "ios": "https://dc.lft.to/lastmile_qr_scan"}, "fusion_lon": 0.0, "lat": 38.9066875, "bike_id": "a89c08ca6335fcdd3ce18caa5004de63", "type": "electric_scooter", "is_reserved": 0, "lon": -77.02950066666666}, {"fusion_lat": 0.0, "name": "064ebe51921f48f2e362d5bc598ee4d3", "is_disabled": 0, "rental_uris": {"android": "https://dc.lft.to/lastmile_qr_scan", "ios": "https://dc.lft.to/lastmile_qr_scan"}, "fusion_lon": 0.0, "lat": 38.91715, "bike_id": "064ebe51921f48f2e362d5bc598ee4d3", "type": "electric_scooter", "is_reserved": 0, "lon": -77.02742}, {"fusion_lat": 0.0, "name": "b9551b39a1867efc9359fed7fbafea60", "is_disabled": 0, "rental_uris": {"android": "https://dc.lft.to/lastmile_qr_scan", "ios": "https://dc.lft.to/lastmile_qr_scan"}, "fusion_lon": 0.0, "lat": 38.88990033333333, "bike_id": "b9551b39a1867efc9359fed7fbafea60", "type": "electric_scooter", "is_reserved": 0, "lon": -76.92983266666667}, {"fusion_lat": 0.0, "name": "29a0b05f9354b89cb16e6e44bbd2f885", "is_disabled": 0, "rental_uris": {"android": "https://dc.lft.to/lastmile_qr_scan", "ios": "https://dc.lft.to/lastmile_qr_scan"}, "fusion_lon": 0.0, "lat": 38.923521666666666, "bike_id": "29a0b05f9354b89cb16e6e44bbd2f885", "type": "electric_scooter", "is_reserved": 0, "lon": -76.99254066666667}, {"fusion_lat": 0.0, "name": "d7cdac76c5fe174667749853b8ef78df", "is_disabled": 0, "rental_uris": {"android": "https://dc.lft.to/lastmile_qr_scan", "ios": "https://dc.lft.to/lastmile_qr_scan"}, "fusion_lon": 0.0, "lat": 38.945196833333334, "bike_id": "d7cdac76c5fe174667749853b8ef78df", "type": "electric_scooter", "is_reserved": 0, "lon": -77.03889866666667}, {"fusion_lat": 0.0, "name": "6c7effeacf2c716651412f724690da46", "is_disabled": 0, "rental_uris": {"android": "https://dc.lft.to/lastmile_qr_scan", "ios": "https://dc.lft.to/lastmile_qr_scan"}, "fusion_lon": 0.0, "lat": 38.917974666666666, "bike_id": "6c7effeacf2c716651412f724690da46", "type": "electric_scooter", "is_reserved": 0, "lon": -77.00928016666667}, {"fusion_lat": 0.0, "name": "843e0f631ddc1821b3fdbadda8315a6a", "is_disabled": 0, "rental_uris": {"android": "https://dc.lft.to/lastmile_qr_scan", "ios": "https://dc.lft.to/lastmile_qr_scan"}, "fusion_lon": 0.0, "lat": 38.890677333333336, "bike_id": "843e0f631ddc1821b3fdbadda8315a6a", "type": "electric_scooter", "is_reserved": 0, "lon": -76.94443583333333}, {"fusion_lat": 0.0, "name": "30fa2b74b7285f98ac1bba1eda20bd51", "is_disabled": 0, "rental_uris": {"android": "https://dc.lft.to/lastmile_qr_scan", "ios": "https://dc.lft.to/lastmile_qr_scan"}, "fusion_lon": 0.0, "lat": 38.89743516666667, "bike_id": "30fa2b74b7285f98ac1bba1eda20bd51", "type": "electric_scooter", "is_reserved": 0, "lon": -77.04531683333333},