{"data": {"bikes": [{"name": "27205cd9339ef5e6bb4782bc57b8ca8b", "type": "electric_scooter", "lat": 38.92428666666667, "is_reserved": 0, "lon": -77.04010883333333, "fusion_lon": 0.0, "is_disabled": 0, "fusion_lat": 0.0, "bike_id": "27205cd9339ef5e6bb4782bc57b8ca8b", "rental_uris": {"ios": "https://dc.lft.to/lastmile_qr_scan", "android": "https://dc.lft.to/lastmile_qr_scan"}}, {"name": "cfbd097b1efde37f492e913602d96ad7", "type": "electric_scooter", "lat": 38.93855383333333, "is_reserved": 0, "lon": -77.02480616666666, "fusion_lon": 0.0, "is_disabled": 0, "fusion_lat": 0.0, "bike_id": "cfbd097b1efde37f492e913602d96ad7", "rental_uris": {"ios": "https://dc.lft.to/lastmile_qr_scan", "android": "https://dc.lft.to/lastmile_qr_scan"}}, {"name": "d6bb94e55b70aa5fafc4c9739791ce29", "type": "electric_bike", "lat": 38.99061233333333, "is_reserved": 0, "lon": -77.100279, "fusion_lon": 0.0, "is_disabled": 0, "fusion_lat": 0.0, "bike_id": "d6bb94e55b70aa5fafc4c9739791ce29", "rental_uris": {"ios": "https://dc.lft.to/lastmile_qr_scan", "android": "https://dc.lft.to/lastmile_qr_scan"}}, {"name": "f9f7d06d785130e1306574665fc9d881", "type": "electric_scooter", "lat": 38.8764925, "is_reserved": 0, "lon": -76.96507183333334, "fusion_lon": 0.0, "is_disabled": 0, "fusion_lat": 0.0, "bike_id": "f9f7d06d785130e1306574665fc9d881", "rental_uris": {"ios": "https://dc.lft.to/lastmile_qr_scan", "android": "https://dc.lft.to/lastmile_qr_scan"}}, {"name": "8bb64e83311168fff0416727b27a3b98", "type": "electric_scooter", "lat": 38.93948733333333, "is_reserved": 0, "lon": -77.032702, "fusion_lon": 0.0, "is_disabled": 0, "fusion_lat": 0.0, "bike_id": "8bb64e83311168fff0416727b27a3b98", "rental_uris": {"ios": "https://dc.lft.to/lastmile_qr_scan", "android": "https://dc.lft.to/lastmile_qr_scan"}}, {"name": "7af39e1a34c40f4f042a860e8cfa5846", "type": "electric_scooter", "lat": 38.917954333333334, "is_reserved": 0, "lon": -77.027176, "fusion_lon": 0.0, "is_disabled": 0, "fusion_lat": 0.0, "bike_id": "7af39e1a34c40f4f042a860e8cfa5846", "rental_uris": {"ios": "https://dc.lft.to/lastmile_qr_scan", "android": "https://dc.lft.to/lastmile_qr_scan"}}, {"name": "5f381d5469bd0e88b010a42aa981e880", "type": "electric_scooter", "lat": 38.94075183333333, "is_reserved": 0, "lon": -77.0270235, "fusion_lon": 0.0, "is_disabled": 0, "fusion_lat": 0.0, "bike_id": "5f381d5469bd0e88b010a42aa981e880", "rental_uris": {"ios": "https://dc.lft.to/lastmile_qr_scan", "android": "https://dc.lft.to/lastmile_qr_scan"}}, {"name": "001fa37b0c84aaed717c27a32d405ab6", "type": "electric_scooter", "lat": 38.91121866666667, "is_reserved": 0, "lon": -77.03717716666667, "fusion_lon": 0.0, "is_disabled": 0, "fusion_lat": 0.0, "bike_id": "001fa37b0c84aaed717c27a32d405ab6", "rental_uris": {"ios": "https://dc.lft.to/lastmile_qr_scan", "android": "https://dc.lft.to/lastmile_qr_scan"}}, {"name": "9fe4873a1bfb3d0990cde0fe045382fc", "type": "electric_scooter", "lat": 38.881739333333336, "is_reserved": 0, "lon": -77.017456, "fusion_lon": 0.0, "is_disabled": 0, "fusion_lat": 0.0, "bike_id": "9fe4873a1bfb3d0990cde0fe045382fc", "rental_uris": {"ios": "https://dc.lft.to/lastmile_qr_scan", "android": "https://dc.lft.to/lastmile_qr_scan"}}, {"name": "ce328ba7b19d34d95e3af9237fdde7e0", "type": "electric_scooter", "lat": 38.9379165, "is_reserved": 0, "lon": -77.05989033333333, "fusion_lon": 0.0, "is_disabled": 0, "fusion_lat": 0.0, "bike_id": "ce328ba7b19d34d95e3af9237fdde7e0", "rental_uris": {"ios": "https://dc.lft.to/lastmile_qr_scan", "android": "https://dc.lft.to/lastmile_qr_scan"}}, {"name": "6628f343ef5bb9eba040a6eb2ff36cea", "type": "electric_scooter", "lat": 38.862437166666666, "is_reserved": 0, "lon": -76.99494933333334, "fusion_lon": 0.0, "is_disabled": 0, "fusion_lat": 0.0, "bike_id": "6628f343ef5bb9eba040a6eb2ff36cea", "rental_uris": {"ios": "https://dc.lft.to/lastmile_qr_scan", "android": "https://dc.lft.to/lastmile_qr_scan"}}, {"name": "71ca0629f88d5566d08f4d99c4e6d9f8", "type": "electric_scooter", "lat": 38.92953516666667, "is_reserved": 0, "lon": -77.0346595, "fusion_lon": 0.0, "is_disabled": 0, "fusion_lat": 0.0, "bike_id": "71ca0629f88d5566d08f4d99c4e6d9f8", "rental_uris": {"ios": "https://dc.lft.to/lastmile_qr_scan", "android": "https://dc.lft.to/lastmile_qr_scan"}}, {"name": "b511d7c5314757ad2e0c6aec6b14a29b", "type": "electric_scooter", "lat": 38.883237666666666, "is_reserved": 0, "lon": -77.01746966666667, "fusion_lon": 0.0, "is_disabled": 0, "fusion_lat": 0.0, "bike_id": "b511d7c5314757ad2e0c6aec6b14a29b", "rental_uris": {"ios": "https://dc.lft.to/lastmile_qr_scan", "android": "https://dc.lft.to/lastmile_qr_scan"}}, {"name": "d9fc98e99c7cf10c83cea1bcd9f998be", "type": "electric_scooter", "lat": 38.93610066666667, "is_reserved": 0, "lon": -77.05858566666667, "fusion_lon": 0.0, "is_disabled": 0, "fusion_lat": 0.0, "bike_id": "d9fc98e99c7cf10c83cea1bcd9f998be", "rental_uris": {"ios": "https://dc.lft.to/lastmile_qr_scan", "android": "https://dc.lft.to/lastmile_qr_scan"}}, {"name": "25116b7c2e2d8cb68e9122ccac8c7b10", "type": "electric_scooter", "lat": 38.911012666666664, "is_reserved": 0, "lon": -77.036589, "fusion_lon": 0.0, "is_disabled": 0, "fusion_lat": 0.0, "bike_id": "25116b7c2e2d8cb68e9122ccac8c7b10", "rental_uris": {"ios": "https://dc.lft.to/lastmile_qr_scan", "android": "https://dc.lft.to/lastmile_qr_scan"}}, {"name": "d632969a600669ba2752399794cbb808", "type": "electric_bike", "lat": 38.807476333333334, "is_reserved": 0, "lon": -77.09423133333334, "fusion_lon": 0.0, "is_disabled": 0, "fusion_lat": 0.0, "bike_id": "d632969a600669ba2752399794cbb808", "rental_uris": {"ios": "https://dc.lft.to/lastmile_qr_scan", "android": "https://dc.lft.to/lastmile_qr_scan"}}, {"name": "0d159ab2e245d3f0bbb0ee37be51ca00", "type": "electric_scooter", "lat": 38.9054205, "is_reserved": 0, "lon": -77.02194883333334, "fusion_lon": 0.0, "is_disabled": 0, "fusion_lat": 0.0, "bike_id": "0d159ab2e245d3f0bbb0ee37be51ca00", "rental_uris": {"ios": "https://dc.lft.to/lastmile_qr_scan", "android": "https://dc.lft.to/lastmile_qr_scan"}}, {"name": "741fd9c1359da96055ff2390a9873ffd", "type": "electric_scooter", "lat": 38.866566, "is_reserved": 0, "lon": -76.98882583333334, "fusion_lon": 0.0, "is_disabled": 0, "fusion_lat": 0.0, "bike_id": "741fd9c1359da96055ff2390a9873ffd", "rental_uris": {"ios": "https://dc.lft.to/lastmile_qr_scan", "android": "https://dc.lft.to/lastmile_qr_scan"}}, {"name": "0f343b346df2aefed4ff1c0b656922f6", "type": "electric_scooter", "lat": 38.9247085, "is_reserved": 0, "lon": -77.03907466666666, "fusion_lon": 0.0, "is_disabled": 0, "fusion_lat": 0.0, "bike_id": "0f343b346df2aefed4ff1c0b656922f6", "rental_uris": {"ios": "https://dc.lft.to/lastmile_qr_scan", "android": "https://dc.lft.to/lastmile_qr_scan"}}, {"name": "63d22383908244ae3fcbde2e61736acb", "type": "electric_scooter", "lat": 38.89981433333333, "is_reserved": 0, "lon": -77.0198705, "fusion_lon": 0.0, "is_disabled": 0, "fusion_lat": 0.0, "bike_id": "63d22383908244ae3fcbde2e61736acb", "rental_uris": {"ios": "https://dc.lft.to/lastmile_qr_scan", "android": "https://dc.lft.to/lastmile_qr_scan"}}, {"name": "e7a3759065f4a49eb7c8196748603f88", "type": "electric_scooter", "lat": 38.91270866666667, "is_reserved": 0, "lon": -77.031361, "fusion_lon": 0.0, "is_disabled": 0, "fusion_lat": 0.0, "bike_id": "e7a3759065f4a49eb7c8196748603f88", "rental_uris": {"ios": "https://dc.lft.to/lastmile_qr_scan", "android": "https://dc.lft.to/lastmile_qr_scan"}}, {"name": "defa37f7dc4fd93b34d374e27f29bff0", "type": "electric_scooter", "lat": 38.90691233333333, "is_reserved": 0, "lon": -77.04474283333333, "fusion_lon": 0.0, "is_disabled": 0, "fusion_lat": 0.0, "bike_id": "defa37f7dc4fd93b34d374e27f29bff0", "rental_uris": {"ios": "https://dc.lft.to/lastmile_qr_scan", "android": "https://dc.lft.to/lastmile_qr_scan"}}, {"name": "c5618a2520ff2179abe4107ac275f667", "type": "electric_scooter", "lat": 38.894509, "is_reserved": 0, "lon": -77.021989, "fusion_lon": 0.0, "is_disabled": 0, "fusion_lat": 0.0, "bike_id": "c5618a2520ff2179abe4107ac275f667", "rental_uris": {"ios": "https://dc.lft.to/lastmile_qr_scan", "android": "https://dc.lft.to/lastmile_qr_scan"}}, {"name": "f410c6dca371ab1f57e1d6010180077a", "type": "electric_scooter", "lat": 38.91400483333334, "is_reserved": 0, "lon": -77.00833083333333, "fusion_lon": 0.0, "is_disabled": 0, "fusion_lat": 0.0, "bike_id": "f410c6dca371ab1f57e1d6010180077a", "rental_uris": {"ios": "https://dc.lft.to/lastmile_qr_scan", "android": "https://dc.lft.to/lastmile_qr_scan"}}, {"name": "d9664ef429a1fd29a38f95b4bb4f54f8", "type": "electric_scooter", "lat": 38.9030905, "is_reserved": 0, "lon": -77.02219783333334, "fusion_lon": 0.0, "is_disabled": 0, "fusion_lat": 0.0, "bike_id": "d9664ef429a1fd29a38f95b4bb4f54f8", "rental_uris": {"ios": "https://dc.lft.to/lastmile_qr_scan", "android": "https://dc.lft.to/lastmile_qr_scan"}}, {"name": "6159134c67affefaf548bd1552989f37", "type": "electric_scooter", "lat": 38.959365, "is_reserved": 0, "lon": -77.03120966666667, "fusion_lon": 0.0, "is_disabled": 0, "fusion_lat": 0.0, "bike_id": "6159134c67affefaf548bd1552989f37", "rental_uris": {"ios": "https://dc.lft.to/lastmile_qr_scan", "android": "https://dc.lft.to/lastmile_qr_scan"}}, {"name": "67ee7b80b9cb0232c172dfd6c30f249b", "type": "electric_scooter", "lat": 38.8982255, "is_reserved": 0, "lon": -77.031001, "fusion_lon": 0.0, "is_disabled": 0, "fusion_lat": 0.0, "bike_id": "67ee7b80b9cb0232c172dfd6c30f249b", "rental_uris": {"ios": "https://dc.lft.to/lastmile_qr_scan", "android": "https://dc.lft.to/lastmile_qr_scan"}}, {"name": "4c5d12e99bf787da760c6863ded5b66a", "type": "electric_bike", "lat": 38.86756883333334, "is_reserved": 0, "lon": -76.94535683333334, "fusion_lon": 0.0, "is_disabled": 0, "fusion_lat": 0.0, "bike_id": "4c5d12e99bf787da760c6863ded5b66a", "rental_uris": {"ios": "https://dc.lft.to/lastmile_qr_scan", "android": "https://dc.lft.to/lastmile_qr_scan"}}, {"name": "ab9adc0170737a7236c1fde5ffd967e5", "type": "electric_scooter", "lat": 38.91766283333333, "is_reserved": 0, "lon": -77.02711766666667, "fusion_lon": 0.0, "is_disabled": 0, "fusion_lat": 0.0, "bike_id": "ab9adc0170737a7236c1fde5ffd967e5", "rental_uris": {"ios": "https://dc.lft.to/lastmile_qr_scan", "android": "https://dc.lft.to/lastmile_qr_scan"}}, {"name": "bbb5b11b81b946005cf55d85b2ceda05", "type": "electric_scooter", "lat": 38.90867266666667, "is_reserved": 0, "lon": -77.02504483333334, "fusion_lon": 0.0, "is_disabled": 0, "fusion_lat": 0.0, "bike_id": "bbb5b11b81b946005cf55d85b2ceda05", "rental_uris": {"ios": "https://dc.lft.to/lastmile_qr_scan", "android": "https://dc.lft.to/lastmile_qr_scan"}}, {"name": "c783b6d607119f27d330c663b2bd0b00", "type": "electric_scooter", "lat": 38.974728666666664, "is_reserved": 0, "lon": -77.01898116666666, "fusion_lon": 0.0, "is_disabled": 0, "fusion_lat": 0.0, "bike_id": "c783b6d607119f27d330c663b2bd0b00", "rental_uris": {"ios": "https://dc.lft.to/lastmile_qr_scan", "android": "https://dc.lft.to/lastmile_qr_scan"}}, {"name": "38104b72446c483c0fc9fc9786b268ea", "type": "electric_scooter", "lat": 38.944433, "is_reserved": 0, "lon": -77.06357833333334, "fusion_lon": 0.0, "is_disabled": 0, "fusion_lat": 0.0, "bike_id": "38104b72446c483c0fc9fc9786b268ea", "rental_uris": {"ios": "https://dc.lft.to/lastmile_qr_scan", "android": "https://dc.lft.to/lastmile_qr_scan"}}, {"name": "7431d02bbd5e85cbbe627bc2adcebe3d", "type": "electric_scooter", "lat": 38.84292633333333, "is_reserved": 0, "lon": -76.9994495, "fusion_lon": 0.0, "is_disabled": 0, "fusion_lat": 0.0, "bike_id": "7431d02bbd5e85cbbe627bc2adcebe3d", "rental_uris": {"ios": "https://dc.lft.to/lastmile_qr_scan", "android": "https://dc.lft.to/lastmile_qr_scan"}}, {"name": "cc52171e0ac659efa4bfb7a979a1718f", "type": "electric_scooter", "lat": 38.9042385, "is_reserved": 0, "lon": -77.02470883333334, "fusion_lon": 0.0, "is_disabled": 0, "fusion_lat": 0.0, "bike_id": "cc52171e0ac659efa4bfb7a979a1718f", "rental_uris": {"ios": "https://dc.lft.to/lastmile_qr_scan", "android": "https://dc.lft.to/lastmile_qr_scan"}}, {"name": "53e51cc52285f45fff2ce37b0a15400b", "type": "electric_scooter", "lat": 38.9014775, "is_reserved": 0, "lon": -77.04431483333333, "fusion_lon": 0.0, "is_disabled": 0, "fusion_lat": 0.0, "bike_id": "53e51cc52285f45fff2ce37b0a15400b", "rental_uris": {"ios": "https://dc.lft.to/lastmile_qr_scan", "android": "https://dc.lft.to/lastmile_qr_scan"}}, {"name": "b2fe1c7547abaee68db870cace843486", "type": "electric_scooter", "lat": 38.932278333333336, "is_reserved": 0, "lon": -77.02845916666666, "fusion_lon": 0.0, "is_disabled": 0, "fusion_lat": 0.0, "bike_id": "b2fe1c7547abaee68db870cace843486", "rental_uris": {"ios": "https://dc.lft.to/lastmile_qr_scan", "android": "https://dc.lft.to/lastmile_qr_scan"}}, {"name": "e0b7297d30ee1b970360fbe20c35f411", "type": "electric_scooter", "lat": 38.89737566666667, "is_reserved": 0, "lon": -76.947224, "fusion_lon": 0.0, "is_disabled": 0, "fusion_lat": 0.0, "bike_id": "e0b7297d30ee1b970360fbe20c35f411", "rental_uris": {"ios": "https://dc.lft.to/lastmile_qr_scan", "android": "https://dc.lft.to/lastmile_qr_scan"}}, {"name": "2cac388c74bf2cde0fac568320dd32d1", "type": "electric_scooter", "lat": 38.90250416666667, "is_reserved": 0, "lon": -77.03148533333334, "fusion_lon": 0.0, "is_disabled": 0, "fusion_lat": 0.0, "bike_id": "2cac388c74bf2cde0fac568320dd32d1", "rental_uris": {"ios": "https://dc.lft.to/lastmile_qr_scan", "android": "https://dc.lft.to/lastmile_qr_scan"}}, {"name": "6c82f1fbd5d069e3d70544d3e8d09c9f", "type": "electric_scooter", "lat": 38.92029433333333, "is_reserved": 0, "lon": -77.01119, "fusion_lon": 0.0, "is_disabled": 0, "fusion_lat": 0.0, "bike_id": "6c82f1fbd5d069e3d70544d3e8d09c9f", "rental_uris": {"ios": "https://dc.lft.to/lastmile_qr_scan", "android": "https://dc.lft.to/lastmile_qr_scan"}}, {"name": "7bf8ac3a9ea7bdaaab243eda7d5d9bbc", "type": "electric_scooter", "lat": 38.912146, "is_reserved": 0, "lon": -77.0760345, "fusion_lon": 0.0, "is_disabled": 0, "fusion_lat": 0.0, "bike_id": "7bf8ac3a9ea7bdaaab243eda7d5d9bbc", "rental_uris": {"ios": "https://dc.lft.to/lastmile_qr_scan", "android": "https://dc.lft.to/lastmile_qr_scan"}}, {"name": "43725756aaf7a7dfec4a50597c08c04f", "type": "electric_scooter", "lat": 38.905741166666665, "is_reserved": 0, "lon": -77.05704633333333, "fusion_lon": 0.0, "is_disabled": 0, "fusion_lat": 0.0, "bike_id": "43725756aaf7a7dfec4a50597c08c04f", "rental_uris": {"ios": "https://dc.lft.to/lastmile_qr_scan", "android": "https://dc.lft.to/lastmile_qr_scan"}}, {"name": "5eb3275321e31e6b96a5e6b7e1173f38", "type": "electric_scooter", "lat": 38.91816883333333, "is_reserved": 0, "lon": -77.02311683333333, "fusion_lon": 0.0, "is_disabled": 0, "fusion_lat": 0.0, "bike_id": "5eb3275321e31e6b96a5e6b7e1173f38", "rental_uris": {"ios": "https://dc.lft.to/lastmile_qr_scan", "android": "https://dc.lft.to/lastmile_qr_scan"}}, {"name": "dbee5ea2664da379952aaf67cd2daad9", "type": "electric_scooter", "lat": 38.94282716666667, "is_reserved": 0, "lon": -77.02492, "fusion_lon": 0.0, "is_disabled": 0, "fusion_lat": 0.0, "bike_id": "dbee5ea2664da379952aaf67cd2daad9", "rental_uris": {"ios": "https://dc.lft.to/lastmile_qr_scan", "android": "https://dc.lft.to/lastmile_qr_scan"}}, {"name": "bfabc42c41361e9b965d616014ba3234", "type": "electric_scooter", "lat": 38.930086833333334, "is_reserved": 0, "lon": -77.03276016666666, "fusion_lon": 0.0, "is_disabled": 0, "fusion_lat": 0.0, "bike_id": "bfabc42c41361e9b965d616014ba3234", "rental_uris": {"ios": "https://dc.lft.to/lastmile_qr_scan", "android": "https://dc.lft.to/lastmile_qr_scan"}}, {"name": "74513112383a8d1cf84af9e4c7909bf4", "type": "electric_scooter", "lat": 38.92106883333334, "is_reserved": 0, "lon": -77.0317435, "fusion_lon": 0.0, "is_disabled": 0, "fusion_lat": 0.0, "bike_id": "74513112383a8d1cf84af9e4c7909bf4", "rental_uris": {"ios": "https://dc.lft.to/lastmile_qr_scan", "android": "https://dc.lft.to/lastmile_qr_scan"}}, {"name": "c5c7ba36dc813d2e9a2464a62c929b30", "type": "electric_scooter", "lat": 38.921861, "is_reserved": 0, "lon": -77.04279183333334, "fusion_lon": 0.0, "is_disabled": 0, "fusion_lat": 0.0, "bike_id": "c5c7ba36dc813d2e9a2464a62c929b30", "rental_uris": {"ios": "https://dc.lft.to/lastmile_qr_scan", "android": "https://dc.lft.to/lastmile_qr_scan"}}, {"name": "dd80a64e3ec30305d64188369fbb289c", "type": "electric_scooter", "lat": 38.892222833333335, "is_reserved": 0, "lon": -77.04642833333334, "fusion_lon": 0.0, "is_disabled": 0, "fusion_lat": 0.0, "bike_id": "dd80a64e3ec30305d64188369fbb289c", "rental_uris": {"ios": "https://dc.lft.to/lastmile_qr_scan", "android": "https://dc.lft.to/lastmile_qr_scan"}}, {"name": "28d484daf646aafddb0890c3eebd187f", "type": "electric_scooter", "lat": 38.927364, "is_reserved": 0, "lon": -77.02492866666667, "fusion_lon": 0.0, "is_disabled": 0, "fusion_lat": 0.0, "bike_id": "28d484daf646aafddb0890c3eebd187f", "rental_uris": {"ios": "https://dc.lft.to/lastmile_qr_scan", "android": "https://dc.lft.to/lastmile_qr_scan"}}, {"name": "5b8364105cc7affcde4233be709271a8", "type": "electric_bike", "lat": 38.83938216666667, "is_reserved": 0, "lon": -77.07904133333334, "fusion_lon": 0.0, "is_disabled": 0, "fusion_lat": 0.0, "bike_id": "5b8364105cc7affcde4233be709271a8", "rental_uris": {"ios": "https://dc.lft.to/lastmile_qr_scan", "android": "https://dc.lft.to/lastmile_qr_scan"}}, {"name": "12658b4886033aed971aa1ac97f15b6c", "type": "electric_scooter", "lat": 38.949585, "is_reserved": 0, "lon": -77.02723433333334, "fusion_lon": 0.0, "is_disabled": 0, "fusion_lat": 0.0, "bike_id": "12658b4886033aed971aa1ac97f15b6c", "rental_uris": {"ios": "https://dc.lft.to/lastmile_qr_scan", "android": "https://dc.lft.to/lastmile_qr_scan"}}, {"name": "d4efbab3f66d82ef87fdff552e0b797e", "type": "electric_scooter", "lat": 38.89853566666667, "is_reserved": 0, "lon": -77.0406655, "fusion_lon": 0.0, "is_disabled": 0, "fusion_lat": 0.0, "bike_id": "d4efbab3f66d82ef87fdff552e0b797e", "rental_uris": {"ios": "https://dc.lft.to/lastmile_qr_scan", "android": "https://dc.lft.to/lastmile_qr_scan"}}, {"name": "1ab9f3659f3c73869ea295393cf0aacf", "type": "electric_scooter", "lat": 38.922436, "is_reserved": 0, "lon": -77.04270433333333, "fusion_lon": 0.0, "is_disabled": 0, "fusion_lat": 0.0, "bike_id": "1ab9f3659f3c73869ea295393cf0aacf", "rental_uris": {"ios": "https://dc.lft.to/lastmile_qr_scan", "android": "https://dc.lft.to/lastmile_qr_scan"}}, {"name": "30eff235460dcb339fd1330916dba639", "type": "electric_scooter", "lat": 38.899617, "is_reserved": 0, "lon": -77.04340933333333, "fusion_lon": 0.0, "is_disabled": 0, "fusion_lat": 0.0, "bike_id": "30eff235460dcb339fd1330916dba639", "rental_uris": {"ios": "https://dc.lft.to/lastmile_qr_scan", "android": "https://dc.lft.to/lastmile_qr_scan"}}, {"name": "aaa6b6d52aa117fc07d1e603337aaa26", "type": "electric_scooter", "lat": 38.906703, "is_reserved": 0, "lon": -77.034414, "fusion_lon": 0.0, "is_disabled": 0, "fusion_lat": 0.0, "bike_id": "aaa6b6d52aa117fc07d1e603337aaa26", "rental_uris": {"ios": "https://dc.lft.to/lastmile_qr_scan", "android": "https://dc.lft.to/lastmile_qr_scan"}}, {"name": "45ca2d9d1b386ebbddad746051f22798", "type": "electric_bike", "lat": 38.98506883333334, "is_reserved": 0, "lon": -76.98208133333333, "fusion_lon": 0.0, "is_disabled": 0, "fusion_lat": 0.0, "bike_id": "45ca2d9d1b386ebbddad746051f22798", "rental_uris": {"ios": "https://dc.lft.to/lastmile_qr_scan", "android": "https://dc.lft.to/lastmile_qr_scan"}}, {"name": "a445bdad93df3cb97a676ec4a7cdd362", "type": "electric_scooter", "lat": 38.89731316666666, "is_reserved": 0, "lon": -77.05473716666667, "fusion_lon": 0.0, "is_disabled": 0, "fusion_lat": 0.0, "bike_id": "a445bdad93df3cb97a676ec4a7cdd362", "rental_uris": {"ios": "https://dc.lft.to/lastmile_qr_scan", "android": "https://dc.lft.to/lastmile_qr_scan"}}, {"name": "9e20983b9f679fa53c7e43756dbf11ee", "type": "electric_scooter", "lat": 38.930713, "is_reserved": 0, "lon": -77.03394716666666, "fusion_lon": 0.0, "is_disabled": 0, "fusion_lat": 0.0, "bike_id": "9e20983b9f679fa53c7e43756dbf11ee", "rental_uris": {"ios": "https://dc.lft.to/lastmile_qr_scan", "android": "https://dc.lft.to/lastmile_qr_scan"}}, {"name": "9c9aa2fba50e3db36a060252fba69741", "type": "electric_scooter", "lat": 38.8657005, "is_reserved": 0, "lon": -76.98548866666667, "fusion_lon": 0.0, "is_disabled": 0, "fusion_lat": 0.0, "bike_id": "9c9aa2fba50e3db36a060252fba69741", "rental_uris": {"ios": "https://dc.lft.to/lastmile_qr_scan", "android": "https://dc.lft.to/lastmile_qr_scan"}}, {"name": "24ac0f5aab50aaa875c92b970a0f0239", "type": "electric_scooter", "lat": 38.93247783333333, "is_reserved": 0, "lon": -77.03848883333333, "fusion_lon": 0.0, "is_disabled": 0, "fusion_lat": 0.0, "bike_id": "24ac0f5aab50aaa875c92b970a0f0239", "rental_uris": {"ios": "https://dc.lft.to/lastmile_qr_scan", "android": "https://dc.lft.to/lastmile_qr_scan"}}, {"name": "431a45d54b9ef0664238697b693feb10", "type": "electric_scooter", "lat": 38.9092375, "is_reserved": 0, "lon": -76.99967133333334, "fusion_lon": 0.0, "is_disabled": 0, "fusion_lat": 0.0, "bike_id": "431a45d54b9ef0664238697b693feb10", "rental_uris": {"ios": "https://dc.lft.to/lastmile_qr_scan", "android": "https://dc.lft.to/lastmile_qr_scan"}}, {"name": "6e6e7096896b2f6f537249dff950aeb6", "type": "electric_bike", "lat": 38.965491166666666, "is_reserved": 0, "lon": -77.03516216666667, "fusion_lon": 0.0, "is_disabled": 0, "fusion_lat": 0.0, "bike_id": "6e6e7096896b2f6f537249dff950aeb6", "rental_uris": {"ios": "https://dc.lft.to/lastmile_qr_scan", "android": "https://dc.lft.to/lastmile_qr_scan"}}, {"name": "359ff31f6dfd7a07f0d3eda3810e6d7a", "type": "electric_scooter", "lat": 38.88439833333333, "is_reserved": 0, "lon": -77.02961283333333, "fusion_lon": 0.0, "is_disabled": 0, "fusion_lat": 0.0, "bike_id": "359ff31f6dfd7a07f0d3eda3810e6d7a", "rental_uris": {"ios": "https://dc.lft.to/lastmile_qr_scan", "android": "https://dc.lft.to/lastmile_qr_scan"}}, {"name": "bd8f7dd25d474266c28e890988884d27", "type": "electric_scooter", "lat": 38.8701025, "is_reserved": 0, "lon": -77.01230066666666, "fusion_lon": 0.0, "is_disabled": 0, "fusion_lat": 0.0, "bike_id": "bd8f7dd25d474266c28e890988884d27", "rental_uris": {"ios": "https://dc.lft.to/lastmile_qr_scan", "android": "https://dc.lft.to/lastmile_qr_scan"}}, {"name": "8484311113015dde88193a7f7d5f5ae4", "type": "electric_bike", "lat": 38.8656645, "is_reserved": 0, "lon": -76.97335883333334, "fusion_lon": 0.0, "is_disabled": 0, "fusion_lat": 0.0, "bike_id": "8484311113015dde88193a7f7d5f5ae4", "rental_uris": {"ios": "https://dc.lft.to/lastmile_qr_scan", "android": "https://dc.lft.to/lastmile_qr_scan"}}, {"name": "78b16b2c5bf447baa66b39ca4a5eb859", "type": "electric_scooter", "lat": 38.900367333333335, "is_reserved": 0, "lon": -77.00625383333333, "fusion_lon": 0.0, "is_disabled": 0, "fusion_lat": 0.0, "bike_id": "78b16b2c5bf447baa66b39ca4a5eb859", "rental_uris": {"ios": "https://dc.lft.to/lastmile_qr_scan", "android": "https://dc.lft.to/lastmile_qr_scan"}}, {"name": "b16cea5898bb762a56384a1283c2cb98", "type": "electric_scooter", "lat": 38.94438066666667, "is_reserved": 0, "lon": -77.06354866666666, "fusion_lon": 0.0, "is_disabled": 0, "fusion_lat": 0.0, "bike_id": "b16cea5898bb762a56384a1283c2cb98", "rental_uris": {"ios": "https://dc.lft.to/lastmile_qr_scan", "android": "https://dc.lft.to/lastmile_qr_scan"}}, {"name": "c5cf73ecec229a7cf44cde9ce182f8b9", "type": "electric_scooter", "lat": 38.902969666666664, "is_reserved": 0, "lon": -77.03214833333334, "fusion_lon": 0.0, "is_disabled": 0, "fusion_lat": 0.0, "bike_id": "c5cf73ecec229a7cf44cde9ce182f8b9", "rental_uris": {"ios": "https://dc.lft.to/lastmile_qr_scan", "android": "https://dc.lft.to/lastmile_qr_scan"}}, {"name": "176162c4aa5680233a18b2c7137d825d", "type": "electric_scooter", "lat": 38.862409666666665, "is_reserved": 0, "lon": -76.994931, "fusion_lon": 0.0, "is_disabled": 0, "fusion_lat": 0.0, "bike_id": "176162c4aa5680233a18b2c7137d825d", "rental_uris": {"ios": "https://dc.lft.to/lastmile_qr_scan", "android": "https://dc.lft.to/lastmile_qr_scan"}}, {"name": "bf2f1e57616cb0863fcfdbd6776a9a34", "type": "electric_bike", "lat": 38.813344, "is_reserved": 0, "lon": -77.05113783333333, "fusion_lon": 0.0, "is_disabled": 0, "fusion_lat": 0.0, "bike_id": "bf2f1e57616cb0863fcfdbd6776a9a34", "rental_uris": {"ios": "https://dc.lft.to/lastmile_qr_scan", "android": "https://dc.lft.to/lastmile_qr_scan"}}, {"name": "7baad2e15b7d52e587fec1a26813a518", "type": "electric_scooter", "lat": 38.93277116666667, "is_reserved": 0, "lon": -77.03490283333333, "fusion_lon": 0.0, "is_disabled": 0, "fusion_lat": 0.0, "bike_id": "7baad2e15b7d52e587fec1a26813a518", "rental_uris": {"ios": "https://dc.lft.to/lastmile_qr_scan", "android": "https://dc.lft.to/lastmile_qr_scan"}}, {"name": "ef9aa1b5ef46528c50660f18b0a42a9e", "type": "electric_scooter", "lat": 38.89399783333333, "is_reserved": 0, "lon": -76.947998, "fusion_lon": 0.0, "is_disabled": 0, "fusion_lat": 0.0, "bike_id": "ef9aa1b5ef46528c50660f18b0a42a9e", "rental_uris": {"ios": "https://dc.lft.to/lastmile_qr_scan", "android": "https://dc.lft.to/lastmile_qr_scan"}}, {"name": "cfdab77eb5eb6ca3b9ae40d094c94b4a", "type": "electric_scooter", "lat": 38.91585216666667, "is_reserved": 0, "lon": -77.04473533333334, "fusion_lon": 0.0, "is_disabled": 0, "fusion_lat": 0.0, "bike_id": "cfdab77eb5eb6ca3b9ae40d094c94b4a", "rental_uris": {"ios": "https://dc.lft.to/lastmile_qr_scan", "android": "https://dc.lft.to/lastmile_qr_scan"}}, {"name": "d3d592d1765810bdbb01a3bfb2ad353f", "type": "electric_scooter", "lat": 38.857109666666666, "is_reserved": 0, "lon": -76.9813245, "fusion_lon": 0.0, "is_disabled": 0, "fusion_lat": 0.0, "bike_id": "d3d592d1765810bdbb01a3bfb2ad353f", "rental_uris": {"ios": "https://dc.lft.to/lastmile_qr_scan", "android": "https://dc.lft.to/lastmile_qr_scan"}}, {"name": "c0e8081f61be164af489212ecfe56c63", "type": "electric_scooter", "lat": 38.92000766666666, "is_reserved": 0, "lon": -77.03971733333333, "fusion_lon": 0.0, "is_disabled": 0, "fusion_lat": 0.0, "bike_id": "c0e8081f61be164af489212ecfe56c63", "rental_uris": {"ios": "https://dc.lft.to/lastmile_qr_scan", "android": "https://dc.lft.to/lastmile_qr_scan"}}, {"name": "9328cacc7d4d0d888acad9b2e1324a1d", "type": "electric_scooter", "lat": 38.922365, "is_reserved": 0, "lon": -77.04248833333334, "fusion_lon": 0.0, "is_disabled": 0, "fusion_lat": 0.0, "bike_id": "9328cacc7d4d0d888acad9b2e1324a1d", "rental_uris": {"ios": "https://dc.lft.to/lastmile_qr_scan", "android": "https://dc.lft.to/lastmile_qr_scan"}}, {"name": "fa1881df0a3f2413bc63cfb999a5792d", "type": "electric_scooter", "lat": 38.911156, "is_reserved": 0, "lon": -77.02218316666666, "fusion_lon": 0.0, "is_disabled": 0, "fusion_lat": 0.0, "bike_id": "fa1881df0a3f2413bc63cfb999a5792d", "rental_uris": {"ios": "https://dc.lft.to/lastmile_qr_scan", "android": "https://dc.lft.to/lastmile_qr_scan"}}, {"name": "536597dee63f0f9a40f9c6c19fdaea16", "type": "electric_scooter", "lat": 38.929049, "is_reserved": 0, "lon": -77.03222016666666, "fusion_lon": 0.0, "is_disabled": 0, "fusion_lat": 0.0, "bike_id": "536597dee63f0f9a40f9c6c19fdaea16", "rental_uris": {"ios": "https://dc.lft.to/lastmile_qr_scan", "android": "https://dc.lft.to/lastmile_qr_scan"}}, {"name": "40a016e3f507e2547d2182f3b51253ef", "type": "electric_scooter", "lat": 38.922336666666666, "is_reserved": 0, "lon": -77.033578, "fusion_lon": 0.0, "is_disabled": 0, "fusion_lat": 0.0, "bike_id": "40a016e3f507e2547d2182f3b51253ef", "rental_uris": {"ios": "https://dc.lft.to/lastmile_qr_scan", "android": "https://dc.lft.to/lastmile_qr_scan"}}, {"name": "b9393b0f52eec809deafe4cbed0b19d9", "type": "electric_scooter", "lat": 38.89829266666667, "is_reserved": 0, "lon": -77.00752183333333, "fusion_lon": 0.0, "is_disabled": 0, "fusion_lat": 0.0, "bike_id": "b9393b0f52eec809deafe4cbed0b19d9", "rental_uris": {"ios": "https://dc.lft.to/lastmile_qr_scan", "android": "https://dc.lft.to/lastmile_qr_scan"}}, {"name": "70d0c834a0d96b29d03ae6bd66cf8b79", "type": "electric_scooter", "lat": 38.916816833333336, "is_reserved": 0, "lon": -77.03684733333333, "fusion_lon": 0.0, "is_disabled": 0, "fusion_lat": 0.0, "bike_id": "70d0c834a0d96b29d03ae6bd66cf8b79", "rental_uris": {"ios": "https://dc.lft.to/lastmile_qr_scan", "android": "https://dc.lft.to/lastmile_qr_scan"}}, {"name": "5c53f1821f58475fd43b5fb45898401b", "type": "electric_scooter", "lat": 38.93580683333333, "is_reserved": 0, "lon": -76.991009, "fusion_lon": 0.0, "is_disabled": 0, "fusion_lat": 0.0, "bike_id": "5c53f1821f58475fd43b5fb45898401b", "rental_uris": {"ios": "https://dc.lft.to/lastmile_qr_scan", "android": "https://dc.lft.to/lastmile_qr_scan"}}, {"name": "c3929a62f10af185d39b21998883e533", "type": "electric_scooter", "lat": 38.89229816666667, "is_reserved": 0, "lon": -77.03186766666667, "fusion_lon": 0.0, "is_disabled": 0, "fusion_lat": 0.0, "bike_id": "c3929a62f10af185d39b21998883e533", "rental_uris": {"ios": "https://dc.lft.to/lastmile_qr_scan", "android": "https://dc.lft.to/lastmile_qr_scan"}}, {"name": "4441ac60d5d6a1e53dabf4b1e711f983", "type": "electric_scooter", "lat": 38.9252845, "is_reserved": 0, "lon": -77.055464, "fusion_lon": 0.0, "is_disabled": 0, "fusion_lat": 0.0, "bike_id": "4441ac60d5d6a1e53dabf4b1e711f983", "rental_uris": {"ios": "https://dc.lft.to/lastmile_qr_scan", "android": "https://dc.lft.to/lastmile_qr_scan"}}, {"name": "5e75093d54db646acff26e42f5638610", "type": "electric_scooter", "lat": 38.90149133333333, "is_reserved": 0, "lon": -76.9306425, "fusion_lon": 0.0, "is_disabled": 0, "fusion_lat": 0.0, "bike_id": "5e75093d54db646acff26e42f5638610", "rental_uris": {"ios": "https://dc.lft.to/lastmile_qr_scan", "android": "https://dc.lft.to/lastmile_qr_scan"}}, {"name": "86dca820f291f2bd3b5c221060651d16", "type": "electric_scooter", "lat": 38.9247105, "is_reserved": 0, "lon": -77.03756333333334, "fusion_lon": 0.0, "is_disabled": 0, "fusion_lat": 0.0, "bike_id": "86dca820f291f2bd3b5c221060651d16", "rental_uris": {"ios": "https://dc.lft.to/lastmile_qr_scan", "android": "https://dc.lft.to/lastmile_qr_scan"}}, {"name": "9c4359cfdc0753902b77b527b46c1d83", "type": "electric_scooter", "lat": 38.919153, "is_reserved": 0, "lon": -77.0334415, "fusion_lon": 0.0, "is_disabled": 0, "fusion_lat": 0.0, "bike_id": "9c4359cfdc0753902b77b527b46c1d83", "rental_uris": {"ios": "https://dc.lft.to/lastmile_qr_scan", "android": "https://dc.lft.to/lastmile_qr_scan"}}, {"name": "9e8b423e6ada6b8bdba60e700806fb3d", "type": "electric_scooter", "lat": 38.93500433333333, "is_reserved": 0, "lon": -77.02722983333334, "fusion_lon": 0.0, "is_disabled": 0, "fusion_lat": 0.0, "bike_id": "9e8b423e6ada6b8bdba60e700806fb3d", "rental_uris": {"ios": "https://dc.lft.to/lastmile_qr_scan", "android": "https://dc.lft.to/lastmile_qr_scan"}}, {"name": "3dccb9f4c94490eab464195482893383", "type": "electric_scooter", "lat": 38.9289685, "is_reserved": 0, "lon": -77.02497166666667, "fusion_lon": 0.0, "is_disabled": 0, "fusion_lat": 0.0, "bike_id": "3dccb9f4c94490eab464195482893383", "rental_uris": {"ios": "https://dc.lft.to/lastmile_qr_scan", "android": "https://dc.lft.to/lastmile_qr_scan"}}, {"name": "d5073c4f88b3e71157eee0032e1cc4b2", "type": "electric_scooter", "lat": 38.90364866666667, "is_reserved": 0, "lon": -77.0250945, "fusion_lon": 0.0, "is_disabled": 0, "fusion_lat": 0.0, "bike_id": "d5073c4f88b3e71157eee0032e1cc4b2", "rental_uris": {"ios": "https://dc.lft.to/lastmile_qr_scan", "android": "https://dc.lft.to/lastmile_qr_scan"}}, {"name": "f30b137be60b054bacc43e8be21ef0b8", "type": "electric_scooter", "lat": 38.877356, "is_reserved": 0, "lon": -76.97282716666666, "fusion_lon": 0.0, "is_disabled": 0, "fusion_lat": 0.0, "bike_id": "f30b137be60b054bacc43e8be21ef0b8", "rental_uris": {"ios": "https://dc.lft.to/lastmile_qr_scan", "android": "https://dc.lft.to/lastmile_qr_scan"}}, {"name": "c37d79cd874d7729073ea0e3e2c5d779", "type": "electric_scooter", "lat": 38.948381833333336, "is_reserved": 0, "lon": -77.02551766666667, "fusion_lon": 0.0, "is_disabled": 0, "fusion_lat": 0.0, "bike_id": "c37d79cd874d7729073ea0e3e2c5d779", "rental_uris": {"ios": "https://dc.lft.to/lastmile_qr_scan", "android": "https://dc.lft.to/lastmile_qr_scan"}}, {"name": "d0bf2bd74542a488ed640e73a2f22c73", "type": "electric_scooter", "lat": 38.922675166666664, "is_reserved": 0, "lon": -77.03691933333333, "fusion_lon": 0.0, "is_disabled": 0, "fusion_lat": 0.0, "bike_id": "d0bf2bd74542a488ed640e73a2f22c73", "rental_uris": {"ios": "https://dc.lft.to/lastmile_qr_scan", "android": "https://dc.lft.to/lastmile_qr_scan"}}, {"name": "8b60f253ffe3456fe86d3fcdbbebc996", "type": "electric_scooter", "lat": 38.862041166666664, "is_reserved": 0, "lon": -76.99465283333333, "fusion_lon": 0.0, "is_disabled": 0, "fusion_lat": 0.0, "bike_id": "8b60f253ffe3456fe86d3fcdbbebc996", "rental_uris": {"ios": "https://dc.lft.to/lastmile_qr_scan", "android": "https://dc.lft.to/lastmile_qr_scan"}}, {"name": "0309ac1348c595e828bd864776b9c4bb", "type": "electric_scooter", "lat": 38.914845166666666, "is_reserved": 0, "lon": -77.0244145, "fusion_lon": 0.0, "is_disabled": 0, "fusion_lat": 0.0, "bike_id": "0309ac1348c595e828bd864776b9c4bb", "rental_uris": {"ios": "https://dc.lft.to/lastmile_qr_scan", "android": "https://dc.lft.to/lastmile_qr_scan"}}, {"name": "e37ebb3dbb1b476c164c994f13ca9bbb", "type": "electric_scooter", "lat": 38.89984283333333, "is_reserved": 0, "lon": -77.0270245, "fusion_lon": 0.0, "is_disabled": 0, "fusion_lat": 0.0, "bike_id": "e37ebb3dbb1b476c164c994f13ca9bbb", "rental_uris": {"ios": "https://dc.lft.to/lastmile_qr_scan", "android": "https://dc.lft.to/lastmile_qr_scan"}}, {"name": "4f1ef2bfc8ff9ab39fac223cf27ccc66", "type": "electric_scooter", "lat": 38.91662016666667, "is_reserved": 0, "lon": -77.02701266666666, "fusion_lon": 0.0, "is_disabled": 0, "fusion_lat": 0.0, "bike_id": "4f1ef2bfc8ff9ab39fac223cf27ccc66", "rental_uris": {"ios": "https://dc.lft.to/lastmile_qr_scan", "android": "https://dc.lft.to/lastmile_qr_scan"}}, {"name": "d71724b5e8d531239a14959f74cf4394", "type": "electric_scooter", "lat": 38.9141915, "is_reserved": 0, "lon": -77.00975416666667, "fusion_lon": 0.0, "is_disabled": 0, "fusion_lat": 0.0, "bike_id": "d71724b5e8d531239a14959f74cf4394", "rental_uris": {"ios": "https://dc.lft.to/lastmile_qr_scan", "android": "https://dc.lft.to/lastmile_qr_scan"}}, {"name": "3c64c807edaaf299dbce239999324ffa", "type": "electric_scooter", "lat": 38.899174333333335, "is_reserved": 0, "lon": -77.03976433333334, "fusion_lon": 0.0, "is_disabled": 0, "fusion_lat": 0.0, "bike_id": "3c64c807edaaf299dbce239999324ffa", "rental_uris": {"ios": "https://dc.lft.to/lastmile_qr_scan", "android": "https://dc.lft.to/lastmile_qr_scan"}}, {"name": "15875163494e566f60c98cfda9e48c75", "type": "electric_scooter", "lat": 38.9196375, "is_reserved": 0, "lon": -77.02402333333333, "fusion_lon": 0.0, "is_disabled": 0, "fusion_lat": 0.0, "bike_id": "15875163494e566f60c98cfda9e48c75", "rental_uris": {"ios": "https://dc.lft.to/lastmile_qr_scan", "android": "https://dc.lft.to/lastmile_qr_scan"}}, {"name": "a97bb15649220f27c607eb06544126b0", "type": "electric_scooter", "lat": 38.902355, "is_reserved": 0, "lon": -76.97406216666667, "fusion_lon": 0.0, "is_disabled": 0, "fusion_lat": 0.0, "bike_id": "a97bb15649220f27c607eb06544126b0", "rental_uris": {"ios": "https://dc.lft.to/lastmile_qr_scan", "android": "https://dc.lft.to/lastmile_qr_scan"}}, {"name": "eb69f47f1e158bce3709ee3e3e3ab2f7", "type": "electric_scooter", "lat": 38.896741666666664, "is_reserved": 0, "lon": -76.94723433333333, "fusion_lon": 0.0, "is_disabled": 0, "fusion_lat": 0.0, "bike_id": "eb69f47f1e158bce3709ee3e3e3ab2f7", "rental_uris": {"ios": "https://dc.lft.to/lastmile_qr_scan", "android": "https://dc.lft.to/lastmile_qr_scan"}}, {"name": "5eb4d6c5227849ac435607bb6b966b61", "type": "electric_scooter", "lat": 38.87968016666667, "is_reserved": 0, "lon": -77.024342, "fusion_lon": 0.0, "is_disabled": 0, "fusion_lat": 0.0, "bike_id": "5eb4d6c5227849ac435607bb6b966b61", "rental_uris": {"ios": "https://dc.lft.to/lastmile_qr_scan", "android": "https://dc.lft.to/lastmile_qr_scan"}}, {"name": "b196c9708c61acf3590004aad1d878ff", "type": "electric_scooter", "lat": 38.897399, "is_reserved": 0, "lon": -76.93840466666667, "fusion_lon": 0.0, "is_disabled": 0, "fusion_lat": 0.0, "bike_id": "b196c9708c61acf3590004aad1d878ff", "rental_uris": {"ios": "https://dc.lft.to/lastmile_qr_scan", "android": "https://dc.lft.to/lastmile_qr_scan"}}, {"name": "4f66e83bd4134dd7747324c75bcbc063", "type": "electric_bike", "lat": 38.83823433333333, "is_reserved": 0, "lon": -76.99678516666667, "fusion_lon": 0.0, "is_disabled": 0, "fusion_lat": 0.0, "bike_id": "4f66e83bd4134dd7747324c75bcbc063", "rental_uris": {"ios": "https://dc.lft.to/lastmile_qr_scan", "android": "https://dc.lft.to/lastmile_qr_scan"}}, {"name": "637da61c3c385a5f0350c4a047819b0a", "type": "electric_scooter", "lat": 38.92165416666667, "is_reserved": 0, "lon": -77.0421855, "fusion_lon": 0.0, "is_disabled": 0, "fusion_lat": 0.0, "bike_id": "637da61c3c385a5f0350c4a047819b0a", "rental_uris": {"ios": "https://dc.lft.to/lastmile_qr_scan", "android": "https://dc.lft.to/lastmile_qr_scan"}}, {"name": "dd267a909ccff8ee30be8a481ca5759e", "type": "electric_scooter", "lat": 38.905859166666666, "is_reserved": 0, "lon": -77.06521466666666, "fusion_lon": 0.0, "is_disabled": 0, "fusion_lat": 0.0, "bike_id": "dd267a909ccff8ee30be8a481ca5759e", "rental_uris": {"ios": "https://dc.lft.to/lastmile_qr_scan", "android": "https://dc.lft.to/lastmile_qr_scan"}}, {"name": "2ac67bd6b2b7e7b8b28e5f1424ba67f4", "type": "electric_scooter", "lat": 38.894843333333334, "is_reserved": 0, "lon": -76.99518316666666, "fusion_lon": 0.0, "is_disabled": 0, "fusion_lat": 0.0, "bike_id": "2ac67bd6b2b7e7b8b28e5f1424ba67f4", "rental_uris": {"ios": "https://dc.lft.to/lastmile_qr_scan", "android": "https://dc.lft.to/lastmile_qr_scan"}}, {"name": "59ea9f69554c1c8ac093ec515fdd0a19", "type": "electric_bike", "lat": 38.88844133333333, "is_reserved": 0, "lon": -77.08271483333333, "fusion_lon": 0.0, "is_disabled": 0, "fusion_lat": 0.0, "bike_id": "59ea9f69554c1c8ac093ec515fdd0a19", "rental_uris": {"ios": "https://dc.lft.to/lastmile_qr_scan", "android": "https://dc.lft.to/lastmile_qr_scan"}}, {"name": "6ded21aa2a0287ccdd14af11cdd775a8", "type": "electric_scooter", "lat": 38.89238733333333, "is_reserved": 0, "lon": -77.01533816666667, "fusion_lon": 0.0, "is_disabled": 0, "fusion_lat": 0.0, "bike_id": "6ded21aa2a0287ccdd14af11cdd775a8", "rental_uris": {"ios": "https://dc.lft.to/lastmile_qr_scan", "android": "https://dc.lft.to/lastmile_qr_scan"}}, {"name": "f2ee9daeabc65b5bb8383cdddb012f13", "type": "electric_scooter", "lat": 38.932872, "is_reserved": 0, "lon": -77.0398675, "fusion_lon": 0.0, "is_disabled": 0, "fusion_lat": 0.0, "bike_id": "f2ee9daeabc65b5bb8383cdddb012f13", "rental_uris": {"ios": "https://dc.lft.to/lastmile_qr_scan", "android": "https://dc.lft.to/lastmile_qr_scan"}}, {"name": "7f8120451e3508748520e668d0c04ca2", "type": "electric_scooter", "lat": 38.912684666666664, "is_reserved": 0, "lon": -77.02946716666666, "fusion_lon": 0.0, "is_disabled": 0, "fusion_lat": 0.0, "bike_id": "7f8120451e3508748520e668d0c04ca2", "rental_uris": {"ios": "https://dc.lft.to/lastmile_qr_scan", "android": "https://dc.lft.to/lastmile_qr_scan"}}, {"name": "04d57e4ce09bd8b8bc051572d74ea3ab", "type": "electric_scooter", "lat": 38.86525566666667, "is_reserved": 0, "lon": -76.99025433333334, "fusion_lon": 0.0, "is_disabled": 0, "fusion_lat": 0.0, "bike_id": "04d57e4ce09bd8b8bc051572d74ea3ab", "rental_uris": {"ios": "https://dc.lft.to/lastmile_qr_scan", "android": "https://dc.lft.to/lastmile_qr_scan"}}, {"name": "859e5ef901c69804ffdd3efb85623803", "type": "electric_scooter", "lat": 38.894509166666666, "is_reserved": 0, "lon": -77.01923683333334, "fusion_lon": 0.0, "is_disabled": 0, "fusion_lat": 0.0, "bike_id": "859e5ef901c69804ffdd3efb85623803", "rental_uris": {"ios": "https://dc.lft.to/lastmile_qr_scan", "android": "https://dc.lft.to/lastmile_qr_scan"}}, {"name": "adcde1fc400068f2c39c8ec962797274", "type": "electric_scooter", "lat": 38.88688883333333, "is_reserved": 0, "lon": -76.95760066666666, "fusion_lon": 0.0, "is_disabled": 0, "fusion_lat": 0.0, "bike_id": "adcde1fc400068f2c39c8ec962797274", "rental_uris": {"ios": "https://dc.lft.to/lastmile_qr_scan", "android": "https://dc.lft.to/lastmile_qr_scan"}}, {"name": "cd07d8c873c1abb680bd8caa1442d6ed", "type": "electric_scooter", "lat": 38.942116, "is_reserved": 0, "lon": -77.0149685, "fusion_lon": 0.0, "is_disabled": 0, "fusion_lat": 0.0, "bike_id": "cd07d8c873c1abb680bd8caa1442d6ed", "rental_uris": {"ios": "https://dc.lft.to/lastmile_qr_scan", "android": "https://dc.lft.to/lastmile_qr_scan"}}, {"name": "69adb1b16f3f407be72cd2117c51b940", "type": "electric_scooter", "lat": 38.920944166666665, "is_reserved": 0, "lon": -77.02389816666667, "fusion_lon": 0.0, "is_disabled": 0, "fusion_lat": 0.0, "bike_id": "69adb1b16f3f407be72cd2117c51b940", "rental_uris": {"ios": "https://dc.lft.to/lastmile_qr_scan", "android": "https://dc.lft.to/lastmile_qr_scan"}}, {"name": "95148f2986fa7b77b9551b01ce20bcd3", "type": "electric_scooter", "lat": 38.89224683333333, "is_reserved": 0, "lon": -77.03221666666667, "fusion_lon": 0.0, "is_disabled": 0, "fusion_lat": 0.0, "bike_id": "95148f2986fa7b77b9551b01ce20bcd3", "rental_uris": {"ios": "https://dc.lft.to/lastmile_qr_scan", "android": "https://dc.lft.to/lastmile_qr_scan"}}, {"name": "90c875e93596b1db6f8e2ed04ac9ae7b", "type": "electric_scooter", "lat": 38.92242266666667, "is_reserved": 0, "lon": -77.03086666666667, "fusion_lon": 0.0, "is_disabled": 0, "fusion_lat": 0.0, "bike_id": "90c875e93596b1db6f8e2ed04ac9ae7b", "rental_uris": {"ios": "https://dc.lft.to/lastmile_qr_scan", "android": "https://dc.lft.to/lastmile_qr_scan"}}, {"name": "bdb3d86f9da1e997abe23a0a2b5cec7e", "type": "electric_bike", "lat": 38.861458, "is_reserved": 0, "lon": -76.95005716666667, "fusion_lon": 0.0, "is_disabled": 0, "fusion_lat": 0.0, "bike_id": "bdb3d86f9da1e997abe23a0a2b5cec7e", "rental_uris": {"ios": "https://dc.lft.to/lastmile_qr_scan", "android": "https://dc.lft.to/lastmile_qr_scan"}}, {"name": "9a3a269248bbe2c060b88a9a2e714097", "type": "electric_bike", "lat": 38.894674333333334, "is_reserved": 0, "lon": -77.07602183333333, "fusion_lon": 0.0, "is_disabled": 0, "fusion_lat": 0.0, "bike_id": "9a3a269248bbe2c060b88a9a2e714097", "rental_uris": {"ios": "https://dc.lft.to/lastmile_qr_scan", "android": "https://dc.lft.to/lastmile_qr_scan"}}, {"name": "f1cb204d261bb55731edba610ad02048", "type": "electric_scooter", "lat": 38.883085666666666, "is_reserved": 0, "lon": -77.03156833333334, "fusion_lon": 0.0, "is_disabled": 0, "fusion_lat": 0.0, "bike_id": "f1cb204d261bb55731edba610ad02048", "rental_uris": {"ios": "https://dc.lft.to/lastmile_qr_scan", "android": "https://dc.lft.to/lastmile_qr_scan"}}, {"name": "321c5ee8aa7cf1f3eba824069c5db251", "type": "electric_bike", "lat": 38.888589333333336, "is_reserved": 0, "lon": -77.03243366666666, "fusion_lon": 0.0, "is_disabled": 0, "fusion_lat": 0.0, "bike_id": "321c5ee8aa7cf1f3eba824069c5db251", "rental_uris": {"ios": "https://dc.lft.to/lastmile_qr_scan", "android": "https://dc.lft.to/lastmile_qr_scan"}}, {"name": "d874e3e3ff2e6d0935dff53151907f09", "type": "electric_scooter", "lat": 38.905164166666665, "is_reserved": 0, "lon": -77.06938616666666, "fusion_lon": 0.0, "is_disabled": 0, "fusion_lat": 0.0, "bike_id": "d874e3e3ff2e6d0935dff53151907f09", "rental_uris": {"ios": "https://dc.lft.to/lastmile_qr_scan", "android": "https://dc.lft.to/lastmile_qr_scan"}}, {"name": "d1e68246e3122848791476193067f194", "type": "electric_scooter", "lat": 38.9231465, "is_reserved": 0, "lon": -77.03958866666666, "fusion_lon": 0.0, "is_disabled": 0, "fusion_lat": 0.0, "bike_id": "d1e68246e3122848791476193067f194", "rental_uris": {"ios": "https://dc.lft.to/lastmile_qr_scan", "android": "https://dc.lft.to/lastmile_qr_scan"}}, {"name": "a272be60752e268f498bfd34de2cce6a", "type": "electric_scooter", "lat": 38.920487, "is_reserved": 0, "lon": -77.0342925, "fusion_lon": 0.0, "is_disabled": 0, "fusion_lat": 0.0, "bike_id": "a272be60752e268f498bfd34de2cce6a", "rental_uris": {"ios": "https://dc.lft.to/lastmile_qr_scan", "android": "https://dc.lft.to/lastmile_qr_scan"}}, {"name": "7488af9554123174e944d6073e6d0e23", "type": "electric_scooter", "lat": 38.910202, "is_reserved": 0, "lon": -77.05267233333333, "fusion_lon": 0.0, "is_disabled": 0, "fusion_lat": 0.0, "bike_id": "7488af9554123174e944d6073e6d0e23", "rental_uris": {"ios": "https://dc.lft.to/lastmile_qr_scan", "android": "https://dc.lft.to/lastmile_qr_scan"}}, {"name": "8159c6b58ce95b7f1558dfb95a217c3f", "type": "electric_scooter", "lat": 38.91112066666667, "is_reserved": 0, "lon": -77.01058866666666, "fusion_lon": 0.0, "is_disabled": 0, "fusion_lat": 0.0, "bike_id": "8159c6b58ce95b7f1558dfb95a217c3f", "rental_uris": {"ios": "https://dc.lft.to/lastmile_qr_scan", "android": "https://dc.lft.to/lastmile_qr_scan"}}, {"name": "feaf7e1ad90fa147d99536034596d95c", "type": "electric_scooter", "lat": 38.90080583333334, "is_reserved": 0, "lon": -77.04888233333334, "fusion_lon": 0.0, "is_disabled": 0, "fusion_lat": 0.0, "bike_id": "feaf7e1ad90fa147d99536034596d95c", "rental_uris": {"ios": "https://dc.lft.to/lastmile_qr_scan", "android": "https://dc.lft.to/lastmile_qr_scan"}}, {"name": "352649a1ef41449abff4c6f9ec678eb1", "type": "electric_scooter", "lat": 38.90942533333333, "is_reserved": 0, "lon": -77.02311333333333, "fusion_lon": 0.0, "is_disabled": 0, "fusion_lat": 0.0, "bike_id": "352649a1ef41449abff4c6f9ec678eb1", "rental_uris": {"ios": "https://dc.lft.to/lastmile_qr_scan", "android": "https://dc.lft.to/lastmile_qr_scan"}}, {"name": "b4241520ae02f8a5bc75537c90054ec1", "type": "electric_scooter", "lat": 38.87685916666667, "is_reserved": 0, "lon": -77.0007575, "fusion_lon": 0.0, "is_disabled": 0, "fusion_lat": 0.0, "bike_id": "b4241520ae02f8a5bc75537c90054ec1", "rental_uris": {"ios": "https://dc.lft.to/lastmile_qr_scan", "android": "https://dc.lft.to/lastmile_qr_scan"}}, {"name": "0948e42708610fc79f4c69dcee45d799", "type": "electric_bike", "lat": 38.9654475, "is_reserved": 0, "lon": -77.0351165, "fusion_lon": 0.0, "is_disabled": 0, "fusion_lat": 0.0, "bike_id": "0948e42708610fc79f4c69dcee45d799", "rental_uris": {"ios": "https://dc.lft.to/lastmile_qr_scan", "android": "https://dc.lft.to/lastmile_qr_scan"}}, {"name": "d79f2d10f34a67f664e22f4632b73ab0", "type": "electric_scooter", "lat": 38.90618083333333, "is_reserved": 0, "lon": -77.01280366666667, "fusion_lon": 0.0, "is_disabled": 0, "fusion_lat": 0.0, "bike_id": "d79f2d10f34a67f664e22f4632b73ab0", "rental_uris": {"ios": "https://dc.lft.to/lastmile_qr_scan", "android": "https://dc.lft.to/lastmile_qr_scan"}}, {"name": "d8829e3e7f93da66e7d6654baa9afef5", "type": "electric_scooter", "lat": 38.842927833333334, "is_reserved": 0, "lon": -76.99950666666666, "fusion_lon": 0.0, "is_disabled": 0, "fusion_lat": 0.0, "bike_id": "d8829e3e7f93da66e7d6654baa9afef5", "rental_uris": {"ios": "https://dc.lft.to/lastmile_qr_scan", "android": "https://dc.lft.to/lastmile_qr_scan"}}, {"name": "1da4153b02a0c235e5d0661d18e8fb7f", "type": "electric_scooter", "lat": 38.867002, "is_reserved": 0, "lon": -76.9871625, "fusion_lon": 0.0, "is_disabled": 0, "fusion_lat": 0.0, "bike_id": "1da4153b02a0c235e5d0661d18e8fb7f", "rental_uris": {"ios": "https://dc.lft.to/lastmile_qr_scan", "android": "https://dc.lft.to/lastmile_qr_scan"}}, {"name": "fc978edaf0a804b15fa5d7fdaae773e4", "type": "electric_scooter", "lat": 38.93348433333333, "is_reserved": 0, "lon": -77.07271833333333, "fusion_lon": 0.0, "is_disabled": 0, "fusion_lat": 0.0, "bike_id": "fc978edaf0a804b15fa5d7fdaae773e4", "rental_uris": {"ios": "https://dc.lft.to/lastmile_qr_scan", "android": "https://dc.lft.to/lastmile_qr_scan"}}, {"name": "e69b3759c5627eb908f3c0e29cce7fcb", "type": "electric_scooter", "lat": 38.9118975, "is_reserved": 0, "lon": -77.00764866666667, "fusion_lon": 0.0, "is_disabled": 0, "fusion_lat": 0.0, "bike_id": "e69b3759c5627eb908f3c0e29cce7fcb", "rental_uris": {"ios": "https://dc.lft.to/lastmile_qr_scan", "android": "https://dc.lft.to/lastmile_qr_scan"}}, {"name": "d9eba6ffbad1c95c341383ccc40c0582", "type": "electric_scooter", "lat": 38.9698405, "is_reserved": 0, "lon": -77.027177, "fusion_lon": 0.0, "is_disabled": 0, "fusion_lat": 0.0, "bike_id": "d9eba6ffbad1c95c341383ccc40c0582", "rental_uris": {"ios": "https://dc.lft.to/lastmile_qr_scan", "android": "https://dc.lft.to/lastmile_qr_scan"}}, {"name": "9fb34bda75efecbdf8aa0a59cfc68585", "type": "electric_scooter", "lat": 38.90078366666667, "is_reserved": 0, "lon": -77.05070516666666, "fusion_lon": 0.0, "is_disabled": 0, "fusion_lat": 0.0, "bike_id": "9fb34bda75efecbdf8aa0a59cfc68585", "rental_uris": {"ios": "https://dc.lft.to/lastmile_qr_scan", "android": "https://dc.lft.to/lastmile_qr_scan"}}, {"name": "3ee0b21127156a37b254e61558be286b", "type": "electric_scooter", "lat": 38.88417116666667, "is_reserved": 0, "lon": -76.976017, "fusion_lon": 0.0, "is_disabled": 0, "fusion_lat": 0.0, "bike_id": "3ee0b21127156a37b254e61558be286b", "rental_uris": {"ios": "https://dc.lft.to/lastmile_qr_scan", "android": "https://dc.lft.to/lastmile_qr_scan"}}, {"name": "83dcfbdbf62599ae54a2a755bd042e91", "type": "electric_scooter", "lat": 38.897352833333336, "is_reserved": 0, "lon": -77.01314816666667, "fusion_lon": 0.0, "is_disabled": 0, "fusion_lat": 0.0, "bike_id": "83dcfbdbf62599ae54a2a755bd042e91", "rental_uris": {"ios": "https://dc.lft.to/lastmile_qr_scan", "android": "https://dc.lft.to/lastmile_qr_scan"}}, {"name": "8548ce0d2c39dabaedc14575e82b9520", "type": "electric_scooter", "lat": 38.913372833333334, "is_reserved": 0, "lon": -77.0312195, "fusion_lon": 0.0, "is_disabled": 0, "fusion_lat": 0.0, "bike_id": "8548ce0d2c39dabaedc14575e82b9520", "rental_uris": {"ios": "https://dc.lft.to/lastmile_qr_scan", "android": "https://dc.lft.to/lastmile_qr_scan"}}, {"name": "04a770cc0569d7f24a4e1cc3c1b8d07c", "type": "electric_scooter", "lat": 38.920099, "is_reserved": 0, "lon": -77.0388335, "fusion_lon": 0.0, "is_disabled": 0, "fusion_lat": 0.0, "bike_id": "04a770cc0569d7f24a4e1cc3c1b8d07c", "rental_uris": {"ios": "https://dc.lft.to/lastmile_qr_scan", "android": "https://dc.lft.to/lastmile_qr_scan"}}, {"name": "43089c8e29bfbf668178d25b01c5afd0", "type": "electric_scooter", "lat": 38.909557166666666, "is_reserved": 0, "lon": -76.985378, "fusion_lon": 0.0, "is_disabled": 0, "fusion_lat": 0.0, "bike_id": "43089c8e29bfbf668178d25b01c5afd0", "rental_uris": {"ios": "https://dc.lft.to/lastmile_qr_scan", "android": "https://dc.lft.to/lastmile_qr_scan"}}, {"name": "a11af02f0baa9b1352001133fce19361", "type": "electric_scooter", "lat": 38.9032165, "is_reserved": 0, "lon": -77.03837083333333, "fusion_lon": 0.0, "is_disabled": 0, "fusion_lat": 0.0, "bike_id": "a11af02f0baa9b1352001133fce19361", "rental_uris": {"ios": "https://dc.lft.to/lastmile_qr_scan", "android": "https://dc.lft.to/lastmile_qr_scan"}}, {"name": "5728f5d68168c2d55eea9b640362b598", "type": "electric_scooter", "lat": 38.92026766666667, "is_reserved": 0, "lon": -77.0261555, "fusion_lon": 0.0, "is_disabled": 0, "fusion_lat": 0.0, "bike_id": "5728f5d68168c2d55eea9b640362b598", "rental_uris": {"ios": "https://dc.lft.to/lastmile_qr_scan", "android": "https://dc.lft.to/lastmile_qr_scan"}}, {"name": "6459246b410c8904c9bce5704a06ec4e", "type": "electric_scooter", "lat": 38.91326433333333, "is_reserved": 0, "lon": -77.03168333333333, "fusion_lon": 0.0, "is_disabled": 0, "fusion_lat": 0.0, "bike_id": "6459246b410c8904c9bce5704a06ec4e", "rental_uris": {"ios": "https://dc.lft.to/lastmile_qr_scan", "android": "https://dc.lft.to/lastmile_qr_scan"}}, {"name": "2e97ecf1fa93a25856f003cb442afc26", "type": "electric_scooter", "lat": 38.93767916666667, "is_reserved": 0, "lon": -77.02265516666667, "fusion_lon": 0.0, "is_disabled": 0, "fusion_lat": 0.0, "bike_id": "2e97ecf1fa93a25856f003cb442afc26", "rental_uris": {"ios": "https://dc.lft.to/lastmile_qr_scan", "android": "https://dc.lft.to/lastmile_qr_scan"}}, {"name": "1aed6fb89ba7f73bd165448fe2604f87", "type": "electric_scooter", "lat": 38.924772, "is_reserved": 0, "lon": -77.02886966666667, "fusion_lon": 0.0, "is_disabled": 0, "fusion_lat": 0.0, "bike_id": "1aed6fb89ba7f73bd165448fe2604f87", "rental_uris": {"ios": "https://dc.lft.to/lastmile_qr_scan", "android": "https://dc.lft.to/lastmile_qr_scan"}}, {"name": "a3e3984279714c64e5ebcb07ea0f3f0e", "type": "electric_scooter", "lat": 38.92979283333333, "is_reserved": 0, "lon": -77.01449416666667, "fusion_lon": 0.0, "is_disabled": 0, "fusion_lat": 0.0, "bike_id": "a3e3984279714c64e5ebcb07ea0f3f0e", "rental_uris": {"ios": "https://dc.lft.to/lastmile_qr_scan", "android": "https://dc.lft.to/lastmile_qr_scan"}}, {"name": "589fed7691f8bafc0a4e389d03f6c012", "type": "electric_scooter", "lat": 38.93060916666667, "is_reserved": 0, "lon": -77.029883, "fusion_lon": 0.0, "is_disabled": 0, "fusion_lat": 0.0, "bike_id": "589fed7691f8bafc0a4e389d03f6c012", "rental_uris": {"ios": "https://dc.lft.to/lastmile_qr_scan", "android": "https://dc.lft.to/lastmile_qr_scan"}}, {"name": "c2f78ff8b71f4270cbd059dabf852021", "type": "electric_scooter", "lat": 38.912438333333334, "is_reserved": 0, "lon": -77.03839083333334, "fusion_lon": 0.0, "is_disabled": 0, "fusion_lat": 0.0, "bike_id": "c2f78ff8b71f4270cbd059dabf852021", "rental_uris": {"ios": "https://dc.lft.to/lastmile_qr_scan", "android": "https://dc.lft.to/lastmile_qr_scan"}}, {"name": "ea99e407e3b92b31b767e6e26bd3446b", "type": "electric_bike", "lat": 38.83988466666667, "is_reserved": 0, "lon": -77.00558966666667, "fusion_lon": 0.0, "is_disabled": 0, "fusion_lat": 0.0, "bike_id": "ea99e407e3b92b31b767e6e26bd3446b", "rental_uris": {"ios": "https://dc.lft.to/lastmile_qr_scan", "android": "https://dc.lft.to/lastmile_qr_scan"}}, {"name": "dc3377747c125e4a105afe7aa3a884be", "type": "electric_scooter", "lat": 38.900771, "is_reserved": 0, "lon": -77.05044233333334, "fusion_lon": 0.0, "is_disabled": 0, "fusion_lat": 0.0, "bike_id": "dc3377747c125e4a105afe7aa3a884be", "rental_uris": {"ios": "https://dc.lft.to/lastmile_qr_scan", "android": "https://dc.lft.to/lastmile_qr_scan"}}, {"name": "f8b69a067483ff44fabaa9f6e5375efa", "type": "electric_scooter", "lat": 38.86660666666667, "is_reserved": 0, "lon": -76.99014416666667, "fusion_lon": 0.0, "is_disabled": 0, "fusion_lat": 0.0, "bike_id": "f8b69a067483ff44fabaa9f6e5375efa", "rental_uris": {"ios": "https://dc.lft.to/lastmile_qr_scan", "android": "https://dc.lft.to/lastmile_qr_scan"}}, {"name": "2f61a4f59be62a47e8c16fb67261bcae", "type": "electric_scooter", "lat": 38.89956766666667, "is_reserved": 0, "lon": -76.985612, "fusion_lon": 0.0, "is_disabled": 0, "fusion_lat": 0.0, "bike_id": "2f61a4f59be62a47e8c16fb67261bcae", "rental_uris": {"ios": "https://dc.lft.to/lastmile_qr_scan", "android": "https://dc.lft.to/lastmile_qr_scan"}}, {"name": "57e7d4edaa14b58c21ef5365c7ee0d33", "type": "electric_bike", "lat": 38.9563975, "is_reserved": 0, "lon": -76.99753566666666, "fusion_lon": 0.0, "is_disabled": 0, "fusion_lat": 0.0, "bike_id": "57e7d4edaa14b58c21ef5365c7ee0d33", "rental_uris": {"ios": "https://dc.lft.to/lastmile_qr_scan", "android": "https://dc.lft.to/lastmile_qr_scan"}}, {"name": "e3fc468b921a5475dd8c1da95b985dc9", "type": "electric_scooter", "lat": 38.9139265, "is_reserved": 0, "lon": -77.03320116666667, "fusion_lon": 0.0, "is_disabled": 0, "fusion_lat": 0.0, "bike_id": "e3fc468b921a5475dd8c1da95b985dc9", "rental_uris": {"ios": "https://dc.lft.to/lastmile_qr_scan", "android": "https://dc.lft.to/lastmile_qr_scan"}}, {"name": "0cd058777cb09a3a331da5ad879d4884", "type": "electric_scooter", "lat": 38.8726655, "is_reserved": 0, "lon": -77.015309, "fusion_lon": 0.0, "is_disabled": 0, "fusion_lat": 0.0, "bike_id": "0cd058777cb09a3a331da5ad879d4884", "rental_uris": {"ios": "https://dc.lft.to/lastmile_qr_scan", "android": "https://dc.lft.to/lastmile_qr_scan"}}, {"name": "a76d044e4947a48e488c1c08047f6379", "type": "electric_bike", "lat": 38.951846833333335, "is_reserved": 0, "lon": -76.93544666666666, "fusion_lon": 0.0, "is_disabled": 0, "fusion_lat": 0.0, "bike_id": "a76d044e4947a48e488c1c08047f6379", "rental_uris": {"ios": "https://dc.lft.to/lastmile_qr_scan", "android": "https://dc.lft.to/lastmile_qr_scan"}}, {"name": "7d437a3ab855674a92f325593df78b7b", "type": "electric_scooter", "lat": 38.93860766666667, "is_reserved": 0, "lon": -77.02646916666667, "fusion_lon": 0.0, "is_disabled": 0, "fusion_lat": 0.0, "bike_id": "7d437a3ab855674a92f325593df78b7b", "rental_uris": {"ios": "https://dc.lft.to/lastmile_qr_scan", "android": "https://dc.lft.to/lastmile_qr_scan"}}, {"name": "2fe31953414a854deb78ddb70bdf90b9", "type": "electric_scooter", "lat": 38.90516616666667, "is_reserved": 0, "lon": -77.0416715, "fusion_lon": 0.0, "is_disabled": 0, "fusion_lat": 0.0, "bike_id": "2fe31953414a854deb78ddb70bdf90b9", "rental_uris": {"ios": "https://dc.lft.to/lastmile_qr_scan", "android": "https://dc.lft.to/lastmile_qr_scan"}}, {"name": "a46a14c3efe063eb939d1b89ad65f183", "type": "electric_scooter", "lat": 38.921667666666664, "is_reserved": 0, "lon": -77.041323, "fusion_lon": 0.0, "is_disabled": 0, "fusion_lat": 0.0, "bike_id": "a46a14c3efe063eb939d1b89ad65f183", "rental_uris": {"ios": "https://dc.lft.to/lastmile_qr_scan", "android": "https://dc.lft.to/lastmile_qr_scan"}}, {"name": "a7ffccaa698d0ba2b10f962c8dec018c", "type": "electric_bike", "lat": 38.897779166666666, "is_reserved": 0, "lon": -77.0075975, "fusion_lon": 0.0, "is_disabled": 0, "fusion_lat": 0.0, "bike_id": "a7ffccaa698d0ba2b10f962c8dec018c", "rental_uris": {"ios": "https://dc.lft.to/lastmile_qr_scan", "android": "https://dc.lft.to/lastmile_qr_scan"}}, {"name": "b64c8d098d1ed99f95db10451e9427d3", "type": "electric_scooter", "lat": 38.928811833333334, "is_reserved": 0, "lon": -77.04051766666667, "fusion_lon": 0.0, "is_disabled": 0, "fusion_lat": 0.0, "bike_id": "b64c8d098d1ed99f95db10451e9427d3", "rental_uris": {"ios": "https://dc.lft.to/lastmile_qr_scan", "android": "https://dc.lft.to/lastmile_qr_scan"}}, {"name": "85aed963431a501bd0f03283bfe683bb", "type": "electric_scooter", "lat": 38.901163833333335, "is_reserved": 0, "lon": -77.03048716666666, "fusion_lon": 0.0, "is_disabled": 0, "fusion_lat": 0.0, "bike_id": "85aed963431a501bd0f03283bfe683bb", "rental_uris": {"ios": "https://dc.lft.to/lastmile_qr_scan", "android": "https://dc.lft.to/lastmile_qr_scan"}}, {"name": "453983d3d4ebca152f6a97f7c7db8909", "type": "electric_scooter", "lat": 38.877139166666666, "is_reserved": 0, "lon": -77.017399, "fusion_lon": 0.0, "is_disabled": 0, "fusion_lat": 0.0, "bike_id": "453983d3d4ebca152f6a97f7c7db8909", "rental_uris": {"ios": "https://dc.lft.to/lastmile_qr_scan", "android": "https://dc.lft.to/lastmile_qr_scan"}}, {"name": "a65cffba2a48a1b012f72ff5dcbd7a2d", "type": "electric_scooter", "lat": 38.899479, "is_reserved": 0, "lon": -77.0215215, "fusion_lon": 0.0, "is_disabled": 0, "fusion_lat": 0.0, "bike_id": "a65cffba2a48a1b012f72ff5dcbd7a2d", "rental_uris": {"ios": "https://dc.lft.to/lastmile_qr_scan", "android": "https://dc.lft.to/lastmile_qr_scan"}}, {"name": "a73dbd4593f758fc3db06038c1eb9fbc", "type": "electric_scooter", "lat": 38.9119105, "is_reserved": 0, "lon": -77.03217733333334, "fusion_lon": 0.0, "is_disabled": 0, "fusion_lat": 0.0, "bike_id": "a73dbd4593f758fc3db06038c1eb9fbc", "rental_uris": {"ios": "https://dc.lft.to/lastmile_qr_scan", "android": "https://dc.lft.to/lastmile_qr_scan"}}, {"name": "a43f18e8c747582fe28307754d5c745d", "type": "electric_bike", "lat": 38.93674333333333, "is_reserved": 0, "lon": -76.952056, "fusion_lon": 0.0, "is_disabled": 0, "fusion_lat": 0.0, "bike_id": "a43f18e8c747582fe28307754d5c745d", "rental_uris": {"ios": "https://dc.lft.to/lastmile_qr_scan", "android": "https://dc.lft.to/lastmile_qr_scan"}}, {"name": "2231e98204afe61defe9e4a49608b10f", "type": "electric_scooter", "lat": 38.910321, "is_reserved": 0, "lon": -77.03194066666667, "fusion_lon": 0.0, "is_disabled": 0, "fusion_lat": 0.0, "bike_id": "2231e98204afe61defe9e4a49608b10f", "rental_uris": {"ios": "https://dc.lft.to/lastmile_qr_scan", "android": "https://dc.lft.to/lastmile_qr_scan"}}, {"name": "abf85b24d9a4fee7f1ebb3583eb45443", "type": "electric_scooter", "lat": 38.87641283333333, "is_reserved": 0, "lon": -77.00647233333333, "fusion_lon": 0.0, "is_disabled": 0, "fusion_lat": 0.0, "bike_id": "abf85b24d9a4fee7f1ebb3583eb45443", "rental_uris": {"ios": "https://dc.lft.to/lastmile_qr_scan", "android": "https://dc.lft.to/lastmile_qr_scan"}}, {"name": "33c139191e2176ac8514e226802bc23b", "type": "electric_scooter", "lat": 38.89596216666666, "is_reserved": 0, "lon": -77.02715083333334, "fusion_lon": 0.0, "is_disabled": 0, "fusion_lat": 0.0, "bike_id": "33c139191e2176ac8514e226802bc23b", "rental_uris": {"ios": "https://dc.lft.to/lastmile_qr_scan", "android": "https://dc.lft.to/lastmile_qr_scan"}}, {"name": "9b215ffb8b38ccc960aa49a4dd66a57a", "type": "electric_scooter", "lat": 38.92565333333334, "is_reserved": 0, "lon": -77.02283166666666, "fusion_lon": 0.0, "is_disabled": 0, "fusion_lat": 0.0, "bike_id": "9b215ffb8b38ccc960aa49a4dd66a57a", "rental_uris": {"ios": "https://dc.lft.to/lastmile_qr_scan", "android": "https://dc.lft.to/lastmile_qr_scan"}}, {"name": "dd89bd3e606b579c7ea86c6db101ff68", "type": "electric_scooter", "lat": 38.887089, "is_reserved": 0, "lon": -77.02822766666667, "fusion_lon": 0.0, "is_disabled": 0, "fusion_lat": 0.0, "bike_id": "dd89bd3e606b579c7ea86c6db101ff68", "rental_uris": {"ios": "https://dc.lft.to/lastmile_qr_scan", "android": "https://dc.lft.to/lastmile_qr_scan"}}, {"name": "e387fd1b791a96897b686db54b2d1fcb", "type": "electric_scooter", "lat": 38.90880816666667, "is_reserved": 0, "lon": -77.02297483333334, "fusion_lon": 0.0, "is_disabled": 0, "fusion_lat": 0.0, "bike_id": "e387fd1b791a96897b686db54b2d1fcb", "rental_uris": {"ios": "https://dc.lft.to/lastmile_qr_scan", "android": "https://dc.lft.to/lastmile_qr_scan"}}, {"name": "db998f1fa6dfd171b37977280f59448d", "type": "electric_scooter", "lat": 38.896475, "is_reserved": 0, "lon": -77.03228133333333, "fusion_lon": 0.0, "is_disabled": 0, "fusion_lat": 0.0, "bike_id": "db998f1fa6dfd171b37977280f59448d", "rental_uris": {"ios": "https://dc.lft.to/lastmile_qr_scan", "android": "https://dc.lft.to/lastmile_qr_scan"}}, {"name": "063e97f58f8c4ec681d887be233b9ec1", "type": "electric_scooter", "lat": 38.91261, "is_reserved": 0, "lon": -77.03857783333333, "fusion_lon": 0.0, "is_disabled": 0, "fusion_lat": 0.0, "bike_id": "063e97f58f8c4ec681d887be233b9ec1", "rental_uris": {"ios": "https://dc.lft.to/lastmile_qr_scan", "android": "https://dc.lft.to/lastmile_qr_scan"}}, {"name": "e2866ceab9d8132ce3ae1fb5860579a0", "type": "electric_scooter", "lat": 38.903655666666666, "is_reserved": 0, "lon": -77.018699, "fusion_lon": 0.0, "is_disabled": 0, "fusion_lat": 0.0, "bike_id": "e2866ceab9d8132ce3ae1fb5860579a0", "rental_uris": {"ios": "https://dc.lft.to/lastmile_qr_scan", "android": "https://dc.lft.to/lastmile_qr_scan"}}, {"name": "b1fa33acc7699718893532943d242781", "type": "electric_scooter", "lat": 38.942756833333334, "is_reserved": 0, "lon": -77.02503133333333, "fusion_lon": 0.0, "is_disabled": 0, "fusion_lat": 0.0, "bike_id": "b1fa33acc7699718893532943d242781", "rental_uris": {"ios": "https://dc.lft.to/lastmile_qr_scan", "android": "https://dc.lft.to/lastmile_qr_scan"}}, {"name": "c730712af238e1a26049e5a30cc63f16", "type": "electric_scooter", "lat": 38.9236805, "is_reserved": 0, "lon": -77.05027516666667, "fusion_lon": 0.0, "is_disabled": 0, "fusion_lat": 0.0, "bike_id": "c730712af238e1a26049e5a30cc63f16", "rental_uris": {"ios": "https://dc.lft.to/lastmile_qr_scan", "android": "https://dc.lft.to/lastmile_qr_scan"}}, {"name": "f08fba0f70bd3d83c5b670289d189ff3", "type": "electric_scooter", "lat": 38.90011833333333, "is_reserved": 0, "lon": -76.98456766666666, "fusion_lon": 0.0, "is_disabled": 0, "fusion_lat": 0.0, "bike_id": "f08fba0f70bd3d83c5b670289d189ff3", "rental_uris": {"ios": "https://dc.lft.to/lastmile_qr_scan", "android": "https://dc.lft.to/lastmile_qr_scan"}}, {"name": "71e367a481b32797076b59fff6cfef26", "type": "electric_scooter", "lat": 38.86661733333333, "is_reserved": 0, "lon": -76.988859, "fusion_lon": 0.0, "is_disabled": 0, "fusion_lat": 0.0, "bike_id": "71e367a481b32797076b59fff6cfef26", "rental_uris": {"ios": "https://dc.lft.to/lastmile_qr_scan", "android": "https://dc.lft.to/lastmile_qr_scan"}}, {"name": "4ced3d2b0b32aa7dc76c4832a75e4f0a", "type": "electric_scooter", "lat": 38.904578666666666, "is_reserved": 0, "lon": -77.04655833333334, "fusion_lon": 0.0, "is_disabled": 0, "fusion_lat": 0.0, "bike_id": "4ced3d2b0b32aa7dc76c4832a75e4f0a", "rental_uris": {"ios": "https://dc.lft.to/lastmile_qr_scan", "android": "https://dc.lft.to/lastmile_qr_scan"}}, {"name": "4f96af3f34b41616b0e8b2f4cb00cdf4", "type": "electric_scooter", "lat": 38.91250433333333, "is_reserved": 0, "lon": -77.03840933333333, "fusion_lon": 0.0, "is_disabled": 0, "fusion_lat": 0.0, "bike_id": "4f96af3f34b41616b0e8b2f4cb00cdf4", "rental_uris": {"ios": "https://dc.lft.to/lastmile_qr_scan", "android": "https://dc.lft.to/lastmile_qr_scan"}}, {"name": "b5c07d7ee6a96a3b17aea36e2d6aa85d", "type": "electric_scooter", "lat": 38.905714, "is_reserved": 0, "lon": -77.030648, "fusion_lon": 0.0, "is_disabled": 0, "fusion_lat": 0.0, "bike_id": "b5c07d7ee6a96a3b17aea36e2d6aa85d", "rental_uris": {"ios": "https://dc.lft.to/lastmile_qr_scan", "android": "https://dc.lft.to/lastmile_qr_scan"}}, {"name": "b6372b5fcbf062425476da0bb0b47d28", "type": "electric_scooter", "lat": 38.936819, "is_reserved": 0, "lon": -77.0362785, "fusion_lon": 0.0, "is_disabled": 0, "fusion_lat": 0.0, "bike_id": "b6372b5fcbf062425476da0bb0b47d28", "rental_uris": {"ios": "https://dc.lft.to/lastmile_qr_scan", "android": "https://dc.lft.to/lastmile_qr_scan"}}, {"name": "9bf2c2dc175b2ffc2865b85be6be12bc", "type": "electric_scooter", "lat": 38.90384516666667, "is_reserved": 0, "lon": -77.01085216666667, "fusion_lon": 0.0, "is_disabled": 0, "fusion_lat": 0.0, "bike_id": "9bf2c2dc175b2ffc2865b85be6be12bc", "rental_uris": {"ios": "https://dc.lft.to/lastmile_qr_scan", "android": "https://dc.lft.to/lastmile_qr_scan"}}, {"name": "8923ccbd7ca50d24a2e3c063fb1fc9e1", "type": "electric_scooter", "lat": 38.9177635, "is_reserved": 0, "lon": -77.04095133333334, "fusion_lon": 0.0, "is_disabled": 0, "fusion_lat": 0.0, "bike_id": "8923ccbd7ca50d24a2e3c063fb1fc9e1", "rental_uris": {"ios": "https://dc.lft.to/lastmile_qr_scan", "android": "https://dc.lft.to/lastmile_qr_scan"}}, {"name": "9786773fd6d69bbb4859b7b5c9d73d05", "type": "electric_bike", "lat": 38.8022985, "is_reserved": 0, "lon": -77.0791795, "fusion_lon": 0.0, "is_disabled": 0, "fusion_lat": 0.0, "bike_id": "9786773fd6d69bbb4859b7b5c9d73d05", "rental_uris": {"ios": "https://dc.lft.to/lastmile_qr_scan", "android": "https://dc.lft.to/lastmile_qr_scan"}}, {"name": "53c5fa6f2dab3ce6c155cff42135643b", "type": "electric_scooter", "lat": 38.944489833333336, "is_reserved": 0, "lon": -77.06355266666667, "fusion_lon": 0.0, "is_disabled": 0, "fusion_lat": 0.0, "bike_id": "53c5fa6f2dab3ce6c155cff42135643b", "rental_uris": {"ios": "https://dc.lft.to/lastmile_qr_scan", "android": "https://dc.lft.to/lastmile_qr_scan"}}, {"name": "693aa65a14effab3826f715b22044b14", "type": "electric_scooter", "lat": 38.90542116666667, "is_reserved": 0, "lon": -77.0219455, "fusion_lon": 0.0, "is_disabled": 0, "fusion_lat": 0.0, "bike_id": "693aa65a14effab3826f715b22044b14", "rental_uris": {"ios": "https://dc.lft.to/lastmile_qr_scan", "android": "https://dc.lft.to/lastmile_qr_scan"}}, {"name": "9f06da5da4c509a67201344b11034cc9", "type": "electric_bike", "lat": 38.911034666666666, "is_reserved": 0, "lon": -77.00495916666667, "fusion_lon": 0.0, "is_disabled": 0, "fusion_lat": 0.0, "bike_id": "9f06da5da4c509a67201344b11034cc9", "rental_uris": {"ios": "https://dc.lft.to/lastmile_qr_scan", "android": "https://dc.lft.to/lastmile_qr_scan"}}, {"name": "e0f91e77fe20853ad08a56403d7f6ff1", "type": "electric_bike", "lat": 38.90687966666667, "is_reserved": 0, "lon": -76.9518655, "fusion_lon": 0.0, "is_disabled": 0, "fusion_lat": 0.0, "bike_id": "e0f91e77fe20853ad08a56403d7f6ff1", "rental_uris": {"ios": "https://dc.lft.to/lastmile_qr_scan", "android": "https://dc.lft.to/lastmile_qr_scan"}}, {"name": "c84c379e953fd915d8ef04406990496e", "type": "electric_scooter", "lat": 38.896344, "is_reserved": 0, "lon": -77.0417755, "fusion_lon": 0.0, "is_disabled": 0, "fusion_lat": 0.0, "bike_id": "c84c379e953fd915d8ef04406990496e", "rental_uris": {"ios": "https://dc.lft.to/lastmile_qr_scan", "android": "https://dc.lft.to/lastmile_qr_scan"}}, {"name": "914b9f18ee7a16be4e35828ab8d1e9aa", "type": "electric_scooter", "lat": 38.9033825, "is_reserved": 0, "lon": -76.99844166666666, "fusion_lon": 0.0, "is_disabled": 0, "fusion_lat": 0.0, "bike_id": "914b9f18ee7a16be4e35828ab8d1e9aa", "rental_uris": {"ios": "https://dc.lft.to/lastmile_qr_scan", "android": "https://dc.lft.to/lastmile_qr_scan"}}, {"name": "39fd224ff61b5d25c943603ae64ae466", "type": "electric_scooter", "lat": 38.90649066666667, "is_reserved": 0, "lon": -77.024999, "fusion_lon": 0.0, "is_disabled": 0, "fusion_lat": 0.0, "bike_id": "39fd224ff61b5d25c943603ae64ae466", "rental_uris": {"ios": "https://dc.lft.to/lastmile_qr_scan", "android": "https://dc.lft.to/lastmile_qr_scan"}}, {"name": "648a4971cd6816a122f90aa8171a2960", "type": "electric_scooter", "lat": 38.938835, "is_reserved": 0, "lon": -77.02467766666666, "fusion_lon": 0.0, "is_disabled": 0, "fusion_lat": 0.0, "bike_id": "648a4971cd6816a122f90aa8171a2960", "rental_uris": {"ios": "https://dc.lft.to/lastmile_qr_scan", "android": "https://dc.lft.to/lastmile_qr_scan"}}, {"name": "8d527c967c2915ba59ea44ba231e6a97", "type": "electric_scooter", "lat": 38.934176, "is_reserved": 0, "lon": -77.07249333333333, "fusion_lon": 0.0, "is_disabled": 0, "fusion_lat": 0.0, "bike_id": "8d527c967c2915ba59ea44ba231e6a97", "rental_uris": {"ios": "https://dc.lft.to/lastmile_qr_scan", "android": "https://dc.lft.to/lastmile_qr_scan"}}, {"name": "f7bacba9e2cf2d9e9ae5894640e94adf", "type": "electric_scooter", "lat": 38.917384166666665, "is_reserved": 0, "lon": -77.022957, "fusion_lon": 0.0, "is_disabled": 0, "fusion_lat": 0.0, "bike_id": "f7bacba9e2cf2d9e9ae5894640e94adf", "rental_uris": {"ios": "https://dc.lft.to/lastmile_qr_scan", "android": "https://dc.lft.to/lastmile_qr_scan"}}, {"name": "61c54c230a8be6c24806576f7808afd0", "type": "electric_scooter", "lat": 38.905186666666665, "is_reserved": 0, "lon": -77.04373533333333, "fusion_lon": 0.0, "is_disabled": 0, "fusion_lat": 0.0, "bike_id": "61c54c230a8be6c24806576f7808afd0", "rental_uris": {"ios": "https://dc.lft.to/lastmile_qr_scan", "android": "https://dc.lft.to/lastmile_qr_scan"}}, {"name": "bec6b5c683a83068f527d89af8b96cff", "type": "electric_scooter", "lat": 38.892343, "is_reserved": 0, "lon": -77.04637533333333, "fusion_lon": 0.0, "is_disabled": 0, "fusion_lat": 0.0, "bike_id": "bec6b5c683a83068f527d89af8b96cff", "rental_uris": {"ios": "https://dc.lft.to/lastmile_qr_scan", "android": "https://dc.lft.to/lastmile_qr_scan"}}, {"name": "7141e18e79980d49d96e2a32090a4bf2", "type": "electric_scooter", "lat": 38.907975, "is_reserved": 0, "lon": -76.9970165, "fusion_lon": 0.0, "is_disabled": 0, "fusion_lat": 0.0, "bike_id": "7141e18e79980d49d96e2a32090a4bf2", "rental_uris": {"ios": "https://dc.lft.to/lastmile_qr_scan", "android": "https://dc.lft.to/lastmile_qr_scan"}}, {"name": "374a6cc3ebb3f6beac5e2d2eca29b84d", "type": "electric_scooter", "lat": 38.90723666666667, "is_reserved": 0, "lon": -77.0249775, "fusion_lon": 0.0, "is_disabled": 0, "fusion_lat": 0.0, "bike_id": "374a6cc3ebb3f6beac5e2d2eca29b84d", "rental_uris": {"ios": "https://dc.lft.to/lastmile_qr_scan", "android": "https://dc.lft.to/lastmile_qr_scan"}}, {"name": "7b0635f1a60260858c80eb959ddf35d0", "type": "electric_scooter", "lat": 38.9353395, "is_reserved": 0, "lon": -77.02847933333334, "fusion_lon": 0.0, "is_disabled": 0, "fusion_lat": 0.0, "bike_id": "7b0635f1a60260858c80eb959ddf35d0", "rental_uris": {"ios": "https://dc.lft.to/lastmile_qr_scan", "android": "https://dc.lft.to/lastmile_qr_scan"}}, {"name": "5e8fdcd8ec5b6ce9c17c2986998bd52b", "type": "electric_scooter", "lat": 38.895267, "is_reserved": 0, "lon": -77.0161535, "fusion_lon": 0.0, "is_disabled": 0, "fusion_lat": 0.0, "bike_id": "5e8fdcd8ec5b6ce9c17c2986998bd52b", "rental_uris": {"ios": "https://dc.lft.to/lastmile_qr_scan", "android": "https://dc.lft.to/lastmile_qr_scan"}}, {"name": "3de792506eb01077ad09a8a4fe44718f", "type": "electric_scooter", "lat": 38.90993383333333, "is_reserved": 0, "lon": -77.03203166666667, "fusion_lon": 0.0, "is_disabled": 0, "fusion_lat": 0.0, "bike_id": "3de792506eb01077ad09a8a4fe44718f", "rental_uris": {"ios": "https://dc.lft.to/lastmile_qr_scan", "android": "https://dc.lft.to/lastmile_qr_scan"}}, {"name": "844af04fc7c25994afe2ebab7b8e99f7", "type": "electric_scooter", "lat": 38.919948, "is_reserved": 0, "lon": -77.03221983333333, "fusion_lon": 0.0, "is_disabled": 0, "fusion_lat": 0.0, "bike_id": "844af04fc7c25994afe2ebab7b8e99f7", "rental_uris": {"ios": "https://dc.lft.to/lastmile_qr_scan", "android": "https://dc.lft.to/lastmile_qr_scan"}}, {"name": "ee35edccf63797cc838299754b171956", "type": "electric_scooter", "lat": 38.934997, "is_reserved": 0, "lon": -77.02843933333334, "fusion_lon": 0.0, "is_disabled": 0, "fusion_lat": 0.0, "bike_id": "ee35edccf63797cc838299754b171956", "rental_uris": {"ios": "https://dc.lft.to/lastmile_qr_scan", "android": "https://dc.lft.to/lastmile_qr_scan"}}, {"name": "8e6e78188963a4883b75ec4892b82f33", "type": "electric_bike", "lat": 38.8543445, "is_reserved": 0, "lon": -77.117073, "fusion_lon": 0.0, "is_disabled": 0, "fusion_lat": 0.0, "bike_id": "8e6e78188963a4883b75ec4892b82f33", "rental_uris": {"ios": "https://dc.lft.to/lastmile_qr_scan", "android": "https://dc.lft.to/lastmile_qr_scan"}}, {"name": "0ebf8ab2a224c25aba0d55d74ca5f9dc", "type": "electric_scooter", "lat": 38.91064183333334, "is_reserved": 0, "lon": -77.03034983333333, "fusion_lon": 0.0, "is_disabled": 0, "fusion_lat": 0.0, "bike_id": "0ebf8ab2a224c25aba0d55d74ca5f9dc", "rental_uris": {"ios": "https://dc.lft.to/lastmile_qr_scan", "android": "https://dc.lft.to/lastmile_qr_scan"}}, {"name": "4be568827c69adadf7ff8d8389c73edc", "type": "electric_scooter", "lat": 38.887225666666666, "is_reserved": 0, "lon": -77.02205183333334, "fusion_lon": 0.0, "is_disabled": 0, "fusion_lat": 0.0, "bike_id": "4be568827c69adadf7ff8d8389c73edc", "rental_uris": {"ios": "https://dc.lft.to/lastmile_qr_scan", "android": "https://dc.lft.to/lastmile_qr_scan"}}, {"name": "068864ff82e58d099303fd203a5c355c", "type": "electric_scooter", "lat": 38.941815, "is_reserved": 0, "lon": -77.03090366666666, "fusion_lon": 0.0, "is_disabled": 0, "fusion_lat": 0.0, "bike_id": "068864ff82e58d099303fd203a5c355c", "rental_uris": {"ios": "https://dc.lft.to/lastmile_qr_scan", "android": "https://dc.lft.to/lastmile_qr_scan"}}, {"name": "311f3609c4357928bd6f984b4dbd8e0a", "type": "electric_scooter", "lat": 38.9060455, "is_reserved": 0, "lon": -77.01320733333333, "fusion_lon": 0.0, "is_disabled": 0, "fusion_lat": 0.0, "bike_id": "311f3609c4357928bd6f984b4dbd8e0a", "rental_uris": {"ios": "https://dc.lft.to/lastmile_qr_scan", "android": "https://dc.lft.to/lastmile_qr_scan"}}, {"name": "0262ae67f127995ac8fba2799f66aa22", "type": "electric_scooter", "lat": 38.912806333333336, "is_reserved": 0, "lon": -77.03724533333333, "fusion_lon": 0.0, "is_disabled": 0, "fusion_lat": 0.0, "bike_id": "0262ae67f127995ac8fba2799f66aa22", "rental_uris": {"ios": "https://dc.lft.to/lastmile_qr_scan", "android": "https://dc.lft.to/lastmile_qr_scan"}}, {"name": "5cac6603553f372c39d8002650b274ca", "type": "electric_scooter", "lat": 38.89608116666667, "is_reserved": 0, "lon": -77.00925516666666, "fusion_lon": 0.0, "is_disabled": 0, "fusion_lat": 0.0, "bike_id": "5cac6603553f372c39d8002650b274ca", "rental_uris": {"ios": "https://dc.lft.to/lastmile_qr_scan", "android": "https://dc.lft.to/lastmile_qr_scan"}}, {"name": "ddcdfa1164315b61df9212d4e87b1ba3", "type": "electric_scooter", "lat": 38.90866466666667, "is_reserved": 0, "lon": -77.02423266666666, "fusion_lon": 0.0, "is_disabled": 0, "fusion_lat": 0.0, "bike_id": "ddcdfa1164315b61df9212d4e87b1ba3", "rental_uris": {"ios": "https://dc.lft.to/lastmile_qr_scan", "android": "https://dc.lft.to/lastmile_qr_scan"}}, {"name": "b81f8eaddf7867ae34d4da6487a37668", "type": "electric_scooter", "lat": 38.866561833333336, "is_reserved": 0, "lon": -76.98883466666666, "fusion_lon": 0.0, "is_disabled": 0, "fusion_lat": 0.0, "bike_id": "b81f8eaddf7867ae34d4da6487a37668", "rental_uris": {"ios": "https://dc.lft.to/lastmile_qr_scan", "android": "https://dc.lft.to/lastmile_qr_scan"}}, {"name": "1906bb37ddf957002f3191a75f404620", "type": "electric_scooter", "lat": 38.925149166666664, "is_reserved": 0, "lon": -77.00174116666666, "fusion_lon": 0.0, "is_disabled": 0, "fusion_lat": 0.0, "bike_id": "1906bb37ddf957002f3191a75f404620", "rental_uris": {"ios": "https://dc.lft.to/lastmile_qr_scan", "android": "https://dc.lft.to/lastmile_qr_scan"}}, {"name": "a9db404a60a388d7ef2585eebe4a3a36", "type": "electric_scooter", "lat": 38.92362766666667, "is_reserved": 0, "lon": -77.05839383333333, "fusion_lon": 0.0, "is_disabled": 0, "fusion_lat": 0.0, "bike_id": "a9db404a60a388d7ef2585eebe4a3a36", "rental_uris": {"ios": "https://dc.lft.to/lastmile_qr_scan", "android": "https://dc.lft.to/lastmile_qr_scan"}}, {"name": "0e07b454abe59f483744abae51ea6cac", "type": "electric_scooter", "lat": 38.925131666666665, "is_reserved": 0, "lon": -77.0332175, "fusion_lon": 0.0, "is_disabled": 0, "fusion_lat": 0.0, "bike_id": "0e07b454abe59f483744abae51ea6cac", "rental_uris": {"ios": "https://dc.lft.to/lastmile_qr_scan", "android": "https://dc.lft.to/lastmile_qr_scan"}}, {"name": "8fc867884b0c5c2a7090306716bfc75d", "type": "electric_scooter", "lat": 38.92006166666667, "is_reserved": 0, "lon": -77.03163466666666, "fusion_lon": 0.0, "is_disabled": 0, "fusion_lat": 0.0, "bike_id": "8fc867884b0c5c2a7090306716bfc75d", "rental_uris": {"ios": "https://dc.lft.to/lastmile_qr_scan", "android": "https://dc.lft.to/lastmile_qr_scan"}}, {"name": "c0c287bcff9a2413a107e038ed189f35", "type": "electric_scooter", "lat": 38.88373266666667, "is_reserved": 0, "lon": -76.9237485, "fusion_lon": 0.0, "is_disabled": 0, "fusion_lat": 0.0, "bike_id": "c0c287bcff9a2413a107e038ed189f35", "rental_uris": {"ios": "https://dc.lft.to/lastmile_qr_scan", "android": "https://dc.lft.to/lastmile_qr_scan"}}, {"name": "bfa025b31c65d86025a2ac5011ff9e37", "type": "electric_scooter", "lat": 38.906124, "is_reserved": 0, "lon": -77.07485066666666, "fusion_lon": 0.0, "is_disabled": 0, "fusion_lat": 0.0, "bike_id": "bfa025b31c65d86025a2ac5011ff9e37", "rental_uris": {"ios": "https://dc.lft.to/lastmile_qr_scan", "android": "https://dc.lft.to/lastmile_qr_scan"}}, {"name": "3fefa3c1712786333fe12435c58de900", "type": "electric_bike", "lat": 38.908611, "is_reserved": 0, "lon": -77.08069783333333, "fusion_lon": 0.0, "is_disabled": 0, "fusion_lat": 0.0, "bike_id": "3fefa3c1712786333fe12435c58de900", "rental_uris": {"ios": "https://dc.lft.to/lastmile_qr_scan", "android": "https://dc.lft.to/lastmile_qr_scan"}}, {"name": "10e4e89a9ede597e368432cb6057ef81", "type": "electric_scooter", "lat": 38.934307, "is_reserved": 0, "lon": -77.04422183333334, "fusion_lon": 0.0, "is_disabled": 0, "fusion_lat": 0.0, "bike_id": "10e4e89a9ede597e368432cb6057ef81", "rental_uris": {"ios": "https://dc.lft.to/lastmile_qr_scan", "android": "https://dc.lft.to/lastmile_qr_scan"}}, {"name": "d4a9690b8efcea01a0a444508daf2e61", "type": "electric_scooter", "lat": 38.91960733333333, "is_reserved": 0, "lon": -77.03380583333333, "fusion_lon": 0.0, "is_disabled": 0, "fusion_lat": 0.0, "bike_id": "d4a9690b8efcea01a0a444508daf2e61", "rental_uris": {"ios": "https://dc.lft.to/lastmile_qr_scan", "android": "https://dc.lft.to/lastmile_qr_scan"}}, {"name": "c74354ff39ed8349fe10513e6a109d0d", "type": "electric_scooter", "lat": 38.91435466666667, "is_reserved": 0, "lon": -77.022138, "fusion_lon": 0.0, "is_disabled": 0, "fusion_lat": 0.0, "bike_id": "c74354ff39ed8349fe10513e6a109d0d", "rental_uris": {"ios": "https://dc.lft.to/lastmile_qr_scan", "android": "https://dc.lft.to/lastmile_qr_scan"}}, {"name": "9344476b0d0b937ec9796a0b79d8c49c", "type": "electric_scooter", "lat": 38.901399166666664, "is_reserved": 0, "lon": -77.04382716666667, "fusion_lon": 0.0, "is_disabled": 0, "fusion_lat": 0.0, "bike_id": "9344476b0d0b937ec9796a0b79d8c49c", "rental_uris": {"ios": "https://dc.lft.to/lastmile_qr_scan", "android": "https://dc.lft.to/lastmile_qr_scan"}}, {"name": "cba09505dfbd9369305771a5aa4fa0c9", "type": "electric_scooter", "lat": 38.902652, "is_reserved": 0, "lon": -77.03859833333334, "fusion_lon": 0.0, "is_disabled": 0, "fusion_lat": 0.0, "bike_id": "cba09505dfbd9369305771a5aa4fa0c9", "rental_uris": {"ios": "https://dc.lft.to/lastmile_qr_scan", "android": "https://dc.lft.to/lastmile_qr_scan"}}, {"name": "23c33ad551e1dd187fe83b466ea01da8", "type": "electric_scooter", "lat": 38.919894166666666, "is_reserved": 0, "lon": -77.03484766666666, "fusion_lon": 0.0, "is_disabled": 0, "fusion_lat": 0.0, "bike_id": "23c33ad551e1dd187fe83b466ea01da8", "rental_uris": {"ios": "https://dc.lft.to/lastmile_qr_scan", "android": "https://dc.lft.to/lastmile_qr_scan"}}, {"name": "5d28e50fe3d93e2dde3b0ccbfe919bb4", "type": "electric_scooter", "lat": 38.91200766666667, "is_reserved": 0, "lon": -77.04531666666666, "fusion_lon": 0.0, "is_disabled": 0, "fusion_lat": 0.0, "bike_id": "5d28e50fe3d93e2dde3b0ccbfe919bb4", "rental_uris": {"ios": "https://dc.lft.to/lastmile_qr_scan", "android": "https://dc.lft.to/lastmile_qr_scan"}}, {"name": "0b2a21397d99336618dd7d7d5c5e6df0", "type": "electric_scooter", "lat": 38.89202816666667, "is_reserved": 0, "lon": -77.0023735, "fusion_lon": 0.0, "is_disabled": 0, "fusion_lat": 0.0, "bike_id": "0b2a21397d99336618dd7d7d5c5e6df0", "rental_uris": {"ios": "https://dc.lft.to/lastmile_qr_scan", "android": "https://dc.lft.to/lastmile_qr_scan"}}, {"name": "0d67a324e3a4251318c0a7608b05541e", "type": "electric_scooter", "lat": 38.89775266666667, "is_reserved": 0, "lon": -76.92584383333333, "fusion_lon": 0.0, "is_disabled": 0, "fusion_lat": 0.0, "bike_id": "0d67a324e3a4251318c0a7608b05541e", "rental_uris": {"ios": "https://dc.lft.to/lastmile_qr_scan", "android": "https://dc.lft.to/lastmile_qr_scan"}}, {"name": "b2449dcdd2660aab11272f66dc42695b", "type": "electric_scooter", "lat": 38.933557666666665, "is_reserved": 0, "lon": -77.069346, "fusion_lon": 0.0, "is_disabled": 0, "fusion_lat": 0.0, "bike_id": "b2449dcdd2660aab11272f66dc42695b", "rental_uris": {"ios": "https://dc.lft.to/lastmile_qr_scan", "android": "https://dc.lft.to/lastmile_qr_scan"}}, {"name": "dada439563a063f4d1fbfe48d9a32d65", "type": "electric_scooter", "lat": 38.93766083333333, "is_reserved": 0, "lon": -77.03282566666667, "fusion_lon": 0.0, "is_disabled": 0, "fusion_lat": 0.0, "bike_id": "dada439563a063f4d1fbfe48d9a32d65", "rental_uris": {"ios": "https://dc.lft.to/lastmile_qr_scan", "android": "https://dc.lft.to/lastmile_qr_scan"}}, {"name": "63051c552cd40fce0e521c2a5f000b9a", "type": "electric_scooter", "lat": 38.8989355, "is_reserved": 0, "lon": -76.93175683333334, "fusion_lon": 0.0, "is_disabled": 0, "fusion_lat": 0.0, "bike_id": "63051c552cd40fce0e521c2a5f000b9a", "rental_uris": {"ios": "https://dc.lft.to/lastmile_qr_scan", "android": "https://dc.lft.to/lastmile_qr_scan"}}, {"name": "0f37c8635320839277ede8e0e8137fb6", "type": "electric_scooter", "lat": 38.92292316666666, "is_reserved": 0, "lon": -77.02074516666667, "fusion_lon": 0.0, "is_disabled": 0, "fusion_lat": 0.0, "bike_id": "0f37c8635320839277ede8e0e8137fb6", "rental_uris": {"ios": "https://dc.lft.to/lastmile_qr_scan", "android": "https://dc.lft.to/lastmile_qr_scan"}}, {"name": "f64363ae90ec69e86fb33dcddd481b69", "type": "electric_scooter", "lat": 38.8967195, "is_reserved": 0, "lon": -77.05401716666667, "fusion_lon": 0.0, "is_disabled": 0, "fusion_lat": 0.0, "bike_id": "f64363ae90ec69e86fb33dcddd481b69", "rental_uris": {"ios": "https://dc.lft.to/lastmile_qr_scan", "android": "https://dc.lft.to/lastmile_qr_scan"}}, {"name": "41c09ca2bbbb36dfe3349c83c187d8c7", "type": "electric_scooter", "lat": 38.937157666666664, "is_reserved": 0, "lon": -77.036506, "fusion_lon": 0.0, "is_disabled": 0, "fusion_lat": 0.0, "bike_id": "41c09ca2bbbb36dfe3349c83c187d8c7", "rental_uris": {"ios": "https://dc.lft.to/lastmile_qr_scan", "android": "https://dc.lft.to/lastmile_qr_scan"}}, {"name": "3b8d6453f4fb8f1c5986c41092e7b31d", "type": "electric_bike", "lat": 38.990911833333335, "is_reserved": 0, "lon": -76.87496766666666, "fusion_lon": 0.0, "is_disabled": 0, "fusion_lat": 0.0, "bike_id": "3b8d6453f4fb8f1c5986c41092e7b31d", "rental_uris": {"ios": "https://dc.lft.to/lastmile_qr_scan", "android": "https://dc.lft.to/lastmile_qr_scan"}}, {"name": "8c1bbe7df6d9d8c5289789d6a6137a62", "type": "electric_scooter", "lat": 38.913350333333334, "is_reserved": 0, "lon": -77.030399, "fusion_lon": 0.0, "is_disabled": 0, "fusion_lat": 0.0, "bike_id": "8c1bbe7df6d9d8c5289789d6a6137a62", "rental_uris": {"ios": "https://dc.lft.to/lastmile_qr_scan", "android": "https://dc.lft.to/lastmile_qr_scan"}}, {"name": "be433d6587ecc3f9b0afedd42cebb2df", "type": "electric_scooter", "lat": 38.90978666666667, "is_reserved": 0, "lon": -77.04176333333334, "fusion_lon": 0.0, "is_disabled": 0, "fusion_lat": 0.0, "bike_id": "be433d6587ecc3f9b0afedd42cebb2df", "rental_uris": {"ios": "https://dc.lft.to/lastmile_qr_scan", "android": "https://dc.lft.to/lastmile_qr_scan"}}, {"name": "48a0c4c8e606c728d6f479c149d7db21", "type": "electric_bike", "lat": 38.90536516666667, "is_reserved": 0, "lon": -76.99809616666667, "fusion_lon": 0.0, "is_disabled": 0, "fusion_lat": 0.0, "bike_id": "48a0c4c8e606c728d6f479c149d7db21", "rental_uris": {"ios": "https://dc.lft.to/lastmile_qr_scan", "android": "https://dc.lft.to/lastmile_qr_scan"}}, {"name": "f6b45308288bc55ac39c40b9fa049bb9", "type": "electric_scooter", "lat": 38.8670095, "is_reserved": 0, "lon": -76.98713816666667, "fusion_lon": 0.0, "is_disabled": 0, "fusion_lat": 0.0, "bike_id": "f6b45308288bc55ac39c40b9fa049bb9", "rental_uris": {"ios": "https://dc.lft.to/lastmile_qr_scan", "android": "https://dc.lft.to/lastmile_qr_scan"}}, {"name": "d11e21943e9cd42ebcb613b010a69b83", "type": "electric_scooter", "lat": 38.91857683333333, "is_reserved": 0, "lon": -77.0444125, "fusion_lon": 0.0, "is_disabled": 0, "fusion_lat": 0.0, "bike_id": "d11e21943e9cd42ebcb613b010a69b83", "rental_uris": {"ios": "https://dc.lft.to/lastmile_qr_scan", "android": "https://dc.lft.to/lastmile_qr_scan"}}, {"name": "58ba4e2ecaa23cf7119660f61a256b39", "type": "electric_scooter", "lat": 38.916347333333334, "is_reserved": 0, "lon": -77.03151616666666, "fusion_lon": 0.0, "is_disabled": 0, "fusion_lat": 0.0, "bike_id": "58ba4e2ecaa23cf7119660f61a256b39", "rental_uris": {"ios": "https://dc.lft.to/lastmile_qr_scan", "android": "https://dc.lft.to/lastmile_qr_scan"}}, {"name": "97da7a203cd30f1d51ec668986d86ebf", "type": "electric_scooter", "lat": 38.903679, "is_reserved": 0, "lon": -77.01635916666666, "fusion_lon": 0.0, "is_disabled": 0, "fusion_lat": 0.0, "bike_id": "97da7a203cd30f1d51ec668986d86ebf", "rental_uris": {"ios": "https://dc.lft.to/lastmile_qr_scan", "android": "https://dc.lft.to/lastmile_qr_scan"}}, {"name": "8995402726f6857ee56351de6daacdf2", "type": "electric_scooter", "lat": 38.908978166666664, "is_reserved": 0, "lon": -77.08667066666666, "fusion_lon": 0.0, "is_disabled": 0, "fusion_lat": 0.0, "bike_id": "8995402726f6857ee56351de6daacdf2", "rental_uris": {"ios": "https://dc.lft.to/lastmile_qr_scan", "android": "https://dc.lft.to/lastmile_qr_scan"}}, {"name": "c693dae73aa2d8d8506a4c43ff5e55c9", "type": "electric_bike", "lat": 38.8798035, "is_reserved": 0, "lon": -76.91599833333333, "fusion_lon": 0.0, "is_disabled": 0, "fusion_lat": 0.0, "bike_id": "c693dae73aa2d8d8506a4c43ff5e55c9", "rental_uris": {"ios": "https://dc.lft.to/lastmile_qr_scan", "android": "https://dc.lft.to/lastmile_qr_scan"}}, {"name": "78b61604814f3beb98da0540a9c3a39c", "type": "electric_scooter", "lat": 38.899182, "is_reserved": 0, "lon": -76.933858, "fusion_lon": 0.0, "is_disabled": 0, "fusion_lat": 0.0, "bike_id": "78b61604814f3beb98da0540a9c3a39c", "rental_uris": {"ios": "https://dc.lft.to/lastmile_qr_scan", "android": "https://dc.lft.to/lastmile_qr_scan"}}, {"name": "b689eea567ab37d6f776481a31ac0ac6", "type": "electric_bike", "lat": 38.824498166666665, "is_reserved": 0, "lon": -77.07043733333333, "fusion_lon": 0.0, "is_disabled": 0, "fusion_lat": 0.0, "bike_id": "b689eea567ab37d6f776481a31ac0ac6", "rental_uris": {"ios": "https://dc.lft.to/lastmile_qr_scan", "android": "https://dc.lft.to/lastmile_qr_scan"}}, {"name": "0109f28704163ae9858275fcf1d1db8a", "type": "electric_scooter", "lat": 38.92022083333333, "is_reserved": 0, "lon": -77.0311325, "fusion_lon": 0.0, "is_disabled": 0, "fusion_lat": 0.0, "bike_id": "0109f28704163ae9858275fcf1d1db8a", "rental_uris": {"ios": "https://dc.lft.to/lastmile_qr_scan", "android": "https://dc.lft.to/lastmile_qr_scan"}}, {"name": "d53acf1c191d88f1dc6ef2926bb8df9a", "type": "electric_bike", "lat": 38.918579666666666, "is_reserved": 0, "lon": -76.96090583333333, "fusion_lon": 0.0, "is_disabled": 0, "fusion_lat": 0.0, "bike_id": "d53acf1c191d88f1dc6ef2926bb8df9a", "rental_uris": {"ios": "https://dc.lft.to/lastmile_qr_scan", "android": "https://dc.lft.to/lastmile_qr_scan"}}, {"name": "ab3dea1ec5bea1207823290d08ae5ff9", "type": "electric_scooter", "lat": 38.8923545, "is_reserved": 0, "lon": -77.0321385, "fusion_lon": 0.0, "is_disabled": 0, "fusion_lat": 0.0, "bike_id": "ab3dea1ec5bea1207823290d08ae5ff9", "rental_uris": {"ios": "https://dc.lft.to/lastmile_qr_scan", "android": "https://dc.lft.to/lastmile_qr_scan"}}, {"name": "979083c28a48a03050c582e0dc927ba6", "type": "electric_scooter", "lat": 38.92046716666667, "is_reserved": 0, "lon": -77.03473533333333, "fusion_lon": 0.0, "is_disabled": 0, "fusion_lat": 0.0, "bike_id": "979083c28a48a03050c582e0dc927ba6", "rental_uris": {"ios": "https://dc.lft.to/lastmile_qr_scan", "android": "https://dc.lft.to/lastmile_qr_scan"}}, {"name": "944fe34195b5d84df07f1ff3b65794dd", "type": "electric_scooter", "lat": 38.922379166666666, "is_reserved": 0, "lon": -77.04129883333333, "fusion_lon": 0.0, "is_disabled": 0, "fusion_lat": 0.0, "bike_id": "944fe34195b5d84df07f1ff3b65794dd", "rental_uris": {"ios": "https://dc.lft.to/lastmile_qr_scan", "android": "https://dc.lft.to/lastmile_qr_scan"}}, {"name": "a18c7da765b5dd4fbe8d9456840f9bab", "type": "electric_scooter", "lat": 38.90031, "is_reserved": 0, "lon": -76.99734116666667, "fusion_lon": 0.0, "is_disabled": 0, "fusion_lat": 0.0, "bike_id": "a18c7da765b5dd4fbe8d9456840f9bab", "rental_uris": {"ios": "https://dc.lft.to/lastmile_qr_scan", "android": "https://dc.lft.to/lastmile_qr_scan"}}, {"name": "9f2172ab02defc239eb53dd4893c66ac", "type": "electric_scooter", "lat": 38.92311766666667, "is_reserved": 0, "lon": -77.02978183333333, "fusion_lon": 0.0, "is_disabled": 0, "fusion_lat": 0.0, "bike_id": "9f2172ab02defc239eb53dd4893c66ac", "rental_uris": {"ios": "https://dc.lft.to/lastmile_qr_scan", "android": "https://dc.lft.to/lastmile_qr_scan"}}, {"name": "56eb8ce0e924d995a84dfb5d9ba84ea3", "type": "electric_scooter", "lat": 38.943137166666666, "is_reserved": 0, "lon": -77.05915033333333, "fusion_lon": 0.0, "is_disabled": 0, "fusion_lat": 0.0, "bike_id": "56eb8ce0e924d995a84dfb5d9ba84ea3", "rental_uris": {"ios": "https://dc.lft.to/lastmile_qr_scan", "android": "https://dc.lft.to/lastmile_qr_scan"}}, {"name": "00dc911bd9efffd5b2cab28de98efa41", "type": "electric_scooter", "lat": 38.90125116666667, "is_reserved": 0, "lon": -77.0449785, "fusion_lon": 0.0, "is_disabled": 0, "fusion_lat": 0.0, "bike_id": "00dc911bd9efffd5b2cab28de98efa41", "rental_uris": {"ios": "https://dc.lft.to/lastmile_qr_scan", "android": "https://dc.lft.to/lastmile_qr_scan"}}, {"name": "15805bb0508d615be14e5e985e8591a6", "type": "electric_scooter", "lat": 38.8694315, "is_reserved": 0, "lon": -76.9785685, "fusion_lon": 0.0, "is_disabled": 0, "fusion_lat": 0.0, "bike_id": "15805bb0508d615be14e5e985e8591a6", "rental_uris": {"ios": "https://dc.lft.to/lastmile_qr_scan", "android": "https://dc.lft.to/lastmile_qr_scan"}}, {"name": "67d0a3edb61f1762d9cee71ba190fc73", "type": "electric_scooter", "lat": 38.895609666666665, "is_reserved": 0, "lon": -76.97470466666667, "fusion_lon": 0.0, "is_disabled": 0, "fusion_lat": 0.0, "bike_id": "67d0a3edb61f1762d9cee71ba190fc73", "rental_uris": {"ios": "https://dc.lft.to/lastmile_qr_scan", "android": "https://dc.lft.to/lastmile_qr_scan"}}, {"name": "9aa735814dd47721d6bc45db8ecadf83", "type": "electric_scooter", "lat": 38.865736166666665, "is_reserved": 0, "lon": -76.98951033333333, "fusion_lon": 0.0, "is_disabled": 0, "fusion_lat": 0.0, "bike_id": "9aa735814dd47721d6bc45db8ecadf83", "rental_uris": {"ios": "https://dc.lft.to/lastmile_qr_scan", "android": "https://dc.lft.to/lastmile_qr_scan"}}, {"name": "d74e799adcb735d3839ccf8842604d77", "type": "electric_bike", "lat": 38.8840445, "is_reserved": 0, "lon": -77.046455, "fusion_lon": 0.0, "is_disabled": 0, "fusion_lat": 0.0, "bike_id": "d74e799adcb735d3839ccf8842604d77", "rental_uris": {"ios": "https://dc.lft.to/lastmile_qr_scan", "android": "https://dc.lft.to/lastmile_qr_scan"}}, {"name": "d355e578605fb886b3d3c7486b58598a", "type": "electric_bike", "lat": 38.9114345, "is_reserved": 0, "lon": -77.00302366666666, "fusion_lon": 0.0, "is_disabled": 0, "fusion_lat": 0.0, "bike_id": "d355e578605fb886b3d3c7486b58598a", "rental_uris": {"ios": "https://dc.lft.to/lastmile_qr_scan", "android": "https://dc.lft.to/lastmile_qr_scan"}}, {"name": "f4e37dffc6958bba9d47ae52ea73190f", "type": "electric_scooter", "lat": 38.92487883333333, "is_reserved": 0, "lon": -77.02713666666666, "fusion_lon": 0.0, "is_disabled": 0, "fusion_lat": 0.0, "bike_id": "f4e37dffc6958bba9d47ae52ea73190f", "rental_uris": {"ios": "https://dc.lft.to/lastmile_qr_scan", "android": "https://dc.lft.to/lastmile_qr_scan"}}, {"name": "fc0f84bda53dedfb27fd2924a70c2542", "type": "electric_scooter", "lat": 38.89918466666666, "is_reserved": 0, "lon": -76.93382816666667, "fusion_lon": 0.0, "is_disabled": 0, "fusion_lat": 0.0, "bike_id": "fc0f84bda53dedfb27fd2924a70c2542", "rental_uris": {"ios": "https://dc.lft.to/lastmile_qr_scan", "android": "https://dc.lft.to/lastmile_qr_scan"}}, {"name": "5aac9f3f24ee081d2d3f2cc70bac8288", "type": "electric_scooter", "lat": 38.900841666666665, "is_reserved": 0, "lon": -77.05910033333333, "fusion_lon": 0.0, "is_disabled": 0, "fusion_lat": 0.0, "bike_id": "5aac9f3f24ee081d2d3f2cc70bac8288", "rental_uris": {"ios": "https://dc.lft.to/lastmile_qr_scan", "android": "https://dc.lft.to/lastmile_qr_scan"}}, {"name": "29002d8690bbf997ba4e7c3096b2a238", "type": "electric_scooter", "lat": 38.930924, "is_reserved": 0, "lon": -77.03669583333334, "fusion_lon": 0.0, "is_disabled": 0, "fusion_lat": 0.0, "bike_id": "29002d8690bbf997ba4e7c3096b2a238", "rental_uris": {"ios": "https://dc.lft.to/lastmile_qr_scan", "android": "https://dc.lft.to/lastmile_qr_scan"}}, {"name": "31d677b3479c4873e888fa1a67d9bdec", "type": "electric_bike", "lat": 38.880401166666665, "is_reserved": 0, "lon": -77.02525666666666, "fusion_lon": 0.0, "is_disabled": 0, "fusion_lat": 0.0, "bike_id": "31d677b3479c4873e888fa1a67d9bdec", "rental_uris": {"ios": "https://dc.lft.to/lastmile_qr_scan", "android": "https://dc.lft.to/lastmile_qr_scan"}}, {"name": "f56ee7b1e0b6823db04fbf66f2e19afd", "type": "electric_scooter", "lat": 38.95735583333333, "is_reserved": 0, "lon": -77.02401133333333, "fusion_lon": 0.0, "is_disabled": 0, "fusion_lat": 0.0, "bike_id": "f56ee7b1e0b6823db04fbf66f2e19afd", "rental_uris": {"ios": "https://dc.lft.to/lastmile_qr_scan", "android": "https://dc.lft.to/lastmile_qr_scan"}}, {"name": "fdc7346a914e4a5595b1ffb86aa581b4", "type": "electric_scooter", "lat": 38.92430016666667, "is_reserved": 0, "lon": -77.05176183333333, "fusion_lon": 0.0, "is_disabled": 0, "fusion_lat": 0.0, "bike_id": "fdc7346a914e4a5595b1ffb86aa581b4", "rental_uris": {"ios": "https://dc.lft.to/lastmile_qr_scan", "android": "https://dc.lft.to/lastmile_qr_scan"}}, {"name": "b2e1a6ec13e99514576f447d4515f283", "type": "electric_scooter", "lat": 38.894763833333336, "is_reserved": 0, "lon": -76.98402566666667, "fusion_lon": 0.0, "is_disabled": 0, "fusion_lat": 0.0, "bike_id": "b2e1a6ec13e99514576f447d4515f283", "rental_uris": {"ios": "https://dc.lft.to/lastmile_qr_scan", "android": "https://dc.lft.to/lastmile_qr_scan"}}, {"name": "dd338d55b112982adbacf93d6d608edf", "type": "electric_bike", "lat": 38.85158033333333, "is_reserved": 0, "lon": -77.12876466666667, "fusion_lon": 0.0, "is_disabled": 0, "fusion_lat": 0.0, "bike_id": "dd338d55b112982adbacf93d6d608edf", "rental_uris": {"ios": "https://dc.lft.to/lastmile_qr_scan", "android": "https://dc.lft.to/lastmile_qr_scan"}}, {"name": "b44358ad54614e93a16400301a566a3e", "type": "electric_scooter", "lat": 38.897751166666666, "is_reserved": 0, "lon": -76.9772895, "fusion_lon": 0.0, "is_disabled": 0, "fusion_lat": 0.0, "bike_id": "b44358ad54614e93a16400301a566a3e", "rental_uris": {"ios": "https://dc.lft.to/lastmile_qr_scan", "android": "https://dc.lft.to/lastmile_qr_scan"}}, {"name": "5f148e59ef65b1807aae3e892b36a416", "type": "electric_scooter", "lat": 38.9405185, "is_reserved": 0, "lon": -77.0328175, "fusion_lon": 0.0, "is_disabled": 0, "fusion_lat": 0.0, "bike_id": "5f148e59ef65b1807aae3e892b36a416", "rental_uris": {"ios": "https://dc.lft.to/lastmile_qr_scan", "android": "https://dc.lft.to/lastmile_qr_scan"}}, {"name": "e752973d542e5be0b99c8359bbdb80ff", "type": "electric_scooter", "lat": 38.86372033333333, "is_reserved": 0, "lon": -76.99060283333333, "fusion_lon": 0.0, "is_disabled": 0, "fusion_lat": 0.0, "bike_id": "e752973d542e5be0b99c8359bbdb80ff", "rental_uris": {"ios": "https://dc.lft.to/lastmile_qr_scan", "android": "https://dc.lft.to/lastmile_qr_scan"}}, {"name": "56fb679281fdd519790b42b30869bac7", "type": "electric_bike", "lat": 38.892276333333335, "is_reserved": 0, "lon": -76.9702645, "fusion_lon": 0.0, "is_disabled": 0, "fusion_lat": 0.0, "bike_id": "56fb679281fdd519790b42b30869bac7", "rental_uris": {"ios": "https://dc.lft.to/lastmile_qr_scan", "android": "https://dc.lft.to/lastmile_qr_scan"}}, {"name": "fc8f931d34edc1958f4ec2c3b091dcd5", "type": "electric_scooter", "lat": 38.942713, "is_reserved": 0, "lon": -77.0325915, "fusion_lon": 0.0, "is_disabled": 0, "fusion_lat": 0.0, "bike_id": "fc8f931d34edc1958f4ec2c3b091dcd5", "rental_uris": {"ios": "https://dc.lft.to/lastmile_qr_scan", "android": "https://dc.lft.to/lastmile_qr_scan"}}, {"name": "f774cfc2f1d6bd973df1c260a365f0d5", "type": "electric_scooter", "lat": 38.893598, "is_reserved": 0, "lon": -77.0198525, "fusion_lon": 0.0, "is_disabled": 0, "fusion_lat": 0.0, "bike_id": "f774cfc2f1d6bd973df1c260a365f0d5", "rental_uris": {"ios": "https://dc.lft.to/lastmile_qr_scan", "android": "https://dc.lft.to/lastmile_qr_scan"}}, {"name": "ab25c66ff50b4e9da2627ba98bafa32a", "type": "electric_scooter", "lat": 38.907371166666664, "is_reserved": 0, "lon": -77.04001016666666, "fusion_lon": 0.0, "is_disabled": 0, "fusion_lat": 0.0, "bike_id": "ab25c66ff50b4e9da2627ba98bafa32a", "rental_uris": {"ios": "https://dc.lft.to/lastmile_qr_scan", "android": "https://dc.lft.to/lastmile_qr_scan"}}, {"name": "bf3b11dd5c0f209691cb91e6a4a8d2b5", "type": "electric_scooter", "lat": 38.90376766666667, "is_reserved": 0, "lon": -77.01753866666667, "fusion_lon": 0.0, "is_disabled": 0, "fusion_lat": 0.0, "bike_id": "bf3b11dd5c0f209691cb91e6a4a8d2b5", "rental_uris": {"ios": "https://dc.lft.to/lastmile_qr_scan", "android": "https://dc.lft.to/lastmile_qr_scan"}},