{"data": {"bikes": [{"lon": -77.02347633333333, "lat": 38.962073, "name": "05767c1a7f557a3d43320851d5d17525", "fusion_lat": 0.0, "fusion_lon": 0.0, "rental_uris": {"android": "https://dc.lft.to/lastmile_qr_scan", "ios": "https://dc.lft.to/lastmile_qr_scan"}, "is_reserved": 0, "is_disabled": 0, "type": "electric_scooter", "bike_id": "05767c1a7f557a3d43320851d5d17525"}, {"lon": -77.04217716666666, "lat": 38.90753016666667, "name": "2279a4479212c52bb031bac9e40b9654", "fusion_lat": 0.0, "fusion_lon": 0.0, "rental_uris": {"android": "https://dc.lft.to/lastmile_qr_scan", "ios": "https://dc.lft.to/lastmile_qr_scan"}, "is_reserved": 0, "is_disabled": 0, "type": "electric_scooter", "bike_id": "2279a4479212c52bb031bac9e40b9654"}, {"lon": -77.03849583333333, "lat": 38.912807666666666, "name": "b67801aff71c3d0f99e965d47253e346", "fusion_lat": 0.0, "fusion_lon": 0.0, "rental_uris": {"android": "https://dc.lft.to/lastmile_qr_scan", "ios": "https://dc.lft.to/lastmile_qr_scan"}, "is_reserved": 0, "is_disabled": 0, "type": "electric_scooter", "bike_id": "b67801aff71c3d0f99e965d47253e346"}, {"lon": -77.04336333333333, "lat": 38.92225366666667, "name": "e6bf9df4b2d9d4c9b7edf226765bb149", "fusion_lat": 0.0, "fusion_lon": 0.0, "rental_uris": {"android": "https://dc.lft.to/lastmile_qr_scan", "ios": "https://dc.lft.to/lastmile_qr_scan"}, "is_reserved": 0, "is_disabled": 0, "type": "electric_scooter", "bike_id": "e6bf9df4b2d9d4c9b7edf226765bb149"}, {"lon": -77.04349316666666, "lat": 38.903801666666666, "name": "5b59c0c22dc6a58d3937301f4295c6fd", "fusion_lat": 0.0, "fusion_lon": 0.0, "rental_uris": {"android": "https://dc.lft.to/lastmile_qr_scan", "ios": "https://dc.lft.to/lastmile_qr_scan"}, "is_reserved": 0, "is_disabled": 0, "type": "electric_scooter", "bike_id": "5b59c0c22dc6a58d3937301f4295c6fd"}, {"lon": -77.0044345, "lat": 38.876566833333335, "name": "595c6afa46be5984f4c0892854dbaec6", "fusion_lat": 0.0, "fusion_lon": 0.0, "rental_uris": {"android": "https://dc.lft.to/lastmile_qr_scan", "ios": "https://dc.lft.to/lastmile_qr_scan"}, "is_reserved": 0, "is_disabled": 0, "type": "electric_scooter", "bike_id": "595c6afa46be5984f4c0892854dbaec6"}, {"lon": -77.04387733333333, "lat": 38.929377833333334, "name": "6725c64f611e7b1b4cf97e4959a2f07e", "fusion_lat": 0.0, "fusion_lon": 0.0, "rental_uris": {"android": "https://dc.lft.to/lastmile_qr_scan", "ios": "https://dc.lft.to/lastmile_qr_scan"}, "is_reserved": 0, "is_disabled": 0, "type": "electric_scooter", "bike_id": "6725c64f611e7b1b4cf97e4959a2f07e"}, {"lon": -77.04288383333333, "lat": 38.916137166666665, "name": "e09401b49b8fd33d1b37d486c1ed0e46", "fusion_lat": 0.0, "fusion_lon": 0.0, "rental_uris": {"android": "https://dc.lft.to/lastmile_qr_scan", "ios": "https://dc.lft.to/lastmile_qr_scan"}, "is_reserved": 0, "is_disabled": 0, "type": "electric_scooter", "bike_id": "e09401b49b8fd33d1b37d486c1ed0e46"}, {"lon": -77.12506316666666, "lat": 39.024199333333335, "name": "953be8441a78526b72480ee240021ae5", "fusion_lat": 0.0, "fusion_lon": 0.0, "rental_uris": {"android": "https://dc.lft.to/lastmile_qr_scan", "ios": "https://dc.lft.to/lastmile_qr_scan"}, "is_reserved": 0, "is_disabled": 0, "type": "electric_bike", "bike_id": "953be8441a78526b72480ee240021ae5"}, {"lon": -77.22587166666666, "lat": 38.92962683333333, "name": "7ae810f22c61d6f53055ccf647763d22", "fusion_lat": 0.0, "fusion_lon": 0.0, "rental_uris": {"android": "https://dc.lft.to/lastmile_qr_scan", "ios": "https://dc.lft.to/lastmile_qr_scan"}, "is_reserved": 0, "is_disabled": 0, "type": "electric_bike", "bike_id": "7ae810f22c61d6f53055ccf647763d22"}, {"lon": -77.02506416666667, "lat": 38.90566966666667, "name": "5110694d2006275e24dea4ac799e2daa", "fusion_lat": 0.0, "fusion_lon": 0.0, "rental_uris": {"android": "https://dc.lft.to/lastmile_qr_scan", "ios": "https://dc.lft.to/lastmile_qr_scan"}, "is_reserved": 0, "is_disabled": 0, "type": "electric_scooter", "bike_id": "5110694d2006275e24dea4ac799e2daa"}, {"lon": -77.00589916666667, "lat": 38.915639666666664, "name": "d9eb9d9e595c91cc919e661f6abc75d7", "fusion_lat": 0.0, "fusion_lon": 0.0, "rental_uris": {"android": "https://dc.lft.to/lastmile_qr_scan", "ios": "https://dc.lft.to/lastmile_qr_scan"}, "is_reserved": 0, "is_disabled": 0, "type": "electric_scooter", "bike_id": "d9eb9d9e595c91cc919e661f6abc75d7"}, {"lon": -77.036576, "lat": 38.930677833333334, "name": "6e928b6474ce366e0a6888e7994d4a66", "fusion_lat": 0.0, "fusion_lon": 0.0, "rental_uris": {"android": "https://dc.lft.to/lastmile_qr_scan", "ios": "https://dc.lft.to/lastmile_qr_scan"}, "is_reserved": 0, "is_disabled": 0, "type": "electric_scooter", "bike_id": "6e928b6474ce366e0a6888e7994d4a66"}, {"lon": -77.02358183333334, "lat": 38.89740483333333, "name": "896dd6555b20758eea7ae71457a5b231", "fusion_lat": 0.0, "fusion_lon": 0.0, "rental_uris": {"android": "https://dc.lft.to/lastmile_qr_scan", "ios": "https://dc.lft.to/lastmile_qr_scan"}, "is_reserved": 0, "is_disabled": 0, "type": "electric_scooter", "bike_id": "896dd6555b20758eea7ae71457a5b231"}, {"lon": -77.0464745, "lat": 38.852098, "name": "1993458c2f19c784f3dc589d00b5998b", "fusion_lat": 0.0, "fusion_lon": 0.0, "rental_uris": {"android": "https://dc.lft.to/lastmile_qr_scan", "ios": "https://dc.lft.to/lastmile_qr_scan"}, "is_reserved": 0, "is_disabled": 0, "type": "electric_bike", "bike_id": "1993458c2f19c784f3dc589d00b5998b"}, {"lon": -77.02160916666666, "lat": 38.924592833333335, "name": "a4fed11ffb741cf23737079667ce80a9", "fusion_lat": 0.0, "fusion_lon": 0.0, "rental_uris": {"android": "https://dc.lft.to/lastmile_qr_scan", "ios": "https://dc.lft.to/lastmile_qr_scan"}, "is_reserved": 0, "is_disabled": 0, "type": "electric_scooter", "bike_id": "a4fed11ffb741cf23737079667ce80a9"}, {"lon": -76.9994455, "lat": 38.8429125, "name": "5d62553ecad04fff87d4999c3b79d646", "fusion_lat": 0.0, "fusion_lon": 0.0, "rental_uris": {"android": "https://dc.lft.to/lastmile_qr_scan", "ios": "https://dc.lft.to/lastmile_qr_scan"}, "is_reserved": 0, "is_disabled": 0, "type": "electric_scooter", "bike_id": "5d62553ecad04fff87d4999c3b79d646"}, {"lon": -77.04442166666666, "lat": 38.9187385, "name": "606c1a53f0f590c10e99d7d3acc54906", "fusion_lat": 0.0, "fusion_lon": 0.0, "rental_uris": {"android": "https://dc.lft.to/lastmile_qr_scan", "ios": "https://dc.lft.to/lastmile_qr_scan"}, "is_reserved": 0, "is_disabled": 0, "type": "electric_scooter", "bike_id": "606c1a53f0f590c10e99d7d3acc54906"}, {"lon": -77.03744066666667, "lat": 38.916922, "name": "e2da55d9f69e69db9843373f6cf5e98b", "fusion_lat": 0.0, "fusion_lon": 0.0, "rental_uris": {"android": "https://dc.lft.to/lastmile_qr_scan", "ios": "https://dc.lft.to/lastmile_qr_scan"}, "is_reserved": 0, "is_disabled": 0, "type": "electric_scooter", "bike_id": "e2da55d9f69e69db9843373f6cf5e98b"}, {"lon": -77.03322183333333, "lat": 38.900141833333336, "name": "138c520ea3273a1f08fc439eff8be7f7", "fusion_lat": 0.0, "fusion_lon": 0.0, "rental_uris": {"android": "https://dc.lft.to/lastmile_qr_scan", "ios": "https://dc.lft.to/lastmile_qr_scan"}, "is_reserved": 0, "is_disabled": 0, "type": "electric_scooter", "bike_id": "138c520ea3273a1f08fc439eff8be7f7"}, {"lon": -77.03167616666667, "lat": 38.9445675, "name": "c2e751b5c9559fb50167bb12a19722bc", "fusion_lat": 0.0, "fusion_lon": 0.0, "rental_uris": {"android": "https://dc.lft.to/lastmile_qr_scan", "ios": "https://dc.lft.to/lastmile_qr_scan"}, "is_reserved": 0, "is_disabled": 0, "type": "electric_bike", "bike_id": "c2e751b5c9559fb50167bb12a19722bc"}, {"lon": -77.02725383333333, "lat": 38.972049166666665, "name": "746649bded813c8cbf33301ac2870f1b", "fusion_lat": 0.0, "fusion_lon": 0.0, "rental_uris": {"android": "https://dc.lft.to/lastmile_qr_scan", "ios": "https://dc.lft.to/lastmile_qr_scan"}, "is_reserved": 0, "is_disabled": 0, "type": "electric_bike", "bike_id": "746649bded813c8cbf33301ac2870f1b"}, {"lon": -76.94734916666667, "lat": 38.89676016666667, "name": "e7d369392d803165093a543ec2192e93", "fusion_lat": 0.0, "fusion_lon": 0.0, "rental_uris": {"android": "https://dc.lft.to/lastmile_qr_scan", "ios": "https://dc.lft.to/lastmile_qr_scan"}, "is_reserved": 0, "is_disabled": 0, "type": "electric_scooter", "bike_id": "e7d369392d803165093a543ec2192e93"}, {"lon": -77.02950266666667, "lat": 38.90506333333333, "name": "4ff938f555e53f568d27013d287dea3b", "fusion_lat": 0.0, "fusion_lon": 0.0, "rental_uris": {"android": "https://dc.lft.to/lastmile_qr_scan", "ios": "https://dc.lft.to/lastmile_qr_scan"}, "is_reserved": 0, "is_disabled": 0, "type": "electric_scooter", "bike_id": "4ff938f555e53f568d27013d287dea3b"}, {"lon": -77.04731483333333, "lat": 38.8997785, "name": "8147ec841013d16c40ea7036c74c00c1", "fusion_lat": 0.0, "fusion_lon": 0.0, "rental_uris": {"android": "https://dc.lft.to/lastmile_qr_scan", "ios": "https://dc.lft.to/lastmile_qr_scan"}, "is_reserved": 0, "is_disabled": 0, "type": "electric_scooter", "bike_id": "8147ec841013d16c40ea7036c74c00c1"}, {"lon": -76.98132166666667, "lat": 38.904975, "name": "573c088c8152b4fff8ccb296872360df", "fusion_lat": 0.0, "fusion_lon": 0.0, "rental_uris": {"android": "https://dc.lft.to/lastmile_qr_scan", "ios": "https://dc.lft.to/lastmile_qr_scan"}, "is_reserved": 0, "is_disabled": 0, "type": "electric_scooter", "bike_id": "573c088c8152b4fff8ccb296872360df"}, {"lon": -77.01130333333333, "lat": 38.89506216666667, "name": "b4631fbbe483c788564e8da5744f807c", "fusion_lat": 0.0, "fusion_lon": 0.0, "rental_uris": {"android": "https://dc.lft.to/lastmile_qr_scan", "ios": "https://dc.lft.to/lastmile_qr_scan"}, "is_reserved": 0, "is_disabled": 0, "type": "electric_scooter", "bike_id": "b4631fbbe483c788564e8da5744f807c"}, {"lon": -76.98684966666667, "lat": 38.88212033333333, "name": "86e7c5cd59be0e6541bfc804b21b7a63", "fusion_lat": 0.0, "fusion_lon": 0.0, "rental_uris": {"android": "https://dc.lft.to/lastmile_qr_scan", "ios": "https://dc.lft.to/lastmile_qr_scan"}, "is_reserved": 0, "is_disabled": 0, "type": "electric_scooter", "bike_id": "86e7c5cd59be0e6541bfc804b21b7a63"}, {"lon": -76.97962083333333, "lat": 38.903795333333335, "name": "d63cd9e6792d432ef40022a48995560f", "fusion_lat": 0.0, "fusion_lon": 0.0, "rental_uris": {"android": "https://dc.lft.to/lastmile_qr_scan", "ios": "https://dc.lft.to/lastmile_qr_scan"}, "is_reserved": 0, "is_disabled": 0, "type": "electric_scooter", "bike_id": "d63cd9e6792d432ef40022a48995560f"}, {"lon": -77.04665866666667, "lat": 38.90744383333333, "name": "c42ef2a8ba1a9412bcaa7bd573e5dc6f", "fusion_lat": 0.0, "fusion_lon": 0.0, "rental_uris": {"android": "https://dc.lft.to/lastmile_qr_scan", "ios": "https://dc.lft.to/lastmile_qr_scan"}, "is_reserved": 0, "is_disabled": 0, "type": "electric_scooter", "bike_id": "c42ef2a8ba1a9412bcaa7bd573e5dc6f"}, {"lon": -77.032776, "lat": 38.910402166666664, "name": "67704d6e3dcd07cd945ab5c687869951", "fusion_lat": 0.0, "fusion_lon": 0.0, "rental_uris": {"android": "https://dc.lft.to/lastmile_qr_scan", "ios": "https://dc.lft.to/lastmile_qr_scan"}, "is_reserved": 0, "is_disabled": 0, "type": "electric_scooter", "bike_id": "67704d6e3dcd07cd945ab5c687869951"}, {"lon": -77.04170266666667, "lat": 38.916122333333334, "name": "d44c526b3e8c6c348a8b046f2e1a0ce5", "fusion_lat": 0.0, "fusion_lon": 0.0, "rental_uris": {"android": "https://dc.lft.to/lastmile_qr_scan", "ios": "https://dc.lft.to/lastmile_qr_scan"}, "is_reserved": 0, "is_disabled": 0, "type": "electric_scooter", "bike_id": "d44c526b3e8c6c348a8b046f2e1a0ce5"}, {"lon": -77.02853466666667, "lat": 38.965028, "name": "2adf7375db000a85e24280bae665ae18", "fusion_lat": 0.0, "fusion_lon": 0.0, "rental_uris": {"android": "https://dc.lft.to/lastmile_qr_scan", "ios": "https://dc.lft.to/lastmile_qr_scan"}, "is_reserved": 0, "is_disabled": 0, "type": "electric_scooter", "bike_id": "2adf7375db000a85e24280bae665ae18"}, {"lon": -77.032991, "lat": 38.93999733333333, "name": "34eb1ea0c841aaaa206fbe2d630d47d3", "fusion_lat": 0.0, "fusion_lon": 0.0, "rental_uris": {"android": "https://dc.lft.to/lastmile_qr_scan", "ios": "https://dc.lft.to/lastmile_qr_scan"}, "is_reserved": 0, "is_disabled": 0, "type": "electric_scooter", "bike_id": "34eb1ea0c841aaaa206fbe2d630d47d3"}, {"lon": -76.9906315, "lat": 38.926604, "name": "ad6e88bee632f3eb83f82b10f0def493", "fusion_lat": 0.0, "fusion_lon": 0.0, "rental_uris": {"android": "https://dc.lft.to/lastmile_qr_scan", "ios": "https://dc.lft.to/lastmile_qr_scan"}, "is_reserved": 0, "is_disabled": 0, "type": "electric_scooter", "bike_id": "ad6e88bee632f3eb83f82b10f0def493"}, {"lon": -77.05750433333333, "lat": 38.90500566666667, "name": "2b97547d805d6f583bef750256ae1f3f", "fusion_lat": 0.0, "fusion_lon": 0.0, "rental_uris": {"android": "https://dc.lft.to/lastmile_qr_scan", "ios": "https://dc.lft.to/lastmile_qr_scan"}, "is_reserved": 0, "is_disabled": 0, "type": "electric_scooter", "bike_id": "2b97547d805d6f583bef750256ae1f3f"}, {"lon": -77.0050955, "lat": 38.875356333333336, "name": "8f1181caffad2c28ea08d5a5f899cd82", "fusion_lat": 0.0, "fusion_lon": 0.0, "rental_uris": {"android": "https://dc.lft.to/lastmile_qr_scan", "ios": "https://dc.lft.to/lastmile_qr_scan"}, "is_reserved": 0, "is_disabled": 0, "type": "electric_scooter", "bike_id": "8f1181caffad2c28ea08d5a5f899cd82"}, {"lon": -77.02410783333333, "lat": 38.93483966666667, "name": "1a5a614e26cbbfe7b3ad525e022d8ecb", "fusion_lat": 0.0, "fusion_lon": 0.0, "rental_uris": {"android": "https://dc.lft.to/lastmile_qr_scan", "ios": "https://dc.lft.to/lastmile_qr_scan"}, "is_reserved": 0, "is_disabled": 0, "type": "electric_scooter", "bike_id": "1a5a614e26cbbfe7b3ad525e022d8ecb"}, {"lon": -76.93436283333334, "lat": 38.899679666666664, "name": "caebebfb8fff4e56968c181efa61ce4c", "fusion_lat": 0.0, "fusion_lon": 0.0, "rental_uris": {"android": "https://dc.lft.to/lastmile_qr_scan", "ios": "https://dc.lft.to/lastmile_qr_scan"}, "is_reserved": 0, "is_disabled": 0, "type": "electric_scooter", "bike_id": "caebebfb8fff4e56968c181efa61ce4c"}, {"lon": -76.99422633333333, "lat": 38.90134183333333, "name": "0e358d1a3e97b5b881e0f959ff08c69c", "fusion_lat": 0.0, "fusion_lon": 0.0, "rental_uris": {"android": "https://dc.lft.to/lastmile_qr_scan", "ios": "https://dc.lft.to/lastmile_qr_scan"}, "is_reserved": 0, "is_disabled": 0, "type": "electric_scooter", "bike_id": "0e358d1a3e97b5b881e0f959ff08c69c"}, {"lon": -77.01206666666667, "lat": 38.912534, "name": "47f015fd9aec080637b98c2eac5a6c70", "fusion_lat": 0.0, "fusion_lon": 0.0, "rental_uris": {"android": "https://dc.lft.to/lastmile_qr_scan", "ios": "https://dc.lft.to/lastmile_qr_scan"}, "is_reserved": 0, "is_disabled": 0, "type": "electric_scooter", "bike_id": "47f015fd9aec080637b98c2eac5a6c70"}, {"lon": -76.99268566666667, "lat": 38.8998585, "name": "a41124f0a6977556f38d03b0178f43b5", "fusion_lat": 0.0, "fusion_lon": 0.0, "rental_uris": {"android": "https://dc.lft.to/lastmile_qr_scan", "ios": "https://dc.lft.to/lastmile_qr_scan"}, "is_reserved": 0, "is_disabled": 0, "type": "electric_scooter", "bike_id": "a41124f0a6977556f38d03b0178f43b5"}, {"lon": -77.00344283333334, "lat": 38.8926565, "name": "61937bdaa060b00c50b93bdb6315eea4", "fusion_lat": 0.0, "fusion_lon": 0.0, "rental_uris": {"android": "https://dc.lft.to/lastmile_qr_scan", "ios": "https://dc.lft.to/lastmile_qr_scan"}, "is_reserved": 0, "is_disabled": 0, "type": "electric_scooter", "bike_id": "61937bdaa060b00c50b93bdb6315eea4"}, {"lon": -76.990036, "lat": 38.86504983333333, "name": "4b70a4972f96bde3f1eea33c5f0d8032", "fusion_lat": 0.0, "fusion_lon": 0.0, "rental_uris": {"android": "https://dc.lft.to/lastmile_qr_scan", "ios": "https://dc.lft.to/lastmile_qr_scan"}, "is_reserved": 0, "is_disabled": 0, "type": "electric_scooter", "bike_id": "4b70a4972f96bde3f1eea33c5f0d8032"}, {"lon": -77.0514305, "lat": 38.908199, "name": "40c72f77ee18ff899962582ebc705f33", "fusion_lat": 0.0, "fusion_lon": 0.0, "rental_uris": {"android": "https://dc.lft.to/lastmile_qr_scan", "ios": "https://dc.lft.to/lastmile_qr_scan"}, "is_reserved": 0, "is_disabled": 0, "type": "electric_scooter", "bike_id": "40c72f77ee18ff899962582ebc705f33"}, {"lon": -76.98381016666667, "lat": 38.914954333333334, "name": "8a90ab64f20617e285e72dd22cbfc3a1", "fusion_lat": 0.0, "fusion_lon": 0.0, "rental_uris": {"android": "https://dc.lft.to/lastmile_qr_scan", "ios": "https://dc.lft.to/lastmile_qr_scan"}, "is_reserved": 0, "is_disabled": 0, "type": "electric_scooter", "bike_id": "8a90ab64f20617e285e72dd22cbfc3a1"}, {"lon": -77.015098, "lat": 38.9134885, "name": "507bfbfc3a4fe81e8d16c980a24e020e", "fusion_lat": 0.0, "fusion_lon": 0.0, "rental_uris": {"android": "https://dc.lft.to/lastmile_qr_scan", "ios": "https://dc.lft.to/lastmile_qr_scan"}, "is_reserved": 0, "is_disabled": 0, "type": "electric_scooter", "bike_id": "507bfbfc3a4fe81e8d16c980a24e020e"}, {"lon": -76.9987825, "lat": 38.907553, "name": "14229bcf13ad246dc0913fe7042f4931", "fusion_lat": 0.0, "fusion_lon": 0.0, "rental_uris": {"android": "https://dc.lft.to/lastmile_qr_scan", "ios": "https://dc.lft.to/lastmile_qr_scan"}, "is_reserved": 0, "is_disabled": 0, "type": "electric_scooter", "bike_id": "14229bcf13ad246dc0913fe7042f4931"}, {"lon": -77.03870133333334, "lat": 38.91257683333333, "name": "91d66b5ce99a65fb45e8a180501a8d43", "fusion_lat": 0.0, "fusion_lon": 0.0, "rental_uris": {"android": "https://dc.lft.to/lastmile_qr_scan", "ios": "https://dc.lft.to/lastmile_qr_scan"}, "is_reserved": 0, "is_disabled": 0, "type": "electric_scooter", "bike_id": "91d66b5ce99a65fb45e8a180501a8d43"}, {"lon": -77.0005, "lat": 38.90703966666667, "name": "fea6cf9d08a2ad27ec0a10a5cf77dee8", "fusion_lat": 0.0, "fusion_lon": 0.0, "rental_uris": {"android": "https://dc.lft.to/lastmile_qr_scan", "ios": "https://dc.lft.to/lastmile_qr_scan"}, "is_reserved": 0, "is_disabled": 0, "type": "electric_scooter", "bike_id": "fea6cf9d08a2ad27ec0a10a5cf77dee8"}, {"lon": -77.03164733333334, "lat": 38.91411383333333, "name": "c4d741efe4e314c50ea005f282458b6d", "fusion_lat": 0.0, "fusion_lon": 0.0, "rental_uris": {"android": "https://dc.lft.to/lastmile_qr_scan", "ios": "https://dc.lft.to/lastmile_qr_scan"}, "is_reserved": 0, "is_disabled": 0, "type": "electric_scooter", "bike_id": "c4d741efe4e314c50ea005f282458b6d"}, {"lon": -77.00219266666667, "lat": 38.905122, "name": "d10b54747474b62987ef822f8283ea4b", "fusion_lat": 0.0, "fusion_lon": 0.0, "rental_uris": {"android": "https://dc.lft.to/lastmile_qr_scan", "ios": "https://dc.lft.to/lastmile_qr_scan"}, "is_reserved": 0, "is_disabled": 0, "type": "electric_scooter", "bike_id": "d10b54747474b62987ef822f8283ea4b"}, {"lon": -77.02806266666667, "lat": 38.89246283333333, "name": "73fcdcad44b3c05e0c0063d32a4e2784", "fusion_lat": 0.0, "fusion_lon": 0.0, "rental_uris": {"android": "https://dc.lft.to/lastmile_qr_scan", "ios": "https://dc.lft.to/lastmile_qr_scan"}, "is_reserved": 0, "is_disabled": 0, "type": "electric_scooter", "bike_id": "73fcdcad44b3c05e0c0063d32a4e2784"}, {"lon": -76.9917135, "lat": 38.879243333333335, "name": "7c1115b00a3610196dc106f1f251d245", "fusion_lat": 0.0, "fusion_lon": 0.0, "rental_uris": {"android": "https://dc.lft.to/lastmile_qr_scan", "ios": "https://dc.lft.to/lastmile_qr_scan"}, "is_reserved": 0, "is_disabled": 0, "type": "electric_scooter", "bike_id": "7c1115b00a3610196dc106f1f251d245"}, {"lon": -77.064783, "lat": 38.973816, "name": "520846feff3b54a164bd80a820969e17", "fusion_lat": 0.0, "fusion_lon": 0.0, "rental_uris": {"android": "https://dc.lft.to/lastmile_qr_scan", "ios": "https://dc.lft.to/lastmile_qr_scan"}, "is_reserved": 0, "is_disabled": 0, "type": "electric_bike", "bike_id": "520846feff3b54a164bd80a820969e17"}, {"lon": -77.04198266666667, "lat": 38.934179666666665, "name": "3f38a62ead3f48761ba89e7eb221c74f", "fusion_lat": 0.0, "fusion_lon": 0.0, "rental_uris": {"android": "https://dc.lft.to/lastmile_qr_scan", "ios": "https://dc.lft.to/lastmile_qr_scan"}, "is_reserved": 0, "is_disabled": 0, "type": "electric_bike", "bike_id": "3f38a62ead3f48761ba89e7eb221c74f"}, {"lon": -77.033896, "lat": 38.92158833333333, "name": "2674aa27cfd0f7ff5e8246913404517d", "fusion_lat": 0.0, "fusion_lon": 0.0, "rental_uris": {"android": "https://dc.lft.to/lastmile_qr_scan", "ios": "https://dc.lft.to/lastmile_qr_scan"}, "is_reserved": 0, "is_disabled": 0, "type": "electric_scooter", "bike_id": "2674aa27cfd0f7ff5e8246913404517d"}, {"lon": -77.0206415, "lat": 38.92015166666667, "name": "0462299015e2f4338ef6fc4a10750246", "fusion_lat": 0.0, "fusion_lon": 0.0, "rental_uris": {"android": "https://dc.lft.to/lastmile_qr_scan", "ios": "https://dc.lft.to/lastmile_qr_scan"}, "is_reserved": 0, "is_disabled": 0, "type": "electric_scooter", "bike_id": "0462299015e2f4338ef6fc4a10750246"}, {"lon": -77.03814283333334, "lat": 38.92558983333333, "name": "5fd956acf5604fbd8cf04ccf14531bb7", "fusion_lat": 0.0, "fusion_lon": 0.0, "rental_uris": {"android": "https://dc.lft.to/lastmile_qr_scan", "ios": "https://dc.lft.to/lastmile_qr_scan"}, "is_reserved": 0, "is_disabled": 0, "type": "electric_scooter", "bike_id": "5fd956acf5604fbd8cf04ccf14531bb7"}, {"lon": -77.02812933333334, "lat": 38.89525183333333, "name": "236e6ced28a93a7316977bfeddb5c8ef", "fusion_lat": 0.0, "fusion_lon": 0.0, "rental_uris": {"android": "https://dc.lft.to/lastmile_qr_scan", "ios": "https://dc.lft.to/lastmile_qr_scan"}, "is_reserved": 0, "is_disabled": 0, "type": "electric_scooter", "bike_id": "236e6ced28a93a7316977bfeddb5c8ef"}, {"lon": -77.04259816666666, "lat": 38.917045333333334, "name": "25f4e095caaee9701afe131351dff545", "fusion_lat": 0.0, "fusion_lon": 0.0, "rental_uris": {"android": "https://dc.lft.to/lastmile_qr_scan", "ios": "https://dc.lft.to/lastmile_qr_scan"}, "is_reserved": 0, "is_disabled": 0, "type": "electric_scooter", "bike_id": "25f4e095caaee9701afe131351dff545"}, {"lon": -77.01433, "lat": 38.929894833333336, "name": "9cc4a0295420ed4392832ecfc166a110", "fusion_lat": 0.0, "fusion_lon": 0.0, "rental_uris": {"android": "https://dc.lft.to/lastmile_qr_scan", "ios": "https://dc.lft.to/lastmile_qr_scan"}, "is_reserved": 0, "is_disabled": 0, "type": "electric_scooter", "bike_id": "9cc4a0295420ed4392832ecfc166a110"}, {"lon": -77.02835366666666, "lat": 38.887692666666666, "name": "d48bdc3884f0f25f5eb9109dc410bb1a", "fusion_lat": 0.0, "fusion_lon": 0.0, "rental_uris": {"android": "https://dc.lft.to/lastmile_qr_scan", "ios": "https://dc.lft.to/lastmile_qr_scan"}, "is_reserved": 0, "is_disabled": 0, "type": "electric_scooter", "bike_id": "d48bdc3884f0f25f5eb9109dc410bb1a"}, {"lon": -77.03976583333333, "lat": 38.903726666666664, "name": "cb5b25e0d1ee3511cb43aafdd1873f45", "fusion_lat": 0.0, "fusion_lon": 0.0, "rental_uris": {"android": "https://dc.lft.to/lastmile_qr_scan", "ios": "https://dc.lft.to/lastmile_qr_scan"}, "is_reserved": 0, "is_disabled": 0, "type": "electric_scooter", "bike_id": "cb5b25e0d1ee3511cb43aafdd1873f45"}, {"lon": -77.056306, "lat": 38.924200666666664, "name": "674b0299f5e62313abc9a1c95ee7d7f5", "fusion_lat": 0.0, "fusion_lon": 0.0, "rental_uris": {"android": "https://dc.lft.to/lastmile_qr_scan", "ios": "https://dc.lft.to/lastmile_qr_scan"}, "is_reserved": 0, "is_disabled": 0, "type": "electric_scooter", "bike_id": "674b0299f5e62313abc9a1c95ee7d7f5"}, {"lon": -77.035049, "lat": 38.921413666666666, "name": "5bcdad7ad2f985e8e4bf3f67b997319f", "fusion_lat": 0.0, "fusion_lon": 0.0, "rental_uris": {"android": "https://dc.lft.to/lastmile_qr_scan", "ios": "https://dc.lft.to/lastmile_qr_scan"}, "is_reserved": 0, "is_disabled": 0, "type": "electric_scooter", "bike_id": "5bcdad7ad2f985e8e4bf3f67b997319f"}, {"lon": -77.0430165, "lat": 38.922952, "name": "960ddcd51dd1368c604b10fdaf008065", "fusion_lat": 0.0, "fusion_lon": 0.0, "rental_uris": {"android": "https://dc.lft.to/lastmile_qr_scan", "ios": "https://dc.lft.to/lastmile_qr_scan"}, "is_reserved": 0, "is_disabled": 0, "type": "electric_scooter", "bike_id": "960ddcd51dd1368c604b10fdaf008065"}, {"lon": -77.02692516666667, "lat": 38.9127065, "name": "5b95913c1ad90b970d91750d596aff16", "fusion_lat": 0.0, "fusion_lon": 0.0, "rental_uris": {"android": "https://dc.lft.to/lastmile_qr_scan", "ios": "https://dc.lft.to/lastmile_qr_scan"}, "is_reserved": 0, "is_disabled": 0, "type": "electric_scooter", "bike_id": "5b95913c1ad90b970d91750d596aff16"}, {"lon": -77.09214166666666, "lat": 38.9172205, "name": "c7197c7a53274494a2e97c60f684d73d", "fusion_lat": 0.0, "fusion_lon": 0.0, "rental_uris": {"android": "https://dc.lft.to/lastmile_qr_scan", "ios": "https://dc.lft.to/lastmile_qr_scan"}, "is_reserved": 0, "is_disabled": 0, "type": "electric_scooter", "bike_id": "c7197c7a53274494a2e97c60f684d73d"}, {"lon": -77.03266916666666, "lat": 38.938249666666664, "name": "22cc6df8665397fd90fd558c0b5a2106", "fusion_lat": 0.0, "fusion_lon": 0.0, "rental_uris": {"android": "https://dc.lft.to/lastmile_qr_scan", "ios": "https://dc.lft.to/lastmile_qr_scan"}, "is_reserved": 0, "is_disabled": 0, "type": "electric_scooter", "bike_id": "22cc6df8665397fd90fd558c0b5a2106"}, {"lon": -77.03297216666667, "lat": 38.956377833333335, "name": "2302c7be6c9f55e741e474bc678bcd38", "fusion_lat": 0.0, "fusion_lon": 0.0, "rental_uris": {"android": "https://dc.lft.to/lastmile_qr_scan", "ios": "https://dc.lft.to/lastmile_qr_scan"}, "is_reserved": 0, "is_disabled": 0, "type": "electric_scooter", "bike_id": "2302c7be6c9f55e741e474bc678bcd38"}, {"lon": -77.032557, "lat": 38.9593375, "name": "d3514cb2224e46bbc6f8360e3f007213", "fusion_lat": 0.0, "fusion_lon": 0.0, "rental_uris": {"android": "https://dc.lft.to/lastmile_qr_scan", "ios": "https://dc.lft.to/lastmile_qr_scan"}, "is_reserved": 0, "is_disabled": 0, "type": "electric_scooter", "bike_id": "d3514cb2224e46bbc6f8360e3f007213"}, {"lon": -77.02238516666667, "lat": 38.91107016666667, "name": "23eebcd3d72f3257fa41882d899b7eab", "fusion_lat": 0.0, "fusion_lon": 0.0, "rental_uris": {"android": "https://dc.lft.to/lastmile_qr_scan", "ios": "https://dc.lft.to/lastmile_qr_scan"}, "is_reserved": 0, "is_disabled": 0, "type": "electric_scooter", "bike_id": "23eebcd3d72f3257fa41882d899b7eab"}, {"lon": -77.00031983333334, "lat": 38.87395166666667, "name": "d3e5a27cf873a5609bb330f5ff8362a4", "fusion_lat": 0.0, "fusion_lon": 0.0, "rental_uris": {"android": "https://dc.lft.to/lastmile_qr_scan", "ios": "https://dc.lft.to/lastmile_qr_scan"}, "is_reserved": 0, "is_disabled": 0, "type": "electric_scooter", "bike_id": "d3e5a27cf873a5609bb330f5ff8362a4"}, {"lon": -77.040956, "lat": 38.91255, "name": "af987c9a7b22956a33296bb97928a11c", "fusion_lat": 0.0, "fusion_lon": 0.0, "rental_uris": {"android": "https://dc.lft.to/lastmile_qr_scan", "ios": "https://dc.lft.to/lastmile_qr_scan"}, "is_reserved": 0, "is_disabled": 0, "type": "electric_scooter", "bike_id": "af987c9a7b22956a33296bb97928a11c"}, {"lon": -77.10030316666666, "lat": 38.99062683333333, "name": "ea55382107eb5730fa790e23b240edb5", "fusion_lat": 0.0, "fusion_lon": 0.0, "rental_uris": {"android": "https://dc.lft.to/lastmile_qr_scan", "ios": "https://dc.lft.to/lastmile_qr_scan"}, "is_reserved": 0, "is_disabled": 0, "type": "electric_bike", "bike_id": "ea55382107eb5730fa790e23b240edb5"}, {"lon": -76.94657516666666, "lat": 38.89825416666667, "name": "989f193ac386b0b78b02d5134ff0ead6", "fusion_lat": 0.0, "fusion_lon": 0.0, "rental_uris": {"android": "https://dc.lft.to/lastmile_qr_scan", "ios": "https://dc.lft.to/lastmile_qr_scan"}, "is_reserved": 0, "is_disabled": 0, "type": "electric_scooter", "bike_id": "989f193ac386b0b78b02d5134ff0ead6"}, {"lon": -77.04897383333333, "lat": 38.87489133333333, "name": "8987441942df3c503b59f59ac5f2810b", "fusion_lat": 0.0, "fusion_lon": 0.0, "rental_uris": {"android": "https://dc.lft.to/lastmile_qr_scan", "ios": "https://dc.lft.to/lastmile_qr_scan"}, "is_reserved": 0, "is_disabled": 0, "type": "electric_bike", "bike_id": "8987441942df3c503b59f59ac5f2810b"}, {"lon": -77.021272, "lat": 38.90294883333333, "name": "29c51b6b4b85bb870a558abcd4ffce42", "fusion_lat": 0.0, "fusion_lon": 0.0, "rental_uris": {"android": "https://dc.lft.to/lastmile_qr_scan", "ios": "https://dc.lft.to/lastmile_qr_scan"}, "is_reserved": 0, "is_disabled": 0, "type": "electric_scooter", "bike_id": "29c51b6b4b85bb870a558abcd4ffce42"}, {"lon": -77.0048045, "lat": 38.87747666666667, "name": "d6601c858d6fb26e74ace6716da9e537", "fusion_lat": 0.0, "fusion_lon": 0.0, "rental_uris": {"android": "https://dc.lft.to/lastmile_qr_scan", "ios": "https://dc.lft.to/lastmile_qr_scan"}, "is_reserved": 0, "is_disabled": 0, "type": "electric_scooter", "bike_id": "d6601c858d6fb26e74ace6716da9e537"}, {"lon": -76.98569816666667, "lat": 38.89884683333333, "name": "a0461ee21085cd76e22c3c04aab727ce", "fusion_lat": 0.0, "fusion_lon": 0.0, "rental_uris": {"android": "https://dc.lft.to/lastmile_qr_scan", "ios": "https://dc.lft.to/lastmile_qr_scan"}, "is_reserved": 0, "is_disabled": 0, "type": "electric_scooter", "bike_id": "a0461ee21085cd76e22c3c04aab727ce"}, {"lon": -77.01816916666667, "lat": 38.911914, "name": "1f7eb99feac659dfc2a12bf981759edd", "fusion_lat": 0.0, "fusion_lon": 0.0, "rental_uris": {"android": "https://dc.lft.to/lastmile_qr_scan", "ios": "https://dc.lft.to/lastmile_qr_scan"}, "is_reserved": 0, "is_disabled": 0, "type": "electric_scooter", "bike_id": "1f7eb99feac659dfc2a12bf981759edd"}, {"lon": -77.04688616666667, "lat": 38.89218666666667, "name": "5dc4cdbaf70f1739bbca45f4024bc72d", "fusion_lat": 0.0, "fusion_lon": 0.0, "rental_uris": {"android": "https://dc.lft.to/lastmile_qr_scan", "ios": "https://dc.lft.to/lastmile_qr_scan"}, "is_reserved": 0, "is_disabled": 0, "type": "electric_scooter", "bike_id": "5dc4cdbaf70f1739bbca45f4024bc72d"}, {"lon": -77.03754033333334, "lat": 38.9259495, "name": "2026678b2de15180b2ee6599c62aadde", "fusion_lat": 0.0, "fusion_lon": 0.0, "rental_uris": {"android": "https://dc.lft.to/lastmile_qr_scan", "ios": "https://dc.lft.to/lastmile_qr_scan"}, "is_reserved": 0, "is_disabled": 0, "type": "electric_scooter", "bike_id": "2026678b2de15180b2ee6599c62aadde"}, {"lon": -77.0418235, "lat": 38.92053033333333, "name": "de81dbc62d13d23af1f2d5151d1d6d2a", "fusion_lat": 0.0, "fusion_lon": 0.0, "rental_uris": {"android": "https://dc.lft.to/lastmile_qr_scan", "ios": "https://dc.lft.to/lastmile_qr_scan"}, "is_reserved": 0, "is_disabled": 0, "type": "electric_scooter", "bike_id": "de81dbc62d13d23af1f2d5151d1d6d2a"}, {"lon": -77.02541383333333, "lat": 38.91649433333333, "name": "71e51e235ef30f6f96a3c11a15f8f4ca", "fusion_lat": 0.0, "fusion_lon": 0.0, "rental_uris": {"android": "https://dc.lft.to/lastmile_qr_scan", "ios": "https://dc.lft.to/lastmile_qr_scan"}, "is_reserved": 0, "is_disabled": 0, "type": "electric_scooter", "bike_id": "71e51e235ef30f6f96a3c11a15f8f4ca"}, {"lon": -77.03897833333333, "lat": 38.917041833333336, "name": "c93030210fd172feb60d7bdc37116ae7", "fusion_lat": 0.0, "fusion_lon": 0.0, "rental_uris": {"android": "https://dc.lft.to/lastmile_qr_scan", "ios": "https://dc.lft.to/lastmile_qr_scan"}, "is_reserved": 0, "is_disabled": 0, "type": "electric_scooter", "bike_id": "c93030210fd172feb60d7bdc37116ae7"}, {"lon": -77.0343315, "lat": 38.919246666666666, "name": "4d311d6bef98887d267b3788ab8ece46", "fusion_lat": 0.0, "fusion_lon": 0.0, "rental_uris": {"android": "https://dc.lft.to/lastmile_qr_scan", "ios": "https://dc.lft.to/lastmile_qr_scan"}, "is_reserved": 0, "is_disabled": 0, "type": "electric_scooter", "bike_id": "4d311d6bef98887d267b3788ab8ece46"}, {"lon": -77.03646583333334, "lat": 38.91792233333334, "name": "873beb865c031a060a991c439e5ebfdf", "fusion_lat": 0.0, "fusion_lon": 0.0, "rental_uris": {"android": "https://dc.lft.to/lastmile_qr_scan", "ios": "https://dc.lft.to/lastmile_qr_scan"}, "is_reserved": 0, "is_disabled": 0, "type": "electric_scooter", "bike_id": "873beb865c031a060a991c439e5ebfdf"}, {"lon": -77.03434433333334, "lat": 38.939728833333334, "name": "ac37cc9f1eb9c79f5b91e9b9805b8097", "fusion_lat": 0.0, "fusion_lon": 0.0, "rental_uris": {"android": "https://dc.lft.to/lastmile_qr_scan", "ios": "https://dc.lft.to/lastmile_qr_scan"}, "is_reserved": 0, "is_disabled": 0, "type": "electric_scooter", "bike_id": "ac37cc9f1eb9c79f5b91e9b9805b8097"}, {"lon": -77.06126783333333, "lat": 38.90536983333333, "name": "3e1104c0ec371d24dadbe955b3883e6a", "fusion_lat": 0.0, "fusion_lon": 0.0, "rental_uris": {"android": "https://dc.lft.to/lastmile_qr_scan", "ios": "https://dc.lft.to/lastmile_qr_scan"}, "is_reserved": 0, "is_disabled": 0, "type": "electric_scooter", "bike_id": "3e1104c0ec371d24dadbe955b3883e6a"}, {"lon": -77.11224033333333, "lat": 38.828692, "name": "71238897ad012b73a0898533fa6bf08e", "fusion_lat": 0.0, "fusion_lon": 0.0, "rental_uris": {"android": "https://dc.lft.to/lastmile_qr_scan", "ios": "https://dc.lft.to/lastmile_qr_scan"}, "is_reserved": 0, "is_disabled": 0, "type": "electric_bike", "bike_id": "71238897ad012b73a0898533fa6bf08e"}, {"lon": -77.04389566666667, "lat": 38.90740916666667, "name": "4ba00c82f25e0a78179af36c673692b7", "fusion_lat": 0.0, "fusion_lon": 0.0, "rental_uris": {"android": "https://dc.lft.to/lastmile_qr_scan", "ios": "https://dc.lft.to/lastmile_qr_scan"}, "is_reserved": 0, "is_disabled": 0, "type": "electric_scooter", "bike_id": "4ba00c82f25e0a78179af36c673692b7"}, {"lon": -76.93161483333333, "lat": 38.89876366666667, "name": "2865e96a3d5af7b124868890387025cf", "fusion_lat": 0.0, "fusion_lon": 0.0, "rental_uris": {"android": "https://dc.lft.to/lastmile_qr_scan", "ios": "https://dc.lft.to/lastmile_qr_scan"}, "is_reserved": 0, "is_disabled": 0, "type": "electric_scooter", "bike_id": "2865e96a3d5af7b124868890387025cf"}, {"lon": -77.02693033333334, "lat": 38.9163465, "name": "8d2c1dd1995696b52f275d7e8c261e1e", "fusion_lat": 0.0, "fusion_lon": 0.0, "rental_uris": {"android": "https://dc.lft.to/lastmile_qr_scan", "ios": "https://dc.lft.to/lastmile_qr_scan"}, "is_reserved": 0, "is_disabled": 0, "type": "electric_scooter", "bike_id": "8d2c1dd1995696b52f275d7e8c261e1e"}, {"lon": -77.01818766666666, "lat": 38.90241566666667, "name": "4d73eb0306d560039edda702c7a0972d", "fusion_lat": 0.0, "fusion_lon": 0.0, "rental_uris": {"android": "https://dc.lft.to/lastmile_qr_scan", "ios": "https://dc.lft.to/lastmile_qr_scan"}, "is_reserved": 0, "is_disabled": 0, "type": "electric_scooter", "bike_id": "4d73eb0306d560039edda702c7a0972d"}, {"lon": -77.031405, "lat": 38.915681166666666, "name": "c8076f8d18949f947b880e658df88f82", "fusion_lat": 0.0, "fusion_lon": 0.0, "rental_uris": {"android": "https://dc.lft.to/lastmile_qr_scan", "ios": "https://dc.lft.to/lastmile_qr_scan"}, "is_reserved": 0, "is_disabled": 0, "type": "electric_scooter", "bike_id": "c8076f8d18949f947b880e658df88f82"}, {"lon": -77.02960383333334, "lat": 38.93028433333333, "name": "c1d0084d3498d40d4a5371617ce69190", "fusion_lat": 0.0, "fusion_lon": 0.0, "rental_uris": {"android": "https://dc.lft.to/lastmile_qr_scan", "ios": "https://dc.lft.to/lastmile_qr_scan"}, "is_reserved": 0, "is_disabled": 0, "type": "electric_scooter", "bike_id": "c1d0084d3498d40d4a5371617ce69190"}, {"lon": -76.87497483333334, "lat": 38.99089633333333, "name": "faee5065dd6751255088a39b261b708b", "fusion_lat": 0.0, "fusion_lon": 0.0, "rental_uris": {"android": "https://dc.lft.to/lastmile_qr_scan", "ios": "https://dc.lft.to/lastmile_qr_scan"}, "is_reserved": 0, "is_disabled": 0, "type": "electric_bike", "bike_id": "faee5065dd6751255088a39b261b708b"}, {"lon": -77.04241, "lat": 38.90937133333333, "name": "1dfc255e79367393594e8392c3ff5cc5", "fusion_lat": 0.0, "fusion_lon": 0.0, "rental_uris": {"android": "https://dc.lft.to/lastmile_qr_scan", "ios": "https://dc.lft.to/lastmile_qr_scan"}, "is_reserved": 0, "is_disabled": 0, "type": "electric_scooter", "bike_id": "1dfc255e79367393594e8392c3ff5cc5"}, {"lon": -77.01702916666666, "lat": 38.92015333333333, "name": "6f2610bdb4767a99640b36e74c332908", "fusion_lat": 0.0, "fusion_lon": 0.0, "rental_uris": {"android": "https://dc.lft.to/lastmile_qr_scan", "ios": "https://dc.lft.to/lastmile_qr_scan"}, "is_reserved": 0, "is_disabled": 0, "type": "electric_scooter", "bike_id": "6f2610bdb4767a99640b36e74c332908"}, {"lon": -77.02414083333333, "lat": 38.911072, "name": "a723ffa0707bf9028b835e039ca6a1cc", "fusion_lat": 0.0, "fusion_lon": 0.0, "rental_uris": {"android": "https://dc.lft.to/lastmile_qr_scan", "ios": "https://dc.lft.to/lastmile_qr_scan"}, "is_reserved": 0, "is_disabled": 0, "type": "electric_scooter", "bike_id": "a723ffa0707bf9028b835e039ca6a1cc"}, {"lon": -77.0017085, "lat": 38.90022783333333, "name": "dfdeea1ee33043f6b85afdb387bc286e", "fusion_lat": 0.0, "fusion_lon": 0.0, "rental_uris": {"android": "https://dc.lft.to/lastmile_qr_scan", "ios": "https://dc.lft.to/lastmile_qr_scan"}, "is_reserved": 0, "is_disabled": 0, "type": "electric_scooter", "bike_id": "dfdeea1ee33043f6b85afdb387bc286e"}, {"lon": -77.0269815, "lat": 38.91271116666667, "name": "60a52ba44fc1e47b8ede6c3adb9e452b", "fusion_lat": 0.0, "fusion_lon": 0.0, "rental_uris": {"android": "https://dc.lft.to/lastmile_qr_scan", "ios": "https://dc.lft.to/lastmile_qr_scan"}, "is_reserved": 0, "is_disabled": 0, "type": "electric_scooter", "bike_id": "60a52ba44fc1e47b8ede6c3adb9e452b"}, {"lon": -77.04508066666666, "lat": 38.912785166666666, "name": "fcffc29bc27b08fd1f6ab9b32069f1ff", "fusion_lat": 0.0, "fusion_lon": 0.0, "rental_uris": {"android": "https://dc.lft.to/lastmile_qr_scan", "ios": "https://dc.lft.to/lastmile_qr_scan"}, "is_reserved": 0, "is_disabled": 0, "type": "electric_scooter", "bike_id": "fcffc29bc27b08fd1f6ab9b32069f1ff"}, {"lon": -77.01384166666666, "lat": 38.92860183333333, "name": "d1446689745fc491ad69c5eae595e35b", "fusion_lat": 0.0, "fusion_lon": 0.0, "rental_uris": {"android": "https://dc.lft.to/lastmile_qr_scan", "ios": "https://dc.lft.to/lastmile_qr_scan"}, "is_reserved": 0, "is_disabled": 0, "type": "electric_scooter", "bike_id": "d1446689745fc491ad69c5eae595e35b"}, {"lon": -77.03897133333334, "lat": 38.92181683333333, "name": "14bdd0738de6e88c0feeaac2c1bd7ac1", "fusion_lat": 0.0, "fusion_lon": 0.0, "rental_uris": {"android": "https://dc.lft.to/lastmile_qr_scan", "ios": "https://dc.lft.to/lastmile_qr_scan"}, "is_reserved": 0, "is_disabled": 0, "type": "electric_scooter", "bike_id": "14bdd0738de6e88c0feeaac2c1bd7ac1"}, {"lon": -77.03346933333333, "lat": 38.928763333333336, "name": "d74e73c5bf3f4830b4586134953206b2", "fusion_lat": 0.0, "fusion_lon": 0.0, "rental_uris": {"android": "https://dc.lft.to/lastmile_qr_scan", "ios": "https://dc.lft.to/lastmile_qr_scan"}, "is_reserved": 0, "is_disabled": 0, "type": "electric_scooter", "bike_id": "d74e73c5bf3f4830b4586134953206b2"}, {"lon": -77.01854666666667, "lat": 38.9400255, "name": "fed3a75f9fd8cd874fe8d3c42b27b4be", "fusion_lat": 0.0, "fusion_lon": 0.0, "rental_uris": {"android": "https://dc.lft.to/lastmile_qr_scan", "ios": "https://dc.lft.to/lastmile_qr_scan"}, "is_reserved": 0, "is_disabled": 0, "type": "electric_scooter", "bike_id": "fed3a75f9fd8cd874fe8d3c42b27b4be"}, {"lon": -77.04171233333334, "lat": 38.91602616666667, "name": "663005e2fe46632e10024ef58b94920f", "fusion_lat": 0.0, "fusion_lon": 0.0, "rental_uris": {"android": "https://dc.lft.to/lastmile_qr_scan", "ios": "https://dc.lft.to/lastmile_qr_scan"}, "is_reserved": 0, "is_disabled": 0, "type": "electric_scooter", "bike_id": "663005e2fe46632e10024ef58b94920f"}, {"lon": -77.028363, "lat": 38.887697, "name": "ee05b2bba58f0cdc79af02fcab279e10", "fusion_lat": 0.0, "fusion_lon": 0.0, "rental_uris": {"android": "https://dc.lft.to/lastmile_qr_scan", "ios": "https://dc.lft.to/lastmile_qr_scan"}, "is_reserved": 0, "is_disabled": 0, "type": "electric_scooter", "bike_id": "ee05b2bba58f0cdc79af02fcab279e10"}, {"lon": -77.0382785, "lat": 38.90777683333334, "name": "665a12e9ee45400d2b024bacc47b9d75", "fusion_lat": 0.0, "fusion_lon": 0.0, "rental_uris": {"android": "https://dc.lft.to/lastmile_qr_scan", "ios": "https://dc.lft.to/lastmile_qr_scan"}, "is_reserved": 0, "is_disabled": 0, "type": "electric_scooter", "bike_id": "665a12e9ee45400d2b024bacc47b9d75"}, {"lon": -77.030076, "lat": 38.899997166666665, "name": "9f8a3338e1512209bbb7804d46a96f2c", "fusion_lat": 0.0, "fusion_lon": 0.0, "rental_uris": {"android": "https://dc.lft.to/lastmile_qr_scan", "ios": "https://dc.lft.to/lastmile_qr_scan"}, "is_reserved": 0, "is_disabled": 0, "type": "electric_scooter", "bike_id": "9f8a3338e1512209bbb7804d46a96f2c"}, {"lon": -77.0337495, "lat": 38.88757283333333, "name": "867d64e78abc2445b76809af671f7301", "fusion_lat": 0.0, "fusion_lon": 0.0, "rental_uris": {"android": "https://dc.lft.to/lastmile_qr_scan", "ios": "https://dc.lft.to/lastmile_qr_scan"}, "is_reserved": 0, "is_disabled": 0, "type": "electric_scooter", "bike_id": "867d64e78abc2445b76809af671f7301"}, {"lon": -76.95535016666666, "lat": 38.888708, "name": "6b521c72641b1d1e47af1576b1ed4ae2", "fusion_lat": 0.0, "fusion_lon": 0.0, "rental_uris": {"android": "https://dc.lft.to/lastmile_qr_scan", "ios": "https://dc.lft.to/lastmile_qr_scan"}, "is_reserved": 0, "is_disabled": 0, "type": "electric_scooter", "bike_id": "6b521c72641b1d1e47af1576b1ed4ae2"}, {"lon": -77.04530616666666, "lat": 38.900626333333335, "name": "91dfd582251ed5e771df3105fb903e25", "fusion_lat": 0.0, "fusion_lon": 0.0, "rental_uris": {"android": "https://dc.lft.to/lastmile_qr_scan", "ios": "https://dc.lft.to/lastmile_qr_scan"}, "is_reserved": 0, "is_disabled": 0, "type": "electric_scooter", "bike_id": "91dfd582251ed5e771df3105fb903e25"}, {"lon": -77.0199575, "lat": 38.9134135, "name": "ddf03ba5036e56113ce9d4e762ef791e", "fusion_lat": 0.0, "fusion_lon": 0.0, "rental_uris": {"android": "https://dc.lft.to/lastmile_qr_scan", "ios": "https://dc.lft.to/lastmile_qr_scan"}, "is_reserved": 0, "is_disabled": 0, "type": "electric_scooter", "bike_id": "ddf03ba5036e56113ce9d4e762ef791e"}, {"lon": -77.02381633333333, "lat": 38.91158933333333, "name": "564500017753b0c06cb16441c11c5991", "fusion_lat": 0.0, "fusion_lon": 0.0, "rental_uris": {"android": "https://dc.lft.to/lastmile_qr_scan", "ios": "https://dc.lft.to/lastmile_qr_scan"}, "is_reserved": 0, "is_disabled": 0, "type": "electric_scooter", "bike_id": "564500017753b0c06cb16441c11c5991"}, {"lon": -77.03207583333334, "lat": 38.89368733333333, "name": "ba0eb28be0a56585d6bd090d7ecb86b8", "fusion_lat": 0.0, "fusion_lon": 0.0, "rental_uris": {"android": "https://dc.lft.to/lastmile_qr_scan", "ios": "https://dc.lft.to/lastmile_qr_scan"}, "is_reserved": 0, "is_disabled": 0, "type": "electric_scooter", "bike_id": "ba0eb28be0a56585d6bd090d7ecb86b8"}, {"lon": -77.0344065, "lat": 38.9071995, "name": "8af852c7c4e256020b3f08162235ed90", "fusion_lat": 0.0, "fusion_lon": 0.0, "rental_uris": {"android": "https://dc.lft.to/lastmile_qr_scan", "ios": "https://dc.lft.to/lastmile_qr_scan"}, "is_reserved": 0, "is_disabled": 0, "type": "electric_scooter", "bike_id": "8af852c7c4e256020b3f08162235ed90"}, {"lon": -77.03986816666666, "lat": 38.83047083333334, "name": "9ef0c98b680b40b39d064ae30694b2b8", "fusion_lat": 0.0, "fusion_lon": 0.0, "rental_uris": {"android": "https://dc.lft.to/lastmile_qr_scan", "ios": "https://dc.lft.to/lastmile_qr_scan"}, "is_reserved": 0, "is_disabled": 0, "type": "electric_bike", "bike_id": "9ef0c98b680b40b39d064ae30694b2b8"}, {"lon": -77.03009183333333, "lat": 38.934853333333336, "name": "b57cb3cbcd9375dc2082d505ac58c5d9", "fusion_lat": 0.0, "fusion_lon": 0.0, "rental_uris": {"android": "https://dc.lft.to/lastmile_qr_scan", "ios": "https://dc.lft.to/lastmile_qr_scan"}, "is_reserved": 0, "is_disabled": 0, "type": "electric_bike", "bike_id": "b57cb3cbcd9375dc2082d505ac58c5d9"}, {"lon": -77.001139, "lat": 38.89434416666667, "name": "78e98ceb218e7aa949c01d9546a717ca", "fusion_lat": 0.0, "fusion_lon": 0.0, "rental_uris": {"android": "https://dc.lft.to/lastmile_qr_scan", "ios": "https://dc.lft.to/lastmile_qr_scan"}, "is_reserved": 0, "is_disabled": 0, "type": "electric_scooter", "bike_id": "78e98ceb218e7aa949c01d9546a717ca"}, {"lon": -77.03258766666667, "lat": 38.935268, "name": "5905c7b70abebf6e4717b07f6f8ced8a", "fusion_lat": 0.0, "fusion_lon": 0.0, "rental_uris": {"android": "https://dc.lft.to/lastmile_qr_scan", "ios": "https://dc.lft.to/lastmile_qr_scan"}, "is_reserved": 0, "is_disabled": 0, "type": "electric_scooter", "bike_id": "5905c7b70abebf6e4717b07f6f8ced8a"}, {"lon": -77.031055, "lat": 38.92798666666667, "name": "5ec6a2a98aafdb90f843f789a8900f6b", "fusion_lat": 0.0, "fusion_lon": 0.0, "rental_uris": {"android": "https://dc.lft.to/lastmile_qr_scan", "ios": "https://dc.lft.to/lastmile_qr_scan"}, "is_reserved": 0, "is_disabled": 0, "type": "electric_scooter", "bike_id": "5ec6a2a98aafdb90f843f789a8900f6b"}, {"lon": -77.02723216666666, "lat": 38.892235166666666, "name": "d0aa98b959cd2339494912c135d63949", "fusion_lat": 0.0, "fusion_lon": 0.0, "rental_uris": {"android": "https://dc.lft.to/lastmile_qr_scan", "ios": "https://dc.lft.to/lastmile_qr_scan"}, "is_reserved": 0, "is_disabled": 0, "type": "electric_scooter", "bike_id": "d0aa98b959cd2339494912c135d63949"}, {"lon": -77.07291416666666, "lat": 38.93172033333333, "name": "fa6d9a315d914da8d278ebe81c435edc", "fusion_lat": 0.0, "fusion_lon": 0.0, "rental_uris": {"android": "https://dc.lft.to/lastmile_qr_scan", "ios": "https://dc.lft.to/lastmile_qr_scan"}, "is_reserved": 0, "is_disabled": 0, "type": "electric_scooter", "bike_id": "fa6d9a315d914da8d278ebe81c435edc"}, {"lon": -77.03509483333333, "lat": 38.92157233333333, "name": "4312bebd0c327d074e4385bde350fd67", "fusion_lat": 0.0, "fusion_lon": 0.0, "rental_uris": {"android": "https://dc.lft.to/lastmile_qr_scan", "ios": "https://dc.lft.to/lastmile_qr_scan"}, "is_reserved": 0, "is_disabled": 0, "type": "electric_scooter", "bike_id": "4312bebd0c327d074e4385bde350fd67"}, {"lon": -76.93830666666666, "lat": 38.89758916666667, "name": "c87d8ff5cda605b361493a82ca03a7a1", "fusion_lat": 0.0, "fusion_lon": 0.0, "rental_uris": {"android": "https://dc.lft.to/lastmile_qr_scan", "ios": "https://dc.lft.to/lastmile_qr_scan"}, "is_reserved": 0, "is_disabled": 0, "type": "electric_scooter", "bike_id": "c87d8ff5cda605b361493a82ca03a7a1"}, {"lon": -77.04353083333334, "lat": 38.911022833333334, "name": "03347cacd73743442abcb39272353407", "fusion_lat": 0.0, "fusion_lon": 0.0, "rental_uris": {"android": "https://dc.lft.to/lastmile_qr_scan", "ios": "https://dc.lft.to/lastmile_qr_scan"}, "is_reserved": 0, "is_disabled": 0, "type": "electric_scooter", "bike_id": "03347cacd73743442abcb39272353407"}, {"lon": -77.0058965, "lat": 38.905443, "name": "2f3554b9e0502f228fdab968a0dd6165", "fusion_lat": 0.0, "fusion_lon": 0.0, "rental_uris": {"android": "https://dc.lft.to/lastmile_qr_scan", "ios": "https://dc.lft.to/lastmile_qr_scan"}, "is_reserved": 0, "is_disabled": 0, "type": "electric_scooter", "bike_id": "2f3554b9e0502f228fdab968a0dd6165"}, {"lon": -77.0384315, "lat": 38.911335, "name": "bc51d91899276446cfa9e3b461a46153", "fusion_lat": 0.0, "fusion_lon": 0.0, "rental_uris": {"android": "https://dc.lft.to/lastmile_qr_scan", "ios": "https://dc.lft.to/lastmile_qr_scan"}, "is_reserved": 0, "is_disabled": 0, "type": "electric_scooter", "bike_id": "bc51d91899276446cfa9e3b461a46153"}, {"lon": -77.05003433333333, "lat": 38.89232366666667, "name": "5e71d5cc3a20addf252fd99bd63de57e", "fusion_lat": 0.0, "fusion_lon": 0.0, "rental_uris": {"android": "https://dc.lft.to/lastmile_qr_scan", "ios": "https://dc.lft.to/lastmile_qr_scan"}, "is_reserved": 0, "is_disabled": 0, "type": "electric_scooter", "bike_id": "5e71d5cc3a20addf252fd99bd63de57e"}, {"lon": -77.13095083333333, "lat": 38.86161083333333, "name": "0e25fea134d536bf4c54e2108f3d4965", "fusion_lat": 0.0, "fusion_lon": 0.0, "rental_uris": {"android": "https://dc.lft.to/lastmile_qr_scan", "ios": "https://dc.lft.to/lastmile_qr_scan"}, "is_reserved": 0, "is_disabled": 0, "type": "electric_bike", "bike_id": "0e25fea134d536bf4c54e2108f3d4965"}, {"lon": -77.02837183333334, "lat": 38.88767133333333, "name": "a8cd4dc65d217df19c3ac5c379cf2d3f", "fusion_lat": 0.0, "fusion_lon": 0.0, "rental_uris": {"android": "https://dc.lft.to/lastmile_qr_scan", "ios": "https://dc.lft.to/lastmile_qr_scan"}, "is_reserved": 0, "is_disabled": 0, "type": "electric_scooter", "bike_id": "a8cd4dc65d217df19c3ac5c379cf2d3f"}, {"lon": -77.04155733333333, "lat": 38.9233455, "name": "680f5a1407b042d9e9dec574990a4a85", "fusion_lat": 0.0, "fusion_lon": 0.0, "rental_uris": {"android": "https://dc.lft.to/lastmile_qr_scan", "ios": "https://dc.lft.to/lastmile_qr_scan"}, "is_reserved": 0, "is_disabled": 0, "type": "electric_scooter", "bike_id": "680f5a1407b042d9e9dec574990a4a85"}, {"lon": -77.03161583333333, "lat": 38.897317, "name": "c7b4fdeb3b8f54e05b7b7f3973a457a8", "fusion_lat": 0.0, "fusion_lon": 0.0, "rental_uris": {"android": "https://dc.lft.to/lastmile_qr_scan", "ios": "https://dc.lft.to/lastmile_qr_scan"}, "is_reserved": 0, "is_disabled": 0, "type": "electric_scooter", "bike_id": "c7b4fdeb3b8f54e05b7b7f3973a457a8"}, {"lon": -76.99922383333333, "lat": 38.90935283333334, "name": "78a8282d2e38de63a630a729118ff66c", "fusion_lat": 0.0, "fusion_lon": 0.0, "rental_uris": {"android": "https://dc.lft.to/lastmile_qr_scan", "ios": "https://dc.lft.to/lastmile_qr_scan"}, "is_reserved": 0, "is_disabled": 0, "type": "electric_scooter", "bike_id": "78a8282d2e38de63a630a729118ff66c"}, {"lon": -77.00751633333333, "lat": 38.8771725, "name": "9c3f13e4e7c994f72ccd815bf58a5ce3", "fusion_lat": 0.0, "fusion_lon": 0.0, "rental_uris": {"android": "https://dc.lft.to/lastmile_qr_scan", "ios": "https://dc.lft.to/lastmile_qr_scan"}, "is_reserved": 0, "is_disabled": 0, "type": "electric_scooter", "bike_id": "9c3f13e4e7c994f72ccd815bf58a5ce3"}, {"lon": -77.03408033333334, "lat": 38.919281833333336, "name": "ab37fb941b2c85fb7bdb696377893caa", "fusion_lat": 0.0, "fusion_lon": 0.0, "rental_uris": {"android": "https://dc.lft.to/lastmile_qr_scan", "ios": "https://dc.lft.to/lastmile_qr_scan"}, "is_reserved": 0, "is_disabled": 0, "type": "electric_scooter", "bike_id": "ab37fb941b2c85fb7bdb696377893caa"}, {"lon": -77.01675833333333, "lat": 38.916749, "name": "dfd72c791e5c27fef12a3a515530a910", "fusion_lat": 0.0, "fusion_lon": 0.0, "rental_uris": {"android": "https://dc.lft.to/lastmile_qr_scan", "ios": "https://dc.lft.to/lastmile_qr_scan"}, "is_reserved": 0, "is_disabled": 0, "type": "electric_scooter", "bike_id": "dfd72c791e5c27fef12a3a515530a910"}, {"lon": -76.994696, "lat": 38.861911, "name": "cec2b045eb538d854290a676206acc7a", "fusion_lat": 0.0, "fusion_lon": 0.0, "rental_uris": {"android": "https://dc.lft.to/lastmile_qr_scan", "ios": "https://dc.lft.to/lastmile_qr_scan"}, "is_reserved": 0, "is_disabled": 0, "type": "electric_scooter", "bike_id": "cec2b045eb538d854290a676206acc7a"}, {"lon": -77.068378, "lat": 38.917326833333334, "name": "f21e1d2cb15517d9ba4de16d89564ac3", "fusion_lat": 0.0, "fusion_lon": 0.0, "rental_uris": {"android": "https://dc.lft.to/lastmile_qr_scan", "ios": "https://dc.lft.to/lastmile_qr_scan"}, "is_reserved": 0, "is_disabled": 0, "type": "electric_scooter", "bike_id": "f21e1d2cb15517d9ba4de16d89564ac3"}, {"lon": -77.02356716666667, "lat": 38.911088, "name": "0a4602274e99d59a9b90c7ba6948cbe9", "fusion_lat": 0.0, "fusion_lon": 0.0, "rental_uris": {"android": "https://dc.lft.to/lastmile_qr_scan", "ios": "https://dc.lft.to/lastmile_qr_scan"}, "is_reserved": 0, "is_disabled": 0, "type": "electric_scooter", "bike_id": "0a4602274e99d59a9b90c7ba6948cbe9"}, {"lon": -77.03852533333334, "lat": 38.93248966666667, "name": "0bd20c386f8724391d0b082b89e347b8", "fusion_lat": 0.0, "fusion_lon": 0.0, "rental_uris": {"android": "https://dc.lft.to/lastmile_qr_scan", "ios": "https://dc.lft.to/lastmile_qr_scan"}, "is_reserved": 0, "is_disabled": 0, "type": "electric_scooter", "bike_id": "0bd20c386f8724391d0b082b89e347b8"}, {"lon": -77.034676, "lat": 38.917026, "name": "893f4efa6bd82d7cace92cd03eb175eb", "fusion_lat": 0.0, "fusion_lon": 0.0, "rental_uris": {"android": "https://dc.lft.to/lastmile_qr_scan", "ios": "https://dc.lft.to/lastmile_qr_scan"}, "is_reserved": 0, "is_disabled": 0, "type": "electric_scooter", "bike_id": "893f4efa6bd82d7cace92cd03eb175eb"}, {"lon": -77.02468733333333, "lat": 38.938546, "name": "45de40e95c7f7a9ecfb09cd2eb0facc0", "fusion_lat": 0.0, "fusion_lon": 0.0, "rental_uris": {"android": "https://dc.lft.to/lastmile_qr_scan", "ios": "https://dc.lft.to/lastmile_qr_scan"}, "is_reserved": 0, "is_disabled": 0, "type": "electric_scooter", "bike_id": "45de40e95c7f7a9ecfb09cd2eb0facc0"}, {"lon": -77.04104533333333, "lat": 38.918440333333336, "name": "bc2e7b3f76fb4e9f4326154259a3ceb3", "fusion_lat": 0.0, "fusion_lon": 0.0, "rental_uris": {"android": "https://dc.lft.to/lastmile_qr_scan", "ios": "https://dc.lft.to/lastmile_qr_scan"}, "is_reserved": 0, "is_disabled": 0, "type": "electric_scooter", "bike_id": "bc2e7b3f76fb4e9f4326154259a3ceb3"}, {"lon": -77.0395525, "lat": 38.902548333333336, "name": "71f4f29d5d5beb1fce6009d09b548bd7", "fusion_lat": 0.0, "fusion_lon": 0.0, "rental_uris": {"android": "https://dc.lft.to/lastmile_qr_scan", "ios": "https://dc.lft.to/lastmile_qr_scan"}, "is_reserved": 0, "is_disabled": 0, "type": "electric_scooter", "bike_id": "71f4f29d5d5beb1fce6009d09b548bd7"}, {"lon": -77.02599966666666, "lat": 38.89247133333333, "name": "fdee875c15549a3cf470b1e37a8acdd6", "fusion_lat": 0.0, "fusion_lon": 0.0, "rental_uris": {"android": "https://dc.lft.to/lastmile_qr_scan", "ios": "https://dc.lft.to/lastmile_qr_scan"}, "is_reserved": 0, "is_disabled": 0, "type": "electric_scooter", "bike_id": "fdee875c15549a3cf470b1e37a8acdd6"}, {"lon": -77.00081316666666, "lat": 38.88679033333333, "name": "e51936e1760106ab9243f4902a0fd48c", "fusion_lat": 0.0, "fusion_lon": 0.0, "rental_uris": {"android": "https://dc.lft.to/lastmile_qr_scan", "ios": "https://dc.lft.to/lastmile_qr_scan"}, "is_reserved": 0, "is_disabled": 0, "type": "electric_scooter", "bike_id": "e51936e1760106ab9243f4902a0fd48c"}, {"lon": -77.03832183333333, "lat": 38.911079, "name": "981a05b82de6b5671028675a248ac383", "fusion_lat": 0.0, "fusion_lon": 0.0, "rental_uris": {"android": "https://dc.lft.to/lastmile_qr_scan", "ios": "https://dc.lft.to/lastmile_qr_scan"}, "is_reserved": 0, "is_disabled": 0, "type": "electric_scooter", "bike_id": "981a05b82de6b5671028675a248ac383"}, {"lon": -76.94119733333333, "lat": 38.907912333333336, "name": "94868d07484dd20f13a3992a71c35206", "fusion_lat": 0.0, "fusion_lon": 0.0, "rental_uris": {"android": "https://dc.lft.to/lastmile_qr_scan", "ios": "https://dc.lft.to/lastmile_qr_scan"}, "is_reserved": 0, "is_disabled": 0, "type": "electric_scooter", "bike_id": "94868d07484dd20f13a3992a71c35206"}, {"lon": -76.9381185, "lat": 38.913034833333334, "name": "bb0d61f8f0a67b6bcdfdaeb6f44219b4", "fusion_lat": 0.0, "fusion_lon": 0.0, "rental_uris": {"android": "https://dc.lft.to/lastmile_qr_scan", "ios": "https://dc.lft.to/lastmile_qr_scan"}, "is_reserved": 0, "is_disabled": 0, "type": "electric_scooter", "bike_id": "bb0d61f8f0a67b6bcdfdaeb6f44219b4"}, {"lon": -76.98772766666667, "lat": 38.9117465, "name": "5279adf1b8ac8ca9f5e59c626537f635", "fusion_lat": 0.0, "fusion_lon": 0.0, "rental_uris": {"android": "https://dc.lft.to/lastmile_qr_scan", "ios": "https://dc.lft.to/lastmile_qr_scan"}, "is_reserved": 0, "is_disabled": 0, "type": "electric_scooter", "bike_id": "5279adf1b8ac8ca9f5e59c626537f635"}, {"lon": -76.93158633333333, "lat": 38.89876783333333, "name": "08c68303b73ea10543fa990507ebb2a5", "fusion_lat": 0.0, "fusion_lon": 0.0, "rental_uris": {"android": "https://dc.lft.to/lastmile_qr_scan", "ios": "https://dc.lft.to/lastmile_qr_scan"}, "is_reserved": 0, "is_disabled": 0, "type": "electric_scooter", "bike_id": "08c68303b73ea10543fa990507ebb2a5"}, {"lon": -77.023953, "lat": 38.887307666666665, "name": "d1d2ed9de6083e05ef76c344d7589290", "fusion_lat": 0.0, "fusion_lon": 0.0, "rental_uris": {"android": "https://dc.lft.to/lastmile_qr_scan", "ios": "https://dc.lft.to/lastmile_qr_scan"}, "is_reserved": 0, "is_disabled": 0, "type": "electric_scooter", "bike_id": "d1d2ed9de6083e05ef76c344d7589290"}, {"lon": -77.0427385, "lat": 38.898460666666665, "name": "29ebcfab2094542494154bf5f8d34d81", "fusion_lat": 0.0, "fusion_lon": 0.0, "rental_uris": {"android": "https://dc.lft.to/lastmile_qr_scan", "ios": "https://dc.lft.to/lastmile_qr_scan"}, "is_reserved": 0, "is_disabled": 0, "type": "electric_scooter", "bike_id": "29ebcfab2094542494154bf5f8d34d81"}, {"lon": -77.04284016666666, "lat": 38.9111815, "name": "d35dbdc07bfaca8cc67db57df72f33c3", "fusion_lat": 0.0, "fusion_lon": 0.0, "rental_uris": {"android": "https://dc.lft.to/lastmile_qr_scan", "ios": "https://dc.lft.to/lastmile_qr_scan"}, "is_reserved": 0, "is_disabled": 0, "type": "electric_scooter", "bike_id": "d35dbdc07bfaca8cc67db57df72f33c3"}, {"lon": -77.03190116666667, "lat": 38.916124833333335, "name": "e8494b492b8946478c3ba62a2de84111", "fusion_lat": 0.0, "fusion_lon": 0.0, "rental_uris": {"android": "https://dc.lft.to/lastmile_qr_scan", "ios": "https://dc.lft.to/lastmile_qr_scan"}, "is_reserved": 0, "is_disabled": 0, "type": "electric_scooter", "bike_id": "e8494b492b8946478c3ba62a2de84111"}, {"lon": -77.06168116666667, "lat": 38.94226316666666, "name": "1f840d936ad74bc9d67f43d81249acef", "fusion_lat": 0.0, "fusion_lon": 0.0, "rental_uris": {"android": "https://dc.lft.to/lastmile_qr_scan", "ios": "https://dc.lft.to/lastmile_qr_scan"}, "is_reserved": 0, "is_disabled": 0, "type": "electric_scooter", "bike_id": "1f840d936ad74bc9d67f43d81249acef"}, {"lon": -77.05029483333334, "lat": 38.902374333333334, "name": "5481f13c64e3c31cee4bc5dd25cc0783", "fusion_lat": 0.0, "fusion_lon": 0.0, "rental_uris": {"android": "https://dc.lft.to/lastmile_qr_scan", "ios": "https://dc.lft.to/lastmile_qr_scan"}, "is_reserved": 0, "is_disabled": 0, "type": "electric_scooter", "bike_id": "5481f13c64e3c31cee4bc5dd25cc0783"}, {"lon": -77.02709266666666, "lat": 38.90249283333333, "name": "948c49025c734321b1b3d5f0d8f9348a", "fusion_lat": 0.0, "fusion_lon": 0.0, "rental_uris": {"android": "https://dc.lft.to/lastmile_qr_scan", "ios": "https://dc.lft.to/lastmile_qr_scan"}, "is_reserved": 0, "is_disabled": 0, "type": "electric_scooter", "bike_id": "948c49025c734321b1b3d5f0d8f9348a"}, {"lon": -77.12742283333333, "lat": 38.8881625, "name": "a692b9090e76e58e72cb91b99e56b83c", "fusion_lat": 0.0, "fusion_lon": 0.0, "rental_uris": {"android": "https://dc.lft.to/lastmile_qr_scan", "ios": "https://dc.lft.to/lastmile_qr_scan"}, "is_reserved": 0, "is_disabled": 0, "type": "electric_bike", "bike_id": "a692b9090e76e58e72cb91b99e56b83c"}, {"lon": -77.09204183333334, "lat": 38.941301333333335, "name": "1ec2274bc707dbd7d90974f510f1b293", "fusion_lat": 0.0, "fusion_lon": 0.0, "rental_uris": {"android": "https://dc.lft.to/lastmile_qr_scan", "ios": "https://dc.lft.to/lastmile_qr_scan"}, "is_reserved": 0, "is_disabled": 0, "type": "electric_scooter", "bike_id": "1ec2274bc707dbd7d90974f510f1b293"}, {"lon": -76.995157, "lat": 38.894833166666665, "name": "c48fe6cf5cf17525e622ace0498b9759", "fusion_lat": 0.0, "fusion_lon": 0.0, "rental_uris": {"android": "https://dc.lft.to/lastmile_qr_scan", "ios": "https://dc.lft.to/lastmile_qr_scan"}, "is_reserved": 0, "is_disabled": 0, "type": "electric_scooter", "bike_id": "c48fe6cf5cf17525e622ace0498b9759"}, {"lon": -77.00332683333333, "lat": 38.893543333333334, "name": "07815a0108967453261992f7ec26f59c", "fusion_lat": 0.0, "fusion_lon": 0.0, "rental_uris": {"android": "https://dc.lft.to/lastmile_qr_scan", "ios": "https://dc.lft.to/lastmile_qr_scan"}, "is_reserved": 0, "is_disabled": 0, "type": "electric_scooter", "bike_id": "07815a0108967453261992f7ec26f59c"}, {"lon": -77.00604433333334, "lat": 38.90581733333333, "name": "04184d4764722a8740f6dd628b5d0216", "fusion_lat": 0.0, "fusion_lon": 0.0, "rental_uris": {"android": "https://dc.lft.to/lastmile_qr_scan", "ios": "https://dc.lft.to/lastmile_qr_scan"}, "is_reserved": 0, "is_disabled": 0, "type": "electric_scooter", "bike_id": "04184d4764722a8740f6dd628b5d0216"}, {"lon": -77.01198366666667, "lat": 38.9003305, "name": "0d0585855cccb03e0937c6ec81dd0150", "fusion_lat": 0.0, "fusion_lon": 0.0, "rental_uris": {"android": "https://dc.lft.to/lastmile_qr_scan", "ios": "https://dc.lft.to/lastmile_qr_scan"}, "is_reserved": 0, "is_disabled": 0, "type": "electric_scooter", "bike_id": "0d0585855cccb03e0937c6ec81dd0150"}, {"lon": -77.04635666666667, "lat": 38.89224466666667, "name": "2cdfcc81d825746c3df90d5dab626809", "fusion_lat": 0.0, "fusion_lon": 0.0, "rental_uris": {"android": "https://dc.lft.to/lastmile_qr_scan", "ios": "https://dc.lft.to/lastmile_qr_scan"}, "is_reserved": 0, "is_disabled": 0, "type": "electric_scooter", "bike_id": "2cdfcc81d825746c3df90d5dab626809"}, {"lon": -76.93231533333334, "lat": 38.865937833333334, "name": "850969ae759c871bfd206b6ebd554035", "fusion_lat": 0.0, "fusion_lon": 0.0, "rental_uris": {"android": "https://dc.lft.to/lastmile_qr_scan", "ios": "https://dc.lft.to/lastmile_qr_scan"}, "is_reserved": 0, "is_disabled": 0, "type": "electric_bike", "bike_id": "850969ae759c871bfd206b6ebd554035"}, {"lon": -77.02224483333333, "lat": 38.9124395, "name": "ff2dc6de47d2a2f29cd06855edd67687", "fusion_lat": 0.0, "fusion_lon": 0.0, "rental_uris": {"android": "https://dc.lft.to/lastmile_qr_scan", "ios": "https://dc.lft.to/lastmile_qr_scan"}, "is_reserved": 0, "is_disabled": 0, "type": "electric_scooter", "bike_id": "ff2dc6de47d2a2f29cd06855edd67687"}, {"lon": -77.03640866666667, "lat": 38.902852, "name": "c53835334ecf03a7b2b2231d536dbd3f", "fusion_lat": 0.0, "fusion_lon": 0.0, "rental_uris": {"android": "https://dc.lft.to/lastmile_qr_scan", "ios": "https://dc.lft.to/lastmile_qr_scan"}, "is_reserved": 0, "is_disabled": 0, "type": "electric_scooter", "bike_id": "c53835334ecf03a7b2b2231d536dbd3f"}, {"lon": -77.006673, "lat": 38.95565216666667, "name": "f08cdc75f847e1f15e2f6b470f3c2919", "fusion_lat": 0.0, "fusion_lon": 0.0, "rental_uris": {"android": "https://dc.lft.to/lastmile_qr_scan", "ios": "https://dc.lft.to/lastmile_qr_scan"}, "is_reserved": 0, "is_disabled": 0, "type": "electric_scooter", "bike_id": "f08cdc75f847e1f15e2f6b470f3c2919"}, {"lon": -77.009208, "lat": 38.91063333333334, "name": "924aa0853cc55de0a8ae69a24921f899", "fusion_lat": 0.0, "fusion_lon": 0.0, "rental_uris": {"android": "https://dc.lft.to/lastmile_qr_scan", "ios": "https://dc.lft.to/lastmile_qr_scan"}, "is_reserved": 0, "is_disabled": 0, "type": "electric_scooter", "bike_id": "924aa0853cc55de0a8ae69a24921f899"}, {"lon": -77.040573, "lat": 38.8954095, "name": "8fdc6b7c3ffa7bc3b09ae334c90c991a", "fusion_lat": 0.0, "fusion_lon": 0.0, "rental_uris": {"android": "https://dc.lft.to/lastmile_qr_scan", "ios": "https://dc.lft.to/lastmile_qr_scan"}, "is_reserved": 0, "is_disabled": 0, "type": "electric_scooter", "bike_id": "8fdc6b7c3ffa7bc3b09ae334c90c991a"}, {"lon": -77.12960416666667, "lat": 38.852142, "name": "ebf85145f537993bfb58ca9040a513e0", "fusion_lat": 0.0, "fusion_lon": 0.0, "rental_uris": {"android": "https://dc.lft.to/lastmile_qr_scan", "ios": "https://dc.lft.to/lastmile_qr_scan"}, "is_reserved": 0, "is_disabled": 0, "type": "electric_bike", "bike_id": "ebf85145f537993bfb58ca9040a513e0"}, {"lon": -77.04516833333334, "lat": 38.89221, "name": "57af168f997ae84e14bc59ead758ab7e", "fusion_lat": 0.0, "fusion_lon": 0.0, "rental_uris": {"android": "https://dc.lft.to/lastmile_qr_scan", "ios": "https://dc.lft.to/lastmile_qr_scan"}, "is_reserved": 0, "is_disabled": 0, "type": "electric_scooter", "bike_id": "57af168f997ae84e14bc59ead758ab7e"}, {"lon": -77.024817, "lat": 38.9175095, "name": "cbe4c1f1389589f37dd959d03faafcc5", "fusion_lat": 0.0, "fusion_lon": 0.0, "rental_uris": {"android": "https://dc.lft.to/lastmile_qr_scan", "ios": "https://dc.lft.to/lastmile_qr_scan"}, "is_reserved": 0, "is_disabled": 0, "type": "electric_scooter", "bike_id": "cbe4c1f1389589f37dd959d03faafcc5"}, {"lon": -76.94213766666667, "lat": 38.89667466666667, "name": "8d8f3cd91e04bf10e3945f86a0d22376", "fusion_lat": 0.0, "fusion_lon": 0.0, "rental_uris": {"android": "https://dc.lft.to/lastmile_qr_scan", "ios": "https://dc.lft.to/lastmile_qr_scan"}, "is_reserved": 0, "is_disabled": 0, "type": "electric_scooter", "bike_id": "8d8f3cd91e04bf10e3945f86a0d22376"}, {"lon": -77.03346683333334, "lat": 38.92166916666667, "name": "a8eefa331b94377f94e7e5180c4d94ab", "fusion_lat": 0.0, "fusion_lon": 0.0, "rental_uris": {"android": "https://dc.lft.to/lastmile_qr_scan", "ios": "https://dc.lft.to/lastmile_qr_scan"}, "is_reserved": 0, "is_disabled": 0, "type": "electric_scooter", "bike_id": "a8eefa331b94377f94e7e5180c4d94ab"}, {"lon": -76.9890275, "lat": 38.86693183333333, "name": "95d8d56c203a0f5acd5a2ad4a6f8703a", "fusion_lat": 0.0, "fusion_lon": 0.0, "rental_uris": {"android": "https://dc.lft.to/lastmile_qr_scan", "ios": "https://dc.lft.to/lastmile_qr_scan"}, "is_reserved": 0, "is_disabled": 0, "type": "electric_scooter", "bike_id": "95d8d56c203a0f5acd5a2ad4a6f8703a"}, {"lon": -77.0463445, "lat": 38.919148166666666, "name": "ce04dd4c1cee889d8817f4b54e43f4b3", "fusion_lat": 0.0, "fusion_lon": 0.0, "rental_uris": {"android": "https://dc.lft.to/lastmile_qr_scan", "ios": "https://dc.lft.to/lastmile_qr_scan"}, "is_reserved": 0, "is_disabled": 0, "type": "electric_scooter", "bike_id": "ce04dd4c1cee889d8817f4b54e43f4b3"}, {"lon": -76.99408733333334, "lat": 38.91004516666667, "name": "a13f3017fc61bba66c82ec7ceafcd1c2", "fusion_lat": 0.0, "fusion_lon": 0.0, "rental_uris": {"android": "https://dc.lft.to/lastmile_qr_scan", "ios": "https://dc.lft.to/lastmile_qr_scan"}, "is_reserved": 0, "is_disabled": 0, "type": "electric_scooter", "bike_id": "a13f3017fc61bba66c82ec7ceafcd1c2"}, {"lon": -76.99636133333334, "lat": 38.84620266666667, "name": "9ec6942e0c7a60967e209a125541c7a8", "fusion_lat": 0.0, "fusion_lon": 0.0, "rental_uris": {"android": "https://dc.lft.to/lastmile_qr_scan", "ios": "https://dc.lft.to/lastmile_qr_scan"}, "is_reserved": 0, "is_disabled": 0, "type": "electric_scooter", "bike_id": "9ec6942e0c7a60967e209a125541c7a8"}, {"lon": -77.0123365, "lat": 38.930466333333335, "name": "985c62d1cdc7ae723f9d525f9ceaffbc", "fusion_lat": 0.0, "fusion_lon": 0.0, "rental_uris": {"android": "https://dc.lft.to/lastmile_qr_scan", "ios": "https://dc.lft.to/lastmile_qr_scan"}, "is_reserved": 0, "is_disabled": 0, "type": "electric_scooter", "bike_id": "985c62d1cdc7ae723f9d525f9ceaffbc"}, {"lon": -77.02692133333333, "lat": 38.909415833333334, "name": "b59f8cdce3cbb8e05e33280952818eb8", "fusion_lat": 0.0, "fusion_lon": 0.0, "rental_uris": {"android": "https://dc.lft.to/lastmile_qr_scan", "ios": "https://dc.lft.to/lastmile_qr_scan"}, "is_reserved": 0, "is_disabled": 0, "type": "electric_scooter", "bike_id": "b59f8cdce3cbb8e05e33280952818eb8"}, {"lon": -77.04065183333333, "lat": 38.898176, "name": "6b887fae2ec87b15e41e8902efd40f1c", "fusion_lat": 0.0, "fusion_lon": 0.0, "rental_uris": {"android": "https://dc.lft.to/lastmile_qr_scan", "ios": "https://dc.lft.to/lastmile_qr_scan"}, "is_reserved": 0, "is_disabled": 0, "type": "electric_scooter", "bike_id": "6b887fae2ec87b15e41e8902efd40f1c"}, {"lon": -76.92709466666666, "lat": 38.88767583333333, "name": "06c72e4d4d4a240b95390b025c895bcb", "fusion_lat": 0.0, "fusion_lon": 0.0, "rental_uris": {"android": "https://dc.lft.to/lastmile_qr_scan", "ios": "https://dc.lft.to/lastmile_qr_scan"}, "is_reserved": 0, "is_disabled": 0, "type": "electric_scooter", "bike_id": "06c72e4d4d4a240b95390b025c895bcb"}, {"lon": -76.997628, "lat": 38.90039183333333, "name": "8479f0475b0fea4362c849f17544b366", "fusion_lat": 0.0, "fusion_lon": 0.0, "rental_uris": {"android": "https://dc.lft.to/lastmile_qr_scan", "ios": "https://dc.lft.to/lastmile_qr_scan"}, "is_reserved": 0, "is_disabled": 0, "type": "electric_scooter", "bike_id": "8479f0475b0fea4362c849f17544b366"}, {"lon": -77.06987116666667, "lat": 38.9469315, "name": "c79be3bd3af47911c259857d0d13b36f", "fusion_lat": 0.0, "fusion_lon": 0.0, "rental_uris": {"android": "https://dc.lft.to/lastmile_qr_scan", "ios": "https://dc.lft.to/lastmile_qr_scan"}, "is_reserved": 0, "is_disabled": 0, "type": "electric_scooter", "bike_id": "c79be3bd3af47911c259857d0d13b36f"}, {"lon": -77.12746166666666, "lat": 38.895651666666666, "name": "4e843ea80585f67445aa54707da7d7b6", "fusion_lat": 0.0, "fusion_lon": 0.0, "rental_uris": {"android": "https://dc.lft.to/lastmile_qr_scan", "ios": "https://dc.lft.to/lastmile_qr_scan"}, "is_reserved": 0, "is_disabled": 0, "type": "electric_bike", "bike_id": "4e843ea80585f67445aa54707da7d7b6"}, {"lon": -77.02544033333334, "lat": 38.901283, "name": "5bb4ca2b90337b35e0d310d952345e02", "fusion_lat": 0.0, "fusion_lon": 0.0, "rental_uris": {"android": "https://dc.lft.to/lastmile_qr_scan", "ios": "https://dc.lft.to/lastmile_qr_scan"}, "is_reserved": 0, "is_disabled": 0, "type": "electric_scooter", "bike_id": "5bb4ca2b90337b35e0d310d952345e02"}, {"lon": -76.99900633333333, "lat": 38.90754533333333, "name": "65c9778625adbdd2c2cb80767a6cad68", "fusion_lat": 0.0, "fusion_lon": 0.0, "rental_uris": {"android": "https://dc.lft.to/lastmile_qr_scan", "ios": "https://dc.lft.to/lastmile_qr_scan"}, "is_reserved": 0, "is_disabled": 0, "type": "electric_scooter", "bike_id": "65c9778625adbdd2c2cb80767a6cad68"}, {"lon": -77.01185733333334, "lat": 38.9005015, "name": "ebd384cfbfbae0d694b6cda9609e5a72", "fusion_lat": 0.0, "fusion_lon": 0.0, "rental_uris": {"android": "https://dc.lft.to/lastmile_qr_scan", "ios": "https://dc.lft.to/lastmile_qr_scan"}, "is_reserved": 0, "is_disabled": 0, "type": "electric_scooter", "bike_id": "ebd384cfbfbae0d694b6cda9609e5a72"}, {"lon": -77.03242216666666, "lat": 38.93452533333333, "name": "87ab6a7efe9a1baae816ec93a46a8732", "fusion_lat": 0.0, "fusion_lon": 0.0, "rental_uris": {"android": "https://dc.lft.to/lastmile_qr_scan", "ios": "https://dc.lft.to/lastmile_qr_scan"}, "is_reserved": 0, "is_disabled": 0, "type": "electric_scooter", "bike_id": "87ab6a7efe9a1baae816ec93a46a8732"}, {"lon": -76.99912333333333, "lat": 38.90937016666667, "name": "4b8c4341c49e5dbcd4e878a937f42b4d", "fusion_lat": 0.0, "fusion_lon": 0.0, "rental_uris": {"android": "https://dc.lft.to/lastmile_qr_scan", "ios": "https://dc.lft.to/lastmile_qr_scan"}, "is_reserved": 0, "is_disabled": 0, "type": "electric_scooter", "bike_id": "4b8c4341c49e5dbcd4e878a937f42b4d"}, {"lon": -77.03199783333334, "lat": 38.8936725, "name": "73a52b4f3b7a55162222ca3dcbfc92e9", "fusion_lat": 0.0, "fusion_lon": 0.0, "rental_uris": {"android": "https://dc.lft.to/lastmile_qr_scan", "ios": "https://dc.lft.to/lastmile_qr_scan"}, "is_reserved": 0, "is_disabled": 0, "type": "electric_scooter", "bike_id": "73a52b4f3b7a55162222ca3dcbfc92e9"}, {"lon": -76.99512816666666, "lat": 38.844717, "name": "e592b82f9260fc1cb6181f5c75989af5", "fusion_lat": 0.0, "fusion_lon": 0.0, "rental_uris": {"android": "https://dc.lft.to/lastmile_qr_scan", "ios": "https://dc.lft.to/lastmile_qr_scan"}, "is_reserved": 0, "is_disabled": 0, "type": "electric_scooter", "bike_id": "e592b82f9260fc1cb6181f5c75989af5"}, {"lon": -76.990637, "lat": 38.86352333333333, "name": "e94818816a49bdc84c42053361b54515", "fusion_lat": 0.0, "fusion_lon": 0.0, "rental_uris": {"android": "https://dc.lft.to/lastmile_qr_scan", "ios": "https://dc.lft.to/lastmile_qr_scan"}, "is_reserved": 0, "is_disabled": 0, "type": "electric_scooter", "bike_id": "e94818816a49bdc84c42053361b54515"}, {"lon": -77.028217, "lat": 38.909344, "name": "1ccb80c633c45cef60ada717fd36432b", "fusion_lat": 0.0, "fusion_lon": 0.0, "rental_uris": {"android": "https://dc.lft.to/lastmile_qr_scan", "ios": "https://dc.lft.to/lastmile_qr_scan"}, "is_reserved": 0, "is_disabled": 0, "type": "electric_scooter", "bike_id": "1ccb80c633c45cef60ada717fd36432b"}, {"lon": -77.00601566666667, "lat": 38.884926666666665, "name": "4d8950716c3bc72a4e3fe4b77adf616d", "fusion_lat": 0.0, "fusion_lon": 0.0, "rental_uris": {"android": "https://dc.lft.to/lastmile_qr_scan", "ios": "https://dc.lft.to/lastmile_qr_scan"}, "is_reserved": 0, "is_disabled": 0, "type": "electric_scooter", "bike_id": "4d8950716c3bc72a4e3fe4b77adf616d"}, {"lon": -76.99555683333334, "lat": 38.926700333333336, "name": "3bc1780e10f00a2a0c7fb6e0d7e0374d", "fusion_lat": 0.0, "fusion_lon": 0.0, "rental_uris": {"android": "https://dc.lft.to/lastmile_qr_scan", "ios": "https://dc.lft.to/lastmile_qr_scan"}, "is_reserved": 0, "is_disabled": 0, "type": "electric_scooter", "bike_id": "3bc1780e10f00a2a0c7fb6e0d7e0374d"}, {"lon": -76.98844183333334, "lat": 38.842695166666665, "name": "9294fead89a76d9609566359c7a4b705", "fusion_lat": 0.0, "fusion_lon": 0.0, "rental_uris": {"android": "https://dc.lft.to/lastmile_qr_scan", "ios": "https://dc.lft.to/lastmile_qr_scan"}, "is_reserved": 0, "is_disabled": 0, "type": "electric_bike", "bike_id": "9294fead89a76d9609566359c7a4b705"}, {"lon": -76.97029816666667, "lat": 38.9031205, "name": "046bd139d1b87f08bbe50184d8cb43c9", "fusion_lat": 0.0, "fusion_lon": 0.0, "rental_uris": {"android": "https://dc.lft.to/lastmile_qr_scan", "ios": "https://dc.lft.to/lastmile_qr_scan"}, "is_reserved": 0, "is_disabled": 0, "type": "electric_scooter", "bike_id": "046bd139d1b87f08bbe50184d8cb43c9"}, {"lon": -77.025665, "lat": 38.88739783333333, "name": "eaa0249a05c87aafd8dc834d5c8e8cc8", "fusion_lat": 0.0, "fusion_lon": 0.0, "rental_uris": {"android": "https://dc.lft.to/lastmile_qr_scan", "ios": "https://dc.lft.to/lastmile_qr_scan"}, "is_reserved": 0, "is_disabled": 0, "type": "electric_scooter", "bike_id": "eaa0249a05c87aafd8dc834d5c8e8cc8"}, {"lon": -77.02598733333333, "lat": 38.920392666666665, "name": "71ca2d5c70dbf779f3ab43d90a30b132", "fusion_lat": 0.0, "fusion_lon": 0.0, "rental_uris": {"android": "https://dc.lft.to/lastmile_qr_scan", "ios": "https://dc.lft.to/lastmile_qr_scan"}, "is_reserved": 0, "is_disabled": 0, "type": "electric_scooter", "bike_id": "71ca2d5c70dbf779f3ab43d90a30b132"}, {"lon": -77.0274805, "lat": 38.96626216666667, "name": "96eed4517d2844677f1c17a27535cd21", "fusion_lat": 0.0, "fusion_lon": 0.0, "rental_uris": {"android": "https://dc.lft.to/lastmile_qr_scan", "ios": "https://dc.lft.to/lastmile_qr_scan"}, "is_reserved": 0, "is_disabled": 0, "type": "electric_scooter", "bike_id": "96eed4517d2844677f1c17a27535cd21"}, {"lon": -77.02556916666667, "lat": 38.921348333333334, "name": "1f922ae8a9ad68f2dfb890741348c37c", "fusion_lat": 0.0, "fusion_lon": 0.0, "rental_uris": {"android": "https://dc.lft.to/lastmile_qr_scan", "ios": "https://dc.lft.to/lastmile_qr_scan"}, "is_reserved": 0, "is_disabled": 0, "type": "electric_scooter", "bike_id": "1f922ae8a9ad68f2dfb890741348c37c"}, {"lon": -77.00707966666667, "lat": 38.9055725, "name": "5ec355de660308fc40dac4bdce12de92", "fusion_lat": 0.0, "fusion_lon": 0.0, "rental_uris": {"android": "https://dc.lft.to/lastmile_qr_scan", "ios": "https://dc.lft.to/lastmile_qr_scan"}, "is_reserved": 0, "is_disabled": 0, "type": "electric_scooter", "bike_id": "5ec355de660308fc40dac4bdce12de92"}, {"lon": -76.94921933333333, "lat": 38.89473783333333, "name": "eab0bfdfb4115511f7ecbcda056f6912", "fusion_lat": 0.0, "fusion_lon": 0.0, "rental_uris": {"android": "https://dc.lft.to/lastmile_qr_scan", "ios": "https://dc.lft.to/lastmile_qr_scan"}, "is_reserved": 0, "is_disabled": 0, "type": "electric_scooter", "bike_id": "eab0bfdfb4115511f7ecbcda056f6912"}, {"lon": -77.02768983333333, "lat": 38.8920055, "name": "c5580739c5410b3d33f0bae644c3de3c", "fusion_lat": 0.0, "fusion_lon": 0.0, "rental_uris": {"android": "https://dc.lft.to/lastmile_qr_scan", "ios": "https://dc.lft.to/lastmile_qr_scan"}, "is_reserved": 0, "is_disabled": 0, "type": "electric_scooter", "bike_id": "c5580739c5410b3d33f0bae644c3de3c"}, {"lon": -77.11225216666666, "lat": 38.812333833333334, "name": "c54e2b8124ab4673eea9c330ac33cd47", "fusion_lat": 0.0, "fusion_lon": 0.0, "rental_uris": {"android": "https://dc.lft.to/lastmile_qr_scan", "ios": "https://dc.lft.to/lastmile_qr_scan"}, "is_reserved": 0, "is_disabled": 0, "type": "electric_bike", "bike_id": "c54e2b8124ab4673eea9c330ac33cd47"}, {"lon": -77.02827633333334, "lat": 38.8952505, "name": "0deb803049858f473e6e3201818e0719", "fusion_lat": 0.0, "fusion_lon": 0.0, "rental_uris": {"android": "https://dc.lft.to/lastmile_qr_scan", "ios": "https://dc.lft.to/lastmile_qr_scan"}, "is_reserved": 0, "is_disabled": 0, "type": "electric_scooter", "bike_id": "0deb803049858f473e6e3201818e0719"}, {"lon": -77.02205133333334, "lat": 38.88716083333333, "name": "57dfeeb1b79efcdb6bbe8e08d6800073", "fusion_lat": 0.0, "fusion_lon": 0.0, "rental_uris": {"android": "https://dc.lft.to/lastmile_qr_scan", "ios": "https://dc.lft.to/lastmile_qr_scan"}, "is_reserved": 0, "is_disabled": 0, "type": "electric_scooter", "bike_id": "57dfeeb1b79efcdb6bbe8e08d6800073"}, {"lon": -77.02239283333333, "lat": 38.8788075, "name": "6e7b108cfe34bb7aa02f8cee804dbb14", "fusion_lat": 0.0, "fusion_lon": 0.0, "rental_uris": {"android": "https://dc.lft.to/lastmile_qr_scan", "ios": "https://dc.lft.to/lastmile_qr_scan"}, "is_reserved": 0, "is_disabled": 0, "type": "electric_scooter", "bike_id": "6e7b108cfe34bb7aa02f8cee804dbb14"}, {"lon": -76.95253533333333, "lat": 38.90694033333333, "name": "3914a3be89bf9eff5687743ef7479690", "fusion_lat": 0.0, "fusion_lon": 0.0, "rental_uris": {"android": "https://dc.lft.to/lastmile_qr_scan", "ios": "https://dc.lft.to/lastmile_qr_scan"}, "is_reserved": 0, "is_disabled": 0, "type": "electric_bike", "bike_id": "3914a3be89bf9eff5687743ef7479690"}, {"lon": -77.02166916666667, "lat": 38.8862655, "name": "8f73f72a92aec2783b894a9a3ed86f38", "fusion_lat": 0.0, "fusion_lon": 0.0, "rental_uris": {"android": "https://dc.lft.to/lastmile_qr_scan", "ios": "https://dc.lft.to/lastmile_qr_scan"}, "is_reserved": 0, "is_disabled": 0, "type": "electric_scooter", "bike_id": "8f73f72a92aec2783b894a9a3ed86f38"}, {"lon": -77.06097983333333, "lat": 38.905242666666666, "name": "dcd834d5a8274455d7de699dcf06e247", "fusion_lat": 0.0, "fusion_lon": 0.0, "rental_uris": {"android": "https://dc.lft.to/lastmile_qr_scan", "ios": "https://dc.lft.to/lastmile_qr_scan"}, "is_reserved": 0, "is_disabled": 0, "type": "electric_scooter", "bike_id": "dcd834d5a8274455d7de699dcf06e247"}, {"lon": -76.98118716666667, "lat": 38.89669333333333, "name": "2d96d84471a0a01cda47d25c1d163a1e", "fusion_lat": 0.0, "fusion_lon": 0.0, "rental_uris": {"android": "https://dc.lft.to/lastmile_qr_scan", "ios": "https://dc.lft.to/lastmile_qr_scan"}, "is_reserved": 0, "is_disabled": 0, "type": "electric_bike", "bike_id": "2d96d84471a0a01cda47d25c1d163a1e"}, {"lon": -77.02974666666667, "lat": 38.92256166666667, "name": "72401c9c85ee80d3c55e00c2a432f6e7", "fusion_lat": 0.0, "fusion_lon": 0.0, "rental_uris": {"android": "https://dc.lft.to/lastmile_qr_scan", "ios": "https://dc.lft.to/lastmile_qr_scan"}, "is_reserved": 0, "is_disabled": 0, "type": "electric_scooter", "bike_id": "72401c9c85ee80d3c55e00c2a432f6e7"}, {"lon": -77.03732883333333, "lat": 38.90617233333333, "name": "dfcf10ee464cc5ab54a44966fdcdfe6a", "fusion_lat": 0.0, "fusion_lon": 0.0, "rental_uris": {"android": "https://dc.lft.to/lastmile_qr_scan", "ios": "https://dc.lft.to/lastmile_qr_scan"}, "is_reserved": 0, "is_disabled": 0, "type": "electric_scooter", "bike_id": "dfcf10ee464cc5ab54a44966fdcdfe6a"}, {"lon": -77.02891566666666, "lat": 38.95838883333333, "name": "7a150cb14fd562ab9db8807d05e6cd4f", "fusion_lat": 0.0, "fusion_lon": 0.0, "rental_uris": {"android": "https://dc.lft.to/lastmile_qr_scan", "ios": "https://dc.lft.to/lastmile_qr_scan"}, "is_reserved": 0, "is_disabled": 0, "type": "electric_scooter", "bike_id": "7a150cb14fd562ab9db8807d05e6cd4f"}, {"lon": -77.02455916666666, "lat": 38.9191775, "name": "93021129fe9d81e114fc4d1caab18f5c", "fusion_lat": 0.0, "fusion_lon": 0.0, "rental_uris": {"android": "https://dc.lft.to/lastmile_qr_scan", "ios": "https://dc.lft.to/lastmile_qr_scan"}, "is_reserved": 0, "is_disabled": 0, "type": "electric_scooter", "bike_id": "93021129fe9d81e114fc4d1caab18f5c"}, {"lon": -77.03604083333333, "lat": 38.95614966666667, "name": "095cc7b726de6815a0fca1f87e5a7062", "fusion_lat": 0.0, "fusion_lon": 0.0, "rental_uris": {"android": "https://dc.lft.to/lastmile_qr_scan", "ios": "https://dc.lft.to/lastmile_qr_scan"}, "is_reserved": 0, "is_disabled": 0, "type": "electric_scooter", "bike_id": "095cc7b726de6815a0fca1f87e5a7062"}, {"lon": -77.04910683333334, "lat": 38.897332166666665, "name": "7486776d64ea3e51ec62d31ecb22732a", "fusion_lat": 0.0, "fusion_lon": 0.0, "rental_uris": {"android": "https://dc.lft.to/lastmile_qr_scan", "ios": "https://dc.lft.to/lastmile_qr_scan"}, "is_reserved": 0, "is_disabled": 0, "type": "electric_scooter", "bike_id": "7486776d64ea3e51ec62d31ecb22732a"}, {"lon": -76.9873255, "lat": 38.86703816666667, "name": "977bded32ab9c37e89020c47a88b6b10", "fusion_lat": 0.0, "fusion_lon": 0.0, "rental_uris": {"android": "https://dc.lft.to/lastmile_qr_scan", "ios": "https://dc.lft.to/lastmile_qr_scan"}, "is_reserved": 0, "is_disabled": 0, "type": "electric_scooter", "bike_id": "977bded32ab9c37e89020c47a88b6b10"}, {"lon": -77.05556616666667, "lat": 38.899597666666665, "name": "f271e2e186b092dd9b79754a0b79f290", "fusion_lat": 0.0, "fusion_lon": 0.0, "rental_uris": {"android": "https://dc.lft.to/lastmile_qr_scan", "ios": "https://dc.lft.to/lastmile_qr_scan"}, "is_reserved": 0, "is_disabled": 0, "type": "electric_scooter", "bike_id": "f271e2e186b092dd9b79754a0b79f290"}, {"lon": -77.03261016666667, "lat": 38.90860166666667, "name": "26d2280b11a9e59d2ffa50814665651e", "fusion_lat": 0.0, "fusion_lon": 0.0, "rental_uris": {"android": "https://dc.lft.to/lastmile_qr_scan", "ios": "https://dc.lft.to/lastmile_qr_scan"}, "is_reserved": 0, "is_disabled": 0, "type": "electric_scooter", "bike_id": "26d2280b11a9e59d2ffa50814665651e"}, {"lon": -77.01211783333333, "lat": 38.91978733333333, "name": "935a21c94904f56acb2e8e428d221674", "fusion_lat": 0.0, "fusion_lon": 0.0, "rental_uris": {"android": "https://dc.lft.to/lastmile_qr_scan", "ios": "https://dc.lft.to/lastmile_qr_scan"}, "is_reserved": 0, "is_disabled": 0, "type": "electric_scooter", "bike_id": "935a21c94904f56acb2e8e428d221674"}, {"lon": -76.99935483333333, "lat": 38.896184166666664, "name": "ec9420bbca470b6df95c22055f899c4b", "fusion_lat": 0.0, "fusion_lon": 0.0, "rental_uris": {"android": "https://dc.lft.to/lastmile_qr_scan", "ios": "https://dc.lft.to/lastmile_qr_scan"}, "is_reserved": 0, "is_disabled": 0, "type": "electric_scooter", "bike_id": "ec9420bbca470b6df95c22055f899c4b"}, {"lon": -77.09970283333334, "lat": 38.92243766666667, "name": "828cb22c1bb0e105dfbfa37e97c6466b", "fusion_lat": 0.0, "fusion_lon": 0.0, "rental_uris": {"android": "https://dc.lft.to/lastmile_qr_scan", "ios": "https://dc.lft.to/lastmile_qr_scan"}, "is_reserved": 0, "is_disabled": 0, "type": "electric_scooter", "bike_id": "828cb22c1bb0e105dfbfa37e97c6466b"}, {"lon": -76.96629066666667, "lat": 38.94202266666667, "name": "e35f9a732fba83c3d98abf5b43ef91a9", "fusion_lat": 0.0, "fusion_lon": 0.0, "rental_uris": {"android": "https://dc.lft.to/lastmile_qr_scan", "ios": "https://dc.lft.to/lastmile_qr_scan"}, "is_reserved": 0, "is_disabled": 0, "type": "electric_bike", "bike_id": "e35f9a732fba83c3d98abf5b43ef91a9"}, {"lon": -77.02231633333334, "lat": 38.887421833333335, "name": "aa0646b21b9188704f889ce26c9ca731", "fusion_lat": 0.0, "fusion_lon": 0.0, "rental_uris": {"android": "https://dc.lft.to/lastmile_qr_scan", "ios": "https://dc.lft.to/lastmile_qr_scan"}, "is_reserved": 0, "is_disabled": 0, "type": "electric_scooter", "bike_id": "aa0646b21b9188704f889ce26c9ca731"}, {"lon": -77.07833833333333, "lat": 38.92672483333333, "name": "8bfdbd46ff56977bb7e33145cf162436", "fusion_lat": 0.0, "fusion_lon": 0.0, "rental_uris": {"android": "https://dc.lft.to/lastmile_qr_scan", "ios": "https://dc.lft.to/lastmile_qr_scan"}, "is_reserved": 0, "is_disabled": 0, "type": "electric_scooter", "bike_id": "8bfdbd46ff56977bb7e33145cf162436"}, {"lon": -76.93756133333333, "lat": 38.890443166666664, "name": "0de68582910522869fead8e1dbd38b70", "fusion_lat": 0.0, "fusion_lon": 0.0, "rental_uris": {"android": "https://dc.lft.to/lastmile_qr_scan", "ios": "https://dc.lft.to/lastmile_qr_scan"}, "is_reserved": 0, "is_disabled": 0, "type": "electric_scooter", "bike_id": "0de68582910522869fead8e1dbd38b70"}, {"lon": -77.02990583333333, "lat": 38.917060166666666, "name": "89512738239407f29b2faf4e12d9d2c7", "fusion_lat": 0.0, "fusion_lon": 0.0, "rental_uris": {"android": "https://dc.lft.to/lastmile_qr_scan", "ios": "https://dc.lft.to/lastmile_qr_scan"}, "is_reserved": 0, "is_disabled": 0, "type": "electric_scooter", "bike_id": "89512738239407f29b2faf4e12d9d2c7"}, {"lon": -77.03414866666667, "lat": 38.92094633333333, "name": "e3161fde8718505391c1118e3c620fec", "fusion_lat": 0.0, "fusion_lon": 0.0, "rental_uris": {"android": "https://dc.lft.to/lastmile_qr_scan", "ios": "https://dc.lft.to/lastmile_qr_scan"}, "is_reserved": 0, "is_disabled": 0, "type": "electric_scooter", "bike_id": "e3161fde8718505391c1118e3c620fec"}, {"lon": -77.02404783333333, "lat": 38.90988, "name": "aea316ca4585678f886726de25610b30", "fusion_lat": 0.0, "fusion_lon": 0.0, "rental_uris": {"android": "https://dc.lft.to/lastmile_qr_scan", "ios": "https://dc.lft.to/lastmile_qr_scan"}, "is_reserved": 0, "is_disabled": 0, "type": "electric_scooter", "bike_id": "aea316ca4585678f886726de25610b30"}, {"lon": -77.04701766666666, "lat": 38.92099133333333, "name": "0ee64252e3ad19974dfce918c1ada3cf", "fusion_lat": 0.0, "fusion_lon": 0.0, "rental_uris": {"android": "https://dc.lft.to/lastmile_qr_scan", "ios": "https://dc.lft.to/lastmile_qr_scan"}, "is_reserved": 0, "is_disabled": 0, "type": "electric_scooter", "bike_id": "0ee64252e3ad19974dfce918c1ada3cf"}, {"lon": -77.03695216666667, "lat": 38.916996166666664, "name": "e045e69ed8cdc9a9aced45ee586ef05f", "fusion_lat": 0.0, "fusion_lon": 0.0, "rental_uris": {"android": "https://dc.lft.to/lastmile_qr_scan", "ios": "https://dc.lft.to/lastmile_qr_scan"}, "is_reserved": 0, "is_disabled": 0, "type": "electric_scooter", "bike_id": "e045e69ed8cdc9a9aced45ee586ef05f"}, {"lon": -77.04549316666666, "lat": 38.92068033333334, "name": "18a11b1046bc9d4980719e45909430fc", "fusion_lat": 0.0, "fusion_lon": 0.0, "rental_uris": {"android": "https://dc.lft.to/lastmile_qr_scan", "ios": "https://dc.lft.to/lastmile_qr_scan"}, "is_reserved": 0, "is_disabled": 0, "type": "electric_scooter", "bike_id": "18a11b1046bc9d4980719e45909430fc"}, {"lon": -77.0297975, "lat": 38.916802, "name": "dfd6fbac90f86c3f94ea3c418ceef81d", "fusion_lat": 0.0, "fusion_lon": 0.0, "rental_uris": {"android": "https://dc.lft.to/lastmile_qr_scan", "ios": "https://dc.lft.to/lastmile_qr_scan"}, "is_reserved": 0, "is_disabled": 0, "type": "electric_scooter", "bike_id": "dfd6fbac90f86c3f94ea3c418ceef81d"}, {"lon": -77.02278083333333, "lat": 38.90217166666667, "name": "a7297c80fff92447f9925f6b03e39273", "fusion_lat": 0.0, "fusion_lon": 0.0, "rental_uris": {"android": "https://dc.lft.to/lastmile_qr_scan", "ios": "https://dc.lft.to/lastmile_qr_scan"}, "is_reserved": 0, "is_disabled": 0, "type": "electric_scooter", "bike_id": "a7297c80fff92447f9925f6b03e39273"}, {"lon": -77.026505, "lat": 38.938618166666664, "name": "3c69ba53e08f6019e252dddd7f77f71b", "fusion_lat": 0.0, "fusion_lon": 0.0, "rental_uris": {"android": "https://dc.lft.to/lastmile_qr_scan", "ios": "https://dc.lft.to/lastmile_qr_scan"}, "is_reserved": 0, "is_disabled": 0, "type": "electric_scooter", "bike_id": "3c69ba53e08f6019e252dddd7f77f71b"}, {"lon": -77.02859083333334, "lat": 38.9334425, "name": "70e475f2b90c707d263da953cce9ada3", "fusion_lat": 0.0, "fusion_lon": 0.0, "rental_uris": {"android": "https://dc.lft.to/lastmile_qr_scan", "ios": "https://dc.lft.to/lastmile_qr_scan"}, "is_reserved": 0, "is_disabled": 0, "type": "electric_scooter", "bike_id": "70e475f2b90c707d263da953cce9ada3"}, {"lon": -77.02230816666666, "lat": 38.885890833333335, "name": "fb5c227feb9a60900c9ff6e223fc4eab", "fusion_lat": 0.0, "fusion_lon": 0.0, "rental_uris": {"android": "https://dc.lft.to/lastmile_qr_scan", "ios": "https://dc.lft.to/lastmile_qr_scan"}, "is_reserved": 0, "is_disabled": 0, "type": "electric_scooter", "bike_id": "fb5c227feb9a60900c9ff6e223fc4eab"}, {"lon": -77.03834466666666, "lat": 38.9313955, "name": "6f6eda3273cb4020ce737fa1c4454277", "fusion_lat": 0.0, "fusion_lon": 0.0, "rental_uris": {"android": "https://dc.lft.to/lastmile_qr_scan", "ios": "https://dc.lft.to/lastmile_qr_scan"}, "is_reserved": 0, "is_disabled": 0, "type": "electric_scooter", "bike_id": "6f6eda3273cb4020ce737fa1c4454277"}, {"lon": -77.00930066666666, "lat": 38.89607516666667, "name": "8fcb74346e398458a842e26091e269c4", "fusion_lat": 0.0, "fusion_lon": 0.0, "rental_uris": {"android": "https://dc.lft.to/lastmile_qr_scan", "ios": "https://dc.lft.to/lastmile_qr_scan"}, "is_reserved": 0, "is_disabled": 0, "type": "electric_scooter", "bike_id": "8fcb74346e398458a842e26091e269c4"}, {"lon": -76.93176533333333, "lat": 38.898802, "name": "309446b6b773948354a19bb01d53242c", "fusion_lat": 0.0, "fusion_lon": 0.0, "rental_uris": {"android": "https://dc.lft.to/lastmile_qr_scan", "ios": "https://dc.lft.to/lastmile_qr_scan"}, "is_reserved": 0, "is_disabled": 0, "type": "electric_scooter", "bike_id": "309446b6b773948354a19bb01d53242c"}, {"lon": -77.0272695, "lat": 38.9512985, "name": "cdcdba5d5f935ebf8399469839ad1cf6", "fusion_lat": 0.0, "fusion_lon": 0.0, "rental_uris": {"android": "https://dc.lft.to/lastmile_qr_scan", "ios": "https://dc.lft.to/lastmile_qr_scan"}, "is_reserved": 0, "is_disabled": 0, "type": "electric_scooter", "bike_id": "cdcdba5d5f935ebf8399469839ad1cf6"}, {"lon": -77.00728816666667, "lat": 38.88491833333333, "name": "2bec0df3f1d4d8346cf4efac0cb19c4c", "fusion_lat": 0.0, "fusion_lon": 0.0, "rental_uris": {"android": "https://dc.lft.to/lastmile_qr_scan", "ios": "https://dc.lft.to/lastmile_qr_scan"}, "is_reserved": 0, "is_disabled": 0, "type": "electric_scooter", "bike_id": "2bec0df3f1d4d8346cf4efac0cb19c4c"}, {"lon": -76.98858233333333, "lat": 38.9001525, "name": "d73f64a7a0cdc16c01056f8f86cf09ae", "fusion_lat": 0.0, "fusion_lon": 0.0, "rental_uris": {"android": "https://dc.lft.to/lastmile_qr_scan", "ios": "https://dc.lft.to/lastmile_qr_scan"}, "is_reserved": 0, "is_disabled": 0, "type": "electric_scooter", "bike_id": "d73f64a7a0cdc16c01056f8f86cf09ae"}, {"lon": -77.02124766666667, "lat": 38.90301633333333, "name": "6146224356ddec09aaa1350d23ac54b6", "fusion_lat": 0.0, "fusion_lon": 0.0, "rental_uris": {"android": "https://dc.lft.to/lastmile_qr_scan", "ios": "https://dc.lft.to/lastmile_qr_scan"}, "is_reserved": 0, "is_disabled": 0, "type": "electric_scooter", "bike_id": "6146224356ddec09aaa1350d23ac54b6"}, {"lon": -77.00756916666667, "lat": 38.8711905, "name": "664949c4a3198e6e73fc1530e702318d", "fusion_lat": 0.0, "fusion_lon": 0.0, "rental_uris": {"android": "https://dc.lft.to/lastmile_qr_scan", "ios": "https://dc.lft.to/lastmile_qr_scan"}, "is_reserved": 0, "is_disabled": 0, "type": "electric_scooter", "bike_id": "664949c4a3198e6e73fc1530e702318d"}, {"lon": -77.35311466666667, "lat": 38.95001283333333, "name": "967cdaaded3bf5af3231d6d7e15369bf", "fusion_lat": 0.0, "fusion_lon": 0.0, "rental_uris": {"android": "https://dc.lft.to/lastmile_qr_scan", "ios": "https://dc.lft.to/lastmile_qr_scan"}, "is_reserved": 0, "is_disabled": 0, "type": "electric_bike", "bike_id": "967cdaaded3bf5af3231d6d7e15369bf"}, {"lon": -76.93570916666667, "lat": 38.88530633333333, "name": "878ba7eab9497ef3b793f1609020f8e6", "fusion_lat": 0.0, "fusion_lon": 0.0, "rental_uris": {"android": "https://dc.lft.to/lastmile_qr_scan", "ios": "https://dc.lft.to/lastmile_qr_scan"}, "is_reserved": 0, "is_disabled": 0, "type": "electric_bike", "bike_id": "878ba7eab9497ef3b793f1609020f8e6"}, {"lon": -77.0347275, "lat": 38.91704, "name": "7ee1a2a6347534f33d0bad6187689f4b", "fusion_lat": 0.0, "fusion_lon": 0.0, "rental_uris": {"android": "https://dc.lft.to/lastmile_qr_scan", "ios": "https://dc.lft.to/lastmile_qr_scan"}, "is_reserved": 0, "is_disabled": 0, "type": "electric_scooter", "bike_id": "7ee1a2a6347534f33d0bad6187689f4b"}, {"lon": -77.00509583333333, "lat": 38.87535233333333, "name": "8470f2078760a4e40be13ff432cd96fa", "fusion_lat": 0.0, "fusion_lon": 0.0, "rental_uris": {"android": "https://dc.lft.to/lastmile_qr_scan", "ios": "https://dc.lft.to/lastmile_qr_scan"}, "is_reserved": 0, "is_disabled": 0, "type": "electric_scooter", "bike_id": "8470f2078760a4e40be13ff432cd96fa"}, {"lon": -77.0300475, "lat": 38.93456333333334, "name": "36b7c01ef317623818ec34f87eb85f35", "fusion_lat": 0.0, "fusion_lon": 0.0, "rental_uris": {"android": "https://dc.lft.to/lastmile_qr_scan", "ios": "https://dc.lft.to/lastmile_qr_scan"}, "is_reserved": 0, "is_disabled": 0, "type": "electric_scooter", "bike_id": "36b7c01ef317623818ec34f87eb85f35"}, {"lon": -77.032158, "lat": 38.916502, "name": "3f86f495a10b3cad6155695f0332965a", "fusion_lat": 0.0, "fusion_lon": 0.0, "rental_uris": {"android": "https://dc.lft.to/lastmile_qr_scan", "ios": "https://dc.lft.to/lastmile_qr_scan"}, "is_reserved": 0, "is_disabled": 0, "type": "electric_scooter", "bike_id": "3f86f495a10b3cad6155695f0332965a"}, {"lon": -77.010769, "lat": 38.962584666666665, "name": "69c2bb6b647434c9829ed8a2cdeffada", "fusion_lat": 0.0, "fusion_lon": 0.0, "rental_uris": {"android": "https://dc.lft.to/lastmile_qr_scan", "ios": "https://dc.lft.to/lastmile_qr_scan"}, "is_reserved": 0, "is_disabled": 0, "type": "electric_bike", "bike_id": "69c2bb6b647434c9829ed8a2cdeffada"}, {"lon": -77.03731883333333, "lat": 38.93356566666667, "name": "07361a69d22e7b24098d402973e8a42d", "fusion_lat": 0.0, "fusion_lon": 0.0, "rental_uris": {"android": "https://dc.lft.to/lastmile_qr_scan", "ios": "https://dc.lft.to/lastmile_qr_scan"}, "is_reserved": 0, "is_disabled": 0, "type": "electric_scooter", "bike_id": "07361a69d22e7b24098d402973e8a42d"}, {"lon": -77.03358616666667, "lat": 38.8929995, "name": "8eb054264c59918ddefa421c9edd696a", "fusion_lat": 0.0, "fusion_lon": 0.0, "rental_uris": {"android": "https://dc.lft.to/lastmile_qr_scan", "ios": "https://dc.lft.to/lastmile_qr_scan"}, "is_reserved": 0, "is_disabled": 0, "type": "electric_scooter", "bike_id": "8eb054264c59918ddefa421c9edd696a"}, {"lon": -77.000137, "lat": 38.906678166666666, "name": "0611c5bdaebcbda6b79c1eeb377ff75b", "fusion_lat": 0.0, "fusion_lon": 0.0, "rental_uris": {"android": "https://dc.lft.to/lastmile_qr_scan", "ios": "https://dc.lft.to/lastmile_qr_scan"}, "is_reserved": 0, "is_disabled": 0, "type": "electric_scooter", "bike_id": "0611c5bdaebcbda6b79c1eeb377ff75b"}, {"lon": -76.98615783333334, "lat": 38.85461983333333, "name": "767e37f90d8a4496c73dffa5a2c5affc", "fusion_lat": 0.0, "fusion_lon": 0.0, "rental_uris": {"android": "https://dc.lft.to/lastmile_qr_scan", "ios": "https://dc.lft.to/lastmile_qr_scan"}, "is_reserved": 0, "is_disabled": 0, "type": "electric_scooter", "bike_id": "767e37f90d8a4496c73dffa5a2c5affc"}, {"lon": -77.05157, "lat": 38.92387216666667, "name": "fe50b599a234351de615dd6202c5e981", "fusion_lat": 0.0, "fusion_lon": 0.0, "rental_uris": {"android": "https://dc.lft.to/lastmile_qr_scan", "ios": "https://dc.lft.to/lastmile_qr_scan"}, "is_reserved": 0, "is_disabled": 0, "type": "electric_scooter", "bike_id": "fe50b599a234351de615dd6202c5e981"}, {"lon": -77.00926833333334, "lat": 38.910517, "name": "987ee69410225a82efa4da8d9a5b79c5", "fusion_lat": 0.0, "fusion_lon": 0.0, "rental_uris": {"android": "https://dc.lft.to/lastmile_qr_scan", "ios": "https://dc.lft.to/lastmile_qr_scan"}, "is_reserved": 0, "is_disabled": 0, "type": "electric_scooter", "bike_id": "987ee69410225a82efa4da8d9a5b79c5"}, {"lon": -77.04778583333334, "lat": 38.9052615, "name": "09c91efcf285f6d2db266f5185a9210a", "fusion_lat": 0.0, "fusion_lon": 0.0, "rental_uris": {"android": "https://dc.lft.to/lastmile_qr_scan", "ios": "https://dc.lft.to/lastmile_qr_scan"}, "is_reserved": 0, "is_disabled": 0, "type": "electric_bike", "bike_id": "09c91efcf285f6d2db266f5185a9210a"}, {"lon": -77.04058933333333, "lat": 38.917701, "name": "d60cde4b9fa8ec6cdb7165c753f4f33e", "fusion_lat": 0.0, "fusion_lon": 0.0, "rental_uris": {"android": "https://dc.lft.to/lastmile_qr_scan", "ios": "https://dc.lft.to/lastmile_qr_scan"}, "is_reserved": 0, "is_disabled": 0, "type": "electric_scooter", "bike_id": "d60cde4b9fa8ec6cdb7165c753f4f33e"}, {"lon": -77.02825366666667, "lat": 38.914151833333335, "name": "781b18c5b26a880426adb7b5e2e71d14", "fusion_lat": 0.0, "fusion_lon": 0.0, "rental_uris": {"android": "https://dc.lft.to/lastmile_qr_scan", "ios": "https://dc.lft.to/lastmile_qr_scan"}, "is_reserved": 0, "is_disabled": 0, "type": "electric_scooter", "bike_id": "781b18c5b26a880426adb7b5e2e71d14"}, {"lon": -77.06596216666667, "lat": 38.91237733333333, "name": "7eb0cbf4206f1deaf410f50e97e1b4da", "fusion_lat": 0.0, "fusion_lon": 0.0, "rental_uris": {"android": "https://dc.lft.to/lastmile_qr_scan", "ios": "https://dc.lft.to/lastmile_qr_scan"}, "is_reserved": 0, "is_disabled": 0, "type": "electric_bike", "bike_id": "7eb0cbf4206f1deaf410f50e97e1b4da"}, {"lon": -76.9984045, "lat": 38.839156, "name": "cb7cae3e0dc52be441101db5b38c8e95", "fusion_lat": 0.0, "fusion_lon": 0.0, "rental_uris": {"android": "https://dc.lft.to/lastmile_qr_scan", "ios": "https://dc.lft.to/lastmile_qr_scan"}, "is_reserved": 0, "is_disabled": 0, "type": "electric_bike", "bike_id": "cb7cae3e0dc52be441101db5b38c8e95"}, {"lon": -77.0256605, "lat": 38.887427, "name": "773522e1e65ec520dcc4281c654ac728", "fusion_lat": 0.0, "fusion_lon": 0.0, "rental_uris": {"android": "https://dc.lft.to/lastmile_qr_scan", "ios": "https://dc.lft.to/lastmile_qr_scan"}, "is_reserved": 0, "is_disabled": 0, "type": "electric_scooter", "bike_id": "773522e1e65ec520dcc4281c654ac728"}, {"lon": -76.98023816666667, "lat": 38.903775333333336, "name": "11ab2ef4536c4ff39327e0e08712d9b9", "fusion_lat": 0.0, "fusion_lon": 0.0, "rental_uris": {"android": "https://dc.lft.to/lastmile_qr_scan", "ios": "https://dc.lft.to/lastmile_qr_scan"}, "is_reserved": 0, "is_disabled": 0, "type": "electric_scooter", "bike_id": "11ab2ef4536c4ff39327e0e08712d9b9"}, {"lon": -77.05852383333334, "lat": 38.93423333333333, "name": "570ca0d93aa9819aa580fcfe86da0575", "fusion_lat": 0.0, "fusion_lon": 0.0, "rental_uris": {"android": "https://dc.lft.to/lastmile_qr_scan", "ios": "https://dc.lft.to/lastmile_qr_scan"}, "is_reserved": 0, "is_disabled": 0, "type": "electric_scooter", "bike_id": "570ca0d93aa9819aa580fcfe86da0575"}, {"lon": -77.04373233333334, "lat": 38.90425883333333, "name": "a936f409fe6317eb2c1a05106b69f9d7", "fusion_lat": 0.0, "fusion_lon": 0.0, "rental_uris": {"android": "https://dc.lft.to/lastmile_qr_scan", "ios": "https://dc.lft.to/lastmile_qr_scan"}, "is_reserved": 0, "is_disabled": 0, "type": "electric_scooter", "bike_id": "a936f409fe6317eb2c1a05106b69f9d7"}, {"lon": -77.01403283333333, "lat": 38.92829116666667, "name": "56868c201856be50781d73fb368d461e", "fusion_lat": 0.0, "fusion_lon": 0.0, "rental_uris": {"android": "https://dc.lft.to/lastmile_qr_scan", "ios": "https://dc.lft.to/lastmile_qr_scan"}, "is_reserved": 0, "is_disabled": 0, "type": "electric_scooter", "bike_id": "56868c201856be50781d73fb368d461e"}, {"lon": -77.03341116666667, "lat": 38.917143, "name": "f60fb53a15765f785fbc32cdfe0aa11c", "fusion_lat": 0.0, "fusion_lon": 0.0, "rental_uris": {"android": "https://dc.lft.to/lastmile_qr_scan", "ios": "https://dc.lft.to/lastmile_qr_scan"}, "is_reserved": 0, "is_disabled": 0, "type": "electric_scooter", "bike_id": "f60fb53a15765f785fbc32cdfe0aa11c"}, {"lon": -77.02883616666666, "lat": 38.90327583333333, "name": "82c1f5e1270796037097addb91eabab5", "fusion_lat": 0.0, "fusion_lon": 0.0, "rental_uris": {"android": "https://dc.lft.to/lastmile_qr_scan", "ios": "https://dc.lft.to/lastmile_qr_scan"}, "is_reserved": 0, "is_disabled": 0, "type": "electric_scooter", "bike_id": "82c1f5e1270796037097addb91eabab5"}, {"lon": -77.02810216666667, "lat": 38.881776333333335, "name": "560ddb5301ee97ecffad460ae5f94c11", "fusion_lat": 0.0, "fusion_lon": 0.0, "rental_uris": {"android": "https://dc.lft.to/lastmile_qr_scan", "ios": "https://dc.lft.to/lastmile_qr_scan"}, "is_reserved": 0, "is_disabled": 0, "type": "electric_scooter", "bike_id": "560ddb5301ee97ecffad460ae5f94c11"}, {"lon": -77.04479683333334, "lat": 38.89966183333333, "name": "16548c72cba26835288657960b5bcfbe", "fusion_lat": 0.0, "fusion_lon": 0.0, "rental_uris": {"android": "https://dc.lft.to/lastmile_qr_scan", "ios": "https://dc.lft.to/lastmile_qr_scan"},