{"data": {"bikes": [{"bike_id": "d63c11010a45314401c143b62b49981d", "lat": 38.9028195, "is_disabled": 0, "lon": -77.0460255, "fusion_lon": 0.0, "is_reserved": 0, "fusion_lat": 0.0, "rental_uris": {"android": "https://dc.lft.to/lastmile_qr_scan", "ios": "https://dc.lft.to/lastmile_qr_scan"}, "type": "electric_scooter", "name": "d63c11010a45314401c143b62b49981d"}, {"bike_id": "ca5f55a3586dee30525c4aa62d3fa780", "lat": 38.91838633333333, "is_disabled": 0, "lon": -77.02294916666666, "fusion_lon": 0.0, "is_reserved": 0, "fusion_lat": 0.0, "rental_uris": {"android": "https://dc.lft.to/lastmile_qr_scan", "ios": "https://dc.lft.to/lastmile_qr_scan"}, "type": "electric_scooter", "name": "ca5f55a3586dee30525c4aa62d3fa780"}, {"bike_id": "4c39334c119af31c73276ceb31f4667b", "lat": 38.900077833333334, "is_disabled": 0, "lon": -76.98893133333334, "fusion_lon": 0.0, "is_reserved": 0, "fusion_lat": 0.0, "rental_uris": {"android": "https://dc.lft.to/lastmile_qr_scan", "ios": "https://dc.lft.to/lastmile_qr_scan"}, "type": "electric_scooter", "name": "4c39334c119af31c73276ceb31f4667b"}, {"bike_id": "0686cb6ea5980b38fb65fa62c3a5ed3b", "lat": 38.93158366666667, "is_disabled": 0, "lon": -77.028817, "fusion_lon": 0.0, "is_reserved": 0, "fusion_lat": 0.0, "rental_uris": {"android": "https://dc.lft.to/lastmile_qr_scan", "ios": "https://dc.lft.to/lastmile_qr_scan"}, "type": "electric_scooter", "name": "0686cb6ea5980b38fb65fa62c3a5ed3b"}, {"bike_id": "1f450c4e50db481d6de46b5d66219212", "lat": 38.897797, "is_disabled": 0, "lon": -77.01357916666667, "fusion_lon": 0.0, "is_reserved": 0, "fusion_lat": 0.0, "rental_uris": {"android": "https://dc.lft.to/lastmile_qr_scan", "ios": "https://dc.lft.to/lastmile_qr_scan"}, "type": "electric_bike", "name": "1f450c4e50db481d6de46b5d66219212"}, {"bike_id": "acc88dd391115a8286112c25420d69b2", "lat": 38.90363833333333, "is_disabled": 0, "lon": -77.03455683333334, "fusion_lon": 0.0, "is_reserved": 0, "fusion_lat": 0.0, "rental_uris": {"android": "https://dc.lft.to/lastmile_qr_scan", "ios": "https://dc.lft.to/lastmile_qr_scan"}, "type": "electric_scooter", "name": "acc88dd391115a8286112c25420d69b2"}, {"bike_id": "ab9750a4a1e2ff4d519d4bef085a6629", "lat": 38.913503166666665, "is_disabled": 0, "lon": -77.04559816666666, "fusion_lon": 0.0, "is_reserved": 0, "fusion_lat": 0.0, "rental_uris": {"android": "https://dc.lft.to/lastmile_qr_scan", "ios": "https://dc.lft.to/lastmile_qr_scan"}, "type": "electric_scooter", "name": "ab9750a4a1e2ff4d519d4bef085a6629"}, {"bike_id": "ef97ddbbaf73fd721e84ce00a9258062", "lat": 38.905732666666665, "is_disabled": 0, "lon": -77.00787966666667, "fusion_lon": 0.0, "is_reserved": 0, "fusion_lat": 0.0, "rental_uris": {"android": "https://dc.lft.to/lastmile_qr_scan", "ios": "https://dc.lft.to/lastmile_qr_scan"}, "type": "electric_scooter", "name": "ef97ddbbaf73fd721e84ce00a9258062"}, {"bike_id": "e0e912015595b8bce8edf1881d1d3c6e", "lat": 38.895031333333336, "is_disabled": 0, "lon": -76.9347925, "fusion_lon": 0.0, "is_reserved": 0, "fusion_lat": 0.0, "rental_uris": {"android": "https://dc.lft.to/lastmile_qr_scan", "ios": "https://dc.lft.to/lastmile_qr_scan"}, "type": "electric_scooter", "name": "e0e912015595b8bce8edf1881d1d3c6e"}, {"bike_id": "957362854e3fb495f83f98db054f5fe3", "lat": 38.8970815, "is_disabled": 0, "lon": -77.030359, "fusion_lon": 0.0, "is_reserved": 0, "fusion_lat": 0.0, "rental_uris": {"android": "https://dc.lft.to/lastmile_qr_scan", "ios": "https://dc.lft.to/lastmile_qr_scan"}, "type": "electric_scooter", "name": "957362854e3fb495f83f98db054f5fe3"}, {"bike_id": "b241e2ee409b6f6d37f57fc6f8fc542d", "lat": 38.89234366666667, "is_disabled": 0, "lon": -77.0467815, "fusion_lon": 0.0, "is_reserved": 0, "fusion_lat": 0.0, "rental_uris": {"android": "https://dc.lft.to/lastmile_qr_scan", "ios": "https://dc.lft.to/lastmile_qr_scan"}, "type": "electric_scooter", "name": "b241e2ee409b6f6d37f57fc6f8fc542d"}, {"bike_id": "8b010072a26aae52cd97d50e901e9a7a", "lat": 38.88516533333333, "is_disabled": 0, "lon": -77.02801166666667, "fusion_lon": 0.0, "is_reserved": 0, "fusion_lat": 0.0, "rental_uris": {"android": "https://dc.lft.to/lastmile_qr_scan", "ios": "https://dc.lft.to/lastmile_qr_scan"}, "type": "electric_scooter", "name": "8b010072a26aae52cd97d50e901e9a7a"}, {"bike_id": "db17f68e5963cdccc8e2d03468cebffc", "lat": 38.9172025, "is_disabled": 0, "lon": -77.041725, "fusion_lon": 0.0, "is_reserved": 0, "fusion_lat": 0.0, "rental_uris": {"android": "https://dc.lft.to/lastmile_qr_scan", "ios": "https://dc.lft.to/lastmile_qr_scan"}, "type": "electric_scooter", "name": "db17f68e5963cdccc8e2d03468cebffc"}, {"bike_id": "db8f540837e3d133f671f947645101f4", "lat": 38.920748333333336, "is_disabled": 0, "lon": -76.99745966666667, "fusion_lon": 0.0, "is_reserved": 0, "fusion_lat": 0.0, "rental_uris": {"android": "https://dc.lft.to/lastmile_qr_scan", "ios": "https://dc.lft.to/lastmile_qr_scan"}, "type": "electric_scooter", "name": "db8f540837e3d133f671f947645101f4"}, {"bike_id": "5bf5c20aafa8be4aa096a9ed25980ee6", "lat": 38.90215, "is_disabled": 0, "lon": -77.04600083333334, "fusion_lon": 0.0, "is_reserved": 0, "fusion_lat": 0.0, "rental_uris": {"android": "https://dc.lft.to/lastmile_qr_scan", "ios": "https://dc.lft.to/lastmile_qr_scan"}, "type": "electric_scooter", "name": "5bf5c20aafa8be4aa096a9ed25980ee6"}, {"bike_id": "1e135b61b0499442f4dd5d7c2aff100c", "lat": 38.863296166666665, "is_disabled": 0, "lon": -76.98722833333333, "fusion_lon": 0.0, "is_reserved": 0, "fusion_lat": 0.0, "rental_uris": {"android": "https://dc.lft.to/lastmile_qr_scan", "ios": "https://dc.lft.to/lastmile_qr_scan"}, "type": "electric_bike", "name": "1e135b61b0499442f4dd5d7c2aff100c"}, {"bike_id": "3b236f26242ebb95429bd4ca816bf262", "lat": 38.92076816666667, "is_disabled": 0, "lon": -77.02498766666666, "fusion_lon": 0.0, "is_reserved": 0, "fusion_lat": 0.0, "rental_uris": {"android": "https://dc.lft.to/lastmile_qr_scan", "ios": "https://dc.lft.to/lastmile_qr_scan"}, "type": "electric_scooter", "name": "3b236f26242ebb95429bd4ca816bf262"}, {"bike_id": "a16b80a136aac82156e4574e66c8a591", "lat": 38.920895, "is_disabled": 0, "lon": -77.022239, "fusion_lon": 0.0, "is_reserved": 0, "fusion_lat": 0.0, "rental_uris": {"android": "https://dc.lft.to/lastmile_qr_scan", "ios": "https://dc.lft.to/lastmile_qr_scan"}, "type": "electric_scooter", "name": "a16b80a136aac82156e4574e66c8a591"}, {"bike_id": "9f183d0e4d13112366b7934ddc6e81fe", "lat": 38.91517483333333, "is_disabled": 0, "lon": -77.02279166666666, "fusion_lon": 0.0, "is_reserved": 0, "fusion_lat": 0.0, "rental_uris": {"android": "https://dc.lft.to/lastmile_qr_scan", "ios": "https://dc.lft.to/lastmile_qr_scan"}, "type": "electric_scooter", "name": "9f183d0e4d13112366b7934ddc6e81fe"}, {"bike_id": "3bfb349f7a8d166897b6898e55e6fbfb", "lat": 38.93845866666667, "is_disabled": 0, "lon": -77.0339295, "fusion_lon": 0.0, "is_reserved": 0, "fusion_lat": 0.0, "rental_uris": {"android": "https://dc.lft.to/lastmile_qr_scan", "ios": "https://dc.lft.to/lastmile_qr_scan"}, "type": "electric_scooter", "name": "3bfb349f7a8d166897b6898e55e6fbfb"}, {"bike_id": "f646eff694519c93b50b1b592e36b919", "lat": 38.927953, "is_disabled": 0, "lon": -77.02390533333333, "fusion_lon": 0.0, "is_reserved": 0, "fusion_lat": 0.0, "rental_uris": {"android": "https://dc.lft.to/lastmile_qr_scan", "ios": "https://dc.lft.to/lastmile_qr_scan"}, "type": "electric_scooter", "name": "f646eff694519c93b50b1b592e36b919"}, {"bike_id": "f65677cd17d7cadb20bf622373187979", "lat": 38.9078545, "is_disabled": 0, "lon": -77.04188183333333, "fusion_lon": 0.0, "is_reserved": 0, "fusion_lat": 0.0, "rental_uris": {"android": "https://dc.lft.to/lastmile_qr_scan", "ios": "https://dc.lft.to/lastmile_qr_scan"}, "type": "electric_scooter", "name": "f65677cd17d7cadb20bf622373187979"}, {"bike_id": "8366aa868020abcbdc3b6247cb4ac6b0", "lat": 38.915420166666664, "is_disabled": 0, "lon": -77.03853083333334, "fusion_lon": 0.0, "is_reserved": 0, "fusion_lat": 0.0, "rental_uris": {"android": "https://dc.lft.to/lastmile_qr_scan", "ios": "https://dc.lft.to/lastmile_qr_scan"}, "type": "electric_scooter", "name": "8366aa868020abcbdc3b6247cb4ac6b0"}, {"bike_id": "53704fba5a111fa731dffec188c27ee5", "lat": 38.90761416666667, "is_disabled": 0, "lon": -77.009166, "fusion_lon": 0.0, "is_reserved": 0, "fusion_lat": 0.0, "rental_uris": {"android": "https://dc.lft.to/lastmile_qr_scan", "ios": "https://dc.lft.to/lastmile_qr_scan"}, "type": "electric_scooter", "name": "53704fba5a111fa731dffec188c27ee5"}, {"bike_id": "533494e37f971bf67aeb69fa21a0e34c", "lat": 38.894254833333335, "is_disabled": 0, "lon": -77.13442483333333, "fusion_lon": 0.0, "is_reserved": 0, "fusion_lat": 0.0, "rental_uris": {"android": "https://dc.lft.to/lastmile_qr_scan", "ios": "https://dc.lft.to/lastmile_qr_scan"}, "type": "electric_bike", "name": "533494e37f971bf67aeb69fa21a0e34c"}, {"bike_id": "37bf55550b5513750a64eb1a49d68aea", "lat": 38.910502666666666, "is_disabled": 0, "lon": -77.04334566666667, "fusion_lon": 0.0, "is_reserved": 0, "fusion_lat": 0.0, "rental_uris": {"android": "https://dc.lft.to/lastmile_qr_scan", "ios": "https://dc.lft.to/lastmile_qr_scan"}, "type": "electric_scooter", "name": "37bf55550b5513750a64eb1a49d68aea"}, {"bike_id": "0c5fc034e5408d59834c9e9ac341ba84", "lat": 38.91905916666666, "is_disabled": 0, "lon": -77.03624583333334, "fusion_lon": 0.0, "is_reserved": 0, "fusion_lat": 0.0, "rental_uris": {"android": "https://dc.lft.to/lastmile_qr_scan", "ios": "https://dc.lft.to/lastmile_qr_scan"}, "type": "electric_scooter", "name": "0c5fc034e5408d59834c9e9ac341ba84"}, {"bike_id": "10d4e936d8ca91a005fb30aa21167dd0", "lat": 38.8999025, "is_disabled": 0, "lon": -77.052315, "fusion_lon": 0.0, "is_reserved": 0, "fusion_lat": 0.0, "rental_uris": {"android": "https://dc.lft.to/lastmile_qr_scan", "ios": "https://dc.lft.to/lastmile_qr_scan"}, "type": "electric_scooter", "name": "10d4e936d8ca91a005fb30aa21167dd0"}, {"bike_id": "2a91aa7b76a76459c5c912b5841162bc", "lat": 38.8712945, "is_disabled": 0, "lon": -76.9372765, "fusion_lon": 0.0, "is_reserved": 0, "fusion_lat": 0.0, "rental_uris": {"android": "https://dc.lft.to/lastmile_qr_scan", "ios": "https://dc.lft.to/lastmile_qr_scan"}, "type": "electric_bike", "name": "2a91aa7b76a76459c5c912b5841162bc"}, {"bike_id": "aba7fbd7d45549d18a3e1955a8a8d384", "lat": 38.95357766666667, "is_disabled": 0, "lon": -76.9984235, "fusion_lon": 0.0, "is_reserved": 0, "fusion_lat": 0.0, "rental_uris": {"android": "https://dc.lft.to/lastmile_qr_scan", "ios": "https://dc.lft.to/lastmile_qr_scan"}, "type": "electric_scooter", "name": "aba7fbd7d45549d18a3e1955a8a8d384"}, {"bike_id": "01c4897f0c7793843ee9a39c7c640ecc", "lat": 38.90415266666667, "is_disabled": 0, "lon": -77.03249416666667, "fusion_lon": 0.0, "is_reserved": 0, "fusion_lat": 0.0, "rental_uris": {"android": "https://dc.lft.to/lastmile_qr_scan", "ios": "https://dc.lft.to/lastmile_qr_scan"}, "type": "electric_scooter", "name": "01c4897f0c7793843ee9a39c7c640ecc"}, {"bike_id": "8d442a949802d31bf359e8a8d0692beb", "lat": 38.918897333333334, "is_disabled": 0, "lon": -77.038264, "fusion_lon": 0.0, "is_reserved": 0, "fusion_lat": 0.0, "rental_uris": {"android": "https://dc.lft.to/lastmile_qr_scan", "ios": "https://dc.lft.to/lastmile_qr_scan"}, "type": "electric_scooter", "name": "8d442a949802d31bf359e8a8d0692beb"}, {"bike_id": "e08b4e8906b113dbdfe063091169fee3", "lat": 38.9236055, "is_disabled": 0, "lon": -77.00344333333334, "fusion_lon": 0.0, "is_reserved": 0, "fusion_lat": 0.0, "rental_uris": {"android": "https://dc.lft.to/lastmile_qr_scan", "ios": "https://dc.lft.to/lastmile_qr_scan"}, "type": "electric_scooter", "name": "e08b4e8906b113dbdfe063091169fee3"}, {"bike_id": "3945068edf0d4fb746ecdb8357f991ac", "lat": 38.904213666666664, "is_disabled": 0, "lon": -77.04247333333333, "fusion_lon": 0.0, "is_reserved": 0, "fusion_lat": 0.0, "rental_uris": {"android": "https://dc.lft.to/lastmile_qr_scan", "ios": "https://dc.lft.to/lastmile_qr_scan"}, "type": "electric_scooter", "name": "3945068edf0d4fb746ecdb8357f991ac"}, {"bike_id": "64638c501401eabe4d984668dc271df1", "lat": 38.917017, "is_disabled": 0, "lon": -77.0230585, "fusion_lon": 0.0, "is_reserved": 0, "fusion_lat": 0.0, "rental_uris": {"android": "https://dc.lft.to/lastmile_qr_scan", "ios": "https://dc.lft.to/lastmile_qr_scan"}, "type": "electric_scooter", "name": "64638c501401eabe4d984668dc271df1"}, {"bike_id": "67ca1e3c56998333fd2416303afaa157", "lat": 38.9000615, "is_disabled": 0, "lon": -77.006723, "fusion_lon": 0.0, "is_reserved": 0, "fusion_lat": 0.0, "rental_uris": {"android": "https://dc.lft.to/lastmile_qr_scan", "ios": "https://dc.lft.to/lastmile_qr_scan"}, "type": "electric_scooter", "name": "67ca1e3c56998333fd2416303afaa157"}, {"bike_id": "c1c7ff30f53ee1024c0a95f0d909c55c", "lat": 38.90332683333333, "is_disabled": 0, "lon": -77.038311, "fusion_lon": 0.0, "is_reserved": 0, "fusion_lat": 0.0, "rental_uris": {"android": "https://dc.lft.to/lastmile_qr_scan", "ios": "https://dc.lft.to/lastmile_qr_scan"}, "type": "electric_scooter", "name": "c1c7ff30f53ee1024c0a95f0d909c55c"}, {"bike_id": "6c1723b33593f03bc7afea85f5fe1f4f", "lat": 38.9189455, "is_disabled": 0, "lon": -77.03820683333333, "fusion_lon": 0.0, "is_reserved": 0, "fusion_lat": 0.0, "rental_uris": {"android": "https://dc.lft.to/lastmile_qr_scan", "ios": "https://dc.lft.to/lastmile_qr_scan"}, "type": "electric_scooter", "name": "6c1723b33593f03bc7afea85f5fe1f4f"}, {"bike_id": "0bb455eb3162ff8810474451937f6c9f", "lat": 38.90909766666667, "is_disabled": 0, "lon": -77.072624, "fusion_lon": 0.0, "is_reserved": 0, "fusion_lat": 0.0, "rental_uris": {"android": "https://dc.lft.to/lastmile_qr_scan", "ios": "https://dc.lft.to/lastmile_qr_scan"}, "type": "electric_scooter", "name": "0bb455eb3162ff8810474451937f6c9f"}, {"bike_id": "5ac8459fad6d3fde6de62936f1ffe8f0", "lat": 38.92746833333333, "is_disabled": 0, "lon": -77.02533583333333, "fusion_lon": 0.0, "is_reserved": 0, "fusion_lat": 0.0, "rental_uris": {"android": "https://dc.lft.to/lastmile_qr_scan", "ios": "https://dc.lft.to/lastmile_qr_scan"}, "type": "electric_scooter", "name": "5ac8459fad6d3fde6de62936f1ffe8f0"}, {"bike_id": "2c80ed63a85892eee78097a5a1b149d5", "lat": 38.904067166666664, "is_disabled": 0, "lon": -76.97326583333333, "fusion_lon": 0.0, "is_reserved": 0, "fusion_lat": 0.0, "rental_uris": {"android": "https://dc.lft.to/lastmile_qr_scan", "ios": "https://dc.lft.to/lastmile_qr_scan"}, "type": "electric_scooter", "name": "2c80ed63a85892eee78097a5a1b149d5"}, {"bike_id": "adc6db292319529a5c0ce730a19d2999", "lat": 38.89841666666667, "is_disabled": 0, "lon": -77.03199983333333, "fusion_lon": 0.0, "is_reserved": 0, "fusion_lat": 0.0, "rental_uris": {"android": "https://dc.lft.to/lastmile_qr_scan", "ios": "https://dc.lft.to/lastmile_qr_scan"}, "type": "electric_scooter", "name": "adc6db292319529a5c0ce730a19d2999"}, {"bike_id": "9640474d6b2704e2d2dde7fe78682c75", "lat": 38.899916166666664, "is_disabled": 0, "lon": -77.02455933333333, "fusion_lon": 0.0, "is_reserved": 0, "fusion_lat": 0.0, "rental_uris": {"android": "https://dc.lft.to/lastmile_qr_scan", "ios": "https://dc.lft.to/lastmile_qr_scan"}, "type": "electric_scooter", "name": "9640474d6b2704e2d2dde7fe78682c75"}, {"bike_id": "137405f14e499156d2c313f24988e7a5", "lat": 38.90450833333333, "is_disabled": 0, "lon": -77.03454983333333, "fusion_lon": 0.0, "is_reserved": 0, "fusion_lat": 0.0, "rental_uris": {"android": "https://dc.lft.to/lastmile_qr_scan", "ios": "https://dc.lft.to/lastmile_qr_scan"}, "type": "electric_scooter", "name": "137405f14e499156d2c313f24988e7a5"}, {"bike_id": "5c20dd84268eebf8c11f3da95fda7388", "lat": 38.901205, "is_disabled": 0, "lon": -77.044181, "fusion_lon": 0.0, "is_reserved": 0, "fusion_lat": 0.0, "rental_uris": {"android": "https://dc.lft.to/lastmile_qr_scan", "ios": "https://dc.lft.to/lastmile_qr_scan"}, "type": "electric_scooter", "name": "5c20dd84268eebf8c11f3da95fda7388"}, {"bike_id": "e74436fac07c2bf6b22e9fef03c9774b", "lat": 38.883463666666664, "is_disabled": 0, "lon": -76.935068, "fusion_lon": 0.0, "is_reserved": 0, "fusion_lat": 0.0, "rental_uris": {"android": "https://dc.lft.to/lastmile_qr_scan", "ios": "https://dc.lft.to/lastmile_qr_scan"}, "type": "electric_scooter", "name": "e74436fac07c2bf6b22e9fef03c9774b"}, {"bike_id": "8fff16384cfc60bbd6ab80d9e2b6c376", "lat": 38.92044083333333, "is_disabled": 0, "lon": -77.01667966666666, "fusion_lon": 0.0, "is_reserved": 0, "fusion_lat": 0.0, "rental_uris": {"android": "https://dc.lft.to/lastmile_qr_scan", "ios": "https://dc.lft.to/lastmile_qr_scan"}, "type": "electric_scooter", "name": "8fff16384cfc60bbd6ab80d9e2b6c376"}, {"bike_id": "d2e6566fa3b2ba9210adb9be92f985eb", "lat": 38.91977883333333, "is_disabled": 0, "lon": -77.02180366666667, "fusion_lon": 0.0, "is_reserved": 0, "fusion_lat": 0.0, "rental_uris": {"android": "https://dc.lft.to/lastmile_qr_scan", "ios": "https://dc.lft.to/lastmile_qr_scan"}, "type": "electric_scooter", "name": "d2e6566fa3b2ba9210adb9be92f985eb"}, {"bike_id": "d6080d22651b30a7e2926ca4f219fa67", "lat": 38.92019466666667, "is_disabled": 0, "lon": -77.041788, "fusion_lon": 0.0, "is_reserved": 0, "fusion_lat": 0.0, "rental_uris": {"android": "https://dc.lft.to/lastmile_qr_scan", "ios": "https://dc.lft.to/lastmile_qr_scan"}, "type": "electric_scooter", "name": "d6080d22651b30a7e2926ca4f219fa67"}, {"bike_id": "67206aab61c22790c2708ce1f5ec1c4f", "lat": 38.94331416666667, "is_disabled": 0, "lon": -77.01479083333334, "fusion_lon": 0.0, "is_reserved": 0, "fusion_lat": 0.0, "rental_uris": {"android": "https://dc.lft.to/lastmile_qr_scan", "ios": "https://dc.lft.to/lastmile_qr_scan"}, "type": "electric_scooter", "name": "67206aab61c22790c2708ce1f5ec1c4f"}, {"bike_id": "489d5c0079af229ba75c66a6c075aca0", "lat": 38.862663833333336, "is_disabled": 0, "lon": -76.995722, "fusion_lon": 0.0, "is_reserved": 0, "fusion_lat": 0.0, "rental_uris": {"android": "https://dc.lft.to/lastmile_qr_scan", "ios": "https://dc.lft.to/lastmile_qr_scan"}, "type": "electric_scooter", "name": "489d5c0079af229ba75c66a6c075aca0"}, {"bike_id": "eb0a80b88ae45e74cff2e320ad1fa642", "lat": 38.9210215, "is_disabled": 0, "lon": -77.017788, "fusion_lon": 0.0, "is_reserved": 0, "fusion_lat": 0.0, "rental_uris": {"android": "https://dc.lft.to/lastmile_qr_scan", "ios": "https://dc.lft.to/lastmile_qr_scan"}, "type": "electric_scooter", "name": "eb0a80b88ae45e74cff2e320ad1fa642"}, {"bike_id": "57fa12f37087657801f4fc3e01f05926", "lat": 38.895026666666666, "is_disabled": 0, "lon": -77.02819333333333, "fusion_lon": 0.0, "is_reserved": 0, "fusion_lat": 0.0, "rental_uris": {"android": "https://dc.lft.to/lastmile_qr_scan", "ios": "https://dc.lft.to/lastmile_qr_scan"}, "type": "electric_scooter", "name": "57fa12f37087657801f4fc3e01f05926"}, {"bike_id": "f1f46398a17ff2fd6379d583b7f30353", "lat": 38.87711733333333, "is_disabled": 0, "lon": -77.01755416666667, "fusion_lon": 0.0, "is_reserved": 0, "fusion_lat": 0.0, "rental_uris": {"android": "https://dc.lft.to/lastmile_qr_scan", "ios": "https://dc.lft.to/lastmile_qr_scan"}, "type": "electric_scooter", "name": "f1f46398a17ff2fd6379d583b7f30353"}, {"bike_id": "2e5e448dc26980f06672abc06781d5b8", "lat": 38.9030045, "is_disabled": 0, "lon": -77.05240583333334, "fusion_lon": 0.0, "is_reserved": 0, "fusion_lat": 0.0, "rental_uris": {"android": "https://dc.lft.to/lastmile_qr_scan", "ios": "https://dc.lft.to/lastmile_qr_scan"}, "type": "electric_scooter", "name": "2e5e448dc26980f06672abc06781d5b8"}, {"bike_id": "4cd33bdc1a7f4cc44a88a6a977113fb1", "lat": 38.90378616666667, "is_disabled": 0, "lon": -77.06686833333333, "fusion_lon": 0.0, "is_reserved": 0, "fusion_lat": 0.0, "rental_uris": {"android": "https://dc.lft.to/lastmile_qr_scan", "ios": "https://dc.lft.to/lastmile_qr_scan"}, "type": "electric_scooter", "name": "4cd33bdc1a7f4cc44a88a6a977113fb1"}, {"bike_id": "ba246be5d5f1ac1d691e5807159898ab", "lat": 38.924709666666665, "is_disabled": 0, "lon": -77.0306005, "fusion_lon": 0.0, "is_reserved": 0, "fusion_lat": 0.0, "rental_uris": {"android": "https://dc.lft.to/lastmile_qr_scan", "ios": "https://dc.lft.to/lastmile_qr_scan"}, "type": "electric_scooter", "name": "ba246be5d5f1ac1d691e5807159898ab"}, {"bike_id": "6e4bc758f5ad7dcaddc0bb212a573307", "lat": 38.862191833333334, "is_disabled": 0, "lon": -76.9949225, "fusion_lon": 0.0, "is_reserved": 0, "fusion_lat": 0.0, "rental_uris": {"android": "https://dc.lft.to/lastmile_qr_scan", "ios": "https://dc.lft.to/lastmile_qr_scan"}, "type": "electric_scooter", "name": "6e4bc758f5ad7dcaddc0bb212a573307"}, {"bike_id": "141481e1de645853d92cf9dab5545f0c", "lat": 38.900154666666666, "is_disabled": 0, "lon": -76.98894533333333, "fusion_lon": 0.0, "is_reserved": 0, "fusion_lat": 0.0, "rental_uris": {"android": "https://dc.lft.to/lastmile_qr_scan", "ios": "https://dc.lft.to/lastmile_qr_scan"}, "type": "electric_scooter", "name": "141481e1de645853d92cf9dab5545f0c"}, {"bike_id": "7f99d65403ade175181ee1b0c5cdc681", "lat": 38.87648333333333, "is_disabled": 0, "lon": -77.003274, "fusion_lon": 0.0, "is_reserved": 0, "fusion_lat": 0.0, "rental_uris": {"android": "https://dc.lft.to/lastmile_qr_scan", "ios": "https://dc.lft.to/lastmile_qr_scan"}, "type": "electric_scooter", "name": "7f99d65403ade175181ee1b0c5cdc681"}, {"bike_id": "f8e62373bd31bb3557d00efd5d24a5b3", "lat": 38.90244966666667, "is_disabled": 0, "lon": -77.034646, "fusion_lon": 0.0, "is_reserved": 0, "fusion_lat": 0.0, "rental_uris": {"android": "https://dc.lft.to/lastmile_qr_scan", "ios": "https://dc.lft.to/lastmile_qr_scan"}, "type": "electric_scooter", "name": "f8e62373bd31bb3557d00efd5d24a5b3"}, {"bike_id": "8753ae53e82cf0ed0d17b583e1122fd6", "lat": 38.914163, "is_disabled": 0, "lon": -77.04148733333334, "fusion_lon": 0.0, "is_reserved": 0, "fusion_lat": 0.0, "rental_uris": {"android": "https://dc.lft.to/lastmile_qr_scan", "ios": "https://dc.lft.to/lastmile_qr_scan"}, "type": "electric_scooter", "name": "8753ae53e82cf0ed0d17b583e1122fd6"}, {"bike_id": "8e6fa85e6d2dd9ac2e0b7ea3dbf9a33f", "lat": 38.887336166666664, "is_disabled": 0, "lon": -77.01523883333333, "fusion_lon": 0.0, "is_reserved": 0, "fusion_lat": 0.0, "rental_uris": {"android": "https://dc.lft.to/lastmile_qr_scan", "ios": "https://dc.lft.to/lastmile_qr_scan"}, "type": "electric_scooter", "name": "8e6fa85e6d2dd9ac2e0b7ea3dbf9a33f"}, {"bike_id": "7d9ace05a3e6292447806d6be8f9436f", "lat": 38.89910116666667, "is_disabled": 0, "lon": -76.93385016666667, "fusion_lon": 0.0, "is_reserved": 0, "fusion_lat": 0.0, "rental_uris": {"android": "https://dc.lft.to/lastmile_qr_scan", "ios": "https://dc.lft.to/lastmile_qr_scan"}, "type": "electric_scooter", "name": "7d9ace05a3e6292447806d6be8f9436f"}, {"bike_id": "d74814ffe677af481b659c0b510703f7", "lat": 38.8956305, "is_disabled": 0, "lon": -77.12742816666666, "fusion_lon": 0.0, "is_reserved": 0, "fusion_lat": 0.0, "rental_uris": {"android": "https://dc.lft.to/lastmile_qr_scan", "ios": "https://dc.lft.to/lastmile_qr_scan"}, "type": "electric_bike", "name": "d74814ffe677af481b659c0b510703f7"}, {"bike_id": "c669c6d801aa4359738bc9f91b47bd99", "lat": 38.91947416666667, "is_disabled": 0, "lon": -77.01793416666666, "fusion_lon": 0.0, "is_reserved": 0, "fusion_lat": 0.0, "rental_uris": {"android": "https://dc.lft.to/lastmile_qr_scan", "ios": "https://dc.lft.to/lastmile_qr_scan"}, "type": "electric_scooter", "name": "c669c6d801aa4359738bc9f91b47bd99"}, {"bike_id": "18e22a1786b6e6cdaa2461d979ff4b72", "lat": 38.90247016666667, "is_disabled": 0, "lon": -77.02828466666666, "fusion_lon": 0.0, "is_reserved": 0, "fusion_lat": 0.0, "rental_uris": {"android": "https://dc.lft.to/lastmile_qr_scan", "ios": "https://dc.lft.to/lastmile_qr_scan"}, "type": "electric_scooter", "name": "18e22a1786b6e6cdaa2461d979ff4b72"}, {"bike_id": "93dda66666ea7896644cf0b4c1041a1f", "lat": 38.913403333333335, "is_disabled": 0, "lon": -77.04868566666667, "fusion_lon": 0.0, "is_reserved": 0, "fusion_lat": 0.0, "rental_uris": {"android": "https://dc.lft.to/lastmile_qr_scan", "ios": "https://dc.lft.to/lastmile_qr_scan"}, "type": "electric_scooter", "name": "93dda66666ea7896644cf0b4c1041a1f"}, {"bike_id": "904b20bcd17dc0702bc82009c8360e85", "lat": 38.91959533333333, "is_disabled": 0, "lon": -77.0181525, "fusion_lon": 0.0, "is_reserved": 0, "fusion_lat": 0.0, "rental_uris": {"android": "https://dc.lft.to/lastmile_qr_scan", "ios": "https://dc.lft.to/lastmile_qr_scan"}, "type": "electric_scooter", "name": "904b20bcd17dc0702bc82009c8360e85"}, {"bike_id": "e2bfab671d7c53e49ab0ce8334a2f96d", "lat": 38.934690833333335, "is_disabled": 0, "lon": -77.0411185, "fusion_lon": 0.0, "is_reserved": 0, "fusion_lat": 0.0, "rental_uris": {"android": "https://dc.lft.to/lastmile_qr_scan", "ios": "https://dc.lft.to/lastmile_qr_scan"}, "type": "electric_scooter", "name": "e2bfab671d7c53e49ab0ce8334a2f96d"}, {"bike_id": "f66253270c9f3bee676fa4a8cdb616a6", "lat": 38.863313833333336, "is_disabled": 0, "lon": -76.98723150000001, "fusion_lon": 0.0, "is_reserved": 0, "fusion_lat": 0.0, "rental_uris": {"android": "https://dc.lft.to/lastmile_qr_scan", "ios": "https://dc.lft.to/lastmile_qr_scan"}, "type": "electric_bike", "name": "f66253270c9f3bee676fa4a8cdb616a6"}, {"bike_id": "c4c74213d62b938a1766c903bb08b105", "lat": 38.8873505, "is_disabled": 0, "lon": -77.022074, "fusion_lon": 0.0, "is_reserved": 0, "fusion_lat": 0.0, "rental_uris": {"android": "https://dc.lft.to/lastmile_qr_scan", "ios": "https://dc.lft.to/lastmile_qr_scan"}, "type": "electric_scooter", "name": "c4c74213d62b938a1766c903bb08b105"}, {"bike_id": "d903126a270af68ef246ccd9f55dc8d3", "lat": 38.91329533333333, "is_disabled": 0, "lon": -77.04966383333333, "fusion_lon": 0.0, "is_reserved": 0, "fusion_lat": 0.0, "rental_uris": {"android": "https://dc.lft.to/lastmile_qr_scan", "ios": "https://dc.lft.to/lastmile_qr_scan"}, "type": "electric_scooter", "name": "d903126a270af68ef246ccd9f55dc8d3"}, {"bike_id": "01d2a97989ce7ea72d39b57047310672", "lat": 38.8410045, "is_disabled": 0, "lon": -77.08937383333334, "fusion_lon": 0.0, "is_reserved": 0, "fusion_lat": 0.0, "rental_uris": {"android": "https://dc.lft.to/lastmile_qr_scan", "ios": "https://dc.lft.to/lastmile_qr_scan"}, "type": "electric_bike", "name": "01d2a97989ce7ea72d39b57047310672"}, {"bike_id": "05904520a44c85f423ef5853e891bff5", "lat": 38.91678133333333, "is_disabled": 0, "lon": -76.98031266666666, "fusion_lon": 0.0, "is_reserved": 0, "fusion_lat": 0.0, "rental_uris": {"android": "https://dc.lft.to/lastmile_qr_scan", "ios": "https://dc.lft.to/lastmile_qr_scan"}, "type": "electric_scooter", "name": "05904520a44c85f423ef5853e891bff5"}, {"bike_id": "c7219a42842b132af72e20de34754fe1", "lat": 38.9345545, "is_disabled": 0, "lon": -77.03241716666666, "fusion_lon": 0.0, "is_reserved": 0, "fusion_lat": 0.0, "rental_uris": {"android": "https://dc.lft.to/lastmile_qr_scan", "ios": "https://dc.lft.to/lastmile_qr_scan"}, "type": "electric_scooter", "name": "c7219a42842b132af72e20de34754fe1"}, {"bike_id": "78a8f9a936d2e2f463b19012090a7f7c", "lat": 38.857805166666665, "is_disabled": 0, "lon": -76.97324333333333, "fusion_lon": 0.0, "is_reserved": 0, "fusion_lat": 0.0, "rental_uris": {"android": "https://dc.lft.to/lastmile_qr_scan", "ios": "https://dc.lft.to/lastmile_qr_scan"}, "type": "electric_bike", "name": "78a8f9a936d2e2f463b19012090a7f7c"}, {"bike_id": "a3107e0ffcedba93a73c7972a5848e1c", "lat": 38.909012, "is_disabled": 0, "lon": -77.04896366666667, "fusion_lon": 0.0, "is_reserved": 0, "fusion_lat": 0.0, "rental_uris": {"android": "https://dc.lft.to/lastmile_qr_scan", "ios": "https://dc.lft.to/lastmile_qr_scan"}, "type": "electric_scooter", "name": "a3107e0ffcedba93a73c7972a5848e1c"}, {"bike_id": "b203ca2eb4b9de0e1cb4fd6ff93a06be", "lat": 38.927423, "is_disabled": 0, "lon": -77.0253195, "fusion_lon": 0.0, "is_reserved": 0, "fusion_lat": 0.0, "rental_uris": {"android": "https://dc.lft.to/lastmile_qr_scan", "ios": "https://dc.lft.to/lastmile_qr_scan"}, "type": "electric_scooter", "name": "b203ca2eb4b9de0e1cb4fd6ff93a06be"}, {"bike_id": "24dcc3169986ffb9cbc405ed6ccb209e", "lat": 38.90818733333333, "is_disabled": 0, "lon": -77.03916666666667, "fusion_lon": 0.0, "is_reserved": 0, "fusion_lat": 0.0, "rental_uris": {"android": "https://dc.lft.to/lastmile_qr_scan", "ios": "https://dc.lft.to/lastmile_qr_scan"}, "type": "electric_scooter", "name": "24dcc3169986ffb9cbc405ed6ccb209e"}, {"bike_id": "f6561fa9a2f20d50c22335fe332dff7d", "lat": 38.91609366666667, "is_disabled": 0, "lon": -77.03198383333333, "fusion_lon": 0.0, "is_reserved": 0, "fusion_lat": 0.0, "rental_uris": {"android": "https://dc.lft.to/lastmile_qr_scan", "ios": "https://dc.lft.to/lastmile_qr_scan"}, "type": "electric_scooter", "name": "f6561fa9a2f20d50c22335fe332dff7d"}, {"bike_id": "eda1dd2b9ad01b4d04a54694af084456", "lat": 38.9191085, "is_disabled": 0, "lon": -77.02136533333334, "fusion_lon": 0.0, "is_reserved": 0, "fusion_lat": 0.0, "rental_uris": {"android": "https://dc.lft.to/lastmile_qr_scan", "ios": "https://dc.lft.to/lastmile_qr_scan"}, "type": "electric_scooter", "name": "eda1dd2b9ad01b4d04a54694af084456"}, {"bike_id": "d535135b0920f2cc788c2113c22bf7c3", "lat": 38.934203333333336, "is_disabled": 0, "lon": -77.0442155, "fusion_lon": 0.0, "is_reserved": 0, "fusion_lat": 0.0, "rental_uris": {"android": "https://dc.lft.to/lastmile_qr_scan", "ios": "https://dc.lft.to/lastmile_qr_scan"}, "type": "electric_scooter", "name": "d535135b0920f2cc788c2113c22bf7c3"}, {"bike_id": "a264e1bb5b78dcc9aa10468eec16a182", "lat": 38.92162833333333, "is_disabled": 0, "lon": -77.0219625, "fusion_lon": 0.0, "is_reserved": 0, "fusion_lat": 0.0, "rental_uris": {"android": "https://dc.lft.to/lastmile_qr_scan", "ios": "https://dc.lft.to/lastmile_qr_scan"}, "type": "electric_scooter", "name": "a264e1bb5b78dcc9aa10468eec16a182"}, {"bike_id": "38bc8b56b9aaf8d7b1fb56cf3c11a0f1", "lat": 38.887041333333336, "is_disabled": 0, "lon": -77.028253, "fusion_lon": 0.0, "is_reserved": 0, "fusion_lat": 0.0, "rental_uris": {"android": "https://dc.lft.to/lastmile_qr_scan", "ios": "https://dc.lft.to/lastmile_qr_scan"}, "type": "electric_scooter", "name": "38bc8b56b9aaf8d7b1fb56cf3c11a0f1"}, {"bike_id": "8d33f87d88c2d05c1d26a227b9d30f01", "lat": 38.917969, "is_disabled": 0, "lon": -77.027093, "fusion_lon": 0.0, "is_reserved": 0, "fusion_lat": 0.0, "rental_uris": {"android": "https://dc.lft.to/lastmile_qr_scan", "ios": "https://dc.lft.to/lastmile_qr_scan"}, "type": "electric_scooter", "name": "8d33f87d88c2d05c1d26a227b9d30f01"}, {"bike_id": "9f8f34ef58af0c3ddaeab43a6317e27d", "lat": 38.916256, "is_disabled": 0, "lon": -77.036332, "fusion_lon": 0.0, "is_reserved": 0, "fusion_lat": 0.0, "rental_uris": {"android": "https://dc.lft.to/lastmile_qr_scan", "ios": "https://dc.lft.to/lastmile_qr_scan"}, "type": "electric_scooter", "name": "9f8f34ef58af0c3ddaeab43a6317e27d"}, {"bike_id": "e9d4dd71696b842d36ccade9fad0ace9", "lat": 38.903363, "is_disabled": 0, "lon": -77.03422666666667, "fusion_lon": 0.0, "is_reserved": 0, "fusion_lat": 0.0, "rental_uris": {"android": "https://dc.lft.to/lastmile_qr_scan", "ios": "https://dc.lft.to/lastmile_qr_scan"}, "type": "electric_scooter", "name": "e9d4dd71696b842d36ccade9fad0ace9"}, {"bike_id": "fa816fbf0a70de3b9addf4ed87de1790", "lat": 38.9483165, "is_disabled": 0, "lon": -77.02560966666667, "fusion_lon": 0.0, "is_reserved": 0, "fusion_lat": 0.0, "rental_uris": {"android": "https://dc.lft.to/lastmile_qr_scan", "ios": "https://dc.lft.to/lastmile_qr_scan"}, "type": "electric_scooter", "name": "fa816fbf0a70de3b9addf4ed87de1790"}, {"bike_id": "cc0ed822478781e1be999f55cc1cd869", "lat": 38.896337, "is_disabled": 0, "lon": -77.03204816666667, "fusion_lon": 0.0, "is_reserved": 0, "fusion_lat": 0.0, "rental_uris": {"android": "https://dc.lft.to/lastmile_qr_scan", "ios": "https://dc.lft.to/lastmile_qr_scan"}, "type": "electric_scooter", "name": "cc0ed822478781e1be999f55cc1cd869"}, {"bike_id": "771af2e3ef6bb3a5d0900f119b2972b5", "lat": 38.9071465, "is_disabled": 0, "lon": -77.04384066666667, "fusion_lon": 0.0, "is_reserved": 0, "fusion_lat": 0.0, "rental_uris": {"android": "https://dc.lft.to/lastmile_qr_scan", "ios": "https://dc.lft.to/lastmile_qr_scan"}, "type": "electric_scooter", "name": "771af2e3ef6bb3a5d0900f119b2972b5"}, {"bike_id": "2e6e1975f2e2d9950a191f18cecc61d0", "lat": 38.8944325, "is_disabled": 0, "lon": -76.980847, "fusion_lon": 0.0, "is_reserved": 0, "fusion_lat": 0.0, "rental_uris": {"android": "https://dc.lft.to/lastmile_qr_scan", "ios": "https://dc.lft.to/lastmile_qr_scan"}, "type": "electric_scooter", "name": "2e6e1975f2e2d9950a191f18cecc61d0"}, {"bike_id": "3e66d0a35275aa96deb78d4971c86509", "lat": 38.90426816666667, "is_disabled": 0, "lon": -77.02502733333333, "fusion_lon": 0.0, "is_reserved": 0, "fusion_lat": 0.0, "rental_uris": {"android": "https://dc.lft.to/lastmile_qr_scan", "ios": "https://dc.lft.to/lastmile_qr_scan"}, "type": "electric_scooter", "name": "3e66d0a35275aa96deb78d4971c86509"}, {"bike_id": "646409abec3607587c1bd58d38c167bd", "lat": 38.909594166666665, "is_disabled": 0, "lon": -77.04629416666667, "fusion_lon": 0.0, "is_reserved": 0, "fusion_lat": 0.0, "rental_uris": {"android": "https://dc.lft.to/lastmile_qr_scan", "ios": "https://dc.lft.to/lastmile_qr_scan"}, "type": "electric_scooter", "name": "646409abec3607587c1bd58d38c167bd"}, {"bike_id": "449d21a630ee248b17deee41cce14c18", "lat": 38.86653066666667, "is_disabled": 0, "lon": -76.9888585, "fusion_lon": 0.0, "is_reserved": 0, "fusion_lat": 0.0, "rental_uris": {"android": "https://dc.lft.to/lastmile_qr_scan", "ios": "https://dc.lft.to/lastmile_qr_scan"}, "type": "electric_scooter", "name": "449d21a630ee248b17deee41cce14c18"}, {"bike_id": "b2386b2a1a209295512b57bdfb0d669f", "lat": 38.91807083333333, "is_disabled": 0, "lon": -77.03441533333333, "fusion_lon": 0.0, "is_reserved": 0, "fusion_lat": 0.0, "rental_uris": {"android": "https://dc.lft.to/lastmile_qr_scan", "ios": "https://dc.lft.to/lastmile_qr_scan"}, "type": "electric_scooter", "name": "b2386b2a1a209295512b57bdfb0d669f"}, {"bike_id": "91b244bd61e5f8b7e1ef8df54066ed99", "lat": 38.89220783333333, "is_disabled": 0, "lon": -77.027738, "fusion_lon": 0.0, "is_reserved": 0, "fusion_lat": 0.0, "rental_uris": {"android": "https://dc.lft.to/lastmile_qr_scan", "ios": "https://dc.lft.to/lastmile_qr_scan"}, "type": "electric_scooter", "name": "91b244bd61e5f8b7e1ef8df54066ed99"}, {"bike_id": "e0fcf908b59c4fefba485ac22f01bfdc", "lat": 38.88732516666666, "is_disabled": 0, "lon": -77.02199216666666, "fusion_lon": 0.0, "is_reserved": 0, "fusion_lat": 0.0, "rental_uris": {"android": "https://dc.lft.to/lastmile_qr_scan", "ios": "https://dc.lft.to/lastmile_qr_scan"}, "type": "electric_scooter", "name": "e0fcf908b59c4fefba485ac22f01bfdc"}, {"bike_id": "d6b5dd426f41714f67f897a2d7141925", "lat": 38.92281116666667, "is_disabled": 0, "lon": -77.03207716666667, "fusion_lon": 0.0, "is_reserved": 0, "fusion_lat": 0.0, "rental_uris": {"android": "https://dc.lft.to/lastmile_qr_scan", "ios": "https://dc.lft.to/lastmile_qr_scan"}, "type": "electric_scooter", "name": "d6b5dd426f41714f67f897a2d7141925"}, {"bike_id": "9d0c14858a3bfbfe2b7644869456086d", "lat": 38.90597783333333, "is_disabled": 0, "lon": -77.03311466666666, "fusion_lon": 0.0, "is_reserved": 0, "fusion_lat": 0.0, "rental_uris": {"android": "https://dc.lft.to/lastmile_qr_scan", "ios": "https://dc.lft.to/lastmile_qr_scan"}, "type": "electric_scooter", "name": "9d0c14858a3bfbfe2b7644869456086d"}, {"bike_id": "b87e37dd98194bd1dc6c669ef9df8322", "lat": 38.92482616666667, "is_disabled": 0, "lon": -77.03938, "fusion_lon": 0.0, "is_reserved": 0, "fusion_lat": 0.0, "rental_uris": {"android": "https://dc.lft.to/lastmile_qr_scan", "ios": "https://dc.lft.to/lastmile_qr_scan"}, "type": "electric_scooter", "name": "b87e37dd98194bd1dc6c669ef9df8322"}, {"bike_id": "2bc011840e102b353692b25746c5394a", "lat": 38.87726766666667, "is_disabled": 0, "lon": -77.00679266666667, "fusion_lon": 0.0, "is_reserved": 0, "fusion_lat": 0.0, "rental_uris": {"android": "https://dc.lft.to/lastmile_qr_scan", "ios": "https://dc.lft.to/lastmile_qr_scan"}, "type": "electric_scooter", "name": "2bc011840e102b353692b25746c5394a"}, {"bike_id": "ab0fd0765cf08c85772662429f7b1939", "lat": 38.90228233333333, "is_disabled": 0, "lon": -77.03760716666666, "fusion_lon": 0.0, "is_reserved": 0, "fusion_lat": 0.0, "rental_uris": {"android": "https://dc.lft.to/lastmile_qr_scan", "ios": "https://dc.lft.to/lastmile_qr_scan"}, "type": "electric_scooter", "name": "ab0fd0765cf08c85772662429f7b1939"}, {"bike_id": "32ef8b72f287979fe80f4f6cc13dc605", "lat": 38.90254016666667, "is_disabled": 0, "lon": -77.04342816666667, "fusion_lon": 0.0, "is_reserved": 0, "fusion_lat": 0.0, "rental_uris": {"android": "https://dc.lft.to/lastmile_qr_scan", "ios": "https://dc.lft.to/lastmile_qr_scan"}, "type": "electric_scooter", "name": "32ef8b72f287979fe80f4f6cc13dc605"}, {"bike_id": "e269978aa8a4ceeaccac9958207c8e6a", "lat": 38.89844516666667, "is_disabled": 0, "lon": -77.02381266666667, "fusion_lon": 0.0, "is_reserved": 0, "fusion_lat": 0.0, "rental_uris": {"android": "https://dc.lft.to/lastmile_qr_scan", "ios": "https://dc.lft.to/lastmile_qr_scan"}, "type": "electric_scooter", "name": "e269978aa8a4ceeaccac9958207c8e6a"}, {"bike_id": "9d89aade596a2874a426ba89ccb70180", "lat": 38.892179666666664, "is_disabled": 0, "lon": -77.0451145, "fusion_lon": 0.0, "is_reserved": 0, "fusion_lat": 0.0, "rental_uris": {"android": "https://dc.lft.to/lastmile_qr_scan", "ios": "https://dc.lft.to/lastmile_qr_scan"}, "type": "electric_scooter", "name": "9d89aade596a2874a426ba89ccb70180"}, {"bike_id": "c8611e7213016730cc32a8e1fd558b9e", "lat": 38.85759316666667, "is_disabled": 0, "lon": -76.98747066666667, "fusion_lon": 0.0, "is_reserved": 0, "fusion_lat": 0.0, "rental_uris": {"android": "https://dc.lft.to/lastmile_qr_scan", "ios": "https://dc.lft.to/lastmile_qr_scan"}, "type": "electric_bike", "name": "c8611e7213016730cc32a8e1fd558b9e"}, {"bike_id": "4927287a1390f40b1d5e2381c027b8a4", "lat": 38.89954, "is_disabled": 0, "lon": -77.01620666666666, "fusion_lon": 0.0, "is_reserved": 0, "fusion_lat": 0.0, "rental_uris": {"android": "https://dc.lft.to/lastmile_qr_scan", "ios": "https://dc.lft.to/lastmile_qr_scan"}, "type": "electric_scooter", "name": "4927287a1390f40b1d5e2381c027b8a4"}, {"bike_id": "9f2e4550b5a1b67773293af6a6a92478", "lat": 38.80736366666667, "is_disabled": 0, "lon": -77.0972355, "fusion_lon": 0.0, "is_reserved": 0, "fusion_lat": 0.0, "rental_uris": {"android": "https://dc.lft.to/lastmile_qr_scan", "ios": "https://dc.lft.to/lastmile_qr_scan"}, "type": "electric_bike", "name": "9f2e4550b5a1b67773293af6a6a92478"}, {"bike_id": "226bd4ffce75d121fdb6ecea70192845", "lat": 38.8626, "is_disabled": 0, "lon": -76.9834895, "fusion_lon": 0.0, "is_reserved": 0, "fusion_lat": 0.0, "rental_uris": {"android": "https://dc.lft.to/lastmile_qr_scan", "ios": "https://dc.lft.to/lastmile_qr_scan"}, "type": "electric_bike", "name": "226bd4ffce75d121fdb6ecea70192845"}, {"bike_id": "f54e1bb9e7c963369d44a7c6dac217c8", "lat": 38.88178383333333, "is_disabled": 0, "lon": -77.02193033333333, "fusion_lon": 0.0, "is_reserved": 0, "fusion_lat": 0.0, "rental_uris": {"android": "https://dc.lft.to/lastmile_qr_scan", "ios": "https://dc.lft.to/lastmile_qr_scan"}, "type": "electric_scooter", "name": "f54e1bb9e7c963369d44a7c6dac217c8"}, {"bike_id": "049e046a317c9af9c2a98c9d10394810", "lat": 38.9160615, "is_disabled": 0, "lon": -77.04877316666666, "fusion_lon": 0.0, "is_reserved": 0, "fusion_lat": 0.0, "rental_uris": {"android": "https://dc.lft.to/lastmile_qr_scan", "ios": "https://dc.lft.to/lastmile_qr_scan"}, "type": "electric_scooter", "name": "049e046a317c9af9c2a98c9d10394810"}, {"bike_id": "f63fc6bcb839340a39766d97c7ad6d13", "lat": 38.933041333333335, "is_disabled": 0, "lon": -77.03265216666667, "fusion_lon": 0.0, "is_reserved": 0, "fusion_lat": 0.0, "rental_uris": {"android": "https://dc.lft.to/lastmile_qr_scan", "ios": "https://dc.lft.to/lastmile_qr_scan"}, "type": "electric_scooter", "name": "f63fc6bcb839340a39766d97c7ad6d13"}, {"bike_id": "c9bef8f40b5f3ff0deb5e6797a167af5", "lat": 38.921650166666666, "is_disabled": 0, "lon": -77.04132666666666, "fusion_lon": 0.0, "is_reserved": 0, "fusion_lat": 0.0, "rental_uris": {"android": "https://dc.lft.to/lastmile_qr_scan", "ios": "https://dc.lft.to/lastmile_qr_scan"}, "type": "electric_scooter", "name": "c9bef8f40b5f3ff0deb5e6797a167af5"}, {"bike_id": "2359f0e74062d57dde1b2ff154847089", "lat": 38.915824666666666, "is_disabled": 0, "lon": -77.00759733333334, "fusion_lon": 0.0, "is_reserved": 0, "fusion_lat": 0.0, "rental_uris": {"android": "https://dc.lft.to/lastmile_qr_scan", "ios": "https://dc.lft.to/lastmile_qr_scan"}, "type": "electric_scooter", "name": "2359f0e74062d57dde1b2ff154847089"}, {"bike_id": "d28c3a635e4a97cc9eff39f9dbdc45f7", "lat": 38.89265533333333, "is_disabled": 0, "lon": -77.04204933333334, "fusion_lon": 0.0, "is_reserved": 0, "fusion_lat": 0.0, "rental_uris": {"android": "https://dc.lft.to/lastmile_qr_scan", "ios": "https://dc.lft.to/lastmile_qr_scan"}, "type": "electric_scooter", "name": "d28c3a635e4a97cc9eff39f9dbdc45f7"}, {"bike_id": "594f162fac8c90a75ef50f87b73c447f", "lat": 38.93848966666667, "is_disabled": 0, "lon": -77.03388983333333, "fusion_lon": 0.0, "is_reserved": 0, "fusion_lat": 0.0, "rental_uris": {"android": "https://dc.lft.to/lastmile_qr_scan", "ios": "https://dc.lft.to/lastmile_qr_scan"}, "type": "electric_scooter", "name": "594f162fac8c90a75ef50f87b73c447f"}, {"bike_id": "d564162894e1db62cdefe797ff7130f8", "lat": 38.900293833333336, "is_disabled": 0, "lon": -76.99645433333333, "fusion_lon": 0.0, "is_reserved": 0, "fusion_lat": 0.0, "rental_uris": {"android": "https://dc.lft.to/lastmile_qr_scan", "ios": "https://dc.lft.to/lastmile_qr_scan"}, "type": "electric_scooter", "name": "d564162894e1db62cdefe797ff7130f8"}, {"bike_id": "9cb9f5f83000a606799407be992e1fec", "lat": 38.9196065, "is_disabled": 0, "lon": -77.04857066666666, "fusion_lon": 0.0, "is_reserved": 0, "fusion_lat": 0.0, "rental_uris": {"android": "https://dc.lft.to/lastmile_qr_scan", "ios": "https://dc.lft.to/lastmile_qr_scan"}, "type": "electric_scooter", "name": "9cb9f5f83000a606799407be992e1fec"}, {"bike_id": "ed956abdbf8db2c6f9f93e2407929088", "lat": 38.89757566666667, "is_disabled": 0, "lon": -76.925865, "fusion_lon": 0.0, "is_reserved": 0, "fusion_lat": 0.0, "rental_uris": {"android": "https://dc.lft.to/lastmile_qr_scan", "ios": "https://dc.lft.to/lastmile_qr_scan"}, "type": "electric_scooter", "name": "ed956abdbf8db2c6f9f93e2407929088"}, {"bike_id": "e580d700cb4b1d60834e4fec3fc17c88", "lat": 38.892214333333335, "is_disabled": 0, "lon": -77.03123216666667, "fusion_lon": 0.0, "is_reserved": 0, "fusion_lat": 0.0, "rental_uris": {"android": "https://dc.lft.to/lastmile_qr_scan", "ios": "https://dc.lft.to/lastmile_qr_scan"}, "type": "electric_scooter", "name": "e580d700cb4b1d60834e4fec3fc17c88"}, {"bike_id": "bec8037914b3677cfed39097693fefd5", "lat": 38.91781, "is_disabled": 0, "lon": -77.04274666666667, "fusion_lon": 0.0, "is_reserved": 0, "fusion_lat": 0.0, "rental_uris": {"android": "https://dc.lft.to/lastmile_qr_scan", "ios": "https://dc.lft.to/lastmile_qr_scan"}, "type": "electric_scooter", "name": "bec8037914b3677cfed39097693fefd5"}, {"bike_id": "662e6d9dbc4d683afbc136fea3b9a1cc", "lat": 38.937098666666664, "is_disabled": 0, "lon": -77.02431983333334, "fusion_lon": 0.0, "is_reserved": 0, "fusion_lat": 0.0, "rental_uris": {"android": "https://dc.lft.to/lastmile_qr_scan", "ios": "https://dc.lft.to/lastmile_qr_scan"}, "type": "electric_scooter", "name": "662e6d9dbc4d683afbc136fea3b9a1cc"}, {"bike_id": "5d6840d4b9e1f03c8a03d489f9d8220f", "lat": 38.894086333333334, "is_disabled": 0, "lon": -77.02205183333334, "fusion_lon": 0.0, "is_reserved": 0, "fusion_lat": 0.0, "rental_uris": {"android": "https://dc.lft.to/lastmile_qr_scan", "ios": "https://dc.lft.to/lastmile_qr_scan"}, "type": "electric_scooter", "name": "5d6840d4b9e1f03c8a03d489f9d8220f"}, {"bike_id": "294b30b60ba4d7bbfde6e8aca4445184", "lat": 38.91700816666667, "is_disabled": 0, "lon": -77.02295183333334, "fusion_lon": 0.0, "is_reserved": 0, "fusion_lat": 0.0, "rental_uris": {"android": "https://dc.lft.to/lastmile_qr_scan", "ios": "https://dc.lft.to/lastmile_qr_scan"}, "type": "electric_scooter", "name": "294b30b60ba4d7bbfde6e8aca4445184"}, {"bike_id": "e8c0861be8eaf015adbb60b3d11a53cd", "lat": 38.907293, "is_disabled": 0, "lon": -77.00225416666666, "fusion_lon": 0.0, "is_reserved": 0, "fusion_lat": 0.0, "rental_uris": {"android": "https://dc.lft.to/lastmile_qr_scan", "ios": "https://dc.lft.to/lastmile_qr_scan"}, "type": "electric_scooter", "name": "e8c0861be8eaf015adbb60b3d11a53cd"}, {"bike_id": "6c1e7af3f2d12fa4f29af5d442c73504", "lat": 38.908316, "is_disabled": 0, "lon": -77.03680933333334, "fusion_lon": 0.0, "is_reserved": 0, "fusion_lat": 0.0, "rental_uris": {"android": "https://dc.lft.to/lastmile_qr_scan", "ios": "https://dc.lft.to/lastmile_qr_scan"}, "type": "electric_scooter", "name": "6c1e7af3f2d12fa4f29af5d442c73504"}, {"bike_id": "636b5ec807db2f36cf0a46dcfe7c20a9", "lat": 38.87457, "is_disabled": 0, "lon": -77.00934866666667, "fusion_lon": 0.0, "is_reserved": 0, "fusion_lat": 0.0, "rental_uris": {"android": "https://dc.lft.to/lastmile_qr_scan", "ios": "https://dc.lft.to/lastmile_qr_scan"}, "type": "electric_scooter", "name": "636b5ec807db2f36cf0a46dcfe7c20a9"}, {"bike_id": "94c439b9449ed9717a26f47d7b955799", "lat": 38.902747166666664, "is_disabled": 0, "lon": -77.04520533333333, "fusion_lon": 0.0, "is_reserved": 0, "fusion_lat": 0.0, "rental_uris": {"android": "https://dc.lft.to/lastmile_qr_scan", "ios": "https://dc.lft.to/lastmile_qr_scan"}, "type": "electric_scooter", "name": "94c439b9449ed9717a26f47d7b955799"}, {"bike_id": "b6f14c2b266e5a136c8b704577b4785f", "lat": 38.9027525, "is_disabled": 0, "lon": -77.0385165, "fusion_lon": 0.0, "is_reserved": 0, "fusion_lat": 0.0, "rental_uris": {"android": "https://dc.lft.to/lastmile_qr_scan", "ios": "https://dc.lft.to/lastmile_qr_scan"}, "type": "electric_scooter", "name": "b6f14c2b266e5a136c8b704577b4785f"}, {"bike_id": "6c0028a690c7b966d3ea919652024e08", "lat": 38.9169135, "is_disabled": 0, "lon": -77.03510083333333, "fusion_lon": 0.0, "is_reserved": 0, "fusion_lat": 0.0, "rental_uris": {"android": "https://dc.lft.to/lastmile_qr_scan", "ios": "https://dc.lft.to/lastmile_qr_scan"}, "type": "electric_scooter", "name": "6c0028a690c7b966d3ea919652024e08"}, {"bike_id": "1a7e1f4bea2f1114e659cd73ca19aa72", "lat": 38.91398133333333, "is_disabled": 0, "lon": -77.06419333333334, "fusion_lon": 0.0, "is_reserved": 0, "fusion_lat": 0.0, "rental_uris": {"android": "https://dc.lft.to/lastmile_qr_scan", "ios": "https://dc.lft.to/lastmile_qr_scan"}, "type": "electric_scooter", "name": "1a7e1f4bea2f1114e659cd73ca19aa72"}, {"bike_id": "166a3bf28dcb396f3bf68c0a462af34c", "lat": 38.937153, "is_disabled": 0, "lon": -77.0244925, "fusion_lon": 0.0, "is_reserved": 0, "fusion_lat": 0.0, "rental_uris": {"android": "https://dc.lft.to/lastmile_qr_scan", "ios": "https://dc.lft.to/lastmile_qr_scan"}, "type": "electric_scooter", "name": "166a3bf28dcb396f3bf68c0a462af34c"}, {"bike_id": "e266847387f85bffe659d04d8d7b0db8", "lat": 38.907503166666665, "is_disabled": 0, "lon": -77.03594233333334, "fusion_lon": 0.0, "is_reserved": 0, "fusion_lat": 0.0, "rental_uris": {"android": "https://dc.lft.to/lastmile_qr_scan", "ios": "https://dc.lft.to/lastmile_qr_scan"}, "type": "electric_scooter", "name": "e266847387f85bffe659d04d8d7b0db8"}, {"bike_id": "cf72f418df0c7bff76518e4544f8b0e7", "lat": 38.91560583333333, "is_disabled": 0, "lon": -77.0205595, "fusion_lon": 0.0, "is_reserved": 0, "fusion_lat": 0.0, "rental_uris": {"android": "https://dc.lft.to/lastmile_qr_scan", "ios": "https://dc.lft.to/lastmile_qr_scan"}, "type": "electric_scooter", "name": "cf72f418df0c7bff76518e4544f8b0e7"}, {"bike_id": "f8150c14bee00c68f4a1d284247658de", "lat": 38.91564, "is_disabled": 0, "lon": -77.03250316666667, "fusion_lon": 0.0, "is_reserved": 0, "fusion_lat": 0.0, "rental_uris": {"android": "https://dc.lft.to/lastmile_qr_scan", "ios": "https://dc.lft.to/lastmile_qr_scan"}, "type": "electric_scooter", "name": "f8150c14bee00c68f4a1d284247658de"}, {"bike_id": "e9504c8bb7bf8c808968f8ba05030690", "lat": 38.905715, "is_disabled": 0, "lon": -77.01422933333333, "fusion_lon": 0.0, "is_reserved": 0, "fusion_lat": 0.0, "rental_uris": {"android": "https://dc.lft.to/lastmile_qr_scan", "ios": "https://dc.lft.to/lastmile_qr_scan"}, "type": "electric_bike", "name": "e9504c8bb7bf8c808968f8ba05030690"}, {"bike_id": "6d3b399df4e3d9f8b154fcca6d8dbda7", "lat": 38.932776833333335, "is_disabled": 0, "lon": -77.036995, "fusion_lon": 0.0, "is_reserved": 0, "fusion_lat": 0.0, "rental_uris": {"android": "https://dc.lft.to/lastmile_qr_scan", "ios": "https://dc.lft.to/lastmile_qr_scan"}, "type": "electric_scooter", "name": "6d3b399df4e3d9f8b154fcca6d8dbda7"}, {"bike_id": "8a7b473c4643d70cdd6eb0147d5a7569", "lat": 38.842675, "is_disabled": 0, "lon": -76.988125, "fusion_lon": 0.0, "is_reserved": 0, "fusion_lat": 0.0, "rental_uris": {"android": "https://dc.lft.to/lastmile_qr_scan", "ios": "https://dc.lft.to/lastmile_qr_scan"}, "type": "electric_bike", "name": "8a7b473c4643d70cdd6eb0147d5a7569"}, {"bike_id": "2863e2a0908060ddc5456c8fe6d1c9ee", "lat": 38.892152333333335, "is_disabled": 0, "lon": -77.023709, "fusion_lon": 0.0, "is_reserved": 0, "fusion_lat": 0.0, "rental_uris": {"android": "https://dc.lft.to/lastmile_qr_scan", "ios": "https://dc.lft.to/lastmile_qr_scan"}, "type": "electric_scooter", "name": "2863e2a0908060ddc5456c8fe6d1c9ee"}, {"bike_id": "5c7487505515c1a47870959b2878e977", "lat": 38.90277433333333, "is_disabled": 0, "lon": -77.03850933333334, "fusion_lon": 0.0, "is_reserved": 0, "fusion_lat": 0.0, "rental_uris": {"android": "https://dc.lft.to/lastmile_qr_scan", "ios": "https://dc.lft.to/lastmile_qr_scan"}, "type": "electric_scooter", "name": "5c7487505515c1a47870959b2878e977"}, {"bike_id": "b8b4fa77827f0ad1b2b8e9fb2533b4d8", "lat": 38.99587416666667, "is_disabled": 0, "lon": -77.00767583333334, "fusion_lon": 0.0, "is_reserved": 0, "fusion_lat": 0.0, "rental_uris": {"android": "https://dc.lft.to/lastmile_qr_scan", "ios": "https://dc.lft.to/lastmile_qr_scan"}, "type": "electric_bike", "name": "b8b4fa77827f0ad1b2b8e9fb2533b4d8"}, {"bike_id": "418e3b0cd2e15832f52c5200a2b33630", "lat": 38.930978, "is_disabled": 0, "lon": -77.0255165, "fusion_lon": 0.0, "is_reserved": 0, "fusion_lat": 0.0, "rental_uris": {"android": "https://dc.lft.to/lastmile_qr_scan", "ios": "https://dc.lft.to/lastmile_qr_scan"}, "type": "electric_scooter", "name": "418e3b0cd2e15832f52c5200a2b33630"}, {"bike_id": "d9045d25d7fdb107fc6854fa1f621049", "lat": 38.88727766666667, "is_disabled": 0, "lon": -77.0138645, "fusion_lon": 0.0, "is_reserved": 0, "fusion_lat": 0.0, "rental_uris": {"android": "https://dc.lft.to/lastmile_qr_scan", "ios": "https://dc.lft.to/lastmile_qr_scan"}, "type": "electric_scooter", "name": "d9045d25d7fdb107fc6854fa1f621049"}, {"bike_id": "9917344f86ed88e476c75249fd3499d0", "lat": 38.89847533333333, "is_disabled": 0, "lon": -77.05230816666666, "fusion_lon": 0.0, "is_reserved": 0, "fusion_lat": 0.0, "rental_uris": {"android": "https://dc.lft.to/lastmile_qr_scan", "ios": "https://dc.lft.to/lastmile_qr_scan"}, "type": "electric_scooter", "name": "9917344f86ed88e476c75249fd3499d0"}, {"bike_id": "052073cfb4d5d5c6df44c93838d26740", "lat": 38.90630683333333, "is_disabled": 0, "lon": -77.03433566666666, "fusion_lon": 0.0, "is_reserved": 0, "fusion_lat": 0.0, "rental_uris": {"android": "https://dc.lft.to/lastmile_qr_scan", "ios": "https://dc.lft.to/lastmile_qr_scan"}, "type": "electric_scooter", "name": "052073cfb4d5d5c6df44c93838d26740"}, {"bike_id": "54af5901bc6239509c41e78befb6e63c", "lat": 38.8876795, "is_disabled": 0, "lon": -77.02838333333334, "fusion_lon": 0.0, "is_reserved": 0, "fusion_lat": 0.0, "rental_uris": {"android": "https://dc.lft.to/lastmile_qr_scan", "ios": "https://dc.lft.to/lastmile_qr_scan"}, "type": "electric_scooter", "name": "54af5901bc6239509c41e78befb6e63c"}, {"bike_id": "87aff050e1a661eb9a7c6b5745702891", "lat": 38.919417, "is_disabled": 0, "lon": -77.04546466666666, "fusion_lon": 0.0, "is_reserved": 0, "fusion_lat": 0.0, "rental_uris": {"android": "https://dc.lft.to/lastmile_qr_scan", "ios": "https://dc.lft.to/lastmile_qr_scan"}, "type": "electric_scooter", "name": "87aff050e1a661eb9a7c6b5745702891"}, {"bike_id": "9dee228af024bff910229d4c69c28b1c", "lat": 38.90971233333333, "is_disabled": 0, "lon": -77.04552783333334, "fusion_lon": 0.0, "is_reserved": 0, "fusion_lat": 0.0, "rental_uris": {"android": "https://dc.lft.to/lastmile_qr_scan", "ios": "https://dc.lft.to/lastmile_qr_scan"}, "type": "electric_scooter", "name": "9dee228af024bff910229d4c69c28b1c"}, {"bike_id": "3d0eaf49e8b86e6f266fe2ceb37252f2", "lat": 38.90259433333333, "is_disabled": 0, "lon": -77.02668116666666, "fusion_lon": 0.0, "is_reserved": 0, "fusion_lat": 0.0, "rental_uris": {"android": "https://dc.lft.to/lastmile_qr_scan", "ios": "https://dc.lft.to/lastmile_qr_scan"}, "type": "electric_scooter", "name": "3d0eaf49e8b86e6f266fe2ceb37252f2"}, {"bike_id": "41cd27d19f253a1d7e8aaf928f5c46e8", "lat": 38.890131333333336, "is_disabled": 0, "lon": -76.937446, "fusion_lon": 0.0, "is_reserved": 0, "fusion_lat": 0.0, "rental_uris": {"android": "https://dc.lft.to/lastmile_qr_scan", "ios": "https://dc.lft.to/lastmile_qr_scan"}, "type": "electric_scooter", "name": "41cd27d19f253a1d7e8aaf928f5c46e8"}, {"bike_id": "a03590d84f51ab738d862d7f869ce191", "lat": 38.88768616666667, "is_disabled": 0, "lon": -77.03358266666666, "fusion_lon": 0.0, "is_reserved": 0, "fusion_lat": 0.0, "rental_uris": {"android": "https://dc.lft.to/lastmile_qr_scan", "ios": "https://dc.lft.to/lastmile_qr_scan"}, "type": "electric_scooter", "name": "a03590d84f51ab738d862d7f869ce191"}, {"bike_id": "79de2a6b1610e3353b02dd36f991d7f3", "lat": 38.888507833333335, "is_disabled": 0, "lon": -76.95733433333334, "fusion_lon": 0.0, "is_reserved": 0, "fusion_lat": 0.0, "rental_uris": {"android": "https://dc.lft.to/lastmile_qr_scan", "ios": "https://dc.lft.to/lastmile_qr_scan"}, "type": "electric_bike", "name": "79de2a6b1610e3353b02dd36f991d7f3"}, {"bike_id": "b74bd544f420ac6f686f483b57322b1e", "lat": 38.92027983333333, "is_disabled": 0, "lon": -77.01432933333334, "fusion_lon": 0.0, "is_reserved": 0, "fusion_lat": 0.0, "rental_uris": {"android": "https://dc.lft.to/lastmile_qr_scan", "ios": "https://dc.lft.to/lastmile_qr_scan"}, "type": "electric_scooter", "name": "b74bd544f420ac6f686f483b57322b1e"}, {"bike_id": "25d4e0f1ae4440195831230fd891aa87", "lat": 38.919497, "is_disabled": 0, "lon": -77.02600783333334, "fusion_lon": 0.0, "is_reserved": 0, "fusion_lat": 0.0, "rental_uris": {"android": "https://dc.lft.to/lastmile_qr_scan", "ios": "https://dc.lft.to/lastmile_qr_scan"}, "type": "electric_scooter", "name": "25d4e0f1ae4440195831230fd891aa87"}, {"bike_id": "8e9d13103e525c49108be6eacf10c8cc", "lat": 38.901264, "is_disabled": 0, "lon": -77.008973, "fusion_lon": 0.0, "is_reserved": 0, "fusion_lat": 0.0, "rental_uris": {"android": "https://dc.lft.to/lastmile_qr_scan", "ios": "https://dc.lft.to/lastmile_qr_scan"}, "type": "electric_scooter", "name": "8e9d13103e525c49108be6eacf10c8cc"}, {"bike_id": "a05c119443051916ea3ffb9585f851dd", "lat": 38.90762616666667, "is_disabled": 0, "lon": -77.03852783333333, "fusion_lon": 0.0, "is_reserved": 0, "fusion_lat": 0.0, "rental_uris": {"android": "https://dc.lft.to/lastmile_qr_scan", "ios": "https://dc.lft.to/lastmile_qr_scan"}, "type": "electric_scooter", "name": "a05c119443051916ea3ffb9585f851dd"}, {"bike_id": "d4d79cb89e0ae9afb1b1256a02b4562b", "lat": 38.9058895, "is_disabled": 0, "lon": -77.043253, "fusion_lon": 0.0, "is_reserved": 0, "fusion_lat": 0.0, "rental_uris": {"android": "https://dc.lft.to/lastmile_qr_scan", "ios": "https://dc.lft.to/lastmile_qr_scan"}, "type": "electric_scooter", "name": "d4d79cb89e0ae9afb1b1256a02b4562b"}, {"bike_id": "ad7fdca6fb5d1519a797fcedfce7c6e0", "lat": 38.892218166666666, "is_disabled": 0, "lon": -77.02419566666667, "fusion_lon": 0.0, "is_reserved": 0, "fusion_lat": 0.0, "rental_uris": {"android": "https://dc.lft.to/lastmile_qr_scan", "ios": "https://dc.lft.to/lastmile_qr_scan"}, "type": "electric_scooter", "name": "ad7fdca6fb5d1519a797fcedfce7c6e0"}, {"bike_id": "83d22e09a8793f28b703112301a54186", "lat": 38.908776333333336, "is_disabled": 0, "lon": -77.06783483333334, "fusion_lon": 0.0, "is_reserved": 0, "fusion_lat": 0.0, "rental_uris": {"android": "https://dc.lft.to/lastmile_qr_scan", "ios": "https://dc.lft.to/lastmile_qr_scan"}, "type": "electric_scooter", "name": "83d22e09a8793f28b703112301a54186"}, {"bike_id": "c0b36ffdd2c01c37115d2d7b689c0a7c", "lat": 38.87986733333334, "is_disabled": 0, "lon": -77.0058995, "fusion_lon": 0.0, "is_reserved": 0, "fusion_lat": 0.0, "rental_uris": {"android": "https://dc.lft.to/lastmile_qr_scan", "ios": "https://dc.lft.to/lastmile_qr_scan"}, "type": "electric_scooter", "name": "c0b36ffdd2c01c37115d2d7b689c0a7c"}, {"bike_id": "224363e7ce01dbed29c9912aabd92a06", "lat": 38.92048533333333, "is_disabled": 0, "lon": -77.0245045, "fusion_lon": 0.0, "is_reserved": 0, "fusion_lat": 0.0, "rental_uris": {"android": "https://dc.lft.to/lastmile_qr_scan", "ios": "https://dc.lft.to/lastmile_qr_scan"}, "type": "electric_scooter", "name": "224363e7ce01dbed29c9912aabd92a06"}, {"bike_id": "49d795a63a7f2fd95eeb7e7af0afa49c", "lat": 38.9190805, "is_disabled": 0, "lon": -77.025031, "fusion_lon": 0.0, "is_reserved": 0, "fusion_lat": 0.0, "rental_uris": {"android": "https://dc.lft.to/lastmile_qr_scan", "ios": "https://dc.lft.to/lastmile_qr_scan"}, "type": "electric_scooter", "name": "49d795a63a7f2fd95eeb7e7af0afa49c"}, {"bike_id": "34569e347426001048163fc8a1ffb0d8", "lat": 38.88506366666667, "is_disabled": 0, "lon": -76.95284616666666, "fusion_lon": 0.0, "is_reserved": 0, "fusion_lat": 0.0, "rental_uris": {"android": "https://dc.lft.to/lastmile_qr_scan", "ios": "https://dc.lft.to/lastmile_qr_scan"}, "type": "electric_scooter", "name": "34569e347426001048163fc8a1ffb0d8"}, {"bike_id": "677116424303d0f4f37c99e6a4e2ee2f", "lat": 38.950664, "is_disabled": 0, "lon": -77.06655566666667, "fusion_lon": 0.0, "is_reserved": 0, "fusion_lat": 0.0, "rental_uris": {"android": "https://dc.lft.to/lastmile_qr_scan", "ios": "https://dc.lft.to/lastmile_qr_scan"}, "type": "electric_bike", "name": "677116424303d0f4f37c99e6a4e2ee2f"}, {"bike_id": "2cce185f096d13267204c835885656fa", "lat": 38.87567833333333, "is_disabled": 0, "lon": -77.005871, "fusion_lon": 0.0, "is_reserved": 0, "fusion_lat": 0.0, "rental_uris": {"android": "https://dc.lft.to/lastmile_qr_scan", "ios": "https://dc.lft.to/lastmile_qr_scan"}, "type": "electric_scooter", "name": "2cce185f096d13267204c835885656fa"}, {"bike_id": "27cbd4a7e8298759bc398024c1dc0014", "lat": 38.91255866666667, "is_disabled": 0, "lon": -77.04201633333334, "fusion_lon": 0.0, "is_reserved": 0, "fusion_lat": 0.0, "rental_uris": {"android": "https://dc.lft.to/lastmile_qr_scan", "ios": "https://dc.lft.to/lastmile_qr_scan"}, "type": "electric_scooter", "name": "27cbd4a7e8298759bc398024c1dc0014"}, {"bike_id": "f18ab516667a81ddeccdadba45c708d2", "lat": 38.909797833333336, "is_disabled": 0, "lon": -76.994954, "fusion_lon": 0.0, "is_reserved": 0, "fusion_lat": 0.0, "rental_uris": {"android": "https://dc.lft.to/lastmile_qr_scan", "ios": "https://dc.lft.to/lastmile_qr_scan"}, "type": "electric_scooter", "name": "f18ab516667a81ddeccdadba45c708d2"}, {"bike_id": "d24a6225b74e0eb1f273f60ca4e74e14", "lat": 38.91173366666666, "is_disabled": 0, "lon": -77.04150066666666, "fusion_lon": 0.0, "is_reserved": 0, "fusion_lat": 0.0, "rental_uris": {"android": "https://dc.lft.to/lastmile_qr_scan", "ios": "https://dc.lft.to/lastmile_qr_scan"}, "type": "electric_scooter", "name": "d24a6225b74e0eb1f273f60ca4e74e14"}, {"bike_id": "49ab8c5289064956706c9ed3305fd6b4", "lat": 38.905335, "is_disabled": 0, "lon": -77.04570166666667, "fusion_lon": 0.0, "is_reserved": 0, "fusion_lat": 0.0, "rental_uris": {"android": "https://dc.lft.to/lastmile_qr_scan", "ios": "https://dc.lft.to/lastmile_qr_scan"}, "type": "electric_scooter", "name": "49ab8c5289064956706c9ed3305fd6b4"}, {"bike_id": "6159591ed9c0000c152999f4b4196366", "lat": 38.83155883333333, "is_disabled": 0, "lon": -76.99572983333333, "fusion_lon": 0.0, "is_reserved": 0, "fusion_lat": 0.0, "rental_uris": {"android": "https://dc.lft.to/lastmile_qr_scan", "ios": "https://dc.lft.to/lastmile_qr_scan"}, "type": "electric_bike", "name": "6159591ed9c0000c152999f4b4196366"}, {"bike_id": "d679badea6ac82895cfe55ddde02945a", "lat": 38.927005, "is_disabled": 0, "lon": -77.020957, "fusion_lon": 0.0, "is_reserved": 0, "fusion_lat": 0.0, "rental_uris": {"android": "https://dc.lft.to/lastmile_qr_scan", "ios": "https://dc.lft.to/lastmile_qr_scan"}, "type": "electric_scooter", "name": "d679badea6ac82895cfe55ddde02945a"}, {"bike_id": "e48e81735290ba1d68e1dbefd05c8046", "lat": 38.928589, "is_disabled": 0, "lon": -77.03275166666667, "fusion_lon": 0.0, "is_reserved": 0, "fusion_lat": 0.0, "rental_uris": {"android": "https://dc.lft.to/lastmile_qr_scan", "ios": "https://dc.lft.to/lastmile_qr_scan"}, "type": "electric_scooter", "name": "e48e81735290ba1d68e1dbefd05c8046"}, {"bike_id": "fc09588099c5b7422cac822ae771e85a", "lat": 38.91995716666667, "is_disabled": 0, "lon": -77.031853, "fusion_lon": 0.0, "is_reserved": 0, "fusion_lat": 0.0, "rental_uris": {"android": "https://dc.lft.to/lastmile_qr_scan", "ios": "https://dc.lft.to/lastmile_qr_scan"}, "type": "electric_scooter", "name": "fc09588099c5b7422cac822ae771e85a"}, {"bike_id": "3cfd5bb40ef968d0d937d3afd3e90685", "lat": 38.90630183333333, "is_disabled": 0, "lon": -77.04629966666667, "fusion_lon": 0.0, "is_reserved": 0, "fusion_lat": 0.0, "rental_uris": {"android": "https://dc.lft.to/lastmile_qr_scan", "ios": "https://dc.lft.to/lastmile_qr_scan"}, "type": "electric_scooter", "name": "3cfd5bb40ef968d0d937d3afd3e90685"}, {"bike_id": "d8c774b31e3687f3f75dc5d3a304708e", "lat": 38.89234916666667, "is_disabled": 0, "lon": -77.041623, "fusion_lon": 0.0, "is_reserved": 0, "fusion_lat": 0.0, "rental_uris": {"android": "https://dc.lft.to/lastmile_qr_scan", "ios": "https://dc.lft.to/lastmile_qr_scan"}, "type": "electric_scooter", "name": "d8c774b31e3687f3f75dc5d3a304708e"}, {"bike_id": "a2678ffcc26509159784ecd5dfb301ca", "lat": 38.90015316666667, "is_disabled": 0, "lon": -77.012578, "fusion_lon": 0.0, "is_reserved": 0, "fusion_lat": 0.0, "rental_uris": {"android": "https://dc.lft.to/lastmile_qr_scan", "ios": "https://dc.lft.to/lastmile_qr_scan"}, "type": "electric_scooter", "name": "a2678ffcc26509159784ecd5dfb301ca"}, {"bike_id": "ab57c898124d33d87c94b8d3593b328d", "lat": 38.92249316666667, "is_disabled": 0, "lon": -77.01951333333334, "fusion_lon": 0.0, "is_reserved": 0, "fusion_lat": 0.0, "rental_uris": {"android": "https://dc.lft.to/lastmile_qr_scan", "ios": "https://dc.lft.to/lastmile_qr_scan"}, "type": "electric_scooter", "name": "ab57c898124d33d87c94b8d3593b328d"}, {"bike_id": "97003b2f7e4020fc1c467a319d4dd4a7", "lat": 38.9009335, "is_disabled": 0, "lon": -77.04789516666666, "fusion_lon": 0.0, "is_reserved": 0, "fusion_lat": 0.0, "rental_uris": {"android": "https://dc.lft.to/lastmile_qr_scan", "ios": "https://dc.lft.to/lastmile_qr_scan"}, "type": "electric_scooter", "name": "97003b2f7e4020fc1c467a319d4dd4a7"}, {"bike_id": "0b29df072abfa2006ef01596338f80ef", "lat": 38.9033425, "is_disabled": 0, "lon": -77.02890416666666, "fusion_lon": 0.0, "is_reserved": 0, "fusion_lat": 0.0, "rental_uris": {"android": "https://dc.lft.to/lastmile_qr_scan", "ios": "https://dc.lft.to/lastmile_qr_scan"}, "type": "electric_scooter", "name": "0b29df072abfa2006ef01596338f80ef"}, {"bike_id": "906451bb9b36b32ca4e1e0c7354b2d31", "lat": 38.89363633333333, "is_disabled": 0, "lon": -77.02202616666666, "fusion_lon": 0.0, "is_reserved": 0, "fusion_lat": 0.0, "rental_uris": {"android": "https://dc.lft.to/lastmile_qr_scan", "ios": "https://dc.lft.to/lastmile_qr_scan"}, "type": "electric_scooter", "name": "906451bb9b36b32ca4e1e0c7354b2d31"}, {"bike_id": "a1d0e7a13c8f1e3217466c65f9dd9b16", "lat": 38.919508, "is_disabled": 0, "lon": -77.017789, "fusion_lon": 0.0, "is_reserved": 0, "fusion_lat": 0.0, "rental_uris": {"android": "https://dc.lft.to/lastmile_qr_scan", "ios": "https://dc.lft.to/lastmile_qr_scan"}, "type": "electric_scooter", "name": "a1d0e7a13c8f1e3217466c65f9dd9b16"}, {"bike_id": "3c6cba179952b311885ea11929849c28", "lat": 38.892197, "is_disabled": 0, "lon": -77.03221383333333, "fusion_lon": 0.0, "is_reserved": 0, "fusion_lat": 0.0, "rental_uris": {"android": "https://dc.lft.to/lastmile_qr_scan", "ios": "https://dc.lft.to/lastmile_qr_scan"}, "type": "electric_scooter", "name": "3c6cba179952b311885ea11929849c28"}, {"bike_id": "1426f37c98269413a547655f4029cb94", "lat": 38.91307966666667, "is_disabled": 0, "lon": -77.03189033333334, "fusion_lon": 0.0, "is_reserved": 0, "fusion_lat": 0.0, "rental_uris": {"android": "https://dc.lft.to/lastmile_qr_scan", "ios": "https://dc.lft.to/lastmile_qr_scan"}, "type": "electric_scooter", "name": "1426f37c98269413a547655f4029cb94"}, {"bike_id": "b11958738e6ab3ec56cf0e2def0adb61", "lat": 38.89458166666667, "is_disabled": 0, "lon": -77.021725, "fusion_lon": 0.0, "is_reserved": 0, "fusion_lat": 0.0, "rental_uris": {"android": "https://dc.lft.to/lastmile_qr_scan", "ios": "https://dc.lft.to/lastmile_qr_scan"}, "type": "electric_scooter", "name": "b11958738e6ab3ec56cf0e2def0adb61"}, {"bike_id": "4d6e7138da187caddea05c07a81f9611", "lat": 38.90485116666667, "is_disabled": 0, "lon": -77.03484133333333, "fusion_lon": 0.0, "is_reserved": 0, "fusion_lat": 0.0, "rental_uris": {"android": "https://dc.lft.to/lastmile_qr_scan", "ios": "https://dc.lft.to/lastmile_qr_scan"}, "type": "electric_scooter", "name": "4d6e7138da187caddea05c07a81f9611"}, {"bike_id": "1b06c2c7072fb087471395bc4a6b9a7a", "lat": 38.8786575, "is_disabled": 0, "lon": -76.96259183333333, "fusion_lon": 0.0, "is_reserved": 0, "fusion_lat": 0.0, "rental_uris": {"android": "https://dc.lft.to/lastmile_qr_scan", "ios": "https://dc.lft.to/lastmile_qr_scan"}, "type": "electric_scooter", "name": "1b06c2c7072fb087471395bc4a6b9a7a"}, {"bike_id": "eee9735b02c0da04fa23c6c7dbafc03a", "lat": 38.912202666666666, "is_disabled": 0, "lon": -77.043341, "fusion_lon": 0.0, "is_reserved": 0, "fusion_lat": 0.0, "rental_uris": {"android": "https://dc.lft.to/lastmile_qr_scan", "ios": "https://dc.lft.to/lastmile_qr_scan"}, "type": "electric_scooter", "name": "eee9735b02c0da04fa23c6c7dbafc03a"}, {"bike_id": "01633bb3de199aacac06b2844805447b", "lat": 38.9041515, "is_disabled": 0, "lon": -77.01709416666667, "fusion_lon": 0.0, "is_reserved": 0, "fusion_lat": 0.0, "rental_uris": {"android": "https://dc.lft.to/lastmile_qr_scan", "ios": "https://dc.lft.to/lastmile_qr_scan"}, "type": "electric_scooter", "name": "01633bb3de199aacac06b2844805447b"}, {"bike_id": "05659313918a638702239a944ada69aa", "lat": 38.93322283333333, "is_disabled": 0, "lon": -77.03821383333333, "fusion_lon": 0.0, "is_reserved": 0, "fusion_lat": 0.0, "rental_uris": {"android": "https://dc.lft.to/lastmile_qr_scan", "ios": "https://dc.lft.to/lastmile_qr_scan"}, "type": "electric_scooter", "name": "05659313918a638702239a944ada69aa"}, {"bike_id": "dd79288c035c49376009dddf39cf24c0", "lat": 38.91632933333333, "is_disabled": 0, "lon": -77.03207733333333, "fusion_lon": 0.0, "is_reserved": 0, "fusion_lat": 0.0, "rental_uris": {"android": "https://dc.lft.to/lastmile_qr_scan", "ios": "https://dc.lft.to/lastmile_qr_scan"}, "type": "electric_scooter", "name": "dd79288c035c49376009dddf39cf24c0"}, {"bike_id": "07292aecb2419f4f20467c6db06d15da", "lat": 38.9234265, "is_disabled": 0, "lon": -77.0363475, "fusion_lon": 0.0, "is_reserved": 0, "fusion_lat": 0.0, "rental_uris": {"android": "https://dc.lft.to/lastmile_qr_scan", "ios": "https://dc.lft.to/lastmile_qr_scan"}, "type": "electric_scooter", "name": "07292aecb2419f4f20467c6db06d15da"}, {"bike_id": "9fd8470b121a2ac259880564968ce3f7", "lat": 38.92790216666667, "is_disabled": 0, "lon": -77.0540845, "fusion_lon": 0.0, "is_reserved": 0, "fusion_lat": 0.0, "rental_uris": {"android": "https://dc.lft.to/lastmile_qr_scan", "ios": "https://dc.lft.to/lastmile_qr_scan"}, "type": "electric_scooter", "name": "9fd8470b121a2ac259880564968ce3f7"}, {"bike_id": "055304ea9e6b0d8c9ed938c54ffb0482", "lat": 38.91360366666667, "is_disabled": 0, "lon": -77.04649133333334, "fusion_lon": 0.0, "is_reserved": 0, "fusion_lat": 0.0, "rental_uris": {"android": "https://dc.lft.to/lastmile_qr_scan", "ios": "https://dc.lft.to/lastmile_qr_scan"}, "type": "electric_scooter", "name": "055304ea9e6b0d8c9ed938c54ffb0482"}, {"bike_id": "966ef5f47dbdc5a56986e51430948657", "lat": 38.863627, "is_disabled": 0, "lon": -76.99044433333333, "fusion_lon": 0.0, "is_reserved": 0, "fusion_lat": 0.0, "rental_uris": {"android": "https://dc.lft.to/lastmile_qr_scan", "ios": "https://dc.lft.to/lastmile_qr_scan"}, "type": "electric_scooter", "name": "966ef5f47dbdc5a56986e51430948657"}, {"bike_id": "c1478c6e91ef9465b2be27b20beb602c", "lat": 38.899129333333335, "is_disabled": 0, "lon": -77.0419305, "fusion_lon": 0.0, "is_reserved": 0, "fusion_lat": 0.0, "rental_uris": {"android": "https://dc.lft.to/lastmile_qr_scan", "ios": "https://dc.lft.to/lastmile_qr_scan"}, "type": "electric_scooter", "name": "c1478c6e91ef9465b2be27b20beb602c"}, {"bike_id": "b17ac00d32de6a8738b2f8b4d1e8625e", "lat": 38.9102085, "is_disabled": 0, "lon": -77.044585, "fusion_lon": 0.0, "is_reserved": 0, "fusion_lat": 0.0, "rental_uris": {"android": "https://dc.lft.to/lastmile_qr_scan", "ios": "https://dc.lft.to/lastmile_qr_scan"}, "type": "electric_scooter", "name": "b17ac00d32de6a8738b2f8b4d1e8625e"}, {"bike_id": "8baefb6509818683d76c5e8918cdb41e", "lat": 38.932703833333335, "is_disabled": 0, "lon": -77.02835483333334, "fusion_lon": 0.0, "is_reserved": 0, "fusion_lat": 0.0, "rental_uris": {"android": "https://dc.lft.to/lastmile_qr_scan", "ios": "https://dc.lft.to/lastmile_qr_scan"}, "type": "electric_scooter", "name": "8baefb6509818683d76c5e8918cdb41e"}, {"bike_id": "b65effcca0126dfebe894cbbd7484a71", "lat": 38.89235566666667, "is_disabled": 0, "lon": -77.032127, "fusion_lon": 0.0, "is_reserved": 0, "fusion_lat": 0.0, "rental_uris": {"android": "https://dc.lft.to/lastmile_qr_scan", "ios": "https://dc.lft.to/lastmile_qr_scan"}, "type": "electric_scooter", "name": "b65effcca0126dfebe894cbbd7484a71"}, {"bike_id": "2789ed248eb6b72b2b8ec5ed18a8007b", "lat": 38.89223766666667, "is_disabled": 0, "lon": -77.0464125, "fusion_lon": 0.0, "is_reserved": 0, "fusion_lat": 0.0, "rental_uris": {"android": "https://dc.lft.to/lastmile_qr_scan", "ios": "https://dc.lft.to/lastmile_qr_scan"}, "type": "electric_scooter", "name": "2789ed248eb6b72b2b8ec5ed18a8007b"}, {"bike_id": "1227afa6d31c2e378ceb57a9093c68b8", "lat": 38.92664633333333, "is_disabled": 0, "lon": -76.99508316666666, "fusion_lon": 0.0, "is_reserved": 0, "fusion_lat": 0.0, "rental_uris": {"android": "https://dc.lft.to/lastmile_qr_scan", "ios": "https://dc.lft.to/lastmile_qr_scan"}, "type": "electric_scooter", "name": "1227afa6d31c2e378ceb57a9093c68b8"}, {"bike_id": "89125211a76b6049afb2a112827be13c", "lat": 38.9173165, "is_disabled": 0, "lon": -77.0069175, "fusion_lon": 0.0, "is_reserved": 0, "fusion_lat": 0.0, "rental_uris": {"android": "https://dc.lft.to/lastmile_qr_scan", "ios": "https://dc.lft.to/lastmile_qr_scan"}, "type": "electric_scooter", "name": "89125211a76b6049afb2a112827be13c"}, {"bike_id": "7c68d791bac6250820d7a7f0d0fa4bcf", "lat": 38.892199833333336, "is_disabled": 0, "lon": -77.02779316666667, "fusion_lon": 0.0, "is_reserved": 0, "fusion_lat": 0.0, "rental_uris": {"android": "https://dc.lft.to/lastmile_qr_scan", "ios": "https://dc.lft.to/lastmile_qr_scan"}, "type": "electric_scooter", "name": "7c68d791bac6250820d7a7f0d0fa4bcf"}, {"bike_id": "20950d18ce79e8a481fa8a16cb56d370", "lat": 38.905842166666666, "is_disabled": 0, "lon": -77.03352166666667, "fusion_lon": 0.0, "is_reserved": 0, "fusion_lat": 0.0, "rental_uris": {"android": "https://dc.lft.to/lastmile_qr_scan", "ios": "https://dc.lft.to/lastmile_qr_scan"}, "type": "electric_scooter", "name": "20950d18ce79e8a481fa8a16cb56d370"}, {"bike_id": "f7418f57073a2af8ac10a04a3aa85d8d", "lat": 38.88762883333333, "is_disabled": 0, "lon": -77.03317316666667, "fusion_lon": 0.0, "is_reserved": 0, "fusion_lat": 0.0, "rental_uris": {"android": "https://dc.lft.to/lastmile_qr_scan", "ios": "https://dc.lft.to/lastmile_qr_scan"}, "type": "electric_scooter", "name": "f7418f57073a2af8ac10a04a3aa85d8d"}, {"bike_id": "009902b1ed5066ee960760c94733e5af", "lat": 38.9099985, "is_disabled": 0, "lon": -77.04007733333333, "fusion_lon": 0.0, "is_reserved": 0, "fusion_lat": 0.0, "rental_uris": {"android": "https://dc.lft.to/lastmile_qr_scan", "ios": "https://dc.lft.to/lastmile_qr_scan"}, "type": "electric_scooter", "name": "009902b1ed5066ee960760c94733e5af"}, {"bike_id": "101d822246bf31e660b7aec8580f7014", "lat": 38.937122, "is_disabled": 0, "lon": -77.05930616666667, "fusion_lon": 0.0, "is_reserved": 0, "fusion_lat": 0.0, "rental_uris": {"android": "https://dc.lft.to/lastmile_qr_scan", "ios": "https://dc.lft.to/lastmile_qr_scan"}, "type": "electric_scooter", "name": "101d822246bf31e660b7aec8580f7014"}, {"bike_id": "a67746177610723d56fef289087e3651", "lat": 38.888100333333334, "is_disabled": 0, "lon": -77.03831966666667, "fusion_lon": 0.0, "is_reserved": 0, "fusion_lat": 0.0, "rental_uris": {"android": "https://dc.lft.to/lastmile_qr_scan", "ios": "https://dc.lft.to/lastmile_qr_scan"}, "type": "electric_bike", "name": "a67746177610723d56fef289087e3651"}, {"bike_id": "ae8799451db92a2613ec685b4d527685", "lat": 38.89249016666667, "is_disabled": 0, "lon": -77.045063, "fusion_lon": 0.0, "is_reserved": 0, "fusion_lat": 0.0, "rental_uris": {"android": "https://dc.lft.to/lastmile_qr_scan", "ios": "https://dc.lft.to/lastmile_qr_scan"}, "type": "electric_scooter", "name": "ae8799451db92a2613ec685b4d527685"}, {"bike_id": "6705d58241848d8f211f8807f3066c8f", "lat": 38.88986533333333, "is_disabled": 0, "lon": -77.00326166666666, "fusion_lon": 0.0, "is_reserved": 0, "fusion_lat": 0.0, "rental_uris": {"android": "https://dc.lft.to/lastmile_qr_scan", "ios": "https://dc.lft.to/lastmile_qr_scan"}, "type": "electric_scooter", "name": "6705d58241848d8f211f8807f3066c8f"}, {"bike_id": "91bf6feb7cbe10aec2089b2bfb9494a3", "lat": 38.936952833333336, "is_disabled": 0, "lon": -77.055978, "fusion_lon": 0.0, "is_reserved": 0, "fusion_lat": 0.0, "rental_uris": {"android": "https://dc.lft.to/lastmile_qr_scan", "ios": "https://dc.lft.to/lastmile_qr_scan"}, "type": "electric_scooter", "name": "91bf6feb7cbe10aec2089b2bfb9494a3"}, {"bike_id": "b51b2664d196f51e7596b01ac66b56b6", "lat": 38.91054583333333, "is_disabled": 0, "lon": -77.0220315, "fusion_lon": 0.0, "is_reserved": 0, "fusion_lat": 0.0, "rental_uris": {"android": "https://dc.lft.to/lastmile_qr_scan", "ios": "https://dc.lft.to/lastmile_qr_scan"}, "type": "electric_scooter", "name": "b51b2664d196f51e7596b01ac66b56b6"}, {"bike_id": "221a98afc32c30ddb0698d6a9f275314", "lat": 38.90776433333333, "is_disabled": 0, "lon": -77.04512183333334, "fusion_lon": 0.0, "is_reserved": 0, "fusion_lat": 0.0, "rental_uris": {"android": "https://dc.lft.to/lastmile_qr_scan", "ios": "https://dc.lft.to/lastmile_qr_scan"}, "type": "electric_scooter", "name": "221a98afc32c30ddb0698d6a9f275314"}, {"bike_id": "0778888949bb59160c858aaf1bd567dd", "lat": 38.911356166666664, "is_disabled": 0, "lon": -77.04666583333334, "fusion_lon": 0.0, "is_reserved": 0, "fusion_lat": 0.0, "rental_uris": {"android": "https://dc.lft.to/lastmile_qr_scan", "ios": "https://dc.lft.to/lastmile_qr_scan"}, "type": "electric_scooter", "name": "0778888949bb59160c858aaf1bd567dd"}, {"bike_id": "23700ebffe8a8d4dc28f01c5e4ba6a75", "lat": 38.906411, "is_disabled": 0, "lon": -77.01764466666667, "fusion_lon": 0.0, "is_reserved": 0, "fusion_lat": 0.0, "rental_uris": {"android": "https://dc.lft.to/lastmile_qr_scan", "ios": "https://dc.lft.to/lastmile_qr_scan"}, "type": "electric_scooter", "name": "23700ebffe8a8d4dc28f01c5e4ba6a75"}, {"bike_id": "33d9cb8500ba6ddd88942f84beb1b441", "lat": 38.8771755, "is_disabled": 0, "lon": -77.01745916666667, "fusion_lon": 0.0, "is_reserved": 0, "fusion_lat": 0.0, "rental_uris": {"android": "https://dc.lft.to/lastmile_qr_scan", "ios": "https://dc.lft.to/lastmile_qr_scan"}, "type": "electric_scooter", "name": "33d9cb8500ba6ddd88942f84beb1b441"}, {"bike_id": "87223b1ed9c3b9291ce774c03db8a57a", "lat": 38.876634833333334, "is_disabled": 0, "lon": -77.00055966666666, "fusion_lon": 0.0, "is_reserved": 0, "fusion_lat": 0.0, "rental_uris": {"android": "https://dc.lft.to/lastmile_qr_scan", "ios": "https://dc.lft.to/lastmile_qr_scan"}, "type": "electric_scooter", "name": "87223b1ed9c3b9291ce774c03db8a57a"}, {"bike_id": "f309ddd1d89379eaedc24d49f13cedcf", "lat": 38.93228466666667, "is_disabled": 0, "lon": -77.02375766666667, "fusion_lon": 0.0, "is_reserved": 0, "fusion_lat": 0.0, "rental_uris": {"android": "https://dc.lft.to/lastmile_qr_scan", "ios": "https://dc.lft.to/lastmile_qr_scan"}, "type": "electric_scooter", "name": "f309ddd1d89379eaedc24d49f13cedcf"}, {"bike_id": "e106fc7eb1b7599691e5e8933a8a5bcb", "lat": 38.92393633333333, "is_disabled": 0, "lon": -77.02693716666667, "fusion_lon": 0.0, "is_reserved": 0, "fusion_lat": 0.0, "rental_uris": {"android": "https://dc.lft.to/lastmile_qr_scan", "ios": "https://dc.lft.to/lastmile_qr_scan"}, "type": "electric_scooter", "name": "e106fc7eb1b7599691e5e8933a8a5bcb"}, {"bike_id": "9ba8e24800ceba73983d7b7c5d1d7f7c", "lat": 38.9057185, "is_disabled": 0, "lon": -77.0381975, "fusion_lon": 0.0, "is_reserved": 0, "fusion_lat": 0.0, "rental_uris": {"android": "https://dc.lft.to/lastmile_qr_scan", "ios": "https://dc.lft.to/lastmile_qr_scan"}, "type": "electric_scooter", "name": "9ba8e24800ceba73983d7b7c5d1d7f7c"}, {"bike_id": "a26dd5b9a556ab8d7ad4dca8f25843a2", "lat": 38.93616083333333, "is_disabled": 0, "lon": -77.024821, "fusion_lon": 0.0, "is_reserved": 0, "fusion_lat": 0.0, "rental_uris": {"android": "https://dc.lft.to/lastmile_qr_scan", "ios": "https://dc.lft.to/lastmile_qr_scan"}, "type": "electric_scooter", "name": "a26dd5b9a556ab8d7ad4dca8f25843a2"}, {"bike_id": "a6e3274670a6fefaf7fd6b8994fb821e", "lat": 38.914092833333335, "is_disabled": 0, "lon": -77.03222933333333, "fusion_lon": 0.0, "is_reserved": 0, "fusion_lat": 0.0, "rental_uris": {"android": "https://dc.lft.to/lastmile_qr_scan", "ios": "https://dc.lft.to/lastmile_qr_scan"}, "type": "electric_scooter", "name": "a6e3274670a6fefaf7fd6b8994fb821e"}, {"bike_id": "824b1ef1267e41e96c3eb49d331061a6", "lat": 38.92173283333333, "is_disabled": 0, "lon": -77.020261, "fusion_lon": 0.0, "is_reserved": 0, "fusion_lat": 0.0, "rental_uris": {"android": "https://dc.lft.to/lastmile_qr_scan", "ios": "https://dc.lft.to/lastmile_qr_scan"}, "type": "electric_scooter", "name": "824b1ef1267e41e96c3eb49d331061a6"}, {"bike_id": "61dbdc3240bda601889314e158fb94bf", "lat": 38.91562283333333, "is_disabled": 0, "lon": -77.04165933333333, "fusion_lon": 0.0, "is_reserved": 0, "fusion_lat": 0.0, "rental_uris": {"android": "https://dc.lft.to/lastmile_qr_scan", "ios": "https://dc.lft.to/lastmile_qr_scan"}, "type": "electric_scooter", "name": "61dbdc3240bda601889314e158fb94bf"}, {"bike_id": "753c5b3b6eaad7d6dbba872ff5c5ebf3", "lat": 38.87645083333334, "is_disabled": 0, "lon": -76.965053, "fusion_lon": 0.0, "is_reserved": 0, "fusion_lat": 0.0, "rental_uris": {"android": "https://dc.lft.to/lastmile_qr_scan", "ios": "https://dc.lft.to/lastmile_qr_scan"}, "type": "electric_scooter", "name": "753c5b3b6eaad7d6dbba872ff5c5ebf3"}, {"bike_id": "8f20848be7d5a2dba4b0b9a5c409ae8b", "lat": 38.89894366666667, "is_disabled": 0, "lon": -77.0487375, "fusion_lon": 0.0, "is_reserved": 0, "fusion_lat": 0.0, "rental_uris": {"android": "https://dc.lft.to/lastmile_qr_scan", "ios": "https://dc.lft.to/lastmile_qr_scan"}, "type": "electric_scooter", "name": "8f20848be7d5a2dba4b0b9a5c409ae8b"}, {"bike_id": "a48e483b85eeaf6cc789fff48ff892c0", "lat": 38.92949683333333, "is_disabled": 0, "lon": -77.04404016666666, "fusion_lon": 0.0, "is_reserved": 0, "fusion_lat": 0.0, "rental_uris": {"android": "https://dc.lft.to/lastmile_qr_scan", "ios": "https://dc.lft.to/lastmile_qr_scan"}, "type": "electric_scooter", "name": "a48e483b85eeaf6cc789fff48ff892c0"}, {"bike_id": "8e1e07bf2aba6dc9786908604738aed9", "lat": 38.938924666666665, "is_disabled": 0, "lon": -77.01763616666666, "fusion_lon": 0.0, "is_reserved": 0, "fusion_lat": 0.0, "rental_uris": {"android": "https://dc.lft.to/lastmile_qr_scan", "ios": "https://dc.lft.to/lastmile_qr_scan"}, "type": "electric_scooter", "name": "8e1e07bf2aba6dc9786908604738aed9"}, {"bike_id": "6efc7474b9df003f2f75d3de65e3b194", "lat": 38.95704333333333, "is_disabled": 0, "lon": -77.02394383333333, "fusion_lon": 0.0, "is_reserved": 0, "fusion_lat": 0.0, "rental_uris": {"android": "https://dc.lft.to/lastmile_qr_scan", "ios": "https://dc.lft.to/lastmile_qr_scan"}, "type": "electric_scooter", "name": "6efc7474b9df003f2f75d3de65e3b194"}, {"bike_id": "0b9a61eca6888953e699257c2f02d112", "lat": 38.873809666666666, "is_disabled": 0, "lon": -76.96981816666667, "fusion_lon": 0.0, "is_reserved": 0, "fusion_lat": 0.0, "rental_uris": {"android": "https://dc.lft.to/lastmile_qr_scan", "ios": "https://dc.lft.to/lastmile_qr_scan"}, "type": "electric_scooter", "name": "0b9a61eca6888953e699257c2f02d112"}, {"bike_id": "41f92eba95b05ff2d3626fe2b034b2b0", "lat": 38.92323966666667, "is_disabled": 0, "lon": -77.03622283333333, "fusion_lon": 0.0, "is_reserved": 0, "fusion_lat": 0.0, "rental_uris": {"android": "https://dc.lft.to/lastmile_qr_scan", "ios": "https://dc.lft.to/lastmile_qr_scan"}, "type": "electric_scooter", "name": "41f92eba95b05ff2d3626fe2b034b2b0"}, {"bike_id": "6229ceef045d0000564a1450cc26ee74", "lat": 38.84107983333333, "is_disabled": 0, "lon": -77.07016033333333, "fusion_lon": 0.0, "is_reserved": 0, "fusion_lat": 0.0, "rental_uris": {"android": "https://dc.lft.to/lastmile_qr_scan", "ios": "https://dc.lft.to/lastmile_qr_scan"}, "type": "electric_bike", "name": "6229ceef045d0000564a1450cc26ee74"}, {"bike_id": "efd53086b612a262abfb1ac7bf44e721", "lat": 38.89224016666667, "is_disabled": 0, "lon": -77.04504433333334, "fusion_lon": 0.0, "is_reserved": 0, "fusion_lat": 0.0, "rental_uris": {"android": "https://dc.lft.to/lastmile_qr_scan", "ios": "https://dc.lft.to/lastmile_qr_scan"}, "type": "electric_scooter", "name": "efd53086b612a262abfb1ac7bf44e721"}, {"bike_id": "539bae78feb9af51cf578a3dcad22099", "lat": 38.92594183333333, "is_disabled": 0, "lon": -77.03541516666667, "fusion_lon": 0.0, "is_reserved": 0, "fusion_lat": 0.0, "rental_uris": {"android": "https://dc.lft.to/lastmile_qr_scan", "ios": "https://dc.lft.to/lastmile_qr_scan"}, "type": "electric_scooter", "name": "539bae78feb9af51cf578a3dcad22099"}, {"bike_id": "3b089549e281b314e3fe86c15b68d818", "lat": 38.884916833333335, "is_disabled": 0, "lon": -77.00714216666667, "fusion_lon": 0.0, "is_reserved": 0, "fusion_lat": 0.0, "rental_uris": {"android": "https://dc.lft.to/lastmile_qr_scan", "ios": "https://dc.lft.to/lastmile_qr_scan"}, "type": "electric_scooter", "name": "3b089549e281b314e3fe86c15b68d818"}, {"bike_id": "bacdc7989a2f9d1bd4020c7f9923af44", "lat": 38.89706666666667, "is_disabled": 0, "lon": -77.01952633333333, "fusion_lon": 0.0, "is_reserved": 0, "fusion_lat": 0.0, "rental_uris": {"android": "https://dc.lft.to/lastmile_qr_scan", "ios": "https://dc.lft.to/lastmile_qr_scan"}, "type": "electric_scooter", "name": "bacdc7989a2f9d1bd4020c7f9923af44"}, {"bike_id": "e278ca74defbcf1cd79a1734e928986f", "lat": 38.9725025, "is_disabled": 0, "lon": -76.9805935, "fusion_lon": 0.0, "is_reserved": 0, "fusion_lat": 0.0, "rental_uris": {"android": "https://dc.lft.to/lastmile_qr_scan", "ios": "https://dc.lft.to/lastmile_qr_scan"}, "type": "electric_bike", "name": "e278ca74defbcf1cd79a1734e928986f"}, {"bike_id": "71092afb2976c4307c90e7d6d1aa1fba", "lat": 38.9234, "is_disabled": 0, "lon": -77.05174133333334, "fusion_lon": 0.0, "is_reserved": 0, "fusion_lat": 0.0, "rental_uris": {"android": "https://dc.lft.to/lastmile_qr_scan", "ios": "https://dc.lft.to/lastmile_qr_scan"}, "type": "electric_scooter", "name": "71092afb2976c4307c90e7d6d1aa1fba"}, {"bike_id": "c956a7a07e9bd197413e54b6065ecd68", "lat": 38.92246216666667, "is_disabled": 0, "lon": -77.01949766666667, "fusion_lon": 0.0, "is_reserved": 0, "fusion_lat": 0.0, "rental_uris": {"android": "https://dc.lft.to/lastmile_qr_scan", "ios": "https://dc.lft.to/lastmile_qr_scan"}, "type": "electric_scooter", "name": "c956a7a07e9bd197413e54b6065ecd68"}, {"bike_id": "a36535e5b22d824e40d22c5979c1ee92", "lat": 38.90143033333333, "is_disabled": 0, "lon": -77.04548216666667, "fusion_lon": 0.0, "is_reserved": 0, "fusion_lat": 0.0, "rental_uris": {"android": "https://dc.lft.to/lastmile_qr_scan", "ios": "https://dc.lft.to/lastmile_qr_scan"}, "type": "electric_scooter", "name": "a36535e5b22d824e40d22c5979c1ee92"}, {"bike_id": "dae14a4070501af7245fd9095573b82c", "lat": 38.90808833333333, "is_disabled": 0, "lon": -77.03859316666667, "fusion_lon": 0.0, "is_reserved": 0, "fusion_lat": 0.0, "rental_uris": {"android": "https://dc.lft.to/lastmile_qr_scan", "ios": "https://dc.lft.to/lastmile_qr_scan"}, "type": "electric_scooter", "name": "dae14a4070501af7245fd9095573b82c"}, {"bike_id": "cdcff995059ffee6b0c2a0346884c73e", "lat": 38.905020666666665, "is_disabled": 0, "lon": -76.97955916666666, "fusion_lon": 0.0, "is_reserved": 0, "fusion_lat": 0.0, "rental_uris": {"android": "https://dc.lft.to/lastmile_qr_scan", "ios": "https://dc.lft.to/lastmile_qr_scan"}, "type": "electric_scooter", "name": "cdcff995059ffee6b0c2a0346884c73e"}, {"bike_id": "83d16b4b9ecc7a8f6cdf4ade59afe084", "lat": 38.889978, "is_disabled": 0, "lon": -77.0006195, "fusion_lon": 0.0, "is_reserved": 0, "fusion_lat": 0.0, "rental_uris": {"android": "https://dc.lft.to/lastmile_qr_scan", "ios": "https://dc.lft.to/lastmile_qr_scan"}, "type": "electric_scooter", "name": "83d16b4b9ecc7a8f6cdf4ade59afe084"}, {"bike_id": "c3528428b2bc2a186619b4d134471dbd", "lat": 38.876452, "is_disabled": 0, "lon": -76.96504933333334, "fusion_lon": 0.0, "is_reserved": 0, "fusion_lat": 0.0, "rental_uris": {"android": "https://dc.lft.to/lastmile_qr_scan", "ios": "https://dc.lft.to/lastmile_qr_scan"}, "type": "electric_scooter", "name": "c3528428b2bc2a186619b4d134471dbd"}, {"bike_id": "b5ca9517620380ee3fbb60a9c3c3c7b0", "lat": 38.907072666666664, "is_disabled": 0, "lon": -76.98561283333333, "fusion_lon": 0.0, "is_reserved": 0, "fusion_lat": 0.0, "rental_uris": {"android": "https://dc.lft.to/lastmile_qr_scan", "ios": "https://dc.lft.to/lastmile_qr_scan"}, "type": "electric_scooter", "name": "b5ca9517620380ee3fbb60a9c3c3c7b0"}, {"bike_id": "78b4f03d6d96b0e116049a69633fd2bd", "lat": 38.906454333333336, "is_disabled": 0, "lon": -77.04241066666667, "fusion_lon": 0.0, "is_reserved": 0, "fusion_lat": 0.0, "rental_uris": {"android": "https://dc.lft.to/lastmile_qr_scan", "ios": "https://dc.lft.to/lastmile_qr_scan"}, "type": "electric_scooter", "name": "78b4f03d6d96b0e116049a69633fd2bd"}, {"bike_id": "9272778ae79617165aebdc23662e0582", "lat": 38.90474316666667, "is_disabled": 0, "lon": -77.00615966666666, "fusion_lon": 0.0, "is_reserved": 0, "fusion_lat": 0.0, "rental_uris": {"android": "https://dc.lft.to/lastmile_qr_scan", "ios": "https://dc.lft.to/lastmile_qr_scan"}, "type": "electric_scooter", "name": "9272778ae79617165aebdc23662e0582"}, {"bike_id": "2c3c5af72f4f874fabc31f7ac6035771", "lat": 38.932834666666665, "is_disabled": 0, "lon": -77.04084483333334, "fusion_lon": 0.0, "is_reserved": 0, "fusion_lat": 0.0, "rental_uris": {"android": "https://dc.lft.to/lastmile_qr_scan", "ios": "https://dc.lft.to/lastmile_qr_scan"}, "type": "electric_scooter", "name": "2c3c5af72f4f874fabc31f7ac6035771"}, {"bike_id": "d099947d4e9bf5de627fb514a35f5d14", "lat": 38.89771483333333, "is_disabled": 0, "lon": -77.03176783333333, "fusion_lon": 0.0, "is_reserved": 0, "fusion_lat": 0.0, "rental_uris": {"android": "https://dc.lft.to/lastmile_qr_scan", "ios": "https://dc.lft.to/lastmile_qr_scan"}, "type": "electric_scooter", "name": "d099947d4e9bf5de627fb514a35f5d14"}, {"bike_id": "cc41b91b57f5e3aefff0089340c4717f", "lat": 38.899137833333334, "is_disabled": 0, "lon": -76.93375866666666, "fusion_lon": 0.0, "is_reserved": 0, "fusion_lat": 0.0, "rental_uris": {"android": "https://dc.lft.to/lastmile_qr_scan", "ios": "https://dc.lft.to/lastmile_qr_scan"}, "type": "electric_scooter", "name": "cc41b91b57f5e3aefff0089340c4717f"}, {"bike_id": "d5e43542232a356321ad35d621f37433", "lat": 38.89909216666667, "is_disabled": 0, "lon": -76.93380616666667, "fusion_lon": 0.0, "is_reserved": 0, "fusion_lat": 0.0, "rental_uris": {"android": "https://dc.lft.to/lastmile_qr_scan", "ios": "https://dc.lft.to/lastmile_qr_scan"}, "type": "electric_scooter", "name": "d5e43542232a356321ad35d621f37433"}, {"bike_id": "8eb7473bd94d8e53fb2b76e204db4877", "lat": 38.88728116666667, "is_disabled": 0, "lon": -77.01387483333333, "fusion_lon": 0.0, "is_reserved": 0, "fusion_lat": 0.0, "rental_uris": {"android": "https://dc.lft.to/lastmile_qr_scan", "ios": "https://dc.lft.to/lastmile_qr_scan"}, "type": "electric_scooter", "name": "8eb7473bd94d8e53fb2b76e204db4877"}, {"bike_id": "9aaef6babb84d9c631cc35ed2df35f70", "lat": 38.892917833333335, "is_disabled": 0, "lon": -77.00202816666666, "fusion_lon": 0.0, "is_reserved": 0, "fusion_lat": 0.0, "rental_uris": {"android": "https://dc.lft.to/lastmile_qr_scan", "ios": "https://dc.lft.to/lastmile_qr_scan"}, "type": "electric_scooter", "name": "9aaef6babb84d9c631cc35ed2df35f70"}, {"bike_id": "8a5c1dc849b407cda3e51875ac2e0d36", "lat": 38.9426875, "is_disabled": 0, "lon": -77.029478, "fusion_lon": 0.0, "is_reserved": 0, "fusion_lat": 0.0, "rental_uris": {"android": "https://dc.lft.to/lastmile_qr_scan", "ios": "https://dc.lft.to/lastmile_qr_scan"}, "type": "electric_scooter", "name": "8a5c1dc849b407cda3e51875ac2e0d36"}, {"bike_id": "25c59233956668052ccf7fdbd0ef984a", "lat": 38.90506083333333, "is_disabled": 0, "lon": -77.05086, "fusion_lon": 0.0, "is_reserved": 0, "fusion_lat": 0.0, "rental_uris": {"android": "https://dc.lft.to/lastmile_qr_scan", "ios": "https://dc.lft.to/lastmile_qr_scan"}, "type": "electric_scooter", "name": "25c59233956668052ccf7fdbd0ef984a"}, {"bike_id": "5ebe13737f120ea3d4c0d3d2ecc1b456", "lat": 38.88539266666667, "is_disabled": 0, "lon": -76.97890633333333, "fusion_lon": 0.0, "is_reserved": 0, "fusion_lat": 0.0, "rental_uris": {"android": "https://dc.lft.to/lastmile_qr_scan", "ios": "https://dc.lft.to/lastmile_qr_scan"}, "type": "electric_scooter", "name": "5ebe13737f120ea3d4c0d3d2ecc1b456"}, {"bike_id": "86fabc17f7801d803fc2ee02ec96aa04", "lat": 38.86617916666667, "is_disabled": 0, "lon": -76.9457095, "fusion_lon": 0.0, "is_reserved": 0, "fusion_lat": 0.0, "rental_uris": {"android": "https://dc.lft.to/lastmile_qr_scan", "ios": "https://dc.lft.to/lastmile_qr_scan"}, "type": "electric_bike", "name": "86fabc17f7801d803fc2ee02ec96aa04"}, {"bike_id": "20e991b5b3fd33a38d98f5a61ad5ea7d", "lat": 38.99782183333333, "is_disabled": 0, "lon": -77.00752966666667, "fusion_lon": 0.0, "is_reserved": 0, "fusion_lat": 0.0, "rental_uris": {"android": "https://dc.lft.to/lastmile_qr_scan", "ios": "https://dc.lft.to/lastmile_qr_scan"}, "type": "electric_bike", "name": "20e991b5b3fd33a38d98f5a61ad5ea7d"}, {"bike_id": "d42738a13a53d7e0ff0aed9c758c9151", "lat": 38.894646333333334, "is_disabled": 0, "lon": -77.01860233333333, "fusion_lon": 0.0, "is_reserved": 0, "fusion_lat": 0.0, "rental_uris": {"android": "https://dc.lft.to/lastmile_qr_scan", "ios": "https://dc.lft.to/lastmile_qr_scan"}, "type": "electric_scooter", "name": "d42738a13a53d7e0ff0aed9c758c9151"}, {"bike_id": "aae43170c6ae298079ea541a18bfb086", "lat": 38.923471666666664, "is_disabled": 0, "lon": -76.99952916666666, "fusion_lon": 0.0, "is_reserved": 0, "fusion_lat": 0.0, "rental_uris": {"android": "https://dc.lft.to/lastmile_qr_scan", "ios": "https://dc.lft.to/lastmile_qr_scan"}, "type": "electric_scooter", "name": "aae43170c6ae298079ea541a18bfb086"}, {"bike_id": "b4c438219c3d373bb2d8211a2823d8c1", "lat": 38.89542683333333, "is_disabled": 0, "lon": -76.98338166666667, "fusion_lon": 0.0, "is_reserved": 0, "fusion_lat": 0.0, "rental_uris": {"android": "https://dc.lft.to/lastmile_qr_scan", "ios": "https://dc.lft.to/lastmile_qr_scan"}, "type": "electric_scooter", "name": "b4c438219c3d373bb2d8211a2823d8c1"}, {"bike_id": "ac81f5ece09f53fd80173b5ab15550a3", "lat": 38.89221383333334, "is_disabled": 0, "lon": -77.0277815, "fusion_lon": 0.0, "is_reserved": 0, "fusion_lat": 0.0, "rental_uris": {"android": "https://dc.lft.to/lastmile_qr_scan", "ios": "https://dc.lft.to/lastmile_qr_scan"}, "type": "electric_scooter", "name": "ac81f5ece09f53fd80173b5ab15550a3"}, {"bike_id": "65f3db8c11b77580e5bbbe7b44226561", "lat": 38.83846666666667, "is_disabled": 0, "lon": -76.9972795, "fusion_lon": 0.0, "is_reserved": 0, "fusion_lat": 0.0, "rental_uris": {"android": "https://dc.lft.to/lastmile_qr_scan", "ios": "https://dc.lft.to/lastmile_qr_scan"}, "type": "electric_bike", "name": "65f3db8c11b77580e5bbbe7b44226561"}, {"bike_id": "9470c57271838b1355b2c7eb7e0af8f6", "lat": 38.88793233333333, "is_disabled": 0, "lon": -77.0931035, "fusion_lon": 0.0, "is_reserved": 0, "fusion_lat": 0.0, "rental_uris": {"android": "https://dc.lft.to/lastmile_qr_scan", "ios": "https://dc.lft.to/lastmile_qr_scan"}, "type": "electric_bike", "name": "9470c57271838b1355b2c7eb7e0af8f6"}, {"bike_id": "036d8d8e8422e0c5969b23e44afee47f", "lat": 38.97252916666667, "is_disabled": 0, "lon": -76.99270383333334, "fusion_lon": 0.0, "is_reserved": 0, "fusion_lat": 0.0, "rental_uris": {"android": "https://dc.lft.to/lastmile_qr_scan", "ios": "https://dc.lft.to/lastmile_qr_scan"}, "type": "electric_bike", "name": "036d8d8e8422e0c5969b23e44afee47f"}, {"bike_id": "109e5d840b66881aedd00f862f7dab30", "lat": 38.901520833333336, "is_disabled": 0, "lon": -77.0509105, "fusion_lon": 0.0, "is_reserved": 0, "fusion_lat": 0.0, "rental_uris": {"android": "https://dc.lft.to/lastmile_qr_scan", "ios": "https://dc.lft.to/lastmile_qr_scan"}, "type": "electric_scooter", "name": "109e5d840b66881aedd00f862f7dab30"}, {"bike_id": "5865e0cad6aa09f89013e61ce35bda2a", "lat": 38.89214166666667, "is_disabled": 0, "lon": -77.02625333333333, "fusion_lon": 0.0, "is_reserved": 0, "fusion_lat": 0.0, "rental_uris": {"android": "https://dc.lft.to/lastmile_qr_scan", "ios": "https://dc.lft.to/lastmile_qr_scan"}, "type": "electric_scooter", "name": "5865e0cad6aa09f89013e61ce35bda2a"}, {"bike_id": "6ceea682ba781667741c157a2653b4a2", "lat": 38.91993866666667, "is_disabled": 0, "lon": -77.03879383333333, "fusion_lon": 0.0, "is_reserved": 0, "fusion_lat": 0.0, "rental_uris": {"android": "https://dc.lft.to/lastmile_qr_scan", "ios": "https://dc.lft.to/lastmile_qr_scan"}, "type": "electric_scooter", "name": "6ceea682ba781667741c157a2653b4a2"}, {"bike_id": "0505853ebd805857fd27860e905a2e7c", "lat": 38.93004766666667, "is_disabled": 0, "lon": -77.02112116666666, "fusion_lon": 0.0, "is_reserved": 0, "fusion_lat": 0.0, "rental_uris": {"android": "https://dc.lft.to/lastmile_qr_scan", "ios": "https://dc.lft.to/lastmile_qr_scan"}, "type": "electric_scooter", "name": "0505853ebd805857fd27860e905a2e7c"}, {"bike_id": "c8466177e4bca86af81a1fe46d84e81c", "lat": 38.900029, "is_disabled": 0, "lon": -77.01176366666667, "fusion_lon": 0.0, "is_reserved": 0, "fusion_lat": 0.0, "rental_uris": {"android": "https://dc.lft.to/lastmile_qr_scan", "ios": "https://dc.lft.to/lastmile_qr_scan"}, "type": "electric_scooter", "name": "c8466177e4bca86af81a1fe46d84e81c"}, {"bike_id": "6b9b35ac39056ae098564eeeb8ea8714", "lat": 38.9357485, "is_disabled": 0, "lon": -77.03274366666666, "fusion_lon": 0.0, "is_reserved": 0, "fusion_lat": 0.0, "rental_uris": {"android": "https://dc.lft.to/lastmile_qr_scan", "ios": "https://dc.lft.to/lastmile_qr_scan"}, "type": "electric_scooter", "name": "6b9b35ac39056ae098564eeeb8ea8714"}, {"bike_id": "124da62a87f791d479ff1d8b76ea6561", "lat": 38.929730166666666, "is_disabled": 0, "lon": -77.02526383333333, "fusion_lon": 0.0, "is_reserved": 0, "fusion_lat": 0.0, "rental_uris": {"android": "https://dc.lft.to/lastmile_qr_scan", "ios": "https://dc.lft.to/lastmile_qr_scan"}, "type": "electric_scooter", "name": "124da62a87f791d479ff1d8b76ea6561"}, {"bike_id": "7b376665434847f54baf7e5d8504d653", "lat": 38.918391166666666, "is_disabled": 0, "lon": -77.04015566666666, "fusion_lon": 0.0, "is_reserved": 0, "fusion_lat": 0.0, "rental_uris": {"android": "https://dc.lft.to/lastmile_qr_scan", "ios": "https://dc.lft.to/lastmile_qr_scan"}, "type": "electric_scooter", "name": "7b376665434847f54baf7e5d8504d653"}, {"bike_id": "92970afcd399cf33dfc54e6ad16f8f73", "lat": 38.87912883333333, "is_disabled": 0, "lon": -76.94319416666667, "fusion_lon": 0.0, "is_reserved": 0, "fusion_lat": 0.0, "rental_uris": {"android": "https://dc.lft.to/lastmile_qr_scan", "ios": "https://dc.lft.to/lastmile_qr_scan"}, "type": "electric_scooter", "name": "92970afcd399cf33dfc54e6ad16f8f73"}, {"bike_id": "c06bfbc1e4f3e216348543c2b526cb4a", "lat": 38.902296666666665, "is_disabled": 0, "lon": -77.03584033333334, "fusion_lon": 0.0, "is_reserved": 0, "fusion_lat": 0.0, "rental_uris": {"android": "https://dc.lft.to/lastmile_qr_scan", "ios": "https://dc.lft.to/lastmile_qr_scan"}, "type": "electric_scooter", "name": "c06bfbc1e4f3e216348543c2b526cb4a"}, {"bike_id": "428b6068404ebf0d89f9a8c8a33ca557", "lat": 38.90522583333333, "is_disabled": 0, "lon": -77.06333183333334, "fusion_lon": 0.0, "is_reserved": 0, "fusion_lat": 0.0, "rental_uris": {"android": "https://dc.lft.to/lastmile_qr_scan", "ios": "https://dc.lft.to/lastmile_qr_scan"}, "type": "electric_scooter", "name": "428b6068404ebf0d89f9a8c8a33ca557"}, {"bike_id": "634b77f3f280246a60b28501efb1b936", "lat": 38.8922015, "is_disabled": 0, "lon": -77.022181, "fusion_lon": 0.0, "is_reserved": 0, "fusion_lat": 0.0, "rental_uris": {"android": "https://dc.lft.to/lastmile_qr_scan", "ios": "https://dc.lft.to/lastmile_qr_scan"}, "type": "electric_scooter", "name": "634b77f3f280246a60b28501efb1b936"}, {"bike_id": "753db7e431fc7052dc477cb0ff99eec1", "lat": 38.91661116666667, "is_disabled": 0, "lon": -77.02415533333334, "fusion_lon": 0.0, "is_reserved": 0, "fusion_lat": 0.0, "rental_uris": {"android": "https://dc.lft.to/lastmile_qr_scan", "ios": "https://dc.lft.to/lastmile_qr_scan"}, "type": "electric_scooter", "name": "753db7e431fc7052dc477cb0ff99eec1"}, {"bike_id": "f799ad19857178c64f6661c0f2b207e5", "lat": 38.9199305, "is_disabled": 0, "lon": -77.02472866666666, "fusion_lon": 0.0, "is_reserved": 0, "fusion_lat": 0.0, "rental_uris": {"android": "https://dc.lft.to/lastmile_qr_scan", "ios": "https://dc.lft.to/lastmile_qr_scan"}, "type": "electric_scooter", "name": "f799ad19857178c64f6661c0f2b207e5"}, {"bike_id": "acaa62b04da015d593c9ee8068c0e8e2", "lat": 38.8965345, "is_disabled": 0, "lon": -77.03374533333333, "fusion_lon": 0.0, "is_reserved": 0, "fusion_lat": 0.0, "rental_uris": {"android": "https://dc.lft.to/lastmile_qr_scan", "ios": "https://dc.lft.to/lastmile_qr_scan"}, "type": "electric_scooter", "name": "acaa62b04da015d593c9ee8068c0e8e2"}, {"bike_id": "e3510f74f6c407e41f5b0fd9c5a2a378", "lat": 38.89845416666667, "is_disabled": 0, "lon": -77.03918916666667, "fusion_lon": 0.0, "is_reserved": 0, "fusion_lat": 0.0, "rental_uris": {"android": "https://dc.lft.to/lastmile_qr_scan", "ios": "https://dc.lft.to/lastmile_qr_scan"}, "type": "electric_scooter", "name": "e3510f74f6c407e41f5b0fd9c5a2a378"}, {"bike_id": "4b9b4d4a18b0a62c2d155188b515b749", "lat": 38.92103616666667, "is_disabled": 0, "lon": -77.03148166666666, "fusion_lon": 0.0, "is_reserved": 0, "fusion_lat": 0.0, "rental_uris": {"android": "https://dc.lft.to/lastmile_qr_scan", "ios": "https://dc.lft.to/lastmile_qr_scan"}, "type": "electric_scooter", "name": "4b9b4d4a18b0a62c2d155188b515b749"},