{"data": {"bikes": [{"is_disabled": 0, "is_reserved": 0, "fusion_lat": 0.0, "lat": 38.929844, "fusion_lon": 0.0, "rental_uris": {"ios": "https://dc.lft.to/lastmile_qr_scan", "android": "https://dc.lft.to/lastmile_qr_scan"}, "lon": -77.03472733333334, "bike_id": "3e005192a3423455a46a39c4cb2011c2", "type": "electric_scooter", "name": "3e005192a3423455a46a39c4cb2011c2"}, {"is_disabled": 0, "is_reserved": 0, "fusion_lat": 0.0, "lat": 38.92295933333333, "fusion_lon": 0.0, "rental_uris": {"ios": "https://dc.lft.to/lastmile_qr_scan", "android": "https://dc.lft.to/lastmile_qr_scan"}, "lon": -77.04142516666667, "bike_id": "a214157e62908d12aa8d3b8f71665da6", "type": "electric_scooter", "name": "a214157e62908d12aa8d3b8f71665da6"}, {"is_disabled": 0, "is_reserved": 0, "fusion_lat": 0.0, "lat": 38.9171095, "fusion_lon": 0.0, "rental_uris": {"ios": "https://dc.lft.to/lastmile_qr_scan", "android": "https://dc.lft.to/lastmile_qr_scan"}, "lon": -77.0412495, "bike_id": "ed72a777d5952e6c834c5006c57b4905", "type": "electric_scooter", "name": "ed72a777d5952e6c834c5006c57b4905"}, {"is_disabled": 0, "is_reserved": 0, "fusion_lat": 0.0, "lat": 38.93349466666667, "fusion_lon": 0.0, "rental_uris": {"ios": "https://dc.lft.to/lastmile_qr_scan", "android": "https://dc.lft.to/lastmile_qr_scan"}, "lon": -77.024059, "bike_id": "22b8f63d7f0ce9217bdf15f33a2a554f", "type": "electric_scooter", "name": "22b8f63d7f0ce9217bdf15f33a2a554f"}, {"is_disabled": 0, "is_reserved": 0, "fusion_lat": 0.0, "lat": 38.91764383333334, "fusion_lon": 0.0, "rental_uris": {"ios": "https://dc.lft.to/lastmile_qr_scan", "android": "https://dc.lft.to/lastmile_qr_scan"}, "lon": -77.02401883333333, "bike_id": "883d7f9482863d0eb6ca0db0e93ca600", "type": "electric_scooter", "name": "883d7f9482863d0eb6ca0db0e93ca600"}, {"is_disabled": 0, "is_reserved": 0, "fusion_lat": 0.0, "lat": 38.90951616666667, "fusion_lon": 0.0, "rental_uris": {"ios": "https://dc.lft.to/lastmile_qr_scan", "android": "https://dc.lft.to/lastmile_qr_scan"}, "lon": -77.03198583333334, "bike_id": "15441a831e813092ad9577d897901411", "type": "electric_scooter", "name": "15441a831e813092ad9577d897901411"}, {"is_disabled": 0, "is_reserved": 0, "fusion_lat": 0.0, "lat": 38.8925045, "fusion_lon": 0.0, "rental_uris": {"ios": "https://dc.lft.to/lastmile_qr_scan", "android": "https://dc.lft.to/lastmile_qr_scan"}, "lon": -77.04657483333334, "bike_id": "afa55a4b16c34cd4a8839e53e5fc8bb0", "type": "electric_scooter", "name": "afa55a4b16c34cd4a8839e53e5fc8bb0"}, {"is_disabled": 0, "is_reserved": 0, "fusion_lat": 0.0, "lat": 38.91780683333333, "fusion_lon": 0.0, "rental_uris": {"ios": "https://dc.lft.to/lastmile_qr_scan", "android": "https://dc.lft.to/lastmile_qr_scan"}, "lon": -77.031953, "bike_id": "9a01007dd5961155ca978012b8d22e46", "type": "electric_scooter", "name": "9a01007dd5961155ca978012b8d22e46"}, {"is_disabled": 0, "is_reserved": 0, "fusion_lat": 0.0, "lat": 38.91560066666667, "fusion_lon": 0.0, "rental_uris": {"ios": "https://dc.lft.to/lastmile_qr_scan", "android": "https://dc.lft.to/lastmile_qr_scan"}, "lon": -77.05108516666667, "bike_id": "a70e2a279b4671e51a4b36b0ed72089f", "type": "electric_scooter", "name": "a70e2a279b4671e51a4b36b0ed72089f"}, {"is_disabled": 0, "is_reserved": 0, "fusion_lat": 0.0, "lat": 38.911307, "fusion_lon": 0.0, "rental_uris": {"ios": "https://dc.lft.to/lastmile_qr_scan", "android": "https://dc.lft.to/lastmile_qr_scan"}, "lon": -77.021983, "bike_id": "7748d070bcb14e497fe32d27d44c5757", "type": "electric_scooter", "name": "7748d070bcb14e497fe32d27d44c5757"}, {"is_disabled": 0, "is_reserved": 0, "fusion_lat": 0.0, "lat": 38.892830333333336, "fusion_lon": 0.0, "rental_uris": {"ios": "https://dc.lft.to/lastmile_qr_scan", "android": "https://dc.lft.to/lastmile_qr_scan"}, "lon": -77.04195733333333, "bike_id": "a52e9ed9b76941da0b21c24cb797c30e", "type": "electric_scooter", "name": "a52e9ed9b76941da0b21c24cb797c30e"}, {"is_disabled": 0, "is_reserved": 0, "fusion_lat": 0.0, "lat": 38.91510733333333, "fusion_lon": 0.0, "rental_uris": {"ios": "https://dc.lft.to/lastmile_qr_scan", "android": "https://dc.lft.to/lastmile_qr_scan"}, "lon": -77.019141, "bike_id": "732709b2dc945557808d3bb88315fccc", "type": "electric_scooter", "name": "732709b2dc945557808d3bb88315fccc"}, {"is_disabled": 0, "is_reserved": 0, "fusion_lat": 0.0, "lat": 38.889706, "fusion_lon": 0.0, "rental_uris": {"ios": "https://dc.lft.to/lastmile_qr_scan", "android": "https://dc.lft.to/lastmile_qr_scan"}, "lon": -76.98036733333333, "bike_id": "10248ad09015e400561dd6af933987f4", "type": "electric_scooter", "name": "10248ad09015e400561dd6af933987f4"}, {"is_disabled": 0, "is_reserved": 0, "fusion_lat": 0.0, "lat": 38.8467225, "fusion_lon": 0.0, "rental_uris": {"ios": "https://dc.lft.to/lastmile_qr_scan", "android": "https://dc.lft.to/lastmile_qr_scan"}, "lon": -77.1393685, "bike_id": "e0361cf0ff955df86340afa7b8727bad", "type": "electric_bike", "name": "e0361cf0ff955df86340afa7b8727bad"}, {"is_disabled": 0, "is_reserved": 0, "fusion_lat": 0.0, "lat": 38.88489583333333, "fusion_lon": 0.0, "rental_uris": {"ios": "https://dc.lft.to/lastmile_qr_scan", "android": "https://dc.lft.to/lastmile_qr_scan"}, "lon": -77.03474133333333, "bike_id": "ae6c19286fc7ac870ef5e0884ef90302", "type": "electric_scooter", "name": "ae6c19286fc7ac870ef5e0884ef90302"}, {"is_disabled": 0, "is_reserved": 0, "fusion_lat": 0.0, "lat": 38.92975766666667, "fusion_lon": 0.0, "rental_uris": {"ios": "https://dc.lft.to/lastmile_qr_scan", "android": "https://dc.lft.to/lastmile_qr_scan"}, "lon": -77.030821, "bike_id": "9bd0dc72c6d553c70f2d1c3b8a70167e", "type": "electric_scooter", "name": "9bd0dc72c6d553c70f2d1c3b8a70167e"}, {"is_disabled": 0, "is_reserved": 0, "fusion_lat": 0.0, "lat": 38.892226666666666, "fusion_lon": 0.0, "rental_uris": {"ios": "https://dc.lft.to/lastmile_qr_scan", "android": "https://dc.lft.to/lastmile_qr_scan"}, "lon": -77.03202733333333, "bike_id": "82cef8a339df037dda1f2d010aea1168", "type": "electric_scooter", "name": "82cef8a339df037dda1f2d010aea1168"}, {"is_disabled": 0, "is_reserved": 0, "fusion_lat": 0.0, "lat": 38.87619266666667, "fusion_lon": 0.0, "rental_uris": {"ios": "https://dc.lft.to/lastmile_qr_scan", "android": "https://dc.lft.to/lastmile_qr_scan"}, "lon": -77.00816566666667, "bike_id": "6271571c50557991a02a1d7e84fafbbe", "type": "electric_scooter", "name": "6271571c50557991a02a1d7e84fafbbe"}, {"is_disabled": 0, "is_reserved": 0, "fusion_lat": 0.0, "lat": 38.897366833333336, "fusion_lon": 0.0, "rental_uris": {"ios": "https://dc.lft.to/lastmile_qr_scan", "android": "https://dc.lft.to/lastmile_qr_scan"}, "lon": -77.043724, "bike_id": "8a689bfaba002e8f54235eef241f5141", "type": "electric_scooter", "name": "8a689bfaba002e8f54235eef241f5141"}, {"is_disabled": 0, "is_reserved": 0, "fusion_lat": 0.0, "lat": 38.91686383333333, "fusion_lon": 0.0, "rental_uris": {"ios": "https://dc.lft.to/lastmile_qr_scan", "android": "https://dc.lft.to/lastmile_qr_scan"}, "lon": -77.02966033333334, "bike_id": "953fbe24eb4e15b7b36492963407afa9", "type": "electric_scooter", "name": "953fbe24eb4e15b7b36492963407afa9"}, {"is_disabled": 0, "is_reserved": 0, "fusion_lat": 0.0, "lat": 38.92088583333334, "fusion_lon": 0.0, "rental_uris": {"ios": "https://dc.lft.to/lastmile_qr_scan", "android": "https://dc.lft.to/lastmile_qr_scan"}, "lon": -77.02405666666667, "bike_id": "e67de809a2f015ad2653f097dde14f1e", "type": "electric_scooter", "name": "e67de809a2f015ad2653f097dde14f1e"}, {"is_disabled": 0, "is_reserved": 0, "fusion_lat": 0.0, "lat": 38.898141, "fusion_lon": 0.0, "rental_uris": {"ios": "https://dc.lft.to/lastmile_qr_scan", "android": "https://dc.lft.to/lastmile_qr_scan"}, "lon": -77.02499266666666, "bike_id": "797a1838cc01882fedee8715f26093d9", "type": "electric_scooter", "name": "797a1838cc01882fedee8715f26093d9"}, {"is_disabled": 0, "is_reserved": 0, "fusion_lat": 0.0, "lat": 38.91792516666667, "fusion_lon": 0.0, "rental_uris": {"ios": "https://dc.lft.to/lastmile_qr_scan", "android": "https://dc.lft.to/lastmile_qr_scan"}, "lon": -77.03194583333334, "bike_id": "7725c0898d267f2217f70e406697800b", "type": "electric_scooter", "name": "7725c0898d267f2217f70e406697800b"}, {"is_disabled": 0, "is_reserved": 0, "fusion_lat": 0.0, "lat": 38.919845, "fusion_lon": 0.0, "rental_uris": {"ios": "https://dc.lft.to/lastmile_qr_scan", "android": "https://dc.lft.to/lastmile_qr_scan"}, "lon": -77.03324716666667, "bike_id": "96214d659055a57ceb930603725fb27f", "type": "electric_scooter", "name": "96214d659055a57ceb930603725fb27f"}, {"is_disabled": 0, "is_reserved": 0, "fusion_lat": 0.0, "lat": 38.877345, "fusion_lon": 0.0, "rental_uris": {"ios": "https://dc.lft.to/lastmile_qr_scan", "android": "https://dc.lft.to/lastmile_qr_scan"}, "lon": -77.11845, "bike_id": "978efa3f7fc2e06cb4127eb94c621581", "type": "electric_bike", "name": "978efa3f7fc2e06cb4127eb94c621581"}, {"is_disabled": 0, "is_reserved": 0, "fusion_lat": 0.0, "lat": 38.88417833333333, "fusion_lon": 0.0, "rental_uris": {"ios": "https://dc.lft.to/lastmile_qr_scan", "android": "https://dc.lft.to/lastmile_qr_scan"}, "lon": -77.03007766666667, "bike_id": "1a261fea7b1c18091dc718448146fde1", "type": "electric_scooter", "name": "1a261fea7b1c18091dc718448146fde1"}, {"is_disabled": 0, "is_reserved": 0, "fusion_lat": 0.0, "lat": 38.9233505, "fusion_lon": 0.0, "rental_uris": {"ios": "https://dc.lft.to/lastmile_qr_scan", "android": "https://dc.lft.to/lastmile_qr_scan"}, "lon": -77.03525366666666, "bike_id": "3688e9cc7ecf8d2bec5c1d756c29bf3b", "type": "electric_scooter", "name": "3688e9cc7ecf8d2bec5c1d756c29bf3b"}, {"is_disabled": 0, "is_reserved": 0, "fusion_lat": 0.0, "lat": 38.89246583333333, "fusion_lon": 0.0, "rental_uris": {"ios": "https://dc.lft.to/lastmile_qr_scan", "android": "https://dc.lft.to/lastmile_qr_scan"}, "lon": -77.03352966666667, "bike_id": "9fac683089dcb000c57fd6b64da6ae03", "type": "electric_scooter", "name": "9fac683089dcb000c57fd6b64da6ae03"}, {"is_disabled": 0, "is_reserved": 0, "fusion_lat": 0.0, "lat": 38.929087833333334, "fusion_lon": 0.0, "rental_uris": {"ios": "https://dc.lft.to/lastmile_qr_scan", "android": "https://dc.lft.to/lastmile_qr_scan"}, "lon": -77.0598275, "bike_id": "cda0bd635a42034606b6bea50a725781", "type": "electric_scooter", "name": "cda0bd635a42034606b6bea50a725781"}, {"is_disabled": 0, "is_reserved": 0, "fusion_lat": 0.0, "lat": 38.920870666666666, "fusion_lon": 0.0, "rental_uris": {"ios": "https://dc.lft.to/lastmile_qr_scan", "android": "https://dc.lft.to/lastmile_qr_scan"}, "lon": -77.02408633333333, "bike_id": "6c2e863d2f445a8f55e16933ebd9d672", "type": "electric_scooter", "name": "6c2e863d2f445a8f55e16933ebd9d672"}, {"is_disabled": 0, "is_reserved": 0, "fusion_lat": 0.0, "lat": 38.90950866666667, "fusion_lon": 0.0, "rental_uris": {"ios": "https://dc.lft.to/lastmile_qr_scan", "android": "https://dc.lft.to/lastmile_qr_scan"}, "lon": -77.03179483333334, "bike_id": "224af1bd9a16a4b1f551b6d593740588", "type": "electric_scooter", "name": "224af1bd9a16a4b1f551b6d593740588"}, {"is_disabled": 0, "is_reserved": 0, "fusion_lat": 0.0, "lat": 38.9270505, "fusion_lon": 0.0, "rental_uris": {"ios": "https://dc.lft.to/lastmile_qr_scan", "android": "https://dc.lft.to/lastmile_qr_scan"}, "lon": -76.9608005, "bike_id": "0476973218c31a59938117d3b05269ad", "type": "electric_scooter", "name": "0476973218c31a59938117d3b05269ad"}, {"is_disabled": 0, "is_reserved": 0, "fusion_lat": 0.0, "lat": 38.91611416666667, "fusion_lon": 0.0, "rental_uris": {"ios": "https://dc.lft.to/lastmile_qr_scan", "android": "https://dc.lft.to/lastmile_qr_scan"}, "lon": -77.02090366666667, "bike_id": "f70f67c493c195e1e9ebb499fdbb2001", "type": "electric_scooter", "name": "f70f67c493c195e1e9ebb499fdbb2001"}, {"is_disabled": 0, "is_reserved": 0, "fusion_lat": 0.0, "lat": 38.94912816666667, "fusion_lon": 0.0, "rental_uris": {"ios": "https://dc.lft.to/lastmile_qr_scan", "android": "https://dc.lft.to/lastmile_qr_scan"}, "lon": -77.02078183333333, "bike_id": "7779e83937ea41e93200b46575ae79c0", "type": "electric_scooter", "name": "7779e83937ea41e93200b46575ae79c0"}, {"is_disabled": 0, "is_reserved": 0, "fusion_lat": 0.0, "lat": 38.875267666666666, "fusion_lon": 0.0, "rental_uris": {"ios": "https://dc.lft.to/lastmile_qr_scan", "android": "https://dc.lft.to/lastmile_qr_scan"}, "lon": -77.012302, "bike_id": "fcab126c86de0ad03f23487c88ee0caa", "type": "electric_scooter", "name": "fcab126c86de0ad03f23487c88ee0caa"}, {"is_disabled": 0, "is_reserved": 0, "fusion_lat": 0.0, "lat": 38.91898483333333, "fusion_lon": 0.0, "rental_uris": {"ios": "https://dc.lft.to/lastmile_qr_scan", "android": "https://dc.lft.to/lastmile_qr_scan"}, "lon": -77.00047666666667, "bike_id": "d719af0e53b09de025b61f273d81b14b", "type": "electric_scooter", "name": "d719af0e53b09de025b61f273d81b14b"}, {"is_disabled": 0, "is_reserved": 0, "fusion_lat": 0.0, "lat": 38.911228333333334, "fusion_lon": 0.0, "rental_uris": {"ios": "https://dc.lft.to/lastmile_qr_scan", "android": "https://dc.lft.to/lastmile_qr_scan"}, "lon": -76.997442, "bike_id": "504cd0f2c7cbb38dd6c8993999ce3796", "type": "electric_scooter", "name": "504cd0f2c7cbb38dd6c8993999ce3796"}, {"is_disabled": 0, "is_reserved": 0, "fusion_lat": 0.0, "lat": 38.91717366666666, "fusion_lon": 0.0, "rental_uris": {"ios": "https://dc.lft.to/lastmile_qr_scan", "android": "https://dc.lft.to/lastmile_qr_scan"}, "lon": -77.038584, "bike_id": "5fd8846a5f5171b5d86fe6d87bce13e7", "type": "electric_scooter", "name": "5fd8846a5f5171b5d86fe6d87bce13e7"}, {"is_disabled": 0, "is_reserved": 0, "fusion_lat": 0.0, "lat": 38.9107535, "fusion_lon": 0.0, "rental_uris": {"ios": "https://dc.lft.to/lastmile_qr_scan", "android": "https://dc.lft.to/lastmile_qr_scan"}, "lon": -77.02188733333334, "bike_id": "01c1abfcb7be9deebf5a16c4324d9f46", "type": "electric_scooter", "name": "01c1abfcb7be9deebf5a16c4324d9f46"}, {"is_disabled": 0, "is_reserved": 0, "fusion_lat": 0.0, "lat": 38.96774683333334, "fusion_lon": 0.0, "rental_uris": {"ios": "https://dc.lft.to/lastmile_qr_scan", "android": "https://dc.lft.to/lastmile_qr_scan"}, "lon": -76.99651466666667, "bike_id": "3a9d1c05f115a8f54e2ec7365920d9b9", "type": "electric_bike", "name": "3a9d1c05f115a8f54e2ec7365920d9b9"}, {"is_disabled": 0, "is_reserved": 0, "fusion_lat": 0.0, "lat": 38.9148525, "fusion_lon": 0.0, "rental_uris": {"ios": "https://dc.lft.to/lastmile_qr_scan", "android": "https://dc.lft.to/lastmile_qr_scan"}, "lon": -77.04512683333333, "bike_id": "26457d9ebdbedbf18a92b1a18782488c", "type": "electric_scooter", "name": "26457d9ebdbedbf18a92b1a18782488c"}, {"is_disabled": 0, "is_reserved": 0, "fusion_lat": 0.0, "lat": 38.904994, "fusion_lon": 0.0, "rental_uris": {"ios": "https://dc.lft.to/lastmile_qr_scan", "android": "https://dc.lft.to/lastmile_qr_scan"}, "lon": -77.06121366666666, "bike_id": "5b030ce708e50fb6f059f6a4e6697e4e", "type": "electric_scooter", "name": "5b030ce708e50fb6f059f6a4e6697e4e"}, {"is_disabled": 0, "is_reserved": 0, "fusion_lat": 0.0, "lat": 38.93681266666667, "fusion_lon": 0.0, "rental_uris": {"ios": "https://dc.lft.to/lastmile_qr_scan", "android": "https://dc.lft.to/lastmile_qr_scan"}, "lon": -77.05851916666667, "bike_id": "9a523d8d4290d5e92671e3a27f553997", "type": "electric_scooter", "name": "9a523d8d4290d5e92671e3a27f553997"}, {"is_disabled": 0, "is_reserved": 0, "fusion_lat": 0.0, "lat": 38.917079666666666, "fusion_lon": 0.0, "rental_uris": {"ios": "https://dc.lft.to/lastmile_qr_scan", "android": "https://dc.lft.to/lastmile_qr_scan"}, "lon": -77.0321055, "bike_id": "029ca739804028ec54ad75cbc5d94951", "type": "electric_scooter", "name": "029ca739804028ec54ad75cbc5d94951"}, {"is_disabled": 0, "is_reserved": 0, "fusion_lat": 0.0, "lat": 38.90239583333333, "fusion_lon": 0.0, "rental_uris": {"ios": "https://dc.lft.to/lastmile_qr_scan", "android": "https://dc.lft.to/lastmile_qr_scan"}, "lon": -77.02654016666666, "bike_id": "d49fb1d82b64b65862132a3942b8842b", "type": "electric_scooter", "name": "d49fb1d82b64b65862132a3942b8842b"}, {"is_disabled": 0, "is_reserved": 0, "fusion_lat": 0.0, "lat": 38.91719916666667, "fusion_lon": 0.0, "rental_uris": {"ios": "https://dc.lft.to/lastmile_qr_scan", "android": "https://dc.lft.to/lastmile_qr_scan"}, "lon": -77.03857133333334, "bike_id": "149724829b46864c16d411e0700eae7a", "type": "electric_scooter", "name": "149724829b46864c16d411e0700eae7a"}, {"is_disabled": 0, "is_reserved": 0, "fusion_lat": 0.0, "lat": 38.91041933333333, "fusion_lon": 0.0, "rental_uris": {"ios": "https://dc.lft.to/lastmile_qr_scan", "android": "https://dc.lft.to/lastmile_qr_scan"}, "lon": -76.92336266666666, "bike_id": "072f9dced72bf5ea44d633bb60c56b90", "type": "electric_bike", "name": "072f9dced72bf5ea44d633bb60c56b90"}, {"is_disabled": 0, "is_reserved": 0, "fusion_lat": 0.0, "lat": 38.905988, "fusion_lon": 0.0, "rental_uris": {"ios": "https://dc.lft.to/lastmile_qr_scan", "android": "https://dc.lft.to/lastmile_qr_scan"}, "lon": -77.065303, "bike_id": "6ecb2f0f30d2c259376b809624db37f6", "type": "electric_scooter", "name": "6ecb2f0f30d2c259376b809624db37f6"}, {"is_disabled": 0, "is_reserved": 0, "fusion_lat": 0.0, "lat": 38.922632666666665, "fusion_lon": 0.0, "rental_uris": {"ios": "https://dc.lft.to/lastmile_qr_scan", "android": "https://dc.lft.to/lastmile_qr_scan"}, "lon": -77.0364465, "bike_id": "7dc2fb15109adf33c33005ec9faea182", "type": "electric_scooter", "name": "7dc2fb15109adf33c33005ec9faea182"}, {"is_disabled": 0, "is_reserved": 0, "fusion_lat": 0.0, "lat": 38.902449833333336, "fusion_lon": 0.0, "rental_uris": {"ios": "https://dc.lft.to/lastmile_qr_scan", "android": "https://dc.lft.to/lastmile_qr_scan"}, "lon": -77.02653733333334, "bike_id": "89fedc8ac5e7428bbbdea3e93b2f2494", "type": "electric_scooter", "name": "89fedc8ac5e7428bbbdea3e93b2f2494"}, {"is_disabled": 0, "is_reserved": 0, "fusion_lat": 0.0, "lat": 38.90733016666667, "fusion_lon": 0.0, "rental_uris": {"ios": "https://dc.lft.to/lastmile_qr_scan", "android": "https://dc.lft.to/lastmile_qr_scan"}, "lon": -77.00952066666666, "bike_id": "f6bb807083fa07d5cb96a8a34278560f", "type": "electric_scooter", "name": "f6bb807083fa07d5cb96a8a34278560f"}, {"is_disabled": 0, "is_reserved": 0, "fusion_lat": 0.0, "lat": 38.8961465, "fusion_lon": 0.0, "rental_uris": {"ios": "https://dc.lft.to/lastmile_qr_scan", "android": "https://dc.lft.to/lastmile_qr_scan"}, "lon": -77.02678166666666, "bike_id": "fe5ef9ef613476d87012f067249d7f68", "type": "electric_scooter", "name": "fe5ef9ef613476d87012f067249d7f68"}, {"is_disabled": 0, "is_reserved": 0, "fusion_lat": 0.0, "lat": 38.91350533333333, "fusion_lon": 0.0, "rental_uris": {"ios": "https://dc.lft.to/lastmile_qr_scan", "android": "https://dc.lft.to/lastmile_qr_scan"}, "lon": -76.9713885, "bike_id": "6309529b48cbd836a0b390034a1c1ea6", "type": "electric_scooter", "name": "6309529b48cbd836a0b390034a1c1ea6"}, {"is_disabled": 0, "is_reserved": 0, "fusion_lat": 0.0, "lat": 38.917079666666666, "fusion_lon": 0.0, "rental_uris": {"ios": "https://dc.lft.to/lastmile_qr_scan", "android": "https://dc.lft.to/lastmile_qr_scan"}, "lon": -77.02455483333334, "bike_id": "f2ce5eefaa3b9787edb7bea92ca3dd03", "type": "electric_scooter", "name": "f2ce5eefaa3b9787edb7bea92ca3dd03"}, {"is_disabled": 0, "is_reserved": 0, "fusion_lat": 0.0, "lat": 38.925118, "fusion_lon": 0.0, "rental_uris": {"ios": "https://dc.lft.to/lastmile_qr_scan", "android": "https://dc.lft.to/lastmile_qr_scan"}, "lon": -77.02360833333333, "bike_id": "9e65910479c71742fe64b24b1bd3bea4", "type": "electric_scooter", "name": "9e65910479c71742fe64b24b1bd3bea4"}, {"is_disabled": 0, "is_reserved": 0, "fusion_lat": 0.0, "lat": 38.90532616666667, "fusion_lon": 0.0, "rental_uris": {"ios": "https://dc.lft.to/lastmile_qr_scan", "android": "https://dc.lft.to/lastmile_qr_scan"}, "lon": -77.0652855, "bike_id": "b57222d561825f82d07c84c1f60a4470", "type": "electric_scooter", "name": "b57222d561825f82d07c84c1f60a4470"}, {"is_disabled": 0, "is_reserved": 0, "fusion_lat": 0.0, "lat": 38.929644333333336, "fusion_lon": 0.0, "rental_uris": {"ios": "https://dc.lft.to/lastmile_qr_scan", "android": "https://dc.lft.to/lastmile_qr_scan"}, "lon": -77.03262816666667, "bike_id": "562cf2802030eff6cc75ab87644c6762", "type": "electric_scooter", "name": "562cf2802030eff6cc75ab87644c6762"}, {"is_disabled": 0, "is_reserved": 0, "fusion_lat": 0.0, "lat": 38.91679833333333, "fusion_lon": 0.0, "rental_uris": {"ios": "https://dc.lft.to/lastmile_qr_scan", "android": "https://dc.lft.to/lastmile_qr_scan"}, "lon": -77.04596433333333, "bike_id": "077784becabacafd23d563c66345ec13", "type": "electric_scooter", "name": "077784becabacafd23d563c66345ec13"}, {"is_disabled": 0, "is_reserved": 0, "fusion_lat": 0.0, "lat": 38.9112425, "fusion_lon": 0.0, "rental_uris": {"ios": "https://dc.lft.to/lastmile_qr_scan", "android": "https://dc.lft.to/lastmile_qr_scan"}, "lon": -77.03826966666666, "bike_id": "7273a4d33ac4bcf4767c632fa19d2cbd", "type": "electric_scooter", "name": "7273a4d33ac4bcf4767c632fa19d2cbd"}, {"is_disabled": 0, "is_reserved": 0, "fusion_lat": 0.0, "lat": 38.91011183333333, "fusion_lon": 0.0, "rental_uris": {"ios": "https://dc.lft.to/lastmile_qr_scan", "android": "https://dc.lft.to/lastmile_qr_scan"}, "lon": -77.01216466666666, "bike_id": "be03da4778856d7f15ee7049ebe6b00f", "type": "electric_scooter", "name": "be03da4778856d7f15ee7049ebe6b00f"}, {"is_disabled": 0, "is_reserved": 0, "fusion_lat": 0.0, "lat": 38.9524055, "fusion_lon": 0.0, "rental_uris": {"ios": "https://dc.lft.to/lastmile_qr_scan", "android": "https://dc.lft.to/lastmile_qr_scan"}, "lon": -76.97952766666667, "bike_id": "05160ccc09ada240bae863b16c13e9c5", "type": "electric_bike", "name": "05160ccc09ada240bae863b16c13e9c5"}, {"is_disabled": 0, "is_reserved": 0, "fusion_lat": 0.0, "lat": 38.9063085, "fusion_lon": 0.0, "rental_uris": {"ios": "https://dc.lft.to/lastmile_qr_scan", "android": "https://dc.lft.to/lastmile_qr_scan"}, "lon": -77.069082, "bike_id": "0dec80bde190ef49e5a3a3d31da6ff4a", "type": "electric_scooter", "name": "0dec80bde190ef49e5a3a3d31da6ff4a"}, {"is_disabled": 0, "is_reserved": 0, "fusion_lat": 0.0, "lat": 38.89618433333333, "fusion_lon": 0.0, "rental_uris": {"ios": "https://dc.lft.to/lastmile_qr_scan", "android": "https://dc.lft.to/lastmile_qr_scan"}, "lon": -77.03170433333334, "bike_id": "43d1879233585600ee041c25db64cdff", "type": "electric_scooter", "name": "43d1879233585600ee041c25db64cdff"}, {"is_disabled": 0, "is_reserved": 0, "fusion_lat": 0.0, "lat": 38.957832833333335, "fusion_lon": 0.0, "rental_uris": {"ios": "https://dc.lft.to/lastmile_qr_scan", "android": "https://dc.lft.to/lastmile_qr_scan"}, "lon": -77.02413883333334, "bike_id": "16257a2c9551f4aa4b99c7269d7392c1", "type": "electric_scooter", "name": "16257a2c9551f4aa4b99c7269d7392c1"}, {"is_disabled": 0, "is_reserved": 0, "fusion_lat": 0.0, "lat": 38.912653, "fusion_lon": 0.0, "rental_uris": {"ios": "https://dc.lft.to/lastmile_qr_scan", "android": "https://dc.lft.to/lastmile_qr_scan"}, "lon": -77.03142516666666, "bike_id": "cdd5500a68567f78e3174cf1e0713f86", "type": "electric_scooter", "name": "cdd5500a68567f78e3174cf1e0713f86"}, {"is_disabled": 0, "is_reserved": 0, "fusion_lat": 0.0, "lat": 38.928467, "fusion_lon": 0.0, "rental_uris": {"ios": "https://dc.lft.to/lastmile_qr_scan", "android": "https://dc.lft.to/lastmile_qr_scan"}, "lon": -77.01419166666666, "bike_id": "416e4229be93be9bacadbf37b1d20e88", "type": "electric_scooter", "name": "416e4229be93be9bacadbf37b1d20e88"}, {"is_disabled": 0, "is_reserved": 0, "fusion_lat": 0.0, "lat": 38.8923425, "fusion_lon": 0.0, "rental_uris": {"ios": "https://dc.lft.to/lastmile_qr_scan", "android": "https://dc.lft.to/lastmile_qr_scan"}, "lon": -77.027996, "bike_id": "ac07046f069ca27c1346d140f495de3a", "type": "electric_scooter", "name": "ac07046f069ca27c1346d140f495de3a"}, {"is_disabled": 0, "is_reserved": 0, "fusion_lat": 0.0, "lat": 38.90640116666667, "fusion_lon": 0.0, "rental_uris": {"ios": "https://dc.lft.to/lastmile_qr_scan", "android": "https://dc.lft.to/lastmile_qr_scan"}, "lon": -77.03166733333333, "bike_id": "97df087cce7fffaf321582699846f044", "type": "electric_scooter", "name": "97df087cce7fffaf321582699846f044"}, {"is_disabled": 0, "is_reserved": 0, "fusion_lat": 0.0, "lat": 38.906394, "fusion_lon": 0.0, "rental_uris": {"ios": "https://dc.lft.to/lastmile_qr_scan", "android": "https://dc.lft.to/lastmile_qr_scan"}, "lon": -77.0690525, "bike_id": "2a176694fd37d3471a034cd8acb21c11", "type": "electric_scooter", "name": "2a176694fd37d3471a034cd8acb21c11"}, {"is_disabled": 0, "is_reserved": 0, "fusion_lat": 0.0, "lat": 38.89130383333333, "fusion_lon": 0.0, "rental_uris": {"ios": "https://dc.lft.to/lastmile_qr_scan", "android": "https://dc.lft.to/lastmile_qr_scan"}, "lon": -76.999486, "bike_id": "998b66d03a45d2e5084d15fbccc6ad4c", "type": "electric_scooter", "name": "998b66d03a45d2e5084d15fbccc6ad4c"}, {"is_disabled": 0, "is_reserved": 0, "fusion_lat": 0.0, "lat": 38.91113433333334, "fusion_lon": 0.0, "rental_uris": {"ios": "https://dc.lft.to/lastmile_qr_scan", "android": "https://dc.lft.to/lastmile_qr_scan"}, "lon": -77.03830083333334, "bike_id": "caf9d4aa2793a90d551517cb09b8c71e", "type": "electric_scooter", "name": "caf9d4aa2793a90d551517cb09b8c71e"}, {"is_disabled": 0, "is_reserved": 0, "fusion_lat": 0.0, "lat": 38.95431033333333, "fusion_lon": 0.0, "rental_uris": {"ios": "https://dc.lft.to/lastmile_qr_scan", "android": "https://dc.lft.to/lastmile_qr_scan"}, "lon": -76.98795933333334, "bike_id": "c1a78f9522e93f2f822fc27621b43575", "type": "electric_scooter", "name": "c1a78f9522e93f2f822fc27621b43575"}, {"is_disabled": 0, "is_reserved": 0, "fusion_lat": 0.0, "lat": 38.876347333333335, "fusion_lon": 0.0, "rental_uris": {"ios": "https://dc.lft.to/lastmile_qr_scan", "android": "https://dc.lft.to/lastmile_qr_scan"}, "lon": -76.99295966666666, "bike_id": "754c2726d7fc3b5460fd68c0152fbf79", "type": "electric_scooter", "name": "754c2726d7fc3b5460fd68c0152fbf79"}, {"is_disabled": 0, "is_reserved": 0, "fusion_lat": 0.0, "lat": 38.864662333333335, "fusion_lon": 0.0, "rental_uris": {"ios": "https://dc.lft.to/lastmile_qr_scan", "android": "https://dc.lft.to/lastmile_qr_scan"}, "lon": -76.97755916666667, "bike_id": "3e9d3300de31c41289e9ec10157247ad", "type": "electric_scooter", "name": "3e9d3300de31c41289e9ec10157247ad"}, {"is_disabled": 0, "is_reserved": 0, "fusion_lat": 0.0, "lat": 38.933809333333336, "fusion_lon": 0.0, "rental_uris": {"ios": "https://dc.lft.to/lastmile_qr_scan", "android": "https://dc.lft.to/lastmile_qr_scan"}, "lon": -77.0272595, "bike_id": "9043294889fac5d66dbf3119adb46b92", "type": "electric_scooter", "name": "9043294889fac5d66dbf3119adb46b92"}, {"is_disabled": 0, "is_reserved": 0, "fusion_lat": 0.0, "lat": 38.912839, "fusion_lon": 0.0, "rental_uris": {"ios": "https://dc.lft.to/lastmile_qr_scan", "android": "https://dc.lft.to/lastmile_qr_scan"}, "lon": -77.03839283333333, "bike_id": "3e1da82dccdeac02d3c1920780bbdb19", "type": "electric_scooter", "name": "3e1da82dccdeac02d3c1920780bbdb19"}, {"is_disabled": 0, "is_reserved": 0, "fusion_lat": 0.0, "lat": 38.87190316666667, "fusion_lon": 0.0, "rental_uris": {"ios": "https://dc.lft.to/lastmile_qr_scan", "android": "https://dc.lft.to/lastmile_qr_scan"}, "lon": -77.005854, "bike_id": "0744f3cc5975742aced14860c7eb5615", "type": "electric_scooter", "name": "0744f3cc5975742aced14860c7eb5615"}, {"is_disabled": 0, "is_reserved": 0, "fusion_lat": 0.0, "lat": 38.91230183333333, "fusion_lon": 0.0, "rental_uris": {"ios": "https://dc.lft.to/lastmile_qr_scan", "android": "https://dc.lft.to/lastmile_qr_scan"}, "lon": -77.03205033333333, "bike_id": "ee12126df9e4a378de148d6a31d8b1a8", "type": "electric_scooter", "name": "ee12126df9e4a378de148d6a31d8b1a8"}, {"is_disabled": 0, "is_reserved": 0, "fusion_lat": 0.0, "lat": 38.94930883333333, "fusion_lon": 0.0, "rental_uris": {"ios": "https://dc.lft.to/lastmile_qr_scan", "android": "https://dc.lft.to/lastmile_qr_scan"}, "lon": -77.01939033333333, "bike_id": "f4230937869088959f0085f2cafcd172", "type": "electric_scooter", "name": "f4230937869088959f0085f2cafcd172"}, {"is_disabled": 0, "is_reserved": 0, "fusion_lat": 0.0, "lat": 38.934461166666665, "fusion_lon": 0.0, "rental_uris": {"ios": "https://dc.lft.to/lastmile_qr_scan", "android": "https://dc.lft.to/lastmile_qr_scan"}, "lon": -77.02992883333333, "bike_id": "c8b12c96c7c792aaa473a2f030fa8165", "type": "electric_scooter", "name": "c8b12c96c7c792aaa473a2f030fa8165"}, {"is_disabled": 0, "is_reserved": 0, "fusion_lat": 0.0, "lat": 38.90102866666667, "fusion_lon": 0.0, "rental_uris": {"ios": "https://dc.lft.to/lastmile_qr_scan", "android": "https://dc.lft.to/lastmile_qr_scan"}, "lon": -77.01813066666666, "bike_id": "47a6f7cf42e67e6e8c5cf27302b53cd1", "type": "electric_scooter", "name": "47a6f7cf42e67e6e8c5cf27302b53cd1"}, {"is_disabled": 0, "is_reserved": 0, "fusion_lat": 0.0, "lat": 38.9088275, "fusion_lon": 0.0, "rental_uris": {"ios": "https://dc.lft.to/lastmile_qr_scan", "android": "https://dc.lft.to/lastmile_qr_scan"}, "lon": -76.99815883333333, "bike_id": "81d65c90af4385d8188b4a9465a7402f", "type": "electric_scooter", "name": "81d65c90af4385d8188b4a9465a7402f"}, {"is_disabled": 0, "is_reserved": 0, "fusion_lat": 0.0, "lat": 38.91056916666667, "fusion_lon": 0.0, "rental_uris": {"ios": "https://dc.lft.to/lastmile_qr_scan", "android": "https://dc.lft.to/lastmile_qr_scan"}, "lon": -77.044916, "bike_id": "e40e1a4f234936f45e543a603908d7ef", "type": "electric_scooter", "name": "e40e1a4f234936f45e543a603908d7ef"}, {"is_disabled": 0, "is_reserved": 0, "fusion_lat": 0.0, "lat": 38.905896, "fusion_lon": 0.0, "rental_uris": {"ios": "https://dc.lft.to/lastmile_qr_scan", "android": "https://dc.lft.to/lastmile_qr_scan"}, "lon": -77.12884783333334, "bike_id": "354140075c005b08470462c57354114c", "type": "electric_bike", "name": "354140075c005b08470462c57354114c"}, {"is_disabled": 0, "is_reserved": 0, "fusion_lat": 0.0, "lat": 38.90400666666667, "fusion_lon": 0.0, "rental_uris": {"ios": "https://dc.lft.to/lastmile_qr_scan", "android": "https://dc.lft.to/lastmile_qr_scan"}, "lon": -77.024805, "bike_id": "6dc9ae9e92ca51a1b44d6847af91bfda", "type": "electric_scooter", "name": "6dc9ae9e92ca51a1b44d6847af91bfda"}, {"is_disabled": 0, "is_reserved": 0, "fusion_lat": 0.0, "lat": 38.900201, "fusion_lon": 0.0, "rental_uris": {"ios": "https://dc.lft.to/lastmile_qr_scan", "android": "https://dc.lft.to/lastmile_qr_scan"}, "lon": -77.00367133333333, "bike_id": "ed0c0b91475f5dca9337f5d68503d95f", "type": "electric_scooter", "name": "ed0c0b91475f5dca9337f5d68503d95f"}, {"is_disabled": 0, "is_reserved": 0, "fusion_lat": 0.0, "lat": 38.91041033333333, "fusion_lon": 0.0, "rental_uris": {"ios": "https://dc.lft.to/lastmile_qr_scan", "android": "https://dc.lft.to/lastmile_qr_scan"}, "lon": -77.0371335, "bike_id": "e4a4a7c7f3af0e935f601466cd303cd5", "type": "electric_scooter", "name": "e4a4a7c7f3af0e935f601466cd303cd5"}, {"is_disabled": 0, "is_reserved": 0, "fusion_lat": 0.0, "lat": 38.9237165, "fusion_lon": 0.0, "rental_uris": {"ios": "https://dc.lft.to/lastmile_qr_scan", "android": "https://dc.lft.to/lastmile_qr_scan"}, "lon": -77.040402, "bike_id": "41b05fdce66ea8daa28f98c5cab4e1b8", "type": "electric_scooter", "name": "41b05fdce66ea8daa28f98c5cab4e1b8"}, {"is_disabled": 0, "is_reserved": 0, "fusion_lat": 0.0, "lat": 38.93434766666667, "fusion_lon": 0.0, "rental_uris": {"ios": "https://dc.lft.to/lastmile_qr_scan", "android": "https://dc.lft.to/lastmile_qr_scan"}, "lon": -77.04314016666666, "bike_id": "299e3e745cee7cd00131a2f37d59e138", "type": "electric_scooter", "name": "299e3e745cee7cd00131a2f37d59e138"}, {"is_disabled": 0, "is_reserved": 0, "fusion_lat": 0.0, "lat": 38.8067335, "fusion_lon": 0.0, "rental_uris": {"ios": "https://dc.lft.to/lastmile_qr_scan", "android": "https://dc.lft.to/lastmile_qr_scan"}, "lon": -77.069147, "bike_id": "065036d50980c2c34616ac98602b68fd", "type": "electric_bike", "name": "065036d50980c2c34616ac98602b68fd"}, {"is_disabled": 0, "is_reserved": 0, "fusion_lat": 0.0, "lat": 38.91816466666667, "fusion_lon": 0.0, "rental_uris": {"ios": "https://dc.lft.to/lastmile_qr_scan", "android": "https://dc.lft.to/lastmile_qr_scan"}, "lon": -77.02704716666666, "bike_id": "e0868d99263c35b2562cacd27c45e9e0", "type": "electric_scooter", "name": "e0868d99263c35b2562cacd27c45e9e0"}, {"is_disabled": 0, "is_reserved": 0, "fusion_lat": 0.0, "lat": 38.9067835, "fusion_lon": 0.0, "rental_uris": {"ios": "https://dc.lft.to/lastmile_qr_scan", "android": "https://dc.lft.to/lastmile_qr_scan"}, "lon": -77.04554733333333, "bike_id": "de6782b8c421443b07cae291c718a98d", "type": "electric_scooter", "name": "de6782b8c421443b07cae291c718a98d"}, {"is_disabled": 0, "is_reserved": 0, "fusion_lat": 0.0, "lat": 38.910483166666666, "fusion_lon": 0.0, "rental_uris": {"ios": "https://dc.lft.to/lastmile_qr_scan", "android": "https://dc.lft.to/lastmile_qr_scan"}, "lon": -77.01512533333333, "bike_id": "b766080407f9fb048f75508db98c9aad", "type": "electric_scooter", "name": "b766080407f9fb048f75508db98c9aad"}, {"is_disabled": 0, "is_reserved": 0, "fusion_lat": 0.0, "lat": 38.90694516666667, "fusion_lon": 0.0, "rental_uris": {"ios": "https://dc.lft.to/lastmile_qr_scan", "android": "https://dc.lft.to/lastmile_qr_scan"}, "lon": -77.06252233333333, "bike_id": "25b4a4913d2d2e164f14d99c12ee16a4", "type": "electric_scooter", "name": "25b4a4913d2d2e164f14d99c12ee16a4"}, {"is_disabled": 0, "is_reserved": 0, "fusion_lat": 0.0, "lat": 38.94589783333333, "fusion_lon": 0.0, "rental_uris": {"ios": "https://dc.lft.to/lastmile_qr_scan", "android": "https://dc.lft.to/lastmile_qr_scan"}, "lon": -77.02034283333333, "bike_id": "241815b9ec5ab7e7950e44e900b28fba", "type": "electric_scooter", "name": "241815b9ec5ab7e7950e44e900b28fba"}, {"is_disabled": 0, "is_reserved": 0, "fusion_lat": 0.0, "lat": 38.946348666666665, "fusion_lon": 0.0, "rental_uris": {"ios": "https://dc.lft.to/lastmile_qr_scan", "android": "https://dc.lft.to/lastmile_qr_scan"}, "lon": -77.018427, "bike_id": "338fe314fb6c573857f72d5933c42949", "type": "electric_scooter", "name": "338fe314fb6c573857f72d5933c42949"}, {"is_disabled": 0, "is_reserved": 0, "fusion_lat": 0.0, "lat": 38.893496666666664, "fusion_lon": 0.0, "rental_uris": {"ios": "https://dc.lft.to/lastmile_qr_scan", "android": "https://dc.lft.to/lastmile_qr_scan"}, "lon": -77.039676, "bike_id": "0ad8708e7bc4028c20ab657e07ce2693", "type": "electric_scooter", "name": "0ad8708e7bc4028c20ab657e07ce2693"}, {"is_disabled": 0, "is_reserved": 0, "fusion_lat": 0.0, "lat": 38.83612883333333, "fusion_lon": 0.0, "rental_uris": {"ios": "https://dc.lft.to/lastmile_qr_scan", "android": "https://dc.lft.to/lastmile_qr_scan"}, "lon": -77.00382533333334, "bike_id": "638dd7be6add4436a51f55daa1a0bae5", "type": "electric_bike", "name": "638dd7be6add4436a51f55daa1a0bae5"}, {"is_disabled": 0, "is_reserved": 0, "fusion_lat": 0.0, "lat": 38.92145333333333, "fusion_lon": 0.0, "rental_uris": {"ios": "https://dc.lft.to/lastmile_qr_scan", "android": "https://dc.lft.to/lastmile_qr_scan"}, "lon": -77.03508933333333, "bike_id": "9dc74cb7a4c849007ade665c6070fb33", "type": "electric_scooter", "name": "9dc74cb7a4c849007ade665c6070fb33"}, {"is_disabled": 0, "is_reserved": 0, "fusion_lat": 0.0, "lat": 38.82759933333333, "fusion_lon": 0.0, "rental_uris": {"ios": "https://dc.lft.to/lastmile_qr_scan", "android": "https://dc.lft.to/lastmile_qr_scan"}, "lon": -77.050302, "bike_id": "1bdbc3de44178541c9df09fb204373b7", "type": "electric_bike", "name": "1bdbc3de44178541c9df09fb204373b7"}, {"is_disabled": 0, "is_reserved": 0, "fusion_lat": 0.0, "lat": 38.92091116666667, "fusion_lon": 0.0, "rental_uris": {"ios": "https://dc.lft.to/lastmile_qr_scan", "android": "https://dc.lft.to/lastmile_qr_scan"}, "lon": -77.023207, "bike_id": "fe426c2673328e0f5d7aa333edeee1da", "type": "electric_scooter", "name": "fe426c2673328e0f5d7aa333edeee1da"}, {"is_disabled": 0, "is_reserved": 0, "fusion_lat": 0.0, "lat": 38.8626005, "fusion_lon": 0.0, "rental_uris": {"ios": "https://dc.lft.to/lastmile_qr_scan", "android": "https://dc.lft.to/lastmile_qr_scan"}, "lon": -76.9835235, "bike_id": "f58ca05bf6578c4fd88dc6568794cb51", "type": "electric_bike", "name": "f58ca05bf6578c4fd88dc6568794cb51"}, {"is_disabled": 0, "is_reserved": 0, "fusion_lat": 0.0, "lat": 38.916367, "fusion_lon": 0.0, "rental_uris": {"ios": "https://dc.lft.to/lastmile_qr_scan", "android": "https://dc.lft.to/lastmile_qr_scan"}, "lon": -77.04122633333333, "bike_id": "d70aa4572a7862a276f6a11b1b9a0855", "type": "electric_scooter", "name": "d70aa4572a7862a276f6a11b1b9a0855"}, {"is_disabled": 0, "is_reserved": 0, "fusion_lat": 0.0, "lat": 38.91536683333333, "fusion_lon": 0.0, "rental_uris": {"ios": "https://dc.lft.to/lastmile_qr_scan", "android": "https://dc.lft.to/lastmile_qr_scan"}, "lon": -77.04617233333333, "bike_id": "31b03c45cf3e1f226a7537e4c04b7899", "type": "electric_scooter", "name": "31b03c45cf3e1f226a7537e4c04b7899"}, {"is_disabled": 0, "is_reserved": 0, "fusion_lat": 0.0, "lat": 38.892223, "fusion_lon": 0.0, "rental_uris": {"ios": "https://dc.lft.to/lastmile_qr_scan", "android": "https://dc.lft.to/lastmile_qr_scan"}, "lon": -77.0436615, "bike_id": "c585f831956b079eb2ce3b22eee5a20f", "type": "electric_scooter", "name": "c585f831956b079eb2ce3b22eee5a20f"}, {"is_disabled": 0, "is_reserved": 0, "fusion_lat": 0.0, "lat": 38.915531333333334, "fusion_lon": 0.0, "rental_uris": {"ios": "https://dc.lft.to/lastmile_qr_scan", "android": "https://dc.lft.to/lastmile_qr_scan"}, "lon": -77.02134183333334, "bike_id": "11beb15484a8ff191006e8321fcf067b", "type": "electric_scooter", "name": "11beb15484a8ff191006e8321fcf067b"}, {"is_disabled": 0, "is_reserved": 0, "fusion_lat": 0.0, "lat": 38.915818333333334, "fusion_lon": 0.0, "rental_uris": {"ios": "https://dc.lft.to/lastmile_qr_scan", "android": "https://dc.lft.to/lastmile_qr_scan"}, "lon": -77.067811, "bike_id": "a6d925e2ab01407556aff499878cf730", "type": "electric_scooter", "name": "a6d925e2ab01407556aff499878cf730"}, {"is_disabled": 0, "is_reserved": 0, "fusion_lat": 0.0, "lat": 38.9023095, "fusion_lon": 0.0, "rental_uris": {"ios": "https://dc.lft.to/lastmile_qr_scan", "android": "https://dc.lft.to/lastmile_qr_scan"}, "lon": -77.03210283333334, "bike_id": "a181505e7ab10ba5bedf03399502549a", "type": "electric_scooter", "name": "a181505e7ab10ba5bedf03399502549a"}, {"is_disabled": 0, "is_reserved": 0, "fusion_lat": 0.0, "lat": 38.9265445, "fusion_lon": 0.0, "rental_uris": {"ios": "https://dc.lft.to/lastmile_qr_scan", "android": "https://dc.lft.to/lastmile_qr_scan"}, "lon": -77.024311, "bike_id": "f5847b3bc65e63f7f2284a7683e93d7c", "type": "electric_scooter", "name": "f5847b3bc65e63f7f2284a7683e93d7c"}, {"is_disabled": 0, "is_reserved": 0, "fusion_lat": 0.0, "lat": 38.92378083333333, "fusion_lon": 0.0, "rental_uris": {"ios": "https://dc.lft.to/lastmile_qr_scan", "android": "https://dc.lft.to/lastmile_qr_scan"}, "lon": -77.02677733333333, "bike_id": "e5201e7cc1fec0c6d21df58239c0a63b", "type": "electric_scooter", "name": "e5201e7cc1fec0c6d21df58239c0a63b"}, {"is_disabled": 0, "is_reserved": 0, "fusion_lat": 0.0, "lat": 38.901898333333335, "fusion_lon": 0.0, "rental_uris": {"ios": "https://dc.lft.to/lastmile_qr_scan", "android": "https://dc.lft.to/lastmile_qr_scan"}, "lon": -77.05081533333333, "bike_id": "e4e8f0d3ea5a3070aa31cd844d0c13fb", "type": "electric_scooter", "name": "e4e8f0d3ea5a3070aa31cd844d0c13fb"}, {"is_disabled": 0, "is_reserved": 0, "fusion_lat": 0.0, "lat": 38.9472385, "fusion_lon": 0.0, "rental_uris": {"ios": "https://dc.lft.to/lastmile_qr_scan", "android": "https://dc.lft.to/lastmile_qr_scan"}, "lon": -77.0235615, "bike_id": "9934c04edf33c8b51b0ef821922fce0d", "type": "electric_scooter", "name": "9934c04edf33c8b51b0ef821922fce0d"}, {"is_disabled": 0, "is_reserved": 0, "fusion_lat": 0.0, "lat": 38.9133205, "fusion_lon": 0.0, "rental_uris": {"ios": "https://dc.lft.to/lastmile_qr_scan", "android": "https://dc.lft.to/lastmile_qr_scan"}, "lon": -77.03127016666667, "bike_id": "514914d3a91ed0bf7a8174731bad9699", "type": "electric_scooter", "name": "514914d3a91ed0bf7a8174731bad9699"}, {"is_disabled": 0, "is_reserved": 0, "fusion_lat": 0.0, "lat": 38.925456833333335, "fusion_lon": 0.0, "rental_uris": {"ios": "https://dc.lft.to/lastmile_qr_scan", "android": "https://dc.lft.to/lastmile_qr_scan"}, "lon": -77.022799, "bike_id": "1c4806e50fb73616010bad7d3db0004b", "type": "electric_scooter", "name": "1c4806e50fb73616010bad7d3db0004b"}, {"is_disabled": 0, "is_reserved": 0, "fusion_lat": 0.0, "lat": 38.91818466666667, "fusion_lon": 0.0, "rental_uris": {"ios": "https://dc.lft.to/lastmile_qr_scan", "android": "https://dc.lft.to/lastmile_qr_scan"}, "lon": -77.02527216666667, "bike_id": "4ca7c6d25eeef7b71112fd3a85c687ea", "type": "electric_scooter", "name": "4ca7c6d25eeef7b71112fd3a85c687ea"}, {"is_disabled": 0, "is_reserved": 0, "fusion_lat": 0.0, "lat": 38.91792683333333, "fusion_lon": 0.0, "rental_uris": {"ios": "https://dc.lft.to/lastmile_qr_scan", "android": "https://dc.lft.to/lastmile_qr_scan"}, "lon": -77.0247265, "bike_id": "91d1714b5d44e7aca7114b2517ffe8d0", "type": "electric_scooter", "name": "91d1714b5d44e7aca7114b2517ffe8d0"}, {"is_disabled": 0, "is_reserved": 0, "fusion_lat": 0.0, "lat": 38.909615333333335, "fusion_lon": 0.0, "rental_uris": {"ios": "https://dc.lft.to/lastmile_qr_scan", "android": "https://dc.lft.to/lastmile_qr_scan"}, "lon": -77.034205, "bike_id": "fd8a18ad650d0fed3d26eb7b94ecc30f", "type": "electric_scooter", "name": "fd8a18ad650d0fed3d26eb7b94ecc30f"}, {"is_disabled": 0, "is_reserved": 0, "fusion_lat": 0.0, "lat": 38.9116335, "fusion_lon": 0.0, "rental_uris": {"ios": "https://dc.lft.to/lastmile_qr_scan", "android": "https://dc.lft.to/lastmile_qr_scan"}, "lon": -77.02383133333333, "bike_id": "daf0c2c353dae7ecd255001dabbcb6f9", "type": "electric_scooter", "name": "daf0c2c353dae7ecd255001dabbcb6f9"}, {"is_disabled": 0, "is_reserved": 0, "fusion_lat": 0.0, "lat": 38.912147, "fusion_lon": 0.0, "rental_uris": {"ios": "https://dc.lft.to/lastmile_qr_scan", "android": "https://dc.lft.to/lastmile_qr_scan"}, "lon": -77.02102333333333, "bike_id": "6ba27bea0f052afd2b9cdd7eaa763140", "type": "electric_scooter", "name": "6ba27bea0f052afd2b9cdd7eaa763140"}, {"is_disabled": 0, "is_reserved": 0, "fusion_lat": 0.0, "lat": 38.91818266666667, "fusion_lon": 0.0, "rental_uris": {"ios": "https://dc.lft.to/lastmile_qr_scan", "android": "https://dc.lft.to/lastmile_qr_scan"}, "lon": -77.02523933333333, "bike_id": "bbd4eb4fe3f4b0c1f0f397f0b44e91c2", "type": "electric_scooter", "name": "bbd4eb4fe3f4b0c1f0f397f0b44e91c2"}, {"is_disabled": 0, "is_reserved": 0, "fusion_lat": 0.0, "lat": 38.909902, "fusion_lon": 0.0, "rental_uris": {"ios": "https://dc.lft.to/lastmile_qr_scan", "android": "https://dc.lft.to/lastmile_qr_scan"}, "lon": -77.0338315, "bike_id": "4af1e0d62033d671502e8ecc74cccaac", "type": "electric_scooter", "name": "4af1e0d62033d671502e8ecc74cccaac"}, {"is_disabled": 0, "is_reserved": 0, "fusion_lat": 0.0, "lat": 38.907104, "fusion_lon": 0.0, "rental_uris": {"ios": "https://dc.lft.to/lastmile_qr_scan", "android": "https://dc.lft.to/lastmile_qr_scan"}, "lon": -77.03208683333334, "bike_id": "b854d025c35c8ca4110b13543325bd0e", "type": "electric_scooter", "name": "b854d025c35c8ca4110b13543325bd0e"}, {"is_disabled": 0, "is_reserved": 0, "fusion_lat": 0.0, "lat": 38.921589833333336, "fusion_lon": 0.0, "rental_uris": {"ios": "https://dc.lft.to/lastmile_qr_scan", "android": "https://dc.lft.to/lastmile_qr_scan"}, "lon": -77.03668483333334, "bike_id": "2f5fc2cd56d8eb507109179133960d50", "type": "electric_scooter", "name": "2f5fc2cd56d8eb507109179133960d50"}, {"is_disabled": 0, "is_reserved": 0, "fusion_lat": 0.0, "lat": 38.893539, "fusion_lon": 0.0, "rental_uris": {"ios": "https://dc.lft.to/lastmile_qr_scan", "android": "https://dc.lft.to/lastmile_qr_scan"}, "lon": -76.99212766666666, "bike_id": "c54cc1a4e719c807b6c1e45eff3fc8e6", "type": "electric_scooter", "name": "c54cc1a4e719c807b6c1e45eff3fc8e6"}, {"is_disabled": 0, "is_reserved": 0, "fusion_lat": 0.0, "lat": 38.9072105, "fusion_lon": 0.0, "rental_uris": {"ios": "https://dc.lft.to/lastmile_qr_scan", "android": "https://dc.lft.to/lastmile_qr_scan"}, "lon": -77.05311033333334, "bike_id": "3d9ec9f9789d028c0ecd2c7af53e7ae9", "type": "electric_scooter", "name": "3d9ec9f9789d028c0ecd2c7af53e7ae9"}, {"is_disabled": 0, "is_reserved": 0, "fusion_lat": 0.0, "lat": 38.92637716666667, "fusion_lon": 0.0, "rental_uris": {"ios": "https://dc.lft.to/lastmile_qr_scan", "android": "https://dc.lft.to/lastmile_qr_scan"}, "lon": -77.037005, "bike_id": "d08d3365bc4d480c0e177e4bd24e135e", "type": "electric_scooter", "name": "d08d3365bc4d480c0e177e4bd24e135e"}, {"is_disabled": 0, "is_reserved": 0, "fusion_lat": 0.0, "lat": 38.887372, "fusion_lon": 0.0, "rental_uris": {"ios": "https://dc.lft.to/lastmile_qr_scan", "android": "https://dc.lft.to/lastmile_qr_scan"}, "lon": -77.031833, "bike_id": "77e999aa0201483d63414fe5f4f19912", "type": "electric_scooter", "name": "77e999aa0201483d63414fe5f4f19912"}, {"is_disabled": 0, "is_reserved": 0, "fusion_lat": 0.0, "lat": 38.905412, "fusion_lon": 0.0, "rental_uris": {"ios": "https://dc.lft.to/lastmile_qr_scan", "android": "https://dc.lft.to/lastmile_qr_scan"}, "lon": -77.02191216666667, "bike_id": "d9db924c78743dc540e7003da597e136", "type": "electric_scooter", "name": "d9db924c78743dc540e7003da597e136"}, {"is_disabled": 0, "is_reserved": 0, "fusion_lat": 0.0, "lat": 38.89387516666667, "fusion_lon": 0.0, "rental_uris": {"ios": "https://dc.lft.to/lastmile_qr_scan", "android": "https://dc.lft.to/lastmile_qr_scan"}, "lon": -76.92307383333333, "bike_id": "64a52479073e3245b34b32762c3d46e8", "type": "electric_scooter", "name": "64a52479073e3245b34b32762c3d46e8"}, {"is_disabled": 0, "is_reserved": 0, "fusion_lat": 0.0, "lat": 38.93359516666666, "fusion_lon": 0.0, "rental_uris": {"ios": "https://dc.lft.to/lastmile_qr_scan", "android": "https://dc.lft.to/lastmile_qr_scan"}, "lon": -77.07287683333334, "bike_id": "c7a0e5e11d91f4e84a822ef8bf1af492", "type": "electric_scooter", "name": "c7a0e5e11d91f4e84a822ef8bf1af492"}, {"is_disabled": 0, "is_reserved": 0, "fusion_lat": 0.0, "lat": 38.930857833333334, "fusion_lon": 0.0, "rental_uris": {"ios": "https://dc.lft.to/lastmile_qr_scan", "android": "https://dc.lft.to/lastmile_qr_scan"}, "lon": -77.032354, "bike_id": "eb2f605773a45241fc90f593a4494a99", "type": "electric_scooter", "name": "eb2f605773a45241fc90f593a4494a99"}, {"is_disabled": 0, "is_reserved": 0, "fusion_lat": 0.0, "lat": 38.91243633333333, "fusion_lon": 0.0, "rental_uris": {"ios": "https://dc.lft.to/lastmile_qr_scan", "android": "https://dc.lft.to/lastmile_qr_scan"}, "lon": -77.04764016666667, "bike_id": "b5e5ade76c21a601a958ed80b632b549", "type": "electric_scooter", "name": "b5e5ade76c21a601a958ed80b632b549"}, {"is_disabled": 0, "is_reserved": 0, "fusion_lat": 0.0, "lat": 38.90523966666667, "fusion_lon": 0.0, "rental_uris": {"ios": "https://dc.lft.to/lastmile_qr_scan", "android": "https://dc.lft.to/lastmile_qr_scan"}, "lon": -77.06516116666667, "bike_id": "86b8158114397d7ee7bc133262212cf4", "type": "electric_scooter", "name": "86b8158114397d7ee7bc133262212cf4"}, {"is_disabled": 0, "is_reserved": 0, "fusion_lat": 0.0, "lat": 38.923253, "fusion_lon": 0.0, "rental_uris": {"ios": "https://dc.lft.to/lastmile_qr_scan", "android": "https://dc.lft.to/lastmile_qr_scan"}, "lon": -77.0362015, "bike_id": "7e8aec0b4622ddb86470540af2cea608", "type": "electric_scooter", "name": "7e8aec0b4622ddb86470540af2cea608"}, {"is_disabled": 0, "is_reserved": 0, "fusion_lat": 0.0, "lat": 38.894862, "fusion_lon": 0.0, "rental_uris": {"ios": "https://dc.lft.to/lastmile_qr_scan", "android": "https://dc.lft.to/lastmile_qr_scan"}, "lon": -77.02297, "bike_id": "377ccf83bfa68acf5d308c636434de59", "type": "electric_scooter", "name": "377ccf83bfa68acf5d308c636434de59"}, {"is_disabled": 0, "is_reserved": 0, "fusion_lat": 0.0, "lat": 38.896524, "fusion_lon": 0.0, "rental_uris": {"ios": "https://dc.lft.to/lastmile_qr_scan", "android": "https://dc.lft.to/lastmile_qr_scan"}, "lon": -77.03209366666667, "bike_id": "b99d9d6baa0fc514a9c90caf04144cdf", "type": "electric_scooter", "name": "b99d9d6baa0fc514a9c90caf04144cdf"}, {"is_disabled": 0, "is_reserved": 0, "fusion_lat": 0.0, "lat": 38.896469333333336, "fusion_lon": 0.0, "rental_uris": {"ios": "https://dc.lft.to/lastmile_qr_scan", "android": "https://dc.lft.to/lastmile_qr_scan"}, "lon": -77.02565783333333, "bike_id": "d15b7feacc5a74480657f3ef2eec741d", "type": "electric_scooter", "name": "d15b7feacc5a74480657f3ef2eec741d"}, {"is_disabled": 0, "is_reserved": 0, "fusion_lat": 0.0, "lat": 38.93073416666667, "fusion_lon": 0.0, "rental_uris": {"ios": "https://dc.lft.to/lastmile_qr_scan", "android": "https://dc.lft.to/lastmile_qr_scan"}, "lon": -77.02637966666667, "bike_id": "657341b864148ff6959f8734536da1c3", "type": "electric_scooter", "name": "657341b864148ff6959f8734536da1c3"}, {"is_disabled": 0, "is_reserved": 0, "fusion_lat": 0.0, "lat": 38.90244716666667, "fusion_lon": 0.0, "rental_uris": {"ios": "https://dc.lft.to/lastmile_qr_scan", "android": "https://dc.lft.to/lastmile_qr_scan"}, "lon": -77.05198083333333, "bike_id": "31d92d905919825f10f8ef69e16319a0", "type": "electric_scooter", "name": "31d92d905919825f10f8ef69e16319a0"}, {"is_disabled": 0, "is_reserved": 0, "fusion_lat": 0.0, "lat": 38.82038466666667, "fusion_lon": 0.0, "rental_uris": {"ios": "https://dc.lft.to/lastmile_qr_scan", "android": "https://dc.lft.to/lastmile_qr_scan"}, "lon": -77.054595, "bike_id": "abbacc00eac5115264437a805541650b", "type": "electric_bike", "name": "abbacc00eac5115264437a805541650b"}, {"is_disabled": 0, "is_reserved": 0, "fusion_lat": 0.0, "lat": 38.9127165, "fusion_lon": 0.0, "rental_uris": {"ios": "https://dc.lft.to/lastmile_qr_scan", "android": "https://dc.lft.to/lastmile_qr_scan"}, "lon": -77.03216416666666, "bike_id": "ed3ca2ec80328420225c6846f18e65bd", "type": "electric_scooter", "name": "ed3ca2ec80328420225c6846f18e65bd"}, {"is_disabled": 0, "is_reserved": 0, "fusion_lat": 0.0, "lat": 38.91820233333333, "fusion_lon": 0.0, "rental_uris": {"ios": "https://dc.lft.to/lastmile_qr_scan", "android": "https://dc.lft.to/lastmile_qr_scan"}, "lon": -77.037938, "bike_id": "37ff47e3ce3b3596b83c4d304747a55e", "type": "electric_scooter", "name": "37ff47e3ce3b3596b83c4d304747a55e"}, {"is_disabled": 0, "is_reserved": 0, "fusion_lat": 0.0, "lat": 38.9225635, "fusion_lon": 0.0, "rental_uris": {"ios": "https://dc.lft.to/lastmile_qr_scan", "android": "https://dc.lft.to/lastmile_qr_scan"}, "lon": -77.04289516666667, "bike_id": "bc852c0ae4f704ef10d0e391467c9578", "type": "electric_scooter", "name": "bc852c0ae4f704ef10d0e391467c9578"}, {"is_disabled": 0, "is_reserved": 0, "fusion_lat": 0.0, "lat": 38.832959333333335, "fusion_lon": 0.0, "rental_uris": {"ios": "https://dc.lft.to/lastmile_qr_scan", "android": "https://dc.lft.to/lastmile_qr_scan"}, "lon": -77.08411133333334, "bike_id": "d65ccb8d11a7711377fa110b5599f483", "type": "electric_bike", "name": "d65ccb8d11a7711377fa110b5599f483"}, {"is_disabled": 0, "is_reserved": 0, "fusion_lat": 0.0, "lat": 38.92639916666667, "fusion_lon": 0.0, "rental_uris": {"ios": "https://dc.lft.to/lastmile_qr_scan", "android": "https://dc.lft.to/lastmile_qr_scan"}, "lon": -77.03703916666667, "bike_id": "c35fb470205db1c40ec9cafce52b0158", "type": "electric_scooter", "name": "c35fb470205db1c40ec9cafce52b0158"}, {"is_disabled": 0, "is_reserved": 0, "fusion_lat": 0.0, "lat": 38.92074866666667, "fusion_lon": 0.0, "rental_uris": {"ios": "https://dc.lft.to/lastmile_qr_scan", "android": "https://dc.lft.to/lastmile_qr_scan"}, "lon": -77.02518233333333, "bike_id": "6def6e9f2dcd20193c06fae64544d574", "type": "electric_scooter", "name": "6def6e9f2dcd20193c06fae64544d574"}, {"is_disabled": 0, "is_reserved": 0, "fusion_lat": 0.0, "lat": 38.902668166666665, "fusion_lon": 0.0, "rental_uris": {"ios": "https://dc.lft.to/lastmile_qr_scan", "android": "https://dc.lft.to/lastmile_qr_scan"}, "lon": -77.039662, "bike_id": "63386252d46c41db91fe843f2de0908c", "type": "electric_scooter", "name": "63386252d46c41db91fe843f2de0908c"}, {"is_disabled": 0, "is_reserved": 0, "fusion_lat": 0.0, "lat": 38.9043755, "fusion_lon": 0.0, "rental_uris": {"ios": "https://dc.lft.to/lastmile_qr_scan", "android": "https://dc.lft.to/lastmile_qr_scan"}, "lon": -76.97229416666667, "bike_id": "943cf23004519f9d2123c51bb9f65821", "type": "electric_bike", "name": "943cf23004519f9d2123c51bb9f65821"}, {"is_disabled": 0, "is_reserved": 0, "fusion_lat": 0.0, "lat": 38.89849816666667, "fusion_lon": 0.0, "rental_uris": {"ios": "https://dc.lft.to/lastmile_qr_scan", "android": "https://dc.lft.to/lastmile_qr_scan"}, "lon": -76.92748083333333, "bike_id": "41f93876ab6372b97982dabbca8a05cc", "type": "electric_scooter", "name": "41f93876ab6372b97982dabbca8a05cc"}, {"is_disabled": 0, "is_reserved": 0, "fusion_lat": 0.0, "lat": 38.883743833333334, "fusion_lon": 0.0, "rental_uris": {"ios": "https://dc.lft.to/lastmile_qr_scan", "android": "https://dc.lft.to/lastmile_qr_scan"}, "lon": -76.99516333333334, "bike_id": "9244dd14efd8817345c0e72ed6f45a24", "type": "electric_scooter", "name": "9244dd14efd8817345c0e72ed6f45a24"}, {"is_disabled": 0, "is_reserved": 0, "fusion_lat": 0.0, "lat": 38.943459833333335, "fusion_lon": 0.0, "rental_uris": {"ios": "https://dc.lft.to/lastmile_qr_scan", "android": "https://dc.lft.to/lastmile_qr_scan"}, "lon": -77.06127266666667, "bike_id": "6d506dde2d856f68c522781514941d21", "type": "electric_scooter", "name": "6d506dde2d856f68c522781514941d21"}, {"is_disabled": 0, "is_reserved": 0, "fusion_lat": 0.0, "lat": 38.89411033333333, "fusion_lon": 0.0, "rental_uris": {"ios": "https://dc.lft.to/lastmile_qr_scan", "android": "https://dc.lft.to/lastmile_qr_scan"}, "lon": -77.02181083333333, "bike_id": "36b6beda5e352ab64ad3a516931f3a99", "type": "electric_scooter", "name": "36b6beda5e352ab64ad3a516931f3a99"}, {"is_disabled": 0, "is_reserved": 0, "fusion_lat": 0.0, "lat": 38.94977683333333, "fusion_lon": 0.0, "rental_uris": {"ios": "https://dc.lft.to/lastmile_qr_scan", "android": "https://dc.lft.to/lastmile_qr_scan"}, "lon": -77.024464, "bike_id": "44d5457ec2dc2826174143adb57d9385", "type": "electric_scooter", "name": "44d5457ec2dc2826174143adb57d9385"}, {"is_disabled": 0, "is_reserved": 0, "fusion_lat": 0.0, "lat": 38.9072, "fusion_lon": 0.0, "rental_uris": {"ios": "https://dc.lft.to/lastmile_qr_scan", "android": "https://dc.lft.to/lastmile_qr_scan"}, "lon": -77.03354316666666, "bike_id": "1a32ff371c436eb29c3cfe59de51e2d2", "type": "electric_scooter", "name": "1a32ff371c436eb29c3cfe59de51e2d2"}, {"is_disabled": 0, "is_reserved": 0, "fusion_lat": 0.0, "lat": 38.936990333333334, "fusion_lon": 0.0, "rental_uris": {"ios": "https://dc.lft.to/lastmile_qr_scan", "android": "https://dc.lft.to/lastmile_qr_scan"}, "lon": -77.0568325, "bike_id": "40a2bf00a85041163031870538ee28c1", "type": "electric_scooter", "name": "40a2bf00a85041163031870538ee28c1"}, {"is_disabled": 0, "is_reserved": 0, "fusion_lat": 0.0, "lat": 38.924397666666664, "fusion_lon": 0.0, "rental_uris": {"ios": "https://dc.lft.to/lastmile_qr_scan", "android": "https://dc.lft.to/lastmile_qr_scan"}, "lon": -77.04024466666667, "bike_id": "47a5cc0dc585048626c8f2f2641be3ed", "type": "electric_scooter", "name": "47a5cc0dc585048626c8f2f2641be3ed"}, {"is_disabled": 0, "is_reserved": 0, "fusion_lat": 0.0, "lat": 38.890162833333335, "fusion_lon": 0.0, "rental_uris": {"ios": "https://dc.lft.to/lastmile_qr_scan", "android": "https://dc.lft.to/lastmile_qr_scan"}, "lon": -76.937344, "bike_id": "7ce9dccf5e7f95f7b4a83d7f4ef6c62f", "type": "electric_scooter", "name": "7ce9dccf5e7f95f7b4a83d7f4ef6c62f"}, {"is_disabled": 0, "is_reserved": 0, "fusion_lat": 0.0, "lat": 38.88657283333333, "fusion_lon": 0.0, "rental_uris": {"ios": "https://dc.lft.to/lastmile_qr_scan", "android": "https://dc.lft.to/lastmile_qr_scan"}, "lon": -77.0338685, "bike_id": "5be3b9f00cba7a6dfba145522fcc0885", "type": "electric_scooter", "name": "5be3b9f00cba7a6dfba145522fcc0885"}, {"is_disabled": 0, "is_reserved": 0, "fusion_lat": 0.0, "lat": 38.8942855, "fusion_lon": 0.0, "rental_uris": {"ios": "https://dc.lft.to/lastmile_qr_scan", "android": "https://dc.lft.to/lastmile_qr_scan"}, "lon": -77.02129516666666, "bike_id": "20f82c9efa37b332166349d6073278de", "type": "electric_scooter", "name": "20f82c9efa37b332166349d6073278de"}, {"is_disabled": 0, "is_reserved": 0, "fusion_lat": 0.0, "lat": 38.9039955, "fusion_lon": 0.0, "rental_uris": {"ios": "https://dc.lft.to/lastmile_qr_scan", "android": "https://dc.lft.to/lastmile_qr_scan"}, "lon": -77.04172283333334, "bike_id": "75acefdd517c62b88fc66702d213aa10", "type": "electric_scooter", "name": "75acefdd517c62b88fc66702d213aa10"}, {"is_disabled": 0, "is_reserved": 0, "fusion_lat": 0.0, "lat": 38.935268, "fusion_lon": 0.0, "rental_uris": {"ios": "https://dc.lft.to/lastmile_qr_scan", "android": "https://dc.lft.to/lastmile_qr_scan"}, "lon": -77.0381535, "bike_id": "02feb0b9b11c0a0b406bf86f457f019f", "type": "electric_scooter", "name": "02feb0b9b11c0a0b406bf86f457f019f"}, {"is_disabled": 0, "is_reserved": 0, "fusion_lat": 0.0, "lat": 38.961727, "fusion_lon": 0.0, "rental_uris": {"ios": "https://dc.lft.to/lastmile_qr_scan", "android": "https://dc.lft.to/lastmile_qr_scan"}, "lon": -77.03227416666667, "bike_id": "05b8f3e09676dba6782bbef1451be348", "type": "electric_scooter", "name": "05b8f3e09676dba6782bbef1451be348"}, {"is_disabled": 0, "is_reserved": 0, "fusion_lat": 0.0, "lat": 38.948366, "fusion_lon": 0.0, "rental_uris": {"ios": "https://dc.lft.to/lastmile_qr_scan", "android": "https://dc.lft.to/lastmile_qr_scan"}, "lon": -77.07981283333334, "bike_id": "8527574df95474e4807c9df2cd5c496d", "type": "electric_scooter", "name": "8527574df95474e4807c9df2cd5c496d"}, {"is_disabled": 0, "is_reserved": 0, "fusion_lat": 0.0, "lat": 38.89660133333334, "fusion_lon": 0.0, "rental_uris": {"ios": "https://dc.lft.to/lastmile_qr_scan", "android": "https://dc.lft.to/lastmile_qr_scan"}, "lon": -77.05148016666666, "bike_id": "272afa80345bdf664e664522ad5171d2", "type": "electric_scooter", "name": "272afa80345bdf664e664522ad5171d2"}, {"is_disabled": 0, "is_reserved": 0, "fusion_lat": 0.0, "lat": 38.942557666666666, "fusion_lon": 0.0, "rental_uris": {"ios": "https://dc.lft.to/lastmile_qr_scan", "android": "https://dc.lft.to/lastmile_qr_scan"}, "lon": -76.98455033333333, "bike_id": "da6c4c8a7c7377888c1c9ccc818fff1f", "type": "electric_scooter", "name": "da6c4c8a7c7377888c1c9ccc818fff1f"}, {"is_disabled": 0, "is_reserved": 0, "fusion_lat": 0.0, "lat": 38.906951, "fusion_lon": 0.0, "rental_uris": {"ios": "https://dc.lft.to/lastmile_qr_scan", "android": "https://dc.lft.to/lastmile_qr_scan"}, "lon": -76.952542, "bike_id": "ce0a25411f1e34de4f26d3e492a3617e", "type": "electric_bike", "name": "ce0a25411f1e34de4f26d3e492a3617e"}, {"is_disabled": 0, "is_reserved": 0, "fusion_lat": 0.0, "lat": 38.90508533333333, "fusion_lon": 0.0, "rental_uris": {"ios": "https://dc.lft.to/lastmile_qr_scan", "android": "https://dc.lft.to/lastmile_qr_scan"}, "lon": -77.060162, "bike_id": "7ceb242c1973dc04ccf9af5872fc4602", "type": "electric_scooter", "name": "7ceb242c1973dc04ccf9af5872fc4602"}, {"is_disabled": 0, "is_reserved": 0, "fusion_lat": 0.0, "lat": 38.924435333333335, "fusion_lon": 0.0, "rental_uris": {"ios": "https://dc.lft.to/lastmile_qr_scan", "android": "https://dc.lft.to/lastmile_qr_scan"}, "lon": -77.0389335, "bike_id": "240b74604b39a9460fb21c72d0f37d98", "type": "electric_scooter", "name": "240b74604b39a9460fb21c72d0f37d98"}, {"is_disabled": 0, "is_reserved": 0, "fusion_lat": 0.0, "lat": 38.883590833333336, "fusion_lon": 0.0, "rental_uris": {"ios": "https://dc.lft.to/lastmile_qr_scan", "android": "https://dc.lft.to/lastmile_qr_scan"}, "lon": -76.95768083333333, "bike_id": "ee38272ec8ffca2096253eeddad41104", "type": "electric_scooter", "name": "ee38272ec8ffca2096253eeddad41104"}, {"is_disabled": 0, "is_reserved": 0, "fusion_lat": 0.0, "lat": 38.93043266666667, "fusion_lon": 0.0, "rental_uris": {"ios": "https://dc.lft.to/lastmile_qr_scan", "android": "https://dc.lft.to/lastmile_qr_scan"}, "lon": -77.01945533333334, "bike_id": "ae7d43d907484ef1a8bd9c7551aa3fe8", "type": "electric_scooter", "name": "ae7d43d907484ef1a8bd9c7551aa3fe8"}, {"is_disabled": 0, "is_reserved": 0, "fusion_lat": 0.0, "lat": 38.92002466666667, "fusion_lon": 0.0, "rental_uris": {"ios": "https://dc.lft.to/lastmile_qr_scan", "android": "https://dc.lft.to/lastmile_qr_scan"}, "lon": -77.04744816666667, "bike_id": "483a4090af622a81e1b4c3be2c265021", "type": "electric_scooter", "name": "483a4090af622a81e1b4c3be2c265021"}, {"is_disabled": 0, "is_reserved": 0, "fusion_lat": 0.0, "lat": 38.89231766666666, "fusion_lon": 0.0, "rental_uris": {"ios": "https://dc.lft.to/lastmile_qr_scan", "android": "https://dc.lft.to/lastmile_qr_scan"}, "lon": -77.05001933333334, "bike_id": "3785c27b3b0d1ce20af61ff9e1dba1b6", "type": "electric_scooter", "name": "3785c27b3b0d1ce20af61ff9e1dba1b6"}, {"is_disabled": 0, "is_reserved": 0, "fusion_lat": 0.0, "lat": 38.912280333333335, "fusion_lon": 0.0, "rental_uris": {"ios": "https://dc.lft.to/lastmile_qr_scan", "android": "https://dc.lft.to/lastmile_qr_scan"}, "lon": -77.06404183333333, "bike_id": "cf5729bb04031d1a1588c329fc6deb4e", "type": "electric_scooter", "name": "cf5729bb04031d1a1588c329fc6deb4e"}, {"is_disabled": 0, "is_reserved": 0, "fusion_lat": 0.0, "lat": 38.8628445, "fusion_lon": 0.0, "rental_uris": {"ios": "https://dc.lft.to/lastmile_qr_scan", "android": "https://dc.lft.to/lastmile_qr_scan"}, "lon": -76.94516533333334, "bike_id": "3875c3dead62d1ff944869ab263657c5", "type": "electric_bike", "name": "3875c3dead62d1ff944869ab263657c5"}, {"is_disabled": 0, "is_reserved": 0, "fusion_lat": 0.0, "lat": 38.905530166666665, "fusion_lon": 0.0, "rental_uris": {"ios": "https://dc.lft.to/lastmile_qr_scan", "android": "https://dc.lft.to/lastmile_qr_scan"}, "lon": -77.062747, "bike_id": "1892a55d43cfddbe812780a317c23f1f", "type": "electric_scooter", "name": "1892a55d43cfddbe812780a317c23f1f"}, {"is_disabled": 0, "is_reserved": 0, "fusion_lat": 0.0, "lat": 38.9168145, "fusion_lon": 0.0, "rental_uris": {"ios": "https://dc.lft.to/lastmile_qr_scan", "android": "https://dc.lft.to/lastmile_qr_scan"}, "lon": -77.03188433333334, "bike_id": "70d345252fd4a278bd5a74c018faf05d", "type": "electric_scooter", "name": "70d345252fd4a278bd5a74c018faf05d"}, {"is_disabled": 0, "is_reserved": 0, "fusion_lat": 0.0, "lat": 38.92101666666667, "fusion_lon": 0.0, "rental_uris": {"ios": "https://dc.lft.to/lastmile_qr_scan", "android": "https://dc.lft.to/lastmile_qr_scan"}, "lon": -77.0421315, "bike_id": "9e3da5247db405b5ffeb4bdd54d487b4", "type": "electric_scooter", "name": "9e3da5247db405b5ffeb4bdd54d487b4"}, {"is_disabled": 0, "is_reserved": 0, "fusion_lat": 0.0, "lat": 38.90654683333333, "fusion_lon": 0.0, "rental_uris": {"ios": "https://dc.lft.to/lastmile_qr_scan", "android": "https://dc.lft.to/lastmile_qr_scan"}, "lon": -76.97942383333333, "bike_id": "11dc484475d7648b9ec9e38f57c786dd", "type": "electric_scooter", "name": "11dc484475d7648b9ec9e38f57c786dd"}, {"is_disabled": 0, "is_reserved": 0, "fusion_lat": 0.0, "lat": 38.91664016666667, "fusion_lon": 0.0, "rental_uris": {"ios": "https://dc.lft.to/lastmile_qr_scan", "android": "https://dc.lft.to/lastmile_qr_scan"}, "lon": -77.023875, "bike_id": "6fa42cb4d0d1e37281c2cc3a2c47f157", "type": "electric_scooter", "name": "6fa42cb4d0d1e37281c2cc3a2c47f157"}, {"is_disabled": 0, "is_reserved": 0, "fusion_lat": 0.0, "lat": 38.930651833333336, "fusion_lon": 0.0, "rental_uris": {"ios": "https://dc.lft.to/lastmile_qr_scan", "android": "https://dc.lft.to/lastmile_qr_scan"}, "lon": -77.02321783333333, "bike_id": "4b1c85eb00f575c51a0ce329445e052f", "type": "electric_scooter", "name": "4b1c85eb00f575c51a0ce329445e052f"}, {"is_disabled": 0, "is_reserved": 0, "fusion_lat": 0.0, "lat": 38.909575833333335, "fusion_lon": 0.0, "rental_uris": {"ios": "https://dc.lft.to/lastmile_qr_scan", "android": "https://dc.lft.to/lastmile_qr_scan"}, "lon": -77.04864016666667, "bike_id": "f313a43c946f22accde9933904216c50", "type": "electric_scooter", "name": "f313a43c946f22accde9933904216c50"}, {"is_disabled": 0, "is_reserved": 0, "fusion_lat": 0.0, "lat": 38.92810716666666, "fusion_lon": 0.0, "rental_uris": {"ios": "https://dc.lft.to/lastmile_qr_scan", "android": "https://dc.lft.to/lastmile_qr_scan"}, "lon": -77.02301583333333, "bike_id": "a482689e9d9a177263786cd77a17c08a", "type": "electric_scooter", "name": "a482689e9d9a177263786cd77a17c08a"}, {"is_disabled": 0, "is_reserved": 0, "fusion_lat": 0.0, "lat": 38.9418065, "fusion_lon": 0.0, "rental_uris": {"ios": "https://dc.lft.to/lastmile_qr_scan", "android": "https://dc.lft.to/lastmile_qr_scan"}, "lon": -77.02538033333333, "bike_id": "87c51830bb515e56a4c4a0e7ff58d746", "type": "electric_scooter", "name": "87c51830bb515e56a4c4a0e7ff58d746"}, {"is_disabled": 0, "is_reserved": 0, "fusion_lat": 0.0, "lat": 38.93174783333333, "fusion_lon": 0.0, "rental_uris": {"ios": "https://dc.lft.to/lastmile_qr_scan", "android": "https://dc.lft.to/lastmile_qr_scan"}, "lon": -77.02818516666666, "bike_id": "890c323bb92127afef4cd930516da299", "type": "electric_scooter", "name": "890c323bb92127afef4cd930516da299"}, {"is_disabled": 0, "is_reserved": 0, "fusion_lat": 0.0, "lat": 38.8758275, "fusion_lon": 0.0, "rental_uris": {"ios": "https://dc.lft.to/lastmile_qr_scan", "android": "https://dc.lft.to/lastmile_qr_scan"}, "lon": -77.2340895, "bike_id": "ae0d074e30956d780b91e515b14d9767", "type": "electric_bike", "name": "ae0d074e30956d780b91e515b14d9767"}, {"is_disabled": 0, "is_reserved": 0, "fusion_lat": 0.0, "lat": 38.91206533333333, "fusion_lon": 0.0, "rental_uris": {"ios": "https://dc.lft.to/lastmile_qr_scan", "android": "https://dc.lft.to/lastmile_qr_scan"}, "lon": -77.0380185, "bike_id": "cf4e910f2d6be1745e621f17f6f487ec", "type": "electric_scooter", "name": "cf4e910f2d6be1745e621f17f6f487ec"}, {"is_disabled": 0, "is_reserved": 0, "fusion_lat": 0.0, "lat": 38.91515733333333, "fusion_lon": 0.0, "rental_uris": {"ios": "https://dc.lft.to/lastmile_qr_scan", "android": "https://dc.lft.to/lastmile_qr_scan"}, "lon": -77.04493883333333, "bike_id": "715aeb3bad5663ac6f02122a5f85689c", "type": "electric_scooter", "name": "715aeb3bad5663ac6f02122a5f85689c"}, {"is_disabled": 0, "is_reserved": 0, "fusion_lat": 0.0, "lat": 38.88040566666667, "fusion_lon": 0.0, "rental_uris": {"ios": "https://dc.lft.to/lastmile_qr_scan", "android": "https://dc.lft.to/lastmile_qr_scan"}, "lon": -76.92723983333333, "bike_id": "1ee5ec2bddb8b6753ea70680253c1b16", "type": "electric_scooter", "name": "1ee5ec2bddb8b6753ea70680253c1b16"}, {"is_disabled": 0, "is_reserved": 0, "fusion_lat": 0.0, "lat": 38.870713, "fusion_lon": 0.0, "rental_uris": {"ios": "https://dc.lft.to/lastmile_qr_scan", "android": "https://dc.lft.to/lastmile_qr_scan"}, "lon": -76.98132966666667, "bike_id": "35336b115d2c4508e3c6aad59b7963d7", "type": "electric_scooter", "name": "35336b115d2c4508e3c6aad59b7963d7"}, {"is_disabled": 0, "is_reserved": 0, "fusion_lat": 0.0, "lat": 38.895425, "fusion_lon": 0.0, "rental_uris": {"ios": "https://dc.lft.to/lastmile_qr_scan", "android": "https://dc.lft.to/lastmile_qr_scan"}, "lon": -77.02176833333333, "bike_id": "d0e3e215cf88225170a0bade3be4f3be", "type": "electric_scooter", "name": "d0e3e215cf88225170a0bade3be4f3be"}, {"is_disabled": 0, "is_reserved": 0, "fusion_lat": 0.0, "lat": 38.927785166666666, "fusion_lon": 0.0, "rental_uris": {"ios": "https://dc.lft.to/lastmile_qr_scan", "android": "https://dc.lft.to/lastmile_qr_scan"}, "lon": -77.02742683333334, "bike_id": "35a00cb0ae9b982a1238fea08f22d6f7", "type": "electric_scooter", "name": "35a00cb0ae9b982a1238fea08f22d6f7"}, {"is_disabled": 0, "is_reserved": 0, "fusion_lat": 0.0, "lat": 38.914414, "fusion_lon": 0.0, "rental_uris": {"ios": "https://dc.lft.to/lastmile_qr_scan", "android": "https://dc.lft.to/lastmile_qr_scan"}, "lon": -77.02286466666666, "bike_id": "71cbb929e768f15c37ecc3db93b40153", "type": "electric_scooter", "name": "71cbb929e768f15c37ecc3db93b40153"}, {"is_disabled": 0, "is_reserved": 0, "fusion_lat": 0.0, "lat": 38.9178145, "fusion_lon": 0.0, "rental_uris": {"ios": "https://dc.lft.to/lastmile_qr_scan", "android": "https://dc.lft.to/lastmile_qr_scan"}, "lon": -77.02342183333333, "bike_id": "6055650cf484da4dc13f7061ee879b39", "type": "electric_scooter", "name": "6055650cf484da4dc13f7061ee879b39"}, {"is_disabled": 0, "is_reserved": 0, "fusion_lat": 0.0, "lat": 38.900506666666665, "fusion_lon": 0.0, "rental_uris": {"ios": "https://dc.lft.to/lastmile_qr_scan", "android": "https://dc.lft.to/lastmile_qr_scan"}, "lon": -77.017269, "bike_id": "64909bb5c385b7673e045351736a6aa6", "type": "electric_scooter", "name": "64909bb5c385b7673e045351736a6aa6"}, {"is_disabled": 0, "is_reserved": 0, "fusion_lat": 0.0, "lat": 38.902383666666665, "fusion_lon": 0.0, "rental_uris": {"ios": "https://dc.lft.to/lastmile_qr_scan", "android": "https://dc.lft.to/lastmile_qr_scan"}, "lon": -77.02693, "bike_id": "3175d7a5b18083666a0d9cacba31f148", "type": "electric_scooter", "name": "3175d7a5b18083666a0d9cacba31f148"}, {"is_disabled": 0, "is_reserved": 0, "fusion_lat": 0.0, "lat": 38.90225983333333, "fusion_lon": 0.0, "rental_uris": {"ios": "https://dc.lft.to/lastmile_qr_scan", "android": "https://dc.lft.to/lastmile_qr_scan"}, "lon": -77.05336216666667, "bike_id": "7ac66fa37753cbf864b75c344dd90b7c", "type": "electric_scooter", "name": "7ac66fa37753cbf864b75c344dd90b7c"}, {"is_disabled": 0, "is_reserved": 0, "fusion_lat": 0.0, "lat": 38.9361805, "fusion_lon": 0.0, "rental_uris": {"ios": "https://dc.lft.to/lastmile_qr_scan", "android": "https://dc.lft.to/lastmile_qr_scan"}, "lon": -77.03876733333334, "bike_id": "0564149675fb686932c28674f3dc5f5c", "type": "electric_scooter", "name": "0564149675fb686932c28674f3dc5f5c"}, {"is_disabled": 0, "is_reserved": 0, "fusion_lat": 0.0, "lat": 38.909073, "fusion_lon": 0.0, "rental_uris": {"ios": "https://dc.lft.to/lastmile_qr_scan", "android": "https://dc.lft.to/lastmile_qr_scan"}, "lon": -76.99783116666667, "bike_id": "dc377a7c89b830a46520c7e05d933f6c", "type": "electric_scooter", "name": "dc377a7c89b830a46520c7e05d933f6c"}, {"is_disabled": 0, "is_reserved": 0, "fusion_lat": 0.0, "lat": 38.934149, "fusion_lon": 0.0, "rental_uris": {"ios": "https://dc.lft.to/lastmile_qr_scan", "android": "https://dc.lft.to/lastmile_qr_scan"}, "lon": -77.042778, "bike_id": "afa670b967bea754f4815c3c7746223b", "type": "electric_scooter", "name": "afa670b967bea754f4815c3c7746223b"}, {"is_disabled": 0, "is_reserved": 0, "fusion_lat": 0.0, "lat": 38.928649166666666, "fusion_lon": 0.0, "rental_uris": {"ios": "https://dc.lft.to/lastmile_qr_scan", "android": "https://dc.lft.to/lastmile_qr_scan"}, "lon": -77.02958466666666, "bike_id": "00284aec414ef6fe4ec17e380d866a18", "type": "electric_scooter", "name": "00284aec414ef6fe4ec17e380d866a18"}, {"is_disabled": 0, "is_reserved": 0, "fusion_lat": 0.0, "lat": 38.91057283333333, "fusion_lon": 0.0, "rental_uris": {"ios": "https://dc.lft.to/lastmile_qr_scan", "android": "https://dc.lft.to/lastmile_qr_scan"}, "lon": -77.0434795, "bike_id": "ec126bbf854ff3703aa100bf32c5c373", "type": "electric_scooter", "name": "ec126bbf854ff3703aa100bf32c5c373"}, {"is_disabled": 0, "is_reserved": 0, "fusion_lat": 0.0, "lat": 38.929878, "fusion_lon": 0.0, "rental_uris": {"ios": "https://dc.lft.to/lastmile_qr_scan", "android": "https://dc.lft.to/lastmile_qr_scan"}, "lon": -77.03473066666666, "bike_id": "4800302a9b883ce86e013699eb8194fa", "type": "electric_scooter", "name": "4800302a9b883ce86e013699eb8194fa"}, {"is_disabled": 0, "is_reserved": 0, "fusion_lat": 0.0, "lat": 38.88063316666667, "fusion_lon": 0.0, "rental_uris": {"ios": "https://dc.lft.to/lastmile_qr_scan", "android": "https://dc.lft.to/lastmile_qr_scan"}, "lon": -77.00579216666667, "bike_id": "625ab18945650c17b0fceafd4b9a41da", "type": "electric_scooter", "name": "625ab18945650c17b0fceafd4b9a41da"}, {"is_disabled": 0, "is_reserved": 0, "fusion_lat": 0.0, "lat": 38.921260833333335, "fusion_lon": 0.0, "rental_uris": {"ios": "https://dc.lft.to/lastmile_qr_scan", "android": "https://dc.lft.to/lastmile_qr_scan"}, "lon": -77.03659883333333, "bike_id": "d286abda27eb08d22b8b1126db1fb90b", "type": "electric_scooter", "name": "d286abda27eb08d22b8b1126db1fb90b"}, {"is_disabled": 0, "is_reserved": 0, "fusion_lat": 0.0, "lat": 38.884162833333335, "fusion_lon": 0.0, "rental_uris": {"ios": "https://dc.lft.to/lastmile_qr_scan", "android": "https://dc.lft.to/lastmile_qr_scan"}, "lon": -77.03047933333333, "bike_id": "653ac70f7999aa840fea90f676ba6a83", "type": "electric_scooter", "name": "653ac70f7999aa840fea90f676ba6a83"}, {"is_disabled": 0, "is_reserved": 0, "fusion_lat": 0.0, "lat": 38.87840883333333, "fusion_lon": 0.0, "rental_uris": {"ios": "https://dc.lft.to/lastmile_qr_scan", "android": "https://dc.lft.to/lastmile_qr_scan"}, "lon": -77.030275, "bike_id": "c824e8ee1631ef689b06ec361c5eea02", "type": "electric_bike", "name": "c824e8ee1631ef689b06ec361c5eea02"}, {"is_disabled": 0, "is_reserved": 0, "fusion_lat": 0.0, "lat": 38.91927366666667, "fusion_lon": 0.0, "rental_uris": {"ios": "https://dc.lft.to/lastmile_qr_scan", "android": "https://dc.lft.to/lastmile_qr_scan"}, "lon": -77.0341375, "bike_id": "4dd513026357d7a91100b55c8188d632", "type": "electric_scooter", "name": "4dd513026357d7a91100b55c8188d632"}, {"is_disabled": 0, "is_reserved": 0, "fusion_lat": 0.0, "lat": 38.85057316666666, "fusion_lon": 0.0, "rental_uris": {"ios": "https://dc.lft.to/lastmile_qr_scan", "android": "https://dc.lft.to/lastmile_qr_scan"}, "lon": -76.981683, "bike_id": "857ded3b9b1a37d9ccdcfea249b987a2", "type": "electric_bike", "name": "857ded3b9b1a37d9ccdcfea249b987a2"}, {"is_disabled": 0, "is_reserved": 0, "fusion_lat": 0.0, "lat": 38.84014, "fusion_lon": 0.0, "rental_uris": {"ios": "https://dc.lft.to/lastmile_qr_scan", "android": "https://dc.lft.to/lastmile_qr_scan"}, "lon": -76.988605, "bike_id": "670a870c356031896d052838b3045c22", "type": "electric_bike", "name": "670a870c356031896d052838b3045c22"}, {"is_disabled": 0, "is_reserved": 0, "fusion_lat": 0.0, "lat": 38.89499383333333, "fusion_lon": 0.0, "rental_uris": {"ios": "https://dc.lft.to/lastmile_qr_scan", "android": "https://dc.lft.to/lastmile_qr_scan"}, "lon": -76.9740965, "bike_id": "56771965c9602e189b1f08ab7c33466b", "type": "electric_scooter", "name": "56771965c9602e189b1f08ab7c33466b"}, {"is_disabled": 0, "is_reserved": 0, "fusion_lat": 0.0, "lat": 38.936089333333335, "fusion_lon": 0.0, "rental_uris": {"ios": "https://dc.lft.to/lastmile_qr_scan", "android": "https://dc.lft.to/lastmile_qr_scan"}, "lon": -77.05592733333333, "bike_id": "40d8b2584051091263f02614ed2e9864", "type": "electric_scooter", "name": "40d8b2584051091263f02614ed2e9864"}, {"is_disabled": 0, "is_reserved": 0, "fusion_lat": 0.0, "lat": 38.885477, "fusion_lon": 0.0, "rental_uris": {"ios": "https://dc.lft.to/lastmile_qr_scan", "android": "https://dc.lft.to/lastmile_qr_scan"}, "lon": -77.11688183333334, "bike_id": "4d72316b8c0b34ded1aceabdd5495806", "type": "electric_bike", "name": "4d72316b8c0b34ded1aceabdd5495806"}, {"is_disabled": 0, "is_reserved": 0, "fusion_lat": 0.0, "lat": 38.965821, "fusion_lon": 0.0, "rental_uris": {"ios": "https://dc.lft.to/lastmile_qr_scan", "android": "https://dc.lft.to/lastmile_qr_scan"}, "lon": -77.02757283333334, "bike_id": "907e5a753e0400d4668c364e8b6c68e5", "type": "electric_scooter", "name": "907e5a753e0400d4668c364e8b6c68e5"}, {"is_disabled": 0, "is_reserved": 0, "fusion_lat": 0.0, "lat": 38.932937, "fusion_lon": 0.0, "rental_uris": {"ios": "https://dc.lft.to/lastmile_qr_scan", "android": "https://dc.lft.to/lastmile_qr_scan"}, "lon": -77.02317016666667, "bike_id": "3855eba7dacc45ec6f12bef2a724853c", "type": "electric_scooter", "name": "3855eba7dacc45ec6f12bef2a724853c"}, {"is_disabled": 0, "is_reserved": 0, "fusion_lat": 0.0, "lat": 38.904497, "fusion_lon": 0.0, "rental_uris": {"ios": "https://dc.lft.to/lastmile_qr_scan", "android": "https://dc.lft.to/lastmile_qr_scan"}, "lon": -76.93276116666667, "bike_id": "f991296fda009cad27b5a6328d7d7183", "type": "electric_scooter", "name": "f991296fda009cad27b5a6328d7d7183"}, {"is_disabled": 0, "is_reserved": 0, "fusion_lat": 0.0, "lat": 38.9166375, "fusion_lon": 0.0, "rental_uris": {"ios": "https://dc.lft.to/lastmile_qr_scan", "android": "https://dc.lft.to/lastmile_qr_scan"}, "lon": -77.0385765, "bike_id": "3c840609d529066749437d2753738abb", "type": "electric_scooter", "name": "3c840609d529066749437d2753738abb"}, {"is_disabled": 0, "is_reserved": 0, "fusion_lat": 0.0, "lat": 38.917770833333336, "fusion_lon": 0.0, "rental_uris": {"ios": "https://dc.lft.to/lastmile_qr_scan", "android": "https://dc.lft.to/lastmile_qr_scan"}, "lon": -77.02700266666666, "bike_id": "d1f9d8145ab3929c320188b6f097011f", "type": "electric_scooter", "name": "d1f9d8145ab3929c320188b6f097011f"}, {"is_disabled": 0, "is_reserved": 0, "fusion_lat": 0.0, "lat": 38.90104916666667, "fusion_lon": 0.0, "rental_uris": {"ios": "https://dc.lft.to/lastmile_qr_scan", "android": "https://dc.lft.to/lastmile_qr_scan"}, "lon": -77.04902616666666, "bike_id": "5c06c043496fd31d97959aa7f365357d", "type": "electric_scooter", "name": "5c06c043496fd31d97959aa7f365357d"}, {"is_disabled": 0, "is_reserved": 0, "fusion_lat": 0.0, "lat": 38.910424, "fusion_lon": 0.0, "rental_uris": {"ios": "https://dc.lft.to/lastmile_qr_scan", "android": "https://dc.lft.to/lastmile_qr_scan"}, "lon": -77.0434675, "bike_id": "1e6e0f5ac7d169d32f67cd2dabd4cc37", "type": "electric_scooter", "name": "1e6e0f5ac7d169d32f67cd2dabd4cc37"}, {"is_disabled": 0, "is_reserved": 0, "fusion_lat": 0.0, "lat": 38.88746783333333, "fusion_lon": 0.0, "rental_uris": {"ios": "https://dc.lft.to/lastmile_qr_scan", "android": "https://dc.lft.to/lastmile_qr_scan"}, "lon": -77.03218816666667, "bike_id": "267b8c92caabe7432a8c86eb30f307b2", "type": "electric_scooter", "name": "267b8c92caabe7432a8c86eb30f307b2"}, {"is_disabled": 0, "is_reserved": 0, "fusion_lat": 0.0, "lat": 38.91135283333333, "fusion_lon": 0.0, "rental_uris": {"ios": "https://dc.lft.to/lastmile_qr_scan", "android": "https://dc.lft.to/lastmile_qr_scan"}, "lon": -77.02188016666666, "bike_id": "15d6f0fd0cdae4420efadfcf9ce09741", "type": "electric_scooter", "name": "15d6f0fd0cdae4420efadfcf9ce09741"}, {"is_disabled": 0, "is_reserved": 0, "fusion_lat": 0.0, "lat": 38.905075333333336, "fusion_lon": 0.0, "rental_uris": {"ios": "https://dc.lft.to/lastmile_qr_scan", "android": "https://dc.lft.to/lastmile_qr_scan"}, "lon": -77.06020633333333, "bike_id": "6db158aaed41b6117ded05c15a079e62", "type": "electric_scooter", "name": "6db158aaed41b6117ded05c15a079e62"}, {"is_disabled": 0, "is_reserved": 0, "fusion_lat": 0.0, "lat": 38.921455333333334, "fusion_lon": 0.0, "rental_uris": {"ios": "https://dc.lft.to/lastmile_qr_scan", "android": "https://dc.lft.to/lastmile_qr_scan"}, "lon": -77.04561166666667, "bike_id": "298d397dd2e867893a288ef1d9a0210e", "type": "electric_scooter", "name": "298d397dd2e867893a288ef1d9a0210e"}, {"is_disabled": 0, "is_reserved": 0, "fusion_lat": 0.0, "lat": 38.9046225, "fusion_lon": 0.0, "rental_uris": {"ios": "https://dc.lft.to/lastmile_qr_scan", "android": "https://dc.lft.to/lastmile_qr_scan"}, "lon": -77.03112866666666, "bike_id": "68dc1833cfca2a3626de9a493bfed625", "type": "electric_scooter", "name": "68dc1833cfca2a3626de9a493bfed625"}, {"is_disabled": 0, "is_reserved": 0, "fusion_lat": 0.0, "lat": 38.921925333333334, "fusion_lon": 0.0, "rental_uris": {"ios": "https://dc.lft.to/lastmile_qr_scan", "android": "https://dc.lft.to/lastmile_qr_scan"}, "lon": -77.0424875, "bike_id": "16104562643bd854680be0b897c1bdc6", "type": "electric_scooter", "name": "16104562643bd854680be0b897c1bdc6"}, {"is_disabled": 0, "is_reserved": 0, "fusion_lat": 0.0, "lat": 38.9058805, "fusion_lon": 0.0, "rental_uris": {"ios": "https://dc.lft.to/lastmile_qr_scan", "android": "https://dc.lft.to/lastmile_qr_scan"}, "lon": -77.016136, "bike_id": "5a65f90fca8f23a5dd9fe8a4ceb401b1", "type": "electric_scooter", "name": "5a65f90fca8f23a5dd9fe8a4ceb401b1"}, {"is_disabled": 0, "is_reserved": 0, "fusion_lat": 0.0, "lat": 38.8842415, "fusion_lon": 0.0, "rental_uris": {"ios": "https://dc.lft.to/lastmile_qr_scan", "android": "https://dc.lft.to/lastmile_qr_scan"}, "lon": -77.02508033333334, "bike_id": "58d52160e6d04a8bb6d7d655bf61effa", "type": "electric_scooter", "name": "58d52160e6d04a8bb6d7d655bf61effa"}, {"is_disabled": 0, "is_reserved": 0, "fusion_lat": 0.0, "lat": 38.870560833333336, "fusion_lon": 0.0, "rental_uris": {"ios": "https://dc.lft.to/lastmile_qr_scan", "android": "https://dc.lft.to/lastmile_qr_scan"}, "lon": -77.11046333333333, "bike_id": "3a99fcededd6c06903fad8d459a68f47", "type": "electric_bike", "name": "3a99fcededd6c06903fad8d459a68f47"}, {"is_disabled": 0, "is_reserved": 0, "fusion_lat": 0.0, "lat": 38.923910666666664, "fusion_lon": 0.0, "rental_uris": {"ios": "https://dc.lft.to/lastmile_qr_scan", "android": "https://dc.lft.to/lastmile_qr_scan"}, "lon": -77.04308966666666, "bike_id": "4ee4320b2307a502b09fc391a2796630", "type": "electric_scooter", "name": "4ee4320b2307a502b09fc391a2796630"}, {"is_disabled": 0, "is_reserved": 0, "fusion_lat": 0.0, "lat": 38.923340833333334, "fusion_lon": 0.0, "rental_uris": {"ios": "https://dc.lft.to/lastmile_qr_scan", "android": "https://dc.lft.to/lastmile_qr_scan"}, "lon": -77.0562005, "bike_id": "9ed637afb0101aef123683c21245dea3", "type": "electric_scooter", "name": "9ed637afb0101aef123683c21245dea3"}, {"is_disabled": 0, "is_reserved": 0, "fusion_lat": 0.0, "lat": 38.879223833333334, "fusion_lon": 0.0, "rental_uris": {"ios": "https://dc.lft.to/lastmile_qr_scan", "android": "https://dc.lft.to/lastmile_qr_scan"}, "lon": -77.00868683333333, "bike_id": "3678d16cc63286268819067159d122b8", "type": "electric_scooter", "name": "3678d16cc63286268819067159d122b8"}, {"is_disabled": 0, "is_reserved": 0, "fusion_lat": 0.0, "lat": 38.868168833333335, "fusion_lon": 0.0, "rental_uris": {"ios": "https://dc.lft.to/lastmile_qr_scan", "android": "https://dc.lft.to/lastmile_qr_scan"}, "lon": -76.980236, "bike_id": "240f1ed6a04d2dae1cd9118c05a41273", "type": "electric_bike", "name": "240f1ed6a04d2dae1cd9118c05a41273"}, {"is_disabled": 0, "is_reserved": 0, "fusion_lat": 0.0, "lat": 38.920581166666665, "fusion_lon": 0.0, "rental_uris": {"ios": "https://dc.lft.to/lastmile_qr_scan", "android": "https://dc.lft.to/lastmile_qr_scan"}, "lon": -77.0330095, "bike_id": "692283b58a0ce29de1876929b85a5e0d", "type": "electric_scooter", "name": "692283b58a0ce29de1876929b85a5e0d"}, {"is_disabled": 0, "is_reserved": 0, "fusion_lat": 0.0, "lat": 38.901233500000004, "fusion_lon": 0.0, "rental_uris": {"ios": "https://dc.lft.to/lastmile_qr_scan", "android": "https://dc.lft.to/lastmile_qr_scan"}, "lon": -77.03356816666667, "bike_id": "cb965e4045c716fa238eaa440719bc6f", "type": "electric_scooter", "name": "cb965e4045c716fa238eaa440719bc6f"}, {"is_disabled": 0, "is_reserved": 0, "fusion_lat": 0.0, "lat": 38.922230666666664, "fusion_lon": 0.0, "rental_uris": {"ios": "https://dc.lft.to/lastmile_qr_scan", "android": "https://dc.lft.to/lastmile_qr_scan"}, "lon": -77.04334066666667, "bike_id": "43819b234be5d140e70c9580cf9ed567", "type": "electric_scooter", "name": "43819b234be5d140e70c9580cf9ed567"}, {"is_disabled": 0, "is_reserved": 0, "fusion_lat": 0.0, "lat": 38.9391725, "fusion_lon": 0.0, "rental_uris": {"ios": "https://dc.lft.to/lastmile_qr_scan", "android": "https://dc.lft.to/lastmile_qr_scan"}, "lon": -77.03261983333333, "bike_id": "dc047e7bc7bb33987b23cb6ee8e5cf74", "type": "electric_scooter", "name": "dc047e7bc7bb33987b23cb6ee8e5cf74"}, {"is_disabled": 0, "is_reserved": 0, "fusion_lat": 0.0, "lat": 38.8966915, "fusion_lon": 0.0, "rental_uris": {"ios": "https://dc.lft.to/lastmile_qr_scan", "android": "https://dc.lft.to/lastmile_qr_scan"}, "lon": -76.93208566666667, "bike_id": "455a26a7cc39ca4eb24af20622971c2d", "type": "electric_scooter", "name": "455a26a7cc39ca4eb24af20622971c2d"}, {"is_disabled": 0, "is_reserved": 0, "fusion_lat": 0.0, "lat": 38.88719, "fusion_lon": 0.0, "rental_uris": {"ios": "https://dc.lft.to/lastmile_qr_scan", "android": "https://dc.lft.to/lastmile_qr_scan"}, "lon": -76.99631683333334, "bike_id": "4586311bc64a6de188a31fe2823ebc17", "type": "electric_scooter", "name": "4586311bc64a6de188a31fe2823ebc17"}, {"is_disabled": 0, "is_reserved": 0, "fusion_lat": 0.0, "lat": 38.915473666666664, "fusion_lon": 0.0, "rental_uris": {"ios": "https://dc.lft.to/lastmile_qr_scan", "android": "https://dc.lft.to/lastmile_qr_scan"}, "lon": -77.02696283333333, "bike_id": "321673d74249900bcd9d471b999ddae8", "type": "electric_scooter", "name": "321673d74249900bcd9d471b999ddae8"}, {"is_disabled": 0, "is_reserved": 0, "fusion_lat": 0.0, "lat": 38.94796566666667, "fusion_lon": 0.0, "rental_uris": {"ios": "https://dc.lft.to/lastmile_qr_scan", "android": "https://dc.lft.to/lastmile_qr_scan"}, "lon": -77.07896366666667, "bike_id": "1a1d78b3d2d91735d535bb86ada765fc", "type": "electric_scooter", "name": "1a1d78b3d2d91735d535bb86ada765fc"}, {"is_disabled": 0, "is_reserved": 0, "fusion_lat": 0.0, "lat": 38.88476933333333, "fusion_lon": 0.0, "rental_uris": {"ios": "https://dc.lft.to/lastmile_qr_scan", "android": "https://dc.lft.to/lastmile_qr_scan"}, "lon": -77.03177916666667, "bike_id": "ad8ac8186981d24b4002b924845747a2", "type": "electric_bike", "name": "ad8ac8186981d24b4002b924845747a2"}, {"is_disabled": 0, "is_reserved": 0, "fusion_lat": 0.0, "lat": 38.963797666666665, "fusion_lon": 0.0, "rental_uris": {"ios": "https://dc.lft.to/lastmile_qr_scan", "android": "https://dc.lft.to/lastmile_qr_scan"}, "lon": -77.0197495, "bike_id": "70f413ed9199f83cbfaf0ff86980949b", "type": "electric_bike", "name": "70f413ed9199f83cbfaf0ff86980949b"}, {"is_disabled": 0, "is_reserved": 0, "fusion_lat": 0.0, "lat": 38.92675933333334, "fusion_lon": 0.0, "rental_uris": {"ios": "https://dc.lft.to/lastmile_qr_scan", "android": "https://dc.lft.to/lastmile_qr_scan"}, "lon": -77.01475066666667, "bike_id": "efa89aee4bd3996b4d13766b604c8960", "type": "electric_scooter", "name": "efa89aee4bd3996b4d13766b604c8960"}, {"is_disabled": 0, "is_reserved": 0, "fusion_lat": 0.0, "lat": 38.923511166666664, "fusion_lon": 0.0, "rental_uris": {"ios": "https://dc.lft.to/lastmile_qr_scan", "android": "https://dc.lft.to/lastmile_qr_scan"}, "lon": -77.032876, "bike_id": "8ca482314a4e5402d296d071c4e0470f", "type": "electric_scooter", "name": "8ca482314a4e5402d296d071c4e0470f"}, {"is_disabled": 0, "is_reserved": 0, "fusion_lat": 0.0, "lat": 38.91573366666667, "fusion_lon": 0.0, "rental_uris": {"ios": "https://dc.lft.to/lastmile_qr_scan", "android": "https://dc.lft.to/lastmile_qr_scan"}, "lon": -77.02199166666666, "bike_id": "99a170365f8453352f9c330b6e3886d1", "type": "electric_scooter", "name": "99a170365f8453352f9c330b6e3886d1"}, {"is_disabled": 0, "is_reserved": 0, "fusion_lat": 0.0, "lat": 38.95099833333333, "fusion_lon": 0.0, "rental_uris": {"ios": "https://dc.lft.to/lastmile_qr_scan", "android": "https://dc.lft.to/lastmile_qr_scan"}, "lon": -77.02194916666667, "bike_id": "334fab99752da43eb77d586938a9c235", "type": "electric_scooter", "name": "334fab99752da43eb77d586938a9c235"}, {"is_disabled": 0, "is_reserved": 0, "fusion_lat": 0.0, "lat": 38.910183, "fusion_lon": 0.0, "rental_uris": {"ios": "https://dc.lft.to/lastmile_qr_scan", "android": "https://dc.lft.to/lastmile_qr_scan"}, "lon": -77.04882233333333, "bike_id": "731c90e9b319dff63e3428bfd92ba2cf", "type": "electric_scooter", "name": "731c90e9b319dff63e3428bfd92ba2cf"}, {"is_disabled": 0, "is_reserved": 0, "fusion_lat": 0.0, "lat": 38.89040383333333, "fusion_lon": 0.0, "rental_uris": {"ios": "https://dc.lft.to/lastmile_qr_scan", "android": "https://dc.lft.to/lastmile_qr_scan"}, "lon": -76.937552, "bike_id": "b302e61829b9b2cd530fd91132339b77", "type": "electric_scooter", "name": "b302e61829b9b2cd530fd91132339b77"}, {"is_disabled": 0, "is_reserved": 0, "fusion_lat": 0.0, "lat": 38.92434516666667, "fusion_lon": 0.0, "rental_uris": {"ios": "https://dc.lft.to/lastmile_qr_scan", "android": "https://dc.lft.to/lastmile_qr_scan"}, "lon": -77.02021233333333, "bike_id": "73486e5e6cb86850a959d9df9824d7ff", "type": "electric_scooter", "name": "73486e5e6cb86850a959d9df9824d7ff"}, {"is_disabled": 0, "is_reserved": 0, "fusion_lat": 0.0, "lat": 38.89231933333333, "fusion_lon": 0.0, "rental_uris": {"ios": "https://dc.lft.to/lastmile_qr_scan", "android": "https://dc.lft.to/lastmile_qr_scan"}, "lon": -77.04360916666667, "bike_id": "25d2b414a9a7666ca382abbd836825a0", "type": "electric_scooter", "name": "25d2b414a9a7666ca382abbd836825a0"}, {"is_disabled": 0, "is_reserved": 0, "fusion_lat": 0.0, "lat": 38.89641266666667, "fusion_lon": 0.0, "rental_uris": {"ios": "https://dc.lft.to/lastmile_qr_scan", "android": "https://dc.lft.to/lastmile_qr_scan"}, "lon": -77.007536, "bike_id": "482bfb1607a72ec6adf431c723f81eee", "type": "electric_scooter", "name": "482bfb1607a72ec6adf431c723f81eee"}, {"is_disabled": 0, "is_reserved": 0, "fusion_lat": 0.0, "lat": 38.902814, "fusion_lon": 0.0, "rental_uris": {"ios": "https://dc.lft.to/lastmile_qr_scan", "android": "https://dc.lft.to/lastmile_qr_scan"}, "lon": -77.03206816666666, "bike_id": "5588449091c37828cee4f424b9c2df01", "type": "electric_scooter", "name": "5588449091c37828cee4f424b9c2df01"}, {"is_disabled": 0, "is_reserved": 0, "fusion_lat": 0.0, "lat": 38.8997345, "fusion_lon": 0.0, "rental_uris": {"ios": "https://dc.lft.to/lastmile_qr_scan", "android": "https://dc.lft.to/lastmile_qr_scan"}, "lon": -76.9263385, "bike_id": "ad203fa78e88c27594e778a025a7bf26", "type": "electric_scooter", "name": "ad203fa78e88c27594e778a025a7bf26"}, {"is_disabled": 0, "is_reserved": 0, "fusion_lat": 0.0, "lat": 38.909564, "fusion_lon": 0.0, "rental_uris": {"ios": "https://dc.lft.to/lastmile_qr_scan", "android": "https://dc.lft.to/lastmile_qr_scan"}, "lon": -77.023939, "bike_id": "f5b116025de881026b96d3a20fcf263e", "type": "electric_scooter", "name": "f5b116025de881026b96d3a20fcf263e"}, {"is_disabled": 0, "is_reserved": 0, "fusion_lat": 0.0, "lat": 38.95343416666667, "fusion_lon": 0.0, "rental_uris": {"ios": "https://dc.lft.to/lastmile_qr_scan", "android": "https://dc.lft.to/lastmile_qr_scan"}, "lon": -77.0814715, "bike_id": "dcced52c0f1c6dd41b615418577eaae0", "type": "electric_scooter", "name": "dcced52c0f1c6dd41b615418577eaae0"}, {"is_disabled": 0, "is_reserved": 0, "fusion_lat": 0.0, "lat": 38.9216895, "fusion_lon": 0.0, "rental_uris": {"ios": "https://dc.lft.to/lastmile_qr_scan", "android": "https://dc.lft.to/lastmile_qr_scan"}, "lon": -77.0402635, "bike_id": "b42038f1d649f1678e91a16f4f553f6e", "type": "electric_scooter", "name": "b42038f1d649f1678e91a16f4f553f6e"}, {"is_disabled": 0, "is_reserved": 0, "fusion_lat": 0.0, "lat": 38.90560283333333, "fusion_lon": 0.0, "rental_uris": {"ios": "https://dc.lft.to/lastmile_qr_scan", "android": "https://dc.lft.to/lastmile_qr_scan"}, "lon": -77.03270566666667, "bike_id": "9519c9cc5b24cb5be0d4f2bbed36da1d", "type": "electric_scooter", "name": "9519c9cc5b24cb5be0d4f2bbed36da1d"}, {"is_disabled": 0, "is_reserved": 0, "fusion_lat": 0.0, "lat": 38.923504, "fusion_lon": 0.0, "rental_uris": {"ios": "https://dc.lft.to/lastmile_qr_scan", "android": "https://dc.lft.to/lastmile_qr_scan"}, "lon": -76.97205633333333, "bike_id": "f7ac4a9739b854ce65ecdbb1edc8c663", "type": "electric_scooter", "name": "f7ac4a9739b854ce65ecdbb1edc8c663"}, {"is_disabled": 0, "is_reserved": 0, "fusion_lat": 0.0, "lat": 38.914189, "fusion_lon": 0.0, "rental_uris": {"ios": "https://dc.lft.to/lastmile_qr_scan", "android": "https://dc.lft.to/lastmile_qr_scan"}, "lon": -77.02231866666666, "bike_id": "9c21eb0066f14b66279605a4f6beb71f", "type": "electric_scooter", "name": "9c21eb0066f14b66279605a4f6beb71f"}, {"is_disabled": 0, "is_reserved": 0, "fusion_lat": 0.0, "lat": 39.084727, "fusion_lon": 0.0, "rental_uris": {"ios": "https://dc.lft.to/lastmile_qr_scan", "android": "https://dc.lft.to/lastmile_qr_scan"}, "lon": -76.95068583333334, "bike_id": "6ce27962b0857d27ffa1829e825ecf3f", "type": "electric_bike", "name": "6ce27962b0857d27ffa1829e825ecf3f"}, {"is_disabled": 0, "is_reserved": 0, "fusion_lat": 0.0, "lat": 38.90015433333333, "fusion_lon": 0.0, "rental_uris": {"ios": "https://dc.lft.to/lastmile_qr_scan", "android": "https://dc.lft.to/lastmile_qr_scan"}, "lon": -76.9945035, "bike_id": "528af75ad09f4fcde86b89fc56579475", "type": "electric_scooter", "name": "528af75ad09f4fcde86b89fc56579475"}, {"is_disabled": 0, "is_reserved": 0, "fusion_lat": 0.0, "lat": 39.025184, "fusion_lon": 0.0, "rental_uris": {"ios": "https://dc.lft.to/lastmile_qr_scan", "android": "https://dc.lft.to/lastmile_qr_scan"}, "lon": -77.01968033333333, "bike_id": "498f915634674c3755add51082b7b5c0", "type": "electric_bike", "name": "498f915634674c3755add51082b7b5c0"}, {"is_disabled": 0, "is_reserved": 0, "fusion_lat": 0.0, "lat": 38.91689683333333, "fusion_lon": 0.0, "rental_uris": {"ios": "https://dc.lft.to/lastmile_qr_scan", "android": "https://dc.lft.to/lastmile_qr_scan"}, "lon": -77.02298583333334, "bike_id": "6584bf5830d8526360d1bfe7ebb958b1", "type": "electric_scooter", "name": "6584bf5830d8526360d1bfe7ebb958b1"}, {"is_disabled": 0, "is_reserved": 0, "fusion_lat": 0.0, "lat": 38.85791016666667, "fusion_lon": 0.0, "rental_uris": {"ios": "https://dc.lft.to/lastmile_qr_scan", "android": "https://dc.lft.to/lastmile_qr_scan"}, "lon": -76.98755866666667, "bike_id": "ca400be29791a83d7354825608f1f6a0", "type": "electric_bike", "name": "ca400be29791a83d7354825608f1f6a0"}, {"is_disabled": 0, "is_reserved": 0, "fusion_lat": 0.0, "lat": 38.923431666666666, "fusion_lon": 0.0, "rental_uris": {"ios": "https://dc.lft.to/lastmile_qr_scan", "android": "https://dc.lft.to/lastmile_qr_scan"}, "lon": -77.02805516666666, "bike_id": "0abf72cab7ab4f0d0683d4ae29dc3ce5", "type": "electric_scooter", "name": "0abf72cab7ab4f0d0683d4ae29dc3ce5"}, {"is_disabled": 0, "is_reserved": 0, "fusion_lat": 0.0, "lat": 38.89726816666666, "fusion_lon": 0.0, "rental_uris": {"ios": "https://dc.lft.to/lastmile_qr_scan", "android": "https://dc.lft.to/lastmile_qr_scan"}, "lon": -77.02726583333333, "bike_id": "6f39a73ce607afd7047bf32293910f9c", "type": "electric_scooter", "name": "6f39a73ce607afd7047bf32293910f9c"}, {"is_disabled": 0, "is_reserved": 0, "fusion_lat": 0.0, "lat": 38.91399533333333, "fusion_lon": 0.0, "rental_uris": {"ios": "https://dc.lft.to/lastmile_qr_scan", "android": "https://dc.lft.to/lastmile_qr_scan"}, "lon": -77.04577916666666, "bike_id": "f60e3ca93760bc94c0f7a1e130c0fc62", "type": "electric_scooter", "name": "f60e3ca93760bc94c0f7a1e130c0fc62"}, {"is_disabled": 0, "is_reserved": 0, "fusion_lat": 0.0, "lat": 38.89908533333333, "fusion_lon": 0.0, "rental_uris": {"ios": "https://dc.lft.to/lastmile_qr_scan", "android": "https://dc.lft.to/lastmile_qr_scan"}, "lon": -77.03952366666667, "bike_id": "a7fcf2ee80c8896fae0316ea3fa0903e", "type": "electric_scooter", "name": "a7fcf2ee80c8896fae0316ea3fa0903e"}, {"is_disabled": 0, "is_reserved": 0, "fusion_lat": 0.0, "lat": 38.900747, "fusion_lon": 0.0, "rental_uris": {"ios": "https://dc.lft.to/lastmile_qr_scan", "android": "https://dc.lft.to/lastmile_qr_scan"}, "lon": -77.046939, "bike_id": "df66a42fd5c2c81b7d6459b2ea972280", "type": "electric_scooter", "name": "df66a42fd5c2c81b7d6459b2ea972280"}, {"is_disabled": 0, "is_reserved": 0, "fusion_lat": 0.0, "lat": 38.924127166666665, "fusion_lon": 0.0, "rental_uris": {"ios": "https://dc.lft.to/lastmile_qr_scan", "android": "https://dc.lft.to/lastmile_qr_scan"}, "lon": -77.02714916666666, "bike_id": "6402d5084512651c834818398701f816", "type": "electric_scooter", "name": "6402d5084512651c834818398701f816"}, {"is_disabled": 0, "is_reserved": 0, "fusion_lat": 0.0, "lat": 38.85843066666666, "fusion_lon": 0.0, "rental_uris": {"ios": "https://dc.lft.to/lastmile_qr_scan", "android": "https://dc.lft.to/lastmile_qr_scan"}, "lon": -76.988174, "bike_id": "57735681ca881da2ffd626833198fff9", "type": "electric_scooter", "name": "57735681ca881da2ffd626833198fff9"}, {"is_disabled": 0, "is_reserved": 0, "fusion_lat": 0.0, "lat": 38.92132766666667, "fusion_lon": 0.0, "rental_uris": {"ios": "https://dc.lft.to/lastmile_qr_scan", "android": "https://dc.lft.to/lastmile_qr_scan"}, "lon": -77.03658633333333, "bike_id": "5466b4c47e792f45595078c860dd31aa", "type": "electric_scooter", "name": "5466b4c47e792f45595078c860dd31aa"}, {"is_disabled": 0, "is_reserved": 0, "fusion_lat": 0.0, "lat": 38.905410333333336, "fusion_lon": 0.0, "rental_uris": {"ios": "https://dc.lft.to/lastmile_qr_scan", "android": "https://dc.lft.to/lastmile_qr_scan"}, "lon": -77.02707066666666, "bike_id": "9ca5af723dfb974b91b2a785cb0b9bb8", "type": "electric_scooter", "name": "9ca5af723dfb974b91b2a785cb0b9bb8"}, {"is_disabled": 0, "is_reserved": 0, "fusion_lat": 0.0, "lat": 38.935723833333334, "fusion_lon": 0.0, "rental_uris": {"ios": "https://dc.lft.to/lastmile_qr_scan", "android": "https://dc.lft.to/lastmile_qr_scan"}, "lon": -77.0562175, "bike_id": "a013be371f9c02c0e19714376c4022e2", "type": "electric_scooter", "name": "a013be371f9c02c0e19714376c4022e2"}, {"is_disabled": 0, "is_reserved": 0, "fusion_lat": 0.0, "lat": 38.9305905, "fusion_lon": 0.0, "rental_uris": {"ios": "https://dc.lft.to/lastmile_qr_scan", "android": "https://dc.lft.to/lastmile_qr_scan"}, "lon": -77.02322, "bike_id": "8225f63a356d73b2e3ff076767539107", "type": "electric_scooter", "name": "8225f63a356d73b2e3ff076767539107"}, {"is_disabled": 0, "is_reserved": 0, "fusion_lat": 0.0, "lat": 38.982085166666664, "fusion_lon": 0.0, "rental_uris": {"ios": "https://dc.lft.to/lastmile_qr_scan", "android": "https://dc.lft.to/lastmile_qr_scan"}, "lon": -76.97816716666667, "bike_id": "095e195a85cac4adcac0c303214ccb21", "type": "electric_bike", "name": "095e195a85cac4adcac0c303214ccb21"}, {"is_disabled": 0, "is_reserved": 0, "fusion_lat": 0.0, "lat": 38.927883, "fusion_lon": 0.0, "rental_uris": {"ios": "https://dc.lft.to/lastmile_qr_scan", "android": "https://dc.lft.to/lastmile_qr_scan"}, "lon": -77.052616, "bike_id": "a23a890468487c0863ac1518a9f3ac60", "type": "electric_scooter", "name": "a23a890468487c0863ac1518a9f3ac60"}, {"is_disabled": 0, "is_reserved": 0, "fusion_lat": 0.0, "lat": 38.87847933333333, "fusion_lon": 0.0, "rental_uris": {"ios": "https://dc.lft.to/lastmile_qr_scan", "android": "https://dc.lft.to/lastmile_qr_scan"}, "lon": -76.98608266666666, "bike_id": "f3eb0650f7981d689689e03c18467909", "type": "electric_scooter", "name": "f3eb0650f7981d689689e03c18467909"}, {"is_disabled": 0, "is_reserved": 0, "fusion_lat": 0.0, "lat": 38.89358466666667, "fusion_lon": 0.0, "rental_uris": {"ios": "https://dc.lft.to/lastmile_qr_scan", "android": "https://dc.lft.to/lastmile_qr_scan"}, "lon": -77.042931, "bike_id": "a16642d5fbb93b9ab16bade512a88ef3", "type": "electric_scooter", "name": "a16642d5fbb93b9ab16bade512a88ef3"}, {"is_disabled": 0, "is_reserved": 0, "fusion_lat": 0.0, "lat": 38.95111583333333, "fusion_lon": 0.0, "rental_uris": {"ios": "https://dc.lft.to/lastmile_qr_scan", "android": "https://dc.lft.to/lastmile_qr_scan"}, "lon": -77.01887883333333, "bike_id": "504bf2819542f235902fc1165ea40927", "type": "electric_scooter", "name": "504bf2819542f235902fc1165ea40927"}, {"is_disabled": 0, "is_reserved": 0, "fusion_lat": 0.0, "lat": 38.92615816666667, "fusion_lon": 0.0, "rental_uris": {"ios": "https://dc.lft.to/lastmile_qr_scan", "android": "https://dc.lft.to/lastmile_qr_scan"}, "lon": -77.00652033333333, "bike_id": "118bcad893678d976ffabe7841d6dad0", "type": "electric_scooter", "name": "118bcad893678d976ffabe7841d6dad0"}, {"is_disabled": 0, "is_reserved": 0, "fusion_lat": 0.0, "lat": 38.87660733333333, "fusion_lon": 0.0, "rental_uris": {"ios": "https://dc.lft.to/lastmile_qr_scan", "android": "https://dc.lft.to/lastmile_qr_scan"}, "lon": -77.00086233333333, "bike_id": "6a1d64deae88fc12dc2a08c5f7d370a8", "type": "electric_scooter", "name": "6a1d64deae88fc12dc2a08c5f7d370a8"}, {"is_disabled": 0, "is_reserved": 0, "fusion_lat": 0.0, "lat": 38.92374083333333, "fusion_lon": 0.0, "rental_uris": {"ios": "https://dc.lft.to/lastmile_qr_scan", "android": "https://dc.lft.to/lastmile_qr_scan"},