{"data": {"bikes": [{"name": "91c988a1035e9fa4509412e897d121a5", "lon": -76.99371033333334, "lat": 38.971858, "type": "electric_bike", "fusion_lon": 0.0, "is_reserved": 0, "bike_id": "91c988a1035e9fa4509412e897d121a5", "fusion_lat": 0.0, "is_disabled": 0, "rental_uris": {"ios": "https://dc.lft.to/lastmile_qr_scan", "android": "https://dc.lft.to/lastmile_qr_scan"}}, {"name": "965e920a630972fdb80b59df0c9c817c", "lon": -77.05214883333333, "lat": 38.92479816666667, "type": "electric_scooter", "fusion_lon": 0.0, "is_reserved": 0, "bike_id": "965e920a630972fdb80b59df0c9c817c", "fusion_lat": 0.0, "is_disabled": 0, "rental_uris": {"ios": "https://dc.lft.to/lastmile_qr_scan", "android": "https://dc.lft.to/lastmile_qr_scan"}}, {"name": "7b7b447fef7ceb21b23d047ba7011db7", "lon": -77.02373933333334, "lat": 38.94505216666667, "type": "electric_bike", "fusion_lon": 0.0, "is_reserved": 0, "bike_id": "7b7b447fef7ceb21b23d047ba7011db7", "fusion_lat": 0.0, "is_disabled": 0, "rental_uris": {"ios": "https://dc.lft.to/lastmile_qr_scan", "android": "https://dc.lft.to/lastmile_qr_scan"}}, {"name": "0180d3ebe5ebb2951be288f3f35d75d0", "lon": -76.97163883333333, "lat": 38.854704, "type": "electric_scooter", "fusion_lon": 0.0, "is_reserved": 0, "bike_id": "0180d3ebe5ebb2951be288f3f35d75d0", "fusion_lat": 0.0, "is_disabled": 0, "rental_uris": {"ios": "https://dc.lft.to/lastmile_qr_scan", "android": "https://dc.lft.to/lastmile_qr_scan"}}, {"name": "4bda2fdebe0f2c7de754d9d8df757d62", "lon": -77.0186075, "lat": 38.97365966666667, "type": "electric_scooter", "fusion_lon": 0.0, "is_reserved": 0, "bike_id": "4bda2fdebe0f2c7de754d9d8df757d62", "fusion_lat": 0.0, "is_disabled": 0, "rental_uris": {"ios": "https://dc.lft.to/lastmile_qr_scan", "android": "https://dc.lft.to/lastmile_qr_scan"}}, {"name": "873768638b86a24e6e574e0cbcb1f54f", "lon": -77.0733155, "lat": 38.926127666666666, "type": "electric_scooter", "fusion_lon": 0.0, "is_reserved": 0, "bike_id": "873768638b86a24e6e574e0cbcb1f54f", "fusion_lat": 0.0, "is_disabled": 0, "rental_uris": {"ios": "https://dc.lft.to/lastmile_qr_scan", "android": "https://dc.lft.to/lastmile_qr_scan"}}, {"name": "307bb4fb98ec0369b016e21d46400e16", "lon": -77.02488016666666, "lat": 38.937624, "type": "electric_scooter", "fusion_lon": 0.0, "is_reserved": 0, "bike_id": "307bb4fb98ec0369b016e21d46400e16", "fusion_lat": 0.0, "is_disabled": 0, "rental_uris": {"ios": "https://dc.lft.to/lastmile_qr_scan", "android": "https://dc.lft.to/lastmile_qr_scan"}}, {"name": "525f213f99d1f63ddfafe678f369e8d4", "lon": -77.05149216666666, "lat": 38.90574183333333, "type": "electric_scooter", "fusion_lon": 0.0, "is_reserved": 0, "bike_id": "525f213f99d1f63ddfafe678f369e8d4", "fusion_lat": 0.0, "is_disabled": 0, "rental_uris": {"ios": "https://dc.lft.to/lastmile_qr_scan", "android": "https://dc.lft.to/lastmile_qr_scan"}}, {"name": "fecb3744825fb4fc0cb199491ffc7a42", "lon": -77.03261, "lat": 38.942721166666665, "type": "electric_scooter", "fusion_lon": 0.0, "is_reserved": 0, "bike_id": "fecb3744825fb4fc0cb199491ffc7a42", "fusion_lat": 0.0, "is_disabled": 0, "rental_uris": {"ios": "https://dc.lft.to/lastmile_qr_scan", "android": "https://dc.lft.to/lastmile_qr_scan"}}, {"name": "63e52a231f5550061827747aa96b97ba", "lon": -77.1248475, "lat": 38.85397966666667, "type": "electric_bike", "fusion_lon": 0.0, "is_reserved": 0, "bike_id": "63e52a231f5550061827747aa96b97ba", "fusion_lat": 0.0, "is_disabled": 0, "rental_uris": {"ios": "https://dc.lft.to/lastmile_qr_scan", "android": "https://dc.lft.to/lastmile_qr_scan"}}, {"name": "620816a88ac5f78f6ddde5114ab9d31b", "lon": -77.04374833333334, "lat": 38.89845783333333, "type": "electric_scooter", "fusion_lon": 0.0, "is_reserved": 0, "bike_id": "620816a88ac5f78f6ddde5114ab9d31b", "fusion_lat": 0.0, "is_disabled": 0, "rental_uris": {"ios": "https://dc.lft.to/lastmile_qr_scan", "android": "https://dc.lft.to/lastmile_qr_scan"}}, {"name": "0c77c80609bdf7c8f85e87d6c87b60d4", "lon": -77.0243675, "lat": 38.92747, "type": "electric_scooter", "fusion_lon": 0.0, "is_reserved": 0, "bike_id": "0c77c80609bdf7c8f85e87d6c87b60d4", "fusion_lat": 0.0, "is_disabled": 0, "rental_uris": {"ios": "https://dc.lft.to/lastmile_qr_scan", "android": "https://dc.lft.to/lastmile_qr_scan"}}, {"name": "c04e8b3a6ff86650bd14f56d26b13dc9", "lon": -77.00763616666667, "lat": 38.82615416666667, "type": "electric_scooter", "fusion_lon": 0.0, "is_reserved": 0, "bike_id": "c04e8b3a6ff86650bd14f56d26b13dc9", "fusion_lat": 0.0, "is_disabled": 0, "rental_uris": {"ios": "https://dc.lft.to/lastmile_qr_scan", "android": "https://dc.lft.to/lastmile_qr_scan"}}, {"name": "830687ccc4fc3b8639b447484abffcc1", "lon": -77.07432616666667, "lat": 38.999435166666665, "type": "electric_bike", "fusion_lon": 0.0, "is_reserved": 0, "bike_id": "830687ccc4fc3b8639b447484abffcc1", "fusion_lat": 0.0, "is_disabled": 0, "rental_uris": {"ios": "https://dc.lft.to/lastmile_qr_scan", "android": "https://dc.lft.to/lastmile_qr_scan"}}, {"name": "fb439788686935956c544071b8d1c8d9", "lon": -76.97536016666666, "lat": 38.84012933333333, "type": "electric_bike", "fusion_lon": 0.0, "is_reserved": 0, "bike_id": "fb439788686935956c544071b8d1c8d9", "fusion_lat": 0.0, "is_disabled": 0, "rental_uris": {"ios": "https://dc.lft.to/lastmile_qr_scan", "android": "https://dc.lft.to/lastmile_qr_scan"}}, {"name": "20ead8562853241ff5588bcf76a1be23", "lon": -77.0382495, "lat": 38.91125433333333, "type": "electric_scooter", "fusion_lon": 0.0, "is_reserved": 0, "bike_id": "20ead8562853241ff5588bcf76a1be23", "fusion_lat": 0.0, "is_disabled": 0, "rental_uris": {"ios": "https://dc.lft.to/lastmile_qr_scan", "android": "https://dc.lft.to/lastmile_qr_scan"}}, {"name": "6b9733e10419fc03ec94fde51942e40e", "lon": -77.0520715, "lat": 38.92469766666667, "type": "electric_scooter", "fusion_lon": 0.0, "is_reserved": 0, "bike_id": "6b9733e10419fc03ec94fde51942e40e", "fusion_lat": 0.0, "is_disabled": 0, "rental_uris": {"ios": "https://dc.lft.to/lastmile_qr_scan", "android": "https://dc.lft.to/lastmile_qr_scan"}}, {"name": "a06f222c880d3f021df57f7f0ffef946", "lon": -77.00588866666666, "lat": 38.8856985, "type": "electric_scooter", "fusion_lon": 0.0, "is_reserved": 0, "bike_id": "a06f222c880d3f021df57f7f0ffef946", "fusion_lat": 0.0, "is_disabled": 0, "rental_uris": {"ios": "https://dc.lft.to/lastmile_qr_scan", "android": "https://dc.lft.to/lastmile_qr_scan"}}, {"name": "c758c553b72c942b56bef4f02d1a0ce2", "lon": -77.0419445, "lat": 38.91870266666667, "type": "electric_scooter", "fusion_lon": 0.0, "is_reserved": 0, "bike_id": "c758c553b72c942b56bef4f02d1a0ce2", "fusion_lat": 0.0, "is_disabled": 0, "rental_uris": {"ios": "https://dc.lft.to/lastmile_qr_scan", "android": "https://dc.lft.to/lastmile_qr_scan"}}, {"name": "e95bb808dcf722e2c9521936fbadec66", "lon": -77.0043315, "lat": 38.8767455, "type": "electric_scooter", "fusion_lon": 0.0, "is_reserved": 0, "bike_id": "e95bb808dcf722e2c9521936fbadec66", "fusion_lat": 0.0, "is_disabled": 0, "rental_uris": {"ios": "https://dc.lft.to/lastmile_qr_scan", "android": "https://dc.lft.to/lastmile_qr_scan"}}, {"name": "9ba6a884c4b569b2f0b10bf389f3494d", "lon": -77.03516516666667, "lat": 38.9215775, "type": "electric_scooter", "fusion_lon": 0.0, "is_reserved": 0, "bike_id": "9ba6a884c4b569b2f0b10bf389f3494d", "fusion_lat": 0.0, "is_disabled": 0, "rental_uris": {"ios": "https://dc.lft.to/lastmile_qr_scan", "android": "https://dc.lft.to/lastmile_qr_scan"}}, {"name": "6863af5ff085377f982309ed3c5402d4", "lon": -77.04470683333334, "lat": 38.921368666666666, "type": "electric_scooter", "fusion_lon": 0.0, "is_reserved": 0, "bike_id": "6863af5ff085377f982309ed3c5402d4", "fusion_lat": 0.0, "is_disabled": 0, "rental_uris": {"ios": "https://dc.lft.to/lastmile_qr_scan", "android": "https://dc.lft.to/lastmile_qr_scan"}}, {"name": "944c05da8fa07b5b834ea0abe2a84bc3", "lon": -76.9877045, "lat": 38.85774, "type": "electric_bike", "fusion_lon": 0.0, "is_reserved": 0, "bike_id": "944c05da8fa07b5b834ea0abe2a84bc3", "fusion_lat": 0.0, "is_disabled": 0, "rental_uris": {"ios": "https://dc.lft.to/lastmile_qr_scan", "android": "https://dc.lft.to/lastmile_qr_scan"}}, {"name": "0019f567faf96a938029763c28ec89b0", "lon": -77.0363515, "lat": 38.924587833333334, "type": "electric_scooter", "fusion_lon": 0.0, "is_reserved": 0, "bike_id": "0019f567faf96a938029763c28ec89b0", "fusion_lat": 0.0, "is_disabled": 0, "rental_uris": {"ios": "https://dc.lft.to/lastmile_qr_scan", "android": "https://dc.lft.to/lastmile_qr_scan"}}, {"name": "e531b9c851dc1dfd19dde5ebaed13086", "lon": -77.03237133333333, "lat": 38.914136166666665, "type": "electric_scooter", "fusion_lon": 0.0, "is_reserved": 0, "bike_id": "e531b9c851dc1dfd19dde5ebaed13086", "fusion_lat": 0.0, "is_disabled": 0, "rental_uris": {"ios": "https://dc.lft.to/lastmile_qr_scan", "android": "https://dc.lft.to/lastmile_qr_scan"}}, {"name": "eb3e5598f686422a759f77ed02be5fe4", "lon": -77.039562, "lat": 38.931453166666664, "type": "electric_scooter", "fusion_lon": 0.0, "is_reserved": 0, "bike_id": "eb3e5598f686422a759f77ed02be5fe4", "fusion_lat": 0.0, "is_disabled": 0, "rental_uris": {"ios": "https://dc.lft.to/lastmile_qr_scan", "android": "https://dc.lft.to/lastmile_qr_scan"}}, {"name": "44aa6c5e5e594f78d20ed6de8624f534", "lon": -76.9993445, "lat": 38.905688166666664, "type": "electric_scooter", "fusion_lon": 0.0, "is_reserved": 0, "bike_id": "44aa6c5e5e594f78d20ed6de8624f534", "fusion_lat": 0.0, "is_disabled": 0, "rental_uris": {"ios": "https://dc.lft.to/lastmile_qr_scan", "android": "https://dc.lft.to/lastmile_qr_scan"}}, {"name": "180dc8e1345143855e0645f74477f1ed", "lon": -77.01189166666667, "lat": 38.91709183333333, "type": "electric_scooter", "fusion_lon": 0.0, "is_reserved": 0, "bike_id": "180dc8e1345143855e0645f74477f1ed", "fusion_lat": 0.0, "is_disabled": 0, "rental_uris": {"ios": "https://dc.lft.to/lastmile_qr_scan", "android": "https://dc.lft.to/lastmile_qr_scan"}}, {"name": "3cecfa26d25364dbbe034f1298b72dea", "lon": -77.00753683333333, "lat": 38.87103483333333, "type": "electric_scooter", "fusion_lon": 0.0, "is_reserved": 0, "bike_id": "3cecfa26d25364dbbe034f1298b72dea", "fusion_lat": 0.0, "is_disabled": 0, "rental_uris": {"ios": "https://dc.lft.to/lastmile_qr_scan", "android": "https://dc.lft.to/lastmile_qr_scan"}}, {"name": "ba8fd59e9f8a5a15e9e25eea59dbc624", "lon": -76.96494383333334, "lat": 38.8754695, "type": "electric_bike", "fusion_lon": 0.0, "is_reserved": 0, "bike_id": "ba8fd59e9f8a5a15e9e25eea59dbc624", "fusion_lat": 0.0, "is_disabled": 0, "rental_uris": {"ios": "https://dc.lft.to/lastmile_qr_scan", "android": "https://dc.lft.to/lastmile_qr_scan"}}, {"name": "9625789928b35001b006dad5486181bf", "lon": -77.02694016666666, "lat": 38.911272, "type": "electric_scooter", "fusion_lon": 0.0, "is_reserved": 0, "bike_id": "9625789928b35001b006dad5486181bf", "fusion_lat": 0.0, "is_disabled": 0, "rental_uris": {"ios": "https://dc.lft.to/lastmile_qr_scan", "android": "https://dc.lft.to/lastmile_qr_scan"}}, {"name": "f41413966c964d2f42e308f77785f218", "lon": -76.99760033333334, "lat": 38.88768683333333, "type": "electric_scooter", "fusion_lon": 0.0, "is_reserved": 0, "bike_id": "f41413966c964d2f42e308f77785f218", "fusion_lat": 0.0, "is_disabled": 0, "rental_uris": {"ios": "https://dc.lft.to/lastmile_qr_scan", "android": "https://dc.lft.to/lastmile_qr_scan"}}, {"name": "b75cbbc93281490a9928030970a5f96b", "lon": -76.98215133333333, "lat": 38.985057833333336, "type": "electric_bike", "fusion_lon": 0.0, "is_reserved": 0, "bike_id": "b75cbbc93281490a9928030970a5f96b", "fusion_lat": 0.0, "is_disabled": 0, "rental_uris": {"ios": "https://dc.lft.to/lastmile_qr_scan", "android": "https://dc.lft.to/lastmile_qr_scan"}}, {"name": "adccc92e4a429bac7398b90cce866c86", "lon": -77.01772316666667, "lat": 38.98270183333333, "type": "electric_bike", "fusion_lon": 0.0, "is_reserved": 0, "bike_id": "adccc92e4a429bac7398b90cce866c86", "fusion_lat": 0.0, "is_disabled": 0, "rental_uris": {"ios": "https://dc.lft.to/lastmile_qr_scan", "android": "https://dc.lft.to/lastmile_qr_scan"}}, {"name": "a147b188412e5cf5cc0004afebaa30fd", "lon": -76.94942416666666, "lat": 38.895086166666665, "type": "electric_scooter", "fusion_lon": 0.0, "is_reserved": 0, "bike_id": "a147b188412e5cf5cc0004afebaa30fd", "fusion_lat": 0.0, "is_disabled": 0, "rental_uris": {"ios": "https://dc.lft.to/lastmile_qr_scan", "android": "https://dc.lft.to/lastmile_qr_scan"}}, {"name": "3554c4ba69ab23e77c520f2202e03002", "lon": -77.03154333333333, "lat": 38.927881166666666, "type": "electric_scooter", "fusion_lon": 0.0, "is_reserved": 0, "bike_id": "3554c4ba69ab23e77c520f2202e03002", "fusion_lat": 0.0, "is_disabled": 0, "rental_uris": {"ios": "https://dc.lft.to/lastmile_qr_scan", "android": "https://dc.lft.to/lastmile_qr_scan"}}, {"name": "d3e6675eafe9336189b5ac239873a890", "lon": -77.0173015, "lat": 38.902552166666666, "type": "electric_scooter", "fusion_lon": 0.0, "is_reserved": 0, "bike_id": "d3e6675eafe9336189b5ac239873a890", "fusion_lat": 0.0, "is_disabled": 0, "rental_uris": {"ios": "https://dc.lft.to/lastmile_qr_scan", "android": "https://dc.lft.to/lastmile_qr_scan"}}, {"name": "9d360ca770ae6aea2f97be571a5d40b7", "lon": -76.94683566666667, "lat": 38.886286166666665, "type": "electric_scooter", "fusion_lon": 0.0, "is_reserved": 0, "bike_id": "9d360ca770ae6aea2f97be571a5d40b7", "fusion_lat": 0.0, "is_disabled": 0, "rental_uris": {"ios": "https://dc.lft.to/lastmile_qr_scan", "android": "https://dc.lft.to/lastmile_qr_scan"}}, {"name": "d5b1ffd7c3c47501bb0d933770883e47", "lon": -77.03510266666666, "lat": 38.931043, "type": "electric_bike", "fusion_lon": 0.0, "is_reserved": 0, "bike_id": "d5b1ffd7c3c47501bb0d933770883e47", "fusion_lat": 0.0, "is_disabled": 0, "rental_uris": {"ios": "https://dc.lft.to/lastmile_qr_scan", "android": "https://dc.lft.to/lastmile_qr_scan"}}, {"name": "871463face3ee237675e30c38eaf861c", "lon": -77.024159, "lat": 38.91417, "type": "electric_bike", "fusion_lon": 0.0, "is_reserved": 0, "bike_id": "871463face3ee237675e30c38eaf861c", "fusion_lat": 0.0, "is_disabled": 0, "rental_uris": {"ios": "https://dc.lft.to/lastmile_qr_scan", "android": "https://dc.lft.to/lastmile_qr_scan"}}, {"name": "1e1a3ac5a8cd9d3a982b5ae7eca5576d", "lon": -77.04595583333334, "lat": 38.9233185, "type": "electric_scooter", "fusion_lon": 0.0, "is_reserved": 0, "bike_id": "1e1a3ac5a8cd9d3a982b5ae7eca5576d", "fusion_lat": 0.0, "is_disabled": 0, "rental_uris": {"ios": "https://dc.lft.to/lastmile_qr_scan", "android": "https://dc.lft.to/lastmile_qr_scan"}}, {"name": "9032e9e206a0d23880ce0323627c0ddb", "lon": -77.04182383333334, "lat": 38.892241166666665, "type": "electric_scooter", "fusion_lon": 0.0, "is_reserved": 0, "bike_id": "9032e9e206a0d23880ce0323627c0ddb", "fusion_lat": 0.0, "is_disabled": 0, "rental_uris": {"ios": "https://dc.lft.to/lastmile_qr_scan", "android": "https://dc.lft.to/lastmile_qr_scan"}}, {"name": "c699b5ab64aaaccb0270addfc1942e02", "lon": -77.01227016666667, "lat": 38.916776166666665, "type": "electric_scooter", "fusion_lon": 0.0, "is_reserved": 0, "bike_id": "c699b5ab64aaaccb0270addfc1942e02", "fusion_lat": 0.0, "is_disabled": 0, "rental_uris": {"ios": "https://dc.lft.to/lastmile_qr_scan", "android": "https://dc.lft.to/lastmile_qr_scan"}}, {"name": "df57c5cd92970e5ea416376f9a8dc63d", "lon": -77.023208, "lat": 38.8973345, "type": "electric_scooter", "fusion_lon": 0.0, "is_reserved": 0, "bike_id": "df57c5cd92970e5ea416376f9a8dc63d", "fusion_lat": 0.0, "is_disabled": 0, "rental_uris": {"ios": "https://dc.lft.to/lastmile_qr_scan", "android": "https://dc.lft.to/lastmile_qr_scan"}}, {"name": "be3f4df4071835f9e075908a5c285898", "lon": -77.03502466666667, "lat": 38.963818, "type": "electric_scooter", "fusion_lon": 0.0, "is_reserved": 0, "bike_id": "be3f4df4071835f9e075908a5c285898", "fusion_lat": 0.0, "is_disabled": 0, "rental_uris": {"ios": "https://dc.lft.to/lastmile_qr_scan", "android": "https://dc.lft.to/lastmile_qr_scan"}}, {"name": "bd53c37acae4019b84459ef5be42b445", "lon": -77.03249866666667, "lat": 38.91563983333333, "type": "electric_scooter", "fusion_lon": 0.0, "is_reserved": 0, "bike_id": "bd53c37acae4019b84459ef5be42b445", "fusion_lat": 0.0, "is_disabled": 0, "rental_uris": {"ios": "https://dc.lft.to/lastmile_qr_scan", "android": "https://dc.lft.to/lastmile_qr_scan"}}, {"name": "c1804a54731230457b65b1118f8cd00c", "lon": -77.023702, "lat": 38.91991733333333, "type": "electric_scooter", "fusion_lon": 0.0, "is_reserved": 0, "bike_id": "c1804a54731230457b65b1118f8cd00c", "fusion_lat": 0.0, "is_disabled": 0, "rental_uris": {"ios": "https://dc.lft.to/lastmile_qr_scan", "android": "https://dc.lft.to/lastmile_qr_scan"}}, {"name": "cd6bca3ab38f94e21a01de571a04eac6", "lon": -77.112271, "lat": 38.81267066666667, "type": "electric_bike", "fusion_lon": 0.0, "is_reserved": 0, "bike_id": "cd6bca3ab38f94e21a01de571a04eac6", "fusion_lat": 0.0, "is_disabled": 0, "rental_uris": {"ios": "https://dc.lft.to/lastmile_qr_scan", "android": "https://dc.lft.to/lastmile_qr_scan"}}, {"name": "310ad7be3bc859deca67b3a943a7b62c", "lon": -77.0325595, "lat": 38.934108333333334, "type": "electric_scooter", "fusion_lon": 0.0, "is_reserved": 0, "bike_id": "310ad7be3bc859deca67b3a943a7b62c", "fusion_lat": 0.0, "is_disabled": 0, "rental_uris": {"ios": "https://dc.lft.to/lastmile_qr_scan", "android": "https://dc.lft.to/lastmile_qr_scan"}}, {"name": "e67f13d2547b980a6487fda1be4fedbb", "lon": -77.040988, "lat": 38.917754, "type": "electric_scooter", "fusion_lon": 0.0, "is_reserved": 0, "bike_id": "e67f13d2547b980a6487fda1be4fedbb", "fusion_lat": 0.0, "is_disabled": 0, "rental_uris": {"ios": "https://dc.lft.to/lastmile_qr_scan", "android": "https://dc.lft.to/lastmile_qr_scan"}}, {"name": "f303135ba0328417a0f51c993c17913d", "lon": -77.00482933333333, "lat": 38.91129, "type": "electric_scooter", "fusion_lon": 0.0, "is_reserved": 0, "bike_id": "f303135ba0328417a0f51c993c17913d", "fusion_lat": 0.0, "is_disabled": 0, "rental_uris": {"ios": "https://dc.lft.to/lastmile_qr_scan", "android": "https://dc.lft.to/lastmile_qr_scan"}}, {"name": "08be65fc2d9712dbc85c1754a80d4326", "lon": -77.026184, "lat": 38.896828666666664, "type": "electric_scooter", "fusion_lon": 0.0, "is_reserved": 0, "bike_id": "08be65fc2d9712dbc85c1754a80d4326", "fusion_lat": 0.0, "is_disabled": 0, "rental_uris": {"ios": "https://dc.lft.to/lastmile_qr_scan", "android": "https://dc.lft.to/lastmile_qr_scan"}}, {"name": "3fb9d6c4f78506b3a551b56b1c2390ac", "lon": -77.0020015, "lat": 38.902474, "type": "electric_scooter", "fusion_lon": 0.0, "is_reserved": 0, "bike_id": "3fb9d6c4f78506b3a551b56b1c2390ac", "fusion_lat": 0.0, "is_disabled": 0, "rental_uris": {"ios": "https://dc.lft.to/lastmile_qr_scan", "android": "https://dc.lft.to/lastmile_qr_scan"}}, {"name": "197c7e124452de80cdd1b1198d416b0c", "lon": -77.04336333333333, "lat": 38.90788966666667, "type": "electric_scooter", "fusion_lon": 0.0, "is_reserved": 0, "bike_id": "197c7e124452de80cdd1b1198d416b0c", "fusion_lat": 0.0, "is_disabled": 0, "rental_uris": {"ios": "https://dc.lft.to/lastmile_qr_scan", "android": "https://dc.lft.to/lastmile_qr_scan"}}, {"name": "1a705b47797200a2fa98ca6a7040c1b8", "lon": -77.0386905, "lat": 38.91555133333333, "type": "electric_scooter", "fusion_lon": 0.0, "is_reserved": 0, "bike_id": "1a705b47797200a2fa98ca6a7040c1b8", "fusion_lat": 0.0, "is_disabled": 0, "rental_uris": {"ios": "https://dc.lft.to/lastmile_qr_scan", "android": "https://dc.lft.to/lastmile_qr_scan"}}, {"name": "cc28004207f39fa8ba30e51905847319", "lon": -77.0232015, "lat": 38.90733983333333, "type": "electric_scooter", "fusion_lon": 0.0, "is_reserved": 0, "bike_id": "cc28004207f39fa8ba30e51905847319", "fusion_lat": 0.0, "is_disabled": 0, "rental_uris": {"ios": "https://dc.lft.to/lastmile_qr_scan", "android": "https://dc.lft.to/lastmile_qr_scan"}}, {"name": "3585a2112b56530fd66500801d66071b", "lon": -76.99543266666667, "lat": 38.9266755, "type": "electric_scooter", "fusion_lon": 0.0, "is_reserved": 0, "bike_id": "3585a2112b56530fd66500801d66071b", "fusion_lat": 0.0, "is_disabled": 0, "rental_uris": {"ios": "https://dc.lft.to/lastmile_qr_scan", "android": "https://dc.lft.to/lastmile_qr_scan"}}, {"name": "bcb03adb6bedd6f030015ef32a50b247", "lon": -77.03515516666667, "lat": 38.906683666666666, "type": "electric_scooter", "fusion_lon": 0.0, "is_reserved": 0, "bike_id": "bcb03adb6bedd6f030015ef32a50b247", "fusion_lat": 0.0, "is_disabled": 0, "rental_uris": {"ios": "https://dc.lft.to/lastmile_qr_scan", "android": "https://dc.lft.to/lastmile_qr_scan"}}, {"name": "82e973db97a0cca5cf4059a17d5a3d7a", "lon": -77.03239116666667, "lat": 38.915529666666664, "type": "electric_scooter", "fusion_lon": 0.0, "is_reserved": 0, "bike_id": "82e973db97a0cca5cf4059a17d5a3d7a", "fusion_lat": 0.0, "is_disabled": 0, "rental_uris": {"ios": "https://dc.lft.to/lastmile_qr_scan", "android": "https://dc.lft.to/lastmile_qr_scan"}}, {"name": "52213a3e6a653538e743a2f8af536478", "lon": -77.09803266666667, "lat": 38.850307666666666, "type": "electric_bike", "fusion_lon": 0.0, "is_reserved": 0, "bike_id": "52213a3e6a653538e743a2f8af536478", "fusion_lat": 0.0, "is_disabled": 0, "rental_uris": {"ios": "https://dc.lft.to/lastmile_qr_scan", "android": "https://dc.lft.to/lastmile_qr_scan"}}, {"name": "58dea95324d49c9e2344d0619d41f81d", "lon": -77.07804433333334, "lat": 38.8491235, "type": "electric_bike", "fusion_lon": 0.0, "is_reserved": 0, "bike_id": "58dea95324d49c9e2344d0619d41f81d", "fusion_lat": 0.0, "is_disabled": 0, "rental_uris": {"ios": "https://dc.lft.to/lastmile_qr_scan", "android": "https://dc.lft.to/lastmile_qr_scan"}}, {"name": "4a98af8f101de6816d7ce70569f84f76", "lon": -77.03489466666667, "lat": 38.932777, "type": "electric_scooter", "fusion_lon": 0.0, "is_reserved": 0, "bike_id": "4a98af8f101de6816d7ce70569f84f76", "fusion_lat": 0.0, "is_disabled": 0, "rental_uris": {"ios": "https://dc.lft.to/lastmile_qr_scan", "android": "https://dc.lft.to/lastmile_qr_scan"}}, {"name": "e31fcf663ad8b35e1f4bdee25f0cdda2", "lon": -77.02813766666667, "lat": 38.916269, "type": "electric_scooter", "fusion_lon": 0.0, "is_reserved": 0, "bike_id": "e31fcf663ad8b35e1f4bdee25f0cdda2", "fusion_lat": 0.0, "is_disabled": 0, "rental_uris": {"ios": "https://dc.lft.to/lastmile_qr_scan", "android": "https://dc.lft.to/lastmile_qr_scan"}}, {"name": "e09c12a5c13a53d54fa1baa1601e5ea7", "lon": -77.0248225, "lat": 38.909685333333336, "type": "electric_scooter", "fusion_lon": 0.0, "is_reserved": 0, "bike_id": "e09c12a5c13a53d54fa1baa1601e5ea7", "fusion_lat": 0.0, "is_disabled": 0, "rental_uris": {"ios": "https://dc.lft.to/lastmile_qr_scan", "android": "https://dc.lft.to/lastmile_qr_scan"}}, {"name": "75225846b34ad783c403a9407f7dab41", "lon": -76.9809285, "lat": 38.953591, "type": "electric_bike", "fusion_lon": 0.0, "is_reserved": 0, "bike_id": "75225846b34ad783c403a9407f7dab41", "fusion_lat": 0.0, "is_disabled": 0, "rental_uris": {"ios": "https://dc.lft.to/lastmile_qr_scan", "android": "https://dc.lft.to/lastmile_qr_scan"}}, {"name": "681a3417258a69f05d6f20efd23f9c8f", "lon": -77.03076983333334, "lat": 38.9111195, "type": "electric_scooter", "fusion_lon": 0.0, "is_reserved": 0, "bike_id": "681a3417258a69f05d6f20efd23f9c8f", "fusion_lat": 0.0, "is_disabled": 0, "rental_uris": {"ios": "https://dc.lft.to/lastmile_qr_scan", "android": "https://dc.lft.to/lastmile_qr_scan"}}, {"name": "7127bdc12127481c24765da05be39d45", "lon": -77.04477433333334, "lat": 38.924102166666664, "type": "electric_scooter", "fusion_lon": 0.0, "is_reserved": 0, "bike_id": "7127bdc12127481c24765da05be39d45", "fusion_lat": 0.0, "is_disabled": 0, "rental_uris": {"ios": "https://dc.lft.to/lastmile_qr_scan", "android": "https://dc.lft.to/lastmile_qr_scan"}}, {"name": "cc4f7f457133389a088eab24f5100804", "lon": -77.04003533333334, "lat": 38.934299833333334, "type": "electric_scooter", "fusion_lon": 0.0, "is_reserved": 0, "bike_id": "cc4f7f457133389a088eab24f5100804", "fusion_lat": 0.0, "is_disabled": 0, "rental_uris": {"ios": "https://dc.lft.to/lastmile_qr_scan", "android": "https://dc.lft.to/lastmile_qr_scan"}}, {"name": "82c81a3140f45f91640da8bb83368af0", "lon": -77.01573016666667, "lat": 38.91683966666667, "type": "electric_scooter", "fusion_lon": 0.0, "is_reserved": 0, "bike_id": "82c81a3140f45f91640da8bb83368af0", "fusion_lat": 0.0, "is_disabled": 0, "rental_uris": {"ios": "https://dc.lft.to/lastmile_qr_scan", "android": "https://dc.lft.to/lastmile_qr_scan"}}, {"name": "2b53174197278c020eab2177133dc63b", "lon": -77.05219083333333, "lat": 38.92493666666667, "type": "electric_scooter", "fusion_lon": 0.0, "is_reserved": 0, "bike_id": "2b53174197278c020eab2177133dc63b", "fusion_lat": 0.0, "is_disabled": 0, "rental_uris": {"ios": "https://dc.lft.to/lastmile_qr_scan", "android": "https://dc.lft.to/lastmile_qr_scan"}}, {"name": "44b83315bf83944f14b3a6e9a97cd712", "lon": -77.00919283333333, "lat": 38.8278415, "type": "electric_scooter", "fusion_lon": 0.0, "is_reserved": 0, "bike_id": "44b83315bf83944f14b3a6e9a97cd712", "fusion_lat": 0.0, "is_disabled": 0, "rental_uris": {"ios": "https://dc.lft.to/lastmile_qr_scan", "android": "https://dc.lft.to/lastmile_qr_scan"}}, {"name": "d9e8bff8c85fac816cd6443251113066", "lon": -77.00573183333333, "lat": 38.90646183333333, "type": "electric_scooter", "fusion_lon": 0.0, "is_reserved": 0, "bike_id": "d9e8bff8c85fac816cd6443251113066", "fusion_lat": 0.0, "is_disabled": 0, "rental_uris": {"ios": "https://dc.lft.to/lastmile_qr_scan", "android": "https://dc.lft.to/lastmile_qr_scan"}}, {"name": "2409b8f4367356aa9e3d971d2bb655b1", "lon": -76.99382633333333, "lat": 38.87759366666667, "type": "electric_scooter", "fusion_lon": 0.0, "is_reserved": 0, "bike_id": "2409b8f4367356aa9e3d971d2bb655b1", "fusion_lat": 0.0, "is_disabled": 0, "rental_uris": {"ios": "https://dc.lft.to/lastmile_qr_scan", "android": "https://dc.lft.to/lastmile_qr_scan"}}, {"name": "b3f9101169525acda39eccdcb659a729", "lon": -77.08192366666667, "lat": 38.8556685, "type": "electric_bike", "fusion_lon": 0.0, "is_reserved": 0, "bike_id": "b3f9101169525acda39eccdcb659a729", "fusion_lat": 0.0, "is_disabled": 0, "rental_uris": {"ios": "https://dc.lft.to/lastmile_qr_scan", "android": "https://dc.lft.to/lastmile_qr_scan"}}, {"name": "8d4926809e69166fa654966cc7fb5ef4", "lon": -77.05149, "lat": 38.90543533333334, "type": "electric_scooter", "fusion_lon": 0.0, "is_reserved": 0, "bike_id": "8d4926809e69166fa654966cc7fb5ef4", "fusion_lat": 0.0, "is_disabled": 0, "rental_uris": {"ios": "https://dc.lft.to/lastmile_qr_scan", "android": "https://dc.lft.to/lastmile_qr_scan"}}, {"name": "5cef4692f973662dc52cf60663dc514e", "lon": -77.02299083333334, "lat": 38.917788333333334, "type": "electric_scooter", "fusion_lon": 0.0, "is_reserved": 0, "bike_id": "5cef4692f973662dc52cf60663dc514e", "fusion_lat": 0.0, "is_disabled": 0, "rental_uris": {"ios": "https://dc.lft.to/lastmile_qr_scan", "android": "https://dc.lft.to/lastmile_qr_scan"}}, {"name": "af5add7e3bccc8fcbd138ffb414991c4", "lon": -76.9518615, "lat": 38.907401666666665, "type": "electric_scooter", "fusion_lon": 0.0, "is_reserved": 0, "bike_id": "af5add7e3bccc8fcbd138ffb414991c4", "fusion_lat": 0.0, "is_disabled": 0, "rental_uris": {"ios": "https://dc.lft.to/lastmile_qr_scan", "android": "https://dc.lft.to/lastmile_qr_scan"}}, {"name": "46f842e219095280455879b53748798c", "lon": -76.9884275, "lat": 38.900417166666664, "type": "electric_scooter", "fusion_lon": 0.0, "is_reserved": 0, "bike_id": "46f842e219095280455879b53748798c", "fusion_lat": 0.0, "is_disabled": 0, "rental_uris": {"ios": "https://dc.lft.to/lastmile_qr_scan", "android": "https://dc.lft.to/lastmile_qr_scan"}}, {"name": "ce5aeef23bec0eef0e4208d4370da0f2", "lon": -76.9961075, "lat": 38.88576166666667, "type": "electric_scooter", "fusion_lon": 0.0, "is_reserved": 0, "bike_id": "ce5aeef23bec0eef0e4208d4370da0f2", "fusion_lat": 0.0, "is_disabled": 0, "rental_uris": {"ios": "https://dc.lft.to/lastmile_qr_scan", "android": "https://dc.lft.to/lastmile_qr_scan"}}, {"name": "4a30e8693c20c6bf1d3ff3b376d4c8ef", "lon": -77.00347533333333, "lat": 38.8870475, "type": "electric_scooter", "fusion_lon": 0.0, "is_reserved": 0, "bike_id": "4a30e8693c20c6bf1d3ff3b376d4c8ef", "fusion_lat": 0.0, "is_disabled": 0, "rental_uris": {"ios": "https://dc.lft.to/lastmile_qr_scan", "android": "https://dc.lft.to/lastmile_qr_scan"}}, {"name": "44305bef83196f8398773903c70814a5", "lon": -76.98978866666667, "lat": 38.86514716666667, "type": "electric_scooter", "fusion_lon": 0.0, "is_reserved": 0, "bike_id": "44305bef83196f8398773903c70814a5", "fusion_lat": 0.0, "is_disabled": 0, "rental_uris": {"ios": "https://dc.lft.to/lastmile_qr_scan", "android": "https://dc.lft.to/lastmile_qr_scan"}}, {"name": "8a7e88b902848eff6c4787569633af5d", "lon": -76.99810516666666, "lat": 38.9001435, "type": "electric_scooter", "fusion_lon": 0.0, "is_reserved": 0, "bike_id": "8a7e88b902848eff6c4787569633af5d", "fusion_lat": 0.0, "is_disabled": 0, "rental_uris": {"ios": "https://dc.lft.to/lastmile_qr_scan", "android": "https://dc.lft.to/lastmile_qr_scan"}}, {"name": "b2913b5c5c7c4d735c4485f00df3be75", "lon": -77.02363233333334, "lat": 38.92512883333333, "type": "electric_scooter", "fusion_lon": 0.0, "is_reserved": 0, "bike_id": "b2913b5c5c7c4d735c4485f00df3be75", "fusion_lat": 0.0, "is_disabled": 0, "rental_uris": {"ios": "https://dc.lft.to/lastmile_qr_scan", "android": "https://dc.lft.to/lastmile_qr_scan"}}, {"name": "96bc7d170e61a62ee356bf1a45def7c6", "lon": -76.9779435, "lat": 38.88860966666667, "type": "electric_bike", "fusion_lon": 0.0, "is_reserved": 0, "bike_id": "96bc7d170e61a62ee356bf1a45def7c6", "fusion_lat": 0.0, "is_disabled": 0, "rental_uris": {"ios": "https://dc.lft.to/lastmile_qr_scan", "android": "https://dc.lft.to/lastmile_qr_scan"}}, {"name": "9fb3d5580bca7ab9eb74d62b615f283c", "lon": -77.03588916666666, "lat": 38.912725, "type": "electric_scooter", "fusion_lon": 0.0, "is_reserved": 0, "bike_id": "9fb3d5580bca7ab9eb74d62b615f283c", "fusion_lat": 0.0, "is_disabled": 0, "rental_uris": {"ios": "https://dc.lft.to/lastmile_qr_scan", "android": "https://dc.lft.to/lastmile_qr_scan"}}, {"name": "a1452ce7b404b970a9ba184891ac7702", "lon": -77.00133516666666, "lat": 38.90517, "type": "electric_scooter", "fusion_lon": 0.0, "is_reserved": 0, "bike_id": "a1452ce7b404b970a9ba184891ac7702", "fusion_lat": 0.0, "is_disabled": 0, "rental_uris": {"ios": "https://dc.lft.to/lastmile_qr_scan", "android": "https://dc.lft.to/lastmile_qr_scan"}}, {"name": "8e969aa85ace303de8470ef2ed6f9153", "lon": -77.03265883333333, "lat": 38.902819666666666, "type": "electric_scooter", "fusion_lon": 0.0, "is_reserved": 0, "bike_id": "8e969aa85ace303de8470ef2ed6f9153", "fusion_lat": 0.0, "is_disabled": 0, "rental_uris": {"ios": "https://dc.lft.to/lastmile_qr_scan", "android": "https://dc.lft.to/lastmile_qr_scan"}}, {"name": "8c7ac97ac9f2115943bfe02406a7c46d", "lon": -77.04478783333333, "lat": 38.91869166666667, "type": "electric_scooter", "fusion_lon": 0.0, "is_reserved": 0, "bike_id": "8c7ac97ac9f2115943bfe02406a7c46d", "fusion_lat": 0.0, "is_disabled": 0, "rental_uris": {"ios": "https://dc.lft.to/lastmile_qr_scan", "android": "https://dc.lft.to/lastmile_qr_scan"}}, {"name": "d8ab25884c160aeb1a24491069a9f353", "lon": -77.04505916666666, "lat": 38.90002666666667, "type": "electric_scooter", "fusion_lon": 0.0, "is_reserved": 0, "bike_id": "d8ab25884c160aeb1a24491069a9f353", "fusion_lat": 0.0, "is_disabled": 0, "rental_uris": {"ios": "https://dc.lft.to/lastmile_qr_scan", "android": "https://dc.lft.to/lastmile_qr_scan"}}, {"name": "6205f5e4f634baaf519f58988d61bc55", "lon": -77.0437285, "lat": 38.925701333333336, "type": "electric_scooter", "fusion_lon": 0.0, "is_reserved": 0, "bike_id": "6205f5e4f634baaf519f58988d61bc55", "fusion_lat": 0.0, "is_disabled": 0, "rental_uris": {"ios": "https://dc.lft.to/lastmile_qr_scan", "android": "https://dc.lft.to/lastmile_qr_scan"}}, {"name": "e700aa9a5fb05cd0479b028838267895", "lon": -76.9354685, "lat": 38.9555685, "type": "electric_bike", "fusion_lon": 0.0, "is_reserved": 0, "bike_id": "e700aa9a5fb05cd0479b028838267895", "fusion_lat": 0.0, "is_disabled": 0, "rental_uris": {"ios": "https://dc.lft.to/lastmile_qr_scan", "android": "https://dc.lft.to/lastmile_qr_scan"}}, {"name": "33b9940b5c2dae2555392722df11dc86", "lon": -76.93199066666666, "lat": 38.898828333333334, "type": "electric_scooter", "fusion_lon": 0.0, "is_reserved": 0, "bike_id": "33b9940b5c2dae2555392722df11dc86", "fusion_lat": 0.0, "is_disabled": 0, "rental_uris": {"ios": "https://dc.lft.to/lastmile_qr_scan", "android": "https://dc.lft.to/lastmile_qr_scan"}}, {"name": "02e42acb5f7b7b1d1c0128b565d716d9", "lon": -77.05146483333333, "lat": 38.90537833333333, "type": "electric_scooter", "fusion_lon": 0.0, "is_reserved": 0, "bike_id": "02e42acb5f7b7b1d1c0128b565d716d9", "fusion_lat": 0.0, "is_disabled": 0, "rental_uris": {"ios": "https://dc.lft.to/lastmile_qr_scan", "android": "https://dc.lft.to/lastmile_qr_scan"}}, {"name": "2344a2284d1cb4ba40ea8782e301498e", "lon": -77.04767233333334, "lat": 38.9124685, "type": "electric_scooter", "fusion_lon": 0.0, "is_reserved": 0, "bike_id": "2344a2284d1cb4ba40ea8782e301498e", "fusion_lat": 0.0, "is_disabled": 0, "rental_uris": {"ios": "https://dc.lft.to/lastmile_qr_scan", "android": "https://dc.lft.to/lastmile_qr_scan"}}, {"name": "90374faea80ef47a7a4b96c70fd56676", "lon": -76.99477883333333, "lat": 38.90299266666667, "type": "electric_scooter", "fusion_lon": 0.0, "is_reserved": 0, "bike_id": "90374faea80ef47a7a4b96c70fd56676", "fusion_lat": 0.0, "is_disabled": 0, "rental_uris": {"ios": "https://dc.lft.to/lastmile_qr_scan", "android": "https://dc.lft.to/lastmile_qr_scan"}}, {"name": "d56a653677149d859c21dd4a8709e979", "lon": -77.0448315, "lat": 38.92244, "type": "electric_scooter", "fusion_lon": 0.0, "is_reserved": 0, "bike_id": "d56a653677149d859c21dd4a8709e979", "fusion_lat": 0.0, "is_disabled": 0, "rental_uris": {"ios": "https://dc.lft.to/lastmile_qr_scan", "android": "https://dc.lft.to/lastmile_qr_scan"}}, {"name": "fc7fc701be86a1ae2b14b4c32656d2b4", "lon": -76.9851465, "lat": 38.8666395, "type": "electric_scooter", "fusion_lon": 0.0, "is_reserved": 0, "bike_id": "fc7fc701be86a1ae2b14b4c32656d2b4", "fusion_lat": 0.0, "is_disabled": 0, "rental_uris": {"ios": "https://dc.lft.to/lastmile_qr_scan", "android": "https://dc.lft.to/lastmile_qr_scan"}}, {"name": "18881e0cd1457ce3665f9e350272c81f", "lon": -77.0334135, "lat": 38.89222933333333, "type": "electric_scooter", "fusion_lon": 0.0, "is_reserved": 0, "bike_id": "18881e0cd1457ce3665f9e350272c81f", "fusion_lat": 0.0, "is_disabled": 0, "rental_uris": {"ios": "https://dc.lft.to/lastmile_qr_scan", "android": "https://dc.lft.to/lastmile_qr_scan"}}, {"name": "b9e8ee42149d6817ca9f1b773fbb24df", "lon": -76.99720816666667, "lat": 38.92749366666666, "type": "electric_bike", "fusion_lon": 0.0, "is_reserved": 0, "bike_id": "b9e8ee42149d6817ca9f1b773fbb24df", "fusion_lat": 0.0, "is_disabled": 0, "rental_uris": {"ios": "https://dc.lft.to/lastmile_qr_scan", "android": "https://dc.lft.to/lastmile_qr_scan"}}, {"name": "006c6b8111e9804f0d7a48109c593f54", "lon": -77.04481316666667, "lat": 38.84286483333333, "type": "electric_bike", "fusion_lon": 0.0, "is_reserved": 0, "bike_id": "006c6b8111e9804f0d7a48109c593f54", "fusion_lat": 0.0, "is_disabled": 0, "rental_uris": {"ios": "https://dc.lft.to/lastmile_qr_scan", "android": "https://dc.lft.to/lastmile_qr_scan"}}, {"name": "e421131d45401445c4649f81c0b946e1", "lon": -77.038555, "lat": 38.910169333333336, "type": "electric_scooter", "fusion_lon": 0.0, "is_reserved": 0, "bike_id": "e421131d45401445c4649f81c0b946e1", "fusion_lat": 0.0, "is_disabled": 0, "rental_uris": {"ios": "https://dc.lft.to/lastmile_qr_scan", "android": "https://dc.lft.to/lastmile_qr_scan"}}, {"name": "8dffdb97db05426a2e9c707bf22f01af", "lon": -77.0057125, "lat": 38.87895316666667, "type": "electric_scooter", "fusion_lon": 0.0, "is_reserved": 0, "bike_id": "8dffdb97db05426a2e9c707bf22f01af", "fusion_lat": 0.0, "is_disabled": 0, "rental_uris": {"ios": "https://dc.lft.to/lastmile_qr_scan", "android": "https://dc.lft.to/lastmile_qr_scan"}}, {"name": "7db3b3ad9fd7903d24ec9ed1b1fdfb45", "lon": -77.03486116666667, "lat": 38.905778, "type": "electric_scooter", "fusion_lon": 0.0, "is_reserved": 0, "bike_id": "7db3b3ad9fd7903d24ec9ed1b1fdfb45", "fusion_lat": 0.0, "is_disabled": 0, "rental_uris": {"ios": "https://dc.lft.to/lastmile_qr_scan", "android": "https://dc.lft.to/lastmile_qr_scan"}}, {"name": "4923e94eb2790b1d8e658782f747a21e", "lon": -77.0183245, "lat": 38.9095965, "type": "electric_scooter", "fusion_lon": 0.0, "is_reserved": 0, "bike_id": "4923e94eb2790b1d8e658782f747a21e", "fusion_lat": 0.0, "is_disabled": 0, "rental_uris": {"ios": "https://dc.lft.to/lastmile_qr_scan", "android": "https://dc.lft.to/lastmile_qr_scan"}}, {"name": "af61906882bba39f51b18e3fb4ac41cf", "lon": -77.0449835, "lat": 38.911819333333334, "type": "electric_scooter", "fusion_lon": 0.0, "is_reserved": 0, "bike_id": "af61906882bba39f51b18e3fb4ac41cf", "fusion_lat": 0.0, "is_disabled": 0, "rental_uris": {"ios": "https://dc.lft.to/lastmile_qr_scan", "android": "https://dc.lft.to/lastmile_qr_scan"}}, {"name": "7c3aaf8b6b0302c77f3344bd357074ba", "lon": -77.02092916666666, "lat": 38.93716166666667, "type": "electric_bike", "fusion_lon": 0.0, "is_reserved": 0, "bike_id": "7c3aaf8b6b0302c77f3344bd357074ba", "fusion_lat": 0.0, "is_disabled": 0, "rental_uris": {"ios": "https://dc.lft.to/lastmile_qr_scan", "android": "https://dc.lft.to/lastmile_qr_scan"}}, {"name": "0a18ad2000ae682c9915ab036be0767c", "lon": -76.9493435, "lat": 38.893454, "type": "electric_scooter", "fusion_lon": 0.0, "is_reserved": 0, "bike_id": "0a18ad2000ae682c9915ab036be0767c", "fusion_lat": 0.0, "is_disabled": 0, "rental_uris": {"ios": "https://dc.lft.to/lastmile_qr_scan", "android": "https://dc.lft.to/lastmile_qr_scan"}}, {"name": "fc7baabe02aae12a1328415a5e591bfe", "lon": -76.99835783333333, "lat": 38.8847925, "type": "electric_scooter", "fusion_lon": 0.0, "is_reserved": 0, "bike_id": "fc7baabe02aae12a1328415a5e591bfe", "fusion_lat": 0.0, "is_disabled": 0, "rental_uris": {"ios": "https://dc.lft.to/lastmile_qr_scan", "android": "https://dc.lft.to/lastmile_qr_scan"}}, {"name": "a2bc293a19ddff012f9bb0cf65524083", "lon": -77.0279415, "lat": 38.897042666666664, "type": "electric_scooter", "fusion_lon": 0.0, "is_reserved": 0, "bike_id": "a2bc293a19ddff012f9bb0cf65524083", "fusion_lat": 0.0, "is_disabled": 0, "rental_uris": {"ios": "https://dc.lft.to/lastmile_qr_scan", "android": "https://dc.lft.to/lastmile_qr_scan"}}, {"name": "b4ee8931fb4d6fb20071c0715e41e7c4", "lon": -77.0426005, "lat": 38.90851216666667, "type": "electric_scooter", "fusion_lon": 0.0, "is_reserved": 0, "bike_id": "b4ee8931fb4d6fb20071c0715e41e7c4", "fusion_lat": 0.0, "is_disabled": 0, "rental_uris": {"ios": "https://dc.lft.to/lastmile_qr_scan", "android": "https://dc.lft.to/lastmile_qr_scan"}}, {"name": "01c4798b91d2550d01609dab46a38768", "lon": -77.0021465, "lat": 38.91447316666667, "type": "electric_scooter", "fusion_lon": 0.0, "is_reserved": 0, "bike_id": "01c4798b91d2550d01609dab46a38768", "fusion_lat": 0.0, "is_disabled": 0, "rental_uris": {"ios": "https://dc.lft.to/lastmile_qr_scan", "android": "https://dc.lft.to/lastmile_qr_scan"}}, {"name": "d2ff84c5e54c011c83f4c04bad8547a1", "lon": -77.04527383333334, "lat": 38.93458716666667, "type": "electric_bike", "fusion_lon": 0.0, "is_reserved": 0, "bike_id": "d2ff84c5e54c011c83f4c04bad8547a1", "fusion_lat": 0.0, "is_disabled": 0, "rental_uris": {"ios": "https://dc.lft.to/lastmile_qr_scan", "android": "https://dc.lft.to/lastmile_qr_scan"}}, {"name": "9cf8c42ad7866c59c93c469aaf33df75", "lon": -76.99777683333333, "lat": 38.86212166666667, "type": "electric_bike", "fusion_lon": 0.0, "is_reserved": 0, "bike_id": "9cf8c42ad7866c59c93c469aaf33df75", "fusion_lat": 0.0, "is_disabled": 0, "rental_uris": {"ios": "https://dc.lft.to/lastmile_qr_scan", "android": "https://dc.lft.to/lastmile_qr_scan"}}, {"name": "a95eb266d9326dfaf89c2926712f9e44", "lon": -77.0726205, "lat": 38.9334395, "type": "electric_bike", "fusion_lon": 0.0, "is_reserved": 0, "bike_id": "a95eb266d9326dfaf89c2926712f9e44", "fusion_lat": 0.0, "is_disabled": 0, "rental_uris": {"ios": "https://dc.lft.to/lastmile_qr_scan", "android": "https://dc.lft.to/lastmile_qr_scan"}}, {"name": "75221d84e587f91d8217f6fb837fab91", "lon": -77.031022, "lat": 38.95077666666667, "type": "electric_scooter", "fusion_lon": 0.0, "is_reserved": 0, "bike_id": "75221d84e587f91d8217f6fb837fab91", "fusion_lat": 0.0, "is_disabled": 0, "rental_uris": {"ios": "https://dc.lft.to/lastmile_qr_scan", "android": "https://dc.lft.to/lastmile_qr_scan"}}, {"name": "eaa9d2d9ff609aeb174b638edb091345", "lon": -76.969063, "lat": 38.84613366666667, "type": "electric_bike", "fusion_lon": 0.0, "is_reserved": 0, "bike_id": "eaa9d2d9ff609aeb174b638edb091345", "fusion_lat": 0.0, "is_disabled": 0, "rental_uris": {"ios": "https://dc.lft.to/lastmile_qr_scan", "android": "https://dc.lft.to/lastmile_qr_scan"}}, {"name": "7c54f363390999dc60de4736ed9d3d2d", "lon": -77.0840175, "lat": 38.908069166666664, "type": "electric_scooter", "fusion_lon": 0.0, "is_reserved": 0, "bike_id": "7c54f363390999dc60de4736ed9d3d2d", "fusion_lat": 0.0, "is_disabled": 0, "rental_uris": {"ios": "https://dc.lft.to/lastmile_qr_scan", "android": "https://dc.lft.to/lastmile_qr_scan"}}, {"name": "ed3ecdc60caea3b1c494bccb26313bba", "lon": -77.0083155, "lat": 38.82909766666667, "type": "electric_bike", "fusion_lon": 0.0, "is_reserved": 0, "bike_id": "ed3ecdc60caea3b1c494bccb26313bba", "fusion_lat": 0.0, "is_disabled": 0, "rental_uris": {"ios": "https://dc.lft.to/lastmile_qr_scan", "android": "https://dc.lft.to/lastmile_qr_scan"}}, {"name": "5a9acb213b651c14eab64a44527f6119", "lon": -77.03186116666667, "lat": 38.91354066666667, "type": "electric_scooter", "fusion_lon": 0.0, "is_reserved": 0, "bike_id": "5a9acb213b651c14eab64a44527f6119", "fusion_lat": 0.0, "is_disabled": 0, "rental_uris": {"ios": "https://dc.lft.to/lastmile_qr_scan", "android": "https://dc.lft.to/lastmile_qr_scan"}}, {"name": "efc1d69d3986f3360f819bf4c7c2e606", "lon": -77.03441383333333, "lat": 38.90967366666667, "type": "electric_scooter", "fusion_lon": 0.0, "is_reserved": 0, "bike_id": "efc1d69d3986f3360f819bf4c7c2e606", "fusion_lat": 0.0, "is_disabled": 0, "rental_uris": {"ios": "https://dc.lft.to/lastmile_qr_scan", "android": "https://dc.lft.to/lastmile_qr_scan"}}, {"name": "960c73f3475572a6dcdeafdb5e1a6d0d", "lon": -77.03800533333333, "lat": 38.915431, "type": "electric_scooter", "fusion_lon": 0.0, "is_reserved": 0, "bike_id": "960c73f3475572a6dcdeafdb5e1a6d0d", "fusion_lat": 0.0, "is_disabled": 0, "rental_uris": {"ios": "https://dc.lft.to/lastmile_qr_scan", "android": "https://dc.lft.to/lastmile_qr_scan"}}, {"name": "f275ec6f84d1fb50d2edc458ff038326", "lon": -77.0005135, "lat": 38.8767485, "type": "electric_scooter", "fusion_lon": 0.0, "is_reserved": 0, "bike_id": "f275ec6f84d1fb50d2edc458ff038326", "fusion_lat": 0.0, "is_disabled": 0, "rental_uris": {"ios": "https://dc.lft.to/lastmile_qr_scan", "android": "https://dc.lft.to/lastmile_qr_scan"}}, {"name": "a22aa5ed977aade46bafb690ab26157e", "lon": -77.07192666666667, "lat": 38.95950883333333, "type": "electric_scooter", "fusion_lon": 0.0, "is_reserved": 0, "bike_id": "a22aa5ed977aade46bafb690ab26157e", "fusion_lat": 0.0, "is_disabled": 0, "rental_uris": {"ios": "https://dc.lft.to/lastmile_qr_scan", "android": "https://dc.lft.to/lastmile_qr_scan"}}, {"name": "a28d9cdee8768f96c783f0447e7b35ff", "lon": -76.94940116666666, "lat": 38.895086, "type": "electric_scooter", "fusion_lon": 0.0, "is_reserved": 0, "bike_id": "a28d9cdee8768f96c783f0447e7b35ff", "fusion_lat": 0.0, "is_disabled": 0, "rental_uris": {"ios": "https://dc.lft.to/lastmile_qr_scan", "android": "https://dc.lft.to/lastmile_qr_scan"}}, {"name": "30cf6ac321942f78535a26000df51d3d", "lon": -77.015106, "lat": 38.910460666666665, "type": "electric_scooter", "fusion_lon": 0.0, "is_reserved": 0, "bike_id": "30cf6ac321942f78535a26000df51d3d", "fusion_lat": 0.0, "is_disabled": 0, "rental_uris": {"ios": "https://dc.lft.to/lastmile_qr_scan", "android": "https://dc.lft.to/lastmile_qr_scan"}}, {"name": "1ef92c290f6b9fd20da30df2c23551e5", "lon": -77.038656, "lat": 38.9170545, "type": "electric_scooter", "fusion_lon": 0.0, "is_reserved": 0, "bike_id": "1ef92c290f6b9fd20da30df2c23551e5", "fusion_lat": 0.0, "is_disabled": 0, "rental_uris": {"ios": "https://dc.lft.to/lastmile_qr_scan", "android": "https://dc.lft.to/lastmile_qr_scan"}}, {"name": "436e27f94ec44be40f6619a3cd67ad15", "lon": -77.04135583333333, "lat": 38.922692166666664, "type": "electric_scooter", "fusion_lon": 0.0, "is_reserved": 0, "bike_id": "436e27f94ec44be40f6619a3cd67ad15", "fusion_lat": 0.0, "is_disabled": 0, "rental_uris": {"ios": "https://dc.lft.to/lastmile_qr_scan", "android": "https://dc.lft.to/lastmile_qr_scan"}}, {"name": "b3006d090df84906e7d87782e700d261", "lon": -77.0261495, "lat": 38.9056315, "type": "electric_scooter", "fusion_lon": 0.0, "is_reserved": 0, "bike_id": "b3006d090df84906e7d87782e700d261", "fusion_lat": 0.0, "is_disabled": 0, "rental_uris": {"ios": "https://dc.lft.to/lastmile_qr_scan", "android": "https://dc.lft.to/lastmile_qr_scan"}}, {"name": "d60341d7fed7b7470b536eb5d4a71d73", "lon": -76.95983333333334, "lat": 38.869834166666664, "type": "electric_bike", "fusion_lon": 0.0, "is_reserved": 0, "bike_id": "d60341d7fed7b7470b536eb5d4a71d73", "fusion_lat": 0.0, "is_disabled": 0, "rental_uris": {"ios": "https://dc.lft.to/lastmile_qr_scan", "android": "https://dc.lft.to/lastmile_qr_scan"}}, {"name": "4c016aaca41702346db689d47b21e7a6", "lon": -77.00891533333333, "lat": 38.9035045, "type": "electric_scooter", "fusion_lon": 0.0, "is_reserved": 0, "bike_id": "4c016aaca41702346db689d47b21e7a6", "fusion_lat": 0.0, "is_disabled": 0, "rental_uris": {"ios": "https://dc.lft.to/lastmile_qr_scan", "android": "https://dc.lft.to/lastmile_qr_scan"}}, {"name": "cb9f0d4407200cac7e80826d335c60d6", "lon": -77.0389605, "lat": 38.908183, "type": "electric_scooter", "fusion_lon": 0.0, "is_reserved": 0, "bike_id": "cb9f0d4407200cac7e80826d335c60d6", "fusion_lat": 0.0, "is_disabled": 0, "rental_uris": {"ios": "https://dc.lft.to/lastmile_qr_scan", "android": "https://dc.lft.to/lastmile_qr_scan"}}, {"name": "dacd29230c74d38c5152c54c7e69f80c", "lon": -76.9960425, "lat": 38.856908833333335, "type": "electric_scooter", "fusion_lon": 0.0, "is_reserved": 0, "bike_id": "dacd29230c74d38c5152c54c7e69f80c", "fusion_lat": 0.0, "is_disabled": 0, "rental_uris": {"ios": "https://dc.lft.to/lastmile_qr_scan", "android": "https://dc.lft.to/lastmile_qr_scan"}}, {"name": "af5fad64908708bfa2d9329b28c5f939", "lon": -77.00206, "lat": 38.81941616666667, "type": "electric_bike", "fusion_lon": 0.0, "is_reserved": 0, "bike_id": "af5fad64908708bfa2d9329b28c5f939", "fusion_lat": 0.0, "is_disabled": 0, "rental_uris": {"ios": "https://dc.lft.to/lastmile_qr_scan", "android": "https://dc.lft.to/lastmile_qr_scan"}}, {"name": "66a0866a9df87e3f01d3ef8be738c34e", "lon": -77.024852, "lat": 38.930981833333334, "type": "electric_scooter", "fusion_lon": 0.0, "is_reserved": 0, "bike_id": "66a0866a9df87e3f01d3ef8be738c34e", "fusion_lat": 0.0, "is_disabled": 0, "rental_uris": {"ios": "https://dc.lft.to/lastmile_qr_scan", "android": "https://dc.lft.to/lastmile_qr_scan"}}, {"name": "acbd31c4a57cb8a017928ccd401e72f8", "lon": -76.986333, "lat": 38.880433333333336, "type": "electric_bike", "fusion_lon": 0.0, "is_reserved": 0, "bike_id": "acbd31c4a57cb8a017928ccd401e72f8", "fusion_lat": 0.0, "is_disabled": 0, "rental_uris": {"ios": "https://dc.lft.to/lastmile_qr_scan", "android": "https://dc.lft.to/lastmile_qr_scan"}}, {"name": "f303aca6c5a8ebc5f5d7e2ca136f0d11", "lon": -77.05754833333333, "lat": 38.9247405, "type": "electric_bike", "fusion_lon": 0.0, "is_reserved": 0, "bike_id": "f303aca6c5a8ebc5f5d7e2ca136f0d11", "fusion_lat": 0.0, "is_disabled": 0, "rental_uris": {"ios": "https://dc.lft.to/lastmile_qr_scan", "android": "https://dc.lft.to/lastmile_qr_scan"}}, {"name": "ed646f9be6544cf5f02e9ece57dd2088", "lon": -76.99803, "lat": 38.908533166666665, "type": "electric_scooter", "fusion_lon": 0.0, "is_reserved": 0, "bike_id": "ed646f9be6544cf5f02e9ece57dd2088", "fusion_lat": 0.0, "is_disabled": 0, "rental_uris": {"ios": "https://dc.lft.to/lastmile_qr_scan", "android": "https://dc.lft.to/lastmile_qr_scan"}}, {"name": "cc6f8df9adf0b921e36d1b802f191eda", "lon": -77.04171933333333, "lat": 38.915512166666666, "type": "electric_scooter", "fusion_lon": 0.0, "is_reserved": 0, "bike_id": "cc6f8df9adf0b921e36d1b802f191eda", "fusion_lat": 0.0, "is_disabled": 0, "rental_uris": {"ios": "https://dc.lft.to/lastmile_qr_scan", "android": "https://dc.lft.to/lastmile_qr_scan"}}, {"name": "ed1d51d23f88dd8eccdc34b2ecdde598", "lon": -77.00375766666667, "lat": 38.88264433333333, "type": "electric_scooter", "fusion_lon": 0.0, "is_reserved": 0, "bike_id": "ed1d51d23f88dd8eccdc34b2ecdde598", "fusion_lat": 0.0, "is_disabled": 0, "rental_uris": {"ios": "https://dc.lft.to/lastmile_qr_scan", "android": "https://dc.lft.to/lastmile_qr_scan"}}, {"name": "ee5bae5e1764195dd9512a7781ca2b8b", "lon": -77.041817, "lat": 38.91554766666667, "type": "electric_scooter", "fusion_lon": 0.0, "is_reserved": 0, "bike_id": "ee5bae5e1764195dd9512a7781ca2b8b", "fusion_lat": 0.0, "is_disabled": 0, "rental_uris": {"ios": "https://dc.lft.to/lastmile_qr_scan", "android": "https://dc.lft.to/lastmile_qr_scan"}}, {"name": "3a2232c5f8ef7e253018250350e4840c", "lon": -77.06183133333333, "lat": 38.902621, "type": "electric_scooter", "fusion_lon": 0.0, "is_reserved": 0, "bike_id": "3a2232c5f8ef7e253018250350e4840c", "fusion_lat": 0.0, "is_disabled": 0, "rental_uris": {"ios": "https://dc.lft.to/lastmile_qr_scan", "android": "https://dc.lft.to/lastmile_qr_scan"}}, {"name": "957bf61e418e2f419b4f5dc2fa843a5a", "lon": -77.06331233333333, "lat": 38.9442035, "type": "electric_scooter", "fusion_lon": 0.0, "is_reserved": 0, "bike_id": "957bf61e418e2f419b4f5dc2fa843a5a", "fusion_lat": 0.0, "is_disabled": 0, "rental_uris": {"ios": "https://dc.lft.to/lastmile_qr_scan", "android": "https://dc.lft.to/lastmile_qr_scan"}}, {"name": "217aa8e7afd3aea8bcd121bf1c1b458e", "lon": -77.02299533333333, "lat": 38.91836133333334, "type": "electric_scooter", "fusion_lon": 0.0, "is_reserved": 0, "bike_id": "217aa8e7afd3aea8bcd121bf1c1b458e", "fusion_lat": 0.0, "is_disabled": 0, "rental_uris": {"ios": "https://dc.lft.to/lastmile_qr_scan", "android": "https://dc.lft.to/lastmile_qr_scan"}}, {"name": "a9dbbe7fab4ac5c864f1f082107894ca", "lon": -77.02738316666667, "lat": 38.93111566666666, "type": "electric_bike", "fusion_lon": 0.0, "is_reserved": 0, "bike_id": "a9dbbe7fab4ac5c864f1f082107894ca", "fusion_lat": 0.0, "is_disabled": 0, "rental_uris": {"ios": "https://dc.lft.to/lastmile_qr_scan", "android": "https://dc.lft.to/lastmile_qr_scan"}}, {"name": "fb02a67a93014ee8653c21d6de0a25b1", "lon": -77.0058615, "lat": 38.905683, "type": "electric_scooter", "fusion_lon": 0.0, "is_reserved": 0, "bike_id": "fb02a67a93014ee8653c21d6de0a25b1", "fusion_lat": 0.0, "is_disabled": 0, "rental_uris": {"ios": "https://dc.lft.to/lastmile_qr_scan", "android": "https://dc.lft.to/lastmile_qr_scan"}}, {"name": "5b513be90aa4002b655bd7327b065a2a", "lon": -77.00659983333334, "lat": 38.9446875, "type": "electric_scooter", "fusion_lon": 0.0, "is_reserved": 0, "bike_id": "5b513be90aa4002b655bd7327b065a2a", "fusion_lat": 0.0, "is_disabled": 0, "rental_uris": {"ios": "https://dc.lft.to/lastmile_qr_scan", "android": "https://dc.lft.to/lastmile_qr_scan"}}, {"name": "ce7b05565776cfdc417717e5bbeb48ec", "lon": -77.05228716666667, "lat": 38.9105685, "type": "electric_scooter", "fusion_lon": 0.0, "is_reserved": 0, "bike_id": "ce7b05565776cfdc417717e5bbeb48ec", "fusion_lat": 0.0, "is_disabled": 0, "rental_uris": {"ios": "https://dc.lft.to/lastmile_qr_scan", "android": "https://dc.lft.to/lastmile_qr_scan"}}, {"name": "7302695a0347bfc9d6d62d15cb10bc04", "lon": -77.11709733333333, "lat": 38.8674515, "type": "electric_bike", "fusion_lon": 0.0, "is_reserved": 0, "bike_id": "7302695a0347bfc9d6d62d15cb10bc04", "fusion_lat": 0.0, "is_disabled": 0, "rental_uris": {"ios": "https://dc.lft.to/lastmile_qr_scan", "android": "https://dc.lft.to/lastmile_qr_scan"}}, {"name": "c6070c1d4146fb30b1d805266fa64601", "lon": -77.02203016666667, "lat": 38.91396683333333, "type": "electric_scooter", "fusion_lon": 0.0, "is_reserved": 0, "bike_id": "c6070c1d4146fb30b1d805266fa64601", "fusion_lat": 0.0, "is_disabled": 0, "rental_uris": {"ios": "https://dc.lft.to/lastmile_qr_scan", "android": "https://dc.lft.to/lastmile_qr_scan"}}, {"name": "895ec6544c3bcc18a11bd98a3ae8508a", "lon": -76.99705283333333, "lat": 38.8442175, "type": "electric_scooter", "fusion_lon": 0.0, "is_reserved": 0, "bike_id": "895ec6544c3bcc18a11bd98a3ae8508a", "fusion_lat": 0.0, "is_disabled": 0, "rental_uris": {"ios": "https://dc.lft.to/lastmile_qr_scan", "android": "https://dc.lft.to/lastmile_qr_scan"}}, {"name": "59ea59564803610229a25200b40f3d55", "lon": -77.03578033333334, "lat": 38.91925066666667, "type": "electric_bike", "fusion_lon": 0.0, "is_reserved": 0, "bike_id": "59ea59564803610229a25200b40f3d55", "fusion_lat": 0.0, "is_disabled": 0, "rental_uris": {"ios": "https://dc.lft.to/lastmile_qr_scan", "android": "https://dc.lft.to/lastmile_qr_scan"}}, {"name": "8bccc0c67d5ab9b03a1fb3408f4c836e", "lon": -77.00614366666667, "lat": 38.8754775, "type": "electric_scooter", "fusion_lon": 0.0, "is_reserved": 0, "bike_id": "8bccc0c67d5ab9b03a1fb3408f4c836e", "fusion_lat": 0.0, "is_disabled": 0, "rental_uris": {"ios": "https://dc.lft.to/lastmile_qr_scan", "android": "https://dc.lft.to/lastmile_qr_scan"}}, {"name": "dcdaab8091b92fdf2d7f18409550fb38", "lon": -76.98836533333333, "lat": 38.89261033333333, "type": "electric_scooter", "fusion_lon": 0.0, "is_reserved": 0, "bike_id": "dcdaab8091b92fdf2d7f18409550fb38", "fusion_lat": 0.0, "is_disabled": 0, "rental_uris": {"ios": "https://dc.lft.to/lastmile_qr_scan", "android": "https://dc.lft.to/lastmile_qr_scan"}}, {"name": "2611d48afe2cbe9f4c9b1824e992f169", "lon": -77.04850533333334, "lat": 38.9196465, "type": "electric_scooter", "fusion_lon": 0.0, "is_reserved": 0, "bike_id": "2611d48afe2cbe9f4c9b1824e992f169", "fusion_lat": 0.0, "is_disabled": 0, "rental_uris": {"ios": "https://dc.lft.to/lastmile_qr_scan", "android": "https://dc.lft.to/lastmile_qr_scan"}}, {"name": "22343229c6ab13f2522e3c3fc5d3efc9", "lon": -77.02299683333334, "lat": 38.92806916666667, "type": "electric_scooter", "fusion_lon": 0.0, "is_reserved": 0, "bike_id": "22343229c6ab13f2522e3c3fc5d3efc9", "fusion_lat": 0.0, "is_disabled": 0, "rental_uris": {"ios": "https://dc.lft.to/lastmile_qr_scan", "android": "https://dc.lft.to/lastmile_qr_scan"}}, {"name": "02b81d0e8e95735add5cef836b2e4d2e", "lon": -77.0270405, "lat": 38.90423783333333, "type": "electric_scooter", "fusion_lon": 0.0, "is_reserved": 0, "bike_id": "02b81d0e8e95735add5cef836b2e4d2e", "fusion_lat": 0.0, "is_disabled": 0, "rental_uris": {"ios": "https://dc.lft.to/lastmile_qr_scan", "android": "https://dc.lft.to/lastmile_qr_scan"}}, {"name": "b962cafb69f3b2a3ffe50a64d725ced1", "lon": -77.00434666666666, "lat": 38.87664983333333, "type": "electric_scooter", "fusion_lon": 0.0, "is_reserved": 0, "bike_id": "b962cafb69f3b2a3ffe50a64d725ced1", "fusion_lat": 0.0, "is_disabled": 0, "rental_uris": {"ios": "https://dc.lft.to/lastmile_qr_scan", "android": "https://dc.lft.to/lastmile_qr_scan"}}, {"name": "5f54b337435d82aade98c4562eed3d8e", "lon": -77.03837266666666, "lat": 38.91190433333333, "type": "electric_scooter", "fusion_lon": 0.0, "is_reserved": 0, "bike_id": "5f54b337435d82aade98c4562eed3d8e", "fusion_lat": 0.0, "is_disabled": 0, "rental_uris": {"ios": "https://dc.lft.to/lastmile_qr_scan", "android": "https://dc.lft.to/lastmile_qr_scan"}}, {"name": "a247cb739d93cbd1a8cbd9b63acbb55f", "lon": -77.05126366666667, "lat": 38.92345383333333, "type": "electric_scooter", "fusion_lon": 0.0, "is_reserved": 0, "bike_id": "a247cb739d93cbd1a8cbd9b63acbb55f", "fusion_lat": 0.0, "is_disabled": 0, "rental_uris": {"ios": "https://dc.lft.to/lastmile_qr_scan", "android": "https://dc.lft.to/lastmile_qr_scan"}}, {"name": "f6fd73027b8828c3a6daea2cbb996ac8", "lon": -77.04802566666666, "lat": 38.910501, "type": "electric_scooter", "fusion_lon": 0.0, "is_reserved": 0, "bike_id": "f6fd73027b8828c3a6daea2cbb996ac8", "fusion_lat": 0.0, "is_disabled": 0, "rental_uris": {"ios": "https://dc.lft.to/lastmile_qr_scan", "android": "https://dc.lft.to/lastmile_qr_scan"}}, {"name": "25959d90528c838b467b4ff35bcb4777", "lon": -77.021991, "lat": 38.90574183333333, "type": "electric_scooter", "fusion_lon": 0.0, "is_reserved": 0, "bike_id": "25959d90528c838b467b4ff35bcb4777", "fusion_lat": 0.0, "is_disabled": 0, "rental_uris": {"ios": "https://dc.lft.to/lastmile_qr_scan", "android": "https://dc.lft.to/lastmile_qr_scan"}}, {"name": "94dc6c03d98ac2e53861c69975c1278a", "lon": -76.99806283333334, "lat": 38.88565583333333, "type": "electric_scooter", "fusion_lon": 0.0, "is_reserved": 0, "bike_id": "94dc6c03d98ac2e53861c69975c1278a", "fusion_lat": 0.0, "is_disabled": 0, "rental_uris": {"ios": "https://dc.lft.to/lastmile_qr_scan", "android": "https://dc.lft.to/lastmile_qr_scan"}}, {"name": "5a5ccfa8bb02d7f392f2f81f84242863", "lon": -77.0271025, "lat": 38.9068155, "type": "electric_scooter", "fusion_lon": 0.0, "is_reserved": 0, "bike_id": "5a5ccfa8bb02d7f392f2f81f84242863", "fusion_lat": 0.0, "is_disabled": 0, "rental_uris": {"ios": "https://dc.lft.to/lastmile_qr_scan", "android": "https://dc.lft.to/lastmile_qr_scan"}}, {"name": "e3d03b3ad57a5c1997d348570018e48a", "lon": -77.03232416666667, "lat": 38.907573666666664, "type": "electric_scooter", "fusion_lon": 0.0, "is_reserved": 0, "bike_id": "e3d03b3ad57a5c1997d348570018e48a", "fusion_lat": 0.0, "is_disabled": 0, "rental_uris": {"ios": "https://dc.lft.to/lastmile_qr_scan", "android": "https://dc.lft.to/lastmile_qr_scan"}}, {"name": "05c56a1477dcde11660093c638901173", "lon": -77.02405566666667, "lat": 38.91648766666667, "type": "electric_scooter", "fusion_lon": 0.0, "is_reserved": 0, "bike_id": "05c56a1477dcde11660093c638901173", "fusion_lat": 0.0, "is_disabled": 0, "rental_uris": {"ios": "https://dc.lft.to/lastmile_qr_scan", "android": "https://dc.lft.to/lastmile_qr_scan"}}, {"name": "4dccb2d03dfa502c0d3f4a29f5efa864", "lon": -77.02443766666667, "lat": 38.92042433333334, "type": "electric_scooter", "fusion_lon": 0.0, "is_reserved": 0, "bike_id": "4dccb2d03dfa502c0d3f4a29f5efa864", "fusion_lat": 0.0, "is_disabled": 0, "rental_uris": {"ios": "https://dc.lft.to/lastmile_qr_scan", "android": "https://dc.lft.to/lastmile_qr_scan"}}, {"name": "b4bd0be23cbe7d823eb74f482a1d2a42", "lon": -76.950166, "lat": 38.893865, "type": "electric_scooter", "fusion_lon": 0.0, "is_reserved": 0, "bike_id": "b4bd0be23cbe7d823eb74f482a1d2a42", "fusion_lat": 0.0, "is_disabled": 0, "rental_uris": {"ios": "https://dc.lft.to/lastmile_qr_scan", "android": "https://dc.lft.to/lastmile_qr_scan"}}, {"name": "846ad2e833b3741ca45d83bfc8307c0c", "lon": -77.03591, "lat": 38.928002166666666, "type": "electric_scooter", "fusion_lon": 0.0, "is_reserved": 0, "bike_id": "846ad2e833b3741ca45d83bfc8307c0c", "fusion_lat": 0.0, "is_disabled": 0, "rental_uris": {"ios": "https://dc.lft.to/lastmile_qr_scan", "android": "https://dc.lft.to/lastmile_qr_scan"}}, {"name": "73f6963c47d783f458a9ece9708c613d", "lon": -77.032762, "lat": 38.9163585, "type": "electric_scooter", "fusion_lon": 0.0, "is_reserved": 0, "bike_id": "73f6963c47d783f458a9ece9708c613d", "fusion_lat": 0.0, "is_disabled": 0, "rental_uris": {"ios": "https://dc.lft.to/lastmile_qr_scan", "android": "https://dc.lft.to/lastmile_qr_scan"}}, {"name": "8f8b941fab522db7e06e4dc278666933", "lon": -77.05751983333333, "lat": 38.92483766666667, "type": "electric_bike", "fusion_lon": 0.0, "is_reserved": 0, "bike_id": "8f8b941fab522db7e06e4dc278666933", "fusion_lat": 0.0, "is_disabled": 0, "rental_uris": {"ios": "https://dc.lft.to/lastmile_qr_scan", "android": "https://dc.lft.to/lastmile_qr_scan"}}, {"name": "7655b4805997c48458cbfc031028f52a", "lon": -77.02473383333333, "lat": 38.92084033333333, "type": "electric_scooter", "fusion_lon": 0.0, "is_reserved": 0, "bike_id": "7655b4805997c48458cbfc031028f52a", "fusion_lat": 0.0, "is_disabled": 0, "rental_uris": {"ios": "https://dc.lft.to/lastmile_qr_scan", "android": "https://dc.lft.to/lastmile_qr_scan"}}, {"name": "fba44895bb832babf83b102ea954a893", "lon": -77.02719883333333, "lat": 38.92453416666667, "type": "electric_scooter", "fusion_lon": 0.0, "is_reserved": 0, "bike_id": "fba44895bb832babf83b102ea954a893", "fusion_lat": 0.0, "is_disabled": 0, "rental_uris": {"ios": "https://dc.lft.to/lastmile_qr_scan", "android": "https://dc.lft.to/lastmile_qr_scan"}}, {"name": "f3d48489e63962522fba9dc2890c2050", "lon": -77.03455416666667, "lat": 38.9205695, "type": "electric_scooter", "fusion_lon": 0.0, "is_reserved": 0, "bike_id": "f3d48489e63962522fba9dc2890c2050", "fusion_lat": 0.0, "is_disabled": 0, "rental_uris": {"ios": "https://dc.lft.to/lastmile_qr_scan", "android": "https://dc.lft.to/lastmile_qr_scan"}}, {"name": "b2be5b96323142e0057cf2a0bddf053e", "lon": -76.9882675, "lat": 38.90031183333333, "type": "electric_scooter", "fusion_lon": 0.0, "is_reserved": 0, "bike_id": "b2be5b96323142e0057cf2a0bddf053e", "fusion_lat": 0.0, "is_disabled": 0, "rental_uris": {"ios": "https://dc.lft.to/lastmile_qr_scan", "android": "https://dc.lft.to/lastmile_qr_scan"}}, {"name": "88460a1582b328963bcc300e3b456e2d", "lon": -77.0412375, "lat": 38.923138333333334, "type": "electric_scooter", "fusion_lon": 0.0, "is_reserved": 0, "bike_id": "88460a1582b328963bcc300e3b456e2d", "fusion_lat": 0.0, "is_disabled": 0, "rental_uris": {"ios": "https://dc.lft.to/lastmile_qr_scan", "android": "https://dc.lft.to/lastmile_qr_scan"}}, {"name": "cc1f1c7988d9f560ed0645c330cd67c2", "lon": -77.100896, "lat": 38.95957033333333, "type": "electric_bike", "fusion_lon": 0.0, "is_reserved": 0, "bike_id": "cc1f1c7988d9f560ed0645c330cd67c2", "fusion_lat": 0.0, "is_disabled": 0, "rental_uris": {"ios": "https://dc.lft.to/lastmile_qr_scan", "android": "https://dc.lft.to/lastmile_qr_scan"}}, {"name": "277fb63a0a4aa26031307f9a97053b90", "lon": -77.03943066666666, "lat": 38.914121333333334, "type": "electric_scooter", "fusion_lon": 0.0, "is_reserved": 0, "bike_id": "277fb63a0a4aa26031307f9a97053b90", "fusion_lat": 0.0, "is_disabled": 0, "rental_uris": {"ios": "https://dc.lft.to/lastmile_qr_scan", "android": "https://dc.lft.to/lastmile_qr_scan"}}, {"name": "e8be6bfad13dbe2ea4bfec8b74936115", "lon": -77.02723416666667, "lat": 38.94088966666666, "type": "electric_scooter", "fusion_lon": 0.0, "is_reserved": 0, "bike_id": "e8be6bfad13dbe2ea4bfec8b74936115", "fusion_lat": 0.0, "is_disabled": 0, "rental_uris": {"ios": "https://dc.lft.to/lastmile_qr_scan", "android": "https://dc.lft.to/lastmile_qr_scan"}}, {"name": "a1256beae1186689aab30c37f5984f1e", "lon": -77.01670533333333, "lat": 38.881215833333336, "type": "electric_scooter", "fusion_lon": 0.0, "is_reserved": 0, "bike_id": "a1256beae1186689aab30c37f5984f1e", "fusion_lat": 0.0, "is_disabled": 0, "rental_uris": {"ios": "https://dc.lft.to/lastmile_qr_scan", "android": "https://dc.lft.to/lastmile_qr_scan"}}, {"name": "e40705b3d1f5748f244fa4d63ebb7e74", "lon": -77.03787683333333, "lat": 38.92473616666667, "type": "electric_scooter", "fusion_lon": 0.0, "is_reserved": 0, "bike_id": "e40705b3d1f5748f244fa4d63ebb7e74", "fusion_lat": 0.0, "is_disabled": 0, "rental_uris": {"ios": "https://dc.lft.to/lastmile_qr_scan", "android": "https://dc.lft.to/lastmile_qr_scan"}}, {"name": "2b204cb4bde3edb0abf2e300fc149dea", "lon": -77.0499875, "lat": 38.8923145, "type": "electric_scooter", "fusion_lon": 0.0, "is_reserved": 0, "bike_id": "2b204cb4bde3edb0abf2e300fc149dea", "fusion_lat": 0.0, "is_disabled": 0, "rental_uris": {"ios": "https://dc.lft.to/lastmile_qr_scan", "android": "https://dc.lft.to/lastmile_qr_scan"}}, {"name": "4cfc06076845c4604ebff615312f1a9b", "lon": -77.03158483333333, "lat": 38.911836666666666, "type": "electric_scooter", "fusion_lon": 0.0, "is_reserved": 0, "bike_id": "4cfc06076845c4604ebff615312f1a9b", "fusion_lat": 0.0, "is_disabled": 0, "rental_uris": {"ios": "https://dc.lft.to/lastmile_qr_scan", "android": "https://dc.lft.to/lastmile_qr_scan"}}, {"name": "24d9a7e2fbf136ab0985bcc514df7bca", "lon": -77.03217966666666, "lat": 38.9361645, "type": "electric_scooter", "fusion_lon": 0.0, "is_reserved": 0, "bike_id": "24d9a7e2fbf136ab0985bcc514df7bca", "fusion_lat": 0.0, "is_disabled": 0, "rental_uris": {"ios": "https://dc.lft.to/lastmile_qr_scan", "android": "https://dc.lft.to/lastmile_qr_scan"}}, {"name": "4cf25cab15c7a3a3fac555a72bc42705", "lon": -77.02049466666666, "lat": 38.915579, "type": "electric_scooter", "fusion_lon": 0.0, "is_reserved": 0, "bike_id": "4cf25cab15c7a3a3fac555a72bc42705", "fusion_lat": 0.0, "is_disabled": 0, "rental_uris": {"ios": "https://dc.lft.to/lastmile_qr_scan", "android": "https://dc.lft.to/lastmile_qr_scan"}}, {"name": "bde9861b3db32dabee96afd19e494718", "lon": -77.0340935, "lat": 38.920487, "type": "electric_scooter", "fusion_lon": 0.0, "is_reserved": 0, "bike_id": "bde9861b3db32dabee96afd19e494718", "fusion_lat": 0.0, "is_disabled": 0, "rental_uris": {"ios": "https://dc.lft.to/lastmile_qr_scan", "android": "https://dc.lft.to/lastmile_qr_scan"}}, {"name": "4c3f370685408b5077a7f2e3020c8a1b", "lon": -76.99992083333333, "lat": 38.900257333333336, "type": "electric_scooter", "fusion_lon": 0.0, "is_reserved": 0, "bike_id": "4c3f370685408b5077a7f2e3020c8a1b", "fusion_lat": 0.0, "is_disabled": 0, "rental_uris": {"ios": "https://dc.lft.to/lastmile_qr_scan", "android": "https://dc.lft.to/lastmile_qr_scan"}}, {"name": "66e4a1a5245ad6ae3d5bd3199694e888", "lon": -77.051825, "lat": 38.903914666666665, "type": "electric_scooter", "fusion_lon": 0.0, "is_reserved": 0, "bike_id": "66e4a1a5245ad6ae3d5bd3199694e888", "fusion_lat": 0.0, "is_disabled": 0, "rental_uris": {"ios": "https://dc.lft.to/lastmile_qr_scan", "android": "https://dc.lft.to/lastmile_qr_scan"}}, {"name": "382bc7bb504eb7e479786440aec1a220", "lon": -76.94425716666667, "lat": 38.966202833333334, "type": "electric_bike", "fusion_lon": 0.0, "is_reserved": 0, "bike_id": "382bc7bb504eb7e479786440aec1a220", "fusion_lat": 0.0, "is_disabled": 0, "rental_uris": {"ios": "https://dc.lft.to/lastmile_qr_scan", "android": "https://dc.lft.to/lastmile_qr_scan"}}, {"name": "4dbd5a2539beaf038797edec08965c43", "lon": -77.02891383333333, "lat": 38.904372333333335, "type": "electric_scooter", "fusion_lon": 0.0, "is_reserved": 0, "bike_id": "4dbd5a2539beaf038797edec08965c43", "fusion_lat": 0.0, "is_disabled": 0, "rental_uris": {"ios": "https://dc.lft.to/lastmile_qr_scan", "android": "https://dc.lft.to/lastmile_qr_scan"}}, {"name": "d0ab2a5849b71e044a2aaf0104748073", "lon": -76.92335116666666, "lat": 38.87107966666667, "type": "electric_bike", "fusion_lon": 0.0, "is_reserved": 0, "bike_id": "d0ab2a5849b71e044a2aaf0104748073", "fusion_lat": 0.0, "is_disabled": 0, "rental_uris": {"ios": "https://dc.lft.to/lastmile_qr_scan", "android": "https://dc.lft.to/lastmile_qr_scan"}}, {"name": "f8baafab53cdd9468e9d6b5cf1279d34", "lon": -77.03371466666667, "lat": 38.9289755, "type": "electric_scooter", "fusion_lon": 0.0, "is_reserved": 0, "bike_id": "f8baafab53cdd9468e9d6b5cf1279d34", "fusion_lat": 0.0, "is_disabled": 0, "rental_uris": {"ios": "https://dc.lft.to/lastmile_qr_scan", "android": "https://dc.lft.to/lastmile_qr_scan"}}, {"name": "3418d98c960345bbf7f0766986ec0cae", "lon": -77.04697866666666, "lat": 38.90227683333333, "type": "electric_scooter", "fusion_lon": 0.0, "is_reserved": 0, "bike_id": "3418d98c960345bbf7f0766986ec0cae", "fusion_lat": 0.0, "is_disabled": 0, "rental_uris": {"ios": "https://dc.lft.to/lastmile_qr_scan", "android": "https://dc.lft.to/lastmile_qr_scan"}}, {"name": "80bef1c26502de77826995c3efdef793", "lon": -77.02405466666667, "lat": 38.917477166666664, "type": "electric_scooter", "fusion_lon": 0.0, "is_reserved": 0, "bike_id": "80bef1c26502de77826995c3efdef793", "fusion_lat": 0.0, "is_disabled": 0, "rental_uris": {"ios": "https://dc.lft.to/lastmile_qr_scan", "android": "https://dc.lft.to/lastmile_qr_scan"}}, {"name": "294a34e0a88557bcd68bdf1a770c311e", "lon": -76.99866266666666, "lat": 38.90020416666667, "type": "electric_scooter", "fusion_lon": 0.0, "is_reserved": 0, "bike_id": "294a34e0a88557bcd68bdf1a770c311e", "fusion_lat": 0.0, "is_disabled": 0, "rental_uris": {"ios": "https://dc.lft.to/lastmile_qr_scan", "android": "https://dc.lft.to/lastmile_qr_scan"}}, {"name": "014df6082f4cbbd9b5b790124ebc433b", "lon": -77.05134116666666, "lat": 38.90717183333334, "type": "electric_scooter", "fusion_lon": 0.0, "is_reserved": 0, "bike_id": "014df6082f4cbbd9b5b790124ebc433b", "fusion_lat": 0.0, "is_disabled": 0, "rental_uris": {"ios": "https://dc.lft.to/lastmile_qr_scan", "android": "https://dc.lft.to/lastmile_qr_scan"}}, {"name": "b1f963286a67c860ce6eac8b3f1333d2", "lon": -77.007747, "lat": 38.926691, "type": "electric_scooter", "fusion_lon": 0.0, "is_reserved": 0, "bike_id": "b1f963286a67c860ce6eac8b3f1333d2", "fusion_lat": 0.0, "is_disabled": 0, "rental_uris": {"ios": "https://dc.lft.to/lastmile_qr_scan", "android": "https://dc.lft.to/lastmile_qr_scan"}}, {"name": "fb91aa3b91084ce6e2aac9097a92d59a", "lon": -77.0234705, "lat": 38.94609666666667, "type": "electric_scooter", "fusion_lon": 0.0, "is_reserved": 0, "bike_id": "fb91aa3b91084ce6e2aac9097a92d59a", "fusion_lat": 0.0, "is_disabled": 0, "rental_uris": {"ios": "https://dc.lft.to/lastmile_qr_scan", "android": "https://dc.lft.to/lastmile_qr_scan"}}, {"name": "d0d538ca7d474ddafb0ab1be359dfb26", "lon": -77.02802266666667, "lat": 38.93306333333334, "type": "electric_scooter", "fusion_lon": 0.0, "is_reserved": 0, "bike_id": "d0d538ca7d474ddafb0ab1be359dfb26", "fusion_lat": 0.0, "is_disabled": 0, "rental_uris": {"ios": "https://dc.lft.to/lastmile_qr_scan", "android": "https://dc.lft.to/lastmile_qr_scan"}}, {"name": "d62f57bf25aba8d18aa3bec477234768", "lon": -76.9670735, "lat": 38.847993, "type": "electric_scooter", "fusion_lon": 0.0, "is_reserved": 0, "bike_id": "d62f57bf25aba8d18aa3bec477234768", "fusion_lat": 0.0, "is_disabled": 0, "rental_uris": {"ios": "https://dc.lft.to/lastmile_qr_scan", "android": "https://dc.lft.to/lastmile_qr_scan"}}, {"name": "f850a84ad6b70a69134495e52fa59bbb", "lon": -77.00272383333333, "lat": 38.887133166666665, "type": "electric_scooter", "fusion_lon": 0.0, "is_reserved": 0, "bike_id": "f850a84ad6b70a69134495e52fa59bbb", "fusion_lat": 0.0, "is_disabled": 0, "rental_uris": {"ios": "https://dc.lft.to/lastmile_qr_scan", "android": "https://dc.lft.to/lastmile_qr_scan"}}, {"name": "8496097f6ca4e0c613cf413d669591cf", "lon": -77.04238283333333, "lat": 38.913444166666665, "type": "electric_scooter", "fusion_lon": 0.0, "is_reserved": 0, "bike_id": "8496097f6ca4e0c613cf413d669591cf", "fusion_lat": 0.0, "is_disabled": 0, "rental_uris": {"ios": "https://dc.lft.to/lastmile_qr_scan", "android": "https://dc.lft.to/lastmile_qr_scan"}}, {"name": "e02e1d3f9c7f0e56fd5c04bc1382eedf", "lon": -77.03664033333334, "lat": 38.91240766666667, "type": "electric_scooter", "fusion_lon": 0.0, "is_reserved": 0, "bike_id": "e02e1d3f9c7f0e56fd5c04bc1382eedf", "fusion_lat": 0.0, "is_disabled": 0, "rental_uris": {"ios": "https://dc.lft.to/lastmile_qr_scan", "android": "https://dc.lft.to/lastmile_qr_scan"}}, {"name": "44cfcaab868f480e405b0d8c2e625e91", "lon": -77.04473633333333, "lat": 38.91870633333333, "type": "electric_scooter", "fusion_lon": 0.0, "is_reserved": 0, "bike_id": "44cfcaab868f480e405b0d8c2e625e91", "fusion_lat": 0.0, "is_disabled": 0, "rental_uris": {"ios": "https://dc.lft.to/lastmile_qr_scan", "android": "https://dc.lft.to/lastmile_qr_scan"}}, {"name": "b3b05e7956f0084f891196ff1f006e66", "lon": -76.94190916666666, "lat": 38.89748066666667, "type": "electric_scooter", "fusion_lon": 0.0, "is_reserved": 0, "bike_id": "b3b05e7956f0084f891196ff1f006e66", "fusion_lat": 0.0, "is_disabled": 0, "rental_uris": {"ios": "https://dc.lft.to/lastmile_qr_scan", "android": "https://dc.lft.to/lastmile_qr_scan"}}, {"name": "753851b86455c0c9f4389ac0f05cddfd", "lon": -77.064031, "lat": 38.905231666666666, "type": "electric_scooter", "fusion_lon": 0.0, "is_reserved": 0, "bike_id": "753851b86455c0c9f4389ac0f05cddfd", "fusion_lat": 0.0, "is_disabled": 0, "rental_uris": {"ios": "https://dc.lft.to/lastmile_qr_scan", "android": "https://dc.lft.to/lastmile_qr_scan"}}, {"name": "bd5123adf5ea4790dfc43439e348505c", "lon": -77.017575, "lat": 38.876861166666664, "type": "electric_scooter", "fusion_lon": 0.0, "is_reserved": 0, "bike_id": "bd5123adf5ea4790dfc43439e348505c", "fusion_lat": 0.0, "is_disabled": 0, "rental_uris": {"ios": "https://dc.lft.to/lastmile_qr_scan", "android": "https://dc.lft.to/lastmile_qr_scan"}}, {"name": "afb38bac9b441399a579348e6cdbf002", "lon": -77.12039416666667, "lat": 38.85510133333333, "type": "electric_bike", "fusion_lon": 0.0, "is_reserved": 0, "bike_id": "afb38bac9b441399a579348e6cdbf002", "fusion_lat": 0.0, "is_disabled": 0, "rental_uris": {"ios": "https://dc.lft.to/lastmile_qr_scan", "android": "https://dc.lft.to/lastmile_qr_scan"}}, {"name": "c3397be91fa64658b74530c494a4443e", "lon": -77.0419035, "lat": 38.893631, "type": "electric_scooter", "fusion_lon": 0.0, "is_reserved": 0, "bike_id": "c3397be91fa64658b74530c494a4443e", "fusion_lat": 0.0, "is_disabled": 0, "rental_uris": {"ios": "https://dc.lft.to/lastmile_qr_scan", "android": "https://dc.lft.to/lastmile_qr_scan"}}, {"name": "5836123426bbb60828792c672d43f22a", "lon": -77.00201133333333, "lat": 38.89345816666667, "type": "electric_scooter", "fusion_lon": 0.0, "is_reserved": 0, "bike_id": "5836123426bbb60828792c672d43f22a", "fusion_lat": 0.0, "is_disabled": 0, "rental_uris": {"ios": "https://dc.lft.to/lastmile_qr_scan", "android": "https://dc.lft.to/lastmile_qr_scan"}}, {"name": "e1921fd68f0d355c9b6412d5c8ba4afd", "lon": -77.00490566666667, "lat": 38.896871833333336, "type": "electric_scooter", "fusion_lon": 0.0, "is_reserved": 0, "bike_id": "e1921fd68f0d355c9b6412d5c8ba4afd", "fusion_lat": 0.0, "is_disabled": 0, "rental_uris": {"ios": "https://dc.lft.to/lastmile_qr_scan", "android": "https://dc.lft.to/lastmile_qr_scan"}}, {"name": "700192b4290712f68fa60fa7204e7d36", "lon": -77.038677, "lat": 38.91017683333333, "type": "electric_scooter", "fusion_lon": 0.0, "is_reserved": 0, "bike_id": "700192b4290712f68fa60fa7204e7d36", "fusion_lat": 0.0, "is_disabled": 0, "rental_uris": {"ios": "https://dc.lft.to/lastmile_qr_scan", "android": "https://dc.lft.to/lastmile_qr_scan"}}, {"name": "1d50a93d9047e3d3fe0ce47f983e2405", "lon": -77.0451615, "lat": 38.89223583333333, "type": "electric_scooter", "fusion_lon": 0.0, "is_reserved": 0, "bike_id": "1d50a93d9047e3d3fe0ce47f983e2405", "fusion_lat": 0.0, "is_disabled": 0, "rental_uris": {"ios": "https://dc.lft.to/lastmile_qr_scan", "android": "https://dc.lft.to/lastmile_qr_scan"}}, {"name": "70f126c1a922cb3fe30596dc215eef6f", "lon": -77.03913716666666, "lat": 38.91759316666667, "type": "electric_scooter", "fusion_lon": 0.0, "is_reserved": 0, "bike_id": "70f126c1a922cb3fe30596dc215eef6f", "fusion_lat": 0.0, "is_disabled": 0, "rental_uris": {"ios": "https://dc.lft.to/lastmile_qr_scan", "android": "https://dc.lft.to/lastmile_qr_scan"}}, {"name": "dbf1c5fd0cdab46089a021077b356d29", "lon": -77.02370133333334, "lat": 38.87926933333333, "type": "electric_scooter", "fusion_lon": 0.0, "is_reserved": 0, "bike_id": "dbf1c5fd0cdab46089a021077b356d29", "fusion_lat": 0.0, "is_disabled": 0, "rental_uris": {"ios": "https://dc.lft.to/lastmile_qr_scan", "android": "https://dc.lft.to/lastmile_qr_scan"}}, {"name": "e19f66f479e16381599877165f742f64", "lon": -77.022128, "lat": 38.9057145, "type": "electric_scooter", "fusion_lon": 0.0, "is_reserved": 0, "bike_id": "e19f66f479e16381599877165f742f64", "fusion_lat": 0.0, "is_disabled": 0, "rental_uris": {"ios": "https://dc.lft.to/lastmile_qr_scan", "android": "https://dc.lft.to/lastmile_qr_scan"}}, {"name": "e2d1788ecb17dd1e949fa5e16a595a41", "lon": -77.02529733333333, "lat": 38.94258883333333, "type": "electric_scooter", "fusion_lon": 0.0, "is_reserved": 0, "bike_id": "e2d1788ecb17dd1e949fa5e16a595a41", "fusion_lat": 0.0, "is_disabled": 0, "rental_uris": {"ios": "https://dc.lft.to/lastmile_qr_scan", "android": "https://dc.lft.to/lastmile_qr_scan"}}, {"name": "ef03590aa5c9c2e3061036a04eecc813", "lon": -77.03645616666667, "lat": 38.9039115, "type": "electric_scooter", "fusion_lon": 0.0, "is_reserved": 0, "bike_id": "ef03590aa5c9c2e3061036a04eecc813", "fusion_lat": 0.0, "is_disabled": 0, "rental_uris": {"ios": "https://dc.lft.to/lastmile_qr_scan", "android": "https://dc.lft.to/lastmile_qr_scan"}}, {"name": "b5144e0483f38c0a116354cd96c06d97", "lon": -77.02885666666667, "lat": 38.913348166666665, "type": "electric_scooter", "fusion_lon": 0.0, "is_reserved": 0, "bike_id": "b5144e0483f38c0a116354cd96c06d97", "fusion_lat": 0.0, "is_disabled": 0, "rental_uris": {"ios": "https://dc.lft.to/lastmile_qr_scan", "android": "https://dc.lft.to/lastmile_qr_scan"}}, {"name": "7c952a7d3aabbb2e60e089bc9d9eb3b5", "lon": -77.08593283333333, "lat": 38.908691833333336, "type": "electric_scooter", "fusion_lon": 0.0, "is_reserved": 0, "bike_id": "7c952a7d3aabbb2e60e089bc9d9eb3b5", "fusion_lat": 0.0, "is_disabled": 0, "rental_uris": {"ios": "https://dc.lft.to/lastmile_qr_scan", "android": "https://dc.lft.to/lastmile_qr_scan"}}, {"name": "e55d55c17997112a81ecea4cb4b04eb0", "lon": -77.0433495, "lat": 38.89522983333333, "type": "electric_scooter", "fusion_lon": 0.0, "is_reserved": 0, "bike_id": "e55d55c17997112a81ecea4cb4b04eb0", "fusion_lat": 0.0, "is_disabled": 0, "rental_uris": {"ios": "https://dc.lft.to/lastmile_qr_scan", "android": "https://dc.lft.to/lastmile_qr_scan"}}, {"name": "71e476d67de3a21f423c68eea09de073", "lon": -77.03367816666666, "lat": 38.910534166666665, "type": "electric_scooter", "fusion_lon": 0.0, "is_reserved": 0, "bike_id": "71e476d67de3a21f423c68eea09de073", "fusion_lat": 0.0, "is_disabled": 0, "rental_uris": {"ios": "https://dc.lft.to/lastmile_qr_scan", "android": "https://dc.lft.to/lastmile_qr_scan"}}, {"name": "6ef38cd3ad36f277fd36794f734be687", "lon": -76.99949033333333, "lat": 38.84293983333333, "type": "electric_scooter", "fusion_lon": 0.0, "is_reserved": 0, "bike_id": "6ef38cd3ad36f277fd36794f734be687", "fusion_lat": 0.0, "is_disabled": 0, "rental_uris": {"ios": "https://dc.lft.to/lastmile_qr_scan", "android": "https://dc.lft.to/lastmile_qr_scan"}}, {"name": "e6806cc2008e0db5fd7b8b68f079b9a3", "lon": -76.950185, "lat": 38.89386416666667, "type": "electric_scooter", "fusion_lon": 0.0, "is_reserved": 0, "bike_id": "e6806cc2008e0db5fd7b8b68f079b9a3", "fusion_lat": 0.0, "is_disabled": 0, "rental_uris": {"ios": "https://dc.lft.to/lastmile_qr_scan", "android": "https://dc.lft.to/lastmile_qr_scan"}}, {"name": "51ac2baa77739953d8d69df6a0c738fe", "lon": -76.985389, "lat": 38.909522333333335, "type": "electric_scooter", "fusion_lon": 0.0, "is_reserved": 0, "bike_id": "51ac2baa77739953d8d69df6a0c738fe", "fusion_lat": 0.0, "is_disabled": 0, "rental_uris": {"ios": "https://dc.lft.to/lastmile_qr_scan", "android": "https://dc.lft.to/lastmile_qr_scan"}}, {"name": "b51635d997ed221d2145d3ea63e23378", "lon": -77.03352016666666, "lat": 38.886228833333334, "type": "electric_scooter", "fusion_lon": 0.0, "is_reserved": 0, "bike_id": "b51635d997ed221d2145d3ea63e23378", "fusion_lat": 0.0, "is_disabled": 0, "rental_uris": {"ios": "https://dc.lft.to/lastmile_qr_scan", "android": "https://dc.lft.to/lastmile_qr_scan"}}, {"name": "dca17d2df3873823559cb520ffb7b530", "lon": -77.025134, "lat": 38.919723, "type": "electric_scooter", "fusion_lon": 0.0, "is_reserved": 0, "bike_id": "dca17d2df3873823559cb520ffb7b530", "fusion_lat": 0.0, "is_disabled": 0, "rental_uris": {"ios": "https://dc.lft.to/lastmile_qr_scan", "android": "https://dc.lft.to/lastmile_qr_scan"}}, {"name": "6e5a5619c4efa4b4d74b608971e27a57", "lon": -77.027355, "lat": 38.92768916666667, "type": "electric_scooter", "fusion_lon": 0.0, "is_reserved": 0, "bike_id": "6e5a5619c4efa4b4d74b608971e27a57", "fusion_lat": 0.0, "is_disabled": 0, "rental_uris": {"ios": "https://dc.lft.to/lastmile_qr_scan", "android": "https://dc.lft.to/lastmile_qr_scan"}}, {"name": "2732a303f4dda1cb17a989191c22bdce", "lon": -77.02425966666667, "lat": 38.956288, "type": "electric_scooter", "fusion_lon": 0.0, "is_reserved": 0, "bike_id": "2732a303f4dda1cb17a989191c22bdce", "fusion_lat": 0.0, "is_disabled": 0, "rental_uris": {"ios": "https://dc.lft.to/lastmile_qr_scan", "android": "https://dc.lft.to/lastmile_qr_scan"}}, {"name": "5862b36b1692e491bb04e901ff614b3c", "lon": -76.96467133333333, "lat": 38.934459833333335, "type": "electric_scooter", "fusion_lon": 0.0, "is_reserved": 0, "bike_id": "5862b36b1692e491bb04e901ff614b3c", "fusion_lat": 0.0, "is_disabled": 0, "rental_uris": {"ios": "https://dc.lft.to/lastmile_qr_scan", "android": "https://dc.lft.to/lastmile_qr_scan"}}, {"name": "a001b5e304e39f11f7af9a18fccefaa9", "lon": -77.004309, "lat": 38.876714666666665, "type": "electric_scooter", "fusion_lon": 0.0, "is_reserved": 0, "bike_id": "a001b5e304e39f11f7af9a18fccefaa9", "fusion_lat": 0.0, "is_disabled": 0, "rental_uris": {"ios": "https://dc.lft.to/lastmile_qr_scan", "android": "https://dc.lft.to/lastmile_qr_scan"}}, {"name": "5528d793704625452cf0fe9204984d45", "lon": -77.05000766666667, "lat": 38.892329833333335, "type": "electric_scooter", "fusion_lon": 0.0, "is_reserved": 0, "bike_id": "5528d793704625452cf0fe9204984d45", "fusion_lat": 0.0, "is_disabled": 0, "rental_uris": {"ios": "https://dc.lft.to/lastmile_qr_scan", "android": "https://dc.lft.to/lastmile_qr_scan"}}, {"name": "5f50ca8b5278cc20bd1d3ad967ce9325", "lon": -77.02974883333333, "lat": 38.92448666666667, "type": "electric_scooter", "fusion_lon": 0.0, "is_reserved": 0, "bike_id": "5f50ca8b5278cc20bd1d3ad967ce9325", "fusion_lat": 0.0, "is_disabled": 0, "rental_uris": {"ios": "https://dc.lft.to/lastmile_qr_scan", "android": "https://dc.lft.to/lastmile_qr_scan"}}, {"name": "e9bfaf40b865a9f932d3949aeb867c43", "lon": -77.03667633333333, "lat": 38.92722883333333, "type": "electric_scooter", "fusion_lon": 0.0, "is_reserved": 0, "bike_id": "e9bfaf40b865a9f932d3949aeb867c43", "fusion_lat": 0.0, "is_disabled": 0, "rental_uris": {"ios": "https://dc.lft.to/lastmile_qr_scan", "android": "https://dc.lft.to/lastmile_qr_scan"}}, {"name": "cea84b388a895c7ab380020d582f273e", "lon": -77.077389, "lat": 38.923739, "type": "electric_scooter", "fusion_lon": 0.0, "is_reserved": 0, "bike_id": "cea84b388a895c7ab380020d582f273e", "fusion_lat": 0.0, "is_disabled": 0, "rental_uris": {"ios": "https://dc.lft.to/lastmile_qr_scan", "android": "https://dc.lft.to/lastmile_qr_scan"}}, {"name": "c9a06ebe3a46b3d9e1f215efa10df88f", "lon": -77.02342416666667, "lat": 38.94499533333333, "type": "electric_scooter", "fusion_lon": 0.0, "is_reserved": 0, "bike_id": "c9a06ebe3a46b3d9e1f215efa10df88f", "fusion_lat": 0.0, "is_disabled": 0, "rental_uris": {"ios": "https://dc.lft.to/lastmile_qr_scan", "android": "https://dc.lft.to/lastmile_qr_scan"}}, {"name": "0e33a89ae237ccd0174078e777ed3356", "lon": -76.9770135, "lat": 38.9025285, "type": "electric_scooter", "fusion_lon": 0.0, "is_reserved": 0, "bike_id": "0e33a89ae237ccd0174078e777ed3356", "fusion_lat": 0.0, "is_disabled": 0, "rental_uris": {"ios": "https://dc.lft.to/lastmile_qr_scan", "android": "https://dc.lft.to/lastmile_qr_scan"}}, {"name": "6a655782114ca85486239985241e63d2", "lon": -77.0425715, "lat": 38.908648166666666, "type": "electric_scooter", "fusion_lon": 0.0, "is_reserved": 0, "bike_id": "6a655782114ca85486239985241e63d2", "fusion_lat": 0.0, "is_disabled": 0, "rental_uris": {"ios": "https://dc.lft.to/lastmile_qr_scan", "android": "https://dc.lft.to/lastmile_qr_scan"}}, {"name": "eecbe84160cb8a301b21056bea8f2ca7", "lon": -77.02625166666667, "lat": 38.8966995, "type": "electric_scooter", "fusion_lon": 0.0, "is_reserved": 0, "bike_id": "eecbe84160cb8a301b21056bea8f2ca7", "fusion_lat": 0.0, "is_disabled": 0, "rental_uris": {"ios": "https://dc.lft.to/lastmile_qr_scan", "android": "https://dc.lft.to/lastmile_qr_scan"}}, {"name": "dfae9bf9f6aa606cab5340993570e44b", "lon": -77.07471433333333, "lat": 38.92062933333333, "type": "electric_bike", "fusion_lon": 0.0, "is_reserved": 0, "bike_id": "dfae9bf9f6aa606cab5340993570e44b", "fusion_lat": 0.0, "is_disabled": 0, "rental_uris": {"ios": "https://dc.lft.to/lastmile_qr_scan", "android": "https://dc.lft.to/lastmile_qr_scan"}}, {"name": "e8a3eeed2aa7d1f2c8271cc9556bcaea", "lon": -76.94632483333334, "lat": 38.89844766666667, "type": "electric_scooter", "fusion_lon": 0.0, "is_reserved": 0, "bike_id": "e8a3eeed2aa7d1f2c8271cc9556bcaea", "fusion_lat": 0.0, "is_disabled": 0, "rental_uris": {"ios": "https://dc.lft.to/lastmile_qr_scan", "android": "https://dc.lft.to/lastmile_qr_scan"}}, {"name": "d55390cae44d3780b02a68ddc2d1b26e", "lon": -77.03378266666667, "lat": 38.92160616666666, "type": "electric_scooter", "fusion_lon": 0.0, "is_reserved": 0, "bike_id": "d55390cae44d3780b02a68ddc2d1b26e", "fusion_lat": 0.0, "is_disabled": 0, "rental_uris": {"ios": "https://dc.lft.to/lastmile_qr_scan", "android": "https://dc.lft.to/lastmile_qr_scan"}}, {"name": "762cae5b6507ab2398f9b0a74353fa96", "lon": -76.98398433333334, "lat": 38.86698883333333, "type": "electric_scooter", "fusion_lon": 0.0, "is_reserved": 0, "bike_id": "762cae5b6507ab2398f9b0a74353fa96", "fusion_lat": 0.0, "is_disabled": 0, "rental_uris": {"ios": "https://dc.lft.to/lastmile_qr_scan", "android": "https://dc.lft.to/lastmile_qr_scan"}}, {"name": "51b4db25f20305eea0da74680310b82e", "lon": -77.04678116666666, "lat": 38.895066166666666, "type": "electric_scooter", "fusion_lon": 0.0, "is_reserved": 0, "bike_id": "51b4db25f20305eea0da74680310b82e", "fusion_lat": 0.0, "is_disabled": 0, "rental_uris": {"ios": "https://dc.lft.to/lastmile_qr_scan", "android": "https://dc.lft.to/lastmile_qr_scan"}}, {"name": "7b7d1abe779503280d03bfe4acb34c78", "lon": -77.04053116666667, "lat": 38.90442616666667, "type": "electric_scooter", "fusion_lon": 0.0, "is_reserved": 0, "bike_id": "7b7d1abe779503280d03bfe4acb34c78", "fusion_lat": 0.0, "is_disabled": 0, "rental_uris": {"ios": "https://dc.lft.to/lastmile_qr_scan", "android": "https://dc.lft.to/lastmile_qr_scan"}}, {"name": "e4f12c70d2f08cc609bcf1d65a0a9e06", "lon": -77.02498133333333, "lat": 38.93048816666666, "type": "electric_scooter", "fusion_lon": 0.0, "is_reserved": 0, "bike_id": "e4f12c70d2f08cc609bcf1d65a0a9e06", "fusion_lat": 0.0, "is_disabled": 0, "rental_uris": {"ios": "https://dc.lft.to/lastmile_qr_scan", "android": "https://dc.lft.to/lastmile_qr_scan"}}, {"name": "7a5f5598318940b44b351fd23b15b63f", "lon": -77.02834483333334, "lat": 38.93278083333333, "type": "electric_scooter", "fusion_lon": 0.0, "is_reserved": 0, "bike_id": "7a5f5598318940b44b351fd23b15b63f", "fusion_lat": 0.0, "is_disabled": 0, "rental_uris": {"ios": "https://dc.lft.to/lastmile_qr_scan", "android": "https://dc.lft.to/lastmile_qr_scan"}}, {"name": "6c29cd1acae3e94e5c9067cc6e472acb", "lon": -76.93614116666667, "lat": 38.886747166666666, "type": "electric_scooter", "fusion_lon": 0.0, "is_reserved": 0, "bike_id": "6c29cd1acae3e94e5c9067cc6e472acb", "fusion_lat": 0.0, "is_disabled": 0, "rental_uris": {"ios": "https://dc.lft.to/lastmile_qr_scan", "android": "https://dc.lft.to/lastmile_qr_scan"}}, {"name": "256db8e6cab43f0559b932ab6cbaa390", "lon": -77.03795216666667, "lat": 38.932174, "type": "electric_scooter", "fusion_lon": 0.0, "is_reserved": 0, "bike_id": "256db8e6cab43f0559b932ab6cbaa390", "fusion_lat": 0.0, "is_disabled": 0, "rental_uris": {"ios": "https://dc.lft.to/lastmile_qr_scan", "android": "https://dc.lft.to/lastmile_qr_scan"}}, {"name": "0472d75142684b73d8ac3cfe3cc1807b", "lon": -77.00032416666667, "lat": 38.92460416666667, "type": "electric_scooter", "fusion_lon": 0.0, "is_reserved": 0, "bike_id": "0472d75142684b73d8ac3cfe3cc1807b", "fusion_lat": 0.0, "is_disabled": 0, "rental_uris": {"ios": "https://dc.lft.to/lastmile_qr_scan", "android": "https://dc.lft.to/lastmile_qr_scan"}}, {"name": "6c8db70ed3719d2340c8afe03a604211", "lon": -77.04552633333333, "lat": 38.924218, "type": "electric_scooter", "fusion_lon": 0.0, "is_reserved": 0, "bike_id": "6c8db70ed3719d2340c8afe03a604211", "fusion_lat": 0.0, "is_disabled": 0, "rental_uris": {"ios": "https://dc.lft.to/lastmile_qr_scan", "android": "https://dc.lft.to/lastmile_qr_scan"}}, {"name": "26fa02a1b844118e5fbea3c3d1f238ec", "lon": -77.043374, "lat": 38.90215116666667, "type": "electric_scooter", "fusion_lon": 0.0, "is_reserved": 0, "bike_id": "26fa02a1b844118e5fbea3c3d1f238ec", "fusion_lat": 0.0, "is_disabled": 0, "rental_uris": {"ios": "https://dc.lft.to/lastmile_qr_scan", "android": "https://dc.lft.to/lastmile_qr_scan"}}, {"name": "e73aa085e212f8fd75e722b422a7f77d", "lon": -77.03847666666667, "lat": 38.91618916666667, "type": "electric_scooter", "fusion_lon": 0.0, "is_reserved": 0, "bike_id": "e73aa085e212f8fd75e722b422a7f77d", "fusion_lat": 0.0, "is_disabled": 0, "rental_uris": {"ios": "https://dc.lft.to/lastmile_qr_scan", "android": "https://dc.lft.to/lastmile_qr_scan"}}, {"name": "e616ae9a272c4b25fbede5a28ffcbc2d", "lon": -77.00626566666666, "lat": 38.83268566666667, "type": "electric_scooter", "fusion_lon": 0.0, "is_reserved": 0, "bike_id": "e616ae9a272c4b25fbede5a28ffcbc2d", "fusion_lat": 0.0, "is_disabled": 0, "rental_uris": {"ios": "https://dc.lft.to/lastmile_qr_scan", "android": "https://dc.lft.to/lastmile_qr_scan"}}, {"name": "01e7898d9a123a8c54a12ae4becaa236", "lon": -77.0730415, "lat": 38.921617, "type": "electric_scooter", "fusion_lon": 0.0, "is_reserved": 0, "bike_id": "01e7898d9a123a8c54a12ae4becaa236", "fusion_lat": 0.0, "is_disabled": 0, "rental_uris": {"ios": "https://dc.lft.to/lastmile_qr_scan", "android": "https://dc.lft.to/lastmile_qr_scan"}}, {"name": "a98a9435d5607f45fb8d6573f84650da", "lon": -77.00219183333333, "lat": 38.90028733333333, "type": "electric_scooter", "fusion_lon": 0.0, "is_reserved": 0, "bike_id": "a98a9435d5607f45fb8d6573f84650da", "fusion_lat": 0.0, "is_disabled": 0, "rental_uris": {"ios": "https://dc.lft.to/lastmile_qr_scan", "android": "https://dc.lft.to/lastmile_qr_scan"}}, {"name": "0de84e13e90f16ad0c15759a852f77b8", "lon": -77.00892233333333, "lat": 38.881957, "type": "electric_scooter", "fusion_lon": 0.0, "is_reserved": 0, "bike_id": "0de84e13e90f16ad0c15759a852f77b8", "fusion_lat": 0.0, "is_disabled": 0, "rental_uris": {"ios": "https://dc.lft.to/lastmile_qr_scan", "android": "https://dc.lft.to/lastmile_qr_scan"}}, {"name": "5e721205ee8a7921447536e3d1b219a4", "lon": -77.01745133333333, "lat": 38.887342333333336, "type": "electric_scooter", "fusion_lon": 0.0, "is_reserved": 0, "bike_id": "5e721205ee8a7921447536e3d1b219a4", "fusion_lat": 0.0, "is_disabled": 0, "rental_uris": {"ios": "https://dc.lft.to/lastmile_qr_scan", "android": "https://dc.lft.to/lastmile_qr_scan"}}, {"name": "25fce613d532adc3e3aeab89d0c0b468", "lon": -77.04928733333334, "lat": 38.90076, "type": "electric_scooter", "fusion_lon": 0.0, "is_reserved": 0, "bike_id": "25fce613d532adc3e3aeab89d0c0b468", "fusion_lat": 0.0, "is_disabled": 0, "rental_uris": {"ios": "https://dc.lft.to/lastmile_qr_scan", "android": "https://dc.lft.to/lastmile_qr_scan"}}, {"name": "e172af3bd0d0df964926abbfec84c59b", "lon": -77.04441333333334, "lat": 38.90578766666667, "type": "electric_scooter", "fusion_lon": 0.0, "is_reserved": 0, "bike_id": "e172af3bd0d0df964926abbfec84c59b", "fusion_lat": 0.0, "is_disabled": 0, "rental_uris": {"ios": "https://dc.lft.to/lastmile_qr_scan", "android": "https://dc.lft.to/lastmile_qr_scan"}}, {"name": "b40da106af65204dcbdd4c7916e08b58", "lon": -77.04333583333333, "lat": 38.89223333333333, "type": "electric_scooter", "fusion_lon": 0.0, "is_reserved": 0, "bike_id": "b40da106af65204dcbdd4c7916e08b58", "fusion_lat": 0.0, "is_disabled": 0, "rental_uris": {"ios": "https://dc.lft.to/lastmile_qr_scan", "android": "https://dc.lft.to/lastmile_qr_scan"}}, {"name": "d8acb996eb8fe019fc30239ff211fa96", "lon": -77.02950733333333, "lat": 38.907484333333336, "type": "electric_scooter", "fusion_lon": 0.0, "is_reserved": 0, "bike_id": "d8acb996eb8fe019fc30239ff211fa96", "fusion_lat": 0.0, "is_disabled": 0, "rental_uris": {"ios": "https://dc.lft.to/lastmile_qr_scan", "android": "https://dc.lft.to/lastmile_qr_scan"}}, {"name": "abb009ae0ca43899e819510c8707acd7", "lon": -76.985409, "lat": 38.866443833333335, "type": "electric_scooter", "fusion_lon": 0.0, "is_reserved": 0, "bike_id": "abb009ae0ca43899e819510c8707acd7", "fusion_lat": 0.0, "is_disabled": 0, "rental_uris": {"ios": "https://dc.lft.to/lastmile_qr_scan", "android": "https://dc.lft.to/lastmile_qr_scan"}}, {"name": "ea01ceaa183a9d4f51193612f43ef1e8", "lon": -77.04859133333333, "lat": 38.90654166666667, "type": "electric_scooter", "fusion_lon": 0.0, "is_reserved": 0, "bike_id": "ea01ceaa183a9d4f51193612f43ef1e8", "fusion_lat": 0.0, "is_disabled": 0, "rental_uris": {"ios": "https://dc.lft.to/lastmile_qr_scan", "android": "https://dc.lft.to/lastmile_qr_scan"}}, {"name": "fab548570c58b77007c857c6f6fe9e0f", "lon": -77.02715183333333, "lat": 38.900705, "type": "electric_scooter", "fusion_lon": 0.0, "is_reserved": 0, "bike_id": "fab548570c58b77007c857c6f6fe9e0f", "fusion_lat": 0.0, "is_disabled": 0, "rental_uris": {"ios": "https://dc.lft.to/lastmile_qr_scan", "android": "https://dc.lft.to/lastmile_qr_scan"}}, {"name": "27398f1eda342642925b7ab332de504b", "lon": -77.0485275, "lat": 38.90642283333333, "type": "electric_scooter", "fusion_lon": 0.0, "is_reserved": 0, "bike_id": "27398f1eda342642925b7ab332de504b", "fusion_lat": 0.0, "is_disabled": 0, "rental_uris": {"ios": "https://dc.lft.to/lastmile_qr_scan", "android": "https://dc.lft.to/lastmile_qr_scan"}}, {"name": "d06b38b9fddcb10f18530c4580595647", "lon": -77.0365825, "lat": 38.936320333333335, "type": "electric_scooter", "fusion_lon": 0.0, "is_reserved": 0, "bike_id": "d06b38b9fddcb10f18530c4580595647", "fusion_lat": 0.0, "is_disabled": 0, "rental_uris": {"ios": "https://dc.lft.to/lastmile_qr_scan", "android": "https://dc.lft.to/lastmile_qr_scan"}}, {"name": "9371c738d21e325cad4ed51cd080e7bd", "lon": -77.042487, "lat": 38.908365833333335, "type": "electric_scooter", "fusion_lon": 0.0, "is_reserved": 0, "bike_id": "9371c738d21e325cad4ed51cd080e7bd", "fusion_lat": 0.0, "is_disabled": 0, "rental_uris": {"ios": "https://dc.lft.to/lastmile_qr_scan", "android": "https://dc.lft.to/lastmile_qr_scan"}}, {"name": "f6d46ccbc0fc88f677fb21490423890c", "lon": -77.032328, "lat": 38.917808, "type": "electric_scooter", "fusion_lon": 0.0, "is_reserved": 0, "bike_id": "f6d46ccbc0fc88f677fb21490423890c", "fusion_lat": 0.0, "is_disabled": 0, "rental_uris": {"ios": "https://dc.lft.to/lastmile_qr_scan", "android": "https://dc.lft.to/lastmile_qr_scan"}}, {"name": "e63eeea73c6a713403a2cf016399b44f", "lon": -77.00771733333333, "lat": 38.9267075, "type": "electric_scooter", "fusion_lon": 0.0, "is_reserved": 0, "bike_id": "e63eeea73c6a713403a2cf016399b44f", "fusion_lat": 0.0, "is_disabled": 0, "rental_uris": {"ios": "https://dc.lft.to/lastmile_qr_scan", "android": "https://dc.lft.to/lastmile_qr_scan"}}, {"name": "cdf79a706eff5b6a9627f3da71242949", "lon": -77.02209333333333, "lat": 38.901972, "type": "electric_scooter", "fusion_lon": 0.0, "is_reserved": 0, "bike_id": "cdf79a706eff5b6a9627f3da71242949", "fusion_lat": 0.0, "is_disabled": 0, "rental_uris": {"ios": "https://dc.lft.to/lastmile_qr_scan", "android": "https://dc.lft.to/lastmile_qr_scan"}}, {"name": "09601327445ea0195e531935c0d0bbdb", "lon": -77.0297485, "lat": 38.90719983333334, "type": "electric_scooter", "fusion_lon": 0.0, "is_reserved": 0, "bike_id": "09601327445ea0195e531935c0d0bbdb", "fusion_lat": 0.0, "is_disabled": 0, "rental_uris": {"ios": "https://dc.lft.to/lastmile_qr_scan", "android": "https://dc.lft.to/lastmile_qr_scan"}}, {"name": "5d74cafa3011ae815b7592f0f0db083f", "lon": -77.05501066666666, "lat": 38.9000635, "type": "electric_scooter", "fusion_lon": 0.0, "is_reserved": 0, "bike_id": "5d74cafa3011ae815b7592f0f0db083f", "fusion_lat": 0.0, "is_disabled": 0, "rental_uris": {"ios": "https://dc.lft.to/lastmile_qr_scan", "android": "https://dc.lft.to/lastmile_qr_scan"}}, {"name": "36682d8b32b46c69c7afdcc3447a3571", "lon": -77.04195583333333, "lat": 38.92019583333333, "type": "electric_scooter", "fusion_lon": 0.0, "is_reserved": 0, "bike_id": "36682d8b32b46c69c7afdcc3447a3571", "fusion_lat": 0.0, "is_disabled": 0, "rental_uris": {"ios": "https://dc.lft.to/lastmile_qr_scan", "android": "https://dc.lft.to/lastmile_qr_scan"}}, {"name": "a711a99399b8c6382fd674f592a22934", "lon": -77.0273, "lat": 38.9285, "type": "electric_scooter", "fusion_lon": 0.0, "is_reserved": 0, "bike_id": "a711a99399b8c6382fd674f592a22934", "fusion_lat": 0.0, "is_disabled": 0, "rental_uris": {"ios": "https://dc.lft.to/lastmile_qr_scan", "android": "https://dc.lft.to/lastmile_qr_scan"}}, {"name": "e32902997f2253a2ba4f7062adcdeba4", "lon": -76.9898855, "lat": 38.86496016666667, "type": "electric_scooter", "fusion_lon": 0.0, "is_reserved": 0, "bike_id": "e32902997f2253a2ba4f7062adcdeba4", "fusion_lat": 0.0, "is_disabled": 0, "rental_uris": {"ios": "https://dc.lft.to/lastmile_qr_scan", "android": "https://dc.lft.to/lastmile_qr_scan"}}, {"name": "ae9b7c55e2250818c5078b2a62f16397", "lon": -77.107188, "lat": 38.85548433333334, "type": "electric_bike", "fusion_lon": 0.0, "is_reserved": 0, "bike_id": "ae9b7c55e2250818c5078b2a62f16397", "fusion_lat": 0.0, "is_disabled": 0, "rental_uris": {"ios": "https://dc.lft.to/lastmile_qr_scan", "android": "https://dc.lft.to/lastmile_qr_scan"}}, {"name": "cd7e7b5ed2eca2e594ecdefc17cbe696", "lon": -77.00096183333333, "lat": 38.920159, "type": "electric_scooter", "fusion_lon": 0.0, "is_reserved": 0, "bike_id": "cd7e7b5ed2eca2e594ecdefc17cbe696", "fusion_lat": 0.0, "is_disabled": 0, "rental_uris": {"ios": "https://dc.lft.to/lastmile_qr_scan", "android": "https://dc.lft.to/lastmile_qr_scan"}}, {"name": "0d9a91db4acfd5b2d9adc8114b7d7ae4", "lon": -77.02718833333333, "lat": 38.90686566666667, "type": "electric_scooter", "fusion_lon": 0.0, "is_reserved": 0, "bike_id": "0d9a91db4acfd5b2d9adc8114b7d7ae4", "fusion_lat": 0.0, "is_disabled": 0, "rental_uris": {"ios": "https://dc.lft.to/lastmile_qr_scan", "android": "https://dc.lft.to/lastmile_qr_scan"}}, {"name": "1edd9af99b125a2762b60d420f1c1d79", "lon": -77.03593233333334, "lat": 38.92857733333334, "type": "electric_scooter", "fusion_lon": 0.0, "is_reserved": 0, "bike_id": "1edd9af99b125a2762b60d420f1c1d79", "fusion_lat": 0.0, "is_disabled": 0, "rental_uris": {"ios": "https://dc.lft.to/lastmile_qr_scan", "android": "https://dc.lft.to/lastmile_qr_scan"}}, {"name": "5f6582c87f30be413ef59c4cb555254e", "lon": -77.0088505, "lat": 38.87647316666666, "type": "electric_scooter", "fusion_lon": 0.0, "is_reserved": 0, "bike_id": "5f6582c87f30be413ef59c4cb555254e", "fusion_lat": 0.0, "is_disabled": 0, "rental_uris": {"ios": "https://dc.lft.to/lastmile_qr_scan", "android": "https://dc.lft.to/lastmile_qr_scan"}}, {"name": "3eacca1665ed04f8007b88869044c69a", "lon": -77.03542266666666, "lat": 38.92322383333333, "type": "electric_scooter", "fusion_lon": 0.0, "is_reserved": 0, "bike_id": "3eacca1665ed04f8007b88869044c69a", "fusion_lat": 0.0, "is_disabled": 0, "rental_uris": {"ios": "https://dc.lft.to/lastmile_qr_scan", "android": "https://dc.lft.to/lastmile_qr_scan"}}, {"name": "f4402ee79fdfbdb39bf00915cebc0b65", "lon": -77.02318133333333, "lat": 38.94091, "type": "electric_scooter", "fusion_lon": 0.0, "is_reserved": 0, "bike_id": "f4402ee79fdfbdb39bf00915cebc0b65", "fusion_lat": 0.0, "is_disabled": 0, "rental_uris": {"ios": "https://dc.lft.to/lastmile_qr_scan", "android": "https://dc.lft.to/lastmile_qr_scan"}},