{"data": {"bikes": [{"bike_id": "2e880e8b88482add45dc1f8fd92f0067", "fusion_lon": 0.0, "lon": -77.03376566666667, "name": "2e880e8b88482add45dc1f8fd92f0067", "is_disabled": 0, "rental_uris": {"android": "https://dc.lft.to/lastmile_qr_scan", "ios": "https://dc.lft.to/lastmile_qr_scan"}, "type": "electric_scooter", "lat": 38.922337, "is_reserved": 0, "fusion_lat": 0.0}, {"bike_id": "9f4eb36ab68aefdc1f238e14b8c2c861", "fusion_lon": 0.0, "lon": -77.04555916666666, "name": "9f4eb36ab68aefdc1f238e14b8c2c861", "is_disabled": 0, "rental_uris": {"android": "https://dc.lft.to/lastmile_qr_scan", "ios": "https://dc.lft.to/lastmile_qr_scan"}, "type": "electric_scooter", "lat": 38.92423266666667, "is_reserved": 0, "fusion_lat": 0.0}, {"bike_id": "cf0fe4bbe0aebdebeb9c65c7fdeb4b5b", "fusion_lon": 0.0, "lon": -76.99949266666667, "name": "cf0fe4bbe0aebdebeb9c65c7fdeb4b5b", "is_disabled": 0, "rental_uris": {"android": "https://dc.lft.to/lastmile_qr_scan", "ios": "https://dc.lft.to/lastmile_qr_scan"}, "type": "electric_scooter", "lat": 38.842953333333334, "is_reserved": 0, "fusion_lat": 0.0}, {"bike_id": "3e1d08f06cfebdfe67e28b5d27a750b0", "fusion_lon": 0.0, "lon": -77.02196366666666, "name": "3e1d08f06cfebdfe67e28b5d27a750b0", "is_disabled": 0, "rental_uris": {"android": "https://dc.lft.to/lastmile_qr_scan", "ios": "https://dc.lft.to/lastmile_qr_scan"}, "type": "electric_scooter", "lat": 38.919075, "is_reserved": 0, "fusion_lat": 0.0}, {"bike_id": "55e72f59d799fc773c3586634725c6b5", "fusion_lon": 0.0, "lon": -77.03911983333333, "name": "55e72f59d799fc773c3586634725c6b5", "is_disabled": 0, "rental_uris": {"android": "https://dc.lft.to/lastmile_qr_scan", "ios": "https://dc.lft.to/lastmile_qr_scan"}, "type": "electric_scooter", "lat": 38.9156015, "is_reserved": 0, "fusion_lat": 0.0}, {"bike_id": "93a91a94b2dc67f3a16946ffcce75a8e", "fusion_lon": 0.0, "lon": -76.93737016666667, "name": "93a91a94b2dc67f3a16946ffcce75a8e", "is_disabled": 0, "rental_uris": {"android": "https://dc.lft.to/lastmile_qr_scan", "ios": "https://dc.lft.to/lastmile_qr_scan"}, "type": "electric_scooter", "lat": 38.89016733333333, "is_reserved": 0, "fusion_lat": 0.0}, {"bike_id": "c02f2edf5bb0d7523124a440e04ae4fe", "fusion_lon": 0.0, "lon": -76.983979, "name": "c02f2edf5bb0d7523124a440e04ae4fe", "is_disabled": 0, "rental_uris": {"android": "https://dc.lft.to/lastmile_qr_scan", "ios": "https://dc.lft.to/lastmile_qr_scan"}, "type": "electric_scooter", "lat": 38.86696033333333, "is_reserved": 0, "fusion_lat": 0.0}, {"bike_id": "617bf4287f4be06317ec9788bf7e02d8", "fusion_lon": 0.0, "lon": -77.03474033333333, "name": "617bf4287f4be06317ec9788bf7e02d8", "is_disabled": 0, "rental_uris": {"android": "https://dc.lft.to/lastmile_qr_scan", "ios": "https://dc.lft.to/lastmile_qr_scan"}, "type": "electric_scooter", "lat": 38.924846, "is_reserved": 0, "fusion_lat": 0.0}, {"bike_id": "7619523ec22d4c32d5619e2a12ba7223", "fusion_lon": 0.0, "lon": -77.01608483333334, "name": "7619523ec22d4c32d5619e2a12ba7223", "is_disabled": 0, "rental_uris": {"android": "https://dc.lft.to/lastmile_qr_scan", "ios": "https://dc.lft.to/lastmile_qr_scan"}, "type": "electric_scooter", "lat": 38.90243316666667, "is_reserved": 0, "fusion_lat": 0.0}, {"bike_id": "f908f0ae0cffcaef473fce40282c19fe", "fusion_lon": 0.0, "lon": -77.06191166666666, "name": "f908f0ae0cffcaef473fce40282c19fe", "is_disabled": 0, "rental_uris": {"android": "https://dc.lft.to/lastmile_qr_scan", "ios": "https://dc.lft.to/lastmile_qr_scan"}, "type": "electric_scooter", "lat": 38.94452033333334, "is_reserved": 0, "fusion_lat": 0.0}, {"bike_id": "8d8a9adeb08d09abafa00d3fc1009bf3", "fusion_lon": 0.0, "lon": -77.0505155, "name": "8d8a9adeb08d09abafa00d3fc1009bf3", "is_disabled": 0, "rental_uris": {"android": "https://dc.lft.to/lastmile_qr_scan", "ios": "https://dc.lft.to/lastmile_qr_scan"}, "type": "electric_scooter", "lat": 38.923434666666665, "is_reserved": 0, "fusion_lat": 0.0}, {"bike_id": "de3045b0f1a9e13539a448be3c5f5cd2", "fusion_lon": 0.0, "lon": -77.0462085, "name": "de3045b0f1a9e13539a448be3c5f5cd2", "is_disabled": 0, "rental_uris": {"android": "https://dc.lft.to/lastmile_qr_scan", "ios": "https://dc.lft.to/lastmile_qr_scan"}, "type": "electric_scooter", "lat": 38.90960916666667, "is_reserved": 0, "fusion_lat": 0.0}, {"bike_id": "e903d8eb42d4af3aaed76d9789334a36", "fusion_lon": 0.0, "lon": -77.05204383333333, "name": "e903d8eb42d4af3aaed76d9789334a36", "is_disabled": 0, "rental_uris": {"android": "https://dc.lft.to/lastmile_qr_scan", "ios": "https://dc.lft.to/lastmile_qr_scan"}, "type": "electric_scooter", "lat": 38.924380166666666, "is_reserved": 0, "fusion_lat": 0.0}, {"bike_id": "dc06bfd2aae01ed62953f0d65b95d07b", "fusion_lon": 0.0, "lon": -77.00376733333333, "name": "dc06bfd2aae01ed62953f0d65b95d07b", "is_disabled": 0, "rental_uris": {"android": "https://dc.lft.to/lastmile_qr_scan", "ios": "https://dc.lft.to/lastmile_qr_scan"}, "type": "electric_scooter", "lat": 38.8756755, "is_reserved": 0, "fusion_lat": 0.0}, {"bike_id": "cb9d9aaef164a06c72e1bc22158de850", "fusion_lon": 0.0, "lon": -77.02827933333333, "name": "cb9d9aaef164a06c72e1bc22158de850", "is_disabled": 0, "rental_uris": {"android": "https://dc.lft.to/lastmile_qr_scan", "ios": "https://dc.lft.to/lastmile_qr_scan"}, "type": "electric_scooter", "lat": 38.93232733333333, "is_reserved": 0, "fusion_lat": 0.0}, {"bike_id": "04d3219418bbdc7222812a49494fbcc7", "fusion_lon": 0.0, "lon": -77.05109933333334, "name": "04d3219418bbdc7222812a49494fbcc7", "is_disabled": 0, "rental_uris": {"android": "https://dc.lft.to/lastmile_qr_scan", "ios": "https://dc.lft.to/lastmile_qr_scan"}, "type": "electric_scooter", "lat": 38.905202833333334, "is_reserved": 0, "fusion_lat": 0.0}, {"bike_id": "cb6c423d746adc411de871a1b6a7d174", "fusion_lon": 0.0, "lon": -77.02809733333333, "name": "cb6c423d746adc411de871a1b6a7d174", "is_disabled": 0, "rental_uris": {"android": "https://dc.lft.to/lastmile_qr_scan", "ios": "https://dc.lft.to/lastmile_qr_scan"}, "type": "electric_scooter", "lat": 38.93087533333333, "is_reserved": 0, "fusion_lat": 0.0}, {"bike_id": "2a31fa0433df4f91e1ec6400efa9bbe9", "fusion_lon": 0.0, "lon": -76.99095116666666, "name": "2a31fa0433df4f91e1ec6400efa9bbe9", "is_disabled": 0, "rental_uris": {"android": "https://dc.lft.to/lastmile_qr_scan", "ios": "https://dc.lft.to/lastmile_qr_scan"}, "type": "electric_scooter", "lat": 38.88234283333333, "is_reserved": 0, "fusion_lat": 0.0}, {"bike_id": "8e1746c474f9a66e86791cf3d9399ef4", "fusion_lon": 0.0, "lon": -77.04655366666667, "name": "8e1746c474f9a66e86791cf3d9399ef4", "is_disabled": 0, "rental_uris": {"android": "https://dc.lft.to/lastmile_qr_scan", "ios": "https://dc.lft.to/lastmile_qr_scan"}, "type": "electric_scooter", "lat": 38.90552016666667, "is_reserved": 0, "fusion_lat": 0.0}, {"bike_id": "7ccf1ca13be6107b81791e100523c15a", "fusion_lon": 0.0, "lon": -76.98024916666667, "name": "7ccf1ca13be6107b81791e100523c15a", "is_disabled": 0, "rental_uris": {"android": "https://dc.lft.to/lastmile_qr_scan", "ios": "https://dc.lft.to/lastmile_qr_scan"}, "type": "electric_scooter", "lat": 38.90378966666667, "is_reserved": 0, "fusion_lat": 0.0}, {"bike_id": "ac5159815056cb6cb17e9bd91709d5b2", "fusion_lon": 0.0, "lon": -77.05582433333333, "name": "ac5159815056cb6cb17e9bd91709d5b2", "is_disabled": 0, "rental_uris": {"android": "https://dc.lft.to/lastmile_qr_scan", "ios": "https://dc.lft.to/lastmile_qr_scan"}, "type": "electric_scooter", "lat": 38.89331466666667, "is_reserved": 0, "fusion_lat": 0.0}, {"bike_id": "0c3ee0d47657d5ca22bf008e37379d33", "fusion_lon": 0.0, "lon": -77.0243055, "name": "0c3ee0d47657d5ca22bf008e37379d33", "is_disabled": 0, "rental_uris": {"android": "https://dc.lft.to/lastmile_qr_scan", "ios": "https://dc.lft.to/lastmile_qr_scan"}, "type": "electric_scooter", "lat": 38.918765, "is_reserved": 0, "fusion_lat": 0.0}, {"bike_id": "bc086737b46b117dfa5493f5f2f46590", "fusion_lon": 0.0, "lon": -77.041518, "name": "bc086737b46b117dfa5493f5f2f46590", "is_disabled": 0, "rental_uris": {"android": "https://dc.lft.to/lastmile_qr_scan", "ios": "https://dc.lft.to/lastmile_qr_scan"}, "type": "electric_scooter", "lat": 38.915916, "is_reserved": 0, "fusion_lat": 0.0}, {"bike_id": "850e95fc50aa58df25a2c4fff7192344", "fusion_lon": 0.0, "lon": -76.99618, "name": "850e95fc50aa58df25a2c4fff7192344", "is_disabled": 0, "rental_uris": {"android": "https://dc.lft.to/lastmile_qr_scan", "ios": "https://dc.lft.to/lastmile_qr_scan"}, "type": "electric_scooter", "lat": 38.90070716666666, "is_reserved": 0, "fusion_lat": 0.0}, {"bike_id": "7c396b0832ebc5020ee704c57cdbcd36", "fusion_lon": 0.0, "lon": -77.05858, "name": "7c396b0832ebc5020ee704c57cdbcd36", "is_disabled": 0, "rental_uris": {"android": "https://dc.lft.to/lastmile_qr_scan", "ios": "https://dc.lft.to/lastmile_qr_scan"}, "type": "electric_scooter", "lat": 38.9360685, "is_reserved": 0, "fusion_lat": 0.0}, {"bike_id": "185507cdcb38ba63c4d96290e191339c", "fusion_lon": 0.0, "lon": -76.96527583333334, "name": "185507cdcb38ba63c4d96290e191339c", "is_disabled": 0, "rental_uris": {"android": "https://dc.lft.to/lastmile_qr_scan", "ios": "https://dc.lft.to/lastmile_qr_scan"}, "type": "electric_scooter", "lat": 38.87629033333333, "is_reserved": 0, "fusion_lat": 0.0}, {"bike_id": "cbb51ff8448d494d7e27a5e71fb7b835", "fusion_lon": 0.0, "lon": -77.02640116666667, "name": "cbb51ff8448d494d7e27a5e71fb7b835", "is_disabled": 0, "rental_uris": {"android": "https://dc.lft.to/lastmile_qr_scan", "ios": "https://dc.lft.to/lastmile_qr_scan"}, "type": "electric_scooter", "lat": 38.9253535, "is_reserved": 0, "fusion_lat": 0.0}, {"bike_id": "5b6bb9dc819027daefb788441cb5c814", "fusion_lon": 0.0, "lon": -77.04205333333333, "name": "5b6bb9dc819027daefb788441cb5c814", "is_disabled": 0, "rental_uris": {"android": "https://dc.lft.to/lastmile_qr_scan", "ios": "https://dc.lft.to/lastmile_qr_scan"}, "type": "electric_scooter", "lat": 38.91131633333333, "is_reserved": 0, "fusion_lat": 0.0}, {"bike_id": "5791c418bd9f0f9c880726577d21e9eb", "fusion_lon": 0.0, "lon": -76.92501866666667, "name": "5791c418bd9f0f9c880726577d21e9eb", "is_disabled": 0, "rental_uris": {"android": "https://dc.lft.to/lastmile_qr_scan", "ios": "https://dc.lft.to/lastmile_qr_scan"}, "type": "electric_bike", "lat": 38.95884083333333, "is_reserved": 0, "fusion_lat": 0.0}, {"bike_id": "b78d30004f405b752e8725161a4d7adb", "fusion_lon": 0.0, "lon": -76.99643516666667, "name": "b78d30004f405b752e8725161a4d7adb", "is_disabled": 0, "rental_uris": {"android": "https://dc.lft.to/lastmile_qr_scan", "ios": "https://dc.lft.to/lastmile_qr_scan"}, "type": "electric_bike", "lat": 38.98833116666667, "is_reserved": 0, "fusion_lat": 0.0}, {"bike_id": "a12c557741faf92d5f846f2676350408", "fusion_lon": 0.0, "lon": -77.02181083333333, "name": "a12c557741faf92d5f846f2676350408", "is_disabled": 0, "rental_uris": {"android": "https://dc.lft.to/lastmile_qr_scan", "ios": "https://dc.lft.to/lastmile_qr_scan"}, "type": "electric_bike", "lat": 38.907075666666664, "is_reserved": 0, "fusion_lat": 0.0}, {"bike_id": "1abeedc548a35fe34fa2ba2beb28666c", "fusion_lon": 0.0, "lon": -77.00205733333334, "name": "1abeedc548a35fe34fa2ba2beb28666c", "is_disabled": 0, "rental_uris": {"android": "https://dc.lft.to/lastmile_qr_scan", "ios": "https://dc.lft.to/lastmile_qr_scan"}, "type": "electric_scooter", "lat": 38.900836, "is_reserved": 0, "fusion_lat": 0.0}, {"bike_id": "428c7cf48e3468cc4fe970b315b5bbb8", "fusion_lon": 0.0, "lon": -77.02655433333334, "name": "428c7cf48e3468cc4fe970b315b5bbb8", "is_disabled": 0, "rental_uris": {"android": "https://dc.lft.to/lastmile_qr_scan", "ios": "https://dc.lft.to/lastmile_qr_scan"}, "type": "electric_bike", "lat": 38.988199333333334, "is_reserved": 0, "fusion_lat": 0.0}, {"bike_id": "cdf9c1c1068cf72c3cf0ea41936fc7e6", "fusion_lon": 0.0, "lon": -77.038884, "name": "cdf9c1c1068cf72c3cf0ea41936fc7e6", "is_disabled": 0, "rental_uris": {"android": "https://dc.lft.to/lastmile_qr_scan", "ios": "https://dc.lft.to/lastmile_qr_scan"}, "type": "electric_scooter", "lat": 38.9251475, "is_reserved": 0, "fusion_lat": 0.0}, {"bike_id": "32d452098fd9cdb88bfdc36dcd66ca31", "fusion_lon": 0.0, "lon": -76.99958266666667, "name": "32d452098fd9cdb88bfdc36dcd66ca31", "is_disabled": 0, "rental_uris": {"android": "https://dc.lft.to/lastmile_qr_scan", "ios": "https://dc.lft.to/lastmile_qr_scan"}, "type": "electric_scooter", "lat": 38.9190085, "is_reserved": 0, "fusion_lat": 0.0}, {"bike_id": "54f352514d79fa02ebfdc20d298064bb", "fusion_lon": 0.0, "lon": -77.0325835, "name": "54f352514d79fa02ebfdc20d298064bb", "is_disabled": 0, "rental_uris": {"android": "https://dc.lft.to/lastmile_qr_scan", "ios": "https://dc.lft.to/lastmile_qr_scan"}, "type": "electric_scooter", "lat": 38.94274016666667, "is_reserved": 0, "fusion_lat": 0.0}, {"bike_id": "87cde79516ebc1f0a26a10a58720202f", "fusion_lon": 0.0, "lon": -76.99327916666667, "name": "87cde79516ebc1f0a26a10a58720202f", "is_disabled": 0, "rental_uris": {"android": "https://dc.lft.to/lastmile_qr_scan", "ios": "https://dc.lft.to/lastmile_qr_scan"}, "type": "electric_bike", "lat": 38.893691, "is_reserved": 0, "fusion_lat": 0.0}, {"bike_id": "199fb00266b6d509231b84bfe3ea6f4e", "fusion_lon": 0.0, "lon": -77.0327705, "name": "199fb00266b6d509231b84bfe3ea6f4e", "is_disabled": 0, "rental_uris": {"android": "https://dc.lft.to/lastmile_qr_scan", "ios": "https://dc.lft.to/lastmile_qr_scan"}, "type": "electric_scooter", "lat": 38.934392, "is_reserved": 0, "fusion_lat": 0.0}, {"bike_id": "a044fba4684009d9e61b25c1e7283932", "fusion_lon": 0.0, "lon": -77.01201016666667, "name": "a044fba4684009d9e61b25c1e7283932", "is_disabled": 0, "rental_uris": {"android": "https://dc.lft.to/lastmile_qr_scan", "ios": "https://dc.lft.to/lastmile_qr_scan"}, "type": "electric_scooter", "lat": 38.9001255, "is_reserved": 0, "fusion_lat": 0.0}, {"bike_id": "b537c85ded8e3f2956d1c3fc21cadc03", "fusion_lon": 0.0, "lon": -76.98386716666667, "name": "b537c85ded8e3f2956d1c3fc21cadc03", "is_disabled": 0, "rental_uris": {"android": "https://dc.lft.to/lastmile_qr_scan", "ios": "https://dc.lft.to/lastmile_qr_scan"}, "type": "electric_scooter", "lat": 38.8611605, "is_reserved": 0, "fusion_lat": 0.0}, {"bike_id": "d1938e5978511f154d1c7f514569af44", "fusion_lon": 0.0, "lon": -77.002044, "name": "d1938e5978511f154d1c7f514569af44", "is_disabled": 0, "rental_uris": {"android": "https://dc.lft.to/lastmile_qr_scan", "ios": "https://dc.lft.to/lastmile_qr_scan"}, "type": "electric_scooter", "lat": 38.900833166666665, "is_reserved": 0, "fusion_lat": 0.0}, {"bike_id": "cf013658b09e9b6689b76aab0aaa9465", "fusion_lon": 0.0, "lon": -77.012234, "name": "cf013658b09e9b6689b76aab0aaa9465", "is_disabled": 0, "rental_uris": {"android": "https://dc.lft.to/lastmile_qr_scan", "ios": "https://dc.lft.to/lastmile_qr_scan"}, "type": "electric_scooter", "lat": 38.91436783333333, "is_reserved": 0, "fusion_lat": 0.0}, {"bike_id": "a2369ce7255d334b2736ad9d40a316b1", "fusion_lon": 0.0, "lon": -77.01800183333333, "name": "a2369ce7255d334b2736ad9d40a316b1", "is_disabled": 0, "rental_uris": {"android": "https://dc.lft.to/lastmile_qr_scan", "ios": "https://dc.lft.to/lastmile_qr_scan"}, "type": "electric_scooter", "lat": 38.87676116666667, "is_reserved": 0, "fusion_lat": 0.0}, {"bike_id": "ae36aa51e30f33e54e00a41aa09a2dd6", "fusion_lon": 0.0, "lon": -77.03198266666666, "name": "ae36aa51e30f33e54e00a41aa09a2dd6", "is_disabled": 0, "rental_uris": {"android": "https://dc.lft.to/lastmile_qr_scan", "ios": "https://dc.lft.to/lastmile_qr_scan"}, "type": "electric_scooter", "lat": 38.909912166666665, "is_reserved": 0, "fusion_lat": 0.0}, {"bike_id": "26f4b9eff638550d8f99dfd13eb32fa9", "fusion_lon": 0.0, "lon": -77.02197983333333, "name": "26f4b9eff638550d8f99dfd13eb32fa9", "is_disabled": 0, "rental_uris": {"android": "https://dc.lft.to/lastmile_qr_scan", "ios": "https://dc.lft.to/lastmile_qr_scan"}, "type": "electric_scooter", "lat": 38.91104683333333, "is_reserved": 0, "fusion_lat": 0.0}, {"bike_id": "355c9c037363559108bf34630498cd8c", "fusion_lon": 0.0, "lon": -77.031883, "name": "355c9c037363559108bf34630498cd8c", "is_disabled": 0, "rental_uris": {"android": "https://dc.lft.to/lastmile_qr_scan", "ios": "https://dc.lft.to/lastmile_qr_scan"}, "type": "electric_scooter", "lat": 38.92386483333333, "is_reserved": 0, "fusion_lat": 0.0}, {"bike_id": "07afc5782f9b0c5dd217253d6ad4c44d", "fusion_lon": 0.0, "lon": -77.0343845, "name": "07afc5782f9b0c5dd217253d6ad4c44d", "is_disabled": 0, "rental_uris": {"android": "https://dc.lft.to/lastmile_qr_scan", "ios": "https://dc.lft.to/lastmile_qr_scan"}, "type": "electric_scooter", "lat": 38.9173845, "is_reserved": 0, "fusion_lat": 0.0}, {"bike_id": "052894863be2c260d765e83c24a6e28d", "fusion_lon": 0.0, "lon": -77.0057365, "name": "052894863be2c260d765e83c24a6e28d", "is_disabled": 0, "rental_uris": {"android": "https://dc.lft.to/lastmile_qr_scan", "ios": "https://dc.lft.to/lastmile_qr_scan"}, "type": "electric_scooter", "lat": 38.873202666666664, "is_reserved": 0, "fusion_lat": 0.0}, {"bike_id": "c7bce7aff69e26dadc109bf398c00b73", "fusion_lon": 0.0, "lon": -77.03908166666666, "name": "c7bce7aff69e26dadc109bf398c00b73", "is_disabled": 0, "rental_uris": {"android": "https://dc.lft.to/lastmile_qr_scan", "ios": "https://dc.lft.to/lastmile_qr_scan"}, "type": "electric_scooter", "lat": 38.91417933333334, "is_reserved": 0, "fusion_lat": 0.0}, {"bike_id": "8f5f5395989441af9d2146906c060dd8", "fusion_lon": 0.0, "lon": -77.04014833333333, "name": "8f5f5395989441af9d2146906c060dd8", "is_disabled": 0, "rental_uris": {"android": "https://dc.lft.to/lastmile_qr_scan", "ios": "https://dc.lft.to/lastmile_qr_scan"}, "type": "electric_scooter", "lat": 38.91825566666667, "is_reserved": 0, "fusion_lat": 0.0}, {"bike_id": "f326385bf6785b1c5c15ac16c8c69c5b", "fusion_lon": 0.0, "lon": -77.034502, "name": "f326385bf6785b1c5c15ac16c8c69c5b", "is_disabled": 0, "rental_uris": {"android": "https://dc.lft.to/lastmile_qr_scan", "ios": "https://dc.lft.to/lastmile_qr_scan"}, "type": "electric_scooter", "lat": 38.90722933333333, "is_reserved": 0, "fusion_lat": 0.0}, {"bike_id": "f08a9d0629af4bbd99e6b48f26455a7f", "fusion_lon": 0.0, "lon": -77.03393116666666, "name": "f08a9d0629af4bbd99e6b48f26455a7f", "is_disabled": 0, "rental_uris": {"android": "https://dc.lft.to/lastmile_qr_scan", "ios": "https://dc.lft.to/lastmile_qr_scan"}, "type": "electric_scooter", "lat": 38.91970583333333, "is_reserved": 0, "fusion_lat": 0.0}, {"bike_id": "8cf86dcf04246a50b406fefc3b51d822", "fusion_lon": 0.0, "lon": -77.0249175, "name": "8cf86dcf04246a50b406fefc3b51d822", "is_disabled": 0, "rental_uris": {"android": "https://dc.lft.to/lastmile_qr_scan", "ios": "https://dc.lft.to/lastmile_qr_scan"}, "type": "electric_scooter", "lat": 38.941861333333335, "is_reserved": 0, "fusion_lat": 0.0}, {"bike_id": "a21e1280a3c5da42eaa0926d46a417ad", "fusion_lon": 0.0, "lon": -77.03296183333333, "name": "a21e1280a3c5da42eaa0926d46a417ad", "is_disabled": 0, "rental_uris": {"android": "https://dc.lft.to/lastmile_qr_scan", "ios": "https://dc.lft.to/lastmile_qr_scan"}, "type": "electric_scooter", "lat": 38.94717033333333, "is_reserved": 0, "fusion_lat": 0.0}, {"bike_id": "f847f21c59d5f07df3a410c9c2de9ded", "fusion_lon": 0.0, "lon": -77.04186316666667, "name": "f847f21c59d5f07df3a410c9c2de9ded", "is_disabled": 0, "rental_uris": {"android": "https://dc.lft.to/lastmile_qr_scan", "ios": "https://dc.lft.to/lastmile_qr_scan"}, "type": "electric_scooter", "lat": 38.892888666666664, "is_reserved": 0, "fusion_lat": 0.0}, {"bike_id": "fd7d5dfb0045511bc0467d0d31442900", "fusion_lon": 0.0, "lon": -77.01021666666666, "name": "fd7d5dfb0045511bc0467d0d31442900", "is_disabled": 0, "rental_uris": {"android": "https://dc.lft.to/lastmile_qr_scan", "ios": "https://dc.lft.to/lastmile_qr_scan"}, "type": "electric_scooter", "lat": 38.9170335, "is_reserved": 0, "fusion_lat": 0.0}, {"bike_id": "c77d98758f95ae8dcf37b6a92ab4e650", "fusion_lon": 0.0, "lon": -77.03325733333334, "name": "c77d98758f95ae8dcf37b6a92ab4e650", "is_disabled": 0, "rental_uris": {"android": "https://dc.lft.to/lastmile_qr_scan", "ios": "https://dc.lft.to/lastmile_qr_scan"}, "type": "electric_scooter", "lat": 38.913595, "is_reserved": 0, "fusion_lat": 0.0}, {"bike_id": "cef760360d8628e656b14176d01a1410", "fusion_lon": 0.0, "lon": -77.02724433333333, "name": "cef760360d8628e656b14176d01a1410", "is_disabled": 0, "rental_uris": {"android": "https://dc.lft.to/lastmile_qr_scan", "ios": "https://dc.lft.to/lastmile_qr_scan"}, "type": "electric_scooter", "lat": 38.91696733333333, "is_reserved": 0, "fusion_lat": 0.0}, {"bike_id": "d64db4e5791cb777bdd7b99de57cffc7", "fusion_lon": 0.0, "lon": -76.9912685, "name": "d64db4e5791cb777bdd7b99de57cffc7", "is_disabled": 0, "rental_uris": {"android": "https://dc.lft.to/lastmile_qr_scan", "ios": "https://dc.lft.to/lastmile_qr_scan"}, "type": "electric_scooter", "lat": 38.862086166666664, "is_reserved": 0, "fusion_lat": 0.0}, {"bike_id": "440801ce59cea6891c2b13efd3d449b6", "fusion_lon": 0.0, "lon": -77.02696316666666, "name": "440801ce59cea6891c2b13efd3d449b6", "is_disabled": 0, "rental_uris": {"android": "https://dc.lft.to/lastmile_qr_scan", "ios": "https://dc.lft.to/lastmile_qr_scan"}, "type": "electric_scooter", "lat": 38.9113305, "is_reserved": 0, "fusion_lat": 0.0}, {"bike_id": "4bdbc557a1f2afdd9b6845fd75119e19", "fusion_lon": 0.0, "lon": -77.0505195, "name": "4bdbc557a1f2afdd9b6845fd75119e19", "is_disabled": 0, "rental_uris": {"android": "https://dc.lft.to/lastmile_qr_scan", "ios": "https://dc.lft.to/lastmile_qr_scan"}, "type": "electric_scooter", "lat": 38.923466833333336, "is_reserved": 0, "fusion_lat": 0.0}, {"bike_id": "4297baf0d17d2bdc0e9f33edef8c0c65", "fusion_lon": 0.0, "lon": -77.01765466666667, "name": "4297baf0d17d2bdc0e9f33edef8c0c65", "is_disabled": 0, "rental_uris": {"android": "https://dc.lft.to/lastmile_qr_scan", "ios": "https://dc.lft.to/lastmile_qr_scan"}, "type": "electric_scooter", "lat": 38.917328833333336, "is_reserved": 0, "fusion_lat": 0.0}, {"bike_id": "981d408a4735d707c7c5ec1254001f77", "fusion_lon": 0.0, "lon": -77.03564316666667, "name": "981d408a4735d707c7c5ec1254001f77", "is_disabled": 0, "rental_uris": {"android": "https://dc.lft.to/lastmile_qr_scan", "ios": "https://dc.lft.to/lastmile_qr_scan"}, "type": "electric_scooter", "lat": 38.92331683333333, "is_reserved": 0, "fusion_lat": 0.0}, {"bike_id": "c72a79fad15367da8c0caf3a94bb9300", "fusion_lon": 0.0, "lon": -77.02714566666667, "name": "c72a79fad15367da8c0caf3a94bb9300", "is_disabled": 0, "rental_uris": {"android": "https://dc.lft.to/lastmile_qr_scan", "ios": "https://dc.lft.to/lastmile_qr_scan"}, "type": "electric_scooter", "lat": 38.9096155, "is_reserved": 0, "fusion_lat": 0.0}, {"bike_id": "696fa75a7633307188a703617f602e17", "fusion_lon": 0.0, "lon": -77.02976583333333, "name": "696fa75a7633307188a703617f602e17", "is_disabled": 0, "rental_uris": {"android": "https://dc.lft.to/lastmile_qr_scan", "ios": "https://dc.lft.to/lastmile_qr_scan"}, "type": "electric_scooter", "lat": 38.95194166666667, "is_reserved": 0, "fusion_lat": 0.0}, {"bike_id": "271d6bb10ff41b79871ae02a929a0927", "fusion_lon": 0.0, "lon": -77.03858083333333, "name": "271d6bb10ff41b79871ae02a929a0927", "is_disabled": 0, "rental_uris": {"android": "https://dc.lft.to/lastmile_qr_scan", "ios": "https://dc.lft.to/lastmile_qr_scan"}, "type": "electric_scooter", "lat": 38.908023, "is_reserved": 0, "fusion_lat": 0.0}, {"bike_id": "21ccd14d33bfccb8d9dd0d4911925d22", "fusion_lon": 0.0, "lon": -76.97741083333334, "name": "21ccd14d33bfccb8d9dd0d4911925d22", "is_disabled": 0, "rental_uris": {"android": "https://dc.lft.to/lastmile_qr_scan", "ios": "https://dc.lft.to/lastmile_qr_scan"}, "type": "electric_scooter", "lat": 38.868339, "is_reserved": 0, "fusion_lat": 0.0}, {"bike_id": "9984598b00f324b089821c6b0b7463e0", "fusion_lon": 0.0, "lon": -77.04171383333333, "name": "9984598b00f324b089821c6b0b7463e0", "is_disabled": 0, "rental_uris": {"android": "https://dc.lft.to/lastmile_qr_scan", "ios": "https://dc.lft.to/lastmile_qr_scan"}, "type": "electric_scooter", "lat": 38.91938366666667, "is_reserved": 0, "fusion_lat": 0.0}, {"bike_id": "a125fcb4e48d4ba3cf558ba019b91932", "fusion_lon": 0.0, "lon": -77.02185133333333, "name": "a125fcb4e48d4ba3cf558ba019b91932", "is_disabled": 0, "rental_uris": {"android": "https://dc.lft.to/lastmile_qr_scan", "ios": "https://dc.lft.to/lastmile_qr_scan"}, "type": "electric_scooter", "lat": 38.89532583333333, "is_reserved": 0, "fusion_lat": 0.0}, {"bike_id": "ee1a371bf7641f1aab94da7fc3855993", "fusion_lon": 0.0, "lon": -76.96508883333334, "name": "ee1a371bf7641f1aab94da7fc3855993", "is_disabled": 0, "rental_uris": {"android": "https://dc.lft.to/lastmile_qr_scan", "ios": "https://dc.lft.to/lastmile_qr_scan"}, "type": "electric_bike", "lat": 38.875606, "is_reserved": 0, "fusion_lat": 0.0}, {"bike_id": "4517e98cb44d01f1dea601446ac27ddb", "fusion_lon": 0.0, "lon": -77.01760183333333, "name": "4517e98cb44d01f1dea601446ac27ddb", "is_disabled": 0, "rental_uris": {"android": "https://dc.lft.to/lastmile_qr_scan", "ios": "https://dc.lft.to/lastmile_qr_scan"}, "type": "electric_scooter", "lat": 38.87861133333333, "is_reserved": 0, "fusion_lat": 0.0}, {"bike_id": "561d1efece7ffa3e6d8a41cc4cc57991", "fusion_lon": 0.0, "lon": -77.00570583333334, "name": "561d1efece7ffa3e6d8a41cc4cc57991", "is_disabled": 0, "rental_uris": {"android": "https://dc.lft.to/lastmile_qr_scan", "ios": "https://dc.lft.to/lastmile_qr_scan"}, "type": "electric_scooter", "lat": 38.885062166666664, "is_reserved": 0, "fusion_lat": 0.0}, {"bike_id": "f2efa41d413a9e615412fc794d0301a6", "fusion_lon": 0.0, "lon": -76.95186433333333, "name": "f2efa41d413a9e615412fc794d0301a6", "is_disabled": 0, "rental_uris": {"android": "https://dc.lft.to/lastmile_qr_scan", "ios": "https://dc.lft.to/lastmile_qr_scan"}, "type": "electric_scooter", "lat": 38.907402, "is_reserved": 0, "fusion_lat": 0.0}, {"bike_id": "612e1d08604241eadecbef6621abbaaf", "fusion_lon": 0.0, "lon": -77.017801, "name": "612e1d08604241eadecbef6621abbaaf", "is_disabled": 0, "rental_uris": {"android": "https://dc.lft.to/lastmile_qr_scan", "ios": "https://dc.lft.to/lastmile_qr_scan"}, "type": "electric_scooter", "lat": 38.907821166666665, "is_reserved": 0, "fusion_lat": 0.0}, {"bike_id": "55645991b675699a266be63c828bc6e1", "fusion_lon": 0.0, "lon": -77.044001, "name": "55645991b675699a266be63c828bc6e1", "is_disabled": 0, "rental_uris": {"android": "https://dc.lft.to/lastmile_qr_scan", "ios": "https://dc.lft.to/lastmile_qr_scan"}, "type": "electric_scooter", "lat": 38.920719, "is_reserved": 0, "fusion_lat": 0.0}, {"bike_id": "0d96a8d10156967026fb1bd5c66715fb", "fusion_lon": 0.0, "lon": -77.05611633333334, "name": "0d96a8d10156967026fb1bd5c66715fb", "is_disabled": 0, "rental_uris": {"android": "https://dc.lft.to/lastmile_qr_scan", "ios": "https://dc.lft.to/lastmile_qr_scan"}, "type": "electric_scooter", "lat": 38.931686, "is_reserved": 0, "fusion_lat": 0.0}, {"bike_id": "a5470a7706ec5f5b2793225f4e3047b7", "fusion_lon": 0.0, "lon": -77.0819535, "name": "a5470a7706ec5f5b2793225f4e3047b7", "is_disabled": 0, "rental_uris": {"android": "https://dc.lft.to/lastmile_qr_scan", "ios": "https://dc.lft.to/lastmile_qr_scan"}, "type": "electric_bike", "lat": 38.85568033333333, "is_reserved": 0, "fusion_lat": 0.0}, {"bike_id": "b2b22fd85827bdc25c7d6a18ce2507ed", "fusion_lon": 0.0, "lon": -77.0242745, "name": "b2b22fd85827bdc25c7d6a18ce2507ed", "is_disabled": 0, "rental_uris": {"android": "https://dc.lft.to/lastmile_qr_scan", "ios": "https://dc.lft.to/lastmile_qr_scan"}, "type": "electric_scooter", "lat": 38.926587, "is_reserved": 0, "fusion_lat": 0.0}, {"bike_id": "a0e44786995a9e6ab3ac9963471e242d", "fusion_lon": 0.0, "lon": -77.03168083333334, "name": "a0e44786995a9e6ab3ac9963471e242d", "is_disabled": 0, "rental_uris": {"android": "https://dc.lft.to/lastmile_qr_scan", "ios": "https://dc.lft.to/lastmile_qr_scan"}, "type": "electric_scooter", "lat": 38.920959333333336, "is_reserved": 0, "fusion_lat": 0.0}, {"bike_id": "ede6a5efbbc3769cf7b70afa9f68b81f", "fusion_lon": 0.0, "lon": -77.04184716666667, "name": "ede6a5efbbc3769cf7b70afa9f68b81f", "is_disabled": 0, "rental_uris": {"android": "https://dc.lft.to/lastmile_qr_scan", "ios": "https://dc.lft.to/lastmile_qr_scan"}, "type": "electric_scooter", "lat": 38.905769666666664, "is_reserved": 0, "fusion_lat": 0.0}, {"bike_id": "2c1a6ca24916841b2b19631359d30e7a", "fusion_lon": 0.0, "lon": -77.0013235, "name": "2c1a6ca24916841b2b19631359d30e7a", "is_disabled": 0, "rental_uris": {"android": "https://dc.lft.to/lastmile_qr_scan", "ios": "https://dc.lft.to/lastmile_qr_scan"}, "type": "electric_scooter", "lat": 38.90516866666667, "is_reserved": 0, "fusion_lat": 0.0}, {"bike_id": "f4ca3aa0a6d90526211c5f45b20f8202", "fusion_lon": 0.0, "lon": -76.93734333333333, "name": "f4ca3aa0a6d90526211c5f45b20f8202", "is_disabled": 0, "rental_uris": {"android": "https://dc.lft.to/lastmile_qr_scan", "ios": "https://dc.lft.to/lastmile_qr_scan"}, "type": "electric_scooter", "lat": 38.890199, "is_reserved": 0, "fusion_lat": 0.0}, {"bike_id": "ace478556af4084eb0fd2f4b874b649b", "fusion_lon": 0.0, "lon": -76.9898635, "name": "ace478556af4084eb0fd2f4b874b649b", "is_disabled": 0, "rental_uris": {"android": "https://dc.lft.to/lastmile_qr_scan", "ios": "https://dc.lft.to/lastmile_qr_scan"}, "type": "electric_scooter", "lat": 38.86497083333333, "is_reserved": 0, "fusion_lat": 0.0}, {"bike_id": "23acd9a5c4769c19f06f4f257ee29efb", "fusion_lon": 0.0, "lon": -77.03824883333333, "name": "23acd9a5c4769c19f06f4f257ee29efb", "is_disabled": 0, "rental_uris": {"android": "https://dc.lft.to/lastmile_qr_scan", "ios": "https://dc.lft.to/lastmile_qr_scan"}, "type": "electric_scooter", "lat": 38.9084835, "is_reserved": 0, "fusion_lat": 0.0}, {"bike_id": "bb5e6958c8de947bf3085e44a4aa571b", "fusion_lon": 0.0, "lon": -77.01135533333333, "name": "bb5e6958c8de947bf3085e44a4aa571b", "is_disabled": 0, "rental_uris": {"android": "https://dc.lft.to/lastmile_qr_scan", "ios": "https://dc.lft.to/lastmile_qr_scan"}, "type": "electric_scooter", "lat": 38.90729916666667, "is_reserved": 0, "fusion_lat": 0.0}, {"bike_id": "fed464f8240a4604256e02da1a831cad", "fusion_lon": 0.0, "lon": -76.9888985, "name": "fed464f8240a4604256e02da1a831cad", "is_disabled": 0, "rental_uris": {"android": "https://dc.lft.to/lastmile_qr_scan", "ios": "https://dc.lft.to/lastmile_qr_scan"}, "type": "electric_scooter", "lat": 38.866537, "is_reserved": 0, "fusion_lat": 0.0}, {"bike_id": "c69e482b79f06f475150958e86bd2149", "fusion_lon": 0.0, "lon": -77.0232655, "name": "c69e482b79f06f475150958e86bd2149", "is_disabled": 0, "rental_uris": {"android": "https://dc.lft.to/lastmile_qr_scan", "ios": "https://dc.lft.to/lastmile_qr_scan"}, "type": "electric_scooter", "lat": 38.9199125, "is_reserved": 0, "fusion_lat": 0.0}, {"bike_id": "7f58253a3e5f629132742cc49c01ad6a", "fusion_lon": 0.0, "lon": -76.99965166666667, "name": "7f58253a3e5f629132742cc49c01ad6a", "is_disabled": 0, "rental_uris": {"android": "https://dc.lft.to/lastmile_qr_scan", "ios": "https://dc.lft.to/lastmile_qr_scan"}, "type": "electric_bike", "lat": 38.9215585, "is_reserved": 0, "fusion_lat": 0.0}, {"bike_id": "d8d3c1b596b401e8c8ff56aeef967679", "fusion_lon": 0.0, "lon": -77.02694183333334, "name": "d8d3c1b596b401e8c8ff56aeef967679", "is_disabled": 0, "rental_uris": {"android": "https://dc.lft.to/lastmile_qr_scan", "ios": "https://dc.lft.to/lastmile_qr_scan"}, "type": "electric_scooter", "lat": 38.911252166666664, "is_reserved": 0, "fusion_lat": 0.0}, {"bike_id": "18343f57bf89dab9992c4047d1739e99", "fusion_lon": 0.0, "lon": -77.0259535, "name": "18343f57bf89dab9992c4047d1739e99", "is_disabled": 0, "rental_uris": {"android": "https://dc.lft.to/lastmile_qr_scan", "ios": "https://dc.lft.to/lastmile_qr_scan"}, "type": "electric_scooter", "lat": 38.9051535, "is_reserved": 0, "fusion_lat": 0.0}, {"bike_id": "37d35f8cc5b0dd2e05f977835f6d58f4", "fusion_lon": 0.0, "lon": -77.05266016666667, "name": "37d35f8cc5b0dd2e05f977835f6d58f4", "is_disabled": 0, "rental_uris": {"android": "https://dc.lft.to/lastmile_qr_scan", "ios": "https://dc.lft.to/lastmile_qr_scan"}, "type": "electric_scooter", "lat": 38.925413166666665, "is_reserved": 0, "fusion_lat": 0.0}, {"bike_id": "044171b6329063c9db6b7678e8fdba02", "fusion_lon": 0.0, "lon": -77.03925916666667, "name": "044171b6329063c9db6b7678e8fdba02", "is_disabled": 0, "rental_uris": {"android": "https://dc.lft.to/lastmile_qr_scan", "ios": "https://dc.lft.to/lastmile_qr_scan"}, "type": "electric_scooter", "lat": 38.9157595, "is_reserved": 0, "fusion_lat": 0.0}, {"bike_id": "e94f3e51950332030f844a7db6829106", "fusion_lon": 0.0, "lon": -77.02205933333333, "name": "e94f3e51950332030f844a7db6829106", "is_disabled": 0, "rental_uris": {"android": "https://dc.lft.to/lastmile_qr_scan", "ios": "https://dc.lft.to/lastmile_qr_scan"}, "type": "electric_scooter", "lat": 38.878959, "is_reserved": 0, "fusion_lat": 0.0}, {"bike_id": "fbac381fba481ced177465599db7f5e6", "fusion_lon": 0.0, "lon": -77.02729933333333, "name": "fbac381fba481ced177465599db7f5e6", "is_disabled": 0, "rental_uris": {"android": "https://dc.lft.to/lastmile_qr_scan", "ios": "https://dc.lft.to/lastmile_qr_scan"}, "type": "electric_scooter", "lat": 38.928349833333336, "is_reserved": 0, "fusion_lat": 0.0}, {"bike_id": "dca8729adbac8c43aadc238354e7810c", "fusion_lon": 0.0, "lon": -77.04146683333333, "name": "dca8729adbac8c43aadc238354e7810c", "is_disabled": 0, "rental_uris": {"android": "https://dc.lft.to/lastmile_qr_scan", "ios": "https://dc.lft.to/lastmile_qr_scan"}, "type": "electric_scooter", "lat": 38.915577666666664, "is_reserved": 0, "fusion_lat": 0.0}, {"bike_id": "b13a9e394b8674860f62dd574eab06c4", "fusion_lon": 0.0, "lon": -77.02182716666667, "name": "b13a9e394b8674860f62dd574eab06c4", "is_disabled": 0, "rental_uris": {"android": "https://dc.lft.to/lastmile_qr_scan", "ios": "https://dc.lft.to/lastmile_qr_scan"}, "type": "electric_scooter", "lat": 38.914839, "is_reserved": 0, "fusion_lat": 0.0}, {"bike_id": "0c131ff41f03cee2359688803a7ab6d7", "fusion_lon": 0.0, "lon": -77.04182716666666, "name": "0c131ff41f03cee2359688803a7ab6d7", "is_disabled": 0, "rental_uris": {"android": "https://dc.lft.to/lastmile_qr_scan", "ios": "https://dc.lft.to/lastmile_qr_scan"}, "type": "electric_scooter", "lat": 38.8930115, "is_reserved": 0, "fusion_lat": 0.0}, {"bike_id": "6f119dbbb7d393afda2da83d1d129d26", "fusion_lon": 0.0, "lon": -77.12732583333333, "name": "6f119dbbb7d393afda2da83d1d129d26", "is_disabled": 0, "rental_uris": {"android": "https://dc.lft.to/lastmile_qr_scan", "ios": "https://dc.lft.to/lastmile_qr_scan"}, "type": "electric_bike", "lat": 38.895639, "is_reserved": 0, "fusion_lat": 0.0}, {"bike_id": "83edef7b50fc347598596014d2348834", "fusion_lon": 0.0, "lon": -77.021862, "name": "83edef7b50fc347598596014d2348834", "is_disabled": 0, "rental_uris": {"android": "https://dc.lft.to/lastmile_qr_scan", "ios": "https://dc.lft.to/lastmile_qr_scan"}, "type": "electric_scooter", "lat": 38.905873, "is_reserved": 0, "fusion_lat": 0.0}, {"bike_id": "c59e3911661f6ef8f401c40aa5a0788f", "fusion_lon": 0.0, "lon": -77.02418016666667, "name": "c59e3911661f6ef8f401c40aa5a0788f", "is_disabled": 0, "rental_uris": {"android": "https://dc.lft.to/lastmile_qr_scan", "ios": "https://dc.lft.to/lastmile_qr_scan"}, "type": "electric_scooter", "lat": 38.95738, "is_reserved": 0, "fusion_lat": 0.0}, {"bike_id": "fdfd7f1c3fda3c16625f08bba33099e6", "fusion_lon": 0.0, "lon": -77.07800933333333, "name": "fdfd7f1c3fda3c16625f08bba33099e6", "is_disabled": 0, "rental_uris": {"android": "https://dc.lft.to/lastmile_qr_scan", "ios": "https://dc.lft.to/lastmile_qr_scan"}, "type": "electric_bike", "lat": 38.9193255, "is_reserved": 0, "fusion_lat": 0.0}, {"bike_id": "2a4425ec7bd008c2e6b054705a0cf29c", "fusion_lon": 0.0, "lon": -77.0531145, "name": "2a4425ec7bd008c2e6b054705a0cf29c", "is_disabled": 0, "rental_uris": {"android": "https://dc.lft.to/lastmile_qr_scan", "ios": "https://dc.lft.to/lastmile_qr_scan"}, "type": "electric_scooter", "lat": 38.90422083333333, "is_reserved": 0, "fusion_lat": 0.0}, {"bike_id": "7796a3b801c7b6e4763e1af273aaab63", "fusion_lon": 0.0, "lon": -77.032683, "name": "7796a3b801c7b6e4763e1af273aaab63", "is_disabled": 0, "rental_uris": {"android": "https://dc.lft.to/lastmile_qr_scan", "ios": "https://dc.lft.to/lastmile_qr_scan"}, "type": "electric_scooter", "lat": 38.93655233333333, "is_reserved": 0, "fusion_lat": 0.0}, {"bike_id": "9373d573ba0ff9ae953c68d57bfc4cc8", "fusion_lon": 0.0, "lon": -77.055271, "name": "9373d573ba0ff9ae953c68d57bfc4cc8", "is_disabled": 0, "rental_uris": {"android": "https://dc.lft.to/lastmile_qr_scan", "ios": "https://dc.lft.to/lastmile_qr_scan"}, "type": "electric_scooter", "lat": 38.93015183333333, "is_reserved": 0, "fusion_lat": 0.0}, {"bike_id": "d061c55db3c62fb68f0de7196fe48b4c", "fusion_lon": 0.0, "lon": -77.02694183333334, "name": "d061c55db3c62fb68f0de7196fe48b4c", "is_disabled": 0, "rental_uris": {"android": "https://dc.lft.to/lastmile_qr_scan", "ios": "https://dc.lft.to/lastmile_qr_scan"}, "type": "electric_scooter", "lat": 38.90691316666667, "is_reserved": 0, "fusion_lat": 0.0}, {"bike_id": "9d8cf8b806e049145d7ded38d8327bee", "fusion_lon": 0.0, "lon": -77.02826183333333, "name": "9d8cf8b806e049145d7ded38d8327bee", "is_disabled": 0, "rental_uris": {"android": "https://dc.lft.to/lastmile_qr_scan", "ios": "https://dc.lft.to/lastmile_qr_scan"}, "type": "electric_scooter", "lat": 38.887342333333336, "is_reserved": 0, "fusion_lat": 0.0}, {"bike_id": "5a2d1127a42756914e25aebf7c1eaa27", "fusion_lon": 0.0, "lon": -77.05863366666667, "name": "5a2d1127a42756914e25aebf7c1eaa27", "is_disabled": 0, "rental_uris": {"android": "https://dc.lft.to/lastmile_qr_scan", "ios": "https://dc.lft.to/lastmile_qr_scan"}, "type": "electric_scooter", "lat": 38.93613716666667, "is_reserved": 0, "fusion_lat": 0.0}, {"bike_id": "bb17a411bf12d33ef833c3eb51fcb792", "fusion_lon": 0.0, "lon": -77.02302716666667, "name": "bb17a411bf12d33ef833c3eb51fcb792", "is_disabled": 0, "rental_uris": {"android": "https://dc.lft.to/lastmile_qr_scan", "ios": "https://dc.lft.to/lastmile_qr_scan"}, "type": "electric_scooter", "lat": 38.895569333333334, "is_reserved": 0, "fusion_lat": 0.0}, {"bike_id": "16131a1ddd3d158487d954f29d92b9cb", "fusion_lon": 0.0, "lon": -77.03311066666667, "name": "16131a1ddd3d158487d954f29d92b9cb", "is_disabled": 0, "rental_uris": {"android": "https://dc.lft.to/lastmile_qr_scan", "ios": "https://dc.lft.to/lastmile_qr_scan"}, "type": "electric_scooter", "lat": 38.931956, "is_reserved": 0, "fusion_lat": 0.0}, {"bike_id": "755fbca67826035329ae5be5c08ecf92", "fusion_lon": 0.0, "lon": -77.03255216666666, "name": "755fbca67826035329ae5be5c08ecf92", "is_disabled": 0, "rental_uris": {"android": "https://dc.lft.to/lastmile_qr_scan", "ios": "https://dc.lft.to/lastmile_qr_scan"}, "type": "electric_scooter", "lat": 38.9285945, "is_reserved": 0, "fusion_lat": 0.0}, {"bike_id": "9bc9c2584b944bdf8bd9bb4dbbf69b85", "fusion_lon": 0.0, "lon": -76.98299866666666, "name": "9bc9c2584b944bdf8bd9bb4dbbf69b85", "is_disabled": 0, "rental_uris": {"android": "https://dc.lft.to/lastmile_qr_scan", "ios": "https://dc.lft.to/lastmile_qr_scan"}, "type": "electric_bike", "lat": 38.962811, "is_reserved": 0, "fusion_lat": 0.0}, {"bike_id": "fbec008d513e7d29832fbb9fa0e27c6c", "fusion_lon": 0.0, "lon": -77.02757266666667, "name": "fbec008d513e7d29832fbb9fa0e27c6c", "is_disabled": 0, "rental_uris": {"android": "https://dc.lft.to/lastmile_qr_scan", "ios": "https://dc.lft.to/lastmile_qr_scan"}, "type": "electric_scooter", "lat": 38.954355666666665, "is_reserved": 0, "fusion_lat": 0.0}, {"bike_id": "48f81a5d004c063fdaa85849219decee", "fusion_lon": 0.0, "lon": -77.03284766666667, "name": "48f81a5d004c063fdaa85849219decee", "is_disabled": 0, "rental_uris": {"android": "https://dc.lft.to/lastmile_qr_scan", "ios": "https://dc.lft.to/lastmile_qr_scan"}, "type": "electric_scooter", "lat": 38.920703833333334, "is_reserved": 0, "fusion_lat": 0.0}, {"bike_id": "0deabb063e66a5c9a8567c7a5307eeb8", "fusion_lon": 0.0, "lon": -77.0462715, "name": "0deabb063e66a5c9a8567c7a5307eeb8", "is_disabled": 0, "rental_uris": {"android": "https://dc.lft.to/lastmile_qr_scan", "ios": "https://dc.lft.to/lastmile_qr_scan"}, "type": "electric_scooter", "lat": 38.919098, "is_reserved": 0, "fusion_lat": 0.0}, {"bike_id": "ebae65abaec4ffae9873d8bc7461b648", "fusion_lon": 0.0, "lon": -77.043587, "name": "ebae65abaec4ffae9873d8bc7461b648", "is_disabled": 0, "rental_uris": {"android": "https://dc.lft.to/lastmile_qr_scan", "ios": "https://dc.lft.to/lastmile_qr_scan"}, "type": "electric_scooter", "lat": 38.92147766666667, "is_reserved": 0, "fusion_lat": 0.0}, {"bike_id": "8b3c953e4b00d654dfd8243999e12284", "fusion_lon": 0.0, "lon": -77.018459, "name": "8b3c953e4b00d654dfd8243999e12284", "is_disabled": 0, "rental_uris": {"android": "https://dc.lft.to/lastmile_qr_scan", "ios": "https://dc.lft.to/lastmile_qr_scan"}, "type": "electric_scooter", "lat": 38.900157666666665, "is_reserved": 0, "fusion_lat": 0.0}, {"bike_id": "c7dce6abb75f3d93fbd8c87c03fea801", "fusion_lon": 0.0, "lon": -76.99816, "name": "c7dce6abb75f3d93fbd8c87c03fea801", "is_disabled": 0, "rental_uris": {"android": "https://dc.lft.to/lastmile_qr_scan", "ios": "https://dc.lft.to/lastmile_qr_scan"}, "type": "electric_bike", "lat": 38.91027166666667, "is_reserved": 0, "fusion_lat": 0.0}, {"bike_id": "d35d28880e0151bbdf7907f9fc79f592", "fusion_lon": 0.0, "lon": -77.01610766666667, "name": "d35d28880e0151bbdf7907f9fc79f592", "is_disabled": 0, "rental_uris": {"android": "https://dc.lft.to/lastmile_qr_scan", "ios": "https://dc.lft.to/lastmile_qr_scan"}, "type": "electric_scooter", "lat": 38.899697, "is_reserved": 0, "fusion_lat": 0.0}, {"bike_id": "775b2bf2bdd85d526e5139ca1be0d6e7", "fusion_lon": 0.0, "lon": -77.02772783333333, "name": "775b2bf2bdd85d526e5139ca1be0d6e7", "is_disabled": 0, "rental_uris": {"android": "https://dc.lft.to/lastmile_qr_scan", "ios": "https://dc.lft.to/lastmile_qr_scan"}, "type": "electric_scooter", "lat": 38.93965, "is_reserved": 0, "fusion_lat": 0.0}, {"bike_id": "a14f84ed9ea1a385b86eb2e4f8fdf939", "fusion_lon": 0.0, "lon": -77.02164683333334, "name": "a14f84ed9ea1a385b86eb2e4f8fdf939", "is_disabled": 0, "rental_uris": {"android": "https://dc.lft.to/lastmile_qr_scan", "ios": "https://dc.lft.to/lastmile_qr_scan"}, "type": "electric_scooter", "lat": 38.91992533333333, "is_reserved": 0, "fusion_lat": 0.0}, {"bike_id": "757f8e57738450830944646ed44596c3", "fusion_lon": 0.0, "lon": -77.020314, "name": "757f8e57738450830944646ed44596c3", "is_disabled": 0, "rental_uris": {"android": "https://dc.lft.to/lastmile_qr_scan", "ios": "https://dc.lft.to/lastmile_qr_scan"}, "type": "electric_scooter", "lat": 38.901509833333336, "is_reserved": 0, "fusion_lat": 0.0}, {"bike_id": "9c335cf81924fae14ccfdfad443d0512", "fusion_lon": 0.0, "lon": -77.005136, "name": "9c335cf81924fae14ccfdfad443d0512", "is_disabled": 0, "rental_uris": {"android": "https://dc.lft.to/lastmile_qr_scan", "ios": "https://dc.lft.to/lastmile_qr_scan"}, "type": "electric_scooter", "lat": 38.8802055, "is_reserved": 0, "fusion_lat": 0.0}, {"bike_id": "40ff5ae28137a4dd4a6e891b5f48d9c7", "fusion_lon": 0.0, "lon": -77.02560066666666, "name": "40ff5ae28137a4dd4a6e891b5f48d9c7", "is_disabled": 0, "rental_uris": {"android": "https://dc.lft.to/lastmile_qr_scan", "ios": "https://dc.lft.to/lastmile_qr_scan"}, "type": "electric_scooter", "lat": 38.915529666666664, "is_reserved": 0, "fusion_lat": 0.0}, {"bike_id": "3d763c2bc0e8123c3fbf4739a7f8d5c9", "fusion_lon": 0.0, "lon": -77.03183466666667, "name": "3d763c2bc0e8123c3fbf4739a7f8d5c9", "is_disabled": 0, "rental_uris": {"android": "https://dc.lft.to/lastmile_qr_scan", "ios": "https://dc.lft.to/lastmile_qr_scan"}, "type": "electric_scooter", "lat": 38.903517666666666, "is_reserved": 0, "fusion_lat": 0.0}, {"bike_id": "a6ad7ad27c2421e34d0644af9a654908", "fusion_lon": 0.0, "lon": -77.0118345, "name": "a6ad7ad27c2421e34d0644af9a654908", "is_disabled": 0, "rental_uris": {"android": "https://dc.lft.to/lastmile_qr_scan", "ios": "https://dc.lft.to/lastmile_qr_scan"}, "type": "electric_scooter", "lat": 38.9096555, "is_reserved": 0, "fusion_lat": 0.0}, {"bike_id": "fcb529bf4ce0b64a0aa9f556bc108911", "fusion_lon": 0.0, "lon": -77.01151916666667, "name": "fcb529bf4ce0b64a0aa9f556bc108911", "is_disabled": 0, "rental_uris": {"android": "https://dc.lft.to/lastmile_qr_scan", "ios": "https://dc.lft.to/lastmile_qr_scan"}, "type": "electric_scooter", "lat": 38.91181566666667, "is_reserved": 0, "fusion_lat": 0.0}, {"bike_id": "b5938f70a15d42fa7ac4f42ee44d0258", "fusion_lon": 0.0, "lon": -76.995363, "name": "b5938f70a15d42fa7ac4f42ee44d0258", "is_disabled": 0, "rental_uris": {"android": "https://dc.lft.to/lastmile_qr_scan", "ios": "https://dc.lft.to/lastmile_qr_scan"}, "type": "electric_bike", "lat": 38.900248166666664, "is_reserved": 0, "fusion_lat": 0.0}, {"bike_id": "4ef2be67657203effb34c17de23a2375", "fusion_lon": 0.0, "lon": -77.0527535, "name": "4ef2be67657203effb34c17de23a2375", "is_disabled": 0, "rental_uris": {"android": "https://dc.lft.to/lastmile_qr_scan", "ios": "https://dc.lft.to/lastmile_qr_scan"}, "type": "electric_scooter", "lat": 38.92548133333333, "is_reserved": 0, "fusion_lat": 0.0}, {"bike_id": "6425ea460bd31c061d33d9ba187f7d36", "fusion_lon": 0.0, "lon": -77.00122316666666, "name": "6425ea460bd31c061d33d9ba187f7d36", "is_disabled": 0, "rental_uris": {"android": "https://dc.lft.to/lastmile_qr_scan", "ios": "https://dc.lft.to/lastmile_qr_scan"}, "type": "electric_scooter", "lat": 38.905783, "is_reserved": 0, "fusion_lat": 0.0}, {"bike_id": "8cc5030ac33581cd0c7ae922f44187da", "fusion_lon": 0.0, "lon": -76.99966716666667, "name": "8cc5030ac33581cd0c7ae922f44187da", "is_disabled": 0, "rental_uris": {"android": "https://dc.lft.to/lastmile_qr_scan", "ios": "https://dc.lft.to/lastmile_qr_scan"}, "type": "electric_scooter", "lat": 38.924492666666666, "is_reserved": 0, "fusion_lat": 0.0}, {"bike_id": "c449b6a722220800b8ed3287e634f296", "fusion_lon": 0.0, "lon": -77.0488565, "name": "c449b6a722220800b8ed3287e634f296", "is_disabled": 0, "rental_uris": {"android": "https://dc.lft.to/lastmile_qr_scan", "ios": "https://dc.lft.to/lastmile_qr_scan"}, "type": "electric_scooter", "lat": 38.90587133333333, "is_reserved": 0, "fusion_lat": 0.0}, {"bike_id": "82d4c14c34c42d9a814c37224e940e63", "fusion_lon": 0.0, "lon": -77.02577966666666, "name": "82d4c14c34c42d9a814c37224e940e63", "is_disabled": 0, "rental_uris": {"android": "https://dc.lft.to/lastmile_qr_scan", "ios": "https://dc.lft.to/lastmile_qr_scan"}, "type": "electric_scooter", "lat": 38.916049, "is_reserved": 0, "fusion_lat": 0.0}, {"bike_id": "f834609f717d0f83bb66a3c9e794615b", "fusion_lon": 0.0, "lon": -77.04890333333333, "name": "f834609f717d0f83bb66a3c9e794615b", "is_disabled": 0, "rental_uris": {"android": "https://dc.lft.to/lastmile_qr_scan", "ios": "https://dc.lft.to/lastmile_qr_scan"}, "type": "electric_scooter", "lat": 38.898785, "is_reserved": 0, "fusion_lat": 0.0}, {"bike_id": "6b28ca3e6f790387d04b21f9735c1e2f", "fusion_lon": 0.0, "lon": -76.9860785, "name": "6b28ca3e6f790387d04b21f9735c1e2f", "is_disabled": 0, "rental_uris": {"android": "https://dc.lft.to/lastmile_qr_scan", "ios": "https://dc.lft.to/lastmile_qr_scan"}, "type": "electric_scooter", "lat": 38.87843633333333, "is_reserved": 0, "fusion_lat": 0.0}, {"bike_id": "d2faaf5fef3131f99c9e23705de969b1", "fusion_lon": 0.0, "lon": -77.02211316666667, "name": "d2faaf5fef3131f99c9e23705de969b1", "is_disabled": 0, "rental_uris": {"android": "https://dc.lft.to/lastmile_qr_scan", "ios": "https://dc.lft.to/lastmile_qr_scan"}, "type": "electric_scooter", "lat": 38.878962333333334, "is_reserved": 0, "fusion_lat": 0.0}, {"bike_id": "c0037f97e1a757b69c87b425c4b22932", "fusion_lon": 0.0, "lon": -77.02559566666666, "name": "c0037f97e1a757b69c87b425c4b22932", "is_disabled": 0, "rental_uris": {"android": "https://dc.lft.to/lastmile_qr_scan", "ios": "https://dc.lft.to/lastmile_qr_scan"}, "type": "electric_scooter", "lat": 38.914859666666665, "is_reserved": 0, "fusion_lat": 0.0}, {"bike_id": "73fea0ae76fcbe84dae91b92f47743c0", "fusion_lon": 0.0, "lon": -77.0217395, "name": "73fea0ae76fcbe84dae91b92f47743c0", "is_disabled": 0, "rental_uris": {"android": "https://dc.lft.to/lastmile_qr_scan", "ios": "https://dc.lft.to/lastmile_qr_scan"}, "type": "electric_scooter", "lat": 38.905925, "is_reserved": 0, "fusion_lat": 0.0}, {"bike_id": "b1207ee61b273adf107cd602e8af000b", "fusion_lon": 0.0, "lon": -77.05125, "name": "b1207ee61b273adf107cd602e8af000b", "is_disabled": 0, "rental_uris": {"android": "https://dc.lft.to/lastmile_qr_scan", "ios": "https://dc.lft.to/lastmile_qr_scan"}, "type": "electric_scooter", "lat": 38.923474, "is_reserved": 0, "fusion_lat": 0.0}, {"bike_id": "1a8a7460749f57cbb647656911d9c688", "fusion_lon": 0.0, "lon": -77.02796333333333, "name": "1a8a7460749f57cbb647656911d9c688", "is_disabled": 0, "rental_uris": {"android": "https://dc.lft.to/lastmile_qr_scan", "ios": "https://dc.lft.to/lastmile_qr_scan"}, "type": "electric_scooter", "lat": 38.954051, "is_reserved": 0, "fusion_lat": 0.0}, {"bike_id": "5493229688547101489694340c52d554", "fusion_lon": 0.0, "lon": -77.03446433333333, "name": "5493229688547101489694340c52d554", "is_disabled": 0, "rental_uris": {"android": "https://dc.lft.to/lastmile_qr_scan", "ios": "https://dc.lft.to/lastmile_qr_scan"}, "type": "electric_scooter", "lat": 38.934338333333336, "is_reserved": 0, "fusion_lat": 0.0}, {"bike_id": "0dab5adf91100b79438d535a4068ea12", "fusion_lon": 0.0, "lon": -77.04181516666667, "name": "0dab5adf91100b79438d535a4068ea12", "is_disabled": 0, "rental_uris": {"android": "https://dc.lft.to/lastmile_qr_scan", "ios": "https://dc.lft.to/lastmile_qr_scan"}, "type": "electric_scooter", "lat": 38.91187733333334, "is_reserved": 0, "fusion_lat": 0.0}, {"bike_id": "b1e118946b9718f581abd75a7e095e41", "fusion_lon": 0.0, "lon": -77.022151, "name": "b1e118946b9718f581abd75a7e095e41", "is_disabled": 0, "rental_uris": {"android": "https://dc.lft.to/lastmile_qr_scan", "ios": "https://dc.lft.to/lastmile_qr_scan"}, "type": "electric_scooter", "lat": 38.91555483333333, "is_reserved": 0, "fusion_lat": 0.0}, {"bike_id": "0816bbc8a9b45515b50d831c4be92016", "fusion_lon": 0.0, "lon": -77.04534616666666, "name": "0816bbc8a9b45515b50d831c4be92016", "is_disabled": 0, "rental_uris": {"android": "https://dc.lft.to/lastmile_qr_scan", "ios": "https://dc.lft.to/lastmile_qr_scan"}, "type": "electric_scooter", "lat": 38.93302833333333, "is_reserved": 0, "fusion_lat": 0.0}, {"bike_id": "675e5df50eb8aecb2f437f3dd8ace733", "fusion_lon": 0.0, "lon": -77.02686183333333, "name": "675e5df50eb8aecb2f437f3dd8ace733", "is_disabled": 0, "rental_uris": {"android": "https://dc.lft.to/lastmile_qr_scan", "ios": "https://dc.lft.to/lastmile_qr_scan"}, "type": "electric_scooter", "lat": 38.908580666666666, "is_reserved": 0, "fusion_lat": 0.0}, {"bike_id": "2a7c220722a35c52289caf67c1d18398", "fusion_lon": 0.0, "lon": -77.03125566666667, "name": "2a7c220722a35c52289caf67c1d18398", "is_disabled": 0, "rental_uris": {"android": "https://dc.lft.to/lastmile_qr_scan", "ios": "https://dc.lft.to/lastmile_qr_scan"}, "type": "electric_scooter", "lat": 38.915569166666664, "is_reserved": 0, "fusion_lat": 0.0}, {"bike_id": "2b071fb8ba8098de101e8c826cf5e84f", "fusion_lon": 0.0, "lon": -76.99031766666667, "name": "2b071fb8ba8098de101e8c826cf5e84f", "is_disabled": 0, "rental_uris": {"android": "https://dc.lft.to/lastmile_qr_scan", "ios": "https://dc.lft.to/lastmile_qr_scan"}, "type": "electric_scooter", "lat": 38.898567, "is_reserved": 0, "fusion_lat": 0.0}, {"bike_id": "71de944034462c491b30130b9c6c3427", "fusion_lon": 0.0, "lon": -77.00804233333334, "name": "71de944034462c491b30130b9c6c3427", "is_disabled": 0, "rental_uris": {"android": "https://dc.lft.to/lastmile_qr_scan", "ios": "https://dc.lft.to/lastmile_qr_scan"}, "type": "electric_bike", "lat": 38.949250666666664, "is_reserved": 0, "fusion_lat": 0.0}, {"bike_id": "8e7ad69135498e65c88790c73b0fa46a", "fusion_lon": 0.0, "lon": -77.04368816666667, "name": "8e7ad69135498e65c88790c73b0fa46a", "is_disabled": 0, "rental_uris": {"android": "https://dc.lft.to/lastmile_qr_scan", "ios": "https://dc.lft.to/lastmile_qr_scan"}, "type": "electric_scooter", "lat": 38.8922545, "is_reserved": 0, "fusion_lat": 0.0}, {"bike_id": "6ab700dbf36470fa5cc727dcfe4b93ec", "fusion_lon": 0.0, "lon": -77.013174, "name": "6ab700dbf36470fa5cc727dcfe4b93ec", "is_disabled": 0, "rental_uris": {"android": "https://dc.lft.to/lastmile_qr_scan", "ios": "https://dc.lft.to/lastmile_qr_scan"}, "type": "electric_scooter", "lat": 38.88152316666667, "is_reserved": 0, "fusion_lat": 0.0}, {"bike_id": "ed9154ef9133a105dca52343f29a9bac", "fusion_lon": 0.0, "lon": -77.057589, "name": "ed9154ef9133a105dca52343f29a9bac", "is_disabled": 0, "rental_uris": {"android": "https://dc.lft.to/lastmile_qr_scan", "ios": "https://dc.lft.to/lastmile_qr_scan"}, "type": "electric_bike", "lat": 38.925221666666665, "is_reserved": 0, "fusion_lat": 0.0}, {"bike_id": "d1306c9e8ede46b16b860f96b241a2de", "fusion_lon": 0.0, "lon": -77.0204695, "name": "d1306c9e8ede46b16b860f96b241a2de", "is_disabled": 0, "rental_uris": {"android": "https://dc.lft.to/lastmile_qr_scan", "ios": "https://dc.lft.to/lastmile_qr_scan"}, "type": "electric_scooter", "lat": 38.915579666666666, "is_reserved": 0, "fusion_lat": 0.0}, {"bike_id": "5d02b4d942b08efc662a7400a2e6749e", "fusion_lon": 0.0, "lon": -77.04411266666666, "name": "5d02b4d942b08efc662a7400a2e6749e", "is_disabled": 0, "rental_uris": {"android": "https://dc.lft.to/lastmile_qr_scan", "ios": "https://dc.lft.to/lastmile_qr_scan"}, "type": "electric_bike", "lat": 39.015758, "is_reserved": 0, "fusion_lat": 0.0}, {"bike_id": "68c0af94c9b8fdf74f541f52201d71b9", "fusion_lon": 0.0, "lon": -77.03755133333334, "name": "68c0af94c9b8fdf74f541f52201d71b9", "is_disabled": 0, "rental_uris": {"android": "https://dc.lft.to/lastmile_qr_scan", "ios": "https://dc.lft.to/lastmile_qr_scan"}, "type": "electric_scooter", "lat": 38.90683333333333, "is_reserved": 0, "fusion_lat": 0.0}, {"bike_id": "0bd2f2a7528d9946589fb239b921b08b", "fusion_lon": 0.0, "lon": -77.02423683333333, "name": "0bd2f2a7528d9946589fb239b921b08b", "is_disabled": 0, "rental_uris": {"android": "https://dc.lft.to/lastmile_qr_scan", "ios": "https://dc.lft.to/lastmile_qr_scan"}, "type": "electric_scooter", "lat": 38.91704, "is_reserved": 0, "fusion_lat": 0.0}, {"bike_id": "360fe005f812f53a642872f313e70238", "fusion_lon": 0.0, "lon": -77.05860283333334, "name": "360fe005f812f53a642872f313e70238", "is_disabled": 0, "rental_uris": {"android": "https://dc.lft.to/lastmile_qr_scan", "ios": "https://dc.lft.to/lastmile_qr_scan"}, "type": "electric_scooter", "lat": 38.936133166666664, "is_reserved": 0, "fusion_lat": 0.0}, {"bike_id": "7fac8514c9e762d1adfb5074999a769e", "fusion_lon": 0.0, "lon": -77.02964183333333, "name": "7fac8514c9e762d1adfb5074999a769e", "is_disabled": 0, "rental_uris": {"android": "https://dc.lft.to/lastmile_qr_scan", "ios": "https://dc.lft.to/lastmile_qr_scan"}, "type": "electric_scooter", "lat": 38.923243166666666, "is_reserved": 0, "fusion_lat": 0.0}, {"bike_id": "cb5401302ebcafe0bf76792faea3a604", "fusion_lon": 0.0, "lon": -77.0141025, "name": "cb5401302ebcafe0bf76792faea3a604", "is_disabled": 0, "rental_uris": {"android": "https://dc.lft.to/lastmile_qr_scan", "ios": "https://dc.lft.to/lastmile_qr_scan"}, "type": "electric_scooter", "lat": 38.8812885, "is_reserved": 0, "fusion_lat": 0.0}, {"bike_id": "87407a9c919ab184772d25f2781195fa", "fusion_lon": 0.0, "lon": -76.983755, "name": "87407a9c919ab184772d25f2781195fa", "is_disabled": 0, "rental_uris": {"android": "https://dc.lft.to/lastmile_qr_scan", "ios": "https://dc.lft.to/lastmile_qr_scan"}, "type": "electric_bike", "lat": 38.878367833333336, "is_reserved": 0, "fusion_lat": 0.0}, {"bike_id": "1f956bbb71d5ba2dfb0bfb856f633dab", "fusion_lon": 0.0, "lon": -77.03265016666667, "name": "1f956bbb71d5ba2dfb0bfb856f633dab", "is_disabled": 0, "rental_uris": {"android": "https://dc.lft.to/lastmile_qr_scan", "ios": "https://dc.lft.to/lastmile_qr_scan"}, "type": "electric_scooter", "lat": 38.932413333333336, "is_reserved": 0, "fusion_lat": 0.0}, {"bike_id": "40dd3e0176ddb4921e1408fd9f8f2504", "fusion_lon": 0.0, "lon": -77.029644, "name": "40dd3e0176ddb4921e1408fd9f8f2504", "is_disabled": 0, "rental_uris": {"android": "https://dc.lft.to/lastmile_qr_scan", "ios": "https://dc.lft.to/lastmile_qr_scan"}, "type": "electric_scooter", "lat": 38.92373033333333, "is_reserved": 0, "fusion_lat": 0.0}, {"bike_id": "ceab0b8e5ce0b05a24fa6064645a5967", "fusion_lon": 0.0, "lon": -77.18737666666667, "name": "ceab0b8e5ce0b05a24fa6064645a5967", "is_disabled": 0, "rental_uris": {"android": "https://dc.lft.to/lastmile_qr_scan", "ios": "https://dc.lft.to/lastmile_qr_scan"}, "type": "electric_bike", "lat": 38.89358, "is_reserved": 0, "fusion_lat": 0.0}, {"bike_id": "3c6cb6885106dc7ac9eb2942b6c552ac", "fusion_lon": 0.0, "lon": -77.03095083333334, "name": "3c6cb6885106dc7ac9eb2942b6c552ac", "is_disabled": 0, "rental_uris": {"android": "https://dc.lft.to/lastmile_qr_scan", "ios": "https://dc.lft.to/lastmile_qr_scan"}, "type": "electric_scooter", "lat": 38.91913866666667, "is_reserved": 0, "fusion_lat": 0.0}, {"bike_id": "261549b2ba153d98920ee990ff10400c", "fusion_lon": 0.0, "lon": -77.03220383333333, "name": "261549b2ba153d98920ee990ff10400c", "is_disabled": 0, "rental_uris": {"android": "https://dc.lft.to/lastmile_qr_scan", "ios": "https://dc.lft.to/lastmile_qr_scan"}, "type": "electric_scooter", "lat": 38.9140465, "is_reserved": 0, "fusion_lat": 0.0}, {"bike_id": "e3180e3c3e5127f0f60cccbf27e39545", "fusion_lon": 0.0, "lon": -77.0344885, "name": "e3180e3c3e5127f0f60cccbf27e39545", "is_disabled": 0, "rental_uris": {"android": "https://dc.lft.to/lastmile_qr_scan", "ios": "https://dc.lft.to/lastmile_qr_scan"}, "type": "electric_scooter", "lat": 38.90728383333333, "is_reserved": 0, "fusion_lat": 0.0}, {"bike_id": "e4d4149f4ef345500ba55f1164f29cf9", "fusion_lon": 0.0, "lon": -77.02395766666666, "name": "e4d4149f4ef345500ba55f1164f29cf9", "is_disabled": 0, "rental_uris": {"android": "https://dc.lft.to/lastmile_qr_scan", "ios": "https://dc.lft.to/lastmile_qr_scan"}, "type": "electric_scooter", "lat": 38.919081, "is_reserved": 0, "fusion_lat": 0.0}, {"bike_id": "06176aca98417ae72564dc5f4af1d936", "fusion_lon": 0.0, "lon": -77.0385285, "name": "06176aca98417ae72564dc5f4af1d936", "is_disabled": 0, "rental_uris": {"android": "https://dc.lft.to/lastmile_qr_scan", "ios": "https://dc.lft.to/lastmile_qr_scan"}, "type": "electric_scooter", "lat": 38.91632883333333, "is_reserved": 0, "fusion_lat": 0.0}, {"bike_id": "f5daa643d5612da0c45ae060b6d5526e", "fusion_lon": 0.0, "lon": -77.0215755, "name": "f5daa643d5612da0c45ae060b6d5526e", "is_disabled": 0, "rental_uris": {"android": "https://dc.lft.to/lastmile_qr_scan", "ios": "https://dc.lft.to/lastmile_qr_scan"}, "type": "electric_scooter", "lat": 38.93078533333333, "is_reserved": 0, "fusion_lat": 0.0}, {"bike_id": "8120ba7036c49bf7e80b3c9decca3698", "fusion_lon": 0.0, "lon": -77.0382575, "name": "8120ba7036c49bf7e80b3c9decca3698", "is_disabled": 0, "rental_uris": {"android": "https://dc.lft.to/lastmile_qr_scan", "ios": "https://dc.lft.to/lastmile_qr_scan"}, "type": "electric_scooter", "lat": 38.90684233333333, "is_reserved": 0, "fusion_lat": 0.0}, {"bike_id": "443c7ee9539fcc9369d23889f4e32bb5", "fusion_lon": 0.0, "lon": -76.93162666666667, "name": "443c7ee9539fcc9369d23889f4e32bb5", "is_disabled": 0, "rental_uris": {"android": "https://dc.lft.to/lastmile_qr_scan", "ios": "https://dc.lft.to/lastmile_qr_scan"}, "type": "electric_scooter", "lat": 38.89877833333333, "is_reserved": 0, "fusion_lat": 0.0}, {"bike_id": "2505eebe60c1db25d36155e146eed3e4", "fusion_lon": 0.0, "lon": -77.0382285, "name": "2505eebe60c1db25d36155e146eed3e4", "is_disabled": 0, "rental_uris": {"android": "https://dc.lft.to/lastmile_qr_scan", "ios": "https://dc.lft.to/lastmile_qr_scan"}, "type": "electric_scooter", "lat": 38.90690933333333, "is_reserved": 0, "fusion_lat": 0.0}, {"bike_id": "6e13fc0dcc230c7e6e35e152efe7dad7", "fusion_lon": 0.0, "lon": -77.0572185, "name": "6e13fc0dcc230c7e6e35e152efe7dad7", "is_disabled": 0, "rental_uris": {"android": "https://dc.lft.to/lastmile_qr_scan", "ios": "https://dc.lft.to/lastmile_qr_scan"}, "type": "electric_scooter", "lat": 38.924435, "is_reserved": 0, "fusion_lat": 0.0}, {"bike_id": "e7d93e7635473e756c7a3143aca35431", "fusion_lon": 0.0, "lon": -77.0286625, "name": "e7d93e7635473e756c7a3143aca35431", "is_disabled": 0, "rental_uris": {"android": "https://dc.lft.to/lastmile_qr_scan", "ios": "https://dc.lft.to/lastmile_qr_scan"}, "type": "electric_scooter", "lat": 38.90453333333333, "is_reserved": 0, "fusion_lat": 0.0}, {"bike_id": "2b66dc6677abde567ff2e64aa94d317b", "fusion_lon": 0.0, "lon": -77.034159, "name": "2b66dc6677abde567ff2e64aa94d317b", "is_disabled": 0, "rental_uris": {"android": "https://dc.lft.to/lastmile_qr_scan", "ios": "https://dc.lft.to/lastmile_qr_scan"}, "type": "electric_scooter", "lat": 38.919316333333335, "is_reserved": 0, "fusion_lat": 0.0}, {"bike_id": "f7968824e46c491848d50aebdd30b44d", "fusion_lon": 0.0, "lon": -77.02176966666667, "name": "f7968824e46c491848d50aebdd30b44d", "is_disabled": 0, "rental_uris": {"android": "https://dc.lft.to/lastmile_qr_scan", "ios": "https://dc.lft.to/lastmile_qr_scan"}, "type": "electric_scooter", "lat": 38.91428916666667, "is_reserved": 0, "fusion_lat": 0.0}, {"bike_id": "23006f7b823a342cb8b417699ffb5f43", "fusion_lon": 0.0, "lon": -77.04011183333333, "name": "23006f7b823a342cb8b417699ffb5f43", "is_disabled": 0, "rental_uris": {"android": "https://dc.lft.to/lastmile_qr_scan", "ios": "https://dc.lft.to/lastmile_qr_scan"}, "type": "electric_scooter", "lat": 38.91006866666667, "is_reserved": 0, "fusion_lat": 0.0}, {"bike_id": "01a69db8f042d0d3dfce5c81c7b3e28d", "fusion_lon": 0.0, "lon": -77.129563, "name": "01a69db8f042d0d3dfce5c81c7b3e28d", "is_disabled": 0, "rental_uris": {"android": "https://dc.lft.to/lastmile_qr_scan", "ios": "https://dc.lft.to/lastmile_qr_scan"}, "type": "electric_bike", "lat": 38.8522145, "is_reserved": 0, "fusion_lat": 0.0}, {"bike_id": "be8ea952f93b9459ec1505b72847e14c", "fusion_lon": 0.0, "lon": -76.99028416666667, "name": "be8ea952f93b9459ec1505b72847e14c", "is_disabled": 0, "rental_uris": {"android": "https://dc.lft.to/lastmile_qr_scan", "ios": "https://dc.lft.to/lastmile_qr_scan"}, "type": "electric_scooter", "lat": 38.86522216666667, "is_reserved": 0, "fusion_lat": 0.0}, {"bike_id": "2ef0580b46aced9e31b8225a32dc47c1", "fusion_lon": 0.0, "lon": -76.93230533333333, "name": "2ef0580b46aced9e31b8225a32dc47c1", "is_disabled": 0, "rental_uris": {"android": "https://dc.lft.to/lastmile_qr_scan", "ios": "https://dc.lft.to/lastmile_qr_scan"}, "type": "electric_bike", "lat": 38.86596316666667, "is_reserved": 0, "fusion_lat": 0.0}, {"bike_id": "d4b7637e89205642a8c9006462a496bf", "fusion_lon": 0.0, "lon": -77.03471766666667, "name": "d4b7637e89205642a8c9006462a496bf", "is_disabled": 0, "rental_uris": {"android": "https://dc.lft.to/lastmile_qr_scan", "ios": "https://dc.lft.to/lastmile_qr_scan"}, "type": "electric_bike", "lat": 38.93542, "is_reserved": 0, "fusion_lat": 0.0}, {"bike_id": "c990b2c5a652c73d21fc2e39252552a3", "fusion_lon": 0.0, "lon": -77.02347166666667, "name": "c990b2c5a652c73d21fc2e39252552a3", "is_disabled": 0, "rental_uris": {"android": "https://dc.lft.to/lastmile_qr_scan", "ios": "https://dc.lft.to/lastmile_qr_scan"}, "type": "electric_scooter", "lat": 38.9072655, "is_reserved": 0, "fusion_lat": 0.0}, {"bike_id": "386e37994ca29aa1eb1f385e89e10f2d", "fusion_lon": 0.0, "lon": -77.05522416666666, "name": "386e37994ca29aa1eb1f385e89e10f2d", "is_disabled": 0, "rental_uris": {"android": "https://dc.lft.to/lastmile_qr_scan", "ios": "https://dc.lft.to/lastmile_qr_scan"}, "type": "electric_scooter", "lat": 38.89740883333333, "is_reserved": 0, "fusion_lat": 0.0}, {"bike_id": "ef3d87b5a73b80bb0271bf503019ff70", "fusion_lon": 0.0, "lon": -77.03107016666667, "name": "ef3d87b5a73b80bb0271bf503019ff70", "is_disabled": 0, "rental_uris": {"android": "https://dc.lft.to/lastmile_qr_scan", "ios": "https://dc.lft.to/lastmile_qr_scan"}, "type": "electric_scooter", "lat": 38.91915, "is_reserved": 0, "fusion_lat": 0.0}, {"bike_id": "f75a181de44e7888e9332388c580338d", "fusion_lon": 0.0, "lon": -77.014775, "name": "f75a181de44e7888e9332388c580338d", "is_disabled": 0, "rental_uris": {"android": "https://dc.lft.to/lastmile_qr_scan", "ios": "https://dc.lft.to/lastmile_qr_scan"}, "type": "electric_scooter", "lat": 38.876392, "is_reserved": 0, "fusion_lat": 0.0}, {"bike_id": "392fe9736b00c0155a86473fc3d4d492", "fusion_lon": 0.0, "lon": -77.03880583333333, "name": "392fe9736b00c0155a86473fc3d4d492", "is_disabled": 0, "rental_uris": {"android": "https://dc.lft.to/lastmile_qr_scan", "ios": "https://dc.lft.to/lastmile_qr_scan"}, "type": "electric_scooter", "lat": 38.9170685, "is_reserved": 0, "fusion_lat": 0.0}, {"bike_id": "66af4107918d336164ff1f15fd314f4a", "fusion_lon": 0.0, "lon": -77.03391466666666, "name": "66af4107918d336164ff1f15fd314f4a", "is_disabled": 0, "rental_uris": {"android": "https://dc.lft.to/lastmile_qr_scan", "ios": "https://dc.lft.to/lastmile_qr_scan"}, "type": "electric_scooter", "lat": 38.919662, "is_reserved": 0, "fusion_lat": 0.0}, {"bike_id": "eff3057e8d3c381715d5db4a31841c1f", "fusion_lon": 0.0, "lon": -77.03003283333334, "name": "eff3057e8d3c381715d5db4a31841c1f", "is_disabled": 0, "rental_uris": {"android": "https://dc.lft.to/lastmile_qr_scan", "ios": "https://dc.lft.to/lastmile_qr_scan"}, "type": "electric_scooter", "lat": 38.91700383333333, "is_reserved": 0, "fusion_lat": 0.0}, {"bike_id": "69391175def09286ed4b6a61b76bd38e", "fusion_lon": 0.0, "lon": -77.0367365, "name": "69391175def09286ed4b6a61b76bd38e", "is_disabled": 0, "rental_uris": {"android": "https://dc.lft.to/lastmile_qr_scan", "ios": "https://dc.lft.to/lastmile_qr_scan"}, "type": "electric_scooter", "lat": 38.91711216666667, "is_reserved": 0, "fusion_lat": 0.0}, {"bike_id": "206a610286060d6ff3e5e83c93e540d9", "fusion_lon": 0.0, "lon": -77.03265166666667, "name": "206a610286060d6ff3e5e83c93e540d9", "is_disabled": 0, "rental_uris": {"android": "https://dc.lft.to/lastmile_qr_scan", "ios": "https://dc.lft.to/lastmile_qr_scan"}, "type": "electric_scooter", "lat": 38.9326875, "is_reserved": 0, "fusion_lat": 0.0}, {"bike_id": "3458571413c9bd522bb1c27713f0a254", "fusion_lon": 0.0, "lon": -77.0175505, "name": "3458571413c9bd522bb1c27713f0a254", "is_disabled": 0, "rental_uris": {"android": "https://dc.lft.to/lastmile_qr_scan", "ios": "https://dc.lft.to/lastmile_qr_scan"}, "type": "electric_scooter", "lat": 38.88318316666667, "is_reserved": 0, "fusion_lat": 0.0}, {"bike_id": "830ee44fad779163a416ed3600b3e3d9", "fusion_lon": 0.0, "lon": -77.05231283333333, "name": "830ee44fad779163a416ed3600b3e3d9", "is_disabled": 0, "rental_uris": {"android": "https://dc.lft.to/lastmile_qr_scan", "ios": "https://dc.lft.to/lastmile_qr_scan"}, "type": "electric_scooter", "lat": 38.9246185, "is_reserved": 0, "fusion_lat": 0.0}, {"bike_id": "2a71910c3b3dbdb4a0df2d5275b860a3", "fusion_lon": 0.0, "lon": -77.0188665, "name": "2a71910c3b3dbdb4a0df2d5275b860a3", "is_disabled": 0, "rental_uris": {"android": "https://dc.lft.to/lastmile_qr_scan", "ios": "https://dc.lft.to/lastmile_qr_scan"}, "type": "electric_scooter", "lat": 38.90605766666667, "is_reserved": 0, "fusion_lat": 0.0}, {"bike_id": "14a8ad0d10972af58142a93632227aaa", "fusion_lon": 0.0, "lon": -77.04047766666666, "name": "14a8ad0d10972af58142a93632227aaa", "is_disabled": 0, "rental_uris": {"android": "https://dc.lft.to/lastmile_qr_scan", "ios": "https://dc.lft.to/lastmile_qr_scan"}, "type": "electric_scooter", "lat": 38.913324833333334, "is_reserved": 0, "fusion_lat": 0.0}, {"bike_id": "eff7f4d8e85e41a7faeec096abbdcb19", "fusion_lon": 0.0, "lon": -77.05059833333334, "name": "eff7f4d8e85e41a7faeec096abbdcb19", "is_disabled": 0, "rental_uris": {"android": "https://dc.lft.to/lastmile_qr_scan", "ios": "https://dc.lft.to/lastmile_qr_scan"}, "type": "electric_scooter", "lat": 38.9241865, "is_reserved": 0, "fusion_lat": 0.0}, {"bike_id": "e1bd4c3d7bcce6ff32c4dd186aefe294", "fusion_lon": 0.0, "lon": -76.9598345, "name": "e1bd4c3d7bcce6ff32c4dd186aefe294", "is_disabled": 0, "rental_uris": {"android": "https://dc.lft.to/lastmile_qr_scan", "ios": "https://dc.lft.to/lastmile_qr_scan"}, "type": "electric_bike", "lat": 38.869989, "is_reserved": 0, "fusion_lat": 0.0}, {"bike_id": "ac96226d90e3025770dccf5dc30f4553", "fusion_lon": 0.0, "lon": -76.95752533333334, "name": "ac96226d90e3025770dccf5dc30f4553", "is_disabled": 0, "rental_uris": {"android": "https://dc.lft.to/lastmile_qr_scan", "ios": "https://dc.lft.to/lastmile_qr_scan"}, "type": "electric_scooter", "lat": 38.884275333333335, "is_reserved": 0, "fusion_lat": 0.0}, {"bike_id": "e4d13190f4a135c4473c510ed6db17af", "fusion_lon": 0.0, "lon": -77.03830566666667, "name": "e4d13190f4a135c4473c510ed6db17af", "is_disabled": 0, "rental_uris": {"android": "https://dc.lft.to/lastmile_qr_scan", "ios": "https://dc.lft.to/lastmile_qr_scan"}, "type": "electric_scooter", "lat": 38.918201333333336, "is_reserved": 0, "fusion_lat": 0.0}, {"bike_id": "40967e73c32cab9442069323b2290a54", "fusion_lon": 0.0, "lon": -76.97533516666667, "name": "40967e73c32cab9442069323b2290a54", "is_disabled": 0, "rental_uris": {"android": "https://dc.lft.to/lastmile_qr_scan", "ios": "https://dc.lft.to/lastmile_qr_scan"}, "type": "electric_bike", "lat": 38.90330466666666, "is_reserved": 0, "fusion_lat": 0.0}, {"bike_id": "9b0210d5b4fab243ef61ee293a85b1dc", "fusion_lon": 0.0, "lon": -76.94959283333333, "name": "9b0210d5b4fab243ef61ee293a85b1dc", "is_disabled": 0, "rental_uris": {"android": "https://dc.lft.to/lastmile_qr_scan", "ios": "https://dc.lft.to/lastmile_qr_scan"}, "type": "electric_scooter", "lat": 38.904943833333334, "is_reserved": 0, "fusion_lat": 0.0}, {"bike_id": "6f65a1158a1ae17edf645a7b8d1f4469", "fusion_lon": 0.0, "lon": -77.031294, "name": "6f65a1158a1ae17edf645a7b8d1f4469", "is_disabled": 0, "rental_uris": {"android": "https://dc.lft.to/lastmile_qr_scan", "ios": "https://dc.lft.to/lastmile_qr_scan"}, "type": "electric_scooter", "lat": 38.91494633333333, "is_reserved": 0, "fusion_lat": 0.0}, {"bike_id": "f3330451100f4c4b9ef3a3171dd06b31", "fusion_lon": 0.0, "lon": -77.04445916666667, "name": "f3330451100f4c4b9ef3a3171dd06b31", "is_disabled": 0, "rental_uris": {"android": "https://dc.lft.to/lastmile_qr_scan", "ios": "https://dc.lft.to/lastmile_qr_scan"}, "type": "electric_scooter", "lat": 38.9154705, "is_reserved": 0, "fusion_lat": 0.0}, {"bike_id": "8d3d81e624221054f26466fbf3543cfb", "fusion_lon": 0.0, "lon": -77.02984383333333, "name": "8d3d81e624221054f26466fbf3543cfb", "is_disabled": 0, "rental_uris": {"android": "https://dc.lft.to/lastmile_qr_scan", "ios": "https://dc.lft.to/lastmile_qr_scan"}, "type": "electric_bike", "lat": 38.937018, "is_reserved": 0, "fusion_lat": 0.0}, {"bike_id": "256680b429c06dde0f28a6e09ea70c51", "fusion_lon": 0.0, "lon": -77.03353316666667, "name": "256680b429c06dde0f28a6e09ea70c51", "is_disabled": 0, "rental_uris": {"android": "https://dc.lft.to/lastmile_qr_scan", "ios": "https://dc.lft.to/lastmile_qr_scan"}, "type": "electric_scooter", "lat": 38.931509, "is_reserved": 0, "fusion_lat": 0.0}, {"bike_id": "0c03edc342701db11f02579aadd40bf9", "fusion_lon": 0.0, "lon": -77.0135785, "name": "0c03edc342701db11f02579aadd40bf9", "is_disabled": 0, "rental_uris": {"android": "https://dc.lft.to/lastmile_qr_scan", "ios": "https://dc.lft.to/lastmile_qr_scan"}, "type": "electric_scooter", "lat": 38.919651333333334, "is_reserved": 0, "fusion_lat": 0.0}, {"bike_id": "1620dd581a6d013088c819abbd6fe558", "fusion_lon": 0.0, "lon": -77.03594583333333, "name": "1620dd581a6d013088c819abbd6fe558", "is_disabled": 0, "rental_uris": {"android": "https://dc.lft.to/lastmile_qr_scan", "ios": "https://dc.lft.to/lastmile_qr_scan"}, "type": "electric_scooter", "lat": 38.9367705, "is_reserved": 0, "fusion_lat": 0.0}, {"bike_id": "e0d5149ddbc2038033493fd334d86e4f", "fusion_lon": 0.0, "lon": -77.04585466666667, "name": "e0d5149ddbc2038033493fd334d86e4f", "is_disabled": 0, "rental_uris": {"android": "https://dc.lft.to/lastmile_qr_scan", "ios": "https://dc.lft.to/lastmile_qr_scan"}, "type": "electric_scooter", "lat": 38.90858433333333, "is_reserved": 0, "fusion_lat": 0.0}, {"bike_id": "97f3a61db8476cb746dceaeff350453f", "fusion_lon": 0.0, "lon": -77.0130855, "name": "97f3a61db8476cb746dceaeff350453f", "is_disabled": 0, "rental_uris": {"android": "https://dc.lft.to/lastmile_qr_scan", "ios": "https://dc.lft.to/lastmile_qr_scan"}, "type": "electric_scooter", "lat": 38.91411183333334, "is_reserved": 0, "fusion_lat": 0.0}, {"bike_id": "8655410f9025b9c68d29afabe29a48dd", "fusion_lon": 0.0, "lon": -77.02972916666667, "name": "8655410f9025b9c68d29afabe29a48dd", "is_disabled": 0, "rental_uris": {"android": "https://dc.lft.to/lastmile_qr_scan", "ios": "https://dc.lft.to/lastmile_qr_scan"}, "type": "electric_scooter", "lat": 38.93192633333334, "is_reserved": 0, "fusion_lat": 0.0}, {"bike_id": "7f9ecd5f8cae2edcf755d2b081c2ad5e", "fusion_lon": 0.0, "lon": -77.04344366666666, "name": "7f9ecd5f8cae2edcf755d2b081c2ad5e", "is_disabled": 0, "rental_uris": {"android": "https://dc.lft.to/lastmile_qr_scan", "ios": "https://dc.lft.to/lastmile_qr_scan"}, "type": "electric_scooter", "lat": 38.9130225, "is_reserved": 0, "fusion_lat": 0.0}, {"bike_id": "05a921f8abf35eca14e025f9e898e36d", "fusion_lon": 0.0, "lon": -76.97187966666667, "name": "05a921f8abf35eca14e025f9e898e36d", "is_disabled": 0, "rental_uris": {"android": "https://dc.lft.to/lastmile_qr_scan", "ios": "https://dc.lft.to/lastmile_qr_scan"}, "type": "electric_bike", "lat": 38.933229833333336, "is_reserved": 0, "fusion_lat": 0.0}, {"bike_id": "f1dbf18ccb3a78107c1288e7ee56c10f", "fusion_lon": 0.0, "lon": -77.050641, "name": "f1dbf18ccb3a78107c1288e7ee56c10f", "is_disabled": 0, "rental_uris": {"android": "https://dc.lft.to/lastmile_qr_scan", "ios": "https://dc.lft.to/lastmile_qr_scan"}, "type": "electric_scooter", "lat": 38.92346083333333, "is_reserved": 0, "fusion_lat": 0.0}, {"bike_id": "313217d98bd70761707d1387e8cb0947", "fusion_lon": 0.0, "lon": -76.97592033333333, "name": "313217d98bd70761707d1387e8cb0947", "is_disabled": 0, "rental_uris": {"android": "https://dc.lft.to/lastmile_qr_scan", "ios": "https://dc.lft.to/lastmile_qr_scan"}, "type": "electric_scooter", "lat": 38.903329166666666, "is_reserved": 0, "fusion_lat": 0.0}, {"bike_id": "8fdb5534144895aa0f6578ab0260e2f5", "fusion_lon": 0.0, "lon": -77.07823, "name": "8fdb5534144895aa0f6578ab0260e2f5", "is_disabled": 0, "rental_uris": {"android": "https://dc.lft.to/lastmile_qr_scan", "ios": "https://dc.lft.to/lastmile_qr_scan"}, "type": "electric_scooter", "lat": 38.91277083333333, "is_reserved": 0, "fusion_lat": 0.0}, {"bike_id": "8bfd5e6f5040a5db473a69b57bafa1f4", "fusion_lon": 0.0, "lon": -77.00349133333333, "name": "8bfd5e6f5040a5db473a69b57bafa1f4", "is_disabled": 0, "rental_uris": {"android": "https://dc.lft.to/lastmile_qr_scan", "ios": "https://dc.lft.to/lastmile_qr_scan"}, "type": "electric_scooter", "lat": 38.889949333333334, "is_reserved": 0, "fusion_lat": 0.0}, {"bike_id": "c562cf4660a41ad75c9e115e4fecaaf1", "fusion_lon": 0.0, "lon": -77.02963766666667, "name": "c562cf4660a41ad75c9e115e4fecaaf1", "is_disabled": 0, "rental_uris": {"android": "https://dc.lft.to/lastmile_qr_scan", "ios": "https://dc.lft.to/lastmile_qr_scan"}, "type": "electric_bike", "lat": 38.95054016666667, "is_reserved": 0, "fusion_lat": 0.0}, {"bike_id": "eaaa28b3f86a53af1d5ab54464628c4f", "fusion_lon": 0.0, "lon": -77.03260783333333, "name": "eaaa28b3f86a53af1d5ab54464628c4f", "is_disabled": 0, "rental_uris": {"android": "https://dc.lft.to/lastmile_qr_scan", "ios": "https://dc.lft.to/lastmile_qr_scan"}, "type": "electric_scooter", "lat": 38.914054666666665, "is_reserved": 0, "fusion_lat": 0.0}, {"bike_id": "b0f613dc8e2e9d7f2dbe35ccf52eee11", "fusion_lon": 0.0, "lon": -77.02716133333334, "name": "b0f613dc8e2e9d7f2dbe35ccf52eee11", "is_disabled": 0, "rental_uris": {"android": "https://dc.lft.to/lastmile_qr_scan", "ios": "https://dc.lft.to/lastmile_qr_scan"}, "type": "electric_scooter", "lat": 38.920606666666664, "is_reserved": 0, "fusion_lat": 0.0}, {"bike_id": "c6a905b205f0d36ec690032ef9278230", "fusion_lon": 0.0, "lon": -77.02443316666667, "name": "c6a905b205f0d36ec690032ef9278230", "is_disabled": 0, "rental_uris": {"android": "https://dc.lft.to/lastmile_qr_scan", "ios": "https://dc.lft.to/lastmile_qr_scan"}, "type": "electric_scooter", "lat": 38.9021885, "is_reserved": 0, "fusion_lat": 0.0}, {"bike_id": "dd0ebcd4faf580f75dba54fed6b5b230", "fusion_lon": 0.0, "lon": -77.04497966666666, "name": "dd0ebcd4faf580f75dba54fed6b5b230", "is_disabled": 0, "rental_uris": {"android": "https://dc.lft.to/lastmile_qr_scan", "ios": "https://dc.lft.to/lastmile_qr_scan"}, "type": "electric_scooter", "lat": 38.913649166666666, "is_reserved": 0, "fusion_lat": 0.0}, {"bike_id": "7d9fa5fec712c9e37c154845fc76e34f", "fusion_lon": 0.0, "lon": -76.99095766666667, "name": "7d9fa5fec712c9e37c154845fc76e34f", "is_disabled": 0, "rental_uris": {"android": "https://dc.lft.to/lastmile_qr_scan", "ios": "https://dc.lft.to/lastmile_qr_scan"}, "type": "electric_scooter", "lat": 38.882354166666666, "is_reserved": 0, "fusion_lat": 0.0}, {"bike_id": "dd529333fa1739ced000f8022c756e24", "fusion_lon": 0.0, "lon": -77.0097325, "name": "dd529333fa1739ced000f8022c756e24", "is_disabled": 0, "rental_uris": {"android": "https://dc.lft.to/lastmile_qr_scan", "ios": "https://dc.lft.to/lastmile_qr_scan"}, "type": "electric_bike", "lat": 38.96145116666667, "is_reserved": 0, "fusion_lat": 0.0}, {"bike_id": "540c31a1268f4e78f54ac1eb115a3c6f", "fusion_lon": 0.0, "lon": -76.9373545, "name": "540c31a1268f4e78f54ac1eb115a3c6f", "is_disabled": 0, "rental_uris": {"android": "https://dc.lft.to/lastmile_qr_scan", "ios": "https://dc.lft.to/lastmile_qr_scan"}, "type": "electric_scooter", "lat": 38.8901985, "is_reserved": 0, "fusion_lat": 0.0}, {"bike_id": "4e452dcf68eb2cb4b73132f6f53526b9", "fusion_lon": 0.0, "lon": -77.022249, "name": "4e452dcf68eb2cb4b73132f6f53526b9", "is_disabled": 0, "rental_uris": {"android": "https://dc.lft.to/lastmile_qr_scan", "ios": "https://dc.lft.to/lastmile_qr_scan"}, "type": "electric_scooter", "lat": 38.892219833333336, "is_reserved": 0, "fusion_lat": 0.0}, {"bike_id": "07a7be8825213bdea9ffb5b79886923a", "fusion_lon": 0.0, "lon": -77.01405166666666, "name": "07a7be8825213bdea9ffb5b79886923a", "is_disabled": 0, "rental_uris": {"android": "https://dc.lft.to/lastmile_qr_scan", "ios": "https://dc.lft.to/lastmile_qr_scan"}, "type": "electric_scooter", "lat": 38.887473666666665, "is_reserved": 0, "fusion_lat": 0.0}, {"bike_id": "8edb5690106dc3537bd7b40f5104a66b", "fusion_lon": 0.0, "lon": -77.02710466666667, "name": "8edb5690106dc3537bd7b40f5104a66b", "is_disabled": 0, "rental_uris": {"android": "https://dc.lft.to/lastmile_qr_scan", "ios": "https://dc.lft.to/lastmile_qr_scan"}, "type": "electric_scooter", "lat": 38.90006733333333, "is_reserved": 0, "fusion_lat": 0.0}, {"bike_id": "1d158eff1330df06ab871f33286f5169", "fusion_lon": 0.0, "lon": -77.07380033333334, "name": "1d158eff1330df06ab871f33286f5169", "is_disabled": 0, "rental_uris": {"android": "https://dc.lft.to/lastmile_qr_scan", "ios": "https://dc.lft.to/lastmile_qr_scan"}, "type": "electric_bike", "lat": 38.961784333333334, "is_reserved": 0, "fusion_lat": 0.0}, {"bike_id": "54b7b67d5b81f6149c615de4603b3976", "fusion_lon": 0.0, "lon": -77.0486465, "name": "54b7b67d5b81f6149c615de4603b3976", "is_disabled": 0, "rental_uris": {"android": "https://dc.lft.to/lastmile_qr_scan", "ios": "https://dc.lft.to/lastmile_qr_scan"}, "type": "electric_scooter", "lat": 38.90650566666667, "is_reserved": 0, "fusion_lat": 0.0}, {"bike_id": "3469ce078cedf7c115579cff7733d53c", "fusion_lon": 0.0, "lon": -77.00147533333333, "name": "3469ce078cedf7c115579cff7733d53c", "is_disabled": 0, "rental_uris": {"android": "https://dc.lft.to/lastmile_qr_scan", "ios": "https://dc.lft.to/lastmile_qr_scan"}, "type": "electric_scooter", "lat": 38.9110645, "is_reserved": 0, "fusion_lat": 0.0}, {"bike_id": "5ef1ec1e56c08da24a834477ffb2e14f", "fusion_lon": 0.0, "lon": -77.02579366666667, "name": "5ef1ec1e56c08da24a834477ffb2e14f", "is_disabled": 0, "rental_uris": {"android": "https://dc.lft.to/lastmile_qr_scan", "ios": "https://dc.lft.to/lastmile_qr_scan"}, "type": "electric_scooter", "lat": 38.92541533333333, "is_reserved": 0, "fusion_lat": 0.0}, {"bike_id": "2528b3551586c51a5e428ab58be7eb71", "fusion_lon": 0.0, "lon": -77.0431405, "name": "2528b3551586c51a5e428ab58be7eb71", "is_disabled": 0, "rental_uris": {"android": "https://dc.lft.to/lastmile_qr_scan", "ios": "https://dc.lft.to/lastmile_qr_scan"}, "type": "electric_scooter", "lat": 38.91875816666666, "is_reserved": 0, "fusion_lat": 0.0}, {"bike_id": "370fdf1b329c735cf41b856705de267b", "fusion_lon": 0.0, "lon": -77.00588016666667, "name": "370fdf1b329c735cf41b856705de267b", "is_disabled": 0, "rental_uris": {"android": "https://dc.lft.to/lastmile_qr_scan", "ios": "https://dc.lft.to/lastmile_qr_scan"}, "type": "electric_scooter", "lat": 38.905606166666665, "is_reserved": 0, "fusion_lat": 0.0}, {"bike_id": "045a3c56d915503ae02a68137e3fc6e0", "fusion_lon": 0.0, "lon": -77.04128533333333, "name": "045a3c56d915503ae02a68137e3fc6e0", "is_disabled": 0, "rental_uris": {"android": "https://dc.lft.to/lastmile_qr_scan", "ios": "https://dc.lft.to/lastmile_qr_scan"}, "type": "electric_scooter", "lat": 38.921726, "is_reserved": 0, "fusion_lat": 0.0}, {"bike_id": "0000327c255da96ef74213c85b2c8d27", "fusion_lon": 0.0, "lon": -77.0280795, "name": "0000327c255da96ef74213c85b2c8d27", "is_disabled": 0, "rental_uris": {"android": "https://dc.lft.to/lastmile_qr_scan", "ios": "https://dc.lft.to/lastmile_qr_scan"}, "type": "electric_scooter", "lat": 38.930876166666664, "is_reserved": 0, "fusion_lat": 0.0}, {"bike_id": "6550d952e1ccdb1285a82b7c0bebef6c", "fusion_lon": 0.0, "lon": -76.99906916666667, "name": "6550d952e1ccdb1285a82b7c0bebef6c", "is_disabled": 0, "rental_uris": {"android": "https://dc.lft.to/lastmile_qr_scan", "ios": "https://dc.lft.to/lastmile_qr_scan"}, "type": "electric_scooter", "lat": 38.94818766666667, "is_reserved": 0, "fusion_lat": 0.0}, {"bike_id": "44084fb8a1c6153bb3c0368cbb1e8c02", "fusion_lon": 0.0, "lon": -77.02218733333333, "name": "44084fb8a1c6153bb3c0368cbb1e8c02", "is_disabled": 0, "rental_uris": {"android": "https://dc.lft.to/lastmile_qr_scan", "ios": "https://dc.lft.to/lastmile_qr_scan"}, "type": "electric_scooter", "lat": 38.91554416666666, "is_reserved": 0, "fusion_lat": 0.0}, {"bike_id": "a235596d1622ad82ea10b4174461dbd8", "fusion_lon": 0.0, "lon": -77.03588233333333, "name": "a235596d1622ad82ea10b4174461dbd8", "is_disabled": 0, "rental_uris": {"android": "https://dc.lft.to/lastmile_qr_scan", "ios": "https://dc.lft.to/lastmile_qr_scan"}, "type": "electric_scooter", "lat": 38.9367655, "is_reserved": 0, "fusion_lat": 0.0}, {"bike_id": "c5ded30fb84ca54e44259041ec46f539", "fusion_lon": 0.0, "lon": -76.979629, "name": "c5ded30fb84ca54e44259041ec46f539", "is_disabled": 0, "rental_uris": {"android": "https://dc.lft.to/lastmile_qr_scan", "ios": "https://dc.lft.to/lastmile_qr_scan"}, "type": "electric_scooter", "lat": 38.9169145, "is_reserved": 0, "fusion_lat": 0.0}, {"bike_id": "ea7d9dd68584068b783a76d7b5711594", "fusion_lon": 0.0, "lon": -77.03350683333333, "name": "ea7d9dd68584068b783a76d7b5711594", "is_disabled": 0, "rental_uris": {"android": "https://dc.lft.to/lastmile_qr_scan", "ios": "https://dc.lft.to/lastmile_qr_scan"}, "type": "electric_scooter", "lat": 38.885055, "is_reserved": 0, "fusion_lat": 0.0}, {"bike_id": "f70899892e281eef90723a06a8ad75f2", "fusion_lon": 0.0, "lon": -77.1106885, "name": "f70899892e281eef90723a06a8ad75f2", "is_disabled": 0, "rental_uris": {"android": "https://dc.lft.to/lastmile_qr_scan", "ios": "https://dc.lft.to/lastmile_qr_scan"}, "type": "electric_bike", "lat": 38.870659, "is_reserved": 0, "fusion_lat": 0.0}, {"bike_id": "a5addf58163ddeef0542624297c3510e", "fusion_lon": 0.0, "lon": -77.06334, "name": "a5addf58163ddeef0542624297c3510e", "is_disabled": 0, "rental_uris": {"android": "https://dc.lft.to/lastmile_qr_scan", "ios": "https://dc.lft.to/lastmile_qr_scan"}, "type": "electric_scooter", "lat": 38.906777, "is_reserved": 0, "fusion_lat": 0.0}, {"bike_id": "21edffd558b5974f732caa5b775953d0", "fusion_lon": 0.0, "lon": -77.04513666666666, "name": "21edffd558b5974f732caa5b775953d0", "is_disabled": 0, "rental_uris": {"android": "https://dc.lft.to/lastmile_qr_scan", "ios": "https://dc.lft.to/lastmile_qr_scan"}, "type": "electric_scooter", "lat": 38.88604316666667, "is_reserved": 0, "fusion_lat": 0.0}, {"bike_id": "f964ccda857a12f41887edff1ddc8b35", "fusion_lon": 0.0, "lon": -77.04227466666667, "name": "f964ccda857a12f41887edff1ddc8b35", "is_disabled": 0, "rental_uris": {"android": "https://dc.lft.to/lastmile_qr_scan", "ios": "https://dc.lft.to/lastmile_qr_scan"}, "type": "electric_scooter", "lat": 38.917848, "is_reserved": 0, "fusion_lat": 0.0}, {"bike_id": "4cbe04a00d9b2e7e02e69e9c798eec50", "fusion_lon": 0.0, "lon": -77.02279333333334, "name": "4cbe04a00d9b2e7e02e69e9c798eec50", "is_disabled": 0, "rental_uris": {"android": "https://dc.lft.to/lastmile_qr_scan", "ios": "https://dc.lft.to/lastmile_qr_scan"}, "type": "electric_scooter", "lat": 38.916105333333334, "is_reserved": 0, "fusion_lat": 0.0}, {"bike_id": "35e471deb1759ecd6b119e56bbb9a637", "fusion_lon": 0.0, "lon": -76.93199083333333, "name": "35e471deb1759ecd6b119e56bbb9a637", "is_disabled": 0, "rental_uris": {"android": "https://dc.lft.to/lastmile_qr_scan", "ios": "https://dc.lft.to/lastmile_qr_scan"}, "type": "electric_scooter", "lat": 38.898796, "is_reserved": 0, "fusion_lat": 0.0}, {"bike_id": "a4737514a21b2ed5613ded64a716c98a", "fusion_lon": 0.0, "lon": -77.029423, "name": "a4737514a21b2ed5613ded64a716c98a", "is_disabled": 0, "rental_uris": {"android": "https://dc.lft.to/lastmile_qr_scan", "ios": "https://dc.lft.to/lastmile_qr_scan"}, "type": "electric_scooter", "lat": 38.899456666666666, "is_reserved": 0, "fusion_lat": 0.0}, {"bike_id": "4d9627839e43b6beceed0e7c18ed2292", "fusion_lon": 0.0, "lon": -76.99880033333334, "name": "4d9627839e43b6beceed0e7c18ed2292", "is_disabled": 0, "rental_uris": {"android": "https://dc.lft.to/lastmile_qr_scan", "ios": "https://dc.lft.to/lastmile_qr_scan"}, "type": "electric_scooter", "lat": 38.900179666666666, "is_reserved": 0, "fusion_lat": 0.0}, {"bike_id": "e87c98499099589a3535e5aead96c0cb", "fusion_lon": 0.0, "lon": -77.13892266666667, "name": "e87c98499099589a3535e5aead96c0cb", "is_disabled": 0, "rental_uris": {"android": "https://dc.lft.to/lastmile_qr_scan", "ios": "https://dc.lft.to/lastmile_qr_scan"}, "type": "electric_bike", "lat": 38.8968605, "is_reserved": 0, "fusion_lat": 0.0}, {"bike_id": "f987475392336b51751f99331ac1e6b1", "fusion_lon": 0.0, "lon": -77.04696366666667, "name": "f987475392336b51751f99331ac1e6b1", "is_disabled": 0, "rental_uris": {"android": "https://dc.lft.to/lastmile_qr_scan", "ios": "https://dc.lft.to/lastmile_qr_scan"}, "type": "electric_scooter", "lat": 38.921021333333336, "is_reserved": 0, "fusion_lat": 0.0}, {"bike_id": "47df5c7804d4cca277684adeee56a320", "fusion_lon": 0.0, "lon": -77.0253485, "name": "47df5c7804d4cca277684adeee56a320", "is_disabled": 0, "rental_uris": {"android": "https://dc.lft.to/lastmile_qr_scan", "ios": "https://dc.lft.to/lastmile_qr_scan"}, "type": "electric_scooter", "lat": 38.92490883333333, "is_reserved": 0, "fusion_lat": 0.0}, {"bike_id": "be1d3efa6963aed74f5565445b776c0b", "fusion_lon": 0.0, "lon": -77.03507233333333, "name": "be1d3efa6963aed74f5565445b776c0b", "is_disabled": 0, "rental_uris": {"android": "https://dc.lft.to/lastmile_qr_scan", "ios": "https://dc.lft.to/lastmile_qr_scan"}, "type": "electric_scooter", "lat": 38.9361435, "is_reserved": 0, "fusion_lat": 0.0}, {"bike_id": "6607b524de6e52c0a02023ee460bc57d", "fusion_lon": 0.0, "lon": -77.0258795, "name": "6607b524de6e52c0a02023ee460bc57d", "is_disabled": 0, "rental_uris": {"android": "https://dc.lft.to/lastmile_qr_scan", "ios": "https://dc.lft.to/lastmile_qr_scan"}, "type": "electric_scooter", "lat": 38.9269925, "is_reserved": 0, "fusion_lat": 0.0}, {"bike_id": "59dd53c18b45a7d0a07146b7fa52619b", "fusion_lon": 0.0, "lon": -77.00195466666666, "name": "59dd53c18b45a7d0a07146b7fa52619b", "is_disabled": 0, "rental_uris": {"android": "https://dc.lft.to/lastmile_qr_scan", "ios": "https://dc.lft.to/lastmile_qr_scan"}, "type": "electric_scooter", "lat": 38.90038116666667, "is_reserved": 0, "fusion_lat": 0.0}, {"bike_id": "667112028812954bcf517d6cca41ea42", "fusion_lon": 0.0, "lon": -77.092998, "name": "667112028812954bcf517d6cca41ea42", "is_disabled": 0, "rental_uris": {"android": "https://dc.lft.to/lastmile_qr_scan", "ios": "https://dc.lft.to/lastmile_qr_scan"}, "type": "electric_bike", "lat": 38.97698833333333, "is_reserved": 0, "fusion_lat": 0.0}, {"bike_id": "36b7ae72db18d4342c76c79508b97d5c", "fusion_lon": 0.0, "lon": -77.044532, "name": "36b7ae72db18d4342c76c79508b97d5c", "is_disabled": 0, "rental_uris": {"android": "https://dc.lft.to/lastmile_qr_scan", "ios": "https://dc.lft.to/lastmile_qr_scan"}, "type": "electric_scooter", "lat": 38.91858283333333, "is_reserved": 0, "fusion_lat": 0.0}, {"bike_id": "152c4fe433465ca1352daad845425335", "fusion_lon": 0.0, "lon": -77.043253, "name": "152c4fe433465ca1352daad845425335", "is_disabled": 0, "rental_uris": {"android": "https://dc.lft.to/lastmile_qr_scan", "ios": "https://dc.lft.to/lastmile_qr_scan"}, "type": "electric_scooter", "lat": 38.89227966666667, "is_reserved": 0, "fusion_lat": 0.0}, {"bike_id": "8feaad89dace0c6d23ed9e3e3d902978", "fusion_lon": 0.0, "lon": -77.0174675, "name": "8feaad89dace0c6d23ed9e3e3d902978", "is_disabled": 0, "rental_uris": {"android": "https://dc.lft.to/lastmile_qr_scan", "ios": "https://dc.lft.to/lastmile_qr_scan"}, "type": "electric_scooter", "lat": 38.911115833333334, "is_reserved": 0, "fusion_lat": 0.0}, {"bike_id": "5bc0ad4313a06f76ec81a07d029ddd98", "fusion_lon": 0.0, "lon": -76.98924, "name": "5bc0ad4313a06f76ec81a07d029ddd98", "is_disabled": 0, "rental_uris": {"android": "https://dc.lft.to/lastmile_qr_scan", "ios": "https://dc.lft.to/lastmile_qr_scan"}, "type": "electric_scooter", "lat": 38.840703, "is_reserved": 0, "fusion_lat": 0.0}, {"bike_id": "a5aa872b24552206d6ea4d2b6a78d920", "fusion_lon": 0.0, "lon": -77.02323433333333, "name": "a5aa872b24552206d6ea4d2b6a78d920", "is_disabled": 0, "rental_uris": {"android": "https://dc.lft.to/lastmile_qr_scan", "ios": "https://dc.lft.to/lastmile_qr_scan"}, "type": "electric_scooter", "lat": 38.90729283333334, "is_reserved": 0, "fusion_lat": 0.0}, {"bike_id": "2c000d067b61729d1080c2248c9c6234", "fusion_lon": 0.0, "lon": -77.02129216666667, "name": "2c000d067b61729d1080c2248c9c6234", "is_disabled": 0, "rental_uris": {"android": "https://dc.lft.to/lastmile_qr_scan", "ios": "https://dc.lft.to/lastmile_qr_scan"}, "type": "electric_scooter", "lat": 38.89956, "is_reserved": 0, "fusion_lat": 0.0}, {"bike_id": "823fa100387041741e06befb0bf5e700", "fusion_lon": 0.0, "lon": -76.98536366666667, "name": "823fa100387041741e06befb0bf5e700", "is_disabled": 0, "rental_uris": {"android": "https://dc.lft.to/lastmile_qr_scan", "ios": "https://dc.lft.to/lastmile_qr_scan"}, "type": "electric_scooter", "lat": 38.8664975, "is_reserved": 0, "fusion_lat": 0.0}, {"bike_id": "8d9de8327e65a1b3977cb45959577c8d", "fusion_lon": 0.0, "lon": -77.02479633333333, "name": "8d9de8327e65a1b3977cb45959577c8d", "is_disabled": 0, "rental_uris": {"android": "https://dc.lft.to/lastmile_qr_scan", "ios": "https://dc.lft.to/lastmile_qr_scan"}, "type": "electric_scooter", "lat": 38.91926633333333, "is_reserved": 0, "fusion_lat": 0.0}, {"bike_id": "401536a15b609bc62bf581c06afeab8d", "fusion_lon": 0.0, "lon": -77.0257015, "name": "401536a15b609bc62bf581c06afeab8d", "is_disabled": 0, "rental_uris": {"android": "https://dc.lft.to/lastmile_qr_scan", "ios": "https://dc.lft.to/lastmile_qr_scan"}, "type": "electric_scooter", "lat": 38.892317166666665, "is_reserved": 0, "fusion_lat": 0.0}, {"bike_id": "bfd82ee4af163e77553c1deea6839665", "fusion_lon": 0.0, "lon": -77.02686766666666, "name": "bfd82ee4af163e77553c1deea6839665", "is_disabled": 0, "rental_uris": {"android": "https://dc.lft.to/lastmile_qr_scan", "ios": "https://dc.lft.to/lastmile_qr_scan"}, "type": "electric_scooter", "lat": 38.898537166666664, "is_reserved": 0, "fusion_lat": 0.0}, {"bike_id": "4ba521640550a23dd3cf24429347530f", "fusion_lon": 0.0, "lon": -77.02950916666667, "name": "4ba521640550a23dd3cf24429347530f", "is_disabled": 0, "rental_uris": {"android": "https://dc.lft.to/lastmile_qr_scan", "ios": "https://dc.lft.to/lastmile_qr_scan"}, "type": "electric_scooter", "lat": 38.932533, "is_reserved": 0, "fusion_lat": 0.0}, {"bike_id": "00ccac4bb8ecfd769bb31891c3b7012a", "fusion_lon": 0.0, "lon": -77.027223, "name": "00ccac4bb8ecfd769bb31891c3b7012a", "is_disabled": 0, "rental_uris": {"android": "https://dc.lft.to/lastmile_qr_scan", "ios": "https://dc.lft.to/lastmile_qr_scan"}, "type": "electric_scooter", "lat": 38.949614333333336, "is_reserved": 0, "fusion_lat": 0.0}, {"bike_id": "a12aeb87f1002a21ad13fe9f6472defa", "fusion_lon": 0.0, "lon": -77.04876466666667, "name": "a12aeb87f1002a21ad13fe9f6472defa", "is_disabled": 0, "rental_uris": {"android": "https://dc.lft.to/lastmile_qr_scan", "ios": "https://dc.lft.to/lastmile_qr_scan"}, "type": "electric_scooter", "lat": 38.90975383333333, "is_reserved": 0, "fusion_lat": 0.0}, {"bike_id": "164cfca415d881f09c8df84266ddb6d2", "fusion_lon": 0.0, "lon": -77.022115, "name": "164cfca415d881f09c8df84266ddb6d2", "is_disabled": 0, "rental_uris": {"android": "https://dc.lft.to/lastmile_qr_scan", "ios": "https://dc.lft.to/lastmile_qr_scan"}, "type": "electric_scooter", "lat": 38.87894683333333, "is_reserved": 0, "fusion_lat": 0.0}, {"bike_id": "aa0accc4ee6c9c74d7e33c7298c5f61e", "fusion_lon": 0.0, "lon": -77.0276165, "name": "aa0accc4ee6c9c74d7e33c7298c5f61e", "is_disabled": 0, "rental_uris": {"android": "https://dc.lft.to/lastmile_qr_scan", "ios": "https://dc.lft.to/lastmile_qr_scan"}, "type": "electric_scooter", "lat": 38.90728133333333, "is_reserved": 0, "fusion_lat": 0.0}, {"bike_id": "7723de566d80c1c5655bf8203f80160a", "fusion_lon": 0.0, "lon": -77.03417566666667, "name": "7723de566d80c1c5655bf8203f80160a", "is_disabled": 0, "rental_uris": {"android": "https://dc.lft.to/lastmile_qr_scan", "ios": "https://dc.lft.to/lastmile_qr_scan"}, "type": "electric_scooter", "lat": 38.930726, "is_reserved": 0, "fusion_lat": 0.0}, {"bike_id": "9b03e755d7e649e53a8c289e4cfecfae", "fusion_lon": 0.0, "lon": -76.99765816666667, "name": "9b03e755d7e649e53a8c289e4cfecfae", "is_disabled": 0, "rental_uris": {"android": "https://dc.lft.to/lastmile_qr_scan", "ios": "https://dc.lft.to/lastmile_qr_scan"}, "type": "electric_scooter", "lat": 38.88770133333333, "is_reserved": 0, "fusion_lat": 0.0}, {"bike_id": "83223b9ea20a9861b9dbb300b69a874d", "fusion_lon": 0.0, "lon": -77.00572833333334, "name": "83223b9ea20a9861b9dbb300b69a874d", "is_disabled": 0, "rental_uris": {"android": "https://dc.lft.to/lastmile_qr_scan", "ios": "https://dc.lft.to/lastmile_qr_scan"}, "type": "electric_scooter", "lat": 38.905630333333335, "is_reserved": 0, "fusion_lat": 0.0}, {"bike_id": "a4fb892ad82fd25abcc1ca4163e4135c", "fusion_lon": 0.0, "lon": -77.11852616666667, "name": "a4fb892ad82fd25abcc1ca4163e4135c", "is_disabled": 0, "rental_uris": {"android": "https://dc.lft.to/lastmile_qr_scan", "ios": "https://dc.lft.to/lastmile_qr_scan"}, "type": "electric_bike", "lat": 38.877321, "is_reserved": 0, "fusion_lat": 0.0}, {"bike_id": "dc04c6d20c7fd96db6f32d31b307bd8f", "fusion_lon": 0.0, "lon": -77.037192, "name": "dc04c6d20c7fd96db6f32d31b307bd8f", "is_disabled": 0, "rental_uris": {"android": "https://dc.lft.to/lastmile_qr_scan", "ios": "https://dc.lft.to/lastmile_qr_scan"}, "type": "electric_scooter", "lat": 38.91810133333333, "is_reserved": 0, "fusion_lat": 0.0}, {"bike_id": "44244a70570c9541e263f3042056acb4", "fusion_lon": 0.0, "lon": -77.0276395, "name": "44244a70570c9541e263f3042056acb4", "is_disabled": 0, "rental_uris": {"android": "https://dc.lft.to/lastmile_qr_scan", "ios": "https://dc.lft.to/lastmile_qr_scan"}, "type": "electric_scooter", "lat": 38.907309833333336, "is_reserved": 0, "fusion_lat": 0.0}, {"bike_id": "392154a2834449b203d6fe503bfd27b0", "fusion_lon": 0.0, "lon": -76.99853166666666, "name": "392154a2834449b203d6fe503bfd27b0", "is_disabled": 0, "rental_uris": {"android": "https://dc.lft.to/lastmile_qr_scan", "ios": "https://dc.lft.to/lastmile_qr_scan"}, "type": "electric_scooter", "lat": 38.900243333333336, "is_reserved": 0, "fusion_lat": 0.0}, {"bike_id": "e4397cf9f7170fbb11d3f49600964a72", "fusion_lon": 0.0, "lon": -76.98710833333334, "name": "e4397cf9f7170fbb11d3f49600964a72", "is_disabled": 0, "rental_uris": {"android": "https://dc.lft.to/lastmile_qr_scan", "ios": "https://dc.lft.to/lastmile_qr_scan"}, "type": "electric_scooter", "lat": 38.866967833333334, "is_reserved": 0, "fusion_lat": 0.0}, {"bike_id": "b2f4101e5b31042c500c85ed3f5ddf1c", "fusion_lon": 0.0, "lon": -76.93546916666666, "name": "b2f4101e5b31042c500c85ed3f5ddf1c", "is_disabled": 0, "rental_uris": {"android": "https://dc.lft.to/lastmile_qr_scan", "ios": "https://dc.lft.to/lastmile_qr_scan"}, "type": "electric_bike", "lat": 38.95185266666667, "is_reserved": 0, "fusion_lat": 0.0}, {"bike_id": "5eafca1656f5d4ba4a2876d24c545991", "fusion_lon": 0.0, "lon": -77.0203275, "name": "5eafca1656f5d4ba4a2876d24c545991", "is_disabled": 0, "rental_uris": {"android": "https://dc.lft.to/lastmile_qr_scan", "ios": "https://dc.lft.to/lastmile_qr_scan"}, "type": "electric_scooter", "lat": 38.924127666666664, "is_reserved": 0, "fusion_lat": 0.0}, {"bike_id": "ca48bf732a57b053b17a914a419a6a73", "fusion_lon": 0.0, "lon": -77.02241566666666, "name": "ca48bf732a57b053b17a914a419a6a73", "is_disabled": 0, "rental_uris": {"android": "https://dc.lft.to/lastmile_qr_scan", "ios": "https://dc.lft.to/lastmile_qr_scan"}, "type": "electric_scooter", "lat": 38.961382, "is_reserved": 0, "fusion_lat": 0.0}, {"bike_id": "db79d510a697303f4f9d9b2ee2e9a584", "fusion_lon": 0.0, "lon": -77.05027966666667, "name": "db79d510a697303f4f9d9b2ee2e9a584", "is_disabled": 0, "rental_uris": {"android": "https://dc.lft.to/lastmile_qr_scan", "ios": "https://dc.lft.to/lastmile_qr_scan"}, "type": "electric_scooter", "lat": 38.8966285, "is_reserved": 0, "fusion_lat": 0.0}, {"bike_id": "2e3c86390a159eaaf7f0993df016c3de", "fusion_lon": 0.0, "lon": -76.926907, "name": "2e3c86390a159eaaf7f0993df016c3de", "is_disabled": 0, "rental_uris": {"android": "https://dc.lft.to/lastmile_qr_scan", "ios": "https://dc.lft.to/lastmile_qr_scan"}, "type": "electric_scooter", "lat": 38.893677833333335, "is_reserved": 0, "fusion_lat": 0.0}, {"bike_id": "af23e2acab67df79d44727aa333e96c7", "fusion_lon": 0.0, "lon": -76.9978055, "name": "af23e2acab67df79d44727aa333e96c7", "is_disabled": 0, "rental_uris": {"android": "https://dc.lft.to/lastmile_qr_scan", "ios": "https://dc.lft.to/lastmile_qr_scan"}, "type": "electric_scooter", "lat": 38.84428533333333, "is_reserved": 0, "fusion_lat": 0.0}, {"bike_id": "25d7301dfa71a9ef878b726abfdaedd3", "fusion_lon": 0.0, "lon": -77.027056, "name": "25d7301dfa71a9ef878b726abfdaedd3", "is_disabled": 0, "rental_uris": {"android": "https://dc.lft.to/lastmile_qr_scan", "ios": "https://dc.lft.to/lastmile_qr_scan"}, "type": "electric_scooter", "lat": 38.928831333333335, "is_reserved": 0, "fusion_lat": 0.0}, {"bike_id": "9fc742244494a3f3c10d3ec5a8325951", "fusion_lon": 0.0, "lon": -76.946402, "name": "9fc742244494a3f3c10d3ec5a8325951", "is_disabled": 0, "rental_uris": {"android": "https://dc.lft.to/lastmile_qr_scan", "ios": "https://dc.lft.to/lastmile_qr_scan"},