{"data": {"bikes": [{"name": "6e2cdf9e58361c35801f7db1ccbe683b", "lon": -77.00183583333333, "lat": 38.900079833333336, "type": "electric_scooter", "fusion_lon": 0.0, "is_reserved": 0, "bike_id": "6e2cdf9e58361c35801f7db1ccbe683b", "fusion_lat": 0.0, "is_disabled": 0, "rental_uris": {"ios": "https://dc.lft.to/lastmile_qr_scan", "android": "https://dc.lft.to/lastmile_qr_scan"}}, {"name": "32343b15bb9d91b293a4a26f0caabb0f", "lon": -77.059148, "lat": 38.901003333333335, "type": "electric_scooter", "fusion_lon": 0.0, "is_reserved": 0, "bike_id": "32343b15bb9d91b293a4a26f0caabb0f", "fusion_lat": 0.0, "is_disabled": 0, "rental_uris": {"ios": "https://dc.lft.to/lastmile_qr_scan", "android": "https://dc.lft.to/lastmile_qr_scan"}}, {"name": "6042ff5403cc059cda345d085918425e", "lon": -77.04724, "lat": 38.89739816666667, "type": "electric_scooter", "fusion_lon": 0.0, "is_reserved": 0, "bike_id": "6042ff5403cc059cda345d085918425e", "fusion_lat": 0.0, "is_disabled": 0, "rental_uris": {"ios": "https://dc.lft.to/lastmile_qr_scan", "android": "https://dc.lft.to/lastmile_qr_scan"}}, {"name": "768f9a3e03b03447b4b6934b65ef2c09", "lon": -76.966005, "lat": 38.87384266666667, "type": "electric_scooter", "fusion_lon": 0.0, "is_reserved": 0, "bike_id": "768f9a3e03b03447b4b6934b65ef2c09", "fusion_lat": 0.0, "is_disabled": 0, "rental_uris": {"ios": "https://dc.lft.to/lastmile_qr_scan", "android": "https://dc.lft.to/lastmile_qr_scan"}}, {"name": "14e509881aa2119b8877b24554bba08a", "lon": -77.01532466666667, "lat": 38.88738566666667, "type": "electric_scooter", "fusion_lon": 0.0, "is_reserved": 0, "bike_id": "14e509881aa2119b8877b24554bba08a", "fusion_lat": 0.0, "is_disabled": 0, "rental_uris": {"ios": "https://dc.lft.to/lastmile_qr_scan", "android": "https://dc.lft.to/lastmile_qr_scan"}}, {"name": "f94f2941a7dd976e3d4bb75b2263569b", "lon": -76.980886, "lat": 38.9534955, "type": "electric_bike", "fusion_lon": 0.0, "is_reserved": 0, "bike_id": "f94f2941a7dd976e3d4bb75b2263569b", "fusion_lat": 0.0, "is_disabled": 0, "rental_uris": {"ios": "https://dc.lft.to/lastmile_qr_scan", "android": "https://dc.lft.to/lastmile_qr_scan"}}, {"name": "86c10562bc8e1ec8ed5808572e24b55b", "lon": -77.04697916666667, "lat": 38.921741, "type": "electric_scooter", "fusion_lon": 0.0, "is_reserved": 0, "bike_id": "86c10562bc8e1ec8ed5808572e24b55b", "fusion_lat": 0.0, "is_disabled": 0, "rental_uris": {"ios": "https://dc.lft.to/lastmile_qr_scan", "android": "https://dc.lft.to/lastmile_qr_scan"}}, {"name": "fab6944d0968ad6e7057b4b68a62dc1c", "lon": -77.01197283333333, "lat": 38.917032166666665, "type": "electric_scooter", "fusion_lon": 0.0, "is_reserved": 0, "bike_id": "fab6944d0968ad6e7057b4b68a62dc1c", "fusion_lat": 0.0, "is_disabled": 0, "rental_uris": {"ios": "https://dc.lft.to/lastmile_qr_scan", "android": "https://dc.lft.to/lastmile_qr_scan"}}, {"name": "9e9fa85eacaa4ad437c69b128cd88b45", "lon": -77.01742866666666, "lat": 38.887373333333336, "type": "electric_scooter", "fusion_lon": 0.0, "is_reserved": 0, "bike_id": "9e9fa85eacaa4ad437c69b128cd88b45", "fusion_lat": 0.0, "is_disabled": 0, "rental_uris": {"ios": "https://dc.lft.to/lastmile_qr_scan", "android": "https://dc.lft.to/lastmile_qr_scan"}}, {"name": "988f7b5d2a08e051a915136e823feead", "lon": -77.05142133333334, "lat": 38.90433483333333, "type": "electric_scooter", "fusion_lon": 0.0, "is_reserved": 0, "bike_id": "988f7b5d2a08e051a915136e823feead", "fusion_lat": 0.0, "is_disabled": 0, "rental_uris": {"ios": "https://dc.lft.to/lastmile_qr_scan", "android": "https://dc.lft.to/lastmile_qr_scan"}}, {"name": "f49f4b222b479127950d7cab06ab9662", "lon": -77.02681416666667, "lat": 38.927757166666666, "type": "electric_scooter", "fusion_lon": 0.0, "is_reserved": 0, "bike_id": "f49f4b222b479127950d7cab06ab9662", "fusion_lat": 0.0, "is_disabled": 0, "rental_uris": {"ios": "https://dc.lft.to/lastmile_qr_scan", "android": "https://dc.lft.to/lastmile_qr_scan"}}, {"name": "6ab1c7b4edf70f2884f5b96f3d19df64", "lon": -76.96873083333334, "lat": 38.87090533333333, "type": "electric_scooter", "fusion_lon": 0.0, "is_reserved": 0, "bike_id": "6ab1c7b4edf70f2884f5b96f3d19df64", "fusion_lat": 0.0, "is_disabled": 0, "rental_uris": {"ios": "https://dc.lft.to/lastmile_qr_scan", "android": "https://dc.lft.to/lastmile_qr_scan"}}, {"name": "0817d5deba870010ff28186cebfaab73", "lon": -76.96008366666666, "lat": 38.89643933333333, "type": "electric_scooter", "fusion_lon": 0.0, "is_reserved": 0, "bike_id": "0817d5deba870010ff28186cebfaab73", "fusion_lat": 0.0, "is_disabled": 0, "rental_uris": {"ios": "https://dc.lft.to/lastmile_qr_scan", "android": "https://dc.lft.to/lastmile_qr_scan"}}, {"name": "4e32477abef9dff7bd41c5a968dd55da", "lon": -76.98966166666666, "lat": 38.865334833333335, "type": "electric_scooter", "fusion_lon": 0.0, "is_reserved": 0, "bike_id": "4e32477abef9dff7bd41c5a968dd55da", "fusion_lat": 0.0, "is_disabled": 0, "rental_uris": {"ios": "https://dc.lft.to/lastmile_qr_scan", "android": "https://dc.lft.to/lastmile_qr_scan"}}, {"name": "719ba44b834693f1a6e3c92ef0a00fe5", "lon": -77.034384, "lat": 38.91007233333333, "type": "electric_scooter", "fusion_lon": 0.0, "is_reserved": 0, "bike_id": "719ba44b834693f1a6e3c92ef0a00fe5", "fusion_lat": 0.0, "is_disabled": 0, "rental_uris": {"ios": "https://dc.lft.to/lastmile_qr_scan", "android": "https://dc.lft.to/lastmile_qr_scan"}}, {"name": "c6d5d1123cbbab3b42e1296c2c9ec227", "lon": -77.03844216666667, "lat": 38.9216275, "type": "electric_scooter", "fusion_lon": 0.0, "is_reserved": 0, "bike_id": "c6d5d1123cbbab3b42e1296c2c9ec227", "fusion_lat": 0.0, "is_disabled": 0, "rental_uris": {"ios": "https://dc.lft.to/lastmile_qr_scan", "android": "https://dc.lft.to/lastmile_qr_scan"}}, {"name": "588503436af255ad2ba8dfbab6649499", "lon": -77.03112433333334, "lat": 38.9169435, "type": "electric_scooter", "fusion_lon": 0.0, "is_reserved": 0, "bike_id": "588503436af255ad2ba8dfbab6649499", "fusion_lat": 0.0, "is_disabled": 0, "rental_uris": {"ios": "https://dc.lft.to/lastmile_qr_scan", "android": "https://dc.lft.to/lastmile_qr_scan"}}, {"name": "9f0eb5bf26f0058a67e02f4d1d1e14a7", "lon": -77.01139566666667, "lat": 38.90638533333333, "type": "electric_scooter", "fusion_lon": 0.0, "is_reserved": 0, "bike_id": "9f0eb5bf26f0058a67e02f4d1d1e14a7", "fusion_lat": 0.0, "is_disabled": 0, "rental_uris": {"ios": "https://dc.lft.to/lastmile_qr_scan", "android": "https://dc.lft.to/lastmile_qr_scan"}}, {"name": "d89ba12e14480da378e07db50761de4c", "lon": -76.9364365, "lat": 38.8714675, "type": "electric_bike", "fusion_lon": 0.0, "is_reserved": 0, "bike_id": "d89ba12e14480da378e07db50761de4c", "fusion_lat": 0.0, "is_disabled": 0, "rental_uris": {"ios": "https://dc.lft.to/lastmile_qr_scan", "android": "https://dc.lft.to/lastmile_qr_scan"}}, {"name": "c1082ff1fd95c849988a592bb5e4b544", "lon": -77.02433166666667, "lat": 38.90967583333333, "type": "electric_scooter", "fusion_lon": 0.0, "is_reserved": 0, "bike_id": "c1082ff1fd95c849988a592bb5e4b544", "fusion_lat": 0.0, "is_disabled": 0, "rental_uris": {"ios": "https://dc.lft.to/lastmile_qr_scan", "android": "https://dc.lft.to/lastmile_qr_scan"}}, {"name": "b05d997684d680f548d850fb2f92d46d", "lon": -76.99014433333333, "lat": 38.90502983333333, "type": "electric_scooter", "fusion_lon": 0.0, "is_reserved": 0, "bike_id": "b05d997684d680f548d850fb2f92d46d", "fusion_lat": 0.0, "is_disabled": 0, "rental_uris": {"ios": "https://dc.lft.to/lastmile_qr_scan", "android": "https://dc.lft.to/lastmile_qr_scan"}}, {"name": "5c3c3d971be1c67eee377494bcf8b840", "lon": -77.03758333333333, "lat": 38.9169105, "type": "electric_scooter", "fusion_lon": 0.0, "is_reserved": 0, "bike_id": "5c3c3d971be1c67eee377494bcf8b840", "fusion_lat": 0.0, "is_disabled": 0, "rental_uris": {"ios": "https://dc.lft.to/lastmile_qr_scan", "android": "https://dc.lft.to/lastmile_qr_scan"}}, {"name": "a87148d5f1e47ccb836faac423275fad", "lon": -77.04469916666666, "lat": 38.91894583333333, "type": "electric_scooter", "fusion_lon": 0.0, "is_reserved": 0, "bike_id": "a87148d5f1e47ccb836faac423275fad", "fusion_lat": 0.0, "is_disabled": 0, "rental_uris": {"ios": "https://dc.lft.to/lastmile_qr_scan", "android": "https://dc.lft.to/lastmile_qr_scan"}}, {"name": "a08f9e260c4364404d6f60e969eba600", "lon": -77.00545366666667, "lat": 38.87546783333333, "type": "electric_scooter", "fusion_lon": 0.0, "is_reserved": 0, "bike_id": "a08f9e260c4364404d6f60e969eba600", "fusion_lat": 0.0, "is_disabled": 0, "rental_uris": {"ios": "https://dc.lft.to/lastmile_qr_scan", "android": "https://dc.lft.to/lastmile_qr_scan"}}, {"name": "ea4f4d133095da1f6fb8f42be045a040", "lon": -76.988349, "lat": 38.8925415, "type": "electric_scooter", "fusion_lon": 0.0, "is_reserved": 0, "bike_id": "ea4f4d133095da1f6fb8f42be045a040", "fusion_lat": 0.0, "is_disabled": 0, "rental_uris": {"ios": "https://dc.lft.to/lastmile_qr_scan", "android": "https://dc.lft.to/lastmile_qr_scan"}}, {"name": "3cc92a8288fffa799db826431643e64d", "lon": -77.0485155, "lat": 38.919624666666664, "type": "electric_scooter", "fusion_lon": 0.0, "is_reserved": 0, "bike_id": "3cc92a8288fffa799db826431643e64d", "fusion_lat": 0.0, "is_disabled": 0, "rental_uris": {"ios": "https://dc.lft.to/lastmile_qr_scan", "android": "https://dc.lft.to/lastmile_qr_scan"}}, {"name": "32cc0b718d538e0705196702dcd820a8", "lon": -77.02295683333334, "lat": 38.92804483333333, "type": "electric_scooter", "fusion_lon": 0.0, "is_reserved": 0, "bike_id": "32cc0b718d538e0705196702dcd820a8", "fusion_lat": 0.0, "is_disabled": 0, "rental_uris": {"ios": "https://dc.lft.to/lastmile_qr_scan", "android": "https://dc.lft.to/lastmile_qr_scan"}}, {"name": "4629ce7ab1ec1a1408553617aa62685b", "lon": -77.00436466666666, "lat": 38.8767135, "type": "electric_scooter", "fusion_lon": 0.0, "is_reserved": 0, "bike_id": "4629ce7ab1ec1a1408553617aa62685b", "fusion_lat": 0.0, "is_disabled": 0, "rental_uris": {"ios": "https://dc.lft.to/lastmile_qr_scan", "android": "https://dc.lft.to/lastmile_qr_scan"}}, {"name": "5e740eb0c039671c2c10d1d99dbf7b09", "lon": -77.0358475, "lat": 38.919191, "type": "electric_bike", "fusion_lon": 0.0, "is_reserved": 0, "bike_id": "5e740eb0c039671c2c10d1d99dbf7b09", "fusion_lat": 0.0, "is_disabled": 0, "rental_uris": {"ios": "https://dc.lft.to/lastmile_qr_scan", "android": "https://dc.lft.to/lastmile_qr_scan"}}, {"name": "e8c9a79c809c8a0b6faf91a6bc1e0ce2", "lon": -77.0269425, "lat": 38.90425416666667, "type": "electric_scooter", "fusion_lon": 0.0, "is_reserved": 0, "bike_id": "e8c9a79c809c8a0b6faf91a6bc1e0ce2", "fusion_lat": 0.0, "is_disabled": 0, "rental_uris": {"ios": "https://dc.lft.to/lastmile_qr_scan", "android": "https://dc.lft.to/lastmile_qr_scan"}}, {"name": "29aeaabfeee7e480cc156b3320dc2282", "lon": -77.03838383333333, "lat": 38.911864333333334, "type": "electric_scooter", "fusion_lon": 0.0, "is_reserved": 0, "bike_id": "29aeaabfeee7e480cc156b3320dc2282", "fusion_lat": 0.0, "is_disabled": 0, "rental_uris": {"ios": "https://dc.lft.to/lastmile_qr_scan", "android": "https://dc.lft.to/lastmile_qr_scan"}}, {"name": "6df69eec3bf7f6c6aaa44cf76a281d7f", "lon": -77.0480685, "lat": 38.9103795, "type": "electric_scooter", "fusion_lon": 0.0, "is_reserved": 0, "bike_id": "6df69eec3bf7f6c6aaa44cf76a281d7f", "fusion_lat": 0.0, "is_disabled": 0, "rental_uris": {"ios": "https://dc.lft.to/lastmile_qr_scan", "android": "https://dc.lft.to/lastmile_qr_scan"}}, {"name": "1cdb4909d913103442c4cf835f0d0b1e", "lon": -76.99813216666666, "lat": 38.885594, "type": "electric_scooter", "fusion_lon": 0.0, "is_reserved": 0, "bike_id": "1cdb4909d913103442c4cf835f0d0b1e", "fusion_lat": 0.0, "is_disabled": 0, "rental_uris": {"ios": "https://dc.lft.to/lastmile_qr_scan", "android": "https://dc.lft.to/lastmile_qr_scan"}}, {"name": "f71194108e88967284746f0a294b8832", "lon": -77.02185, "lat": 38.9057755, "type": "electric_scooter", "fusion_lon": 0.0, "is_reserved": 0, "bike_id": "f71194108e88967284746f0a294b8832", "fusion_lat": 0.0, "is_disabled": 0, "rental_uris": {"ios": "https://dc.lft.to/lastmile_qr_scan", "android": "https://dc.lft.to/lastmile_qr_scan"}}, {"name": "1c45eb825006e56d19393bdaaf38085c", "lon": -77.0512055, "lat": 38.92343733333333, "type": "electric_scooter", "fusion_lon": 0.0, "is_reserved": 0, "bike_id": "1c45eb825006e56d19393bdaaf38085c", "fusion_lat": 0.0, "is_disabled": 0, "rental_uris": {"ios": "https://dc.lft.to/lastmile_qr_scan", "android": "https://dc.lft.to/lastmile_qr_scan"}}, {"name": "09b7a414fbc2655a33af50fdcd09bd60", "lon": -77.021616, "lat": 38.926086, "type": "electric_scooter", "fusion_lon": 0.0, "is_reserved": 0, "bike_id": "09b7a414fbc2655a33af50fdcd09bd60", "fusion_lat": 0.0, "is_disabled": 0, "rental_uris": {"ios": "https://dc.lft.to/lastmile_qr_scan", "android": "https://dc.lft.to/lastmile_qr_scan"}}, {"name": "258d3c0177d791e8107d2856ebddbf3e", "lon": -77.02693166666667, "lat": 38.90689416666667, "type": "electric_scooter", "fusion_lon": 0.0, "is_reserved": 0, "bike_id": "258d3c0177d791e8107d2856ebddbf3e", "fusion_lat": 0.0, "is_disabled": 0, "rental_uris": {"ios": "https://dc.lft.to/lastmile_qr_scan", "android": "https://dc.lft.to/lastmile_qr_scan"}}, {"name": "25e8d4c970f3fa93cdf7dbd172184bba", "lon": -77.02200383333333, "lat": 38.913935333333335, "type": "electric_scooter", "fusion_lon": 0.0, "is_reserved": 0, "bike_id": "25e8d4c970f3fa93cdf7dbd172184bba", "fusion_lat": 0.0, "is_disabled": 0, "rental_uris": {"ios": "https://dc.lft.to/lastmile_qr_scan", "android": "https://dc.lft.to/lastmile_qr_scan"}}, {"name": "8bcf558e2db119d83ad983422e7da8c1", "lon": -76.9970735, "lat": 38.84421566666666, "type": "electric_scooter", "fusion_lon": 0.0, "is_reserved": 0, "bike_id": "8bcf558e2db119d83ad983422e7da8c1", "fusion_lat": 0.0, "is_disabled": 0, "rental_uris": {"ios": "https://dc.lft.to/lastmile_qr_scan", "android": "https://dc.lft.to/lastmile_qr_scan"}}, {"name": "1d47e55c8bd7f4ccc0457874132ad16e", "lon": -77.02382683333333, "lat": 38.916438, "type": "electric_scooter", "fusion_lon": 0.0, "is_reserved": 0, "bike_id": "1d47e55c8bd7f4ccc0457874132ad16e", "fusion_lat": 0.0, "is_disabled": 0, "rental_uris": {"ios": "https://dc.lft.to/lastmile_qr_scan", "android": "https://dc.lft.to/lastmile_qr_scan"}}, {"name": "aaa3debb089116499c869c9b778d21ff", "lon": -77.03184716666667, "lat": 38.9076125, "type": "electric_scooter", "fusion_lon": 0.0, "is_reserved": 0, "bike_id": "aaa3debb089116499c869c9b778d21ff", "fusion_lat": 0.0, "is_disabled": 0, "rental_uris": {"ios": "https://dc.lft.to/lastmile_qr_scan", "android": "https://dc.lft.to/lastmile_qr_scan"}}, {"name": "5f9deff9342967e910f1a14957428317", "lon": -77.03659183333333, "lat": 38.91242833333333, "type": "electric_scooter", "fusion_lon": 0.0, "is_reserved": 0, "bike_id": "5f9deff9342967e910f1a14957428317", "fusion_lat": 0.0, "is_disabled": 0, "rental_uris": {"ios": "https://dc.lft.to/lastmile_qr_scan", "android": "https://dc.lft.to/lastmile_qr_scan"}}, {"name": "f8749645d9c2a5a552385818724a6516", "lon": -77.041507, "lat": 38.918223833333336, "type": "electric_scooter", "fusion_lon": 0.0, "is_reserved": 0, "bike_id": "f8749645d9c2a5a552385818724a6516", "fusion_lat": 0.0, "is_disabled": 0, "rental_uris": {"ios": "https://dc.lft.to/lastmile_qr_scan", "android": "https://dc.lft.to/lastmile_qr_scan"}}, {"name": "89a5db5edcceabe8e065b005170e3adf", "lon": -77.04575583333333, "lat": 38.9058445, "type": "electric_scooter", "fusion_lon": 0.0, "is_reserved": 0, "bike_id": "89a5db5edcceabe8e065b005170e3adf", "fusion_lat": 0.0, "is_disabled": 0, "rental_uris": {"ios": "https://dc.lft.to/lastmile_qr_scan", "android": "https://dc.lft.to/lastmile_qr_scan"}}, {"name": "f46d8e86904fd12a1f39ee5c00725221", "lon": -76.998539, "lat": 38.880971833333334, "type": "electric_scooter", "fusion_lon": 0.0, "is_reserved": 0, "bike_id": "f46d8e86904fd12a1f39ee5c00725221", "fusion_lat": 0.0, "is_disabled": 0, "rental_uris": {"ios": "https://dc.lft.to/lastmile_qr_scan", "android": "https://dc.lft.to/lastmile_qr_scan"}}, {"name": "1339b606669d0fff31d41cc6f79be781", "lon": -77.04129166666667, "lat": 38.9140165, "type": "electric_scooter", "fusion_lon": 0.0, "is_reserved": 0, "bike_id": "1339b606669d0fff31d41cc6f79be781", "fusion_lat": 0.0, "is_disabled": 0, "rental_uris": {"ios": "https://dc.lft.to/lastmile_qr_scan", "android": "https://dc.lft.to/lastmile_qr_scan"}}, {"name": "e98a1967a94be1d6f6ab9cff5f90f7a1", "lon": -77.03154316666667, "lat": 38.99946033333333, "type": "electric_bike", "fusion_lon": 0.0, "is_reserved": 0, "bike_id": "e98a1967a94be1d6f6ab9cff5f90f7a1", "fusion_lat": 0.0, "is_disabled": 0, "rental_uris": {"ios": "https://dc.lft.to/lastmile_qr_scan", "android": "https://dc.lft.to/lastmile_qr_scan"}}, {"name": "105124fa396f500372155c3152492bcb", "lon": -77.032868, "lat": 38.92052983333333, "type": "electric_scooter", "fusion_lon": 0.0, "is_reserved": 0, "bike_id": "105124fa396f500372155c3152492bcb", "fusion_lat": 0.0, "is_disabled": 0, "rental_uris": {"ios": "https://dc.lft.to/lastmile_qr_scan", "android": "https://dc.lft.to/lastmile_qr_scan"}}, {"name": "1ad6eedc840cfad8557af0f189974a63", "lon": -77.028795, "lat": 38.92819216666667, "type": "electric_scooter", "fusion_lon": 0.0, "is_reserved": 0, "bike_id": "1ad6eedc840cfad8557af0f189974a63", "fusion_lat": 0.0, "is_disabled": 0, "rental_uris": {"ios": "https://dc.lft.to/lastmile_qr_scan", "android": "https://dc.lft.to/lastmile_qr_scan"}}, {"name": "85a6b253e6f83adc84939c2c573c4832", "lon": -77.04130066666667, "lat": 38.933918, "type": "electric_scooter", "fusion_lon": 0.0, "is_reserved": 0, "bike_id": "85a6b253e6f83adc84939c2c573c4832", "fusion_lat": 0.0, "is_disabled": 0, "rental_uris": {"ios": "https://dc.lft.to/lastmile_qr_scan", "android": "https://dc.lft.to/lastmile_qr_scan"}}, {"name": "0d54a0a60acbce7ecdc85f77b05994f3", "lon": -77.03217833333333, "lat": 38.91895816666667, "type": "electric_scooter", "fusion_lon": 0.0, "is_reserved": 0, "bike_id": "0d54a0a60acbce7ecdc85f77b05994f3", "fusion_lat": 0.0, "is_disabled": 0, "rental_uris": {"ios": "https://dc.lft.to/lastmile_qr_scan", "android": "https://dc.lft.to/lastmile_qr_scan"}}, {"name": "864fc8bb15e28da7c01c1bd15a21f6a5", "lon": -77.02382083333333, "lat": 38.91732966666667, "type": "electric_scooter", "fusion_lon": 0.0, "is_reserved": 0, "bike_id": "864fc8bb15e28da7c01c1bd15a21f6a5", "fusion_lat": 0.0, "is_disabled": 0, "rental_uris": {"ios": "https://dc.lft.to/lastmile_qr_scan", "android": "https://dc.lft.to/lastmile_qr_scan"}}, {"name": "43b1cff3e1a9002b209c4ebfc3325bae", "lon": -77.04550016666667, "lat": 38.934051333333336, "type": "electric_scooter", "fusion_lon": 0.0, "is_reserved": 0, "bike_id": "43b1cff3e1a9002b209c4ebfc3325bae", "fusion_lat": 0.0, "is_disabled": 0, "rental_uris": {"ios": "https://dc.lft.to/lastmile_qr_scan", "android": "https://dc.lft.to/lastmile_qr_scan"}}, {"name": "72aced63e7d2c349575c1808001de2c1", "lon": -77.00112333333334, "lat": 38.90768683333334, "type": "electric_scooter", "fusion_lon": 0.0, "is_reserved": 0, "bike_id": "72aced63e7d2c349575c1808001de2c1", "fusion_lat": 0.0, "is_disabled": 0, "rental_uris": {"ios": "https://dc.lft.to/lastmile_qr_scan", "android": "https://dc.lft.to/lastmile_qr_scan"}}, {"name": "d5b4d0499d679d9bee582fc53d0721f0", "lon": -77.04168333333334, "lat": 38.91978783333333, "type": "electric_scooter", "fusion_lon": 0.0, "is_reserved": 0, "bike_id": "d5b4d0499d679d9bee582fc53d0721f0", "fusion_lat": 0.0, "is_disabled": 0, "rental_uris": {"ios": "https://dc.lft.to/lastmile_qr_scan", "android": "https://dc.lft.to/lastmile_qr_scan"}}, {"name": "e33d095f73103c7478efc50ba43bfec2", "lon": -77.04745033333333, "lat": 38.91658533333333, "type": "electric_scooter", "fusion_lon": 0.0, "is_reserved": 0, "bike_id": "e33d095f73103c7478efc50ba43bfec2", "fusion_lat": 0.0, "is_disabled": 0, "rental_uris": {"ios": "https://dc.lft.to/lastmile_qr_scan", "android": "https://dc.lft.to/lastmile_qr_scan"}}, {"name": "62193a5e7cf5811ec6f742b2c8b9922c", "lon": -77.00579916666666, "lat": 38.8755025, "type": "electric_scooter", "fusion_lon": 0.0, "is_reserved": 0, "bike_id": "62193a5e7cf5811ec6f742b2c8b9922c", "fusion_lat": 0.0, "is_disabled": 0, "rental_uris": {"ios": "https://dc.lft.to/lastmile_qr_scan", "android": "https://dc.lft.to/lastmile_qr_scan"}}, {"name": "050e59ae5e2dc8bac26632d64357f064", "lon": -76.990332, "lat": 38.89849266666667, "type": "electric_scooter", "fusion_lon": 0.0, "is_reserved": 0, "bike_id": "050e59ae5e2dc8bac26632d64357f064", "fusion_lat": 0.0, "is_disabled": 0, "rental_uris": {"ios": "https://dc.lft.to/lastmile_qr_scan", "android": "https://dc.lft.to/lastmile_qr_scan"}}, {"name": "2be8e43921973545b0d9275da6beaf16", "lon": -77.0181705, "lat": 38.923658, "type": "electric_scooter", "fusion_lon": 0.0, "is_reserved": 0, "bike_id": "2be8e43921973545b0d9275da6beaf16", "fusion_lat": 0.0, "is_disabled": 0, "rental_uris": {"ios": "https://dc.lft.to/lastmile_qr_scan", "android": "https://dc.lft.to/lastmile_qr_scan"}}, {"name": "79f95bfc3152e6669f4cb668a2d74f4f", "lon": -77.03861533333334, "lat": 38.9125365, "type": "electric_scooter", "fusion_lon": 0.0, "is_reserved": 0, "bike_id": "79f95bfc3152e6669f4cb668a2d74f4f", "fusion_lat": 0.0, "is_disabled": 0, "rental_uris": {"ios": "https://dc.lft.to/lastmile_qr_scan", "android": "https://dc.lft.to/lastmile_qr_scan"}}, {"name": "711e3d27e9f0eec61404fbcdd443fe9f", "lon": -77.04139183333334, "lat": 38.92289783333333, "type": "electric_scooter", "fusion_lon": 0.0, "is_reserved": 0, "bike_id": "711e3d27e9f0eec61404fbcdd443fe9f", "fusion_lat": 0.0, "is_disabled": 0, "rental_uris": {"ios": "https://dc.lft.to/lastmile_qr_scan", "android": "https://dc.lft.to/lastmile_qr_scan"}}, {"name": "c9540feed77b1d6f42a512f55e8d7037", "lon": -77.00719683333334, "lat": 38.898395, "type": "electric_scooter", "fusion_lon": 0.0, "is_reserved": 0, "bike_id": "c9540feed77b1d6f42a512f55e8d7037", "fusion_lat": 0.0, "is_disabled": 0, "rental_uris": {"ios": "https://dc.lft.to/lastmile_qr_scan", "android": "https://dc.lft.to/lastmile_qr_scan"}}, {"name": "35778b380cfe968232f0028e8d60322f", "lon": -77.03470933333334, "lat": 38.900616666666664, "type": "electric_scooter", "fusion_lon": 0.0, "is_reserved": 0, "bike_id": "35778b380cfe968232f0028e8d60322f", "fusion_lat": 0.0, "is_disabled": 0, "rental_uris": {"ios": "https://dc.lft.to/lastmile_qr_scan", "android": "https://dc.lft.to/lastmile_qr_scan"}}, {"name": "12bced68119a9a9d02e3a6e17e30a3af", "lon": -77.03512416666666, "lat": 38.96202866666667, "type": "electric_bike", "fusion_lon": 0.0, "is_reserved": 0, "bike_id": "12bced68119a9a9d02e3a6e17e30a3af", "fusion_lat": 0.0, "is_disabled": 0, "rental_uris": {"ios": "https://dc.lft.to/lastmile_qr_scan", "android": "https://dc.lft.to/lastmile_qr_scan"}}, {"name": "8884b0851eb23ec44b2e28b2f1ef0ea1", "lon": -77.0361385, "lat": 38.92849666666667, "type": "electric_scooter", "fusion_lon": 0.0, "is_reserved": 0, "bike_id": "8884b0851eb23ec44b2e28b2f1ef0ea1", "fusion_lat": 0.0, "is_disabled": 0, "rental_uris": {"ios": "https://dc.lft.to/lastmile_qr_scan", "android": "https://dc.lft.to/lastmile_qr_scan"}}, {"name": "7efb05ec4babaf964929e34157e95594", "lon": -77.00754866666666, "lat": 38.91022133333333, "type": "electric_scooter", "fusion_lon": 0.0, "is_reserved": 0, "bike_id": "7efb05ec4babaf964929e34157e95594", "fusion_lat": 0.0, "is_disabled": 0, "rental_uris": {"ios": "https://dc.lft.to/lastmile_qr_scan", "android": "https://dc.lft.to/lastmile_qr_scan"}}, {"name": "1e011b29520535c9676e1c6df4818e54", "lon": -77.05860783333334, "lat": 38.93605, "type": "electric_scooter", "fusion_lon": 0.0, "is_reserved": 0, "bike_id": "1e011b29520535c9676e1c6df4818e54", "fusion_lat": 0.0, "is_disabled": 0, "rental_uris": {"ios": "https://dc.lft.to/lastmile_qr_scan", "android": "https://dc.lft.to/lastmile_qr_scan"}}, {"name": "b632d55a1bf99b6a335258fb9408253a", "lon": -77.04560983333333, "lat": 38.913339666666666, "type": "electric_scooter", "fusion_lon": 0.0, "is_reserved": 0, "bike_id": "b632d55a1bf99b6a335258fb9408253a", "fusion_lat": 0.0, "is_disabled": 0, "rental_uris": {"ios": "https://dc.lft.to/lastmile_qr_scan", "android": "https://dc.lft.to/lastmile_qr_scan"}}, {"name": "836687a5f8014b257fe1a6433fc494ec", "lon": -77.04339416666667, "lat": 38.91348416666666, "type": "electric_scooter", "fusion_lon": 0.0, "is_reserved": 0, "bike_id": "836687a5f8014b257fe1a6433fc494ec", "fusion_lat": 0.0, "is_disabled": 0, "rental_uris": {"ios": "https://dc.lft.to/lastmile_qr_scan", "android": "https://dc.lft.to/lastmile_qr_scan"}}, {"name": "35ce08def5e426de3e5d4feec8453948", "lon": -77.0409235, "lat": 38.903985166666665, "type": "electric_bike", "fusion_lon": 0.0, "is_reserved": 0, "bike_id": "35ce08def5e426de3e5d4feec8453948", "fusion_lat": 0.0, "is_disabled": 0, "rental_uris": {"ios": "https://dc.lft.to/lastmile_qr_scan", "android": "https://dc.lft.to/lastmile_qr_scan"}}, {"name": "2f76a6fd637567bbd7b31eed502bd722", "lon": -77.01800783333333, "lat": 38.91413883333333, "type": "electric_scooter", "fusion_lon": 0.0, "is_reserved": 0, "bike_id": "2f76a6fd637567bbd7b31eed502bd722", "fusion_lat": 0.0, "is_disabled": 0, "rental_uris": {"ios": "https://dc.lft.to/lastmile_qr_scan", "android": "https://dc.lft.to/lastmile_qr_scan"}}, {"name": "6b5a48239c2180805e6bb16080b85687", "lon": -76.98512183333334, "lat": 38.86664533333333, "type": "electric_scooter", "fusion_lon": 0.0, "is_reserved": 0, "bike_id": "6b5a48239c2180805e6bb16080b85687", "fusion_lat": 0.0, "is_disabled": 0, "rental_uris": {"ios": "https://dc.lft.to/lastmile_qr_scan", "android": "https://dc.lft.to/lastmile_qr_scan"}}, {"name": "e34440778c37ec2e47a94864008a7836", "lon": -77.0467655, "lat": 38.89556366666667, "type": "electric_scooter", "fusion_lon": 0.0, "is_reserved": 0, "bike_id": "e34440778c37ec2e47a94864008a7836", "fusion_lat": 0.0, "is_disabled": 0, "rental_uris": {"ios": "https://dc.lft.to/lastmile_qr_scan", "android": "https://dc.lft.to/lastmile_qr_scan"}}, {"name": "e97b8d6734a1ede5188e9f3c45cdc85e", "lon": -77.0382125, "lat": 38.9253485, "type": "electric_scooter", "fusion_lon": 0.0, "is_reserved": 0, "bike_id": "e97b8d6734a1ede5188e9f3c45cdc85e", "fusion_lat": 0.0, "is_disabled": 0, "rental_uris": {"ios": "https://dc.lft.to/lastmile_qr_scan", "android": "https://dc.lft.to/lastmile_qr_scan"}}, {"name": "353262d1887a6f1dd06701c601bf48be", "lon": -77.05036483333333, "lat": 38.923563333333334, "type": "electric_scooter", "fusion_lon": 0.0, "is_reserved": 0, "bike_id": "353262d1887a6f1dd06701c601bf48be", "fusion_lat": 0.0, "is_disabled": 0, "rental_uris": {"ios": "https://dc.lft.to/lastmile_qr_scan", "android": "https://dc.lft.to/lastmile_qr_scan"}}, {"name": "dfd17b5a41f0f3452f34c3a7af476f12", "lon": -77.02331166666667, "lat": 38.9288625, "type": "electric_scooter", "fusion_lon": 0.0, "is_reserved": 0, "bike_id": "dfd17b5a41f0f3452f34c3a7af476f12", "fusion_lat": 0.0, "is_disabled": 0, "rental_uris": {"ios": "https://dc.lft.to/lastmile_qr_scan", "android": "https://dc.lft.to/lastmile_qr_scan"}}, {"name": "32247d37cb4940f83ff3e17066ad623f", "lon": -77.01766316666667, "lat": 38.89080466666667, "type": "electric_scooter", "fusion_lon": 0.0, "is_reserved": 0, "bike_id": "32247d37cb4940f83ff3e17066ad623f", "fusion_lat": 0.0, "is_disabled": 0, "rental_uris": {"ios": "https://dc.lft.to/lastmile_qr_scan", "android": "https://dc.lft.to/lastmile_qr_scan"}}, {"name": "afd4d00f7c1c065406bf70a3a0e6db62", "lon": -77.03470066666667, "lat": 38.91709383333333, "type": "electric_scooter", "fusion_lon": 0.0, "is_reserved": 0, "bike_id": "afd4d00f7c1c065406bf70a3a0e6db62", "fusion_lat": 0.0, "is_disabled": 0, "rental_uris": {"ios": "https://dc.lft.to/lastmile_qr_scan", "android": "https://dc.lft.to/lastmile_qr_scan"}}, {"name": "9d766375cb1f1820e72d055cbb5b2ade", "lon": -77.0193815, "lat": 38.94703233333333, "type": "electric_scooter", "fusion_lon": 0.0, "is_reserved": 0, "bike_id": "9d766375cb1f1820e72d055cbb5b2ade", "fusion_lat": 0.0, "is_disabled": 0, "rental_uris": {"ios": "https://dc.lft.to/lastmile_qr_scan", "android": "https://dc.lft.to/lastmile_qr_scan"}}, {"name": "fb06598df26a21ebc9039cbec564677e", "lon": -77.0435525, "lat": 38.902491833333336, "type": "electric_scooter", "fusion_lon": 0.0, "is_reserved": 0, "bike_id": "fb06598df26a21ebc9039cbec564677e", "fusion_lat": 0.0, "is_disabled": 0, "rental_uris": {"ios": "https://dc.lft.to/lastmile_qr_scan", "android": "https://dc.lft.to/lastmile_qr_scan"}}, {"name": "5ac5393b07eda57e30d214f21b209b23", "lon": -77.06863316666667, "lat": 38.8057555, "type": "electric_bike", "fusion_lon": 0.0, "is_reserved": 0, "bike_id": "5ac5393b07eda57e30d214f21b209b23", "fusion_lat": 0.0, "is_disabled": 0, "rental_uris": {"ios": "https://dc.lft.to/lastmile_qr_scan", "android": "https://dc.lft.to/lastmile_qr_scan"}}, {"name": "aa840c63764c1dfe80023e98cc320e36", "lon": -76.92735283333333, "lat": 38.889654166666666, "type": "electric_scooter", "fusion_lon": 0.0, "is_reserved": 0, "bike_id": "aa840c63764c1dfe80023e98cc320e36", "fusion_lat": 0.0, "is_disabled": 0, "rental_uris": {"ios": "https://dc.lft.to/lastmile_qr_scan", "android": "https://dc.lft.to/lastmile_qr_scan"}}, {"name": "5b9e221b4d0142440ec0c730ff7850e2", "lon": -77.00245766666667, "lat": 38.902616, "type": "electric_scooter", "fusion_lon": 0.0, "is_reserved": 0, "bike_id": "5b9e221b4d0142440ec0c730ff7850e2", "fusion_lat": 0.0, "is_disabled": 0, "rental_uris": {"ios": "https://dc.lft.to/lastmile_qr_scan", "android": "https://dc.lft.to/lastmile_qr_scan"}}, {"name": "22e55b9fd2ea7a6f05827d47043aad7e", "lon": -76.93159733333333, "lat": 38.8987345, "type": "electric_scooter", "fusion_lon": 0.0, "is_reserved": 0, "bike_id": "22e55b9fd2ea7a6f05827d47043aad7e", "fusion_lat": 0.0, "is_disabled": 0, "rental_uris": {"ios": "https://dc.lft.to/lastmile_qr_scan", "android": "https://dc.lft.to/lastmile_qr_scan"}}, {"name": "436b0fcc859166590c83d0aef3857589", "lon": -77.03718383333333, "lat": 38.910683, "type": "electric_scooter", "fusion_lon": 0.0, "is_reserved": 0, "bike_id": "436b0fcc859166590c83d0aef3857589", "fusion_lat": 0.0, "is_disabled": 0, "rental_uris": {"ios": "https://dc.lft.to/lastmile_qr_scan", "android": "https://dc.lft.to/lastmile_qr_scan"}}, {"name": "7d9094d7cf8e7786312a85d69316bc97", "lon": -76.98793216666667, "lat": 38.922055, "type": "electric_bike", "fusion_lon": 0.0, "is_reserved": 0, "bike_id": "7d9094d7cf8e7786312a85d69316bc97", "fusion_lat": 0.0, "is_disabled": 0, "rental_uris": {"ios": "https://dc.lft.to/lastmile_qr_scan", "android": "https://dc.lft.to/lastmile_qr_scan"}}, {"name": "cbf7c634a7a8827d4dcd739af0db1191", "lon": -77.05655166666666, "lat": 38.90531633333333, "type": "electric_scooter", "fusion_lon": 0.0, "is_reserved": 0, "bike_id": "cbf7c634a7a8827d4dcd739af0db1191", "fusion_lat": 0.0, "is_disabled": 0, "rental_uris": {"ios": "https://dc.lft.to/lastmile_qr_scan", "android": "https://dc.lft.to/lastmile_qr_scan"}}, {"name": "8297d2ff11efcb0e5384c8cadc879d04", "lon": -77.009175, "lat": 38.9067055, "type": "electric_scooter", "fusion_lon": 0.0, "is_reserved": 0, "bike_id": "8297d2ff11efcb0e5384c8cadc879d04", "fusion_lat": 0.0, "is_disabled": 0, "rental_uris": {"ios": "https://dc.lft.to/lastmile_qr_scan", "android": "https://dc.lft.to/lastmile_qr_scan"}}, {"name": "593ef07357138a236d5ae00029e420c5", "lon": -77.07367233333333, "lat": 38.933542833333334, "type": "electric_scooter", "fusion_lon": 0.0, "is_reserved": 0, "bike_id": "593ef07357138a236d5ae00029e420c5", "fusion_lat": 0.0, "is_disabled": 0, "rental_uris": {"ios": "https://dc.lft.to/lastmile_qr_scan", "android": "https://dc.lft.to/lastmile_qr_scan"}}, {"name": "7ac6b4d9c5743677d84a3cff13e889ec", "lon": -76.989887, "lat": 38.8649645, "type": "electric_scooter", "fusion_lon": 0.0, "is_reserved": 0, "bike_id": "7ac6b4d9c5743677d84a3cff13e889ec", "fusion_lat": 0.0, "is_disabled": 0, "rental_uris": {"ios": "https://dc.lft.to/lastmile_qr_scan", "android": "https://dc.lft.to/lastmile_qr_scan"}}, {"name": "e9559bc31d87527b663d097a85fddf2f", "lon": -77.00766133333333, "lat": 38.926757333333335, "type": "electric_scooter", "fusion_lon": 0.0, "is_reserved": 0, "bike_id": "e9559bc31d87527b663d097a85fddf2f", "fusion_lat": 0.0, "is_disabled": 0, "rental_uris": {"ios": "https://dc.lft.to/lastmile_qr_scan", "android": "https://dc.lft.to/lastmile_qr_scan"}}, {"name": "4ec404cc0659b9ff59cbf305df1b0841", "lon": -77.02162833333334, "lat": 38.897256666666664, "type": "electric_scooter", "fusion_lon": 0.0, "is_reserved": 0, "bike_id": "4ec404cc0659b9ff59cbf305df1b0841", "fusion_lat": 0.0, "is_disabled": 0, "rental_uris": {"ios": "https://dc.lft.to/lastmile_qr_scan", "android": "https://dc.lft.to/lastmile_qr_scan"}}, {"name": "3668bec4fc67481fc54917f051479ab5", "lon": -77.02287966666667, "lat": 38.916744333333334, "type": "electric_scooter", "fusion_lon": 0.0, "is_reserved": 0, "bike_id": "3668bec4fc67481fc54917f051479ab5", "fusion_lat": 0.0, "is_disabled": 0, "rental_uris": {"ios": "https://dc.lft.to/lastmile_qr_scan", "android": "https://dc.lft.to/lastmile_qr_scan"}}, {"name": "ebd0f5192794bb94144962c307baa06e", "lon": -77.0298375, "lat": 38.907148166666666, "type": "electric_scooter", "fusion_lon": 0.0, "is_reserved": 0, "bike_id": "ebd0f5192794bb94144962c307baa06e", "fusion_lat": 0.0, "is_disabled": 0, "rental_uris": {"ios": "https://dc.lft.to/lastmile_qr_scan", "android": "https://dc.lft.to/lastmile_qr_scan"}}, {"name": "cbf48ccdbe66317bf85d32e8dd42b7a4", "lon": -77.054881, "lat": 38.899619, "type": "electric_scooter", "fusion_lon": 0.0, "is_reserved": 0, "bike_id": "cbf48ccdbe66317bf85d32e8dd42b7a4", "fusion_lat": 0.0, "is_disabled": 0, "rental_uris": {"ios": "https://dc.lft.to/lastmile_qr_scan", "android": "https://dc.lft.to/lastmile_qr_scan"}}, {"name": "6432869723256d69ee865500116d135b", "lon": -77.04185483333333, "lat": 38.920171, "type": "electric_scooter", "fusion_lon": 0.0, "is_reserved": 0, "bike_id": "6432869723256d69ee865500116d135b", "fusion_lat": 0.0, "is_disabled": 0, "rental_uris": {"ios": "https://dc.lft.to/lastmile_qr_scan", "android": "https://dc.lft.to/lastmile_qr_scan"}}, {"name": "d6b42686647e4a8204d1b11b7e9d84b9", "lon": -77.02725, "lat": 38.92852516666667, "type": "electric_scooter", "fusion_lon": 0.0, "is_reserved": 0, "bike_id": "d6b42686647e4a8204d1b11b7e9d84b9", "fusion_lat": 0.0, "is_disabled": 0, "rental_uris": {"ios": "https://dc.lft.to/lastmile_qr_scan", "android": "https://dc.lft.to/lastmile_qr_scan"}}, {"name": "c38b3336c42e97f1a135236be8032e8a", "lon": -77.00090216666666, "lat": 38.9202695, "type": "electric_scooter", "fusion_lon": 0.0, "is_reserved": 0, "bike_id": "c38b3336c42e97f1a135236be8032e8a", "fusion_lat": 0.0, "is_disabled": 0, "rental_uris": {"ios": "https://dc.lft.to/lastmile_qr_scan", "android": "https://dc.lft.to/lastmile_qr_scan"}}, {"name": "016decf8dc6d83f0bc0baa75c8f9bc14", "lon": -77.0087535, "lat": 38.876571166666665, "type": "electric_scooter", "fusion_lon": 0.0, "is_reserved": 0, "bike_id": "016decf8dc6d83f0bc0baa75c8f9bc14", "fusion_lat": 0.0, "is_disabled": 0, "rental_uris": {"ios": "https://dc.lft.to/lastmile_qr_scan", "android": "https://dc.lft.to/lastmile_qr_scan"}}, {"name": "3bc4c2eeb2a11422b3b70214987144f7", "lon": -77.036013, "lat": 38.92852716666667, "type": "electric_scooter", "fusion_lon": 0.0, "is_reserved": 0, "bike_id": "3bc4c2eeb2a11422b3b70214987144f7", "fusion_lat": 0.0, "is_disabled": 0, "rental_uris": {"ios": "https://dc.lft.to/lastmile_qr_scan", "android": "https://dc.lft.to/lastmile_qr_scan"}}, {"name": "24cff939578fd0d8b1ef522ca733d393", "lon": -77.10714216666666, "lat": 38.855369333333336, "type": "electric_bike", "fusion_lon": 0.0, "is_reserved": 0, "bike_id": "24cff939578fd0d8b1ef522ca733d393", "fusion_lat": 0.0, "is_disabled": 0, "rental_uris": {"ios": "https://dc.lft.to/lastmile_qr_scan", "android": "https://dc.lft.to/lastmile_qr_scan"}}, {"name": "98c36b4fabb756dd9549c30296be77b9", "lon": -77.03538933333333, "lat": 38.9231895, "type": "electric_scooter", "fusion_lon": 0.0, "is_reserved": 0, "bike_id": "98c36b4fabb756dd9549c30296be77b9", "fusion_lat": 0.0, "is_disabled": 0, "rental_uris": {"ios": "https://dc.lft.to/lastmile_qr_scan", "android": "https://dc.lft.to/lastmile_qr_scan"}}, {"name": "c167d8abe3e575dc349fd154f3d3b925", "lon": -77.02711783333334, "lat": 38.9067365, "type": "electric_scooter", "fusion_lon": 0.0, "is_reserved": 0, "bike_id": "c167d8abe3e575dc349fd154f3d3b925", "fusion_lat": 0.0, "is_disabled": 0, "rental_uris": {"ios": "https://dc.lft.to/lastmile_qr_scan", "android": "https://dc.lft.to/lastmile_qr_scan"}}, {"name": "a931a1ba99809903a4a0d7ca0e8177ce", "lon": -77.02317616666667, "lat": 38.94091516666667, "type": "electric_scooter", "fusion_lon": 0.0, "is_reserved": 0, "bike_id": "a931a1ba99809903a4a0d7ca0e8177ce", "fusion_lat": 0.0, "is_disabled": 0, "rental_uris": {"ios": "https://dc.lft.to/lastmile_qr_scan", "android": "https://dc.lft.to/lastmile_qr_scan"}}, {"name": "d9a0d11f925085ef3a885aed7cf2ab4b", "lon": -77.02793883333334, "lat": 38.93081016666667, "type": "electric_scooter", "fusion_lon": 0.0, "is_reserved": 0, "bike_id": "d9a0d11f925085ef3a885aed7cf2ab4b", "fusion_lat": 0.0, "is_disabled": 0, "rental_uris": {"ios": "https://dc.lft.to/lastmile_qr_scan", "android": "https://dc.lft.to/lastmile_qr_scan"}}, {"name": "9e0f03a7d3c44d249b6d67780ef4a3ae", "lon": -77.07816333333334, "lat": 38.936369, "type": "electric_bike", "fusion_lon": 0.0, "is_reserved": 0, "bike_id": "9e0f03a7d3c44d249b6d67780ef4a3ae", "fusion_lat": 0.0, "is_disabled": 0, "rental_uris": {"ios": "https://dc.lft.to/lastmile_qr_scan", "android": "https://dc.lft.to/lastmile_qr_scan"}}, {"name": "f21d2ffae921c418ab84c0dfdf813334", "lon": -77.020393, "lat": 38.92183883333333, "type": "electric_scooter", "fusion_lon": 0.0, "is_reserved": 0, "bike_id": "f21d2ffae921c418ab84c0dfdf813334", "fusion_lat": 0.0, "is_disabled": 0, "rental_uris": {"ios": "https://dc.lft.to/lastmile_qr_scan", "android": "https://dc.lft.to/lastmile_qr_scan"}}, {"name": "fd1eab89c5fea1e6ff3fdd5392787188", "lon": -76.987785, "lat": 38.844697333333336, "type": "electric_bike", "fusion_lon": 0.0, "is_reserved": 0, "bike_id": "fd1eab89c5fea1e6ff3fdd5392787188", "fusion_lat": 0.0, "is_disabled": 0, "rental_uris": {"ios": "https://dc.lft.to/lastmile_qr_scan", "android": "https://dc.lft.to/lastmile_qr_scan"}}, {"name": "969ff2b29387349a54fcaf9ad2280e06", "lon": -77.025923, "lat": 38.89431783333333, "type": "electric_scooter", "fusion_lon": 0.0, "is_reserved": 0, "bike_id": "969ff2b29387349a54fcaf9ad2280e06", "fusion_lat": 0.0, "is_disabled": 0, "rental_uris": {"ios": "https://dc.lft.to/lastmile_qr_scan", "android": "https://dc.lft.to/lastmile_qr_scan"}}, {"name": "140fdb66f35a4dc767e11d31ae8b5452", "lon": -77.03839616666667, "lat": 38.90840983333333, "type": "electric_scooter", "fusion_lon": 0.0, "is_reserved": 0, "bike_id": "140fdb66f35a4dc767e11d31ae8b5452", "fusion_lat": 0.0, "is_disabled": 0, "rental_uris": {"ios": "https://dc.lft.to/lastmile_qr_scan", "android": "https://dc.lft.to/lastmile_qr_scan"}}, {"name": "4170c9f99dfc6715fdf0c33540d32d31", "lon": -76.99053733333334, "lat": 38.89806633333333, "type": "electric_bike", "fusion_lon": 0.0, "is_reserved": 0, "bike_id": "4170c9f99dfc6715fdf0c33540d32d31", "fusion_lat": 0.0, "is_disabled": 0, "rental_uris": {"ios": "https://dc.lft.to/lastmile_qr_scan", "android": "https://dc.lft.to/lastmile_qr_scan"}}, {"name": "001fe0a96a377613fae0bb9d7288f692", "lon": -77.03286366666667, "lat": 38.90713516666667, "type": "electric_scooter", "fusion_lon": 0.0, "is_reserved": 0, "bike_id": "001fe0a96a377613fae0bb9d7288f692", "fusion_lat": 0.0, "is_disabled": 0, "rental_uris": {"ios": "https://dc.lft.to/lastmile_qr_scan", "android": "https://dc.lft.to/lastmile_qr_scan"}}, {"name": "0c7cc9f8166a77831a5ff1db9762a842", "lon": -77.01169266666666, "lat": 38.915623333333336, "type": "electric_scooter", "fusion_lon": 0.0, "is_reserved": 0, "bike_id": "0c7cc9f8166a77831a5ff1db9762a842", "fusion_lat": 0.0, "is_disabled": 0, "rental_uris": {"ios": "https://dc.lft.to/lastmile_qr_scan", "android": "https://dc.lft.to/lastmile_qr_scan"}}, {"name": "ca8395d70f49d1ce1f5e380e6032334e", "lon": -77.038399, "lat": 38.91681083333334, "type": "electric_scooter", "fusion_lon": 0.0, "is_reserved": 0, "bike_id": "ca8395d70f49d1ce1f5e380e6032334e", "fusion_lat": 0.0, "is_disabled": 0, "rental_uris": {"ios": "https://dc.lft.to/lastmile_qr_scan", "android": "https://dc.lft.to/lastmile_qr_scan"}}, {"name": "5644a3ef567ef512baa413a116d1c4ef", "lon": -77.026649, "lat": 38.89739933333333, "type": "electric_scooter", "fusion_lon": 0.0, "is_reserved": 0, "bike_id": "5644a3ef567ef512baa413a116d1c4ef", "fusion_lat": 0.0, "is_disabled": 0, "rental_uris": {"ios": "https://dc.lft.to/lastmile_qr_scan", "android": "https://dc.lft.to/lastmile_qr_scan"}}, {"name": "298e3cf7126aa504ac9e7d44a18e055f", "lon": -77.02225766666666, "lat": 38.89218133333333, "type": "electric_scooter", "fusion_lon": 0.0, "is_reserved": 0, "bike_id": "298e3cf7126aa504ac9e7d44a18e055f", "fusion_lat": 0.0, "is_disabled": 0, "rental_uris": {"ios": "https://dc.lft.to/lastmile_qr_scan", "android": "https://dc.lft.to/lastmile_qr_scan"}}, {"name": "b214b3816aeba0b3e17f919eb1999953", "lon": -77.05263, "lat": 38.939361166666664, "type": "electric_scooter", "fusion_lon": 0.0, "is_reserved": 0, "bike_id": "b214b3816aeba0b3e17f919eb1999953", "fusion_lat": 0.0, "is_disabled": 0, "rental_uris": {"ios": "https://dc.lft.to/lastmile_qr_scan", "android": "https://dc.lft.to/lastmile_qr_scan"}}, {"name": "af7295538b3e6fb817c00339ee0140af", "lon": -76.98838533333333, "lat": 38.842756666666666, "type": "electric_bike", "fusion_lon": 0.0, "is_reserved": 0, "bike_id": "af7295538b3e6fb817c00339ee0140af", "fusion_lat": 0.0, "is_disabled": 0, "rental_uris": {"ios": "https://dc.lft.to/lastmile_qr_scan", "android": "https://dc.lft.to/lastmile_qr_scan"}}, {"name": "9f05353e2074cd22cb4e6c38391a4e87", "lon": -77.04398216666667, "lat": 38.92950166666667, "type": "electric_scooter", "fusion_lon": 0.0, "is_reserved": 0, "bike_id": "9f05353e2074cd22cb4e6c38391a4e87", "fusion_lat": 0.0, "is_disabled": 0, "rental_uris": {"ios": "https://dc.lft.to/lastmile_qr_scan", "android": "https://dc.lft.to/lastmile_qr_scan"}}, {"name": "bc4be530bfb377e1dbc3f35af83258a3", "lon": -76.95958216666666, "lat": 38.889975, "type": "electric_scooter", "fusion_lon": 0.0, "is_reserved": 0, "bike_id": "bc4be530bfb377e1dbc3f35af83258a3", "fusion_lat": 0.0, "is_disabled": 0, "rental_uris": {"ios": "https://dc.lft.to/lastmile_qr_scan", "android": "https://dc.lft.to/lastmile_qr_scan"}}, {"name": "21b2128527e4d3101ce40a8a614b8033", "lon": -77.0459615, "lat": 38.91690333333333, "type": "electric_scooter", "fusion_lon": 0.0, "is_reserved": 0, "bike_id": "21b2128527e4d3101ce40a8a614b8033", "fusion_lat": 0.0, "is_disabled": 0, "rental_uris": {"ios": "https://dc.lft.to/lastmile_qr_scan", "android": "https://dc.lft.to/lastmile_qr_scan"}}, {"name": "1ee0c6035ea5073b4cfc544c608eeff9", "lon": -77.03269033333333, "lat": 38.918091833333335, "type": "electric_scooter", "fusion_lon": 0.0, "is_reserved": 0, "bike_id": "1ee0c6035ea5073b4cfc544c608eeff9", "fusion_lat": 0.0, "is_disabled": 0, "rental_uris": {"ios": "https://dc.lft.to/lastmile_qr_scan", "android": "https://dc.lft.to/lastmile_qr_scan"}}, {"name": "0d744870a1d527c8f6a5a11a49cdc665", "lon": -77.0217895, "lat": 38.8947665, "type": "electric_scooter", "fusion_lon": 0.0, "is_reserved": 0, "bike_id": "0d744870a1d527c8f6a5a11a49cdc665", "fusion_lat": 0.0, "is_disabled": 0, "rental_uris": {"ios": "https://dc.lft.to/lastmile_qr_scan", "android": "https://dc.lft.to/lastmile_qr_scan"}}, {"name": "eabecfbc2a318b29969dc1dee54df60c", "lon": -77.03235183333334, "lat": 38.91548233333333, "type": "electric_scooter", "fusion_lon": 0.0, "is_reserved": 0, "bike_id": "eabecfbc2a318b29969dc1dee54df60c", "fusion_lat": 0.0, "is_disabled": 0, "rental_uris": {"ios": "https://dc.lft.to/lastmile_qr_scan", "android": "https://dc.lft.to/lastmile_qr_scan"}}, {"name": "3254f3c71d59571be95cbf8641778b24", "lon": -76.983961, "lat": 38.866962666666666, "type": "electric_scooter", "fusion_lon": 0.0, "is_reserved": 0, "bike_id": "3254f3c71d59571be95cbf8641778b24", "fusion_lat": 0.0, "is_disabled": 0, "rental_uris": {"ios": "https://dc.lft.to/lastmile_qr_scan", "android": "https://dc.lft.to/lastmile_qr_scan"}}, {"name": "fd0e29a02374cd321cd616fe4bbe1486", "lon": -77.040169, "lat": 38.921994, "type": "electric_scooter", "fusion_lon": 0.0, "is_reserved": 0, "bike_id": "fd0e29a02374cd321cd616fe4bbe1486", "fusion_lat": 0.0, "is_disabled": 0, "rental_uris": {"ios": "https://dc.lft.to/lastmile_qr_scan", "android": "https://dc.lft.to/lastmile_qr_scan"}}, {"name": "8921032ed8e0770170e026873bc17670", "lon": -77.05003883333333, "lat": 38.8922975, "type": "electric_scooter", "fusion_lon": 0.0, "is_reserved": 0, "bike_id": "8921032ed8e0770170e026873bc17670", "fusion_lat": 0.0, "is_disabled": 0, "rental_uris": {"ios": "https://dc.lft.to/lastmile_qr_scan", "android": "https://dc.lft.to/lastmile_qr_scan"}}, {"name": "3c507375f53010540806f1c64c039da0", "lon": -77.02211666666666, "lat": 38.90564283333333, "type": "electric_scooter", "fusion_lon": 0.0, "is_reserved": 0, "bike_id": "3c507375f53010540806f1c64c039da0", "fusion_lat": 0.0, "is_disabled": 0, "rental_uris": {"ios": "https://dc.lft.to/lastmile_qr_scan", "android": "https://dc.lft.to/lastmile_qr_scan"}}, {"name": "48e61b0e07e48253542653770fa475e9", "lon": -77.01237183333333, "lat": 38.9154405, "type": "electric_scooter", "fusion_lon": 0.0, "is_reserved": 0, "bike_id": "48e61b0e07e48253542653770fa475e9", "fusion_lat": 0.0, "is_disabled": 0, "rental_uris": {"ios": "https://dc.lft.to/lastmile_qr_scan", "android": "https://dc.lft.to/lastmile_qr_scan"}}, {"name": "b793316ae7b926337b15b206765f64fc", "lon": -77.04328833333334, "lat": 38.904855, "type": "electric_scooter", "fusion_lon": 0.0, "is_reserved": 0, "bike_id": "b793316ae7b926337b15b206765f64fc", "fusion_lat": 0.0, "is_disabled": 0, "rental_uris": {"ios": "https://dc.lft.to/lastmile_qr_scan", "android": "https://dc.lft.to/lastmile_qr_scan"}}, {"name": "7bf05528ca5af76d9de82e540fd69a93", "lon": -77.02369483333334, "lat": 38.9021675, "type": "electric_scooter", "fusion_lon": 0.0, "is_reserved": 0, "bike_id": "7bf05528ca5af76d9de82e540fd69a93", "fusion_lat": 0.0, "is_disabled": 0, "rental_uris": {"ios": "https://dc.lft.to/lastmile_qr_scan", "android": "https://dc.lft.to/lastmile_qr_scan"}}, {"name": "008a0d109323a248e028fccda554f804", "lon": -77.02677583333333, "lat": 38.896142166666664, "type": "electric_scooter", "fusion_lon": 0.0, "is_reserved": 0, "bike_id": "008a0d109323a248e028fccda554f804", "fusion_lat": 0.0, "is_disabled": 0, "rental_uris": {"ios": "https://dc.lft.to/lastmile_qr_scan", "android": "https://dc.lft.to/lastmile_qr_scan"}}, {"name": "4a702b15f0e7d2932ceed89674b20d51", "lon": -76.99067016666666, "lat": 38.90417166666667, "type": "electric_scooter", "fusion_lon": 0.0, "is_reserved": 0, "bike_id": "4a702b15f0e7d2932ceed89674b20d51", "fusion_lat": 0.0, "is_disabled": 0, "rental_uris": {"ios": "https://dc.lft.to/lastmile_qr_scan", "android": "https://dc.lft.to/lastmile_qr_scan"}}, {"name": "6f68cc6df1b60c41cf52fcc52d3893c5", "lon": -77.02526366666666, "lat": 38.90957816666667, "type": "electric_scooter", "fusion_lon": 0.0, "is_reserved": 0, "bike_id": "6f68cc6df1b60c41cf52fcc52d3893c5", "fusion_lat": 0.0, "is_disabled": 0, "rental_uris": {"ios": "https://dc.lft.to/lastmile_qr_scan", "android": "https://dc.lft.to/lastmile_qr_scan"}}, {"name": "f6bc91baa21eea1c897f3f217165dff2", "lon": -77.0588075, "lat": 38.9182245, "type": "electric_scooter", "fusion_lon": 0.0, "is_reserved": 0, "bike_id": "f6bc91baa21eea1c897f3f217165dff2", "fusion_lat": 0.0, "is_disabled": 0, "rental_uris": {"ios": "https://dc.lft.to/lastmile_qr_scan", "android": "https://dc.lft.to/lastmile_qr_scan"}}, {"name": "fa13866917a7bfa93208609b4e675778", "lon": -76.93347016666667, "lat": 38.888151, "type": "electric_scooter", "fusion_lon": 0.0, "is_reserved": 0, "bike_id": "fa13866917a7bfa93208609b4e675778", "fusion_lat": 0.0, "is_disabled": 0, "rental_uris": {"ios": "https://dc.lft.to/lastmile_qr_scan", "android": "https://dc.lft.to/lastmile_qr_scan"}}, {"name": "34a8a5d0c8868dea0efa6738e6b6a04d", "lon": -77.04942633333333, "lat": 38.90971066666667, "type": "electric_scooter", "fusion_lon": 0.0, "is_reserved": 0, "bike_id": "34a8a5d0c8868dea0efa6738e6b6a04d", "fusion_lat": 0.0, "is_disabled": 0, "rental_uris": {"ios": "https://dc.lft.to/lastmile_qr_scan", "android": "https://dc.lft.to/lastmile_qr_scan"}}, {"name": "dbb4064209156e06bac0ed5c51a583c6", "lon": -77.04906383333334, "lat": 38.90079216666667, "type": "electric_scooter", "fusion_lon": 0.0, "is_reserved": 0, "bike_id": "dbb4064209156e06bac0ed5c51a583c6", "fusion_lat": 0.0, "is_disabled": 0, "rental_uris": {"ios": "https://dc.lft.to/lastmile_qr_scan", "android": "https://dc.lft.to/lastmile_qr_scan"}}, {"name": "611e1c896ea4043087a2c77ba00da61c", "lon": -77.02227083333334, "lat": 38.9568695, "type": "electric_bike", "fusion_lon": 0.0, "is_reserved": 0, "bike_id": "611e1c896ea4043087a2c77ba00da61c", "fusion_lat": 0.0, "is_disabled": 0, "rental_uris": {"ios": "https://dc.lft.to/lastmile_qr_scan", "android": "https://dc.lft.to/lastmile_qr_scan"}}, {"name": "fc65480787ce86160092d0ae7fbe9ae1", "lon": -77.025057, "lat": 38.920727666666664, "type": "electric_scooter", "fusion_lon": 0.0, "is_reserved": 0, "bike_id": "fc65480787ce86160092d0ae7fbe9ae1", "fusion_lat": 0.0, "is_disabled": 0, "rental_uris": {"ios": "https://dc.lft.to/lastmile_qr_scan", "android": "https://dc.lft.to/lastmile_qr_scan"}}, {"name": "3e13b9175aaa6c55fa91cdc00213d8e2", "lon": -77.0050565, "lat": 38.91687966666667, "type": "electric_scooter", "fusion_lon": 0.0, "is_reserved": 0, "bike_id": "3e13b9175aaa6c55fa91cdc00213d8e2", "fusion_lat": 0.0, "is_disabled": 0, "rental_uris": {"ios": "https://dc.lft.to/lastmile_qr_scan", "android": "https://dc.lft.to/lastmile_qr_scan"}}, {"name": "7db481edca0c4dfebd530a0598a3287a", "lon": -77.04608283333333, "lat": 38.91689433333333, "type": "electric_scooter", "fusion_lon": 0.0, "is_reserved": 0, "bike_id": "7db481edca0c4dfebd530a0598a3287a", "fusion_lat": 0.0, "is_disabled": 0, "rental_uris": {"ios": "https://dc.lft.to/lastmile_qr_scan", "android": "https://dc.lft.to/lastmile_qr_scan"}}, {"name": "74435de7a28bcc8250bcf962d586683b", "lon": -77.03267083333333, "lat": 38.916320999999996, "type": "electric_scooter", "fusion_lon": 0.0, "is_reserved": 0, "bike_id": "74435de7a28bcc8250bcf962d586683b", "fusion_lat": 0.0, "is_disabled": 0, "rental_uris": {"ios": "https://dc.lft.to/lastmile_qr_scan", "android": "https://dc.lft.to/lastmile_qr_scan"}}, {"name": "5b087e9d2504dd7aa51ad670fb7d796a", "lon": -77.0111935, "lat": 38.903504, "type": "electric_scooter", "fusion_lon": 0.0, "is_reserved": 0, "bike_id": "5b087e9d2504dd7aa51ad670fb7d796a", "fusion_lat": 0.0, "is_disabled": 0, "rental_uris": {"ios": "https://dc.lft.to/lastmile_qr_scan", "android": "https://dc.lft.to/lastmile_qr_scan"}}, {"name": "a6f97ae26f249629ea14ef6e3fc5ef57", "lon": -77.044861, "lat": 38.91934716666667, "type": "electric_scooter", "fusion_lon": 0.0, "is_reserved": 0, "bike_id": "a6f97ae26f249629ea14ef6e3fc5ef57", "fusion_lat": 0.0, "is_disabled": 0, "rental_uris": {"ios": "https://dc.lft.to/lastmile_qr_scan", "android": "https://dc.lft.to/lastmile_qr_scan"}}, {"name": "fe5a1ed2aeb686ec5181b9b3b51e89ae", "lon": -77.0925065, "lat": 38.94149916666667, "type": "electric_scooter", "fusion_lon": 0.0, "is_reserved": 0, "bike_id": "fe5a1ed2aeb686ec5181b9b3b51e89ae", "fusion_lat": 0.0, "is_disabled": 0, "rental_uris": {"ios": "https://dc.lft.to/lastmile_qr_scan", "android": "https://dc.lft.to/lastmile_qr_scan"}}, {"name": "084a89298842a224672aafb0581eb08c", "lon": -77.031216, "lat": 38.91562066666667, "type": "electric_scooter", "fusion_lon": 0.0, "is_reserved": 0, "bike_id": "084a89298842a224672aafb0581eb08c", "fusion_lat": 0.0, "is_disabled": 0, "rental_uris": {"ios": "https://dc.lft.to/lastmile_qr_scan", "android": "https://dc.lft.to/lastmile_qr_scan"}}, {"name": "8325c058e916c0ad0b0c14c065ea1136", "lon": -77.02664183333333, "lat": 38.90226216666667, "type": "electric_scooter", "fusion_lon": 0.0, "is_reserved": 0, "bike_id": "8325c058e916c0ad0b0c14c065ea1136", "fusion_lat": 0.0, "is_disabled": 0, "rental_uris": {"ios": "https://dc.lft.to/lastmile_qr_scan", "android": "https://dc.lft.to/lastmile_qr_scan"}}, {"name": "9a4c737d2bb15c6d00bf65c76a95d85b", "lon": -77.02947216666666, "lat": 38.9167425, "type": "electric_scooter", "fusion_lon": 0.0, "is_reserved": 0, "bike_id": "9a4c737d2bb15c6d00bf65c76a95d85b", "fusion_lat": 0.0, "is_disabled": 0, "rental_uris": {"ios": "https://dc.lft.to/lastmile_qr_scan", "android": "https://dc.lft.to/lastmile_qr_scan"}}, {"name": "254a45047cc1e4438ef6813b2a5a2716", "lon": -77.037302, "lat": 38.935666, "type": "electric_scooter", "fusion_lon": 0.0, "is_reserved": 0, "bike_id": "254a45047cc1e4438ef6813b2a5a2716", "fusion_lat": 0.0, "is_disabled": 0, "rental_uris": {"ios": "https://dc.lft.to/lastmile_qr_scan", "android": "https://dc.lft.to/lastmile_qr_scan"}}, {"name": "7fdd8acbbf1b09bc0fdff85eb40e640c", "lon": -76.975819, "lat": 38.840253833333335, "type": "electric_bike", "fusion_lon": 0.0, "is_reserved": 0, "bike_id": "7fdd8acbbf1b09bc0fdff85eb40e640c", "fusion_lat": 0.0, "is_disabled": 0, "rental_uris": {"ios": "https://dc.lft.to/lastmile_qr_scan", "android": "https://dc.lft.to/lastmile_qr_scan"}}, {"name": "c97acfd3105f2993a17af4ad890166e6", "lon": -77.02087683333333, "lat": 38.921496, "type": "electric_scooter", "fusion_lon": 0.0, "is_reserved": 0, "bike_id": "c97acfd3105f2993a17af4ad890166e6", "fusion_lat": 0.0, "is_disabled": 0, "rental_uris": {"ios": "https://dc.lft.to/lastmile_qr_scan", "android": "https://dc.lft.to/lastmile_qr_scan"}}, {"name": "531c17a4e2e7ede786024f1072ae120d", "lon": -76.99508816666666, "lat": 38.862519, "type": "electric_scooter", "fusion_lon": 0.0, "is_reserved": 0, "bike_id": "531c17a4e2e7ede786024f1072ae120d", "fusion_lat": 0.0, "is_disabled": 0, "rental_uris": {"ios": "https://dc.lft.to/lastmile_qr_scan", "android": "https://dc.lft.to/lastmile_qr_scan"}}, {"name": "b8926c764b5bc1f617f4ba1657f580d4", "lon": -77.023504, "lat": 38.94612933333333, "type": "electric_scooter", "fusion_lon": 0.0, "is_reserved": 0, "bike_id": "b8926c764b5bc1f617f4ba1657f580d4", "fusion_lat": 0.0, "is_disabled": 0, "rental_uris": {"ios": "https://dc.lft.to/lastmile_qr_scan", "android": "https://dc.lft.to/lastmile_qr_scan"}}, {"name": "3dac4dd3723bff056c6efb6f0e317c16", "lon": -76.99059483333333, "lat": 38.863544833333336, "type": "electric_scooter", "fusion_lon": 0.0, "is_reserved": 0, "bike_id": "3dac4dd3723bff056c6efb6f0e317c16", "fusion_lat": 0.0, "is_disabled": 0, "rental_uris": {"ios": "https://dc.lft.to/lastmile_qr_scan", "android": "https://dc.lft.to/lastmile_qr_scan"}}, {"name": "dcb36a9a01dcc275843388fcf2cf7e00", "lon": -77.02692533333334, "lat": 38.909725333333334, "type": "electric_scooter", "fusion_lon": 0.0, "is_reserved": 0, "bike_id": "dcb36a9a01dcc275843388fcf2cf7e00", "fusion_lat": 0.0, "is_disabled": 0, "rental_uris": {"ios": "https://dc.lft.to/lastmile_qr_scan", "android": "https://dc.lft.to/lastmile_qr_scan"}}, {"name": "e00c1c38333a734d941702f1409c6c38", "lon": -76.9951005, "lat": 38.879154, "type": "electric_scooter", "fusion_lon": 0.0, "is_reserved": 0, "bike_id": "e00c1c38333a734d941702f1409c6c38", "fusion_lat": 0.0, "is_disabled": 0, "rental_uris": {"ios": "https://dc.lft.to/lastmile_qr_scan", "android": "https://dc.lft.to/lastmile_qr_scan"}}, {"name": "94b5459eb1367be85ba3a92ccec0f543", "lon": -76.99896233333334, "lat": 38.946869, "type": "electric_scooter", "fusion_lon": 0.0, "is_reserved": 0, "bike_id": "94b5459eb1367be85ba3a92ccec0f543", "fusion_lat": 0.0, "is_disabled": 0, "rental_uris": {"ios": "https://dc.lft.to/lastmile_qr_scan", "android": "https://dc.lft.to/lastmile_qr_scan"}}, {"name": "472397ed584048897199d2710c8b0a48", "lon": -77.02312766666667, "lat": 38.917722166666664, "type": "electric_scooter", "fusion_lon": 0.0, "is_reserved": 0, "bike_id": "472397ed584048897199d2710c8b0a48", "fusion_lat": 0.0, "is_disabled": 0, "rental_uris": {"ios": "https://dc.lft.to/lastmile_qr_scan", "android": "https://dc.lft.to/lastmile_qr_scan"}}, {"name": "00f81416d841abdd38bfc0b525ad3df4", "lon": -77.03320733333334, "lat": 38.91318866666667, "type": "electric_scooter", "fusion_lon": 0.0, "is_reserved": 0, "bike_id": "00f81416d841abdd38bfc0b525ad3df4", "fusion_lat": 0.0, "is_disabled": 0, "rental_uris": {"ios": "https://dc.lft.to/lastmile_qr_scan", "android": "https://dc.lft.to/lastmile_qr_scan"}}, {"name": "e2047631ee3919d8e5d5bbe266332755", "lon": -77.04428333333334, "lat": 38.92177483333333, "type": "electric_scooter", "fusion_lon": 0.0, "is_reserved": 0, "bike_id": "e2047631ee3919d8e5d5bbe266332755", "fusion_lat": 0.0, "is_disabled": 0, "rental_uris": {"ios": "https://dc.lft.to/lastmile_qr_scan", "android": "https://dc.lft.to/lastmile_qr_scan"}}, {"name": "0c0ae8e0c6ea5dc1efb0fcecd10f81f1", "lon": -77.040109, "lat": 38.92245416666667, "type": "electric_scooter", "fusion_lon": 0.0, "is_reserved": 0, "bike_id": "0c0ae8e0c6ea5dc1efb0fcecd10f81f1", "fusion_lat": 0.0, "is_disabled": 0, "rental_uris": {"ios": "https://dc.lft.to/lastmile_qr_scan", "android": "https://dc.lft.to/lastmile_qr_scan"}}, {"name": "254e511edc34553a2ddc275ad38b2822", "lon": -77.04328466666666, "lat": 38.902065666666665, "type": "electric_scooter", "fusion_lon": 0.0, "is_reserved": 0, "bike_id": "254e511edc34553a2ddc275ad38b2822", "fusion_lat": 0.0, "is_disabled": 0, "rental_uris": {"ios": "https://dc.lft.to/lastmile_qr_scan", "android": "https://dc.lft.to/lastmile_qr_scan"}}, {"name": "aa73833d5926fb3810abfb8c2bd1996a", "lon": -77.00484116666667, "lat": 38.87472866666667, "type": "electric_scooter", "fusion_lon": 0.0, "is_reserved": 0, "bike_id": "aa73833d5926fb3810abfb8c2bd1996a", "fusion_lat": 0.0, "is_disabled": 0, "rental_uris": {"ios": "https://dc.lft.to/lastmile_qr_scan", "android": "https://dc.lft.to/lastmile_qr_scan"}}, {"name": "330aa69bbcead0b2df2313c699563bda", "lon": -77.03260383333334, "lat": 38.946236999999996, "type": "electric_scooter", "fusion_lon": 0.0, "is_reserved": 0, "bike_id": "330aa69bbcead0b2df2313c699563bda", "fusion_lat": 0.0, "is_disabled": 0, "rental_uris": {"ios": "https://dc.lft.to/lastmile_qr_scan", "android": "https://dc.lft.to/lastmile_qr_scan"}}, {"name": "019bcd3a328be7dbcfebc82804f8ac29", "lon": -77.04332716666667, "lat": 38.892206333333334, "type": "electric_scooter", "fusion_lon": 0.0, "is_reserved": 0, "bike_id": "019bcd3a328be7dbcfebc82804f8ac29", "fusion_lat": 0.0, "is_disabled": 0, "rental_uris": {"ios": "https://dc.lft.to/lastmile_qr_scan", "android": "https://dc.lft.to/lastmile_qr_scan"}}, {"name": "d139c5f23e32841ae53d7122e9ca1d3c", "lon": -76.98093433333334, "lat": 38.920996833333334, "type": "electric_bike", "fusion_lon": 0.0, "is_reserved": 0, "bike_id": "d139c5f23e32841ae53d7122e9ca1d3c", "fusion_lat": 0.0, "is_disabled": 0, "rental_uris": {"ios": "https://dc.lft.to/lastmile_qr_scan", "android": "https://dc.lft.to/lastmile_qr_scan"}}, {"name": "71df0c0e755b6f80939cea91de2161ca", "lon": -77.02811, "lat": 38.91687833333334, "type": "electric_scooter", "fusion_lon": 0.0, "is_reserved": 0, "bike_id": "71df0c0e755b6f80939cea91de2161ca", "fusion_lat": 0.0, "is_disabled": 0, "rental_uris": {"ios": "https://dc.lft.to/lastmile_qr_scan", "android": "https://dc.lft.to/lastmile_qr_scan"}}, {"name": "0a8633f87931e31abab398ba926dd3d2", "lon": -77.02287766666667, "lat": 38.89498966666667, "type": "electric_scooter", "fusion_lon": 0.0, "is_reserved": 0, "bike_id": "0a8633f87931e31abab398ba926dd3d2", "fusion_lat": 0.0, "is_disabled": 0, "rental_uris": {"ios": "https://dc.lft.to/lastmile_qr_scan", "android": "https://dc.lft.to/lastmile_qr_scan"}}, {"name": "d2cd1ccf736fe97cc1b42eeea57d4824", "lon": -77.02588433333334, "lat": 38.904893, "type": "electric_scooter", "fusion_lon": 0.0, "is_reserved": 0, "bike_id": "d2cd1ccf736fe97cc1b42eeea57d4824", "fusion_lat": 0.0, "is_disabled": 0, "rental_uris": {"ios": "https://dc.lft.to/lastmile_qr_scan", "android": "https://dc.lft.to/lastmile_qr_scan"}}, {"name": "9d2ef1ef67cb86c5aa9afcb6e67d4278", "lon": -77.0216465, "lat": 38.90196183333333, "type": "electric_scooter", "fusion_lon": 0.0, "is_reserved": 0, "bike_id": "9d2ef1ef67cb86c5aa9afcb6e67d4278", "fusion_lat": 0.0, "is_disabled": 0, "rental_uris": {"ios": "https://dc.lft.to/lastmile_qr_scan", "android": "https://dc.lft.to/lastmile_qr_scan"}}, {"name": "36dc6cb53e6767fb09d57f4a8412fdc3", "lon": -77.00567583333333, "lat": 38.90214366666667, "type": "electric_scooter", "fusion_lon": 0.0, "is_reserved": 0, "bike_id": "36dc6cb53e6767fb09d57f4a8412fdc3", "fusion_lat": 0.0, "is_disabled": 0, "rental_uris": {"ios": "https://dc.lft.to/lastmile_qr_scan", "android": "https://dc.lft.to/lastmile_qr_scan"}}, {"name": "2c91423b16410921a59ac27b3a0183f7", "lon": -76.90961516666667, "lat": 38.854161833333336, "type": "electric_bike", "fusion_lon": 0.0, "is_reserved": 0, "bike_id": "2c91423b16410921a59ac27b3a0183f7", "fusion_lat": 0.0, "is_disabled": 0, "rental_uris": {"ios": "https://dc.lft.to/lastmile_qr_scan", "android": "https://dc.lft.to/lastmile_qr_scan"}}, {"name": "bfd25633560efbd17b8e48435a0cc9e4", "lon": -77.01511733333334, "lat": 38.91050383333334, "type": "electric_scooter", "fusion_lon": 0.0, "is_reserved": 0, "bike_id": "bfd25633560efbd17b8e48435a0cc9e4", "fusion_lat": 0.0, "is_disabled": 0, "rental_uris": {"ios": "https://dc.lft.to/lastmile_qr_scan", "android": "https://dc.lft.to/lastmile_qr_scan"}}, {"name": "5620a7c7317fe9f55d1dc14b03f05717", "lon": -77.04091966666667, "lat": 38.9177155, "type": "electric_scooter", "fusion_lon": 0.0, "is_reserved": 0, "bike_id": "5620a7c7317fe9f55d1dc14b03f05717", "fusion_lat": 0.0, "is_disabled": 0, "rental_uris": {"ios": "https://dc.lft.to/lastmile_qr_scan", "android": "https://dc.lft.to/lastmile_qr_scan"}}, {"name": "f7e1696c226cb68ca6dd1cd0db5addff", "lon": -77.01760216666666, "lat": 38.8785825, "type": "electric_scooter", "fusion_lon": 0.0, "is_reserved": 0, "bike_id": "f7e1696c226cb68ca6dd1cd0db5addff", "fusion_lat": 0.0, "is_disabled": 0, "rental_uris": {"ios": "https://dc.lft.to/lastmile_qr_scan", "android": "https://dc.lft.to/lastmile_qr_scan"}}, {"name": "4c610db77cff5d3871dc16fc2c22beed", "lon": -77.02292916666667, "lat": 38.936708333333335, "type": "electric_scooter", "fusion_lon": 0.0, "is_reserved": 0, "bike_id": "4c610db77cff5d3871dc16fc2c22beed", "fusion_lat": 0.0, "is_disabled": 0, "rental_uris": {"ios": "https://dc.lft.to/lastmile_qr_scan", "android": "https://dc.lft.to/lastmile_qr_scan"}}, {"name": "53dd7553e6355522bafb5f1772920b8b", "lon": -76.99267366666666, "lat": 38.88638616666667, "type": "electric_scooter", "fusion_lon": 0.0, "is_reserved": 0, "bike_id": "53dd7553e6355522bafb5f1772920b8b", "fusion_lat": 0.0, "is_disabled": 0, "rental_uris": {"ios": "https://dc.lft.to/lastmile_qr_scan", "android": "https://dc.lft.to/lastmile_qr_scan"}}, {"name": "d4f435b3c28a22c097c86c37ed9ed0e8", "lon": -77.02371583333333, "lat": 38.8962, "type": "electric_scooter", "fusion_lon": 0.0, "is_reserved": 0, "bike_id": "d4f435b3c28a22c097c86c37ed9ed0e8", "fusion_lat": 0.0, "is_disabled": 0, "rental_uris": {"ios": "https://dc.lft.to/lastmile_qr_scan", "android": "https://dc.lft.to/lastmile_qr_scan"}}, {"name": "544bd2a0f5d94d4c71ba2180955d652b", "lon": -77.0319335, "lat": 38.9135165, "type": "electric_scooter", "fusion_lon": 0.0, "is_reserved": 0, "bike_id": "544bd2a0f5d94d4c71ba2180955d652b", "fusion_lat": 0.0, "is_disabled": 0, "rental_uris": {"ios": "https://dc.lft.to/lastmile_qr_scan", "android": "https://dc.lft.to/lastmile_qr_scan"}}, {"name": "edc5f5b2761b1c7e2cc87165516f2b63", "lon": -77.03859566666667, "lat": 38.915531, "type": "electric_scooter", "fusion_lon": 0.0, "is_reserved": 0, "bike_id": "edc5f5b2761b1c7e2cc87165516f2b63", "fusion_lat": 0.0, "is_disabled": 0, "rental_uris": {"ios": "https://dc.lft.to/lastmile_qr_scan", "android": "https://dc.lft.to/lastmile_qr_scan"}}, {"name": "ae792a84f18d15d5596d3f4b09017157", "lon": -77.02928683333333, "lat": 38.899361999999996, "type": "electric_scooter", "fusion_lon": 0.0, "is_reserved": 0, "bike_id": "ae792a84f18d15d5596d3f4b09017157", "fusion_lat": 0.0, "is_disabled": 0, "rental_uris": {"ios": "https://dc.lft.to/lastmile_qr_scan", "android": "https://dc.lft.to/lastmile_qr_scan"}}, {"name": "e15bb0a7a7da7107d8bd68272913bbdc", "lon": -76.98882433333333, "lat": 38.8665025, "type": "electric_scooter", "fusion_lon": 0.0, "is_reserved": 0, "bike_id": "e15bb0a7a7da7107d8bd68272913bbdc", "fusion_lat": 0.0, "is_disabled": 0, "rental_uris": {"ios": "https://dc.lft.to/lastmile_qr_scan", "android": "https://dc.lft.to/lastmile_qr_scan"}}, {"name": "33a78b9957a04a8c054a288fa41dcb15", "lon": -77.03760633333333, "lat": 38.91701033333333, "type": "electric_bike", "fusion_lon": 0.0, "is_reserved": 0, "bike_id": "33a78b9957a04a8c054a288fa41dcb15", "fusion_lat": 0.0, "is_disabled": 0, "rental_uris": {"ios": "https://dc.lft.to/lastmile_qr_scan", "android": "https://dc.lft.to/lastmile_qr_scan"}}, {"name": "ccdd2b16dc91e850c0abc1e7c6e3e953", "lon": -77.038594, "lat": 38.91251333333334, "type": "electric_scooter", "fusion_lon": 0.0, "is_reserved": 0, "bike_id": "ccdd2b16dc91e850c0abc1e7c6e3e953", "fusion_lat": 0.0, "is_disabled": 0, "rental_uris": {"ios": "https://dc.lft.to/lastmile_qr_scan", "android": "https://dc.lft.to/lastmile_qr_scan"}}, {"name": "924d1f6c68e3e035660a564c0d4d959b", "lon": -77.047987, "lat": 38.892209666666666, "type": "electric_scooter", "fusion_lon": 0.0, "is_reserved": 0, "bike_id": "924d1f6c68e3e035660a564c0d4d959b", "fusion_lat": 0.0, "is_disabled": 0, "rental_uris": {"ios": "https://dc.lft.to/lastmile_qr_scan", "android": "https://dc.lft.to/lastmile_qr_scan"}}, {"name": "911336a8f3da2b3294e365708ae16da6", "lon": -77.22577083333333, "lat": 38.92968783333333, "type": "electric_bike", "fusion_lon": 0.0, "is_reserved": 0, "bike_id": "911336a8f3da2b3294e365708ae16da6", "fusion_lat": 0.0, "is_disabled": 0, "rental_uris": {"ios": "https://dc.lft.to/lastmile_qr_scan", "android": "https://dc.lft.to/lastmile_qr_scan"}}, {"name": "76e9610691dce9bbbf37d55c4a69f483", "lon": -76.93753833333334, "lat": 38.89044533333333, "type": "electric_scooter", "fusion_lon": 0.0, "is_reserved": 0, "bike_id": "76e9610691dce9bbbf37d55c4a69f483", "fusion_lat": 0.0, "is_disabled": 0, "rental_uris": {"ios": "https://dc.lft.to/lastmile_qr_scan", "android": "https://dc.lft.to/lastmile_qr_scan"}}, {"name": "af92010b50e25e421ab546bb2fd7c1f4", "lon": -77.04311383333334, "lat": 38.926534833333335, "type": "electric_scooter", "fusion_lon": 0.0, "is_reserved": 0, "bike_id": "af92010b50e25e421ab546bb2fd7c1f4", "fusion_lat": 0.0, "is_disabled": 0, "rental_uris": {"ios": "https://dc.lft.to/lastmile_qr_scan", "android": "https://dc.lft.to/lastmile_qr_scan"}}, {"name": "64a6c051abb476645a9723b4e5c08628", "lon": -77.04200516666667, "lat": 38.920765, "type": "electric_bike", "fusion_lon": 0.0, "is_reserved": 0, "bike_id": "64a6c051abb476645a9723b4e5c08628", "fusion_lat": 0.0, "is_disabled": 0, "rental_uris": {"ios": "https://dc.lft.to/lastmile_qr_scan", "android": "https://dc.lft.to/lastmile_qr_scan"}}, {"name": "64bb35d3f022babf33c993a3adc1dcfa", "lon": -77.04075616666667, "lat": 38.9177395, "type": "electric_scooter", "fusion_lon": 0.0, "is_reserved": 0, "bike_id": "64bb35d3f022babf33c993a3adc1dcfa", "fusion_lat": 0.0, "is_disabled": 0, "rental_uris": {"ios": "https://dc.lft.to/lastmile_qr_scan", "android": "https://dc.lft.to/lastmile_qr_scan"}}, {"name": "7f1624b0e71d46c3e06a38e01fd08d92", "lon": -77.00965, "lat": 38.907819333333336, "type": "electric_scooter", "fusion_lon": 0.0, "is_reserved": 0, "bike_id": "7f1624b0e71d46c3e06a38e01fd08d92", "fusion_lat": 0.0, "is_disabled": 0, "rental_uris": {"ios": "https://dc.lft.to/lastmile_qr_scan", "android": "https://dc.lft.to/lastmile_qr_scan"}}, {"name": "58d755962765bf4d8b59007251b6d89d", "lon": -77.03203283333333, "lat": 38.91786466666667, "type": "electric_scooter", "fusion_lon": 0.0, "is_reserved": 0, "bike_id": "58d755962765bf4d8b59007251b6d89d", "fusion_lat": 0.0, "is_disabled": 0, "rental_uris": {"ios": "https://dc.lft.to/lastmile_qr_scan", "android": "https://dc.lft.to/lastmile_qr_scan"}}, {"name": "e4d175a9954e7fbe80be4c4980dd1c2a", "lon": -77.17840566666666, "lat": 39.088550833333336, "type": "electric_bike", "fusion_lon": 0.0, "is_reserved": 0, "bike_id": "e4d175a9954e7fbe80be4c4980dd1c2a", "fusion_lat": 0.0, "is_disabled": 0, "rental_uris": {"ios": "https://dc.lft.to/lastmile_qr_scan", "android": "https://dc.lft.to/lastmile_qr_scan"}}, {"name": "ab720802fa9e78374491820509a876a0", "lon": -77.021905, "lat": 38.899703, "type": "electric_scooter", "fusion_lon": 0.0, "is_reserved": 0, "bike_id": "ab720802fa9e78374491820509a876a0", "fusion_lat": 0.0, "is_disabled": 0, "rental_uris": {"ios": "https://dc.lft.to/lastmile_qr_scan", "android": "https://dc.lft.to/lastmile_qr_scan"}}, {"name": "b71683b6a122fca558365935618286d2", "lon": -77.08627566666667, "lat": 38.881775833333336, "type": "electric_bike", "fusion_lon": 0.0, "is_reserved": 0, "bike_id": "b71683b6a122fca558365935618286d2", "fusion_lat": 0.0, "is_disabled": 0, "rental_uris": {"ios": "https://dc.lft.to/lastmile_qr_scan", "android": "https://dc.lft.to/lastmile_qr_scan"}}, {"name": "395c04d88767bcdd974c224c7ee41563", "lon": -77.0417355, "lat": 38.916737, "type": "electric_scooter", "fusion_lon": 0.0, "is_reserved": 0, "bike_id": "395c04d88767bcdd974c224c7ee41563", "fusion_lat": 0.0, "is_disabled": 0, "rental_uris": {"ios": "https://dc.lft.to/lastmile_qr_scan", "android": "https://dc.lft.to/lastmile_qr_scan"}}, {"name": "c8c6a9468efb03ada49556753a42d648", "lon": -76.99160533333334, "lat": 38.897997, "type": "electric_scooter", "fusion_lon": 0.0, "is_reserved": 0, "bike_id": "c8c6a9468efb03ada49556753a42d648", "fusion_lat": 0.0, "is_disabled": 0, "rental_uris": {"ios": "https://dc.lft.to/lastmile_qr_scan", "android": "https://dc.lft.to/lastmile_qr_scan"}}, {"name": "b3f3de0741beacf3d50b161a4e58d420", "lon": -77.026903, "lat": 38.9068585, "type": "electric_scooter", "fusion_lon": 0.0, "is_reserved": 0, "bike_id": "b3f3de0741beacf3d50b161a4e58d420", "fusion_lat": 0.0, "is_disabled": 0, "rental_uris": {"ios": "https://dc.lft.to/lastmile_qr_scan", "android": "https://dc.lft.to/lastmile_qr_scan"}}, {"name": "381091c02fce2c858260eddbe45cb6e4", "lon": -76.95638666666666, "lat": 38.895533, "type": "electric_scooter", "fusion_lon": 0.0, "is_reserved": 0, "bike_id": "381091c02fce2c858260eddbe45cb6e4", "fusion_lat": 0.0, "is_disabled": 0, "rental_uris": {"ios": "https://dc.lft.to/lastmile_qr_scan", "android": "https://dc.lft.to/lastmile_qr_scan"}}, {"name": "66e9f614f8cadbd7fda0e4f3fde35187", "lon": -77.03461183333333, "lat": 38.90573333333333, "type": "electric_scooter", "fusion_lon": 0.0, "is_reserved": 0, "bike_id": "66e9f614f8cadbd7fda0e4f3fde35187", "fusion_lat": 0.0, "is_disabled": 0, "rental_uris": {"ios": "https://dc.lft.to/lastmile_qr_scan", "android": "https://dc.lft.to/lastmile_qr_scan"}}, {"name": "d1c58c3470689429f8580047fc9317d8", "lon": -77.032634, "lat": 38.932575666666665, "type": "electric_scooter", "fusion_lon": 0.0, "is_reserved": 0, "bike_id": "d1c58c3470689429f8580047fc9317d8", "fusion_lat": 0.0, "is_disabled": 0, "rental_uris": {"ios": "https://dc.lft.to/lastmile_qr_scan", "android": "https://dc.lft.to/lastmile_qr_scan"}}, {"name": "af90978311047582be7b1b78ac37a05e", "lon": -76.96486433333334, "lat": 38.875450666666666, "type": "electric_bike", "fusion_lon": 0.0, "is_reserved": 0, "bike_id": "af90978311047582be7b1b78ac37a05e", "fusion_lat": 0.0, "is_disabled": 0, "rental_uris": {"ios": "https://dc.lft.to/lastmile_qr_scan", "android": "https://dc.lft.to/lastmile_qr_scan"}}, {"name": "0dbc92b7cd1abfb799f681c46a31160e", "lon": -77.2220785, "lat": 38.928533333333334, "type": "electric_bike", "fusion_lon": 0.0, "is_reserved": 0, "bike_id": "0dbc92b7cd1abfb799f681c46a31160e", "fusion_lat": 0.0, "is_disabled": 0, "rental_uris": {"ios": "https://dc.lft.to/lastmile_qr_scan", "android": "https://dc.lft.to/lastmile_qr_scan"}}, {"name": "397694188d8d1a12700dc2d6df7f1b3d", "lon": -76.984903, "lat": 38.90389583333334, "type": "electric_scooter", "fusion_lon": 0.0, "is_reserved": 0, "bike_id": "397694188d8d1a12700dc2d6df7f1b3d", "fusion_lat": 0.0, "is_disabled": 0, "rental_uris": {"ios": "https://dc.lft.to/lastmile_qr_scan", "android": "https://dc.lft.to/lastmile_qr_scan"}}, {"name": "9d6561b533500146e1625a7dcaa41323", "lon": -77.03174483333333, "lat": 38.917746, "type": "electric_scooter", "fusion_lon": 0.0, "is_reserved": 0, "bike_id": "9d6561b533500146e1625a7dcaa41323", "fusion_lat": 0.0, "is_disabled": 0, "rental_uris": {"ios": "https://dc.lft.to/lastmile_qr_scan", "android": "https://dc.lft.to/lastmile_qr_scan"}}, {"name": "fa8b07632fb5c408e985477e19f80840", "lon": -77.18291766666667, "lat": 38.89091166666667, "type": "electric_bike", "fusion_lon": 0.0, "is_reserved": 0, "bike_id": "fa8b07632fb5c408e985477e19f80840", "fusion_lat": 0.0, "is_disabled": 0, "rental_uris": {"ios": "https://dc.lft.to/lastmile_qr_scan", "android": "https://dc.lft.to/lastmile_qr_scan"}}, {"name": "17ab26f502fa46039c2cecb9b4a55ad4", "lon": -77.0460745, "lat": 38.9168035, "type": "electric_scooter", "fusion_lon": 0.0, "is_reserved": 0, "bike_id": "17ab26f502fa46039c2cecb9b4a55ad4", "fusion_lat": 0.0, "is_disabled": 0, "rental_uris": {"ios": "https://dc.lft.to/lastmile_qr_scan", "android": "https://dc.lft.to/lastmile_qr_scan"}}, {"name": "fbe161fcaf01a9f636f1bd498c1576aa", "lon": -77.02328616666667, "lat": 38.9359835, "type": "electric_scooter", "fusion_lon": 0.0, "is_reserved": 0, "bike_id": "fbe161fcaf01a9f636f1bd498c1576aa", "fusion_lat": 0.0, "is_disabled": 0, "rental_uris": {"ios": "https://dc.lft.to/lastmile_qr_scan", "android": "https://dc.lft.to/lastmile_qr_scan"}}, {"name": "36c8acdfec7f25146c2e2279897ab835", "lon": -77.03415133333333, "lat": 38.919147333333335, "type": "electric_scooter", "fusion_lon": 0.0, "is_reserved": 0, "bike_id": "36c8acdfec7f25146c2e2279897ab835", "fusion_lat": 0.0, "is_disabled": 0, "rental_uris": {"ios": "https://dc.lft.to/lastmile_qr_scan", "android": "https://dc.lft.to/lastmile_qr_scan"}}, {"name": "224f1bef192ac9b1dc7c0391e47e620c", "lon": -77.0333035, "lat": 38.9582345, "type": "electric_scooter", "fusion_lon": 0.0, "is_reserved": 0, "bike_id": "224f1bef192ac9b1dc7c0391e47e620c", "fusion_lat": 0.0, "is_disabled": 0, "rental_uris": {"ios": "https://dc.lft.to/lastmile_qr_scan", "android": "https://dc.lft.to/lastmile_qr_scan"}}, {"name": "910d4ee77e5e3dee3015155833bb817a", "lon": -77.02175766666667, "lat": 38.91506033333334, "type": "electric_scooter", "fusion_lon": 0.0, "is_reserved": 0, "bike_id": "910d4ee77e5e3dee3015155833bb817a", "fusion_lat": 0.0, "is_disabled": 0, "rental_uris": {"ios": "https://dc.lft.to/lastmile_qr_scan", "android": "https://dc.lft.to/lastmile_qr_scan"}}, {"name": "ea59761981fa7b08218961ce9eee22bd", "lon": -76.93983433333334, "lat": 38.89974333333333, "type": "electric_scooter", "fusion_lon": 0.0, "is_reserved": 0, "bike_id": "ea59761981fa7b08218961ce9eee22bd", "fusion_lat": 0.0, "is_disabled": 0, "rental_uris": {"ios": "https://dc.lft.to/lastmile_qr_scan", "android": "https://dc.lft.to/lastmile_qr_scan"}}, {"name": "73b0b9d52027f62c9b249ba5650b8f8f", "lon": -77.03327166666666, "lat": 38.91318116666667, "type": "electric_scooter", "fusion_lon": 0.0, "is_reserved": 0, "bike_id": "73b0b9d52027f62c9b249ba5650b8f8f", "fusion_lat": 0.0, "is_disabled": 0, "rental_uris": {"ios": "https://dc.lft.to/lastmile_qr_scan", "android": "https://dc.lft.to/lastmile_qr_scan"}}, {"name": "03b88be393bf15e3c88b5441a602b0c2", "lon": -76.98661733333333, "lat": 38.86723966666667, "type": "electric_scooter", "fusion_lon": 0.0, "is_reserved": 0, "bike_id": "03b88be393bf15e3c88b5441a602b0c2", "fusion_lat": 0.0, "is_disabled": 0, "rental_uris": {"ios": "https://dc.lft.to/lastmile_qr_scan", "android": "https://dc.lft.to/lastmile_qr_scan"}}, {"name": "a2f0afb93442c8cb68792259d70ae92f", "lon": -76.99007216666666, "lat": 38.85876066666667, "type": "electric_scooter", "fusion_lon": 0.0, "is_reserved": 0, "bike_id": "a2f0afb93442c8cb68792259d70ae92f", "fusion_lat": 0.0, "is_disabled": 0, "rental_uris": {"ios": "https://dc.lft.to/lastmile_qr_scan", "android": "https://dc.lft.to/lastmile_qr_scan"}}, {"name": "731908709e9b6b66e296a5e7bdf08095", "lon": -77.001997, "lat": 38.9023365, "type": "electric_scooter", "fusion_lon": 0.0, "is_reserved": 0, "bike_id": "731908709e9b6b66e296a5e7bdf08095", "fusion_lat": 0.0, "is_disabled": 0, "rental_uris": {"ios": "https://dc.lft.to/lastmile_qr_scan", "android": "https://dc.lft.to/lastmile_qr_scan"}}, {"name": "7999a46adfbb10578814ae9109dc00d1", "lon": -76.95471783333333, "lat": 38.886387, "type": "electric_scooter", "fusion_lon": 0.0, "is_reserved": 0, "bike_id": "7999a46adfbb10578814ae9109dc00d1", "fusion_lat": 0.0, "is_disabled": 0, "rental_uris": {"ios": "https://dc.lft.to/lastmile_qr_scan", "android": "https://dc.lft.to/lastmile_qr_scan"}}, {"name": "fdad667b32638627088e407cadcfedff", "lon": -77.011667, "lat": 38.91563933333333, "type": "electric_scooter", "fusion_lon": 0.0, "is_reserved": 0, "bike_id": "fdad667b32638627088e407cadcfedff", "fusion_lat": 0.0, "is_disabled": 0, "rental_uris": {"ios": "https://dc.lft.to/lastmile_qr_scan", "android": "https://dc.lft.to/lastmile_qr_scan"}}, {"name": "6dcd0c9fcb9f512c5ae1f92a1e5cf0fc", "lon": -77.01807533333333, "lat": 38.91417716666667, "type": "electric_scooter", "fusion_lon": 0.0, "is_reserved": 0, "bike_id": "6dcd0c9fcb9f512c5ae1f92a1e5cf0fc", "fusion_lat": 0.0, "is_disabled": 0, "rental_uris": {"ios": "https://dc.lft.to/lastmile_qr_scan", "android": "https://dc.lft.to/lastmile_qr_scan"}}, {"name": "cc02d12b574b8d08e0459fc731de824c", "lon": -77.032449, "lat": 38.96157216666667, "type": "electric_scooter", "fusion_lon": 0.0, "is_reserved": 0, "bike_id": "cc02d12b574b8d08e0459fc731de824c", "fusion_lat": 0.0, "is_disabled": 0, "rental_uris": {"ios": "https://dc.lft.to/lastmile_qr_scan", "android": "https://dc.lft.to/lastmile_qr_scan"}}, {"name": "f81fbb7f9c88066b7dbf359c36a4d0dc", "lon": -77.0345125, "lat": 38.907990833333336, "type": "electric_scooter", "fusion_lon": 0.0, "is_reserved": 0, "bike_id": "f81fbb7f9c88066b7dbf359c36a4d0dc", "fusion_lat": 0.0, "is_disabled": 0, "rental_uris": {"ios": "https://dc.lft.to/lastmile_qr_scan", "android": "https://dc.lft.to/lastmile_qr_scan"}}, {"name": "5ba487f2bc7fb532568079506ebc5a79", "lon": -77.0417035, "lat": 38.91821183333333, "type": "electric_scooter", "fusion_lon": 0.0, "is_reserved": 0, "bike_id": "5ba487f2bc7fb532568079506ebc5a79", "fusion_lat": 0.0, "is_disabled": 0, "rental_uris": {"ios": "https://dc.lft.to/lastmile_qr_scan", "android": "https://dc.lft.to/lastmile_qr_scan"}}, {"name": "3af82379776336f34c9201cbf6a1b1ba", "lon": -77.028055, "lat": 38.904693, "type": "electric_scooter", "fusion_lon": 0.0, "is_reserved": 0, "bike_id": "3af82379776336f34c9201cbf6a1b1ba", "fusion_lat": 0.0, "is_disabled": 0, "rental_uris": {"ios": "https://dc.lft.to/lastmile_qr_scan", "android": "https://dc.lft.to/lastmile_qr_scan"}}, {"name": "98600262319ee38168cc1b09dd20abcb", "lon": -77.02163233333333, "lat": 38.8832575, "type": "electric_scooter", "fusion_lon": 0.0, "is_reserved": 0, "bike_id": "98600262319ee38168cc1b09dd20abcb", "fusion_lat": 0.0, "is_disabled": 0, "rental_uris": {"ios": "https://dc.lft.to/lastmile_qr_scan", "android": "https://dc.lft.to/lastmile_qr_scan"}}, {"name": "be2d10e22f0ee64145b82ccf961c312d", "lon": -77.2331955, "lat": 38.87281733333333, "type": "electric_bike", "fusion_lon": 0.0, "is_reserved": 0, "bike_id": "be2d10e22f0ee64145b82ccf961c312d", "fusion_lat": 0.0, "is_disabled": 0, "rental_uris": {"ios": "https://dc.lft.to/lastmile_qr_scan", "android": "https://dc.lft.to/lastmile_qr_scan"}}, {"name": "dfd08a38f82832fe7cba912f7f38014b", "lon": -77.04334416666667, "lat": 38.907989, "type": "electric_scooter", "fusion_lon": 0.0, "is_reserved": 0, "bike_id": "dfd08a38f82832fe7cba912f7f38014b", "fusion_lat": 0.0, "is_disabled": 0, "rental_uris": {"ios": "https://dc.lft.to/lastmile_qr_scan", "android": "https://dc.lft.to/lastmile_qr_scan"}}, {"name": "5628549d382051fa9cc5d68a180a5358", "lon": -77.0264455, "lat": 38.93381733333333, "type": "electric_scooter", "fusion_lon": 0.0, "is_reserved": 0, "bike_id": "5628549d382051fa9cc5d68a180a5358", "fusion_lat": 0.0, "is_disabled": 0, "rental_uris": {"ios": "https://dc.lft.to/lastmile_qr_scan", "android": "https://dc.lft.to/lastmile_qr_scan"}}, {"name": "5f81ce6a1eaaa5e3cbf4031be15fd0f6", "lon": -77.02300316666667, "lat": 38.917872333333335, "type": "electric_scooter", "fusion_lon": 0.0, "is_reserved": 0, "bike_id": "5f81ce6a1eaaa5e3cbf4031be15fd0f6", "fusion_lat": 0.0, "is_disabled": 0, "rental_uris": {"ios": "https://dc.lft.to/lastmile_qr_scan", "android": "https://dc.lft.to/lastmile_qr_scan"}}, {"name": "c95cbbf3df75afcd3af7876978cc474e", "lon": -77.04479733333334, "lat": 38.92424333333334, "type": "electric_scooter", "fusion_lon": 0.0, "is_reserved": 0, "bike_id": "c95cbbf3df75afcd3af7876978cc474e", "fusion_lat": 0.0, "is_disabled": 0, "rental_uris": {"ios": "https://dc.lft.to/lastmile_qr_scan", "android": "https://dc.lft.to/lastmile_qr_scan"}}, {"name": "3937fa90887b7bf0ff859924bf2d62b3", "lon": -77.02792033333333, "lat": 38.91216633333333, "type": "electric_scooter", "fusion_lon": 0.0, "is_reserved": 0, "bike_id": "3937fa90887b7bf0ff859924bf2d62b3", "fusion_lat": 0.0, "is_disabled": 0, "rental_uris": {"ios": "https://dc.lft.to/lastmile_qr_scan", "android": "https://dc.lft.to/lastmile_qr_scan"}}, {"name": "4ebc6c8723e83b268683bbe0526dba69", "lon": -77.043284, "lat": 38.892221, "type": "electric_scooter", "fusion_lon": 0.0, "is_reserved": 0, "bike_id": "4ebc6c8723e83b268683bbe0526dba69", "fusion_lat": 0.0, "is_disabled": 0, "rental_uris": {"ios": "https://dc.lft.to/lastmile_qr_scan", "android": "https://dc.lft.to/lastmile_qr_scan"}}, {"name": "330426ca20aafbd1c49f752050ce4b54", "lon": -77.03549016666666, "lat": 38.934018, "type": "electric_bike", "fusion_lon": 0.0, "is_reserved": 0, "bike_id": "330426ca20aafbd1c49f752050ce4b54", "fusion_lat": 0.0, "is_disabled": 0, "rental_uris": {"ios": "https://dc.lft.to/lastmile_qr_scan", "android": "https://dc.lft.to/lastmile_qr_scan"}}, {"name": "0cbbdfc7802bd3cb0cfb5a250a83cc9a", "lon": -76.93748916666667, "lat": 38.890478, "type": "electric_scooter", "fusion_lon": 0.0, "is_reserved": 0, "bike_id": "0cbbdfc7802bd3cb0cfb5a250a83cc9a", "fusion_lat": 0.0, "is_disabled": 0, "rental_uris": {"ios": "https://dc.lft.to/lastmile_qr_scan", "android": "https://dc.lft.to/lastmile_qr_scan"}}, {"name": "6d9ad933ef32ccc6846c692b552d351e", "lon": -76.9850695, "lat": 38.853624333333336, "type": "electric_scooter", "fusion_lon": 0.0, "is_reserved": 0, "bike_id": "6d9ad933ef32ccc6846c692b552d351e", "fusion_lat": 0.0, "is_disabled": 0, "rental_uris": {"ios": "https://dc.lft.to/lastmile_qr_scan", "android": "https://dc.lft.to/lastmile_qr_scan"}}, {"name": "5913f03234ae8217982bbf28705cc094", "lon": -77.24483533333333, "lat": 38.881897, "type": "electric_bike", "fusion_lon": 0.0, "is_reserved": 0, "bike_id": "5913f03234ae8217982bbf28705cc094", "fusion_lat": 0.0, "is_disabled": 0, "rental_uris": {"ios": "https://dc.lft.to/lastmile_qr_scan", "android": "https://dc.lft.to/lastmile_qr_scan"}}, {"name": "61d8174f53eec9c9c26cc01fad6fa7e7", "lon": -77.037083, "lat": 38.916526833333336, "type": "electric_scooter", "fusion_lon": 0.0, "is_reserved": 0, "bike_id": "61d8174f53eec9c9c26cc01fad6fa7e7", "fusion_lat": 0.0, "is_disabled": 0, "rental_uris": {"ios": "https://dc.lft.to/lastmile_qr_scan", "android": "https://dc.lft.to/lastmile_qr_scan"}}, {"name": "c1d47a1735ddd488754bd9339ad84e3b", "lon": -77.04307366666667, "lat": 38.918746, "type": "electric_scooter", "fusion_lon": 0.0, "is_reserved": 0, "bike_id": "c1d47a1735ddd488754bd9339ad84e3b", "fusion_lat": 0.0, "is_disabled": 0, "rental_uris": {"ios": "https://dc.lft.to/lastmile_qr_scan", "android": "https://dc.lft.to/lastmile_qr_scan"}}, {"name": "94a2e3e59dbf99554f7a1dd29a6b6611", "lon": -77.0174605, "lat": 38.88330466666667, "type": "electric_scooter", "fusion_lon": 0.0, "is_reserved": 0, "bike_id": "94a2e3e59dbf99554f7a1dd29a6b6611", "fusion_lat": 0.0, "is_disabled": 0, "rental_uris": {"ios": "https://dc.lft.to/lastmile_qr_scan", "android": "https://dc.lft.to/lastmile_qr_scan"}}, {"name": "f9d6d17de10b25c6cba491f73ce3ee51", "lon": -77.01163883333334, "lat": 38.91694716666667, "type": "electric_scooter", "fusion_lon": 0.0, "is_reserved": 0, "bike_id": "f9d6d17de10b25c6cba491f73ce3ee51", "fusion_lat": 0.0, "is_disabled": 0, "rental_uris": {"ios": "https://dc.lft.to/lastmile_qr_scan", "android": "https://dc.lft.to/lastmile_qr_scan"}}, {"name": "52d686105bd1bff7d6ff7db232765f77", "lon": -76.99776833333334, "lat": 38.844274666666664, "type": "electric_scooter", "fusion_lon": 0.0, "is_reserved": 0, "bike_id": "52d686105bd1bff7d6ff7db232765f77", "fusion_lat": 0.0, "is_disabled": 0, "rental_uris": {"ios": "https://dc.lft.to/lastmile_qr_scan", "android": "https://dc.lft.to/lastmile_qr_scan"}}, {"name": "ee35098d8c4a9e8b82bc71312714f749", "lon": -77.038202, "lat": 38.91176183333334, "type": "electric_scooter", "fusion_lon": 0.0, "is_reserved": 0, "bike_id": "ee35098d8c4a9e8b82bc71312714f749", "fusion_lat": 0.0, "is_disabled": 0, "rental_uris": {"ios": "https://dc.lft.to/lastmile_qr_scan", "android": "https://dc.lft.to/lastmile_qr_scan"}}, {"name": "37e02a30ef606558f5e0228041fb7876", "lon": -77.03908583333333, "lat": 38.91827166666667, "type": "electric_scooter", "fusion_lon": 0.0, "is_reserved": 0, "bike_id": "37e02a30ef606558f5e0228041fb7876", "fusion_lat": 0.0, "is_disabled": 0, "rental_uris": {"ios": "https://dc.lft.to/lastmile_qr_scan", "android": "https://dc.lft.to/lastmile_qr_scan"}}, {"name": "652544cd42553637dc670de08db892ef", "lon": -77.0116905, "lat": 38.91562316666667, "type": "electric_scooter", "fusion_lon": 0.0, "is_reserved": 0, "bike_id": "652544cd42553637dc670de08db892ef", "fusion_lat": 0.0, "is_disabled": 0, "rental_uris": {"ios": "https://dc.lft.to/lastmile_qr_scan", "android": "https://dc.lft.to/lastmile_qr_scan"}}, {"name": "5243335fa5b2ca100cef1257a59fef12", "lon": -77.02254833333333, "lat": 38.923053833333334, "type": "electric_scooter", "fusion_lon": 0.0, "is_reserved": 0, "bike_id": "5243335fa5b2ca100cef1257a59fef12", "fusion_lat": 0.0, "is_disabled": 0, "rental_uris": {"ios": "https://dc.lft.to/lastmile_qr_scan", "android": "https://dc.lft.to/lastmile_qr_scan"}}, {"name": "a9a246f6968d85e478e2fde115753e97", "lon": -77.02896316666667, "lat": 38.91712833333333, "type": "electric_scooter", "fusion_lon": 0.0, "is_reserved": 0, "bike_id": "a9a246f6968d85e478e2fde115753e97", "fusion_lat": 0.0, "is_disabled": 0, "rental_uris": {"ios": "https://dc.lft.to/lastmile_qr_scan", "android": "https://dc.lft.to/lastmile_qr_scan"}}, {"name": "1a37bb2f7533c4d50e435ff865fba6dc", "lon": -77.00244716666667, "lat": 38.907498833333335, "type": "electric_scooter", "fusion_lon": 0.0, "is_reserved": 0, "bike_id": "1a37bb2f7533c4d50e435ff865fba6dc", "fusion_lat": 0.0, "is_disabled": 0, "rental_uris": {"ios": "https://dc.lft.to/lastmile_qr_scan", "android": "https://dc.lft.to/lastmile_qr_scan"}}, {"name": "a8f3652355237b629352e8dad93c108e", "lon": -77.03048666666666, "lat": 38.884078333333335, "type": "electric_scooter", "fusion_lon": 0.0, "is_reserved": 0, "bike_id": "a8f3652355237b629352e8dad93c108e", "fusion_lat": 0.0, "is_disabled": 0, "rental_uris": {"ios": "https://dc.lft.to/lastmile_qr_scan", "android": "https://dc.lft.to/lastmile_qr_scan"}}, {"name": "fe923fc78af87fc596f5b0fb1588de4d", "lon": -77.02802466666667, "lat": 38.96080583333333, "type": "electric_scooter", "fusion_lon": 0.0, "is_reserved": 0, "bike_id": "fe923fc78af87fc596f5b0fb1588de4d", "fusion_lat": 0.0, "is_disabled": 0, "rental_uris": {"ios": "https://dc.lft.to/lastmile_qr_scan", "android": "https://dc.lft.to/lastmile_qr_scan"}}, {"name": "1ea3ce968e4ab6730ef2c9d24463c877", "lon": -77.04687216666666, "lat": 38.921599666666665, "type": "electric_scooter", "fusion_lon": 0.0, "is_reserved": 0, "bike_id": "1ea3ce968e4ab6730ef2c9d24463c877", "fusion_lat": 0.0, "is_disabled": 0, "rental_uris": {"ios": "https://dc.lft.to/lastmile_qr_scan", "android": "https://dc.lft.to/lastmile_qr_scan"}}, {"name": "c81c3fa9c34ef2bc6a8c646c289b76e3", "lon": -77.05331866666667, "lat": 38.90000333333333, "type": "electric_scooter", "fusion_lon": 0.0, "is_reserved": 0, "bike_id": "c81c3fa9c34ef2bc6a8c646c289b76e3", "fusion_lat": 0.0, "is_disabled": 0, "rental_uris": {"ios": "https://dc.lft.to/lastmile_qr_scan", "android": "https://dc.lft.to/lastmile_qr_scan"}}, {"name": "0c86522dca3f7849c71e9745e6ad656b", "lon": -77.03636466666667, "lat": 38.903764333333335, "type": "electric_scooter", "fusion_lon": 0.0, "is_reserved": 0, "bike_id": "0c86522dca3f7849c71e9745e6ad656b", "fusion_lat": 0.0, "is_disabled": 0, "rental_uris": {"ios": "https://dc.lft.to/lastmile_qr_scan", "android": "https://dc.lft.to/lastmile_qr_scan"}}, {"name": "4ef79152cc08eadc99cdfc17f9ab2f54", "lon": -77.005926, "lat": 38.90575033333333, "type": "electric_scooter", "fusion_lon": 0.0, "is_reserved": 0, "bike_id": "4ef79152cc08eadc99cdfc17f9ab2f54", "fusion_lat": 0.0, "is_disabled": 0, "rental_uris": {"ios": "https://dc.lft.to/lastmile_qr_scan", "android": "https://dc.lft.to/lastmile_qr_scan"}}, {"name": "bc376b5f48477d82a04f359f9dffeea2", "lon": -77.02706966666666, "lat": 38.916681, "type": "electric_scooter", "fusion_lon": 0.0, "is_reserved": 0, "bike_id": "bc376b5f48477d82a04f359f9dffeea2", "fusion_lat": 0.0, "is_disabled": 0, "rental_uris": {"ios": "https://dc.lft.to/lastmile_qr_scan", "android": "https://dc.lft.to/lastmile_qr_scan"}}, {"name": "ea78160c2ca2e3e8ef0247f39ea5406f", "lon": -77.0428005, "lat": 38.9141065, "type": "electric_scooter", "fusion_lon": 0.0, "is_reserved": 0, "bike_id": "ea78160c2ca2e3e8ef0247f39ea5406f", "fusion_lat": 0.0, "is_disabled": 0, "rental_uris": {"ios": "https://dc.lft.to/lastmile_qr_scan", "android": "https://dc.lft.to/lastmile_qr_scan"}}, {"name": "35f2ac46601245192d53172876ecabe3", "lon": -77.10912216666667, "lat": 39.051998833333336, "type": "electric_bike", "fusion_lon": 0.0, "is_reserved": 0, "bike_id": "35f2ac46601245192d53172876ecabe3", "fusion_lat": 0.0, "is_disabled": 0, "rental_uris": {"ios": "https://dc.lft.to/lastmile_qr_scan", "android": "https://dc.lft.to/lastmile_qr_scan"}}, {"name": "ca7b435d264accd55a0fc34ce2a6e4e2", "lon": -77.0485695, "lat": 38.90951666666667, "type": "electric_scooter", "fusion_lon": 0.0, "is_reserved": 0, "bike_id": "ca7b435d264accd55a0fc34ce2a6e4e2", "fusion_lat": 0.0, "is_disabled": 0, "rental_uris": {"ios": "https://dc.lft.to/lastmile_qr_scan", "android": "https://dc.lft.to/lastmile_qr_scan"}}, {"name": "2f6ea46db4fda5282f658d441800142f", "lon": -77.0248405, "lat": 38.91922016666667, "type": "electric_bike", "fusion_lon": 0.0, "is_reserved": 0, "bike_id": "2f6ea46db4fda5282f658d441800142f", "fusion_lat": 0.0, "is_disabled": 0, "rental_uris": {"ios": "https://dc.lft.to/lastmile_qr_scan", "android": "https://dc.lft.to/lastmile_qr_scan"}}, {"name": "ff3f837bed804d30d71260c58c998753", "lon": -77.02388966666666, "lat": 38.909530833333335, "type": "electric_scooter", "fusion_lon": 0.0, "is_reserved": 0, "bike_id": "ff3f837bed804d30d71260c58c998753", "fusion_lat": 0.0, "is_disabled": 0, "rental_uris": {"ios": "https://dc.lft.to/lastmile_qr_scan", "android": "https://dc.lft.to/lastmile_qr_scan"}}, {"name": "d33690238992efe4e34b367e5dc1004f", "lon": -77.0181135, "lat": 38.919811, "type": "electric_scooter", "fusion_lon": 0.0, "is_reserved": 0, "bike_id": "d33690238992efe4e34b367e5dc1004f", "fusion_lat": 0.0, "is_disabled": 0, "rental_uris": {"ios": "https://dc.lft.to/lastmile_qr_scan", "android": "https://dc.lft.to/lastmile_qr_scan"}}, {"name": "aac4bbb19f13325499a9e917c33c7c34", "lon": -77.02459366666666, "lat": 38.9187485, "type": "electric_bike", "fusion_lon": 0.0, "is_reserved": 0, "bike_id": "aac4bbb19f13325499a9e917c33c7c34", "fusion_lat": 0.0, "is_disabled": 0, "rental_uris": {"ios": "https://dc.lft.to/lastmile_qr_scan", "android": "https://dc.lft.to/lastmile_qr_scan"}}, {"name": "eb9a71e7c430dd7325acbb41120ceb92", "lon": -77.04342566666666, "lat": 38.92345816666667, "type": "electric_scooter", "fusion_lon": 0.0, "is_reserved": 0, "bike_id": "eb9a71e7c430dd7325acbb41120ceb92", "fusion_lat": 0.0, "is_disabled": 0, "rental_uris": {"ios": "https://dc.lft.to/lastmile_qr_scan", "android": "https://dc.lft.to/lastmile_qr_scan"}}, {"name": "e8d2d87e489d2ab1ebf7530b8609a53d", "lon": -77.03288716666667, "lat": 38.95637133333334, "type": "electric_scooter", "fusion_lon": 0.0, "is_reserved": 0, "bike_id": "e8d2d87e489d2ab1ebf7530b8609a53d", "fusion_lat": 0.0, "is_disabled": 0, "rental_uris": {"ios": "https://dc.lft.to/lastmile_qr_scan", "android": "https://dc.lft.to/lastmile_qr_scan"}}, {"name": "d8c757947634b7660dc83ee7df23659d", "lon": -76.92996733333334, "lat": 38.901847833333335, "type": "electric_scooter", "fusion_lon": 0.0, "is_reserved": 0, "bike_id": "d8c757947634b7660dc83ee7df23659d", "fusion_lat": 0.0, "is_disabled": 0, "rental_uris": {"ios": "https://dc.lft.to/lastmile_qr_scan", "android": "https://dc.lft.to/lastmile_qr_scan"}}, {"name": "c8b0473c64f8c1b133e840aae18d9873", "lon": -77.04639966666667, "lat": 38.906730333333336, "type": "electric_scooter", "fusion_lon": 0.0, "is_reserved": 0, "bike_id": "c8b0473c64f8c1b133e840aae18d9873", "fusion_lat": 0.0, "is_disabled": 0, "rental_uris": {"ios": "https://dc.lft.to/lastmile_qr_scan", "android": "https://dc.lft.to/lastmile_qr_scan"}}, {"name": "17db64de5068c8f87068325aa9d28631", "lon": -77.0345155, "lat": 38.905894333333336, "type": "electric_scooter", "fusion_lon": 0.0, "is_reserved": 0, "bike_id": "17db64de5068c8f87068325aa9d28631", "fusion_lat": 0.0, "is_disabled": 0, "rental_uris": {"ios": "https://dc.lft.to/lastmile_qr_scan", "android": "https://dc.lft.to/lastmile_qr_scan"}}, {"name": "07683269e7a729212e14e042a3f1d6ef", "lon": -77.014184, "lat": 38.9279985, "type": "electric_scooter", "fusion_lon": 0.0, "is_reserved": 0, "bike_id": "07683269e7a729212e14e042a3f1d6ef", "fusion_lat": 0.0, "is_disabled": 0, "rental_uris": {"ios": "https://dc.lft.to/lastmile_qr_scan", "android": "https://dc.lft.to/lastmile_qr_scan"}}, {"name": "8f794f45f87ab9ebb2581e293c0bf161", "lon": -77.03537816666666, "lat": 38.923178166666666, "type": "electric_scooter", "fusion_lon": 0.0, "is_reserved": 0, "bike_id": "8f794f45f87ab9ebb2581e293c0bf161", "fusion_lat": 0.0, "is_disabled": 0, "rental_uris": {"ios": "https://dc.lft.to/lastmile_qr_scan", "android": "https://dc.lft.to/lastmile_qr_scan"}}, {"name": "e604e25a50db24679aab701fdfad0312", "lon": -77.006072, "lat": 38.89798233333333, "type": "electric_bike", "fusion_lon": 0.0, "is_reserved": 0, "bike_id": "e604e25a50db24679aab701fdfad0312", "fusion_lat": 0.0, "is_disabled": 0, "rental_uris": {"ios": "https://dc.lft.to/lastmile_qr_scan", "android": "https://dc.lft.to/lastmile_qr_scan"}}, {"name": "8fcc8e1873b18efff2b1b68d44d9cb26", "lon": -76.97297916666666, "lat": 38.903181333333336, "type": "electric_scooter", "fusion_lon": 0.0, "is_reserved": 0, "bike_id": "8fcc8e1873b18efff2b1b68d44d9cb26", "fusion_lat": 0.0, "is_disabled": 0, "rental_uris": {"ios": "https://dc.lft.to/lastmile_qr_scan", "android": "https://dc.lft.to/lastmile_qr_scan"}}, {"name": "4539a700edd31d77dfc21c4f80985db3", "lon": -76.9933235, "lat": 38.871412666666664, "type": "electric_scooter", "fusion_lon": 0.0, "is_reserved": 0, "bike_id": "4539a700edd31d77dfc21c4f80985db3", "fusion_lat": 0.0, "is_disabled": 0, "rental_uris": {"ios": "https://dc.lft.to/lastmile_qr_scan", "android": "https://dc.lft.to/lastmile_qr_scan"}}, {"name": "d51e5ee7190cbed680b95de35c59e3a4", "lon": -76.98861216666667, "lat": 38.95486533333333, "type": "electric_bike", "fusion_lon": 0.0, "is_reserved": 0, "bike_id": "d51e5ee7190cbed680b95de35c59e3a4", "fusion_lat": 0.0, "is_disabled": 0, "rental_uris": {"ios": "https://dc.lft.to/lastmile_qr_scan", "android": "https://dc.lft.to/lastmile_qr_scan"}}, {"name": "43ff8155e0af3aa255544a01102b3098", "lon": -77.01696016666666, "lat": 38.974979833333336, "type": "electric_scooter", "fusion_lon": 0.0, "is_reserved": 0, "bike_id": "43ff8155e0af3aa255544a01102b3098", "fusion_lat": 0.0, "is_disabled": 0, "rental_uris": {"ios": "https://dc.lft.to/lastmile_qr_scan", "android": "https://dc.lft.to/lastmile_qr_scan"}}, {"name": "9de299654165b6dd0a05211a34db11c5", "lon": -76.9479605, "lat": 38.89398383333333, "type": "electric_bike", "fusion_lon": 0.0, "is_reserved": 0, "bike_id": "9de299654165b6dd0a05211a34db11c5", "fusion_lat": 0.0, "is_disabled": 0, "rental_uris": {"ios": "https://dc.lft.to/lastmile_qr_scan", "android": "https://dc.lft.to/lastmile_qr_scan"}}, {"name": "746896ba88bb386d0ecf0175e9c3cbae", "lon": -77.03447333333334, "lat": 38.9097655, "type": "electric_scooter", "fusion_lon": 0.0, "is_reserved": 0, "bike_id": "746896ba88bb386d0ecf0175e9c3cbae", "fusion_lat": 0.0, "is_disabled": 0, "rental_uris": {"ios": "https://dc.lft.to/lastmile_qr_scan", "android": "https://dc.lft.to/lastmile_qr_scan"}}, {"name": "da536b7cf5182e674b74d1d008974590", "lon": -77.02603033333334, "lat": 38.931410666666665, "type": "electric_scooter", "fusion_lon": 0.0, "is_reserved": 0, "bike_id": "da536b7cf5182e674b74d1d008974590", "fusion_lat": 0.0, "is_disabled": 0, "rental_uris": {"ios": "https://dc.lft.to/lastmile_qr_scan", "android": "https://dc.lft.to/lastmile_qr_scan"}}, {"name": "09f9a4d1b36d31721b999b4cd7905a0a", "lon": -77.0334505, "lat": 38.920418166666664, "type": "electric_scooter", "fusion_lon": 0.0, "is_reserved": 0, "bike_id": "09f9a4d1b36d31721b999b4cd7905a0a", "fusion_lat": 0.0, "is_disabled": 0, "rental_uris": {"ios": "https://dc.lft.to/lastmile_qr_scan", "android": "https://dc.lft.to/lastmile_qr_scan"}}, {"name": "3de1c10d6217a19ac099af793a24c60a", "lon": -77.058198, "lat": 38.935595166666666, "type": "electric_scooter", "fusion_lon": 0.0, "is_reserved": 0, "bike_id": "3de1c10d6217a19ac099af793a24c60a", "fusion_lat": 0.0, "is_disabled": 0, "rental_uris": {"ios": "https://dc.lft.to/lastmile_qr_scan", "android": "https://dc.lft.to/lastmile_qr_scan"}}, {"name": "06658b4a3c0730075d645f7b224b9cd5", "lon": -77.02302433333334, "lat": 38.9274685, "type": "electric_scooter", "fusion_lon": 0.0, "is_reserved": 0, "bike_id": "06658b4a3c0730075d645f7b224b9cd5", "fusion_lat": 0.0, "is_disabled": 0, "rental_uris": {"ios": "https://dc.lft.to/lastmile_qr_scan", "android": "https://dc.lft.to/lastmile_qr_scan"}}, {"name": "0e2daba455a985b5cd3830555945ecfc", "lon": -77.02170016666666, "lat": 38.905600166666666, "type": "electric_scooter", "fusion_lon": 0.0, "is_reserved": 0, "bike_id": "0e2daba455a985b5cd3830555945ecfc", "fusion_lat": 0.0, "is_disabled": 0, "rental_uris": {"ios": "https://dc.lft.to/lastmile_qr_scan", "android": "https://dc.lft.to/lastmile_qr_scan"}}, {"name": "14ad7c33a6448c472050ee28637f3013", "lon": -77.0019335, "lat": 38.93678766666667, "type": "electric_bike", "fusion_lon": 0.0, "is_reserved": 0, "bike_id": "14ad7c33a6448c472050ee28637f3013", "fusion_lat": 0.0, "is_disabled": 0, "rental_uris": {"ios": "https://dc.lft.to/lastmile_qr_scan", "android": "https://dc.lft.to/lastmile_qr_scan"}}, {"name": "8da1982600cfdf4800f2b2abd5cc0393", "lon": -76.93752416666666, "lat": 38.89045133333333, "type": "electric_scooter", "fusion_lon": 0.0, "is_reserved": 0, "bike_id": "8da1982600cfdf4800f2b2abd5cc0393", "fusion_lat": 0.0, "is_disabled": 0, "rental_uris": {"ios": "https://dc.lft.to/lastmile_qr_scan", "android": "https://dc.lft.to/lastmile_qr_scan"}},