{"data": {"bikes": [{"is_disabled": 0, "fusion_lon": 0.0, "fusion_lat": 0.0, "lat": 38.920861, "type": "electric_scooter", "lon": -77.03491383333333, "bike_id": "da322cdf90a06d14f698776a85061d2f", "rental_uris": {"android": "https://dc.lft.to/lastmile_qr_scan", "ios": "https://dc.lft.to/lastmile_qr_scan"}, "name": "da322cdf90a06d14f698776a85061d2f", "is_reserved": 0}, {"is_disabled": 0, "fusion_lon": 0.0, "fusion_lat": 0.0, "lat": 38.924426833333335, "type": "electric_scooter", "lon": -77.02606616666667, "bike_id": "52ab153ed481228e07834fbca6f83298", "rental_uris": {"android": "https://dc.lft.to/lastmile_qr_scan", "ios": "https://dc.lft.to/lastmile_qr_scan"}, "name": "52ab153ed481228e07834fbca6f83298", "is_reserved": 0}, {"is_disabled": 0, "fusion_lon": 0.0, "fusion_lat": 0.0, "lat": 38.89746483333333, "type": "electric_scooter", "lon": -77.04810566666667, "bike_id": "5eefe6452022b0c6957ea5d52a66188a", "rental_uris": {"android": "https://dc.lft.to/lastmile_qr_scan", "ios": "https://dc.lft.to/lastmile_qr_scan"}, "name": "5eefe6452022b0c6957ea5d52a66188a", "is_reserved": 0}, {"is_disabled": 0, "fusion_lon": 0.0, "fusion_lat": 0.0, "lat": 38.90648216666666, "type": "electric_scooter", "lon": -77.0118655, "bike_id": "8d13686a0cae6353643e1cc8627cd11e", "rental_uris": {"android": "https://dc.lft.to/lastmile_qr_scan", "ios": "https://dc.lft.to/lastmile_qr_scan"}, "name": "8d13686a0cae6353643e1cc8627cd11e", "is_reserved": 0}, {"is_disabled": 0, "fusion_lon": 0.0, "fusion_lat": 0.0, "lat": 38.89534283333333, "type": "electric_scooter", "lon": -77.032138, "bike_id": "1988a6ef4008b5dfe7208c19a1802271", "rental_uris": {"android": "https://dc.lft.to/lastmile_qr_scan", "ios": "https://dc.lft.to/lastmile_qr_scan"}, "name": "1988a6ef4008b5dfe7208c19a1802271", "is_reserved": 0}, {"is_disabled": 0, "fusion_lon": 0.0, "fusion_lat": 0.0, "lat": 38.921148333333335, "type": "electric_scooter", "lon": -77.0438765, "bike_id": "e2c74e58f66a761d1bc706ef9f5bb229", "rental_uris": {"android": "https://dc.lft.to/lastmile_qr_scan", "ios": "https://dc.lft.to/lastmile_qr_scan"}, "name": "e2c74e58f66a761d1bc706ef9f5bb229", "is_reserved": 0}, {"is_disabled": 0, "fusion_lon": 0.0, "fusion_lat": 0.0, "lat": 38.9086505, "type": "electric_scooter", "lon": -77.03010983333333, "bike_id": "e265c68b874827c573120c620c900b83", "rental_uris": {"android": "https://dc.lft.to/lastmile_qr_scan", "ios": "https://dc.lft.to/lastmile_qr_scan"}, "name": "e265c68b874827c573120c620c900b83", "is_reserved": 0}, {"is_disabled": 0, "fusion_lon": 0.0, "fusion_lat": 0.0, "lat": 38.8461905, "type": "electric_scooter", "lon": -76.996301, "bike_id": "0571d3d09573f2b78f1b755d7f988db7", "rental_uris": {"android": "https://dc.lft.to/lastmile_qr_scan", "ios": "https://dc.lft.to/lastmile_qr_scan"}, "name": "0571d3d09573f2b78f1b755d7f988db7", "is_reserved": 0}, {"is_disabled": 0, "fusion_lon": 0.0, "fusion_lat": 0.0, "lat": 38.96734083333333, "type": "electric_scooter", "lon": -77.02763383333334, "bike_id": "1b155c3fbf3de65005db3328a1f2d07e", "rental_uris": {"android": "https://dc.lft.to/lastmile_qr_scan", "ios": "https://dc.lft.to/lastmile_qr_scan"}, "name": "1b155c3fbf3de65005db3328a1f2d07e", "is_reserved": 0}, {"is_disabled": 0, "fusion_lon": 0.0, "fusion_lat": 0.0, "lat": 38.9238205, "type": "electric_scooter", "lon": -77.029072, "bike_id": "13a057271488b9bffb75e989aed49dae", "rental_uris": {"android": "https://dc.lft.to/lastmile_qr_scan", "ios": "https://dc.lft.to/lastmile_qr_scan"}, "name": "13a057271488b9bffb75e989aed49dae", "is_reserved": 0}, {"is_disabled": 0, "fusion_lon": 0.0, "fusion_lat": 0.0, "lat": 38.902284, "type": "electric_scooter", "lon": -77.06172566666666, "bike_id": "1f6ea79b6e440f260cd34fb2d44857e4", "rental_uris": {"android": "https://dc.lft.to/lastmile_qr_scan", "ios": "https://dc.lft.to/lastmile_qr_scan"}, "name": "1f6ea79b6e440f260cd34fb2d44857e4", "is_reserved": 0}, {"is_disabled": 0, "fusion_lon": 0.0, "fusion_lat": 0.0, "lat": 38.90074716666667, "type": "electric_scooter", "lon": -77.01817616666666, "bike_id": "ba836a66ca95015cbf47d45ce9ab7278", "rental_uris": {"android": "https://dc.lft.to/lastmile_qr_scan", "ios": "https://dc.lft.to/lastmile_qr_scan"}, "name": "ba836a66ca95015cbf47d45ce9ab7278", "is_reserved": 0}, {"is_disabled": 0, "fusion_lon": 0.0, "fusion_lat": 0.0, "lat": 38.90745233333333, "type": "electric_scooter", "lon": -77.00760066666666, "bike_id": "cff26012a7402ed544245a4cf5916b17", "rental_uris": {"android": "https://dc.lft.to/lastmile_qr_scan", "ios": "https://dc.lft.to/lastmile_qr_scan"}, "name": "cff26012a7402ed544245a4cf5916b17", "is_reserved": 0}, {"is_disabled": 0, "fusion_lon": 0.0, "fusion_lat": 0.0, "lat": 38.92973, "type": "electric_scooter", "lon": -77.02070633333334, "bike_id": "d90dabe89667711baffa72835d35b0cb", "rental_uris": {"android": "https://dc.lft.to/lastmile_qr_scan", "ios": "https://dc.lft.to/lastmile_qr_scan"}, "name": "d90dabe89667711baffa72835d35b0cb", "is_reserved": 0}, {"is_disabled": 0, "fusion_lon": 0.0, "fusion_lat": 0.0, "lat": 38.92754883333333, "type": "electric_scooter", "lon": -77.01616716666666, "bike_id": "1b5cb5ed1a19e8f33ede9ef51142b274", "rental_uris": {"android": "https://dc.lft.to/lastmile_qr_scan", "ios": "https://dc.lft.to/lastmile_qr_scan"}, "name": "1b5cb5ed1a19e8f33ede9ef51142b274", "is_reserved": 0}, {"is_disabled": 0, "fusion_lon": 0.0, "fusion_lat": 0.0, "lat": 38.942032833333336, "type": "electric_scooter", "lon": -77.02592766666666, "bike_id": "e576dd6d6359e2b1830e95d9f17eefc4", "rental_uris": {"android": "https://dc.lft.to/lastmile_qr_scan", "ios": "https://dc.lft.to/lastmile_qr_scan"}, "name": "e576dd6d6359e2b1830e95d9f17eefc4", "is_reserved": 0}, {"is_disabled": 0, "fusion_lon": 0.0, "fusion_lat": 0.0, "lat": 38.96419733333333, "type": "electric_scooter", "lon": -77.075309, "bike_id": "461fd2ddbc8c283da7959821f3c99aca", "rental_uris": {"android": "https://dc.lft.to/lastmile_qr_scan", "ios": "https://dc.lft.to/lastmile_qr_scan"}, "name": "461fd2ddbc8c283da7959821f3c99aca", "is_reserved": 0}, {"is_disabled": 0, "fusion_lon": 0.0, "fusion_lat": 0.0, "lat": 38.917883, "type": "electric_scooter", "lon": -77.03449983333333, "bike_id": "8ac9b56e3cb73de18dc2d9e70a359c89", "rental_uris": {"android": "https://dc.lft.to/lastmile_qr_scan", "ios": "https://dc.lft.to/lastmile_qr_scan"}, "name": "8ac9b56e3cb73de18dc2d9e70a359c89", "is_reserved": 0}, {"is_disabled": 0, "fusion_lon": 0.0, "fusion_lat": 0.0, "lat": 38.92198783333333, "type": "electric_scooter", "lon": -76.9970395, "bike_id": "03bdb0817969f1354c71d366087feb75", "rental_uris": {"android": "https://dc.lft.to/lastmile_qr_scan", "ios": "https://dc.lft.to/lastmile_qr_scan"}, "name": "03bdb0817969f1354c71d366087feb75", "is_reserved": 0}, {"is_disabled": 0, "fusion_lon": 0.0, "fusion_lat": 0.0, "lat": 38.906837, "type": "electric_scooter", "lon": -76.97998583333333, "bike_id": "be1b7774d983c29e513c78706782d17b", "rental_uris": {"android": "https://dc.lft.to/lastmile_qr_scan", "ios": "https://dc.lft.to/lastmile_qr_scan"}, "name": "be1b7774d983c29e513c78706782d17b", "is_reserved": 0}, {"is_disabled": 0, "fusion_lon": 0.0, "fusion_lat": 0.0, "lat": 38.910365666666664, "type": "electric_scooter", "lon": -77.04009916666666, "bike_id": "483ae2abcee3c22f23cc195084518367", "rental_uris": {"android": "https://dc.lft.to/lastmile_qr_scan", "ios": "https://dc.lft.to/lastmile_qr_scan"}, "name": "483ae2abcee3c22f23cc195084518367", "is_reserved": 0}, {"is_disabled": 0, "fusion_lon": 0.0, "fusion_lat": 0.0, "lat": 38.858072666666665, "type": "electric_scooter", "lon": -76.986544, "bike_id": "ef980658d4263741e3529f0c559fff3e", "rental_uris": {"android": "https://dc.lft.to/lastmile_qr_scan", "ios": "https://dc.lft.to/lastmile_qr_scan"}, "name": "ef980658d4263741e3529f0c559fff3e", "is_reserved": 0}, {"is_disabled": 0, "fusion_lon": 0.0, "fusion_lat": 0.0, "lat": 38.916016, "type": "electric_scooter", "lon": -77.02348666666667, "bike_id": "8ec4382f51bb346f7f4e627115b6fcd3", "rental_uris": {"android": "https://dc.lft.to/lastmile_qr_scan", "ios": "https://dc.lft.to/lastmile_qr_scan"}, "name": "8ec4382f51bb346f7f4e627115b6fcd3", "is_reserved": 0}, {"is_disabled": 0, "fusion_lon": 0.0, "fusion_lat": 0.0, "lat": 38.88583166666667, "type": "electric_scooter", "lon": -77.01227083333333, "bike_id": "badf53b9bed61e1d0adec22e6afe2f69", "rental_uris": {"android": "https://dc.lft.to/lastmile_qr_scan", "ios": "https://dc.lft.to/lastmile_qr_scan"}, "name": "badf53b9bed61e1d0adec22e6afe2f69", "is_reserved": 0}, {"is_disabled": 0, "fusion_lon": 0.0, "fusion_lat": 0.0, "lat": 38.916517166666665, "type": "electric_scooter", "lon": -77.04779216666667, "bike_id": "af0b1b70160e35e15ea0b0b6bb78c0e2", "rental_uris": {"android": "https://dc.lft.to/lastmile_qr_scan", "ios": "https://dc.lft.to/lastmile_qr_scan"}, "name": "af0b1b70160e35e15ea0b0b6bb78c0e2", "is_reserved": 0}, {"is_disabled": 0, "fusion_lon": 0.0, "fusion_lat": 0.0, "lat": 38.92056983333333, "type": "electric_scooter", "lon": -76.99882733333334, "bike_id": "cf656ba4475b5ba3d6f751f228c677ca", "rental_uris": {"android": "https://dc.lft.to/lastmile_qr_scan", "ios": "https://dc.lft.to/lastmile_qr_scan"}, "name": "cf656ba4475b5ba3d6f751f228c677ca", "is_reserved": 0}, {"is_disabled": 0, "fusion_lon": 0.0, "fusion_lat": 0.0, "lat": 38.928814, "type": "electric_scooter", "lon": -77.03289033333333, "bike_id": "9566bf20c20a06b3809f86b714236776", "rental_uris": {"android": "https://dc.lft.to/lastmile_qr_scan", "ios": "https://dc.lft.to/lastmile_qr_scan"}, "name": "9566bf20c20a06b3809f86b714236776", "is_reserved": 0}, {"is_disabled": 0, "fusion_lon": 0.0, "fusion_lat": 0.0, "lat": 38.92403483333333, "type": "electric_scooter", "lon": -77.02543666666666, "bike_id": "eac121ab5bf43276ec5b8ef2143f218a", "rental_uris": {"android": "https://dc.lft.to/lastmile_qr_scan", "ios": "https://dc.lft.to/lastmile_qr_scan"}, "name": "eac121ab5bf43276ec5b8ef2143f218a", "is_reserved": 0}, {"is_disabled": 0, "fusion_lon": 0.0, "fusion_lat": 0.0, "lat": 38.9163305, "type": "electric_scooter", "lon": -77.04624016666666, "bike_id": "3fbba650188d4cc11c3d466cf5a8eda4", "rental_uris": {"android": "https://dc.lft.to/lastmile_qr_scan", "ios": "https://dc.lft.to/lastmile_qr_scan"}, "name": "3fbba650188d4cc11c3d466cf5a8eda4", "is_reserved": 0}, {"is_disabled": 0, "fusion_lon": 0.0, "fusion_lat": 0.0, "lat": 38.934941333333335, "type": "electric_scooter", "lon": -77.027275, "bike_id": "9d12d76a6e2b8a8f23e8b3dba264baac", "rental_uris": {"android": "https://dc.lft.to/lastmile_qr_scan", "ios": "https://dc.lft.to/lastmile_qr_scan"}, "name": "9d12d76a6e2b8a8f23e8b3dba264baac", "is_reserved": 0}, {"is_disabled": 0, "fusion_lon": 0.0, "fusion_lat": 0.0, "lat": 38.913663166666666, "type": "electric_scooter", "lon": -77.0416945, "bike_id": "d2d03764fa6ca241b6a92f84183533f9", "rental_uris": {"android": "https://dc.lft.to/lastmile_qr_scan", "ios": "https://dc.lft.to/lastmile_qr_scan"}, "name": "d2d03764fa6ca241b6a92f84183533f9", "is_reserved": 0}, {"is_disabled": 0, "fusion_lon": 0.0, "fusion_lat": 0.0, "lat": 38.903341166666664, "type": "electric_bike", "lon": -76.97534383333333, "bike_id": "51e700a27878781ef4b98e8ad41ee955", "rental_uris": {"android": "https://dc.lft.to/lastmile_qr_scan", "ios": "https://dc.lft.to/lastmile_qr_scan"}, "name": "51e700a27878781ef4b98e8ad41ee955", "is_reserved": 0}, {"is_disabled": 0, "fusion_lon": 0.0, "fusion_lat": 0.0, "lat": 38.8580995, "type": "electric_scooter", "lon": -76.98964166666667, "bike_id": "9571fd3a1a57c222f39fdcf737478213", "rental_uris": {"android": "https://dc.lft.to/lastmile_qr_scan", "ios": "https://dc.lft.to/lastmile_qr_scan"}, "name": "9571fd3a1a57c222f39fdcf737478213", "is_reserved": 0}, {"is_disabled": 0, "fusion_lon": 0.0, "fusion_lat": 0.0, "lat": 38.89297633333334, "type": "electric_scooter", "lon": -77.021276, "bike_id": "db23d0f19cd5585725a7a87696c1e55d", "rental_uris": {"android": "https://dc.lft.to/lastmile_qr_scan", "ios": "https://dc.lft.to/lastmile_qr_scan"}, "name": "db23d0f19cd5585725a7a87696c1e55d", "is_reserved": 0}, {"is_disabled": 0, "fusion_lon": 0.0, "fusion_lat": 0.0, "lat": 38.94983933333334, "type": "electric_scooter", "lon": -77.0270205, "bike_id": "21a51bb568c517d0fa23f32e4a792990", "rental_uris": {"android": "https://dc.lft.to/lastmile_qr_scan", "ios": "https://dc.lft.to/lastmile_qr_scan"}, "name": "21a51bb568c517d0fa23f32e4a792990", "is_reserved": 0}, {"is_disabled": 0, "fusion_lon": 0.0, "fusion_lat": 0.0, "lat": 38.8651935, "type": "electric_scooter", "lon": -76.97335083333333, "bike_id": "b09ada122020aa8f022f02806b4106b2", "rental_uris": {"android": "https://dc.lft.to/lastmile_qr_scan", "ios": "https://dc.lft.to/lastmile_qr_scan"}, "name": "b09ada122020aa8f022f02806b4106b2", "is_reserved": 0}, {"is_disabled": 0, "fusion_lon": 0.0, "fusion_lat": 0.0, "lat": 38.94285283333333, "type": "electric_scooter", "lon": -77.03631016666667, "bike_id": "de174b4cec3c2bcb27978e43f8c551eb", "rental_uris": {"android": "https://dc.lft.to/lastmile_qr_scan", "ios": "https://dc.lft.to/lastmile_qr_scan"}, "name": "de174b4cec3c2bcb27978e43f8c551eb", "is_reserved": 0}, {"is_disabled": 0, "fusion_lon": 0.0, "fusion_lat": 0.0, "lat": 38.956198, "type": "electric_scooter", "lon": -77.02761283333334, "bike_id": "9cb2d9d1fa6d772226d2e16b5a61ff07", "rental_uris": {"android": "https://dc.lft.to/lastmile_qr_scan", "ios": "https://dc.lft.to/lastmile_qr_scan"}, "name": "9cb2d9d1fa6d772226d2e16b5a61ff07", "is_reserved": 0}, {"is_disabled": 0, "fusion_lon": 0.0, "fusion_lat": 0.0, "lat": 38.91694783333333, "type": "electric_scooter", "lon": -77.02851783333334, "bike_id": "f264ae833219b4800abd2c2238e46eeb", "rental_uris": {"android": "https://dc.lft.to/lastmile_qr_scan", "ios": "https://dc.lft.to/lastmile_qr_scan"}, "name": "f264ae833219b4800abd2c2238e46eeb", "is_reserved": 0}, {"is_disabled": 0, "fusion_lon": 0.0, "fusion_lat": 0.0, "lat": 38.89483233333333, "type": "electric_scooter", "lon": -76.995195, "bike_id": "a8daa38031bfbaed90b7715c5b1452a4", "rental_uris": {"android": "https://dc.lft.to/lastmile_qr_scan", "ios": "https://dc.lft.to/lastmile_qr_scan"}, "name": "a8daa38031bfbaed90b7715c5b1452a4", "is_reserved": 0}, {"is_disabled": 0, "fusion_lon": 0.0, "fusion_lat": 0.0, "lat": 38.92117116666667, "type": "electric_scooter", "lon": -77.02560683333333, "bike_id": "7ab957861018ff64f88ac53650a28e44", "rental_uris": {"android": "https://dc.lft.to/lastmile_qr_scan", "ios": "https://dc.lft.to/lastmile_qr_scan"}, "name": "7ab957861018ff64f88ac53650a28e44", "is_reserved": 0}, {"is_disabled": 0, "fusion_lon": 0.0, "fusion_lat": 0.0, "lat": 38.9423305, "type": "electric_scooter", "lon": -77.02158333333334, "bike_id": "0f6f6f7d5181e72b23f358cbfdf74521", "rental_uris": {"android": "https://dc.lft.to/lastmile_qr_scan", "ios": "https://dc.lft.to/lastmile_qr_scan"}, "name": "0f6f6f7d5181e72b23f358cbfdf74521", "is_reserved": 0}, {"is_disabled": 0, "fusion_lon": 0.0, "fusion_lat": 0.0, "lat": 38.8874465, "type": "electric_scooter", "lon": -77.01736383333333, "bike_id": "5bb6a6647c88ce0d010b1be1e0d83d28", "rental_uris": {"android": "https://dc.lft.to/lastmile_qr_scan", "ios": "https://dc.lft.to/lastmile_qr_scan"}, "name": "5bb6a6647c88ce0d010b1be1e0d83d28", "is_reserved": 0}, {"is_disabled": 0, "fusion_lon": 0.0, "fusion_lat": 0.0, "lat": 38.96219116666666, "type": "electric_scooter", "lon": -77.028045, "bike_id": "6120559a21ffe9290012982c6f7ab673", "rental_uris": {"android": "https://dc.lft.to/lastmile_qr_scan", "ios": "https://dc.lft.to/lastmile_qr_scan"}, "name": "6120559a21ffe9290012982c6f7ab673", "is_reserved": 0}, {"is_disabled": 0, "fusion_lon": 0.0, "fusion_lat": 0.0, "lat": 38.93282, "type": "electric_scooter", "lon": -76.97424416666667, "bike_id": "d694c6e6da5a4e74be324497c55f02ce", "rental_uris": {"android": "https://dc.lft.to/lastmile_qr_scan", "ios": "https://dc.lft.to/lastmile_qr_scan"}, "name": "d694c6e6da5a4e74be324497c55f02ce", "is_reserved": 0}, {"is_disabled": 0, "fusion_lon": 0.0, "fusion_lat": 0.0, "lat": 38.905297833333336, "type": "electric_scooter", "lon": -77.04986583333333, "bike_id": "7c0301ba33ca997dc8a834445e915982", "rental_uris": {"android": "https://dc.lft.to/lastmile_qr_scan", "ios": "https://dc.lft.to/lastmile_qr_scan"}, "name": "7c0301ba33ca997dc8a834445e915982", "is_reserved": 0}, {"is_disabled": 0, "fusion_lon": 0.0, "fusion_lat": 0.0, "lat": 38.9320015, "type": "electric_scooter", "lon": -77.02347333333333, "bike_id": "89870cf78aa74e3d086d7571b37f60f6", "rental_uris": {"android": "https://dc.lft.to/lastmile_qr_scan", "ios": "https://dc.lft.to/lastmile_qr_scan"}, "name": "89870cf78aa74e3d086d7571b37f60f6", "is_reserved": 0}, {"is_disabled": 0, "fusion_lon": 0.0, "fusion_lat": 0.0, "lat": 38.8814325, "type": "electric_scooter", "lon": -76.9916575, "bike_id": "593a2c9c33962df8a92157d3acf6b961", "rental_uris": {"android": "https://dc.lft.to/lastmile_qr_scan", "ios": "https://dc.lft.to/lastmile_qr_scan"}, "name": "593a2c9c33962df8a92157d3acf6b961", "is_reserved": 0}, {"is_disabled": 0, "fusion_lon": 0.0, "fusion_lat": 0.0, "lat": 38.92483216666667, "type": "electric_scooter", "lon": -77.027268, "bike_id": "d43ccce6c53ac7caa0b34f92a524e0b9", "rental_uris": {"android": "https://dc.lft.to/lastmile_qr_scan", "ios": "https://dc.lft.to/lastmile_qr_scan"}, "name": "d43ccce6c53ac7caa0b34f92a524e0b9", "is_reserved": 0}, {"is_disabled": 0, "fusion_lon": 0.0, "fusion_lat": 0.0, "lat": 38.9068505, "type": "electric_bike", "lon": -77.03641966666666, "bike_id": "24db24711ceab03cc79139d7f88065c9", "rental_uris": {"android": "https://dc.lft.to/lastmile_qr_scan", "ios": "https://dc.lft.to/lastmile_qr_scan"}, "name": "24db24711ceab03cc79139d7f88065c9", "is_reserved": 0}, {"is_disabled": 0, "fusion_lon": 0.0, "fusion_lat": 0.0, "lat": 38.887678, "type": "electric_scooter", "lon": -77.01544633333333, "bike_id": "5f1c1c4c8513d4b50c0185ea616fc799", "rental_uris": {"android": "https://dc.lft.to/lastmile_qr_scan", "ios": "https://dc.lft.to/lastmile_qr_scan"}, "name": "5f1c1c4c8513d4b50c0185ea616fc799", "is_reserved": 0}, {"is_disabled": 0, "fusion_lon": 0.0, "fusion_lat": 0.0, "lat": 38.90574, "type": "electric_scooter", "lon": -77.03360066666667, "bike_id": "238b434f6e59c72c0dcf4c8fc4597e28", "rental_uris": {"android": "https://dc.lft.to/lastmile_qr_scan", "ios": "https://dc.lft.to/lastmile_qr_scan"}, "name": "238b434f6e59c72c0dcf4c8fc4597e28", "is_reserved": 0}, {"is_disabled": 0, "fusion_lon": 0.0, "fusion_lat": 0.0, "lat": 38.897169, "type": "electric_scooter", "lon": -77.02053283333333, "bike_id": "f4633c1b370f205e979a9c938966d0b6", "rental_uris": {"android": "https://dc.lft.to/lastmile_qr_scan", "ios": "https://dc.lft.to/lastmile_qr_scan"}, "name": "f4633c1b370f205e979a9c938966d0b6", "is_reserved": 0}, {"is_disabled": 0, "fusion_lon": 0.0, "fusion_lat": 0.0, "lat": 38.89521633333333, "type": "electric_scooter", "lon": -77.02196466666666, "bike_id": "4e815e2615dba04410fdd4e6448124ed", "rental_uris": {"android": "https://dc.lft.to/lastmile_qr_scan", "ios": "https://dc.lft.to/lastmile_qr_scan"}, "name": "4e815e2615dba04410fdd4e6448124ed", "is_reserved": 0}, {"is_disabled": 0, "fusion_lon": 0.0, "fusion_lat": 0.0, "lat": 38.888703, "type": "electric_scooter", "lon": -76.97733683333334, "bike_id": "fa7474382f4d363483b236c7b1997359", "rental_uris": {"android": "https://dc.lft.to/lastmile_qr_scan", "ios": "https://dc.lft.to/lastmile_qr_scan"}, "name": "fa7474382f4d363483b236c7b1997359", "is_reserved": 0}, {"is_disabled": 0, "fusion_lon": 0.0, "fusion_lat": 0.0, "lat": 38.893289, "type": "electric_scooter", "lon": -77.01959783333334, "bike_id": "9780d649edb8cb6d1ed47df0b8280b5b", "rental_uris": {"android": "https://dc.lft.to/lastmile_qr_scan", "ios": "https://dc.lft.to/lastmile_qr_scan"}, "name": "9780d649edb8cb6d1ed47df0b8280b5b", "is_reserved": 0}, {"is_disabled": 0, "fusion_lon": 0.0, "fusion_lat": 0.0, "lat": 38.928664166666664, "type": "electric_scooter", "lon": -77.03329783333334, "bike_id": "76c6172e4f43905a476cab3c35f28919", "rental_uris": {"android": "https://dc.lft.to/lastmile_qr_scan", "ios": "https://dc.lft.to/lastmile_qr_scan"}, "name": "76c6172e4f43905a476cab3c35f28919", "is_reserved": 0}, {"is_disabled": 0, "fusion_lon": 0.0, "fusion_lat": 0.0, "lat": 38.90135016666667, "type": "electric_scooter", "lon": -77.04162683333334, "bike_id": "a7fea9b1448a4aa4056f65f3c5263759", "rental_uris": {"android": "https://dc.lft.to/lastmile_qr_scan", "ios": "https://dc.lft.to/lastmile_qr_scan"}, "name": "a7fea9b1448a4aa4056f65f3c5263759", "is_reserved": 0}, {"is_disabled": 0, "fusion_lon": 0.0, "fusion_lat": 0.0, "lat": 38.827298, "type": "electric_bike", "lon": -77.00861583333334, "bike_id": "53fde93ea92191c1db38e5e9c93692f8", "rental_uris": {"android": "https://dc.lft.to/lastmile_qr_scan", "ios": "https://dc.lft.to/lastmile_qr_scan"}, "name": "53fde93ea92191c1db38e5e9c93692f8", "is_reserved": 0}, {"is_disabled": 0, "fusion_lon": 0.0, "fusion_lat": 0.0, "lat": 38.899755, "type": "electric_scooter", "lon": -77.03353966666667, "bike_id": "e71b8ff006dc764a0b70cc72511d5361", "rental_uris": {"android": "https://dc.lft.to/lastmile_qr_scan", "ios": "https://dc.lft.to/lastmile_qr_scan"}, "name": "e71b8ff006dc764a0b70cc72511d5361", "is_reserved": 0}, {"is_disabled": 0, "fusion_lon": 0.0, "fusion_lat": 0.0, "lat": 38.907455, "type": "electric_scooter", "lon": -77.03451366666667, "bike_id": "e0522dd4870fb7abbf13b6bcca52d584", "rental_uris": {"android": "https://dc.lft.to/lastmile_qr_scan", "ios": "https://dc.lft.to/lastmile_qr_scan"}, "name": "e0522dd4870fb7abbf13b6bcca52d584", "is_reserved": 0}, {"is_disabled": 0, "fusion_lon": 0.0, "fusion_lat": 0.0, "lat": 38.831221166666666, "type": "electric_bike", "lon": -77.04323416666666, "bike_id": "0588465a502b3779e85599c60fa5ff1e", "rental_uris": {"android": "https://dc.lft.to/lastmile_qr_scan", "ios": "https://dc.lft.to/lastmile_qr_scan"}, "name": "0588465a502b3779e85599c60fa5ff1e", "is_reserved": 0}, {"is_disabled": 0, "fusion_lon": 0.0, "fusion_lat": 0.0, "lat": 38.919717166666665, "type": "electric_scooter", "lon": -77.04182833333333, "bike_id": "47f3a80730bf2748813fbaa47fe032a3", "rental_uris": {"android": "https://dc.lft.to/lastmile_qr_scan", "ios": "https://dc.lft.to/lastmile_qr_scan"}, "name": "47f3a80730bf2748813fbaa47fe032a3", "is_reserved": 0}, {"is_disabled": 0, "fusion_lon": 0.0, "fusion_lat": 0.0, "lat": 38.902681333333334, "type": "electric_scooter", "lon": -77.01962283333333, "bike_id": "197ed6f5a634dcd696a3520a935d4056", "rental_uris": {"android": "https://dc.lft.to/lastmile_qr_scan", "ios": "https://dc.lft.to/lastmile_qr_scan"}, "name": "197ed6f5a634dcd696a3520a935d4056", "is_reserved": 0}, {"is_disabled": 0, "fusion_lon": 0.0, "fusion_lat": 0.0, "lat": 38.90008533333334, "type": "electric_scooter", "lon": -77.0221085, "bike_id": "f24af4ba6b24ac540edaa21786b54180", "rental_uris": {"android": "https://dc.lft.to/lastmile_qr_scan", "ios": "https://dc.lft.to/lastmile_qr_scan"}, "name": "f24af4ba6b24ac540edaa21786b54180", "is_reserved": 0}, {"is_disabled": 0, "fusion_lon": 0.0, "fusion_lat": 0.0, "lat": 38.90156366666667, "type": "electric_scooter", "lon": -77.04155516666667, "bike_id": "1883960c78c9fafe2c6d38de5af03ad2", "rental_uris": {"android": "https://dc.lft.to/lastmile_qr_scan", "ios": "https://dc.lft.to/lastmile_qr_scan"}, "name": "1883960c78c9fafe2c6d38de5af03ad2", "is_reserved": 0}, {"is_disabled": 0, "fusion_lon": 0.0, "fusion_lat": 0.0, "lat": 38.85070416666667, "type": "electric_bike", "lon": -76.97330733333334, "bike_id": "a354d795c048ee562e56a8d0fb0d4479", "rental_uris": {"android": "https://dc.lft.to/lastmile_qr_scan", "ios": "https://dc.lft.to/lastmile_qr_scan"}, "name": "a354d795c048ee562e56a8d0fb0d4479", "is_reserved": 0}, {"is_disabled": 0, "fusion_lon": 0.0, "fusion_lat": 0.0, "lat": 38.90376333333333, "type": "electric_scooter", "lon": -77.03478933333334, "bike_id": "4bb72556554088577be23ad32a79c796", "rental_uris": {"android": "https://dc.lft.to/lastmile_qr_scan", "ios": "https://dc.lft.to/lastmile_qr_scan"}, "name": "4bb72556554088577be23ad32a79c796", "is_reserved": 0}, {"is_disabled": 0, "fusion_lon": 0.0, "fusion_lat": 0.0, "lat": 38.909539, "type": "electric_bike", "lon": -76.99759333333333, "bike_id": "be65e41706f278dbb0e8f67ff6e24144", "rental_uris": {"android": "https://dc.lft.to/lastmile_qr_scan", "ios": "https://dc.lft.to/lastmile_qr_scan"}, "name": "be65e41706f278dbb0e8f67ff6e24144", "is_reserved": 0}, {"is_disabled": 0, "fusion_lon": 0.0, "fusion_lat": 0.0, "lat": 38.91394533333333, "type": "electric_scooter", "lon": -77.03848733333334, "bike_id": "3a753ae82a0ee9d83a64ecf8b914a7fc", "rental_uris": {"android": "https://dc.lft.to/lastmile_qr_scan", "ios": "https://dc.lft.to/lastmile_qr_scan"}, "name": "3a753ae82a0ee9d83a64ecf8b914a7fc", "is_reserved": 0}, {"is_disabled": 0, "fusion_lon": 0.0, "fusion_lat": 0.0, "lat": 38.896069833333335, "type": "electric_scooter", "lon": -77.01119283333334, "bike_id": "1d7837f661c69b00ed14734b86c39599", "rental_uris": {"android": "https://dc.lft.to/lastmile_qr_scan", "ios": "https://dc.lft.to/lastmile_qr_scan"}, "name": "1d7837f661c69b00ed14734b86c39599", "is_reserved": 0}, {"is_disabled": 0, "fusion_lon": 0.0, "fusion_lat": 0.0, "lat": 38.905235, "type": "electric_scooter", "lon": -77.0067965, "bike_id": "66a6a8d4a8d63e8840d1172f2400d71f", "rental_uris": {"android": "https://dc.lft.to/lastmile_qr_scan", "ios": "https://dc.lft.to/lastmile_qr_scan"}, "name": "66a6a8d4a8d63e8840d1172f2400d71f", "is_reserved": 0}, {"is_disabled": 0, "fusion_lon": 0.0, "fusion_lat": 0.0, "lat": 38.9563345, "type": "electric_scooter", "lon": -77.029783, "bike_id": "fec6e92c090d9c42afcb3c0fd3c8f45b", "rental_uris": {"android": "https://dc.lft.to/lastmile_qr_scan", "ios": "https://dc.lft.to/lastmile_qr_scan"}, "name": "fec6e92c090d9c42afcb3c0fd3c8f45b", "is_reserved": 0}, {"is_disabled": 0, "fusion_lon": 0.0, "fusion_lat": 0.0, "lat": 38.90553883333333, "type": "electric_scooter", "lon": -77.0512305, "bike_id": "6f3c072046d9e0a03ffb8751fb8b239b", "rental_uris": {"android": "https://dc.lft.to/lastmile_qr_scan", "ios": "https://dc.lft.to/lastmile_qr_scan"}, "name": "6f3c072046d9e0a03ffb8751fb8b239b", "is_reserved": 0}, {"is_disabled": 0, "fusion_lon": 0.0, "fusion_lat": 0.0, "lat": 38.927274833333335, "type": "electric_bike", "lon": -77.03053716666666, "bike_id": "4582b3536caa84b95156c1ba3690542c", "rental_uris": {"android": "https://dc.lft.to/lastmile_qr_scan", "ios": "https://dc.lft.to/lastmile_qr_scan"}, "name": "4582b3536caa84b95156c1ba3690542c", "is_reserved": 0}, {"is_disabled": 0, "fusion_lon": 0.0, "fusion_lat": 0.0, "lat": 38.95201, "type": "electric_bike", "lon": -77.02373666666666, "bike_id": "a8ebd2e8e0ec2711beec1fb300cadf61", "rental_uris": {"android": "https://dc.lft.to/lastmile_qr_scan", "ios": "https://dc.lft.to/lastmile_qr_scan"}, "name": "a8ebd2e8e0ec2711beec1fb300cadf61", "is_reserved": 0}, {"is_disabled": 0, "fusion_lon": 0.0, "fusion_lat": 0.0, "lat": 38.9046005, "type": "electric_scooter", "lon": -77.043667, "bike_id": "017213abf3e0f77df88b868516518acf", "rental_uris": {"android": "https://dc.lft.to/lastmile_qr_scan", "ios": "https://dc.lft.to/lastmile_qr_scan"}, "name": "017213abf3e0f77df88b868516518acf", "is_reserved": 0}, {"is_disabled": 0, "fusion_lon": 0.0, "fusion_lat": 0.0, "lat": 38.910389333333335, "type": "electric_scooter", "lon": -77.01473516666667, "bike_id": "2e81ad47963c053e02e8f07396b3b1cf", "rental_uris": {"android": "https://dc.lft.to/lastmile_qr_scan", "ios": "https://dc.lft.to/lastmile_qr_scan"}, "name": "2e81ad47963c053e02e8f07396b3b1cf", "is_reserved": 0}, {"is_disabled": 0, "fusion_lon": 0.0, "fusion_lat": 0.0, "lat": 38.8957555, "type": "electric_scooter", "lon": -77.02312366666666, "bike_id": "e6386ae83adc1492b88801527d7ea174", "rental_uris": {"android": "https://dc.lft.to/lastmile_qr_scan", "ios": "https://dc.lft.to/lastmile_qr_scan"}, "name": "e6386ae83adc1492b88801527d7ea174", "is_reserved": 0}, {"is_disabled": 0, "fusion_lon": 0.0, "fusion_lat": 0.0, "lat": 38.887476166666666, "type": "electric_scooter", "lon": -76.996265, "bike_id": "50f0832192dddd44c95a7dd30e39ee91", "rental_uris": {"android": "https://dc.lft.to/lastmile_qr_scan", "ios": "https://dc.lft.to/lastmile_qr_scan"}, "name": "50f0832192dddd44c95a7dd30e39ee91", "is_reserved": 0}, {"is_disabled": 0, "fusion_lon": 0.0, "fusion_lat": 0.0, "lat": 38.89532533333333, "type": "electric_scooter", "lon": -77.03348083333333, "bike_id": "f191f18987412374df4e75d96288c86b", "rental_uris": {"android": "https://dc.lft.to/lastmile_qr_scan", "ios": "https://dc.lft.to/lastmile_qr_scan"}, "name": "f191f18987412374df4e75d96288c86b", "is_reserved": 0}, {"is_disabled": 0, "fusion_lon": 0.0, "fusion_lat": 0.0, "lat": 38.9377095, "type": "electric_scooter", "lon": -77.032801, "bike_id": "92b0cc489ddb36cd7aa4091a9eb14b0e", "rental_uris": {"android": "https://dc.lft.to/lastmile_qr_scan", "ios": "https://dc.lft.to/lastmile_qr_scan"}, "name": "92b0cc489ddb36cd7aa4091a9eb14b0e", "is_reserved": 0}, {"is_disabled": 0, "fusion_lon": 0.0, "fusion_lat": 0.0, "lat": 38.918038333333335, "type": "electric_scooter", "lon": -77.02390233333334, "bike_id": "b7a3dfe2335859112bd04bdd47128fbe", "rental_uris": {"android": "https://dc.lft.to/lastmile_qr_scan", "ios": "https://dc.lft.to/lastmile_qr_scan"}, "name": "b7a3dfe2335859112bd04bdd47128fbe", "is_reserved": 0}, {"is_disabled": 0, "fusion_lon": 0.0, "fusion_lat": 0.0, "lat": 38.89540483333333, "type": "electric_scooter", "lon": -77.030145, "bike_id": "20227c1ab8191608b7e165e6a2f4dceb", "rental_uris": {"android": "https://dc.lft.to/lastmile_qr_scan", "ios": "https://dc.lft.to/lastmile_qr_scan"}, "name": "20227c1ab8191608b7e165e6a2f4dceb", "is_reserved": 0}, {"is_disabled": 0, "fusion_lon": 0.0, "fusion_lat": 0.0, "lat": 38.910264166666664, "type": "electric_scooter", "lon": -77.00761616666666, "bike_id": "65534f5be20f77c803657a54c81469ac", "rental_uris": {"android": "https://dc.lft.to/lastmile_qr_scan", "ios": "https://dc.lft.to/lastmile_qr_scan"}, "name": "65534f5be20f77c803657a54c81469ac", "is_reserved": 0}, {"is_disabled": 0, "fusion_lon": 0.0, "fusion_lat": 0.0, "lat": 38.947812166666665, "type": "electric_bike", "lon": -77.0806735, "bike_id": "a0738baec75abee172f17c90928665f9", "rental_uris": {"android": "https://dc.lft.to/lastmile_qr_scan", "ios": "https://dc.lft.to/lastmile_qr_scan"}, "name": "a0738baec75abee172f17c90928665f9", "is_reserved": 0}, {"is_disabled": 0, "fusion_lon": 0.0, "fusion_lat": 0.0, "lat": 38.89945866666667, "type": "electric_scooter", "lon": -77.029503, "bike_id": "ca9aaf9a0c6e105418ddefbf8b89d365", "rental_uris": {"android": "https://dc.lft.to/lastmile_qr_scan", "ios": "https://dc.lft.to/lastmile_qr_scan"}, "name": "ca9aaf9a0c6e105418ddefbf8b89d365", "is_reserved": 0}, {"is_disabled": 0, "fusion_lon": 0.0, "fusion_lat": 0.0, "lat": 38.89834333333334, "type": "electric_scooter", "lon": -76.94634583333334, "bike_id": "2e5aa9ad467e1936d754202c211b0541", "rental_uris": {"android": "https://dc.lft.to/lastmile_qr_scan", "ios": "https://dc.lft.to/lastmile_qr_scan"}, "name": "2e5aa9ad467e1936d754202c211b0541", "is_reserved": 0}, {"is_disabled": 0, "fusion_lon": 0.0, "fusion_lat": 0.0, "lat": 38.869109333333334, "type": "electric_bike", "lon": -77.13181633333333, "bike_id": "42b0fee8de67fc299ac1b583721da1a4", "rental_uris": {"android": "https://dc.lft.to/lastmile_qr_scan", "ios": "https://dc.lft.to/lastmile_qr_scan"}, "name": "42b0fee8de67fc299ac1b583721da1a4", "is_reserved": 0}, {"is_disabled": 0, "fusion_lon": 0.0, "fusion_lat": 0.0, "lat": 38.919925166666665, "type": "electric_bike", "lon": -76.97310516666667, "bike_id": "82d58d77801ec53dcf7fc38e76f3cd44", "rental_uris": {"android": "https://dc.lft.to/lastmile_qr_scan", "ios": "https://dc.lft.to/lastmile_qr_scan"}, "name": "82d58d77801ec53dcf7fc38e76f3cd44", "is_reserved": 0}, {"is_disabled": 0, "fusion_lon": 0.0, "fusion_lat": 0.0, "lat": 38.9081995, "type": "electric_scooter", "lon": -77.03437616666666, "bike_id": "d39b1e14cf7183da177e2fd6212e4d59", "rental_uris": {"android": "https://dc.lft.to/lastmile_qr_scan", "ios": "https://dc.lft.to/lastmile_qr_scan"}, "name": "d39b1e14cf7183da177e2fd6212e4d59", "is_reserved": 0}, {"is_disabled": 0, "fusion_lon": 0.0, "fusion_lat": 0.0, "lat": 38.895623, "type": "electric_scooter", "lon": -77.02304616666666, "bike_id": "4e7bcb2d3343639acc3c1c0a4ecbf8d9", "rental_uris": {"android": "https://dc.lft.to/lastmile_qr_scan", "ios": "https://dc.lft.to/lastmile_qr_scan"}, "name": "4e7bcb2d3343639acc3c1c0a4ecbf8d9", "is_reserved": 0}, {"is_disabled": 0, "fusion_lon": 0.0, "fusion_lat": 0.0, "lat": 38.902253, "type": "electric_scooter", "lon": -77.0345115, "bike_id": "645c88520fab4d4931a6e42928bc8f2b", "rental_uris": {"android": "https://dc.lft.to/lastmile_qr_scan", "ios": "https://dc.lft.to/lastmile_qr_scan"}, "name": "645c88520fab4d4931a6e42928bc8f2b", "is_reserved": 0}, {"is_disabled": 0, "fusion_lon": 0.0, "fusion_lat": 0.0, "lat": 38.88168116666667, "type": "electric_scooter", "lon": -77.01300916666666, "bike_id": "bf85fda2335cdfe6f52cef117a10db41", "rental_uris": {"android": "https://dc.lft.to/lastmile_qr_scan", "ios": "https://dc.lft.to/lastmile_qr_scan"}, "name": "bf85fda2335cdfe6f52cef117a10db41", "is_reserved": 0}, {"is_disabled": 0, "fusion_lon": 0.0, "fusion_lat": 0.0, "lat": 38.90853966666667, "type": "electric_scooter", "lon": -77.00983466666666, "bike_id": "259804a601b3090c1350717767144b1d", "rental_uris": {"android": "https://dc.lft.to/lastmile_qr_scan", "ios": "https://dc.lft.to/lastmile_qr_scan"}, "name": "259804a601b3090c1350717767144b1d", "is_reserved": 0}, {"is_disabled": 0, "fusion_lon": 0.0, "fusion_lat": 0.0, "lat": 38.9233385, "type": "electric_scooter", "lon": -77.043071, "bike_id": "9fbc930dbadcdf3128ea47ba9a41dac5", "rental_uris": {"android": "https://dc.lft.to/lastmile_qr_scan", "ios": "https://dc.lft.to/lastmile_qr_scan"}, "name": "9fbc930dbadcdf3128ea47ba9a41dac5", "is_reserved": 0}, {"is_disabled": 0, "fusion_lon": 0.0, "fusion_lat": 0.0, "lat": 38.917071, "type": "electric_scooter", "lon": -77.02464233333333, "bike_id": "5a49afdfa7bc376a6a7222ad15e0f688", "rental_uris": {"android": "https://dc.lft.to/lastmile_qr_scan", "ios": "https://dc.lft.to/lastmile_qr_scan"}, "name": "5a49afdfa7bc376a6a7222ad15e0f688", "is_reserved": 0}, {"is_disabled": 0, "fusion_lon": 0.0, "fusion_lat": 0.0, "lat": 38.975435, "type": "electric_bike", "lon": -76.99531766666666, "bike_id": "54f559b73da0fc61ad6b319ed699d15d", "rental_uris": {"android": "https://dc.lft.to/lastmile_qr_scan", "ios": "https://dc.lft.to/lastmile_qr_scan"}, "name": "54f559b73da0fc61ad6b319ed699d15d", "is_reserved": 0}, {"is_disabled": 0, "fusion_lon": 0.0, "fusion_lat": 0.0, "lat": 38.9083365, "type": "electric_scooter", "lon": -76.99704733333333, "bike_id": "1af0b65482ad999e5b1d7fece93fac95", "rental_uris": {"android": "https://dc.lft.to/lastmile_qr_scan", "ios": "https://dc.lft.to/lastmile_qr_scan"}, "name": "1af0b65482ad999e5b1d7fece93fac95", "is_reserved": 0}, {"is_disabled": 0, "fusion_lon": 0.0, "fusion_lat": 0.0, "lat": 38.915896833333335, "type": "electric_bike", "lon": -76.97150466666666, "bike_id": "9425bbf02bfd6a774a532cfcbc3b7ab5", "rental_uris": {"android": "https://dc.lft.to/lastmile_qr_scan", "ios": "https://dc.lft.to/lastmile_qr_scan"}, "name": "9425bbf02bfd6a774a532cfcbc3b7ab5", "is_reserved": 0}, {"is_disabled": 0, "fusion_lon": 0.0, "fusion_lat": 0.0, "lat": 38.930058833333334, "type": "electric_scooter", "lon": -77.022095, "bike_id": "e2aeb2d491117b565b6fb56e18918e8c", "rental_uris": {"android": "https://dc.lft.to/lastmile_qr_scan", "ios": "https://dc.lft.to/lastmile_qr_scan"}, "name": "e2aeb2d491117b565b6fb56e18918e8c", "is_reserved": 0}, {"is_disabled": 0, "fusion_lon": 0.0, "fusion_lat": 0.0, "lat": 38.9308445, "type": "electric_scooter", "lon": -77.03114233333334, "bike_id": "964cbf0f703c0dac3d3c67e51c3d2e54", "rental_uris": {"android": "https://dc.lft.to/lastmile_qr_scan", "ios": "https://dc.lft.to/lastmile_qr_scan"}, "name": "964cbf0f703c0dac3d3c67e51c3d2e54", "is_reserved": 0}, {"is_disabled": 0, "fusion_lon": 0.0, "fusion_lat": 0.0, "lat": 38.94752733333333, "type": "electric_scooter", "lon": -77.0179685, "bike_id": "edf8a02e407ce717cdc7fe6518922dbd", "rental_uris": {"android": "https://dc.lft.to/lastmile_qr_scan", "ios": "https://dc.lft.to/lastmile_qr_scan"}, "name": "edf8a02e407ce717cdc7fe6518922dbd", "is_reserved": 0}, {"is_disabled": 0, "fusion_lon": 0.0, "fusion_lat": 0.0, "lat": 38.909461, "type": "electric_scooter", "lon": -77.03208333333333, "bike_id": "f890ad63e91e68886f24defa0a929ac8", "rental_uris": {"android": "https://dc.lft.to/lastmile_qr_scan", "ios": "https://dc.lft.to/lastmile_qr_scan"}, "name": "f890ad63e91e68886f24defa0a929ac8", "is_reserved": 0}, {"is_disabled": 0, "fusion_lon": 0.0, "fusion_lat": 0.0, "lat": 38.908103, "type": "electric_scooter", "lon": -77.0014615, "bike_id": "aea647fc944ca80947e8a374fa2efc7f", "rental_uris": {"android": "https://dc.lft.to/lastmile_qr_scan", "ios": "https://dc.lft.to/lastmile_qr_scan"}, "name": "aea647fc944ca80947e8a374fa2efc7f", "is_reserved": 0}, {"is_disabled": 0, "fusion_lon": 0.0, "fusion_lat": 0.0, "lat": 38.87403783333333, "type": "electric_scooter", "lon": -77.00209716666667, "bike_id": "70e5b73919e34ff59221370b4ed8edf9", "rental_uris": {"android": "https://dc.lft.to/lastmile_qr_scan", "ios": "https://dc.lft.to/lastmile_qr_scan"}, "name": "70e5b73919e34ff59221370b4ed8edf9", "is_reserved": 0}, {"is_disabled": 0, "fusion_lon": 0.0, "fusion_lat": 0.0, "lat": 38.945786, "type": "electric_bike", "lon": -76.9877705, "bike_id": "2b3fdabfe622488e09bb7f636185d2c9", "rental_uris": {"android": "https://dc.lft.to/lastmile_qr_scan", "ios": "https://dc.lft.to/lastmile_qr_scan"}, "name": "2b3fdabfe622488e09bb7f636185d2c9", "is_reserved": 0}, {"is_disabled": 0, "fusion_lon": 0.0, "fusion_lat": 0.0, "lat": 38.90445, "type": "electric_scooter", "lon": -77.02871166666667, "bike_id": "d3bf1a76d04d206b46833bb38a26f827", "rental_uris": {"android": "https://dc.lft.to/lastmile_qr_scan", "ios": "https://dc.lft.to/lastmile_qr_scan"}, "name": "d3bf1a76d04d206b46833bb38a26f827", "is_reserved": 0}, {"is_disabled": 0, "fusion_lon": 0.0, "fusion_lat": 0.0, "lat": 38.91477883333334, "type": "electric_scooter", "lon": -77.038408, "bike_id": "13db6a5356ea03d21db9c558ad348050", "rental_uris": {"android": "https://dc.lft.to/lastmile_qr_scan", "ios": "https://dc.lft.to/lastmile_qr_scan"}, "name": "13db6a5356ea03d21db9c558ad348050", "is_reserved": 0}, {"is_disabled": 0, "fusion_lon": 0.0, "fusion_lat": 0.0, "lat": 38.9364105, "type": "electric_bike", "lon": -76.95459533333333, "bike_id": "397dcdcad351fe7a6f8381e83233bd79", "rental_uris": {"android": "https://dc.lft.to/lastmile_qr_scan", "ios": "https://dc.lft.to/lastmile_qr_scan"}, "name": "397dcdcad351fe7a6f8381e83233bd79", "is_reserved": 0}, {"is_disabled": 0, "fusion_lon": 0.0, "fusion_lat": 0.0, "lat": 38.90478733333333, "type": "electric_scooter", "lon": -77.03470416666667, "bike_id": "099adde4fbf44e7ac15fbe7e86ea9ceb", "rental_uris": {"android": "https://dc.lft.to/lastmile_qr_scan", "ios": "https://dc.lft.to/lastmile_qr_scan"}, "name": "099adde4fbf44e7ac15fbe7e86ea9ceb", "is_reserved": 0}, {"is_disabled": 0, "fusion_lon": 0.0, "fusion_lat": 0.0, "lat": 38.92357166666667, "type": "electric_scooter", "lon": -77.03228133333333, "bike_id": "2d54bbf415234e1e923c2266639be5f0", "rental_uris": {"android": "https://dc.lft.to/lastmile_qr_scan", "ios": "https://dc.lft.to/lastmile_qr_scan"}, "name": "2d54bbf415234e1e923c2266639be5f0", "is_reserved": 0}, {"is_disabled": 0, "fusion_lon": 0.0, "fusion_lat": 0.0, "lat": 38.90462683333333, "type": "electric_scooter", "lon": -77.035673, "bike_id": "ea2dcc8ca4a9534522f775090636ba92", "rental_uris": {"android": "https://dc.lft.to/lastmile_qr_scan", "ios": "https://dc.lft.to/lastmile_qr_scan"}, "name": "ea2dcc8ca4a9534522f775090636ba92", "is_reserved": 0}, {"is_disabled": 0, "fusion_lon": 0.0, "fusion_lat": 0.0, "lat": 38.91038316666667, "type": "electric_scooter", "lon": -77.01374383333334, "bike_id": "70e3ee43c198679968d3ba90d3e1bd50", "rental_uris": {"android": "https://dc.lft.to/lastmile_qr_scan", "ios": "https://dc.lft.to/lastmile_qr_scan"}, "name": "70e3ee43c198679968d3ba90d3e1bd50", "is_reserved": 0}, {"is_disabled": 0, "fusion_lon": 0.0, "fusion_lat": 0.0, "lat": 38.9165095, "type": "electric_scooter", "lon": -77.02184683333333, "bike_id": "d5774bda5cd3e7041e03ad0551547646", "rental_uris": {"android": "https://dc.lft.to/lastmile_qr_scan", "ios": "https://dc.lft.to/lastmile_qr_scan"}, "name": "d5774bda5cd3e7041e03ad0551547646", "is_reserved": 0}, {"is_disabled": 0, "fusion_lon": 0.0, "fusion_lat": 0.0, "lat": 38.89500566666667, "type": "electric_scooter", "lon": -77.01120283333333, "bike_id": "e1c5de803d1c5af7aaa007515a24712d", "rental_uris": {"android": "https://dc.lft.to/lastmile_qr_scan", "ios": "https://dc.lft.to/lastmile_qr_scan"}, "name": "e1c5de803d1c5af7aaa007515a24712d", "is_reserved": 0}, {"is_disabled": 0, "fusion_lon": 0.0, "fusion_lat": 0.0, "lat": 38.9191705, "type": "electric_scooter", "lon": -77.0302565, "bike_id": "83f85cb9577123a30ce2c3f2830af2ef", "rental_uris": {"android": "https://dc.lft.to/lastmile_qr_scan", "ios": "https://dc.lft.to/lastmile_qr_scan"}, "name": "83f85cb9577123a30ce2c3f2830af2ef", "is_reserved": 0}, {"is_disabled": 0, "fusion_lon": 0.0, "fusion_lat": 0.0, "lat": 38.90928433333333, "type": "electric_scooter", "lon": -77.03209683333333, "bike_id": "4641ac407d32a1ad3f2cd51a2d0e2173", "rental_uris": {"android": "https://dc.lft.to/lastmile_qr_scan", "ios": "https://dc.lft.to/lastmile_qr_scan"}, "name": "4641ac407d32a1ad3f2cd51a2d0e2173", "is_reserved": 0}, {"is_disabled": 0, "fusion_lon": 0.0, "fusion_lat": 0.0, "lat": 38.89171616666667, "type": "electric_scooter", "lon": -77.01542833333333, "bike_id": "de51861c72fb93cbf506c19a744add89", "rental_uris": {"android": "https://dc.lft.to/lastmile_qr_scan", "ios": "https://dc.lft.to/lastmile_qr_scan"}, "name": "de51861c72fb93cbf506c19a744add89", "is_reserved": 0}, {"is_disabled": 0, "fusion_lon": 0.0, "fusion_lat": 0.0, "lat": 38.94984933333333, "type": "electric_scooter", "lon": -77.02702883333333, "bike_id": "c905f2c3eea3e5bba081291e36695e47", "rental_uris": {"android": "https://dc.lft.to/lastmile_qr_scan", "ios": "https://dc.lft.to/lastmile_qr_scan"}, "name": "c905f2c3eea3e5bba081291e36695e47", "is_reserved": 0}, {"is_disabled": 0, "fusion_lon": 0.0, "fusion_lat": 0.0, "lat": 38.89222516666667, "type": "electric_scooter", "lon": -77.022641, "bike_id": "b474ef8f122821fb8461caee866b4f82", "rental_uris": {"android": "https://dc.lft.to/lastmile_qr_scan", "ios": "https://dc.lft.to/lastmile_qr_scan"}, "name": "b474ef8f122821fb8461caee866b4f82", "is_reserved": 0}, {"is_disabled": 0, "fusion_lon": 0.0, "fusion_lat": 0.0, "lat": 39.052719, "type": "electric_bike", "lon": -77.04380116666667, "bike_id": "4f16c3e081192364e4f2adf4197fa848", "rental_uris": {"android": "https://dc.lft.to/lastmile_qr_scan", "ios": "https://dc.lft.to/lastmile_qr_scan"}, "name": "4f16c3e081192364e4f2adf4197fa848", "is_reserved": 0}, {"is_disabled": 0, "fusion_lon": 0.0, "fusion_lat": 0.0, "lat": 38.9281535, "type": "electric_scooter", "lon": -77.02348366666666, "bike_id": "2d4aed69dc2f2fafebe3181aaed941d3", "rental_uris": {"android": "https://dc.lft.to/lastmile_qr_scan", "ios": "https://dc.lft.to/lastmile_qr_scan"}, "name": "2d4aed69dc2f2fafebe3181aaed941d3", "is_reserved": 0}, {"is_disabled": 0, "fusion_lon": 0.0, "fusion_lat": 0.0, "lat": 38.92235183333333, "type": "electric_scooter", "lon": -77.04343166666666, "bike_id": "e53b0ed2c7534f8416ea873955458849", "rental_uris": {"android": "https://dc.lft.to/lastmile_qr_scan", "ios": "https://dc.lft.to/lastmile_qr_scan"}, "name": "e53b0ed2c7534f8416ea873955458849", "is_reserved": 0}, {"is_disabled": 0, "fusion_lon": 0.0, "fusion_lat": 0.0, "lat": 38.917077666666664, "type": "electric_scooter", "lon": -77.00113916666666, "bike_id": "eb0db7a0fa60f82bd506a5e6273266bd", "rental_uris": {"android": "https://dc.lft.to/lastmile_qr_scan", "ios": "https://dc.lft.to/lastmile_qr_scan"}, "name": "eb0db7a0fa60f82bd506a5e6273266bd", "is_reserved": 0}, {"is_disabled": 0, "fusion_lon": 0.0, "fusion_lat": 0.0, "lat": 38.934194, "type": "electric_scooter", "lon": -77.019668, "bike_id": "ec9f165eebdccc51cb0c269631872b02", "rental_uris": {"android": "https://dc.lft.to/lastmile_qr_scan", "ios": "https://dc.lft.to/lastmile_qr_scan"}, "name": "ec9f165eebdccc51cb0c269631872b02", "is_reserved": 0}, {"is_disabled": 0, "fusion_lon": 0.0, "fusion_lat": 0.0, "lat": 38.948985, "type": "electric_bike", "lon": -76.9636495, "bike_id": "f03ffcc529df35354aa47324211f41a1", "rental_uris": {"android": "https://dc.lft.to/lastmile_qr_scan", "ios": "https://dc.lft.to/lastmile_qr_scan"}, "name": "f03ffcc529df35354aa47324211f41a1", "is_reserved": 0}, {"is_disabled": 0, "fusion_lon": 0.0, "fusion_lat": 0.0, "lat": 38.91704683333333, "type": "electric_bike", "lon": -77.09565283333333, "bike_id": "8a9129675826d746f1e765688fe27802", "rental_uris": {"android": "https://dc.lft.to/lastmile_qr_scan", "ios": "https://dc.lft.to/lastmile_qr_scan"}, "name": "8a9129675826d746f1e765688fe27802", "is_reserved": 0}, {"is_disabled": 0, "fusion_lon": 0.0, "fusion_lat": 0.0, "lat": 38.933690166666665, "type": "electric_scooter", "lon": -77.05749783333333, "bike_id": "cfca029eabc5af053f22444770032e30", "rental_uris": {"android": "https://dc.lft.to/lastmile_qr_scan", "ios": "https://dc.lft.to/lastmile_qr_scan"}, "name": "cfca029eabc5af053f22444770032e30", "is_reserved": 0}, {"is_disabled": 0, "fusion_lon": 0.0, "fusion_lat": 0.0, "lat": 38.9096535, "type": "electric_scooter", "lon": -77.03952083333333, "bike_id": "f5ec038424d07abb84afb68a4ec4d97b", "rental_uris": {"android": "https://dc.lft.to/lastmile_qr_scan", "ios": "https://dc.lft.to/lastmile_qr_scan"}, "name": "f5ec038424d07abb84afb68a4ec4d97b", "is_reserved": 0}, {"is_disabled": 0, "fusion_lon": 0.0, "fusion_lat": 0.0, "lat": 38.883669166666664, "type": "electric_bike", "lon": -77.030652, "bike_id": "65df5081aea4d1f4880508d5b78f0b4c", "rental_uris": {"android": "https://dc.lft.to/lastmile_qr_scan", "ios": "https://dc.lft.to/lastmile_qr_scan"}, "name": "65df5081aea4d1f4880508d5b78f0b4c", "is_reserved": 0}, {"is_disabled": 0, "fusion_lon": 0.0, "fusion_lat": 0.0, "lat": 38.93566466666667, "type": "electric_scooter", "lon": -77.0820725, "bike_id": "6657f881565c9f446d3ca10b65eaa776", "rental_uris": {"android": "https://dc.lft.to/lastmile_qr_scan", "ios": "https://dc.lft.to/lastmile_qr_scan"}, "name": "6657f881565c9f446d3ca10b65eaa776", "is_reserved": 0}, {"is_disabled": 0, "fusion_lon": 0.0, "fusion_lat": 0.0, "lat": 38.95635983333333, "type": "electric_scooter", "lon": -77.02978816666666, "bike_id": "3bea7d021ba74c8d2f3b64f1df4e5736", "rental_uris": {"android": "https://dc.lft.to/lastmile_qr_scan", "ios": "https://dc.lft.to/lastmile_qr_scan"}, "name": "3bea7d021ba74c8d2f3b64f1df4e5736", "is_reserved": 0}, {"is_disabled": 0, "fusion_lon": 0.0, "fusion_lat": 0.0, "lat": 38.8459845, "type": "electric_bike", "lon": -76.96879816666667, "bike_id": "5674436a3e9c96403c63c0a1537cfbc9", "rental_uris": {"android": "https://dc.lft.to/lastmile_qr_scan", "ios": "https://dc.lft.to/lastmile_qr_scan"}, "name": "5674436a3e9c96403c63c0a1537cfbc9", "is_reserved": 0}, {"is_disabled": 0, "fusion_lon": 0.0, "fusion_lat": 0.0, "lat": 38.92754633333333, "type": "electric_scooter", "lon": -77.07592183333334, "bike_id": "1a72cc976949cecd2847cd11b30fcf74", "rental_uris": {"android": "https://dc.lft.to/lastmile_qr_scan", "ios": "https://dc.lft.to/lastmile_qr_scan"}, "name": "1a72cc976949cecd2847cd11b30fcf74", "is_reserved": 0}, {"is_disabled": 0, "fusion_lon": 0.0, "fusion_lat": 0.0, "lat": 38.91097633333333, "type": "electric_scooter", "lon": -76.98474483333334, "bike_id": "bb1626af96018def3762312a6dc731e1", "rental_uris": {"android": "https://dc.lft.to/lastmile_qr_scan", "ios": "https://dc.lft.to/lastmile_qr_scan"}, "name": "bb1626af96018def3762312a6dc731e1", "is_reserved": 0}, {"is_disabled": 0, "fusion_lon": 0.0, "fusion_lat": 0.0, "lat": 38.91793533333333, "type": "electric_scooter", "lon": -77.0365925, "bike_id": "e73caa549e76f1cc25a2cfd49b2ccb3f", "rental_uris": {"android": "https://dc.lft.to/lastmile_qr_scan", "ios": "https://dc.lft.to/lastmile_qr_scan"}, "name": "e73caa549e76f1cc25a2cfd49b2ccb3f", "is_reserved": 0}, {"is_disabled": 0, "fusion_lon": 0.0, "fusion_lat": 0.0, "lat": 38.887417166666665, "type": "electric_scooter", "lon": -77.01533933333333, "bike_id": "c356fb553d9d3629b9eee6eb4bb7ba48", "rental_uris": {"android": "https://dc.lft.to/lastmile_qr_scan", "ios": "https://dc.lft.to/lastmile_qr_scan"}, "name": "c356fb553d9d3629b9eee6eb4bb7ba48", "is_reserved": 0}, {"is_disabled": 0, "fusion_lon": 0.0, "fusion_lat": 0.0, "lat": 38.932551333333336, "type": "electric_scooter", "lon": -77.032777, "bike_id": "9c16c8812d47964f0dbd7e3cb306c770", "rental_uris": {"android": "https://dc.lft.to/lastmile_qr_scan", "ios": "https://dc.lft.to/lastmile_qr_scan"}, "name": "9c16c8812d47964f0dbd7e3cb306c770", "is_reserved": 0}, {"is_disabled": 0, "fusion_lon": 0.0, "fusion_lat": 0.0, "lat": 38.94477833333333, "type": "electric_bike", "lon": -77.00646766666667, "bike_id": "7e284e4c830a69e6ae7a4452db38159f", "rental_uris": {"android": "https://dc.lft.to/lastmile_qr_scan", "ios": "https://dc.lft.to/lastmile_qr_scan"}, "name": "7e284e4c830a69e6ae7a4452db38159f", "is_reserved": 0}, {"is_disabled": 0, "fusion_lon": 0.0, "fusion_lat": 0.0, "lat": 38.906745666666666, "type": "electric_scooter", "lon": -77.07577933333333, "bike_id": "ef5d0503578ddd8d24bc6db7652c2dd5", "rental_uris": {"android": "https://dc.lft.to/lastmile_qr_scan", "ios": "https://dc.lft.to/lastmile_qr_scan"}, "name": "ef5d0503578ddd8d24bc6db7652c2dd5", "is_reserved": 0}, {"is_disabled": 0, "fusion_lon": 0.0, "fusion_lat": 0.0, "lat": 38.900382666666665, "type": "electric_scooter", "lon": -77.03937216666667, "bike_id": "67cb28d0ec49e2c8951440169240441e", "rental_uris": {"android": "https://dc.lft.to/lastmile_qr_scan", "ios": "https://dc.lft.to/lastmile_qr_scan"}, "name": "67cb28d0ec49e2c8951440169240441e", "is_reserved": 0}, {"is_disabled": 0, "fusion_lon": 0.0, "fusion_lat": 0.0, "lat": 38.900186833333336, "type": "electric_scooter", "lon": -77.0524695, "bike_id": "d5313756ae30c5e444462c508bf5d125", "rental_uris": {"android": "https://dc.lft.to/lastmile_qr_scan", "ios": "https://dc.lft.to/lastmile_qr_scan"}, "name": "d5313756ae30c5e444462c508bf5d125", "is_reserved": 0}, {"is_disabled": 0, "fusion_lon": 0.0, "fusion_lat": 0.0, "lat": 38.90535466666667, "type": "electric_scooter", "lon": -77.05005566666667, "bike_id": "55d1fcabfefa0db331f17a45dc1ce711", "rental_uris": {"android": "https://dc.lft.to/lastmile_qr_scan", "ios": "https://dc.lft.to/lastmile_qr_scan"}, "name": "55d1fcabfefa0db331f17a45dc1ce711", "is_reserved": 0}, {"is_disabled": 0, "fusion_lon": 0.0, "fusion_lat": 0.0, "lat": 38.928135166666664, "type": "electric_scooter", "lon": -77.02348966666666, "bike_id": "c514ed1dad173230df4b77aa04df7d3b", "rental_uris": {"android": "https://dc.lft.to/lastmile_qr_scan", "ios": "https://dc.lft.to/lastmile_qr_scan"}, "name": "c514ed1dad173230df4b77aa04df7d3b", "is_reserved": 0}, {"is_disabled": 0, "fusion_lon": 0.0, "fusion_lat": 0.0, "lat": 38.9342715, "type": "electric_scooter", "lon": -77.05838883333334, "bike_id": "827b2f771cdce6b41a7dfb59f495f826", "rental_uris": {"android": "https://dc.lft.to/lastmile_qr_scan", "ios": "https://dc.lft.to/lastmile_qr_scan"}, "name": "827b2f771cdce6b41a7dfb59f495f826", "is_reserved": 0}, {"is_disabled": 0, "fusion_lon": 0.0, "fusion_lat": 0.0, "lat": 38.945638, "type": "electric_bike", "lon": -77.05111433333333, "bike_id": "e95e3ec6d6a064df52a923e0d65c2099", "rental_uris": {"android": "https://dc.lft.to/lastmile_qr_scan", "ios": "https://dc.lft.to/lastmile_qr_scan"}, "name": "e95e3ec6d6a064df52a923e0d65c2099", "is_reserved": 0}, {"is_disabled": 0, "fusion_lon": 0.0, "fusion_lat": 0.0, "lat": 38.91590566666667, "type": "electric_scooter", "lon": -77.02128733333333, "bike_id": "e994f440125a641a1b7b8bcefbff83cc", "rental_uris": {"android": "https://dc.lft.to/lastmile_qr_scan", "ios": "https://dc.lft.to/lastmile_qr_scan"}, "name": "e994f440125a641a1b7b8bcefbff83cc", "is_reserved": 0}, {"is_disabled": 0, "fusion_lon": 0.0, "fusion_lat": 0.0, "lat": 38.92481133333333, "type": "electric_scooter", "lon": -77.03722866666666, "bike_id": "f58bc9d7eea50173ba5ef3cb47ef7ec8", "rental_uris": {"android": "https://dc.lft.to/lastmile_qr_scan", "ios": "https://dc.lft.to/lastmile_qr_scan"}, "name": "f58bc9d7eea50173ba5ef3cb47ef7ec8", "is_reserved": 0}, {"is_disabled": 0, "fusion_lon": 0.0, "fusion_lat": 0.0, "lat": 38.88685316666667, "type": "electric_scooter", "lon": -76.95474383333334, "bike_id": "80854b086944dafe38d684b15b53c180", "rental_uris": {"android": "https://dc.lft.to/lastmile_qr_scan", "ios": "https://dc.lft.to/lastmile_qr_scan"}, "name": "80854b086944dafe38d684b15b53c180", "is_reserved": 0}, {"is_disabled": 0, "fusion_lon": 0.0, "fusion_lat": 0.0, "lat": 38.91738383333333, "type": "electric_scooter", "lon": -77.03439416666667, "bike_id": "1c87edad0e57be6e6b4c4965c756d098", "rental_uris": {"android": "https://dc.lft.to/lastmile_qr_scan", "ios": "https://dc.lft.to/lastmile_qr_scan"}, "name": "1c87edad0e57be6e6b4c4965c756d098", "is_reserved": 0}, {"is_disabled": 0, "fusion_lon": 0.0, "fusion_lat": 0.0, "lat": 38.926163, "type": "electric_scooter", "lon": -77.0368995, "bike_id": "e33a636f053a3201da3ea2fa6db25241", "rental_uris": {"android": "https://dc.lft.to/lastmile_qr_scan", "ios": "https://dc.lft.to/lastmile_qr_scan"}, "name": "e33a636f053a3201da3ea2fa6db25241", "is_reserved": 0}, {"is_disabled": 0, "fusion_lon": 0.0, "fusion_lat": 0.0, "lat": 38.912749, "type": "electric_scooter", "lon": -77.03860033333333, "bike_id": "e8f181f44580c98390c5158729169593", "rental_uris": {"android": "https://dc.lft.to/lastmile_qr_scan", "ios": "https://dc.lft.to/lastmile_qr_scan"}, "name": "e8f181f44580c98390c5158729169593", "is_reserved": 0}, {"is_disabled": 0, "fusion_lon": 0.0, "fusion_lat": 0.0, "lat": 38.89832, "type": "electric_scooter", "lon": -76.94634233333333, "bike_id": "c632aa53ad6fdb28ddee2b7c5d7fd9b3", "rental_uris": {"android": "https://dc.lft.to/lastmile_qr_scan", "ios": "https://dc.lft.to/lastmile_qr_scan"}, "name": "c632aa53ad6fdb28ddee2b7c5d7fd9b3", "is_reserved": 0}, {"is_disabled": 0, "fusion_lon": 0.0, "fusion_lat": 0.0, "lat": 38.91071316666667, "type": "electric_scooter", "lon": -77.02096616666667, "bike_id": "0bae7e1d27c8b2b39e42f0bf328788a4", "rental_uris": {"android": "https://dc.lft.to/lastmile_qr_scan", "ios": "https://dc.lft.to/lastmile_qr_scan"}, "name": "0bae7e1d27c8b2b39e42f0bf328788a4", "is_reserved": 0}, {"is_disabled": 0, "fusion_lon": 0.0, "fusion_lat": 0.0, "lat": 38.98601516666667, "type": "electric_bike", "lon": -77.03754283333333, "bike_id": "4e774961b70a9aa4d0de7c5c1cdf1006", "rental_uris": {"android": "https://dc.lft.to/lastmile_qr_scan", "ios": "https://dc.lft.to/lastmile_qr_scan"}, "name": "4e774961b70a9aa4d0de7c5c1cdf1006", "is_reserved": 0}, {"is_disabled": 0, "fusion_lon": 0.0, "fusion_lat": 0.0, "lat": 38.94107733333333, "type": "electric_scooter", "lon": -77.06137966666667, "bike_id": "de10e7fade8d58213b77687953e2bc9e", "rental_uris": {"android": "https://dc.lft.to/lastmile_qr_scan", "ios": "https://dc.lft.to/lastmile_qr_scan"}, "name": "de10e7fade8d58213b77687953e2bc9e", "is_reserved": 0}, {"is_disabled": 0, "fusion_lon": 0.0, "fusion_lat": 0.0, "lat": 38.86698783333333, "type": "electric_scooter", "lon": -76.9871515, "bike_id": "cfbc07aaf43b293a82f5bae0842a97ee", "rental_uris": {"android": "https://dc.lft.to/lastmile_qr_scan", "ios": "https://dc.lft.to/lastmile_qr_scan"}, "name": "cfbc07aaf43b293a82f5bae0842a97ee", "is_reserved": 0}, {"is_disabled": 0, "fusion_lon": 0.0, "fusion_lat": 0.0, "lat": 38.912687, "type": "electric_scooter", "lon": -77.0222695, "bike_id": "8eacc9ba341b9e32a61f7c7735ce3499", "rental_uris": {"android": "https://dc.lft.to/lastmile_qr_scan", "ios": "https://dc.lft.to/lastmile_qr_scan"}, "name": "8eacc9ba341b9e32a61f7c7735ce3499", "is_reserved": 0}, {"is_disabled": 0, "fusion_lon": 0.0, "fusion_lat": 0.0, "lat": 38.906546, "type": "electric_scooter", "lon": -77.043419, "bike_id": "ef0a939dc9901751a22ee69069716052", "rental_uris": {"android": "https://dc.lft.to/lastmile_qr_scan", "ios": "https://dc.lft.to/lastmile_qr_scan"}, "name": "ef0a939dc9901751a22ee69069716052", "is_reserved": 0}, {"is_disabled": 0, "fusion_lon": 0.0, "fusion_lat": 0.0, "lat": 38.92031466666667, "type": "electric_scooter", "lon": -77.01910183333334, "bike_id": "f707deb4791a17029c570c1ff9f6b8e2", "rental_uris": {"android": "https://dc.lft.to/lastmile_qr_scan", "ios": "https://dc.lft.to/lastmile_qr_scan"}, "name": "f707deb4791a17029c570c1ff9f6b8e2", "is_reserved": 0}, {"is_disabled": 0, "fusion_lon": 0.0, "fusion_lat": 0.0, "lat": 38.93484866666667, "type": "electric_scooter", "lon": -77.0241595, "bike_id": "4160486055a8471c72641a2cfdc11829", "rental_uris": {"android": "https://dc.lft.to/lastmile_qr_scan", "ios": "https://dc.lft.to/lastmile_qr_scan"}, "name": "4160486055a8471c72641a2cfdc11829", "is_reserved": 0}, {"is_disabled": 0, "fusion_lon": 0.0, "fusion_lat": 0.0, "lat": 38.88746783333333, "type": "electric_scooter", "lon": -77.015312, "bike_id": "72bc3b79ac287695aea06fbe47a25989", "rental_uris": {"android": "https://dc.lft.to/lastmile_qr_scan", "ios": "https://dc.lft.to/lastmile_qr_scan"}, "name": "72bc3b79ac287695aea06fbe47a25989", "is_reserved": 0}, {"is_disabled": 0, "fusion_lon": 0.0, "fusion_lat": 0.0, "lat": 38.922603333333335, "type": "electric_scooter", "lon": -77.0329635, "bike_id": "48e6ec684f80b6af50315207858cbb5a", "rental_uris": {"android": "https://dc.lft.to/lastmile_qr_scan", "ios": "https://dc.lft.to/lastmile_qr_scan"}, "name": "48e6ec684f80b6af50315207858cbb5a", "is_reserved": 0}, {"is_disabled": 0, "fusion_lon": 0.0, "fusion_lat": 0.0, "lat": 38.802991166666665, "type": "electric_bike", "lon": -77.03986883333333, "bike_id": "777de754d558f577020924297c7f3af1", "rental_uris": {"android": "https://dc.lft.to/lastmile_qr_scan", "ios": "https://dc.lft.to/lastmile_qr_scan"}, "name": "777de754d558f577020924297c7f3af1", "is_reserved": 0}, {"is_disabled": 0, "fusion_lon": 0.0, "fusion_lat": 0.0, "lat": 38.91233483333333, "type": "electric_scooter", "lon": -77.0319665, "bike_id": "05e51619ff6e1b8c849d7ccff3560ca8", "rental_uris": {"android": "https://dc.lft.to/lastmile_qr_scan", "ios": "https://dc.lft.to/lastmile_qr_scan"}, "name": "05e51619ff6e1b8c849d7ccff3560ca8", "is_reserved": 0}, {"is_disabled": 0, "fusion_lon": 0.0, "fusion_lat": 0.0, "lat": 38.93600966666666, "type": "electric_scooter", "lon": -77.05591316666667, "bike_id": "cb8d6ddf87b594c6d51d7912947eb73c", "rental_uris": {"android": "https://dc.lft.to/lastmile_qr_scan", "ios": "https://dc.lft.to/lastmile_qr_scan"}, "name": "cb8d6ddf87b594c6d51d7912947eb73c", "is_reserved": 0}, {"is_disabled": 0, "fusion_lon": 0.0, "fusion_lat": 0.0, "lat": 38.91708766666667, "type": "electric_scooter", "lon": -77.0288325, "bike_id": "038b9b7e2afa750c5b3f5c209ca8c3a6", "rental_uris": {"android": "https://dc.lft.to/lastmile_qr_scan", "ios": "https://dc.lft.to/lastmile_qr_scan"}, "name": "038b9b7e2afa750c5b3f5c209ca8c3a6", "is_reserved": 0}, {"is_disabled": 0, "fusion_lon": 0.0, "fusion_lat": 0.0, "lat": 38.91954483333333, "type": "electric_scooter", "lon": -77.01390016666667, "bike_id": "886ec12c2269b3486636fbefa28f65a2", "rental_uris": {"android": "https://dc.lft.to/lastmile_qr_scan", "ios": "https://dc.lft.to/lastmile_qr_scan"}, "name": "886ec12c2269b3486636fbefa28f65a2", "is_reserved": 0}, {"is_disabled": 0, "fusion_lon": 0.0, "fusion_lat": 0.0, "lat": 38.91731866666667, "type": "electric_scooter", "lon": -77.00048166666667, "bike_id": "69ceeea7eee56dd666aab404f7ba0ffa", "rental_uris": {"android": "https://dc.lft.to/lastmile_qr_scan", "ios": "https://dc.lft.to/lastmile_qr_scan"}, "name": "69ceeea7eee56dd666aab404f7ba0ffa", "is_reserved": 0}, {"is_disabled": 0, "fusion_lon": 0.0, "fusion_lat": 0.0, "lat": 38.918192, "type": "electric_scooter", "lon": -77.04012866666666, "bike_id": "7abff44e21eaa2e2def6814d5d5b8116", "rental_uris": {"android": "https://dc.lft.to/lastmile_qr_scan", "ios": "https://dc.lft.to/lastmile_qr_scan"}, "name": "7abff44e21eaa2e2def6814d5d5b8116", "is_reserved": 0}, {"is_disabled": 0, "fusion_lon": 0.0, "fusion_lat": 0.0, "lat": 38.91715666666666, "type": "electric_scooter", "lon": -77.02844366666666, "bike_id": "d1574d7133b24cafd0aceb5df2e74c53", "rental_uris": {"android": "https://dc.lft.to/lastmile_qr_scan", "ios": "https://dc.lft.to/lastmile_qr_scan"}, "name": "d1574d7133b24cafd0aceb5df2e74c53", "is_reserved": 0}, {"is_disabled": 0, "fusion_lon": 0.0, "fusion_lat": 0.0, "lat": 38.91562316666667, "type": "electric_scooter", "lon": -77.032381, "bike_id": "be6f12b056e3cb80535f6e0dbd96b377", "rental_uris": {"android": "https://dc.lft.to/lastmile_qr_scan", "ios": "https://dc.lft.to/lastmile_qr_scan"}, "name": "be6f12b056e3cb80535f6e0dbd96b377", "is_reserved": 0}, {"is_disabled": 0, "fusion_lon": 0.0, "fusion_lat": 0.0, "lat": 38.902693666666664, "type": "electric_scooter", "lon": -77.06092266666667, "bike_id": "48b92f4ce020c602fed86dd54d33bdc2", "rental_uris": {"android": "https://dc.lft.to/lastmile_qr_scan", "ios": "https://dc.lft.to/lastmile_qr_scan"}, "name": "48b92f4ce020c602fed86dd54d33bdc2", "is_reserved": 0}, {"is_disabled": 0, "fusion_lon": 0.0, "fusion_lat": 0.0, "lat": 38.828699666666665, "type": "electric_bike", "lon": -77.11222183333334, "bike_id": "194a9f5da339165ab7ce5b9f762c18c8", "rental_uris": {"android": "https://dc.lft.to/lastmile_qr_scan", "ios": "https://dc.lft.to/lastmile_qr_scan"}, "name": "194a9f5da339165ab7ce5b9f762c18c8", "is_reserved": 0}, {"is_disabled": 0, "fusion_lon": 0.0, "fusion_lat": 0.0, "lat": 38.925514666666665, "type": "electric_scooter", "lon": -77.05297683333333, "bike_id": "e66d130bf8280d79ca83ee19e5d69567", "rental_uris": {"android": "https://dc.lft.to/lastmile_qr_scan", "ios": "https://dc.lft.to/lastmile_qr_scan"}, "name": "e66d130bf8280d79ca83ee19e5d69567", "is_reserved": 0}, {"is_disabled": 0, "fusion_lon": 0.0, "fusion_lat": 0.0, "lat": 38.92128983333333, "type": "electric_scooter", "lon": -77.02172616666667, "bike_id": "3d1ac8cc492440ee280b171015165cc4", "rental_uris": {"android": "https://dc.lft.to/lastmile_qr_scan", "ios": "https://dc.lft.to/lastmile_qr_scan"}, "name": "3d1ac8cc492440ee280b171015165cc4", "is_reserved": 0}, {"is_disabled": 0, "fusion_lon": 0.0, "fusion_lat": 0.0, "lat": 39.0001715, "type": "electric_bike", "lon": -76.87284333333334, "bike_id": "468f89557ab2e86df77ea72af818dfdf", "rental_uris": {"android": "https://dc.lft.to/lastmile_qr_scan", "ios": "https://dc.lft.to/lastmile_qr_scan"}, "name": "468f89557ab2e86df77ea72af818dfdf", "is_reserved": 0}, {"is_disabled": 0, "fusion_lon": 0.0, "fusion_lat": 0.0, "lat": 38.914684333333334, "type": "electric_scooter", "lon": -77.01982066666666, "bike_id": "af725fea9cb4f5c920334cc0133d2f96", "rental_uris": {"android": "https://dc.lft.to/lastmile_qr_scan", "ios": "https://dc.lft.to/lastmile_qr_scan"}, "name": "af725fea9cb4f5c920334cc0133d2f96", "is_reserved": 0}, {"is_disabled": 0, "fusion_lon": 0.0, "fusion_lat": 0.0, "lat": 38.89505183333333, "type": "electric_scooter", "lon": -76.9487615, "bike_id": "c15ac57643729842eeb65c03cb0dc47e", "rental_uris": {"android": "https://dc.lft.to/lastmile_qr_scan", "ios": "https://dc.lft.to/lastmile_qr_scan"}, "name": "c15ac57643729842eeb65c03cb0dc47e", "is_reserved": 0}, {"is_disabled": 0, "fusion_lon": 0.0, "fusion_lat": 0.0, "lat": 38.911917833333334, "type": "electric_scooter", "lon": -77.03638766666667, "bike_id": "4d0c22893b9d4b82e3f2643fc2778195", "rental_uris": {"android": "https://dc.lft.to/lastmile_qr_scan", "ios": "https://dc.lft.to/lastmile_qr_scan"}, "name": "4d0c22893b9d4b82e3f2643fc2778195", "is_reserved": 0}, {"is_disabled": 0, "fusion_lon": 0.0, "fusion_lat": 0.0, "lat": 38.907421666666664, "type": "electric_scooter", "lon": -77.00737116666667, "bike_id": "b4b7164723f59c14410dde58d72688f3", "rental_uris": {"android": "https://dc.lft.to/lastmile_qr_scan", "ios": "https://dc.lft.to/lastmile_qr_scan"}, "name": "b4b7164723f59c14410dde58d72688f3", "is_reserved": 0}, {"is_disabled": 0, "fusion_lon": 0.0, "fusion_lat": 0.0, "lat": 38.90926733333333, "type": "electric_scooter", "lon": -77.03207716666667, "bike_id": "040f19c92ccf03cf1a5323265eb5d4ad", "rental_uris": {"android": "https://dc.lft.to/lastmile_qr_scan", "ios": "https://dc.lft.to/lastmile_qr_scan"}, "name": "040f19c92ccf03cf1a5323265eb5d4ad", "is_reserved": 0}, {"is_disabled": 0, "fusion_lon": 0.0, "fusion_lat": 0.0, "lat": 38.92175433333333, "type": "electric_scooter", "lon": -77.03831833333334, "bike_id": "a2a60234564fa656a822e2e16d76fec7", "rental_uris": {"android": "https://dc.lft.to/lastmile_qr_scan", "ios": "https://dc.lft.to/lastmile_qr_scan"}, "name": "a2a60234564fa656a822e2e16d76fec7", "is_reserved": 0}, {"is_disabled": 0, "fusion_lon": 0.0, "fusion_lat": 0.0, "lat": 38.91168366666667, "type": "electric_scooter", "lon": -77.02694583333333, "bike_id": "0f424b2f56b7289cf6c41360d6e320bb", "rental_uris": {"android": "https://dc.lft.to/lastmile_qr_scan", "ios": "https://dc.lft.to/lastmile_qr_scan"}, "name": "0f424b2f56b7289cf6c41360d6e320bb", "is_reserved": 0}, {"is_disabled": 0, "fusion_lon": 0.0, "fusion_lat": 0.0, "lat": 38.90373733333333, "type": "electric_scooter", "lon": -76.9896415, "bike_id": "21dbc54e4a3aa531cff1200d864c9a87", "rental_uris": {"android": "https://dc.lft.to/lastmile_qr_scan", "ios": "https://dc.lft.to/lastmile_qr_scan"}, "name": "21dbc54e4a3aa531cff1200d864c9a87", "is_reserved": 0}, {"is_disabled": 0, "fusion_lon": 0.0, "fusion_lat": 0.0, "lat": 38.92314866666667, "type": "electric_scooter", "lon": -77.03911716666667, "bike_id": "6192c5bda50f0e34959c66785e1edc9d", "rental_uris": {"android": "https://dc.lft.to/lastmile_qr_scan", "ios": "https://dc.lft.to/lastmile_qr_scan"}, "name": "6192c5bda50f0e34959c66785e1edc9d", "is_reserved": 0}, {"is_disabled": 0, "fusion_lon": 0.0, "fusion_lat": 0.0, "lat": 38.908714333333336, "type": "electric_scooter", "lon": -77.02696633333333, "bike_id": "b2d045cfcefd50936a3bf1388ffcbfb3", "rental_uris": {"android": "https://dc.lft.to/lastmile_qr_scan", "ios": "https://dc.lft.to/lastmile_qr_scan"}, "name": "b2d045cfcefd50936a3bf1388ffcbfb3", "is_reserved": 0}, {"is_disabled": 0, "fusion_lon": 0.0, "fusion_lat": 0.0, "lat": 38.942044, "type": "electric_scooter", "lon": -77.0183155, "bike_id": "cb278d5a6506af277801ce9fa4121e9a", "rental_uris": {"android": "https://dc.lft.to/lastmile_qr_scan", "ios": "https://dc.lft.to/lastmile_qr_scan"}, "name": "cb278d5a6506af277801ce9fa4121e9a", "is_reserved": 0}, {"is_disabled": 0, "fusion_lon": 0.0, "fusion_lat": 0.0, "lat": 38.913511, "type": "electric_scooter", "lon": -77.031984, "bike_id": "9d90f81bf5a3e8a668e3968460512eb9", "rental_uris": {"android": "https://dc.lft.to/lastmile_qr_scan", "ios": "https://dc.lft.to/lastmile_qr_scan"}, "name": "9d90f81bf5a3e8a668e3968460512eb9", "is_reserved": 0}, {"is_disabled": 0, "fusion_lon": 0.0, "fusion_lat": 0.0, "lat": 38.90941016666667, "type": "electric_scooter", "lon": -76.99210183333334, "bike_id": "f12c82b9461893e0103ed99d8de260dd", "rental_uris": {"android": "https://dc.lft.to/lastmile_qr_scan", "ios": "https://dc.lft.to/lastmile_qr_scan"}, "name": "f12c82b9461893e0103ed99d8de260dd", "is_reserved": 0}, {"is_disabled": 0, "fusion_lon": 0.0, "fusion_lat": 0.0, "lat": 38.905409666666664, "type": "electric_scooter", "lon": -77.029748, "bike_id": "0e2e6542d1a69e747399e0d550034e95", "rental_uris": {"android": "https://dc.lft.to/lastmile_qr_scan", "ios": "https://dc.lft.to/lastmile_qr_scan"}, "name": "0e2e6542d1a69e747399e0d550034e95", "is_reserved": 0}, {"is_disabled": 0, "fusion_lon": 0.0, "fusion_lat": 0.0, "lat": 38.89487916666667, "type": "electric_scooter", "lon": -77.02286833333334, "bike_id": "c2a008981c1aa8baf73060b958b5efd7", "rental_uris": {"android": "https://dc.lft.to/lastmile_qr_scan", "ios": "https://dc.lft.to/lastmile_qr_scan"}, "name": "c2a008981c1aa8baf73060b958b5efd7", "is_reserved": 0}, {"is_disabled": 0, "fusion_lon": 0.0, "fusion_lat": 0.0, "lat": 38.911406666666664, "type": "electric_scooter", "lon": -76.9848395, "bike_id": "2abbc4899bd71e905a0a0835204bde8c", "rental_uris": {"android": "https://dc.lft.to/lastmile_qr_scan", "ios": "https://dc.lft.to/lastmile_qr_scan"}, "name": "2abbc4899bd71e905a0a0835204bde8c", "is_reserved": 0}, {"is_disabled": 0, "fusion_lon": 0.0, "fusion_lat": 0.0, "lat": 38.8947885, "type": "electric_scooter", "lon": -76.97719433333333, "bike_id": "8cce4230de55593e0d80e70bf3c4398b", "rental_uris": {"android": "https://dc.lft.to/lastmile_qr_scan", "ios": "https://dc.lft.to/lastmile_qr_scan"}, "name": "8cce4230de55593e0d80e70bf3c4398b", "is_reserved": 0}, {"is_disabled": 0, "fusion_lon": 0.0, "fusion_lat": 0.0, "lat": 38.9445, "type": "electric_scooter", "lon": -77.0603595, "bike_id": "e700e7ff7f640f7f8dcfa76493a24806", "rental_uris": {"android": "https://dc.lft.to/lastmile_qr_scan", "ios": "https://dc.lft.to/lastmile_qr_scan"}, "name": "e700e7ff7f640f7f8dcfa76493a24806", "is_reserved": 0}, {"is_disabled": 0, "fusion_lon": 0.0, "fusion_lat": 0.0, "lat": 38.916330333333335, "type": "electric_scooter", "lon": -77.05061983333333, "bike_id": "2141c66e601577ee5ca5019dd836d54e", "rental_uris": {"android": "https://dc.lft.to/lastmile_qr_scan", "ios": "https://dc.lft.to/lastmile_qr_scan"}, "name": "2141c66e601577ee5ca5019dd836d54e", "is_reserved": 0}, {"is_disabled": 0, "fusion_lon": 0.0, "fusion_lat": 0.0, "lat": 38.905707166666666, "type": "electric_scooter", "lon": -77.00577283333334, "bike_id": "2403300b67eba4a54864d1a34ddceee8", "rental_uris": {"android": "https://dc.lft.to/lastmile_qr_scan", "ios": "https://dc.lft.to/lastmile_qr_scan"}, "name": "2403300b67eba4a54864d1a34ddceee8", "is_reserved": 0}, {"is_disabled": 0, "fusion_lon": 0.0, "fusion_lat": 0.0, "lat": 38.908567166666664, "type": "electric_scooter", "lon": -77.02596916666667, "bike_id": "63327e717e3b3a4804e913413c7eb027", "rental_uris": {"android": "https://dc.lft.to/lastmile_qr_scan", "ios": "https://dc.lft.to/lastmile_qr_scan"}, "name": "63327e717e3b3a4804e913413c7eb027", "is_reserved": 0}, {"is_disabled": 0, "fusion_lon": 0.0, "fusion_lat": 0.0, "lat": 38.90960533333333, "type": "electric_scooter", "lon": -77.03423216666667, "bike_id": "b57093607617f450433885e8b819acca", "rental_uris": {"android": "https://dc.lft.to/lastmile_qr_scan", "ios": "https://dc.lft.to/lastmile_qr_scan"}, "name": "b57093607617f450433885e8b819acca", "is_reserved": 0}, {"is_disabled": 0, "fusion_lon": 0.0, "fusion_lat": 0.0, "lat": 38.919054, "type": "electric_scooter", "lon": -77.01759616666666, "bike_id": "5af734e800fddeb72313cd29bd68203c", "rental_uris": {"android": "https://dc.lft.to/lastmile_qr_scan", "ios": "https://dc.lft.to/lastmile_qr_scan"}, "name": "5af734e800fddeb72313cd29bd68203c", "is_reserved": 0}, {"is_disabled": 0, "fusion_lon": 0.0, "fusion_lat": 0.0, "lat": 38.9166075, "type": "electric_scooter", "lon": -77.03856183333333, "bike_id": "be75094d47c3940a036a57dbf11f267d", "rental_uris": {"android": "https://dc.lft.to/lastmile_qr_scan", "ios": "https://dc.lft.to/lastmile_qr_scan"}, "name": "be75094d47c3940a036a57dbf11f267d", "is_reserved": 0}, {"is_disabled": 0, "fusion_lon": 0.0, "fusion_lat": 0.0, "lat": 38.92152866666667, "type": "electric_scooter", "lon": -77.0344135, "bike_id": "0e8e64ae69ebe27a8f8a78e99b72de70", "rental_uris": {"android": "https://dc.lft.to/lastmile_qr_scan", "ios": "https://dc.lft.to/lastmile_qr_scan"}, "name": "0e8e64ae69ebe27a8f8a78e99b72de70", "is_reserved": 0}, {"is_disabled": 0, "fusion_lon": 0.0, "fusion_lat": 0.0, "lat": 38.9131765, "type": "electric_scooter", "lon": -77.03853816666667, "bike_id": "e71b1a44e9eead7e5e85ee3156b30078", "rental_uris": {"android": "https://dc.lft.to/lastmile_qr_scan", "ios": "https://dc.lft.to/lastmile_qr_scan"}, "name": "e71b1a44e9eead7e5e85ee3156b30078", "is_reserved": 0}, {"is_disabled": 0, "fusion_lon": 0.0, "fusion_lat": 0.0, "lat": 38.930968, "type": "electric_scooter", "lon": -77.0313305, "bike_id": "e1274d24c49817a47e1133173851ce88", "rental_uris": {"android": "https://dc.lft.to/lastmile_qr_scan", "ios": "https://dc.lft.to/lastmile_qr_scan"}, "name": "e1274d24c49817a47e1133173851ce88", "is_reserved": 0}, {"is_disabled": 0, "fusion_lon": 0.0, "fusion_lat": 0.0, "lat": 38.897286333333334, "type": "electric_scooter", "lon": -77.00758283333333, "bike_id": "6db8e957e8f5f1b94406a629e8f16bb9", "rental_uris": {"android": "https://dc.lft.to/lastmile_qr_scan", "ios": "https://dc.lft.to/lastmile_qr_scan"}, "name": "6db8e957e8f5f1b94406a629e8f16bb9", "is_reserved": 0}, {"is_disabled": 0, "fusion_lon": 0.0, "fusion_lat": 0.0, "lat": 38.916938333333334, "type": "electric_scooter", "lon": -77.03583066666667, "bike_id": "4079cbd5de27cf39838d4d0422c8fbb2", "rental_uris": {"android": "https://dc.lft.to/lastmile_qr_scan", "ios": "https://dc.lft.to/lastmile_qr_scan"}, "name": "4079cbd5de27cf39838d4d0422c8fbb2", "is_reserved": 0}, {"is_disabled": 0, "fusion_lon": 0.0, "fusion_lat": 0.0, "lat": 38.8338115, "type": "electric_scooter", "lon": -76.99305383333333, "bike_id": "3c1bc5ec8897fd5f4193bedcd7670a6f", "rental_uris": {"android": "https://dc.lft.to/lastmile_qr_scan", "ios": "https://dc.lft.to/lastmile_qr_scan"}, "name": "3c1bc5ec8897fd5f4193bedcd7670a6f", "is_reserved": 0}, {"is_disabled": 0, "fusion_lon": 0.0, "fusion_lat": 0.0, "lat": 38.92609866666667, "type": "electric_scooter", "lon": -77.0241255, "bike_id": "c3b60bb6762a3f5d6c7a075c9b679c3f", "rental_uris": {"android": "https://dc.lft.to/lastmile_qr_scan", "ios": "https://dc.lft.to/lastmile_qr_scan"}, "name": "c3b60bb6762a3f5d6c7a075c9b679c3f", "is_reserved": 0}, {"is_disabled": 0, "fusion_lon": 0.0, "fusion_lat": 0.0, "lat": 38.858383833333335, "type": "electric_bike", "lon": -76.99282716666667, "bike_id": "c7fdaa498e7795ddb57a39b6106e1f70", "rental_uris": {"android": "https://dc.lft.to/lastmile_qr_scan", "ios": "https://dc.lft.to/lastmile_qr_scan"}, "name": "c7fdaa498e7795ddb57a39b6106e1f70", "is_reserved": 0}, {"is_disabled": 0, "fusion_lon": 0.0, "fusion_lat": 0.0, "lat": 38.92907783333333, "type": "electric_scooter", "lon": -77.03241683333333, "bike_id": "357594a24f407d74df5c7fd9817ac516", "rental_uris": {"android": "https://dc.lft.to/lastmile_qr_scan", "ios": "https://dc.lft.to/lastmile_qr_scan"}, "name": "357594a24f407d74df5c7fd9817ac516", "is_reserved": 0}, {"is_disabled": 0, "fusion_lon": 0.0, "fusion_lat": 0.0, "lat": 38.880033, "type": "electric_bike", "lon": -76.91595683333334, "bike_id": "ebe92f08636dbaf1bd9b0db45e85fb17", "rental_uris": {"android": "https://dc.lft.to/lastmile_qr_scan", "ios": "https://dc.lft.to/lastmile_qr_scan"}, "name": "ebe92f08636dbaf1bd9b0db45e85fb17", "is_reserved": 0}, {"is_disabled": 0, "fusion_lon": 0.0, "fusion_lat": 0.0, "lat": 38.93532783333333, "type": "electric_scooter", "lon": -77.0340835, "bike_id": "164f99d97324508733f156843050071e", "rental_uris": {"android": "https://dc.lft.to/lastmile_qr_scan", "ios": "https://dc.lft.to/lastmile_qr_scan"}, "name": "164f99d97324508733f156843050071e", "is_reserved": 0}, {"is_disabled": 0, "fusion_lon": 0.0, "fusion_lat": 0.0, "lat": 38.904466, "type": "electric_scooter", "lon": -77.06128883333334, "bike_id": "3a24f63d342479435c83c1cbc8e1a67c", "rental_uris": {"android": "https://dc.lft.to/lastmile_qr_scan", "ios": "https://dc.lft.to/lastmile_qr_scan"}, "name": "3a24f63d342479435c83c1cbc8e1a67c", "is_reserved": 0}, {"is_disabled": 0, "fusion_lon": 0.0, "fusion_lat": 0.0, "lat": 38.89241616666666, "type": "electric_scooter", "lon": -77.05035166666667, "bike_id": "23a424ba6dbb27a1e07610add8d1dee4", "rental_uris": {"android": "https://dc.lft.to/lastmile_qr_scan", "ios": "https://dc.lft.to/lastmile_qr_scan"}, "name": "23a424ba6dbb27a1e07610add8d1dee4", "is_reserved": 0}, {"is_disabled": 0, "fusion_lon": 0.0, "fusion_lat": 0.0, "lat": 38.92402, "type": "electric_scooter", "lon": -77.0408675, "bike_id": "bb34d697beb6ab1cce2cd96b04f00336", "rental_uris": {"android": "https://dc.lft.to/lastmile_qr_scan", "ios": "https://dc.lft.to/lastmile_qr_scan"}, "name": "bb34d697beb6ab1cce2cd96b04f00336", "is_reserved": 0}, {"is_disabled": 0, "fusion_lon": 0.0, "fusion_lat": 0.0, "lat": 38.9560985, "type": "electric_scooter", "lon": -77.03286483333333, "bike_id": "42d170ea0eb5d410c537b631f9aeb9d9", "rental_uris": {"android": "https://dc.lft.to/lastmile_qr_scan", "ios": "https://dc.lft.to/lastmile_qr_scan"}, "name": "42d170ea0eb5d410c537b631f9aeb9d9", "is_reserved": 0}, {"is_disabled": 0, "fusion_lon": 0.0, "fusion_lat": 0.0, "lat": 38.917955166666665, "type": "electric_scooter", "lon": -77.03434816666666, "bike_id": "06aa9e7e41853766ffc694aa7926fac6", "rental_uris": {"android": "https://dc.lft.to/lastmile_qr_scan", "ios": "https://dc.lft.to/lastmile_qr_scan"}, "name": "06aa9e7e41853766ffc694aa7926fac6", "is_reserved": 0}, {"is_disabled": 0, "fusion_lon": 0.0, "fusion_lat": 0.0, "lat": 38.922484, "type": "electric_scooter", "lon": -77.03089166666666, "bike_id": "95c65061afc57641b2387b2523d8d25b", "rental_uris": {"android": "https://dc.lft.to/lastmile_qr_scan", "ios": "https://dc.lft.to/lastmile_qr_scan"}, "name": "95c65061afc57641b2387b2523d8d25b", "is_reserved": 0}, {"is_disabled": 0, "fusion_lon": 0.0, "fusion_lat": 0.0, "lat": 38.881067333333334, "type": "electric_scooter", "lon": -77.01659733333334, "bike_id": "6756361bb3ef0b3ab7cdf9e36efae0a0", "rental_uris": {"android": "https://dc.lft.to/lastmile_qr_scan", "ios": "https://dc.lft.to/lastmile_qr_scan"}, "name": "6756361bb3ef0b3ab7cdf9e36efae0a0", "is_reserved": 0}, {"is_disabled": 0, "fusion_lon": 0.0, "fusion_lat": 0.0, "lat": 38.897308333333335, "type": "electric_scooter", "lon": -77.0498905, "bike_id": "71628604f802543c21cc73c4b65f1eb3", "rental_uris": {"android": "https://dc.lft.to/lastmile_qr_scan", "ios": "https://dc.lft.to/lastmile_qr_scan"}, "name": "71628604f802543c21cc73c4b65f1eb3", "is_reserved": 0}, {"is_disabled": 0, "fusion_lon": 0.0, "fusion_lat": 0.0, "lat": 38.88746666666667, "type": "electric_scooter", "lon": -77.0257035, "bike_id": "ecf40145e72b6a93112d77fce6a9ebc1", "rental_uris": {"android": "https://dc.lft.to/lastmile_qr_scan", "ios": "https://dc.lft.to/lastmile_qr_scan"}, "name": "ecf40145e72b6a93112d77fce6a9ebc1", "is_reserved": 0}, {"is_disabled": 0, "fusion_lon": 0.0, "fusion_lat": 0.0, "lat": 38.90834, "type": "electric_scooter", "lon": -77.04889216666666, "bike_id": "a3f264a515ea1073a5af2d4ebff09bff", "rental_uris": {"android": "https://dc.lft.to/lastmile_qr_scan", "ios": "https://dc.lft.to/lastmile_qr_scan"}, "name": "a3f264a515ea1073a5af2d4ebff09bff", "is_reserved": 0}, {"is_disabled": 0, "fusion_lon": 0.0, "fusion_lat": 0.0, "lat": 38.929613, "type": "electric_scooter", "lon": -77.055201, "bike_id": "3d5477715031b6ba2669bd233d6e59cf", "rental_uris": {"android": "https://dc.lft.to/lastmile_qr_scan", "ios": "https://dc.lft.to/lastmile_qr_scan"}, "name": "3d5477715031b6ba2669bd233d6e59cf", "is_reserved": 0}, {"is_disabled": 0, "fusion_lon": 0.0, "fusion_lat": 0.0, "lat": 38.966554333333335, "type": "electric_bike", "lon": -76.93022966666666, "bike_id": "dd01ce9d91e5bd6c61a04d4c44f76c16", "rental_uris": {"android": "https://dc.lft.to/lastmile_qr_scan", "ios": "https://dc.lft.to/lastmile_qr_scan"}, "name": "dd01ce9d91e5bd6c61a04d4c44f76c16", "is_reserved": 0}, {"is_disabled": 0, "fusion_lon": 0.0, "fusion_lat": 0.0, "lat": 38.915623333333336, "type": "electric_scooter", "lon": -77.031534, "bike_id": "f089602bafe31ddd98e44faaeaef2d43", "rental_uris": {"android": "https://dc.lft.to/lastmile_qr_scan", "ios": "https://dc.lft.to/lastmile_qr_scan"}, "name": "f089602bafe31ddd98e44faaeaef2d43", "is_reserved": 0}, {"is_disabled": 0, "fusion_lon": 0.0, "fusion_lat": 0.0, "lat": 38.9540045, "type": "electric_scooter", "lon": -77.02754833333333, "bike_id": "50c89fb5c90667bd945d2c8f2bc90d06", "rental_uris": {"android": "https://dc.lft.to/lastmile_qr_scan", "ios": "https://dc.lft.to/lastmile_qr_scan"}, "name": "50c89fb5c90667bd945d2c8f2bc90d06", "is_reserved": 0}, {"is_disabled": 0, "fusion_lon": 0.0, "fusion_lat": 0.0, "lat": 38.938763, "type": "electric_scooter", "lon": -77.03258216666667, "bike_id": "a064a640e47d3d6a9a2a7e2a2bf30ef9", "rental_uris": {"android": "https://dc.lft.to/lastmile_qr_scan", "ios": "https://dc.lft.to/lastmile_qr_scan"}, "name": "a064a640e47d3d6a9a2a7e2a2bf30ef9", "is_reserved": 0}, {"is_disabled": 0, "fusion_lon": 0.0, "fusion_lat": 0.0, "lat": 38.91545816666667, "type": "electric_scooter", "lon": -77.01968233333334, "bike_id": "3670fa26bfb877a55f7dc93b491d3943", "rental_uris": {"android": "https://dc.lft.to/lastmile_qr_scan", "ios": "https://dc.lft.to/lastmile_qr_scan"}, "name": "3670fa26bfb877a55f7dc93b491d3943", "is_reserved": 0}, {"is_disabled": 0, "fusion_lon": 0.0, "fusion_lat": 0.0, "lat": 38.91711816666667, "type": "electric_scooter", "lon": -77.03230783333333, "bike_id": "73cfade23e534e4d81061f57caa8ea5f", "rental_uris": {"android": "https://dc.lft.to/lastmile_qr_scan", "ios": "https://dc.lft.to/lastmile_qr_scan"}, "name": "73cfade23e534e4d81061f57caa8ea5f", "is_reserved": 0}, {"is_disabled": 0, "fusion_lon": 0.0, "fusion_lat": 0.0, "lat": 38.892795, "type": "electric_scooter", "lon": -77.0319795, "bike_id": "f79afbb1d54f395d306b9798bf6cd394", "rental_uris": {"android": "https://dc.lft.to/lastmile_qr_scan", "ios": "https://dc.lft.to/lastmile_qr_scan"}, "name": "f79afbb1d54f395d306b9798bf6cd394", "is_reserved": 0}, {"is_disabled": 0, "fusion_lon": 0.0, "fusion_lat": 0.0, "lat": 38.90052716666667, "type": "electric_scooter", "lon": -77.01237766666667, "bike_id": "a70798cdb2da8c6885e1b3b748196c64", "rental_uris": {"android": "https://dc.lft.to/lastmile_qr_scan", "ios": "https://dc.lft.to/lastmile_qr_scan"}, "name": "a70798cdb2da8c6885e1b3b748196c64", "is_reserved": 0}, {"is_disabled": 0, "fusion_lon": 0.0, "fusion_lat": 0.0, "lat": 38.9340055, "type": "electric_scooter", "lon": -77.02733116666667, "bike_id": "64bc598e8cf752d93a228dbb45673a37", "rental_uris": {"android": "https://dc.lft.to/lastmile_qr_scan", "ios": "https://dc.lft.to/lastmile_qr_scan"}, "name": "64bc598e8cf752d93a228dbb45673a37", "is_reserved": 0}, {"is_disabled": 0, "fusion_lon": 0.0, "fusion_lat": 0.0, "lat": 38.90088133333333, "type": "electric_scooter", "lon": -77.034522, "bike_id": "a5b006cfc986ceb6c9ea848e970e7b65", "rental_uris": {"android": "https://dc.lft.to/lastmile_qr_scan", "ios": "https://dc.lft.to/lastmile_qr_scan"}, "name": "a5b006cfc986ceb6c9ea848e970e7b65", "is_reserved": 0}, {"is_disabled": 0, "fusion_lon": 0.0, "fusion_lat": 0.0, "lat": 38.91734016666667, "type": "electric_scooter", "lon": -77.04171433333333, "bike_id": "749e7d8d2be8a545727ded4e6ff40aaf", "rental_uris": {"android": "https://dc.lft.to/lastmile_qr_scan", "ios": "https://dc.lft.to/lastmile_qr_scan"}, "name": "749e7d8d2be8a545727ded4e6ff40aaf", "is_reserved": 0}, {"is_disabled": 0, "fusion_lon": 0.0, "fusion_lat": 0.0, "lat": 38.87914033333333, "type": "electric_scooter", "lon": -77.00892183333333, "bike_id": "da7ab2b7fb1be45b37e889d3597be65e", "rental_uris": {"android": "https://dc.lft.to/lastmile_qr_scan", "ios": "https://dc.lft.to/lastmile_qr_scan"}, "name": "da7ab2b7fb1be45b37e889d3597be65e", "is_reserved": 0}, {"is_disabled": 0, "fusion_lon": 0.0, "fusion_lat": 0.0, "lat": 38.89676033333333, "type": "electric_scooter", "lon": -76.94714116666667, "bike_id": "90a8195bf283d8217aa3c24a1d731091", "rental_uris": {"android": "https://dc.lft.to/lastmile_qr_scan", "ios": "https://dc.lft.to/lastmile_qr_scan"}, "name": "90a8195bf283d8217aa3c24a1d731091", "is_reserved": 0}, {"is_disabled": 0, "fusion_lon": 0.0, "fusion_lat": 0.0, "lat": 38.96604683333333, "type": "electric_bike", "lon": -76.983385, "bike_id": "dedfd70cb60b6082413820662f7827d9", "rental_uris": {"android": "https://dc.lft.to/lastmile_qr_scan", "ios": "https://dc.lft.to/lastmile_qr_scan"}, "name": "dedfd70cb60b6082413820662f7827d9", "is_reserved": 0}, {"is_disabled": 0, "fusion_lon": 0.0, "fusion_lat": 0.0, "lat": 38.9356065, "type": "electric_scooter", "lon": -77.07335216666667, "bike_id": "00edbcdadba57c5a5902d5d0b3fc730e", "rental_uris": {"android": "https://dc.lft.to/lastmile_qr_scan", "ios": "https://dc.lft.to/lastmile_qr_scan"}, "name": "00edbcdadba57c5a5902d5d0b3fc730e", "is_reserved": 0}, {"is_disabled": 0, "fusion_lon": 0.0, "fusion_lat": 0.0, "lat": 38.848454, "type": "electric_bike", "lon": -77.08046566666667, "bike_id": "ba94782e854d410d04fa43debad3b953", "rental_uris": {"android": "https://dc.lft.to/lastmile_qr_scan", "ios": "https://dc.lft.to/lastmile_qr_scan"}, "name": "ba94782e854d410d04fa43debad3b953", "is_reserved": 0}, {"is_disabled": 0, "fusion_lon": 0.0, "fusion_lat": 0.0, "lat": 38.908510666666665, "type": "electric_scooter", "lon": -77.02384616666667, "bike_id": "78554434d13028ac78129d65332094df", "rental_uris": {"android": "https://dc.lft.to/lastmile_qr_scan", "ios": "https://dc.lft.to/lastmile_qr_scan"}, "name": "78554434d13028ac78129d65332094df", "is_reserved": 0}, {"is_disabled": 0, "fusion_lon": 0.0, "fusion_lat": 0.0, "lat": 38.90262383333334, "type": "electric_scooter", "lon": -77.036588, "bike_id": "047f6f5ccf4c710bc6bfcf13d04ba3ee", "rental_uris": {"android": "https://dc.lft.to/lastmile_qr_scan", "ios": "https://dc.lft.to/lastmile_qr_scan"}, "name": "047f6f5ccf4c710bc6bfcf13d04ba3ee", "is_reserved": 0}, {"is_disabled": 0, "fusion_lon": 0.0, "fusion_lat": 0.0, "lat": 38.875753833333334, "type": "electric_scooter", "lon": -77.01990966666666, "bike_id": "a65355d9319fe98d234444ff959ca4c2", "rental_uris": {"android": "https://dc.lft.to/lastmile_qr_scan", "ios": "https://dc.lft.to/lastmile_qr_scan"}, "name": "a65355d9319fe98d234444ff959ca4c2", "is_reserved": 0}, {"is_disabled": 0, "fusion_lon": 0.0, "fusion_lat": 0.0, "lat": 38.91793833333333, "type": "electric_scooter", "lon": -77.03661933333333, "bike_id": "1e87902203cfa575c68e0a197d9f3a29", "rental_uris": {"android": "https://dc.lft.to/lastmile_qr_scan", "ios": "https://dc.lft.to/lastmile_qr_scan"}, "name": "1e87902203cfa575c68e0a197d9f3a29", "is_reserved": 0}, {"is_disabled": 0, "fusion_lon": 0.0, "fusion_lat": 0.0, "lat": 38.900419666666664, "type": "electric_scooter", "lon": -77.00207983333334, "bike_id": "91f6a7da9f9e436c9632a5b3332ac35d", "rental_uris": {"android": "https://dc.lft.to/lastmile_qr_scan", "ios": "https://dc.lft.to/lastmile_qr_scan"}, "name": "91f6a7da9f9e436c9632a5b3332ac35d", "is_reserved": 0}, {"is_disabled": 0, "fusion_lon": 0.0, "fusion_lat": 0.0, "lat": 38.918005666666666, "type": "electric_scooter", "lon": -77.040292, "bike_id": "a4ab853602a610caae0e2d8c7c508a7f", "rental_uris": {"android": "https://dc.lft.to/lastmile_qr_scan", "ios": "https://dc.lft.to/lastmile_qr_scan"}, "name": "a4ab853602a610caae0e2d8c7c508a7f", "is_reserved": 0}, {"is_disabled": 0, "fusion_lon": 0.0, "fusion_lat": 0.0, "lat": 38.9156365, "type": "electric_scooter", "lon": -77.03275616666667, "bike_id": "b3640516d9d8bb7e207361ac1de9b280", "rental_uris": {"android": "https://dc.lft.to/lastmile_qr_scan", "ios": "https://dc.lft.to/lastmile_qr_scan"}, "name": "b3640516d9d8bb7e207361ac1de9b280", "is_reserved": 0}, {"is_disabled": 0, "fusion_lon": 0.0, "fusion_lat": 0.0, "lat": 38.92758666666667, "type": "electric_scooter", "lon": -77.0058995, "bike_id": "97745f03ae48572317bdf7f471f9f8e1", "rental_uris": {"android": "https://dc.lft.to/lastmile_qr_scan", "ios": "https://dc.lft.to/lastmile_qr_scan"}, "name": "97745f03ae48572317bdf7f471f9f8e1", "is_reserved": 0}, {"is_disabled": 0, "fusion_lon": 0.0, "fusion_lat": 0.0, "lat": 38.876609333333334, "type": "electric_scooter", "lon": -77.00577166666666, "bike_id": "e8028b5c85b5a0a3d670277e24b3277d", "rental_uris": {"android": "https://dc.lft.to/lastmile_qr_scan", "ios": "https://dc.lft.to/lastmile_qr_scan"}, "name": "e8028b5c85b5a0a3d670277e24b3277d", "is_reserved": 0}, {"is_disabled": 0, "fusion_lon": 0.0, "fusion_lat": 0.0, "lat": 38.9170195, "type": "electric_scooter", "lon": -77.00960816666667, "bike_id": "83934450911afc7170f6c7d3bb482037", "rental_uris": {"android": "https://dc.lft.to/lastmile_qr_scan", "ios": "https://dc.lft.to/lastmile_qr_scan"}, "name": "83934450911afc7170f6c7d3bb482037", "is_reserved": 0}, {"is_disabled": 0, "fusion_lon": 0.0, "fusion_lat": 0.0, "lat": 38.91939083333333, "type": "electric_scooter", "lon": -76.98072466666666, "bike_id": "5214055fe0f27a3f44eb62b895a43631", "rental_uris": {"android": "https://dc.lft.to/lastmile_qr_scan", "ios": "https://dc.lft.to/lastmile_qr_scan"}, "name": "5214055fe0f27a3f44eb62b895a43631", "is_reserved": 0}, {"is_disabled": 0, "fusion_lon": 0.0, "fusion_lat": 0.0, "lat": 38.85513783333333, "type": "electric_bike", "lon": -76.95838066666667, "bike_id": "63d38c09196b3162ca83b2987dc494a5", "rental_uris": {"android": "https://dc.lft.to/lastmile_qr_scan", "ios": "https://dc.lft.to/lastmile_qr_scan"}, "name": "63d38c09196b3162ca83b2987dc494a5", "is_reserved": 0}, {"is_disabled": 0, "fusion_lon": 0.0, "fusion_lat": 0.0, "lat": 38.94454416666667, "type": "electric_scooter", "lon": -77.063493, "bike_id": "dd3f5101327fbed912c1f7335399f9cb", "rental_uris": {"android": "https://dc.lft.to/lastmile_qr_scan", "ios": "https://dc.lft.to/lastmile_qr_scan"}, "name": "dd3f5101327fbed912c1f7335399f9cb", "is_reserved": 0}, {"is_disabled": 0, "fusion_lon": 0.0, "fusion_lat": 0.0, "lat": 38.940850166666664, "type": "electric_scooter", "lon": -77.02112483333333, "bike_id": "f9b4ec78597fb2001aa1408a1abf7455", "rental_uris": {"android": "https://dc.lft.to/lastmile_qr_scan", "ios": "https://dc.lft.to/lastmile_qr_scan"}, "name": "f9b4ec78597fb2001aa1408a1abf7455", "is_reserved": 0}, {"is_disabled": 0, "fusion_lon": 0.0, "fusion_lat": 0.0, "lat": 38.909564833333334, "type": "electric_scooter", "lon": -77.01570833333334, "bike_id": "31dddeb74bacdbe15912fd5a95574019", "rental_uris": {"android": "https://dc.lft.to/lastmile_qr_scan", "ios": "https://dc.lft.to/lastmile_qr_scan"}, "name": "31dddeb74bacdbe15912fd5a95574019", "is_reserved": 0}, {"is_disabled": 0, "fusion_lon": 0.0, "fusion_lat": 0.0, "lat": 38.9112575, "type": "electric_scooter", "lon": -77.05936833333334, "bike_id": "50e401bfae8fe875857cebe41facdd37", "rental_uris": {"android": "https://dc.lft.to/lastmile_qr_scan", "ios": "https://dc.lft.to/lastmile_qr_scan"}, "name": "50e401bfae8fe875857cebe41facdd37", "is_reserved": 0}, {"is_disabled": 0, "fusion_lon": 0.0, "fusion_lat": 0.0, "lat": 38.895373666666664, "type": "electric_scooter", "lon": -77.0412695, "bike_id": "cfe5ef3ef06a60b68ff7bb91759281b8", "rental_uris": {"android": "https://dc.lft.to/lastmile_qr_scan", "ios": "https://dc.lft.to/lastmile_qr_scan"}, "name": "cfe5ef3ef06a60b68ff7bb91759281b8", "is_reserved": 0}, {"is_disabled": 0, "fusion_lon": 0.0, "fusion_lat": 0.0, "lat": 38.900054, "type": "electric_scooter", "lon": -76.9988385, "bike_id": "b22303cca2b4e516276959568eb4b925", "rental_uris": {"android": "https://dc.lft.to/lastmile_qr_scan", "ios": "https://dc.lft.to/lastmile_qr_scan"}, "name": "b22303cca2b4e516276959568eb4b925", "is_reserved": 0}, {"is_disabled": 0, "fusion_lon": 0.0, "fusion_lat": 0.0, "lat": 38.898344, "type": "electric_scooter", "lon": -76.94632616666667, "bike_id": "8ac0ef25bd95097bf3dadd244ce874de", "rental_uris": {"android": "https://dc.lft.to/lastmile_qr_scan", "ios": "https://dc.lft.to/lastmile_qr_scan"}, "name": "8ac0ef25bd95097bf3dadd244ce874de", "is_reserved": 0}, {"is_disabled": 0, "fusion_lon": 0.0, "fusion_lat": 0.0, "lat": 38.896063833333336, "type": "electric_scooter", "lon": -77.00919566666667, "bike_id": "b07a7cb4bafdcfafa96650b15741bd82", "rental_uris": {"android": "https://dc.lft.to/lastmile_qr_scan", "ios": "https://dc.lft.to/lastmile_qr_scan"}, "name": "b07a7cb4bafdcfafa96650b15741bd82", "is_reserved": 0}, {"is_disabled": 0, "fusion_lon": 0.0, "fusion_lat": 0.0, "lat": 38.884808666666665, "type": "electric_scooter", "lon": -76.92965266666667, "bike_id": "55af0e9622557d58a822a8ffe14a16da", "rental_uris": {"android": "https://dc.lft.to/lastmile_qr_scan", "ios": "https://dc.lft.to/lastmile_qr_scan"}, "name": "55af0e9622557d58a822a8ffe14a16da", "is_reserved": 0}, {"is_disabled": 0, "fusion_lon": 0.0, "fusion_lat": 0.0, "lat": 38.91416483333333, "type": "electric_scooter", "lon": -77.031913, "bike_id": "acd9e7659ea8c00903e54c367608e10f", "rental_uris": {"android": "https://dc.lft.to/lastmile_qr_scan", "ios": "https://dc.lft.to/lastmile_qr_scan"}, "name": "acd9e7659ea8c00903e54c367608e10f", "is_reserved": 0}, {"is_disabled": 0, "fusion_lon": 0.0, "fusion_lat": 0.0, "lat": 38.9024125, "type": "electric_scooter", "lon": -77.0343485, "bike_id": "b93dd0f8e3d5711745ce6abee518ebdd", "rental_uris": {"android": "https://dc.lft.to/lastmile_qr_scan", "ios": "https://dc.lft.to/lastmile_qr_scan"}, "name": "b93dd0f8e3d5711745ce6abee518ebdd", "is_reserved": 0}, {"is_disabled": 0, "fusion_lon": 0.0, "fusion_lat": 0.0, "lat": 38.92525666666667, "type": "electric_scooter", "lon": -77.04426116666667, "bike_id": "4cd71a1132cc8e6c2309499a620bf9c6", "rental_uris": {"android": "https://dc.lft.to/lastmile_qr_scan", "ios": "https://dc.lft.to/lastmile_qr_scan"}, "name": "4cd71a1132cc8e6c2309499a620bf9c6", "is_reserved": 0}, {"is_disabled": 0, "fusion_lon": 0.0, "fusion_lat": 0.0, "lat": 38.90530033333334, "type": "electric_scooter", "lon": -77.05085083333333, "bike_id": "a6e7d09e578e6c914b821bb21732a4ad", "rental_uris": {"android": "https://dc.lft.to/lastmile_qr_scan", "ios": "https://dc.lft.to/lastmile_qr_scan"}, "name": "a6e7d09e578e6c914b821bb21732a4ad", "is_reserved": 0}, {"is_disabled": 0, "fusion_lon": 0.0, "fusion_lat": 0.0, "lat": 38.9163245, "type": "electric_scooter", "lon": -77.040245, "bike_id": "9eb6f9ea3bc1e3b9a47135a861e180e8", "rental_uris": {"android": "https://dc.lft.to/lastmile_qr_scan", "ios": "https://dc.lft.to/lastmile_qr_scan"}, "name": "9eb6f9ea3bc1e3b9a47135a861e180e8", "is_reserved": 0}, {"is_disabled": 0, "fusion_lon": 0.0, "fusion_lat": 0.0, "lat": 38.902771666666666, "type": "electric_scooter", "lon": -77.05319566666667, "bike_id": "7dee48157dbd4c9cc305af0083444c45", "rental_uris": {"android": "https://dc.lft.to/lastmile_qr_scan", "ios": "https://dc.lft.to/lastmile_qr_scan"}, "name": "7dee48157dbd4c9cc305af0083444c45", "is_reserved": 0}, {"is_disabled": 0, "fusion_lon": 0.0, "fusion_lat": 0.0, "lat": 38.9156315, "type": "electric_scooter", "lon": -77.03147816666667, "bike_id": "12199e0624296d9e303f0d31f1a3d175", "rental_uris": {"android": "https://dc.lft.to/lastmile_qr_scan", "ios": "https://dc.lft.to/lastmile_qr_scan"}, "name": "12199e0624296d9e303f0d31f1a3d175", "is_reserved": 0}, {"is_disabled": 0, "fusion_lon": 0.0, "fusion_lat": 0.0, "lat": 38.919175333333335, "type": "electric_scooter", "lon": -77.04178516666667, "bike_id": "8a5f1663a51a9e37755b09e0bf231386", "rental_uris": {"android": "https://dc.lft.to/lastmile_qr_scan", "ios": "https://dc.lft.to/lastmile_qr_scan"}, "name": "8a5f1663a51a9e37755b09e0bf231386", "is_reserved": 0}, {"is_disabled": 0, "fusion_lon": 0.0, "fusion_lat": 0.0, "lat": 38.9188645, "type": "electric_scooter", "lon": -77.047257, "bike_id": "2ad8461ef7a7f42d7ac925d7e7731cfc", "rental_uris": {"android": "https://dc.lft.to/lastmile_qr_scan", "ios": "https://dc.lft.to/lastmile_qr_scan"}, "name": "2ad8461ef7a7f42d7ac925d7e7731cfc", "is_reserved": 0}, {"is_disabled": 0, "fusion_lon": 0.0, "fusion_lat": 0.0, "lat": 38.947853, "type": "electric_scooter", "lon": -77.09274466666666, "bike_id": "29b4806e22993ec5ae5b67127204950d", "rental_uris": {"android": "https://dc.lft.to/lastmile_qr_scan", "ios": "https://dc.lft.to/lastmile_qr_scan"}, "name": "29b4806e22993ec5ae5b67127204950d", "is_reserved": 0}, {"is_disabled": 0, "fusion_lon": 0.0, "fusion_lat": 0.0, "lat": 38.905288166666665, "type": "electric_scooter", "lon": -77.02972983333333, "bike_id": "dd7e45c3de6babf60de3dd99a26f8f54", "rental_uris": {"android": "https://dc.lft.to/lastmile_qr_scan", "ios": "https://dc.lft.to/lastmile_qr_scan"}, "name": "dd7e45c3de6babf60de3dd99a26f8f54", "is_reserved": 0}, {"is_disabled": 0, "fusion_lon": 0.0, "fusion_lat": 0.0, "lat": 38.8961575, "type": "electric_scooter", "lon": -76.99637216666666, "bike_id": "009546fe3c987a3880e894698a957a31", "rental_uris": {"android": "https://dc.lft.to/lastmile_qr_scan", "ios": "https://dc.lft.to/lastmile_qr_scan"}, "name": "009546fe3c987a3880e894698a957a31", "is_reserved": 0}, {"is_disabled": 0, "fusion_lon": 0.0, "fusion_lat": 0.0, "lat": 38.899690666666665, "type": "electric_scooter", "lon": -77.04617333333333, "bike_id": "7ceb10ac14764e98d5fa9cfc4ecd2daf", "rental_uris": {"android": "https://dc.lft.to/lastmile_qr_scan", "ios": "https://dc.lft.to/lastmile_qr_scan"}, "name": "7ceb10ac14764e98d5fa9cfc4ecd2daf", "is_reserved": 0}, {"is_disabled": 0, "fusion_lon": 0.0, "fusion_lat": 0.0, "lat": 38.9156785, "type": "electric_scooter", "lon": -77.0327565, "bike_id": "a2fcb0c2da7d463c2083a7f58edb4bdb", "rental_uris": {"android": "https://dc.lft.to/lastmile_qr_scan", "ios": "https://dc.lft.to/lastmile_qr_scan"}, "name": "a2fcb0c2da7d463c2083a7f58edb4bdb", "is_reserved": 0}, {"is_disabled": 0, "fusion_lon": 0.0, "fusion_lat": 0.0, "lat": 38.912611166666665, "type": "electric_scooter", "lon": -77.03263133333333, "bike_id": "5f109a39368fe147ec32b6c90d97b71a", "rental_uris": {"android": "https://dc.lft.to/lastmile_qr_scan", "ios": "https://dc.lft.to/lastmile_qr_scan"}, "name": "5f109a39368fe147ec32b6c90d97b71a", "is_reserved": 0}, {"is_disabled": 0, "fusion_lon": 0.0, "fusion_lat": 0.0, "lat": 38.90963283333333, "type": "electric_scooter", "lon": -77.03180083333334, "bike_id": "c5406675cabb3e1e724dbc6731cbcd64", "rental_uris": {"android": "https://dc.lft.to/lastmile_qr_scan", "ios": "https://dc.lft.to/lastmile_qr_scan"}, "name": "c5406675cabb3e1e724dbc6731cbcd64", "is_reserved": 0}, {"is_disabled": 0, "fusion_lon": 0.0, "fusion_lat": 0.0, "lat": 38.917070833333334, "type": "electric_scooter", "lon": -77.03234016666667, "bike_id": "edb0993b6d1b631dbd712dfead995c66", "rental_uris": {"android": "https://dc.lft.to/lastmile_qr_scan", "ios": "https://dc.lft.to/lastmile_qr_scan"}, "name": "edb0993b6d1b631dbd712dfead995c66", "is_reserved": 0}, {"is_disabled": 0, "fusion_lon": 0.0, "fusion_lat": 0.0, "lat": 38.9187295, "type": "electric_bike", "lon": -76.96124966666666, "bike_id": "d2bdd30b4ec2ce5c2e0793ff9f99bd26", "rental_uris": {"android": "https://dc.lft.to/lastmile_qr_scan", "ios": "https://dc.lft.to/lastmile_qr_scan"}, "name": "d2bdd30b4ec2ce5c2e0793ff9f99bd26", "is_reserved": 0}, {"is_disabled": 0, "fusion_lon": 0.0, "fusion_lat": 0.0, "lat": 38.905507666666665, "type": "electric_scooter", "lon": -77.02960766666666, "bike_id": "224187f934519280d269fb1e6b03f08e", "rental_uris": {"android": "https://dc.lft.to/lastmile_qr_scan", "ios": "https://dc.lft.to/lastmile_qr_scan"}, "name": "224187f934519280d269fb1e6b03f08e", "is_reserved": 0}, {"is_disabled": 0, "fusion_lon": 0.0, "fusion_lat": 0.0, "lat": 38.90551266666667, "type": "electric_scooter", "lon": -77.02946733333333, "bike_id": "d22910d51603c05d9faf561336b15904", "rental_uris": {"android": "https://dc.lft.to/lastmile_qr_scan", "ios": "https://dc.lft.to/lastmile_qr_scan"}, "name": "d22910d51603c05d9faf561336b15904", "is_reserved": 0}, {"is_disabled": 0, "fusion_lon": 0.0, "fusion_lat": 0.0, "lat": 38.90183316666667, "type": "electric_scooter", "lon": -76.92824083333333, "bike_id": "3dfa0f8beb0bc6c86f2b19e23c3177eb", "rental_uris": {"android": "https://dc.lft.to/lastmile_qr_scan", "ios": "https://dc.lft.to/lastmile_qr_scan"}, "name": "3dfa0f8beb0bc6c86f2b19e23c3177eb", "is_reserved": 0},