{"data": {"bikes": [{"is_disabled": 0, "is_reserved": 0, "fusion_lat": 0.0, "lat": 38.928823, "fusion_lon": 0.0, "rental_uris": {"ios": "https://dc.lft.to/lastmile_qr_scan", "android": "https://dc.lft.to/lastmile_qr_scan"}, "lon": -77.01375616666667, "bike_id": "4fb101428171b200409819823327b0cc", "type": "electric_scooter", "name": "4fb101428171b200409819823327b0cc"}, {"is_disabled": 0, "is_reserved": 0, "fusion_lat": 0.0, "lat": 38.892310333333334, "fusion_lon": 0.0, "rental_uris": {"ios": "https://dc.lft.to/lastmile_qr_scan", "android": "https://dc.lft.to/lastmile_qr_scan"}, "lon": -77.02806183333334, "bike_id": "9955592d19383e843c5220ea757abd80", "type": "electric_scooter", "name": "9955592d19383e843c5220ea757abd80"}, {"is_disabled": 0, "is_reserved": 0, "fusion_lat": 0.0, "lat": 38.876361833333334, "fusion_lon": 0.0, "rental_uris": {"ios": "https://dc.lft.to/lastmile_qr_scan", "android": "https://dc.lft.to/lastmile_qr_scan"}, "lon": -76.9929465, "bike_id": "b2b7e9caad0f77ed56afe904d9db9796", "type": "electric_scooter", "name": "b2b7e9caad0f77ed56afe904d9db9796"}, {"is_disabled": 0, "is_reserved": 0, "fusion_lat": 0.0, "lat": 38.906369, "fusion_lon": 0.0, "rental_uris": {"ios": "https://dc.lft.to/lastmile_qr_scan", "android": "https://dc.lft.to/lastmile_qr_scan"}, "lon": -77.06909833333333, "bike_id": "f75d577a3b539aabac54542568d9723c", "type": "electric_scooter", "name": "f75d577a3b539aabac54542568d9723c"}, {"is_disabled": 0, "is_reserved": 0, "fusion_lat": 0.0, "lat": 38.9056255, "fusion_lon": 0.0, "rental_uris": {"ios": "https://dc.lft.to/lastmile_qr_scan", "android": "https://dc.lft.to/lastmile_qr_scan"}, "lon": -77.0320715, "bike_id": "ba523c6d60a90ac40359b71cd3c679c8", "type": "electric_scooter", "name": "ba523c6d60a90ac40359b71cd3c679c8"}, {"is_disabled": 0, "is_reserved": 0, "fusion_lat": 0.0, "lat": 38.891348, "fusion_lon": 0.0, "rental_uris": {"ios": "https://dc.lft.to/lastmile_qr_scan", "android": "https://dc.lft.to/lastmile_qr_scan"}, "lon": -76.999448, "bike_id": "b63be17596588d998099eceaef73ac45", "type": "electric_scooter", "name": "b63be17596588d998099eceaef73ac45"}, {"is_disabled": 0, "is_reserved": 0, "fusion_lat": 0.0, "lat": 38.91110916666667, "fusion_lon": 0.0, "rental_uris": {"ios": "https://dc.lft.to/lastmile_qr_scan", "android": "https://dc.lft.to/lastmile_qr_scan"}, "lon": -77.03826333333333, "bike_id": "8838e2b7e564af6723be4656398bb676", "type": "electric_scooter", "name": "8838e2b7e564af6723be4656398bb676"}, {"is_disabled": 0, "is_reserved": 0, "fusion_lat": 0.0, "lat": 38.954294166666664, "fusion_lon": 0.0, "rental_uris": {"ios": "https://dc.lft.to/lastmile_qr_scan", "android": "https://dc.lft.to/lastmile_qr_scan"}, "lon": -76.98795266666667, "bike_id": "b07530fefd0a554f9a6d96493ae9fde7", "type": "electric_scooter", "name": "b07530fefd0a554f9a6d96493ae9fde7"}, {"is_disabled": 0, "is_reserved": 0, "fusion_lat": 0.0, "lat": 38.8646875, "fusion_lon": 0.0, "rental_uris": {"ios": "https://dc.lft.to/lastmile_qr_scan", "android": "https://dc.lft.to/lastmile_qr_scan"}, "lon": -76.977582, "bike_id": "b3117ffca41a9920c1b527b915f22132", "type": "electric_scooter", "name": "b3117ffca41a9920c1b527b915f22132"}, {"is_disabled": 0, "is_reserved": 0, "fusion_lat": 0.0, "lat": 38.9006915, "fusion_lon": 0.0, "rental_uris": {"ios": "https://dc.lft.to/lastmile_qr_scan", "android": "https://dc.lft.to/lastmile_qr_scan"}, "lon": -77.04692366666667, "bike_id": "f23352c14f0285b5f8b2bdab19864c38", "type": "electric_scooter", "name": "f23352c14f0285b5f8b2bdab19864c38"}, {"is_disabled": 0, "is_reserved": 0, "fusion_lat": 0.0, "lat": 38.9241045, "fusion_lon": 0.0, "rental_uris": {"ios": "https://dc.lft.to/lastmile_qr_scan", "android": "https://dc.lft.to/lastmile_qr_scan"}, "lon": -77.02708933333334, "bike_id": "153752e123a56f11a6753e509b3ea2b3", "type": "electric_scooter", "name": "153752e123a56f11a6753e509b3ea2b3"}, {"is_disabled": 0, "is_reserved": 0, "fusion_lat": 0.0, "lat": 38.858337666666664, "fusion_lon": 0.0, "rental_uris": {"ios": "https://dc.lft.to/lastmile_qr_scan", "android": "https://dc.lft.to/lastmile_qr_scan"}, "lon": -76.98817966666667, "bike_id": "25efb6d722c8e3e8abc1d232d07bca2e", "type": "electric_scooter", "name": "25efb6d722c8e3e8abc1d232d07bca2e"}, {"is_disabled": 0, "is_reserved": 0, "fusion_lat": 0.0, "lat": 38.90026783333333, "fusion_lon": 0.0, "rental_uris": {"ios": "https://dc.lft.to/lastmile_qr_scan", "android": "https://dc.lft.to/lastmile_qr_scan"}, "lon": -76.99834633333333, "bike_id": "e15cb9e15821e3b66a7d9b96f2d11e5f", "type": "electric_scooter", "name": "e15cb9e15821e3b66a7d9b96f2d11e5f"}, {"is_disabled": 0, "is_reserved": 0, "fusion_lat": 0.0, "lat": 38.857927833333335, "fusion_lon": 0.0, "rental_uris": {"ios": "https://dc.lft.to/lastmile_qr_scan", "android": "https://dc.lft.to/lastmile_qr_scan"}, "lon": -76.9875635, "bike_id": "c4aa23d411e887a0fb54fcc7107595be", "type": "electric_bike", "name": "c4aa23d411e887a0fb54fcc7107595be"}, {"is_disabled": 0, "is_reserved": 0, "fusion_lat": 0.0, "lat": 38.923178666666665, "fusion_lon": 0.0, "rental_uris": {"ios": "https://dc.lft.to/lastmile_qr_scan", "android": "https://dc.lft.to/lastmile_qr_scan"}, "lon": -77.02813116666667, "bike_id": "26e03f38e20d66b74db27ecf3c4c2b62", "type": "electric_scooter", "name": "26e03f38e20d66b74db27ecf3c4c2b62"}, {"is_disabled": 0, "is_reserved": 0, "fusion_lat": 0.0, "lat": 38.897471333333336, "fusion_lon": 0.0, "rental_uris": {"ios": "https://dc.lft.to/lastmile_qr_scan", "android": "https://dc.lft.to/lastmile_qr_scan"}, "lon": -77.027283, "bike_id": "4ef76e351b936314bfbbb6a0b44dc04d", "type": "electric_scooter", "name": "4ef76e351b936314bfbbb6a0b44dc04d"}, {"is_disabled": 0, "is_reserved": 0, "fusion_lat": 0.0, "lat": 38.914005, "fusion_lon": 0.0, "rental_uris": {"ios": "https://dc.lft.to/lastmile_qr_scan", "android": "https://dc.lft.to/lastmile_qr_scan"}, "lon": -77.04577433333333, "bike_id": "e35654ee306ced4b43aaca2d5c6ec70a", "type": "electric_scooter", "name": "e35654ee306ced4b43aaca2d5c6ec70a"}, {"is_disabled": 0, "is_reserved": 0, "fusion_lat": 0.0, "lat": 38.920283, "fusion_lon": 0.0, "rental_uris": {"ios": "https://dc.lft.to/lastmile_qr_scan", "android": "https://dc.lft.to/lastmile_qr_scan"}, "lon": -77.03078533333333, "bike_id": "282a534af1e85714d6fb6ea79f516329", "type": "electric_scooter", "name": "282a534af1e85714d6fb6ea79f516329"}, {"is_disabled": 0, "is_reserved": 0, "fusion_lat": 0.0, "lat": 38.93659683333333, "fusion_lon": 0.0, "rental_uris": {"ios": "https://dc.lft.to/lastmile_qr_scan", "android": "https://dc.lft.to/lastmile_qr_scan"}, "lon": -77.06608633333333, "bike_id": "c9a034532b169c7805b3aa6808f0aedf", "type": "electric_scooter", "name": "c9a034532b169c7805b3aa6808f0aedf"}, {"is_disabled": 0, "is_reserved": 0, "fusion_lat": 0.0, "lat": 38.928465333333335, "fusion_lon": 0.0, "rental_uris": {"ios": "https://dc.lft.to/lastmile_qr_scan", "android": "https://dc.lft.to/lastmile_qr_scan"}, "lon": -77.037326, "bike_id": "8fd7186fe8045d5ecd429b1edc23782f", "type": "electric_scooter", "name": "8fd7186fe8045d5ecd429b1edc23782f"}, {"is_disabled": 0, "is_reserved": 0, "fusion_lat": 0.0, "lat": 38.9289145, "fusion_lon": 0.0, "rental_uris": {"ios": "https://dc.lft.to/lastmile_qr_scan", "android": "https://dc.lft.to/lastmile_qr_scan"}, "lon": -77.01940216666667, "bike_id": "32b2ddd09e150ff859a51804d6f45392", "type": "electric_scooter", "name": "32b2ddd09e150ff859a51804d6f45392"}, {"is_disabled": 0, "is_reserved": 0, "fusion_lat": 0.0, "lat": 38.894924333333336, "fusion_lon": 0.0, "rental_uris": {"ios": "https://dc.lft.to/lastmile_qr_scan", "android": "https://dc.lft.to/lastmile_qr_scan"}, "lon": -77.02286933333333, "bike_id": "e5dbb06cbb928fece063b128a43a61b0", "type": "electric_scooter", "name": "e5dbb06cbb928fece063b128a43a61b0"}, {"is_disabled": 0, "is_reserved": 0, "fusion_lat": 0.0, "lat": 38.922518333333336, "fusion_lon": 0.0, "rental_uris": {"ios": "https://dc.lft.to/lastmile_qr_scan", "android": "https://dc.lft.to/lastmile_qr_scan"}, "lon": -77.04290783333333, "bike_id": "30f98d7c2c9925b4b84438278ad18272", "type": "electric_scooter", "name": "30f98d7c2c9925b4b84438278ad18272"}, {"is_disabled": 0, "is_reserved": 0, "fusion_lat": 0.0, "lat": 38.832958833333336, "fusion_lon": 0.0, "rental_uris": {"ios": "https://dc.lft.to/lastmile_qr_scan", "android": "https://dc.lft.to/lastmile_qr_scan"}, "lon": -77.08408816666666, "bike_id": "a7e61cd035322ed76634a5279b38632f", "type": "electric_bike", "name": "a7e61cd035322ed76634a5279b38632f"}, {"is_disabled": 0, "is_reserved": 0, "fusion_lat": 0.0, "lat": 38.90434333333333, "fusion_lon": 0.0, "rental_uris": {"ios": "https://dc.lft.to/lastmile_qr_scan", "android": "https://dc.lft.to/lastmile_qr_scan"}, "lon": -76.9723365, "bike_id": "15ab6922d681894bfe00a0dbea55dc12", "type": "electric_bike", "name": "15ab6922d681894bfe00a0dbea55dc12"}, {"is_disabled": 0, "is_reserved": 0, "fusion_lat": 0.0, "lat": 38.92647816666667, "fusion_lon": 0.0, "rental_uris": {"ios": "https://dc.lft.to/lastmile_qr_scan", "android": "https://dc.lft.to/lastmile_qr_scan"}, "lon": -77.03699616666667, "bike_id": "a240c3ca964caa61e974216f69d67da1", "type": "electric_scooter", "name": "a240c3ca964caa61e974216f69d67da1"}, {"is_disabled": 0, "is_reserved": 0, "fusion_lat": 0.0, "lat": 38.92075616666666, "fusion_lon": 0.0, "rental_uris": {"ios": "https://dc.lft.to/lastmile_qr_scan", "android": "https://dc.lft.to/lastmile_qr_scan"}, "lon": -77.0252515, "bike_id": "a42462369d4a31b1bc412dd5b0cb338a", "type": "electric_scooter", "name": "a42462369d4a31b1bc412dd5b0cb338a"}, {"is_disabled": 0, "is_reserved": 0, "fusion_lat": 0.0, "lat": 38.902621, "fusion_lon": 0.0, "rental_uris": {"ios": "https://dc.lft.to/lastmile_qr_scan", "android": "https://dc.lft.to/lastmile_qr_scan"}, "lon": -77.039741, "bike_id": "bf1860d18ed0563da7feedfcb9e6220a", "type": "electric_scooter", "name": "bf1860d18ed0563da7feedfcb9e6220a"}, {"is_disabled": 0, "is_reserved": 0, "fusion_lat": 0.0, "lat": 38.898498000000004, "fusion_lon": 0.0, "rental_uris": {"ios": "https://dc.lft.to/lastmile_qr_scan", "android": "https://dc.lft.to/lastmile_qr_scan"}, "lon": -76.927514, "bike_id": "8995abb13256219ce752b23fc0d3c7ff", "type": "electric_scooter", "name": "8995abb13256219ce752b23fc0d3c7ff"}, {"is_disabled": 0, "is_reserved": 0, "fusion_lat": 0.0, "lat": 38.88373033333333, "fusion_lon": 0.0, "rental_uris": {"ios": "https://dc.lft.to/lastmile_qr_scan", "android": "https://dc.lft.to/lastmile_qr_scan"}, "lon": -76.99516, "bike_id": "2bbc6c435c10d21f26b1f1b05608c715", "type": "electric_scooter", "name": "2bbc6c435c10d21f26b1f1b05608c715"}, {"is_disabled": 0, "is_reserved": 0, "fusion_lat": 0.0, "lat": 38.91267083333334, "fusion_lon": 0.0, "rental_uris": {"ios": "https://dc.lft.to/lastmile_qr_scan", "android": "https://dc.lft.to/lastmile_qr_scan"}, "lon": -77.03216516666667, "bike_id": "5d26917539b6ec7969cdeb72905106f2", "type": "electric_scooter", "name": "5d26917539b6ec7969cdeb72905106f2"}, {"is_disabled": 0, "is_reserved": 0, "fusion_lat": 0.0, "lat": 38.9181485, "fusion_lon": 0.0, "rental_uris": {"ios": "https://dc.lft.to/lastmile_qr_scan", "android": "https://dc.lft.to/lastmile_qr_scan"}, "lon": -77.037934, "bike_id": "bc5954393c9390575f9af5e2cc76b8f5", "type": "electric_scooter", "name": "bc5954393c9390575f9af5e2cc76b8f5"}, {"is_disabled": 0, "is_reserved": 0, "fusion_lat": 0.0, "lat": 38.90034983333334, "fusion_lon": 0.0, "rental_uris": {"ios": "https://dc.lft.to/lastmile_qr_scan", "android": "https://dc.lft.to/lastmile_qr_scan"}, "lon": -77.00376983333334, "bike_id": "109819a77312ef6b97b2e3eec6ff35cd", "type": "electric_scooter", "name": "109819a77312ef6b97b2e3eec6ff35cd"}, {"is_disabled": 0, "is_reserved": 0, "fusion_lat": 0.0, "lat": 38.9166035, "fusion_lon": 0.0, "rental_uris": {"ios": "https://dc.lft.to/lastmile_qr_scan", "android": "https://dc.lft.to/lastmile_qr_scan"}, "lon": -77.03856233333333, "bike_id": "3dd2c549036d855427c3bddbe1c06e5f", "type": "electric_scooter", "name": "3dd2c549036d855427c3bddbe1c06e5f"}, {"is_disabled": 0, "is_reserved": 0, "fusion_lat": 0.0, "lat": 38.86286, "fusion_lon": 0.0, "rental_uris": {"ios": "https://dc.lft.to/lastmile_qr_scan", "android": "https://dc.lft.to/lastmile_qr_scan"}, "lon": -76.94524066666666, "bike_id": "6352d00abf55801dca5b9bfa48391314", "type": "electric_bike", "name": "6352d00abf55801dca5b9bfa48391314"}, {"is_disabled": 0, "is_reserved": 0, "fusion_lat": 0.0, "lat": 38.926732333333334, "fusion_lon": 0.0, "rental_uris": {"ios": "https://dc.lft.to/lastmile_qr_scan", "android": "https://dc.lft.to/lastmile_qr_scan"}, "lon": -77.03024083333334, "bike_id": "417c4030a7da1495e2ed65f0944c656e", "type": "electric_scooter", "name": "417c4030a7da1495e2ed65f0944c656e"}, {"is_disabled": 0, "is_reserved": 0, "fusion_lat": 0.0, "lat": 38.919429666666666, "fusion_lon": 0.0, "rental_uris": {"ios": "https://dc.lft.to/lastmile_qr_scan", "android": "https://dc.lft.to/lastmile_qr_scan"}, "lon": -77.02319383333334, "bike_id": "62ae5f1a98f72b49a74f8d0bd65e1625", "type": "electric_scooter", "name": "62ae5f1a98f72b49a74f8d0bd65e1625"}, {"is_disabled": 0, "is_reserved": 0, "fusion_lat": 0.0, "lat": 38.935274666666665, "fusion_lon": 0.0, "rental_uris": {"ios": "https://dc.lft.to/lastmile_qr_scan", "android": "https://dc.lft.to/lastmile_qr_scan"}, "lon": -77.02850933333333, "bike_id": "1b2121d9c4a51475ea12a59b631345e2", "type": "electric_scooter", "name": "1b2121d9c4a51475ea12a59b631345e2"}, {"is_disabled": 0, "is_reserved": 0, "fusion_lat": 0.0, "lat": 38.8729, "fusion_lon": 0.0, "rental_uris": {"ios": "https://dc.lft.to/lastmile_qr_scan", "android": "https://dc.lft.to/lastmile_qr_scan"}, "lon": -77.00984433333333, "bike_id": "c56435f62f384689340fad52f60f8487", "type": "electric_scooter", "name": "c56435f62f384689340fad52f60f8487"}, {"is_disabled": 0, "is_reserved": 0, "fusion_lat": 0.0, "lat": 38.9190555, "fusion_lon": 0.0, "rental_uris": {"ios": "https://dc.lft.to/lastmile_qr_scan", "android": "https://dc.lft.to/lastmile_qr_scan"}, "lon": -77.04471966666667, "bike_id": "2c263140464120c4186e91528ee45a2a", "type": "electric_scooter", "name": "2c263140464120c4186e91528ee45a2a"}, {"is_disabled": 0, "is_reserved": 0, "fusion_lat": 0.0, "lat": 38.91776733333333, "fusion_lon": 0.0, "rental_uris": {"ios": "https://dc.lft.to/lastmile_qr_scan", "android": "https://dc.lft.to/lastmile_qr_scan"}, "lon": -77.0269855, "bike_id": "e355d1bf14b45ab08881171ca209ccde", "type": "electric_scooter", "name": "e355d1bf14b45ab08881171ca209ccde"}, {"is_disabled": 0, "is_reserved": 0, "fusion_lat": 0.0, "lat": 38.90075933333333, "fusion_lon": 0.0, "rental_uris": {"ios": "https://dc.lft.to/lastmile_qr_scan", "android": "https://dc.lft.to/lastmile_qr_scan"}, "lon": -77.04880783333333, "bike_id": "e8648c304a9a4ff1bafed24ab96222b7", "type": "electric_scooter", "name": "e8648c304a9a4ff1bafed24ab96222b7"}, {"is_disabled": 0, "is_reserved": 0, "fusion_lat": 0.0, "lat": 38.887499166666665, "fusion_lon": 0.0, "rental_uris": {"ios": "https://dc.lft.to/lastmile_qr_scan", "android": "https://dc.lft.to/lastmile_qr_scan"}, "lon": -77.03220266666666, "bike_id": "7a54e1c86bcab3a72408edf25572c7d6", "type": "electric_scooter", "name": "7a54e1c86bcab3a72408edf25572c7d6"}, {"is_disabled": 0, "is_reserved": 0, "fusion_lat": 0.0, "lat": 38.96576366666667, "fusion_lon": 0.0, "rental_uris": {"ios": "https://dc.lft.to/lastmile_qr_scan", "android": "https://dc.lft.to/lastmile_qr_scan"}, "lon": -77.02760633333334, "bike_id": "72b067f8a1bbf40df5f97bc4be08670c", "type": "electric_scooter", "name": "72b067f8a1bbf40df5f97bc4be08670c"}, {"is_disabled": 0, "is_reserved": 0, "fusion_lat": 0.0, "lat": 38.9328785, "fusion_lon": 0.0, "rental_uris": {"ios": "https://dc.lft.to/lastmile_qr_scan", "android": "https://dc.lft.to/lastmile_qr_scan"}, "lon": -77.02316333333333, "bike_id": "11371ab4bfe4f13fe77c00fb1a05f72b", "type": "electric_scooter", "name": "11371ab4bfe4f13fe77c00fb1a05f72b"}, {"is_disabled": 0, "is_reserved": 0, "fusion_lat": 0.0, "lat": 38.904527, "fusion_lon": 0.0, "rental_uris": {"ios": "https://dc.lft.to/lastmile_qr_scan", "android": "https://dc.lft.to/lastmile_qr_scan"}, "lon": -76.93277416666666, "bike_id": "0ec5bfbf28c9e0421b23c9af57a3c6ed", "type": "electric_scooter", "name": "0ec5bfbf28c9e0421b23c9af57a3c6ed"}, {"is_disabled": 0, "is_reserved": 0, "fusion_lat": 0.0, "lat": 38.91662316666667, "fusion_lon": 0.0, "rental_uris": {"ios": "https://dc.lft.to/lastmile_qr_scan", "android": "https://dc.lft.to/lastmile_qr_scan"}, "lon": -77.03855783333333, "bike_id": "32744d40122f457e6625dfbb67d71d02", "type": "electric_scooter", "name": "32744d40122f457e6625dfbb67d71d02"}, {"is_disabled": 0, "is_reserved": 0, "fusion_lat": 0.0, "lat": 38.919354166666665, "fusion_lon": 0.0, "rental_uris": {"ios": "https://dc.lft.to/lastmile_qr_scan", "android": "https://dc.lft.to/lastmile_qr_scan"}, "lon": -77.0250215, "bike_id": "9f0e1cfadc670fff42f34c91a5e52dab", "type": "electric_scooter", "name": "9f0e1cfadc670fff42f34c91a5e52dab"}, {"is_disabled": 0, "is_reserved": 0, "fusion_lat": 0.0, "lat": 38.88407933333333, "fusion_lon": 0.0, "rental_uris": {"ios": "https://dc.lft.to/lastmile_qr_scan", "android": "https://dc.lft.to/lastmile_qr_scan"}, "lon": -77.03033966666666, "bike_id": "a1d3421d5e03206612206fb74d95cb38", "type": "electric_scooter", "name": "a1d3421d5e03206612206fb74d95cb38"}, {"is_disabled": 0, "is_reserved": 0, "fusion_lat": 0.0, "lat": 38.9233495, "fusion_lon": 0.0, "rental_uris": {"ios": "https://dc.lft.to/lastmile_qr_scan", "android": "https://dc.lft.to/lastmile_qr_scan"}, "lon": -77.0352495, "bike_id": "a235017f894bee5cfbdd7327f8cad294", "type": "electric_scooter", "name": "a235017f894bee5cfbdd7327f8cad294"}, {"is_disabled": 0, "is_reserved": 0, "fusion_lat": 0.0, "lat": 38.91951916666667, "fusion_lon": 0.0, "rental_uris": {"ios": "https://dc.lft.to/lastmile_qr_scan", "android": "https://dc.lft.to/lastmile_qr_scan"}, "lon": -77.0139955, "bike_id": "e5fca3ddcc4d1b2c824502674416aee3", "type": "electric_scooter", "name": "e5fca3ddcc4d1b2c824502674416aee3"}, {"is_disabled": 0, "is_reserved": 0, "fusion_lat": 0.0, "lat": 38.92908083333333, "fusion_lon": 0.0, "rental_uris": {"ios": "https://dc.lft.to/lastmile_qr_scan", "android": "https://dc.lft.to/lastmile_qr_scan"}, "lon": -77.05983716666667, "bike_id": "53ecd9acff1758d54d81f28010a48ba8", "type": "electric_scooter", "name": "53ecd9acff1758d54d81f28010a48ba8"}, {"is_disabled": 0, "is_reserved": 0, "fusion_lat": 0.0, "lat": 38.920896666666664, "fusion_lon": 0.0, "rental_uris": {"ios": "https://dc.lft.to/lastmile_qr_scan", "android": "https://dc.lft.to/lastmile_qr_scan"}, "lon": -77.02412266666667, "bike_id": "46bc67f5eaa94e784f9cc419f745fd42", "type": "electric_scooter", "name": "46bc67f5eaa94e784f9cc419f745fd42"}, {"is_disabled": 0, "is_reserved": 0, "fusion_lat": 0.0, "lat": 38.905924166666665, "fusion_lon": 0.0, "rental_uris": {"ios": "https://dc.lft.to/lastmile_qr_scan", "android": "https://dc.lft.to/lastmile_qr_scan"}, "lon": -77.02393933333333, "bike_id": "b9a80bee60a12540de52b1daf7ae69fb", "type": "electric_scooter", "name": "b9a80bee60a12540de52b1daf7ae69fb"}, {"is_disabled": 0, "is_reserved": 0, "fusion_lat": 0.0, "lat": 38.91799283333334, "fusion_lon": 0.0, "rental_uris": {"ios": "https://dc.lft.to/lastmile_qr_scan", "android": "https://dc.lft.to/lastmile_qr_scan"}, "lon": -77.03191516666666, "bike_id": "cc0d3d3fcec1110f4f0cca80d98a54fb", "type": "electric_scooter", "name": "cc0d3d3fcec1110f4f0cca80d98a54fb"}, {"is_disabled": 0, "is_reserved": 0, "fusion_lat": 0.0, "lat": 38.87731316666667, "fusion_lon": 0.0, "rental_uris": {"ios": "https://dc.lft.to/lastmile_qr_scan", "android": "https://dc.lft.to/lastmile_qr_scan"}, "lon": -77.118476, "bike_id": "76d3eaa68380af73eedf33a489a464ed", "type": "electric_bike", "name": "76d3eaa68380af73eedf33a489a464ed"}, {"is_disabled": 0, "is_reserved": 0, "fusion_lat": 0.0, "lat": 38.92920016666667, "fusion_lon": 0.0, "rental_uris": {"ios": "https://dc.lft.to/lastmile_qr_scan", "android": "https://dc.lft.to/lastmile_qr_scan"}, "lon": -77.03251566666667, "bike_id": "bff9333a9842f6de01aa5bdb8d5a273c", "type": "electric_scooter", "name": "bff9333a9842f6de01aa5bdb8d5a273c"}, {"is_disabled": 0, "is_reserved": 0, "fusion_lat": 0.0, "lat": 38.91117783333333, "fusion_lon": 0.0, "rental_uris": {"ios": "https://dc.lft.to/lastmile_qr_scan", "android": "https://dc.lft.to/lastmile_qr_scan"}, "lon": -77.0382875, "bike_id": "d517c5964a0060485c41fba257d6bd3f", "type": "electric_scooter", "name": "d517c5964a0060485c41fba257d6bd3f"}, {"is_disabled": 0, "is_reserved": 0, "fusion_lat": 0.0, "lat": 38.95237183333333, "fusion_lon": 0.0, "rental_uris": {"ios": "https://dc.lft.to/lastmile_qr_scan", "android": "https://dc.lft.to/lastmile_qr_scan"}, "lon": -76.97953783333334, "bike_id": "095779b21dff30e54991c3314e4bfb32", "type": "electric_bike", "name": "095779b21dff30e54991c3314e4bfb32"}, {"is_disabled": 0, "is_reserved": 0, "fusion_lat": 0.0, "lat": 38.906358833333336, "fusion_lon": 0.0, "rental_uris": {"ios": "https://dc.lft.to/lastmile_qr_scan", "android": "https://dc.lft.to/lastmile_qr_scan"}, "lon": -77.06901566666667, "bike_id": "4c5910084fcd44665b586cf58f3f8ad1", "type": "electric_scooter", "name": "4c5910084fcd44665b586cf58f3f8ad1"}, {"is_disabled": 0, "is_reserved": 0, "fusion_lat": 0.0, "lat": 38.896107, "fusion_lon": 0.0, "rental_uris": {"ios": "https://dc.lft.to/lastmile_qr_scan", "android": "https://dc.lft.to/lastmile_qr_scan"}, "lon": -77.03180166666667, "bike_id": "04358ad38c5f97189f56a7f8d3a97723", "type": "electric_scooter", "name": "04358ad38c5f97189f56a7f8d3a97723"}, {"is_disabled": 0, "is_reserved": 0, "fusion_lat": 0.0, "lat": 38.905314833333335, "fusion_lon": 0.0, "rental_uris": {"ios": "https://dc.lft.to/lastmile_qr_scan", "android": "https://dc.lft.to/lastmile_qr_scan"}, "lon": -77.06522066666666, "bike_id": "e2cd7f1008eac503a6e5136bee8c376a", "type": "electric_scooter", "name": "e2cd7f1008eac503a6e5136bee8c376a"}, {"is_disabled": 0, "is_reserved": 0, "fusion_lat": 0.0, "lat": 38.912509666666665, "fusion_lon": 0.0, "rental_uris": {"ios": "https://dc.lft.to/lastmile_qr_scan", "android": "https://dc.lft.to/lastmile_qr_scan"}, "lon": -77.03143783333333, "bike_id": "73d99174cd659d6b60c7dad7bc5bc036", "type": "electric_scooter", "name": "73d99174cd659d6b60c7dad7bc5bc036"}, {"is_disabled": 0, "is_reserved": 0, "fusion_lat": 0.0, "lat": 38.9167395, "fusion_lon": 0.0, "rental_uris": {"ios": "https://dc.lft.to/lastmile_qr_scan", "android": "https://dc.lft.to/lastmile_qr_scan"}, "lon": -77.045992, "bike_id": "5c53fdf68c5bb866c835538ab20349df", "type": "electric_scooter", "name": "5c53fdf68c5bb866c835538ab20349df"}, {"is_disabled": 0, "is_reserved": 0, "fusion_lat": 0.0, "lat": 38.95781616666667, "fusion_lon": 0.0, "rental_uris": {"ios": "https://dc.lft.to/lastmile_qr_scan", "android": "https://dc.lft.to/lastmile_qr_scan"}, "lon": -77.0245365, "bike_id": "23bf6e31f98b1e16c80bbcb50c73f959", "type": "electric_scooter", "name": "23bf6e31f98b1e16c80bbcb50c73f959"}, {"is_disabled": 0, "is_reserved": 0, "fusion_lat": 0.0, "lat": 38.92163216666667, "fusion_lon": 0.0, "rental_uris": {"ios": "https://dc.lft.to/lastmile_qr_scan", "android": "https://dc.lft.to/lastmile_qr_scan"}, "lon": -77.036703, "bike_id": "f31b5afcd8784cc8a5e6a9dd77744380", "type": "electric_scooter", "name": "f31b5afcd8784cc8a5e6a9dd77744380"}, {"is_disabled": 0, "is_reserved": 0, "fusion_lat": 0.0, "lat": 38.903692666666664, "fusion_lon": 0.0, "rental_uris": {"ios": "https://dc.lft.to/lastmile_qr_scan", "android": "https://dc.lft.to/lastmile_qr_scan"}, "lon": -77.01879016666666, "bike_id": "ce0c5118b494b40732e571d8373d8109", "type": "electric_scooter", "name": "ce0c5118b494b40732e571d8373d8109"}, {"is_disabled": 0, "is_reserved": 0, "fusion_lat": 0.0, "lat": 38.907207666666665, "fusion_lon": 0.0, "rental_uris": {"ios": "https://dc.lft.to/lastmile_qr_scan", "android": "https://dc.lft.to/lastmile_qr_scan"}, "lon": -77.053078, "bike_id": "7e3d6f8fd43c32a4e0c82355ce900b2a", "type": "electric_scooter", "name": "7e3d6f8fd43c32a4e0c82355ce900b2a"}, {"is_disabled": 0, "is_reserved": 0, "fusion_lat": 0.0, "lat": 38.89353366666667, "fusion_lon": 0.0, "rental_uris": {"ios": "https://dc.lft.to/lastmile_qr_scan", "android": "https://dc.lft.to/lastmile_qr_scan"}, "lon": -76.992142, "bike_id": "e7a8de090635a934f40eb0e39e858a5e", "type": "electric_scooter", "name": "e7a8de090635a934f40eb0e39e858a5e"}, {"is_disabled": 0, "is_reserved": 0, "fusion_lat": 0.0, "lat": 38.926469833333336, "fusion_lon": 0.0, "rental_uris": {"ios": "https://dc.lft.to/lastmile_qr_scan", "android": "https://dc.lft.to/lastmile_qr_scan"}, "lon": -77.03698583333333, "bike_id": "f4fe9f6ed4d6465887273a48ca9e17c2", "type": "electric_scooter", "name": "f4fe9f6ed4d6465887273a48ca9e17c2"}, {"is_disabled": 0, "is_reserved": 0, "fusion_lat": 0.0, "lat": 38.90550133333333, "fusion_lon": 0.0, "rental_uris": {"ios": "https://dc.lft.to/lastmile_qr_scan", "android": "https://dc.lft.to/lastmile_qr_scan"}, "lon": -77.02193033333333, "bike_id": "8def69f4199ef4457fa5270d13d31690", "type": "electric_scooter", "name": "8def69f4199ef4457fa5270d13d31690"}, {"is_disabled": 0, "is_reserved": 0, "fusion_lat": 0.0, "lat": 38.907089166666665, "fusion_lon": 0.0, "rental_uris": {"ios": "https://dc.lft.to/lastmile_qr_scan", "android": "https://dc.lft.to/lastmile_qr_scan"}, "lon": -77.03210866666667, "bike_id": "beb9bb8e4ba9e3d869eddeacec4fe4e4", "type": "electric_scooter", "name": "beb9bb8e4ba9e3d869eddeacec4fe4e4"}, {"is_disabled": 0, "is_reserved": 0, "fusion_lat": 0.0, "lat": 38.893902833333335, "fusion_lon": 0.0, "rental_uris": {"ios": "https://dc.lft.to/lastmile_qr_scan", "android": "https://dc.lft.to/lastmile_qr_scan"}, "lon": -76.92307433333333, "bike_id": "11f923d3a0511c2e1dbd3da61bd398c2", "type": "electric_scooter", "name": "11f923d3a0511c2e1dbd3da61bd398c2"}, {"is_disabled": 0, "is_reserved": 0, "fusion_lat": 0.0, "lat": 38.91557183333333, "fusion_lon": 0.0, "rental_uris": {"ios": "https://dc.lft.to/lastmile_qr_scan", "android": "https://dc.lft.to/lastmile_qr_scan"}, "lon": -77.0540595, "bike_id": "84a2f57fac480afd5ccf30ebd6ee4188", "type": "electric_scooter", "name": "84a2f57fac480afd5ccf30ebd6ee4188"}, {"is_disabled": 0, "is_reserved": 0, "fusion_lat": 0.0, "lat": 38.92727416666666, "fusion_lon": 0.0, "rental_uris": {"ios": "https://dc.lft.to/lastmile_qr_scan", "android": "https://dc.lft.to/lastmile_qr_scan"}, "lon": -77.02270383333334, "bike_id": "e645253764c2ab4fb71afde9a7f8eecd", "type": "electric_scooter", "name": "e645253764c2ab4fb71afde9a7f8eecd"}, {"is_disabled": 0, "is_reserved": 0, "fusion_lat": 0.0, "lat": 38.90957783333333, "fusion_lon": 0.0, "rental_uris": {"ios": "https://dc.lft.to/lastmile_qr_scan", "android": "https://dc.lft.to/lastmile_qr_scan"}, "lon": -77.03424466666667, "bike_id": "c9cca256ff751c8841221a0602b45301", "type": "electric_scooter", "name": "c9cca256ff751c8841221a0602b45301"}, {"is_disabled": 0, "is_reserved": 0, "fusion_lat": 0.0, "lat": 38.91159716666667, "fusion_lon": 0.0, "rental_uris": {"ios": "https://dc.lft.to/lastmile_qr_scan", "android": "https://dc.lft.to/lastmile_qr_scan"}, "lon": -77.02376716666667, "bike_id": "95966da8c0fb6d5d180b7cff86fafcbd", "type": "electric_scooter", "name": "95966da8c0fb6d5d180b7cff86fafcbd"}, {"is_disabled": 0, "is_reserved": 0, "fusion_lat": 0.0, "lat": 38.912039166666666, "fusion_lon": 0.0, "rental_uris": {"ios": "https://dc.lft.to/lastmile_qr_scan", "android": "https://dc.lft.to/lastmile_qr_scan"}, "lon": -77.021, "bike_id": "25e47182ea537fff6f2ccab21881b8cc", "type": "electric_scooter", "name": "25e47182ea537fff6f2ccab21881b8cc"}, {"is_disabled": 0, "is_reserved": 0, "fusion_lat": 0.0, "lat": 38.91821233333334, "fusion_lon": 0.0, "rental_uris": {"ios": "https://dc.lft.to/lastmile_qr_scan", "android": "https://dc.lft.to/lastmile_qr_scan"}, "lon": -77.025278, "bike_id": "552eaad397cd3ed55268ab46622ab05b", "type": "electric_scooter", "name": "552eaad397cd3ed55268ab46622ab05b"}, {"is_disabled": 0, "is_reserved": 0, "fusion_lat": 0.0, "lat": 38.90985, "fusion_lon": 0.0, "rental_uris": {"ios": "https://dc.lft.to/lastmile_qr_scan", "android": "https://dc.lft.to/lastmile_qr_scan"}, "lon": -77.03377483333334, "bike_id": "07f9a62058e90b381ff97a15c78014e4", "type": "electric_scooter", "name": "07f9a62058e90b381ff97a15c78014e4"}, {"is_disabled": 0, "is_reserved": 0, "fusion_lat": 0.0, "lat": 38.9309565, "fusion_lon": 0.0, "rental_uris": {"ios": "https://dc.lft.to/lastmile_qr_scan", "android": "https://dc.lft.to/lastmile_qr_scan"}, "lon": -77.0320935, "bike_id": "1e48337c89a16313dbd921349ccc6648", "type": "electric_scooter", "name": "1e48337c89a16313dbd921349ccc6648"}, {"is_disabled": 0, "is_reserved": 0, "fusion_lat": 0.0, "lat": 38.855248, "fusion_lon": 0.0, "rental_uris": {"ios": "https://dc.lft.to/lastmile_qr_scan", "android": "https://dc.lft.to/lastmile_qr_scan"}, "lon": -76.99157583333333, "bike_id": "cd0adc5b40a1a7e57fda4cfc2c87f05f", "type": "electric_scooter", "name": "cd0adc5b40a1a7e57fda4cfc2c87f05f"}, {"is_disabled": 0, "is_reserved": 0, "fusion_lat": 0.0, "lat": 38.93081516666667, "fusion_lon": 0.0, "rental_uris": {"ios": "https://dc.lft.to/lastmile_qr_scan", "android": "https://dc.lft.to/lastmile_qr_scan"}, "lon": -77.028052, "bike_id": "1ba6cf61ba7595cafc230bf8a26d631a", "type": "electric_scooter", "name": "1ba6cf61ba7595cafc230bf8a26d631a"}, {"is_disabled": 0, "is_reserved": 0, "fusion_lat": 0.0, "lat": 38.9046885, "fusion_lon": 0.0, "rental_uris": {"ios": "https://dc.lft.to/lastmile_qr_scan", "android": "https://dc.lft.to/lastmile_qr_scan"}, "lon": -76.95051133333334, "bike_id": "e98c0a8ad1def67ccac9e31bef712819", "type": "electric_scooter", "name": "e98c0a8ad1def67ccac9e31bef712819"}, {"is_disabled": 0, "is_reserved": 0, "fusion_lat": 0.0, "lat": 38.90126733333334, "fusion_lon": 0.0, "rental_uris": {"ios": "https://dc.lft.to/lastmile_qr_scan", "android": "https://dc.lft.to/lastmile_qr_scan"}, "lon": -77.00278033333333, "bike_id": "be837274a8a4a2d66800df8a882b1076", "type": "electric_scooter", "name": "be837274a8a4a2d66800df8a882b1076"}, {"is_disabled": 0, "is_reserved": 0, "fusion_lat": 0.0, "lat": 38.92435166666667, "fusion_lon": 0.0, "rental_uris": {"ios": "https://dc.lft.to/lastmile_qr_scan", "android": "https://dc.lft.to/lastmile_qr_scan"}, "lon": -77.02984083333334, "bike_id": "030222d9d14a5e35702efbdcc9cb82c1", "type": "electric_scooter", "name": "030222d9d14a5e35702efbdcc9cb82c1"}, {"is_disabled": 0, "is_reserved": 0, "fusion_lat": 0.0, "lat": 38.92643733333333, "fusion_lon": 0.0, "rental_uris": {"ios": "https://dc.lft.to/lastmile_qr_scan", "android": "https://dc.lft.to/lastmile_qr_scan"}, "lon": -77.03700683333334, "bike_id": "0d5e612e2a29e6a5390bd81a67630fc1", "type": "electric_scooter", "name": "0d5e612e2a29e6a5390bd81a67630fc1"}, {"is_disabled": 0, "is_reserved": 0, "fusion_lat": 0.0, "lat": 38.900602, "fusion_lon": 0.0, "rental_uris": {"ios": "https://dc.lft.to/lastmile_qr_scan", "android": "https://dc.lft.to/lastmile_qr_scan"}, "lon": -77.04465183333333, "bike_id": "4659f833253a159ba653a28dc32fe0ef", "type": "electric_scooter", "name": "4659f833253a159ba653a28dc32fe0ef"}, {"is_disabled": 0, "is_reserved": 0, "fusion_lat": 0.0, "lat": 38.901793, "fusion_lon": 0.0, "rental_uris": {"ios": "https://dc.lft.to/lastmile_qr_scan", "android": "https://dc.lft.to/lastmile_qr_scan"}, "lon": -77.022164, "bike_id": "0ec6575911b44500edab091ee0fdd004", "type": "electric_scooter", "name": "0ec6575911b44500edab091ee0fdd004"}, {"is_disabled": 0, "is_reserved": 0, "fusion_lat": 0.0, "lat": 38.91698733333333, "fusion_lon": 0.0, "rental_uris": {"ios": "https://dc.lft.to/lastmile_qr_scan", "android": "https://dc.lft.to/lastmile_qr_scan"}, "lon": -77.03345833333333, "bike_id": "96e8ed7c88572dcf46ee4e81599c2476", "type": "electric_scooter", "name": "96e8ed7c88572dcf46ee4e81599c2476"}, {"is_disabled": 0, "is_reserved": 0, "fusion_lat": 0.0, "lat": 38.9109415, "fusion_lon": 0.0, "rental_uris": {"ios": "https://dc.lft.to/lastmile_qr_scan", "android": "https://dc.lft.to/lastmile_qr_scan"}, "lon": -77.0319405, "bike_id": "7bcef23e1d1e8e6a5be49472b90eb12a", "type": "electric_scooter", "name": "7bcef23e1d1e8e6a5be49472b90eb12a"}, {"is_disabled": 0, "is_reserved": 0, "fusion_lat": 0.0, "lat": 38.89231616666667, "fusion_lon": 0.0, "rental_uris": {"ios": "https://dc.lft.to/lastmile_qr_scan", "android": "https://dc.lft.to/lastmile_qr_scan"}, "lon": -77.0312355, "bike_id": "7a9a34ed24d07d9ddecc118e42016101", "type": "electric_scooter", "name": "7a9a34ed24d07d9ddecc118e42016101"}, {"is_disabled": 0, "is_reserved": 0, "fusion_lat": 0.0, "lat": 38.92013133333333, "fusion_lon": 0.0, "rental_uris": {"ios": "https://dc.lft.to/lastmile_qr_scan", "android": "https://dc.lft.to/lastmile_qr_scan"}, "lon": -77.0417425, "bike_id": "6723de0f1abb0e1d62c0eb907eb693ba", "type": "electric_scooter", "name": "6723de0f1abb0e1d62c0eb907eb693ba"}, {"is_disabled": 0, "is_reserved": 0, "fusion_lat": 0.0, "lat": 38.908549666666666, "fusion_lon": 0.0, "rental_uris": {"ios": "https://dc.lft.to/lastmile_qr_scan", "android": "https://dc.lft.to/lastmile_qr_scan"}, "lon": -77.04593483333333, "bike_id": "dfcd50b13533be197fdd487f9c0574d3", "type": "electric_scooter", "name": "dfcd50b13533be197fdd487f9c0574d3"}, {"is_disabled": 0, "is_reserved": 0, "fusion_lat": 0.0, "lat": 38.915606333333336, "fusion_lon": 0.0, "rental_uris": {"ios": "https://dc.lft.to/lastmile_qr_scan", "android": "https://dc.lft.to/lastmile_qr_scan"}, "lon": -77.04626016666667, "bike_id": "a07ccc4eb300262c3e04fa00ffefc43f", "type": "electric_scooter", "name": "a07ccc4eb300262c3e04fa00ffefc43f"}, {"is_disabled": 0, "is_reserved": 0, "fusion_lat": 0.0, "lat": 38.915492666666665, "fusion_lon": 0.0, "rental_uris": {"ios": "https://dc.lft.to/lastmile_qr_scan", "android": "https://dc.lft.to/lastmile_qr_scan"}, "lon": -77.04625366666667, "bike_id": "c31535a8dcd396e0d94a20f687c84b2f", "type": "electric_scooter", "name": "c31535a8dcd396e0d94a20f687c84b2f"}, {"is_disabled": 0, "is_reserved": 0, "fusion_lat": 0.0, "lat": 38.9044175, "fusion_lon": 0.0, "rental_uris": {"ios": "https://dc.lft.to/lastmile_qr_scan", "android": "https://dc.lft.to/lastmile_qr_scan"}, "lon": -76.9963235, "bike_id": "0fe8d205e8019eec4f40bb0d79ad8835", "type": "electric_scooter", "name": "0fe8d205e8019eec4f40bb0d79ad8835"}, {"is_disabled": 0, "is_reserved": 0, "fusion_lat": 0.0, "lat": 38.97475816666667, "fusion_lon": 0.0, "rental_uris": {"ios": "https://dc.lft.to/lastmile_qr_scan", "android": "https://dc.lft.to/lastmile_qr_scan"}, "lon": -77.01491983333334, "bike_id": "ce3b923f05b336b7974b9c7f978744d6", "type": "electric_scooter", "name": "ce3b923f05b336b7974b9c7f978744d6"}, {"is_disabled": 0, "is_reserved": 0, "fusion_lat": 0.0, "lat": 38.90665416666667, "fusion_lon": 0.0, "rental_uris": {"ios": "https://dc.lft.to/lastmile_qr_scan", "android": "https://dc.lft.to/lastmile_qr_scan"}, "lon": -77.00063133333333, "bike_id": "f6316075b3684c4f8874cc3e0bb3a826", "type": "electric_scooter", "name": "f6316075b3684c4f8874cc3e0bb3a826"}, {"is_disabled": 0, "is_reserved": 0, "fusion_lat": 0.0, "lat": 38.89483716666667, "fusion_lon": 0.0, "rental_uris": {"ios": "https://dc.lft.to/lastmile_qr_scan", "android": "https://dc.lft.to/lastmile_qr_scan"}, "lon": -76.97883333333333, "bike_id": "4bad7203719e16e1a19a11c3edf2a34f", "type": "electric_scooter", "name": "4bad7203719e16e1a19a11c3edf2a34f"}, {"is_disabled": 0, "is_reserved": 0, "fusion_lat": 0.0, "lat": 38.92103216666667, "fusion_lon": 0.0, "rental_uris": {"ios": "https://dc.lft.to/lastmile_qr_scan", "android": "https://dc.lft.to/lastmile_qr_scan"}, "lon": -77.03179883333334, "bike_id": "329d867dc0ba6391ce92b25170c677f2", "type": "electric_scooter", "name": "329d867dc0ba6391ce92b25170c677f2"}, {"is_disabled": 0, "is_reserved": 0, "fusion_lat": 0.0, "lat": 38.8812495, "fusion_lon": 0.0, "rental_uris": {"ios": "https://dc.lft.to/lastmile_qr_scan", "android": "https://dc.lft.to/lastmile_qr_scan"}, "lon": -76.99342483333334, "bike_id": "c328f40fd30423ce5047b6c049f05f5e", "type": "electric_scooter", "name": "c328f40fd30423ce5047b6c049f05f5e"}, {"is_disabled": 0, "is_reserved": 0, "fusion_lat": 0.0, "lat": 38.92515183333333, "fusion_lon": 0.0, "rental_uris": {"ios": "https://dc.lft.to/lastmile_qr_scan", "android": "https://dc.lft.to/lastmile_qr_scan"}, "lon": -77.0212835, "bike_id": "039c7744016484d442848b94375fd440", "type": "electric_scooter", "name": "039c7744016484d442848b94375fd440"}, {"is_disabled": 0, "is_reserved": 0, "fusion_lat": 0.0, "lat": 38.90529216666667, "fusion_lon": 0.0, "rental_uris": {"ios": "https://dc.lft.to/lastmile_qr_scan", "android": "https://dc.lft.to/lastmile_qr_scan"}, "lon": -77.02698016666666, "bike_id": "c9341beeeedac212648c818e3d333208", "type": "electric_scooter", "name": "c9341beeeedac212648c818e3d333208"}, {"is_disabled": 0, "is_reserved": 0, "fusion_lat": 0.0, "lat": 38.921578833333335, "fusion_lon": 0.0, "rental_uris": {"ios": "https://dc.lft.to/lastmile_qr_scan", "android": "https://dc.lft.to/lastmile_qr_scan"}, "lon": -77.03385083333333, "bike_id": "95740ec3db6dc878a580a7bf5e45bbe7", "type": "electric_scooter", "name": "95740ec3db6dc878a580a7bf5e45bbe7"}, {"is_disabled": 0, "is_reserved": 0, "fusion_lat": 0.0, "lat": 38.924416666666666, "fusion_lon": 0.0, "rental_uris": {"ios": "https://dc.lft.to/lastmile_qr_scan", "android": "https://dc.lft.to/lastmile_qr_scan"}, "lon": -77.0402975, "bike_id": "438639a4d3b96cb2717e6504d56225ec", "type": "electric_scooter", "name": "438639a4d3b96cb2717e6504d56225ec"}, {"is_disabled": 0, "is_reserved": 0, "fusion_lat": 0.0, "lat": 38.96773616666667, "fusion_lon": 0.0, "rental_uris": {"ios": "https://dc.lft.to/lastmile_qr_scan", "android": "https://dc.lft.to/lastmile_qr_scan"}, "lon": -77.0341825, "bike_id": "fcfc5b4989e04eb43493d1f0493692dc", "type": "electric_scooter", "name": "fcfc5b4989e04eb43493d1f0493692dc"}, {"is_disabled": 0, "is_reserved": 0, "fusion_lat": 0.0, "lat": 38.941024666666664, "fusion_lon": 0.0, "rental_uris": {"ios": "https://dc.lft.to/lastmile_qr_scan", "android": "https://dc.lft.to/lastmile_qr_scan"}, "lon": -76.9562485, "bike_id": "25543d9af1e6fe0e0661bc5c18228e64", "type": "electric_bike", "name": "25543d9af1e6fe0e0661bc5c18228e64"}, {"is_disabled": 0, "is_reserved": 0, "fusion_lat": 0.0, "lat": 38.927788, "fusion_lon": 0.0, "rental_uris": {"ios": "https://dc.lft.to/lastmile_qr_scan", "android": "https://dc.lft.to/lastmile_qr_scan"}, "lon": -77.05262433333333, "bike_id": "7c48332bc5627f13eb21c364b79ee93b", "type": "electric_scooter", "name": "7c48332bc5627f13eb21c364b79ee93b"}, {"is_disabled": 0, "is_reserved": 0, "fusion_lat": 0.0, "lat": 38.9111315, "fusion_lon": 0.0, "rental_uris": {"ios": "https://dc.lft.to/lastmile_qr_scan", "android": "https://dc.lft.to/lastmile_qr_scan"}, "lon": -77.03828683333333, "bike_id": "01ef810b7e8fb4fdf02f1f779f84599d", "type": "electric_scooter", "name": "01ef810b7e8fb4fdf02f1f779f84599d"}, {"is_disabled": 0, "is_reserved": 0, "fusion_lat": 0.0, "lat": 38.886618, "fusion_lon": 0.0, "rental_uris": {"ios": "https://dc.lft.to/lastmile_qr_scan", "android": "https://dc.lft.to/lastmile_qr_scan"}, "lon": -77.1623885, "bike_id": "e084e1f06dab72e02cc1c2c640541430", "type": "electric_bike", "name": "e084e1f06dab72e02cc1c2c640541430"}, {"is_disabled": 0, "is_reserved": 0, "fusion_lat": 0.0, "lat": 38.907723833333336, "fusion_lon": 0.0, "rental_uris": {"ios": "https://dc.lft.to/lastmile_qr_scan", "android": "https://dc.lft.to/lastmile_qr_scan"}, "lon": -77.03540183333334, "bike_id": "f32a0e86cc5f770b5db9b53e1fd88814", "type": "electric_scooter", "name": "f32a0e86cc5f770b5db9b53e1fd88814"}, {"is_disabled": 0, "is_reserved": 0, "fusion_lat": 0.0, "lat": 38.9065365, "fusion_lon": 0.0, "rental_uris": {"ios": "https://dc.lft.to/lastmile_qr_scan", "android": "https://dc.lft.to/lastmile_qr_scan"}, "lon": -77.05322716666667, "bike_id": "cd3719ac802331ad5a5fe44bf8e29d98", "type": "electric_scooter", "name": "cd3719ac802331ad5a5fe44bf8e29d98"}, {"is_disabled": 0, "is_reserved": 0, "fusion_lat": 0.0, "lat": 38.8994475, "fusion_lon": 0.0, "rental_uris": {"ios": "https://dc.lft.to/lastmile_qr_scan", "android": "https://dc.lft.to/lastmile_qr_scan"}, "lon": -77.02737033333334, "bike_id": "6550dd336aa07f28e737c1affbd97421", "type": "electric_scooter", "name": "6550dd336aa07f28e737c1affbd97421"}, {"is_disabled": 0, "is_reserved": 0, "fusion_lat": 0.0, "lat": 38.94854383333333, "fusion_lon": 0.0, "rental_uris": {"ios": "https://dc.lft.to/lastmile_qr_scan", "android": "https://dc.lft.to/lastmile_qr_scan"}, "lon": -77.08018816666667, "bike_id": "ba173784667ef91760baf58633bcf47f", "type": "electric_scooter", "name": "ba173784667ef91760baf58633bcf47f"}, {"is_disabled": 0, "is_reserved": 0, "fusion_lat": 0.0, "lat": 38.898017, "fusion_lon": 0.0, "rental_uris": {"ios": "https://dc.lft.to/lastmile_qr_scan", "android": "https://dc.lft.to/lastmile_qr_scan"}, "lon": -77.02816516666667, "bike_id": "65078ee62bfda858d67e1bcaf99376ec", "type": "electric_scooter", "name": "65078ee62bfda858d67e1bcaf99376ec"}, {"is_disabled": 0, "is_reserved": 0, "fusion_lat": 0.0, "lat": 38.908989, "fusion_lon": 0.0, "rental_uris": {"ios": "https://dc.lft.to/lastmile_qr_scan", "android": "https://dc.lft.to/lastmile_qr_scan"}, "lon": -76.99781633333333, "bike_id": "3460e1a42ae7a458d4a89de58503acdb", "type": "electric_scooter", "name": "3460e1a42ae7a458d4a89de58503acdb"}, {"is_disabled": 0, "is_reserved": 0, "fusion_lat": 0.0, "lat": 38.9341725, "fusion_lon": 0.0, "rental_uris": {"ios": "https://dc.lft.to/lastmile_qr_scan", "android": "https://dc.lft.to/lastmile_qr_scan"}, "lon": -77.04277366666666, "bike_id": "0a2a359058d0871a42a7af2adcc94423", "type": "electric_scooter", "name": "0a2a359058d0871a42a7af2adcc94423"}, {"is_disabled": 0, "is_reserved": 0, "fusion_lat": 0.0, "lat": 38.92867483333333, "fusion_lon": 0.0, "rental_uris": {"ios": "https://dc.lft.to/lastmile_qr_scan", "android": "https://dc.lft.to/lastmile_qr_scan"}, "lon": -77.029601, "bike_id": "fbc7556c50a15cda065b468c88e3fdf9", "type": "electric_scooter", "name": "fbc7556c50a15cda065b468c88e3fdf9"}, {"is_disabled": 0, "is_reserved": 0, "fusion_lat": 0.0, "lat": 38.9105835, "fusion_lon": 0.0, "rental_uris": {"ios": "https://dc.lft.to/lastmile_qr_scan", "android": "https://dc.lft.to/lastmile_qr_scan"}, "lon": -77.04344166666667, "bike_id": "ac9bf6147c01b57f7d322ffc5e7fa056", "type": "electric_scooter", "name": "ac9bf6147c01b57f7d322ffc5e7fa056"}, {"is_disabled": 0, "is_reserved": 0, "fusion_lat": 0.0, "lat": 38.929897, "fusion_lon": 0.0, "rental_uris": {"ios": "https://dc.lft.to/lastmile_qr_scan", "android": "https://dc.lft.to/lastmile_qr_scan"}, "lon": -77.0347195, "bike_id": "bbde297a038ffd273be51d73c293aeeb", "type": "electric_scooter", "name": "bbde297a038ffd273be51d73c293aeeb"}, {"is_disabled": 0, "is_reserved": 0, "fusion_lat": 0.0, "lat": 38.908258833333335, "fusion_lon": 0.0, "rental_uris": {"ios": "https://dc.lft.to/lastmile_qr_scan", "android": "https://dc.lft.to/lastmile_qr_scan"}, "lon": -77.0318525, "bike_id": "f68db92168cc2f5ecf0bf429f3445437", "type": "electric_scooter", "name": "f68db92168cc2f5ecf0bf429f3445437"}, {"is_disabled": 0, "is_reserved": 0, "fusion_lat": 0.0, "lat": 38.921193, "fusion_lon": 0.0, "rental_uris": {"ios": "https://dc.lft.to/lastmile_qr_scan", "android": "https://dc.lft.to/lastmile_qr_scan"}, "lon": -77.036709, "bike_id": "b384d653bff78c7ad717dc67091bd729", "type": "electric_scooter", "name": "b384d653bff78c7ad717dc67091bd729"}, {"is_disabled": 0, "is_reserved": 0, "fusion_lat": 0.0, "lat": 38.883964166666665, "fusion_lon": 0.0, "rental_uris": {"ios": "https://dc.lft.to/lastmile_qr_scan", "android": "https://dc.lft.to/lastmile_qr_scan"}, "lon": -77.03046633333334, "bike_id": "f791d4250e291e4b82fd2b98ba91858b", "type": "electric_scooter", "name": "f791d4250e291e4b82fd2b98ba91858b"}, {"is_disabled": 0, "is_reserved": 0, "fusion_lat": 0.0, "lat": 38.902301666666666, "fusion_lon": 0.0, "rental_uris": {"ios": "https://dc.lft.to/lastmile_qr_scan", "android": "https://dc.lft.to/lastmile_qr_scan"}, "lon": -77.05342866666666, "bike_id": "bd6a79aa7ae647785293de2cc3ecb01c", "type": "electric_scooter", "name": "bd6a79aa7ae647785293de2cc3ecb01c"}, {"is_disabled": 0, "is_reserved": 0, "fusion_lat": 0.0, "lat": 38.9361645, "fusion_lon": 0.0, "rental_uris": {"ios": "https://dc.lft.to/lastmile_qr_scan", "android": "https://dc.lft.to/lastmile_qr_scan"}, "lon": -77.038687, "bike_id": "810cd1293274a602dd333d96269158bf", "type": "electric_scooter", "name": "810cd1293274a602dd333d96269158bf"}, {"is_disabled": 0, "is_reserved": 0, "fusion_lat": 0.0, "lat": 38.88063833333333, "fusion_lon": 0.0, "rental_uris": {"ios": "https://dc.lft.to/lastmile_qr_scan", "android": "https://dc.lft.to/lastmile_qr_scan"}, "lon": -77.005813, "bike_id": "f2646bfc7f4d84447f530efbd02d1b18", "type": "electric_scooter", "name": "f2646bfc7f4d84447f530efbd02d1b18"}, {"is_disabled": 0, "is_reserved": 0, "fusion_lat": 0.0, "lat": 38.876478, "fusion_lon": 0.0, "rental_uris": {"ios": "https://dc.lft.to/lastmile_qr_scan", "android": "https://dc.lft.to/lastmile_qr_scan"}, "lon": -77.00194833333333, "bike_id": "4f24bd4a3d9708020df14849a4d5a97a", "type": "electric_scooter", "name": "4f24bd4a3d9708020df14849a4d5a97a"}, {"is_disabled": 0, "is_reserved": 0, "fusion_lat": 0.0, "lat": 38.917447333333335, "fusion_lon": 0.0, "rental_uris": {"ios": "https://dc.lft.to/lastmile_qr_scan", "android": "https://dc.lft.to/lastmile_qr_scan"}, "lon": -77.0690765, "bike_id": "b66b2a4b4a863ff102bfb03e94c74da2", "type": "electric_scooter", "name": "b66b2a4b4a863ff102bfb03e94c74da2"}, {"is_disabled": 0, "is_reserved": 0, "fusion_lat": 0.0, "lat": 38.93553216666667, "fusion_lon": 0.0, "rental_uris": {"ios": "https://dc.lft.to/lastmile_qr_scan", "android": "https://dc.lft.to/lastmile_qr_scan"}, "lon": -77.07707333333333, "bike_id": "ad3251806108fc69ef7cff8859fb818b", "type": "electric_scooter", "name": "ad3251806108fc69ef7cff8859fb818b"}, {"is_disabled": 0, "is_reserved": 0, "fusion_lat": 0.0, "lat": 38.89225716666667, "fusion_lon": 0.0, "rental_uris": {"ios": "https://dc.lft.to/lastmile_qr_scan", "android": "https://dc.lft.to/lastmile_qr_scan"}, "lon": -77.03201533333333, "bike_id": "5cf0f72559c6cb46f09f8adae969c144", "type": "electric_scooter", "name": "5cf0f72559c6cb46f09f8adae969c144"}, {"is_disabled": 0, "is_reserved": 0, "fusion_lat": 0.0, "lat": 38.924419666666665, "fusion_lon": 0.0, "rental_uris": {"ios": "https://dc.lft.to/lastmile_qr_scan", "android": "https://dc.lft.to/lastmile_qr_scan"}, "lon": -77.0439575, "bike_id": "83ac55e56f0f12c84f19505bafe76e86", "type": "electric_scooter", "name": "83ac55e56f0f12c84f19505bafe76e86"}, {"is_disabled": 0, "is_reserved": 0, "fusion_lat": 0.0, "lat": 38.9386575, "fusion_lon": 0.0, "rental_uris": {"ios": "https://dc.lft.to/lastmile_qr_scan", "android": "https://dc.lft.to/lastmile_qr_scan"}, "lon": -76.99440183333333, "bike_id": "92c10e950ec436f8231db0f5f3ad8ba2", "type": "electric_scooter", "name": "92c10e950ec436f8231db0f5f3ad8ba2"}, {"is_disabled": 0, "is_reserved": 0, "fusion_lat": 0.0, "lat": 38.917034, "fusion_lon": 0.0, "rental_uris": {"ios": "https://dc.lft.to/lastmile_qr_scan", "android": "https://dc.lft.to/lastmile_qr_scan"}, "lon": -77.04173016666667, "bike_id": "f578ff1e2fc2caa733618c14a9ccaff5", "type": "electric_scooter", "name": "f578ff1e2fc2caa733618c14a9ccaff5"}, {"is_disabled": 0, "is_reserved": 0, "fusion_lat": 0.0, "lat": 38.8423175, "fusion_lon": 0.0, "rental_uris": {"ios": "https://dc.lft.to/lastmile_qr_scan", "android": "https://dc.lft.to/lastmile_qr_scan"}, "lon": -77.00167516666667, "bike_id": "75c6726f1c583377884be198f8f6ae54", "type": "electric_scooter", "name": "75c6726f1c583377884be198f8f6ae54"}, {"is_disabled": 0, "is_reserved": 0, "fusion_lat": 0.0, "lat": 38.95431383333333, "fusion_lon": 0.0, "rental_uris": {"ios": "https://dc.lft.to/lastmile_qr_scan", "android": "https://dc.lft.to/lastmile_qr_scan"}, "lon": -77.01849366666667, "bike_id": "41290a47ff57f367ba1e88ed1301d448", "type": "electric_scooter", "name": "41290a47ff57f367ba1e88ed1301d448"}, {"is_disabled": 0, "is_reserved": 0, "fusion_lat": 0.0, "lat": 38.918226, "fusion_lon": 0.0, "rental_uris": {"ios": "https://dc.lft.to/lastmile_qr_scan", "android": "https://dc.lft.to/lastmile_qr_scan"}, "lon": -77.027102, "bike_id": "020372512646c066bcf225d90173ce2a", "type": "electric_scooter", "name": "020372512646c066bcf225d90173ce2a"}, {"is_disabled": 0, "is_reserved": 0, "fusion_lat": 0.0, "lat": 38.921509, "fusion_lon": 0.0, "rental_uris": {"ios": "https://dc.lft.to/lastmile_qr_scan", "android": "https://dc.lft.to/lastmile_qr_scan"}, "lon": -77.03665433333333, "bike_id": "8d0235ea9782642c0125f90ea9313bd0", "type": "electric_scooter", "name": "8d0235ea9782642c0125f90ea9313bd0"}, {"is_disabled": 0, "is_reserved": 0, "fusion_lat": 0.0, "lat": 38.842284, "fusion_lon": 0.0, "rental_uris": {"ios": "https://dc.lft.to/lastmile_qr_scan", "android": "https://dc.lft.to/lastmile_qr_scan"}, "lon": -76.94891966666667, "bike_id": "f2772692712e64db07684ce5aba55743", "type": "electric_bike", "name": "f2772692712e64db07684ce5aba55743"}, {"is_disabled": 0, "is_reserved": 0, "fusion_lat": 0.0, "lat": 38.98367616666667, "fusion_lon": 0.0, "rental_uris": {"ios": "https://dc.lft.to/lastmile_qr_scan", "android": "https://dc.lft.to/lastmile_qr_scan"}, "lon": -76.98849683333333, "bike_id": "dbba261b04a0f8d2df4246a91843b039", "type": "electric_bike", "name": "dbba261b04a0f8d2df4246a91843b039"}, {"is_disabled": 0, "is_reserved": 0, "fusion_lat": 0.0, "lat": 38.8788735, "fusion_lon": 0.0, "rental_uris": {"ios": "https://dc.lft.to/lastmile_qr_scan", "android": "https://dc.lft.to/lastmile_qr_scan"}, "lon": -77.00569283333333, "bike_id": "bf7128946e52ae835a46c3f6b620e655", "type": "electric_scooter", "name": "bf7128946e52ae835a46c3f6b620e655"}, {"is_disabled": 0, "is_reserved": 0, "fusion_lat": 0.0, "lat": 38.88772783333334, "fusion_lon": 0.0, "rental_uris": {"ios": "https://dc.lft.to/lastmile_qr_scan", "android": "https://dc.lft.to/lastmile_qr_scan"}, "lon": -76.93264, "bike_id": "963aa668db1541d05f940c70ed1ed821", "type": "electric_scooter", "name": "963aa668db1541d05f940c70ed1ed821"}, {"is_disabled": 0, "is_reserved": 0, "fusion_lat": 0.0, "lat": 38.909622666666664, "fusion_lon": 0.0, "rental_uris": {"ios": "https://dc.lft.to/lastmile_qr_scan", "android": "https://dc.lft.to/lastmile_qr_scan"}, "lon": -77.047007, "bike_id": "7876408dd933e391406d5fe540b0502c", "type": "electric_scooter", "name": "7876408dd933e391406d5fe540b0502c"}, {"is_disabled": 0, "is_reserved": 0, "fusion_lat": 0.0, "lat": 38.855585, "fusion_lon": 0.0, "rental_uris": {"ios": "https://dc.lft.to/lastmile_qr_scan", "android": "https://dc.lft.to/lastmile_qr_scan"}, "lon": -77.06403866666666, "bike_id": "36dedcd4b0609c93c98206f480fcb483", "type": "electric_bike", "name": "36dedcd4b0609c93c98206f480fcb483"}, {"is_disabled": 0, "is_reserved": 0, "fusion_lat": 0.0, "lat": 38.90060866666666, "fusion_lon": 0.0, "rental_uris": {"ios": "https://dc.lft.to/lastmile_qr_scan", "android": "https://dc.lft.to/lastmile_qr_scan"}, "lon": -76.98695366666666, "bike_id": "fd18414fb26bba3f7f70bf10f342573c", "type": "electric_scooter", "name": "fd18414fb26bba3f7f70bf10f342573c"}, {"is_disabled": 0, "is_reserved": 0, "fusion_lat": 0.0, "lat": 38.905356166666664, "fusion_lon": 0.0, "rental_uris": {"ios": "https://dc.lft.to/lastmile_qr_scan", "android": "https://dc.lft.to/lastmile_qr_scan"}, "lon": -77.04181866666667, "bike_id": "57a78b95a9cb27b2a13d1ec2cb02b0cd", "type": "electric_scooter", "name": "57a78b95a9cb27b2a13d1ec2cb02b0cd"}, {"is_disabled": 0, "is_reserved": 0, "fusion_lat": 0.0, "lat": 38.913603, "fusion_lon": 0.0, "rental_uris": {"ios": "https://dc.lft.to/lastmile_qr_scan", "android": "https://dc.lft.to/lastmile_qr_scan"}, "lon": -77.046607, "bike_id": "77cbd0e291d1130a663c55cc2b0e6614", "type": "electric_scooter", "name": "77cbd0e291d1130a663c55cc2b0e6614"}, {"is_disabled": 0, "is_reserved": 0, "fusion_lat": 0.0, "lat": 38.899302, "fusion_lon": 0.0, "rental_uris": {"ios": "https://dc.lft.to/lastmile_qr_scan", "android": "https://dc.lft.to/lastmile_qr_scan"}, "lon": -77.03226183333334, "bike_id": "e2c000fc886a5c34c40558f89779dda1", "type": "electric_scooter", "name": "e2c000fc886a5c34c40558f89779dda1"}, {"is_disabled": 0, "is_reserved": 0, "fusion_lat": 0.0, "lat": 38.91223433333333, "fusion_lon": 0.0, "rental_uris": {"ios": "https://dc.lft.to/lastmile_qr_scan", "android": "https://dc.lft.to/lastmile_qr_scan"}, "lon": -77.006624, "bike_id": "77e86ab237955f305761912ef1791c70", "type": "electric_scooter", "name": "77e86ab237955f305761912ef1791c70"}, {"is_disabled": 0, "is_reserved": 0, "fusion_lat": 0.0, "lat": 38.86169683333333, "fusion_lon": 0.0, "rental_uris": {"ios": "https://dc.lft.to/lastmile_qr_scan", "android": "https://dc.lft.to/lastmile_qr_scan"}, "lon": -77.08818933333333, "bike_id": "dd3be8bea2590aa8c8d55786acd7b41e", "type": "electric_bike", "name": "dd3be8bea2590aa8c8d55786acd7b41e"}, {"is_disabled": 0, "is_reserved": 0, "fusion_lat": 0.0, "lat": 38.92777183333333, "fusion_lon": 0.0, "rental_uris": {"ios": "https://dc.lft.to/lastmile_qr_scan", "android": "https://dc.lft.to/lastmile_qr_scan"}, "lon": -77.05261333333333, "bike_id": "48926c63070bab351dce78159dc10074", "type": "electric_scooter", "name": "48926c63070bab351dce78159dc10074"}, {"is_disabled": 0, "is_reserved": 0, "fusion_lat": 0.0, "lat": 38.8783265, "fusion_lon": 0.0, "rental_uris": {"ios": "https://dc.lft.to/lastmile_qr_scan", "android": "https://dc.lft.to/lastmile_qr_scan"}, "lon": -76.98608733333333, "bike_id": "aa7da7433a7663e116252a62c3477fc9", "type": "electric_scooter", "name": "aa7da7433a7663e116252a62c3477fc9"}, {"is_disabled": 0, "is_reserved": 0, "fusion_lat": 0.0, "lat": 38.89367133333333, "fusion_lon": 0.0, "rental_uris": {"ios": "https://dc.lft.to/lastmile_qr_scan", "android": "https://dc.lft.to/lastmile_qr_scan"}, "lon": -77.04292466666666, "bike_id": "0d009718d39be1137f344d5ea65a3ff8", "type": "electric_scooter", "name": "0d009718d39be1137f344d5ea65a3ff8"}, {"is_disabled": 0, "is_reserved": 0, "fusion_lat": 0.0, "lat": 38.92613933333333, "fusion_lon": 0.0, "rental_uris": {"ios": "https://dc.lft.to/lastmile_qr_scan", "android": "https://dc.lft.to/lastmile_qr_scan"}, "lon": -77.00653716666666, "bike_id": "1b0896931a9900b314e5e8f6bd27a1b8", "type": "electric_scooter", "name": "1b0896931a9900b314e5e8f6bd27a1b8"}, {"is_disabled": 0, "is_reserved": 0, "fusion_lat": 0.0, "lat": 38.87662383333333, "fusion_lon": 0.0, "rental_uris": {"ios": "https://dc.lft.to/lastmile_qr_scan", "android": "https://dc.lft.to/lastmile_qr_scan"}, "lon": -77.00083866666667, "bike_id": "c373ba10252e079bb97eee3f9906932f", "type": "electric_scooter", "name": "c373ba10252e079bb97eee3f9906932f"}, {"is_disabled": 0, "is_reserved": 0, "fusion_lat": 0.0, "lat": 38.95109433333333, "fusion_lon": 0.0, "rental_uris": {"ios": "https://dc.lft.to/lastmile_qr_scan", "android": "https://dc.lft.to/lastmile_qr_scan"}, "lon": -77.01889116666666, "bike_id": "79467ffd448b1b7d45bc079bbeea2297", "type": "electric_scooter", "name": "79467ffd448b1b7d45bc079bbeea2297"}, {"is_disabled": 0, "is_reserved": 0, "fusion_lat": 0.0, "lat": 38.92144066666667, "fusion_lon": 0.0, "rental_uris": {"ios": "https://dc.lft.to/lastmile_qr_scan", "android": "https://dc.lft.to/lastmile_qr_scan"}, "lon": -77.0365165, "bike_id": "2614f133f4c6b2c483bdaa21b76e4d62", "type": "electric_scooter", "name": "2614f133f4c6b2c483bdaa21b76e4d62"}, {"is_disabled": 0, "is_reserved": 0, "fusion_lat": 0.0, "lat": 38.935958, "fusion_lon": 0.0, "rental_uris": {"ios": "https://dc.lft.to/lastmile_qr_scan", "android": "https://dc.lft.to/lastmile_qr_scan"}, "lon": -77.05621, "bike_id": "7760ca4753c2bfe3673056c38225e682", "type": "electric_scooter", "name": "7760ca4753c2bfe3673056c38225e682"}, {"is_disabled": 0, "is_reserved": 0, "fusion_lat": 0.0, "lat": 38.905315, "fusion_lon": 0.0, "rental_uris": {"ios": "https://dc.lft.to/lastmile_qr_scan", "android": "https://dc.lft.to/lastmile_qr_scan"}, "lon": -77.027122, "bike_id": "53e6436407095630bc856e7ca48df859", "type": "electric_scooter", "name": "53e6436407095630bc856e7ca48df859"}, {"is_disabled": 0, "is_reserved": 0, "fusion_lat": 0.0, "lat": 38.930616666666666, "fusion_lon": 0.0, "rental_uris": {"ios": "https://dc.lft.to/lastmile_qr_scan", "android": "https://dc.lft.to/lastmile_qr_scan"}, "lon": -77.023242, "bike_id": "b8a1c0416d89ae153261ac568f3afa72", "type": "electric_scooter", "name": "b8a1c0416d89ae153261ac568f3afa72"}, {"is_disabled": 0, "is_reserved": 0, "fusion_lat": 0.0, "lat": 38.982114333333335, "fusion_lon": 0.0, "rental_uris": {"ios": "https://dc.lft.to/lastmile_qr_scan", "android": "https://dc.lft.to/lastmile_qr_scan"}, "lon": -76.97814433333333, "bike_id": "1163f13ad1d0679290668997cd555771", "type": "electric_bike", "name": "1163f13ad1d0679290668997cd555771"}, {"is_disabled": 0, "is_reserved": 0, "fusion_lat": 0.0, "lat": 38.91985733333333, "fusion_lon": 0.0, "rental_uris": {"ios": "https://dc.lft.to/lastmile_qr_scan", "android": "https://dc.lft.to/lastmile_qr_scan"}, "lon": -77.04132733333333, "bike_id": "0a337ee8518b4fc159a2b44edf419644", "type": "electric_scooter", "name": "0a337ee8518b4fc159a2b44edf419644"}, {"is_disabled": 0, "is_reserved": 0, "fusion_lat": 0.0, "lat": 38.90767316666667, "fusion_lon": 0.0, "rental_uris": {"ios": "https://dc.lft.to/lastmile_qr_scan", "android": "https://dc.lft.to/lastmile_qr_scan"}, "lon": -76.99920366666667, "bike_id": "4cbbfa219078eb51e089446dcf125e32", "type": "electric_scooter", "name": "4cbbfa219078eb51e089446dcf125e32"}, {"is_disabled": 0, "is_reserved": 0, "fusion_lat": 0.0, "lat": 38.891817, "fusion_lon": 0.0, "rental_uris": {"ios": "https://dc.lft.to/lastmile_qr_scan", "android": "https://dc.lft.to/lastmile_qr_scan"}, "lon": -77.01503616666666, "bike_id": "60ab27ad9b0803bb30320b8eee098f6c", "type": "electric_scooter", "name": "60ab27ad9b0803bb30320b8eee098f6c"}, {"is_disabled": 0, "is_reserved": 0, "fusion_lat": 0.0, "lat": 38.885807, "fusion_lon": 0.0, "rental_uris": {"ios": "https://dc.lft.to/lastmile_qr_scan", "android": "https://dc.lft.to/lastmile_qr_scan"}, "lon": -76.99504666666667, "bike_id": "fac69ecd40ab1adea292ad194e8671db", "type": "electric_scooter", "name": "fac69ecd40ab1adea292ad194e8671db"}, {"is_disabled": 0, "is_reserved": 0, "fusion_lat": 0.0, "lat": 38.920499666666664, "fusion_lon": 0.0, "rental_uris": {"ios": "https://dc.lft.to/lastmile_qr_scan", "android": "https://dc.lft.to/lastmile_qr_scan"}, "lon": -77.03329483333333, "bike_id": "8894a353389ff6a23608d1ea3e3bb74c", "type": "electric_scooter", "name": "8894a353389ff6a23608d1ea3e3bb74c"}, {"is_disabled": 0, "is_reserved": 0, "fusion_lat": 0.0, "lat": 38.89543666666667, "fusion_lon": 0.0, "rental_uris": {"ios": "https://dc.lft.to/lastmile_qr_scan", "android": "https://dc.lft.to/lastmile_qr_scan"}, "lon": -77.01654283333333, "bike_id": "0a5c7f1a12f92409f495ea2abf6c34b9", "type": "electric_scooter", "name": "0a5c7f1a12f92409f495ea2abf6c34b9"}, {"is_disabled": 0, "is_reserved": 0, "fusion_lat": 0.0, "lat": 38.9101265, "fusion_lon": 0.0, "rental_uris": {"ios": "https://dc.lft.to/lastmile_qr_scan", "android": "https://dc.lft.to/lastmile_qr_scan"}, "lon": -77.04429583333334, "bike_id": "0b582b723b63a4e065b363abda1f76f6", "type": "electric_scooter", "name": "0b582b723b63a4e065b363abda1f76f6"}, {"is_disabled": 0, "is_reserved": 0, "fusion_lat": 0.0, "lat": 38.92062333333333, "fusion_lon": 0.0, "rental_uris": {"ios": "https://dc.lft.to/lastmile_qr_scan", "android": "https://dc.lft.to/lastmile_qr_scan"}, "lon": -77.029347, "bike_id": "7ddc8624a807a3384fcb9dd0c58071dc", "type": "electric_scooter", "name": "7ddc8624a807a3384fcb9dd0c58071dc"}, {"is_disabled": 0, "is_reserved": 0, "fusion_lat": 0.0, "lat": 38.89889433333333, "fusion_lon": 0.0, "rental_uris": {"ios": "https://dc.lft.to/lastmile_qr_scan", "android": "https://dc.lft.to/lastmile_qr_scan"}, "lon": -77.03928633333334, "bike_id": "f174629f71ca511056fcaee5bd8ff5fe", "type": "electric_scooter", "name": "f174629f71ca511056fcaee5bd8ff5fe"}, {"is_disabled": 0, "is_reserved": 0, "fusion_lat": 0.0, "lat": 38.89236116666667, "fusion_lon": 0.0, "rental_uris": {"ios": "https://dc.lft.to/lastmile_qr_scan", "android": "https://dc.lft.to/lastmile_qr_scan"}, "lon": -77.02805, "bike_id": "fbc0bc0f9a3acbcdd8bca6f52cd85afc", "type": "electric_scooter", "name": "fbc0bc0f9a3acbcdd8bca6f52cd85afc"}, {"is_disabled": 0, "is_reserved": 0, "fusion_lat": 0.0, "lat": 38.928232333333334, "fusion_lon": 0.0, "rental_uris": {"ios": "https://dc.lft.to/lastmile_qr_scan", "android": "https://dc.lft.to/lastmile_qr_scan"}, "lon": -77.02255433333333, "bike_id": "3e0c2a11968d38cd7287d157fbd04415", "type": "electric_scooter", "name": "3e0c2a11968d38cd7287d157fbd04415"}, {"is_disabled": 0, "is_reserved": 0, "fusion_lat": 0.0, "lat": 38.918304, "fusion_lon": 0.0, "rental_uris": {"ios": "https://dc.lft.to/lastmile_qr_scan", "android": "https://dc.lft.to/lastmile_qr_scan"}, "lon": -77.05318633333333, "bike_id": "0458eb241faea84ef6b7d1dc85a35658", "type": "electric_scooter", "name": "0458eb241faea84ef6b7d1dc85a35658"}, {"is_disabled": 0, "is_reserved": 0, "fusion_lat": 0.0, "lat": 38.934590166666666, "fusion_lon": 0.0, "rental_uris": {"ios": "https://dc.lft.to/lastmile_qr_scan", "android": "https://dc.lft.to/lastmile_qr_scan"}, "lon": -77.0240245, "bike_id": "b508d71f2309869545ceef23fe6da9f7", "type": "electric_scooter", "name": "b508d71f2309869545ceef23fe6da9f7"}, {"is_disabled": 0, "is_reserved": 0, "fusion_lat": 0.0, "lat": 38.84096666666667, "fusion_lon": 0.0, "rental_uris": {"ios": "https://dc.lft.to/lastmile_qr_scan", "android": "https://dc.lft.to/lastmile_qr_scan"}, "lon": -76.98711516666667, "bike_id": "072df70e847d789463b1add6813b0f85", "type": "electric_bike", "name": "072df70e847d789463b1add6813b0f85"}, {"is_disabled": 0, "is_reserved": 0, "fusion_lat": 0.0, "lat": 38.892287333333336, "fusion_lon": 0.0, "rental_uris": {"ios": "https://dc.lft.to/lastmile_qr_scan", "android": "https://dc.lft.to/lastmile_qr_scan"}, "lon": -77.03197966666667, "bike_id": "54a72e92521bda4d73d1b64ae7ace079", "type": "electric_scooter", "name": "54a72e92521bda4d73d1b64ae7ace079"}, {"is_disabled": 0, "is_reserved": 0, "fusion_lat": 0.0, "lat": 38.930441333333334, "fusion_lon": 0.0, "rental_uris": {"ios": "https://dc.lft.to/lastmile_qr_scan", "android": "https://dc.lft.to/lastmile_qr_scan"}, "lon": -77.05566966666666, "bike_id": "5bac19b45cec778354f16b978eb32c98", "type": "electric_scooter", "name": "5bac19b45cec778354f16b978eb32c98"}, {"is_disabled": 0, "is_reserved": 0, "fusion_lat": 0.0, "lat": 38.91051216666666, "fusion_lon": 0.0, "rental_uris": {"ios": "https://dc.lft.to/lastmile_qr_scan", "android": "https://dc.lft.to/lastmile_qr_scan"}, "lon": -77.04345933333333, "bike_id": "71361d5df6617046377d99b88654a2c4", "type": "electric_scooter", "name": "71361d5df6617046377d99b88654a2c4"}, {"is_disabled": 0, "is_reserved": 0, "fusion_lat": 0.0, "lat": 38.90768633333333, "fusion_lon": 0.0, "rental_uris": {"ios": "https://dc.lft.to/lastmile_qr_scan", "android": "https://dc.lft.to/lastmile_qr_scan"}, "lon": -77.042603, "bike_id": "8c4d1424a01081eaf6c771294a0cd948", "type": "electric_scooter", "name": "8c4d1424a01081eaf6c771294a0cd948"}, {"is_disabled": 0, "is_reserved": 0, "fusion_lat": 0.0, "lat": 38.87653266666667, "fusion_lon": 0.0, "rental_uris": {"ios": "https://dc.lft.to/lastmile_qr_scan", "android": "https://dc.lft.to/lastmile_qr_scan"}, "lon": -77.00608516666667, "bike_id": "c7da5354d0e760ba1ed2ae27d14b0397", "type": "electric_scooter", "name": "c7da5354d0e760ba1ed2ae27d14b0397"}, {"is_disabled": 0, "is_reserved": 0, "fusion_lat": 0.0, "lat": 38.9209865, "fusion_lon": 0.0, "rental_uris": {"ios": "https://dc.lft.to/lastmile_qr_scan", "android": "https://dc.lft.to/lastmile_qr_scan"}, "lon": -76.99402383333333, "bike_id": "d41c924e9a13e5fc6c12bf6a148c12db", "type": "electric_scooter", "name": "d41c924e9a13e5fc6c12bf6a148c12db"}, {"is_disabled": 0, "is_reserved": 0, "fusion_lat": 0.0, "lat": 38.82209133333333, "fusion_lon": 0.0, "rental_uris": {"ios": "https://dc.lft.to/lastmile_qr_scan", "android": "https://dc.lft.to/lastmile_qr_scan"}, "lon": -76.97702483333333, "bike_id": "f38708aa3f398d7e11fb805e8fcaa783", "type": "electric_bike", "name": "f38708aa3f398d7e11fb805e8fcaa783"}, {"is_disabled": 0, "is_reserved": 0, "fusion_lat": 0.0, "lat": 38.90592783333334, "fusion_lon": 0.0, "rental_uris": {"ios": "https://dc.lft.to/lastmile_qr_scan", "android": "https://dc.lft.to/lastmile_qr_scan"}, "lon": -77.07279766666667, "bike_id": "f93b3ae58b095d5c5c70fddc1a3c49e0", "type": "electric_scooter", "name": "f93b3ae58b095d5c5c70fddc1a3c49e0"}, {"is_disabled": 0, "is_reserved": 0, "fusion_lat": 0.0, "lat": 38.90721633333333, "fusion_lon": 0.0, "rental_uris": {"ios": "https://dc.lft.to/lastmile_qr_scan", "android": "https://dc.lft.to/lastmile_qr_scan"}, "lon": -77.035052, "bike_id": "9bcbe44480ff8cb474fce2d82954d368", "type": "electric_scooter", "name": "9bcbe44480ff8cb474fce2d82954d368"}, {"is_disabled": 0, "is_reserved": 0, "fusion_lat": 0.0, "lat": 38.93344183333333, "fusion_lon": 0.0, "rental_uris": {"ios": "https://dc.lft.to/lastmile_qr_scan", "android": "https://dc.lft.to/lastmile_qr_scan"}, "lon": -77.0604145, "bike_id": "e5dafee35b5711b75d359a10318638b7", "type": "electric_scooter", "name": "e5dafee35b5711b75d359a10318638b7"}, {"is_disabled": 0, "is_reserved": 0, "fusion_lat": 0.0, "lat": 38.92913983333333, "fusion_lon": 0.0, "rental_uris": {"ios": "https://dc.lft.to/lastmile_qr_scan", "android": "https://dc.lft.to/lastmile_qr_scan"}, "lon": -77.05495083333334, "bike_id": "39f0e74a6fb7b837c127c1d7d91f3783", "type": "electric_scooter", "name": "39f0e74a6fb7b837c127c1d7d91f3783"}, {"is_disabled": 0, "is_reserved": 0, "fusion_lat": 0.0, "lat": 38.91806966666667, "fusion_lon": 0.0, "rental_uris": {"ios": "https://dc.lft.to/lastmile_qr_scan", "android": "https://dc.lft.to/lastmile_qr_scan"}, "lon": -77.03440333333333, "bike_id": "0ee9b33a212d4bf9b4d57437a8e4e691", "type": "electric_scooter", "name": "0ee9b33a212d4bf9b4d57437a8e4e691"}, {"is_disabled": 0, "is_reserved": 0, "fusion_lat": 0.0, "lat": 38.909776, "fusion_lon": 0.0, "rental_uris": {"ios": "https://dc.lft.to/lastmile_qr_scan", "android": "https://dc.lft.to/lastmile_qr_scan"}, "lon": -77.03253216666667, "bike_id": "987f890d63adf5e74cc4fb9c2121bd63", "type": "electric_scooter", "name": "987f890d63adf5e74cc4fb9c2121bd63"}, {"is_disabled": 0, "is_reserved": 0, "fusion_lat": 0.0, "lat": 38.8922725, "fusion_lon": 0.0, "rental_uris": {"ios": "https://dc.lft.to/lastmile_qr_scan", "android": "https://dc.lft.to/lastmile_qr_scan"}, "lon": -77.04503433333333, "bike_id": "c6145a05eeb685ba184079b1469cb888", "type": "electric_scooter", "name": "c6145a05eeb685ba184079b1469cb888"}, {"is_disabled": 0, "is_reserved": 0, "fusion_lat": 0.0, "lat": 38.9164785, "fusion_lon": 0.0, "rental_uris": {"ios": "https://dc.lft.to/lastmile_qr_scan", "android": "https://dc.lft.to/lastmile_qr_scan"}, "lon": -77.02400616666667, "bike_id": "8bf3b6645aaa944422f7b211a114e4a9", "type": "electric_scooter", "name": "8bf3b6645aaa944422f7b211a114e4a9"}, {"is_disabled": 0, "is_reserved": 0, "fusion_lat": 0.0, "lat": 38.951513, "fusion_lon": 0.0, "rental_uris": {"ios": "https://dc.lft.to/lastmile_qr_scan", "android": "https://dc.lft.to/lastmile_qr_scan"}, "lon": -77.0186695, "bike_id": "a9159acac82defd32488de87c4635e65", "type": "electric_scooter", "name": "a9159acac82defd32488de87c4635e65"}, {"is_disabled": 0, "is_reserved": 0, "fusion_lat": 0.0, "lat": 38.918078333333334, "fusion_lon": 0.0, "rental_uris": {"ios": "https://dc.lft.to/lastmile_qr_scan", "android": "https://dc.lft.to/lastmile_qr_scan"}, "lon": -77.0350955, "bike_id": "951c94c394d7c8058b8c6c32aa93bb1d", "type": "electric_scooter", "name": "951c94c394d7c8058b8c6c32aa93bb1d"}, {"is_disabled": 0, "is_reserved": 0, "fusion_lat": 0.0, "lat": 38.899230333333335, "fusion_lon": 0.0, "rental_uris": {"ios": "https://dc.lft.to/lastmile_qr_scan", "android": "https://dc.lft.to/lastmile_qr_scan"}, "lon": -77.03227, "bike_id": "21163333bfa998271ee5966b4e0c6a9d", "type": "electric_scooter", "name": "21163333bfa998271ee5966b4e0c6a9d"}, {"is_disabled": 0, "is_reserved": 0, "fusion_lat": 0.0, "lat": 38.919166, "fusion_lon": 0.0, "rental_uris": {"ios": "https://dc.lft.to/lastmile_qr_scan", "android": "https://dc.lft.to/lastmile_qr_scan"}, "lon": -77.03432416666666, "bike_id": "733e05ae8d1c45e2f41ec64c4055f53d", "type": "electric_scooter", "name": "733e05ae8d1c45e2f41ec64c4055f53d"}, {"is_disabled": 0, "is_reserved": 0, "fusion_lat": 0.0, "lat": 38.90022416666667, "fusion_lon": 0.0, "rental_uris": {"ios": "https://dc.lft.to/lastmile_qr_scan", "android": "https://dc.lft.to/lastmile_qr_scan"}, "lon": -77.04883883333333, "bike_id": "f0fdeccda8005e03c9499bbb6c1dae0f", "type": "electric_scooter", "name": "f0fdeccda8005e03c9499bbb6c1dae0f"}, {"is_disabled": 0, "is_reserved": 0, "fusion_lat": 0.0, "lat": 38.827612, "fusion_lon": 0.0, "rental_uris": {"ios": "https://dc.lft.to/lastmile_qr_scan", "android": "https://dc.lft.to/lastmile_qr_scan"}, "lon": -77.0601355, "bike_id": "65dc702c9335c0266b32c65e075afb09", "type": "electric_bike", "name": "65dc702c9335c0266b32c65e075afb09"}, {"is_disabled": 0, "is_reserved": 0, "fusion_lat": 0.0, "lat": 38.90971066666667, "fusion_lon": 0.0, "rental_uris": {"ios": "https://dc.lft.to/lastmile_qr_scan", "android": "https://dc.lft.to/lastmile_qr_scan"}, "lon": -77.033027, "bike_id": "aebd2001041bee6f5fc04002f8ad1818", "type": "electric_scooter", "name": "aebd2001041bee6f5fc04002f8ad1818"}, {"is_disabled": 0, "is_reserved": 0, "fusion_lat": 0.0, "lat": 38.95731416666667, "fusion_lon": 0.0, "rental_uris": {"ios": "https://dc.lft.to/lastmile_qr_scan", "android": "https://dc.lft.to/lastmile_qr_scan"}, "lon": -77.02403183333334, "bike_id": "c6306afab1aba3d1dc7a69b76b02ea7b", "type": "electric_scooter", "name": "c6306afab1aba3d1dc7a69b76b02ea7b"}, {"is_disabled": 0, "is_reserved": 0, "fusion_lat": 0.0, "lat": 38.92656383333333, "fusion_lon": 0.0, "rental_uris": {"ios": "https://dc.lft.to/lastmile_qr_scan", "android": "https://dc.lft.to/lastmile_qr_scan"}, "lon": -77.09020566666666, "bike_id": "d9755b33fc529757463684c7fa7f2a83", "type": "electric_bike", "name": "d9755b33fc529757463684c7fa7f2a83"}, {"is_disabled": 0, "is_reserved": 0, "fusion_lat": 0.0, "lat": 38.916797833333334, "fusion_lon": 0.0, "rental_uris": {"ios": "https://dc.lft.to/lastmile_qr_scan", "android": "https://dc.lft.to/lastmile_qr_scan"}, "lon": -77.0280365, "bike_id": "0a4d830c8c6773fcea16f61ac438fada", "type": "electric_scooter", "name": "0a4d830c8c6773fcea16f61ac438fada"}, {"is_disabled": 0, "is_reserved": 0, "fusion_lat": 0.0, "lat": 38.908545, "fusion_lon": 0.0, "rental_uris": {"ios": "https://dc.lft.to/lastmile_qr_scan", "android": "https://dc.lft.to/lastmile_qr_scan"}, "lon": -76.999658, "bike_id": "561ccb2ebc1a6bd9797033960bdd0e8c", "type": "electric_scooter", "name": "561ccb2ebc1a6bd9797033960bdd0e8c"}, {"is_disabled": 0, "is_reserved": 0, "fusion_lat": 0.0, "lat": 38.93931516666667, "fusion_lon": 0.0, "rental_uris": {"ios": "https://dc.lft.to/lastmile_qr_scan", "android": "https://dc.lft.to/lastmile_qr_scan"}, "lon": -77.0258545, "bike_id": "175c49949d19990d3b2294b941d8afcc", "type": "electric_scooter", "name": "175c49949d19990d3b2294b941d8afcc"}, {"is_disabled": 0, "is_reserved": 0, "fusion_lat": 0.0, "lat": 38.92086483333333, "fusion_lon": 0.0, "rental_uris": {"ios": "https://dc.lft.to/lastmile_qr_scan", "android": "https://dc.lft.to/lastmile_qr_scan"}, "lon": -76.95445133333334, "bike_id": "1f94a31f5dfb5fc24ff201fbb4fecfab", "type": "electric_bike", "name": "1f94a31f5dfb5fc24ff201fbb4fecfab"}, {"is_disabled": 0, "is_reserved": 0, "fusion_lat": 0.0, "lat": 38.89713233333333, "fusion_lon": 0.0, "rental_uris": {"ios": "https://dc.lft.to/lastmile_qr_scan", "android": "https://dc.lft.to/lastmile_qr_scan"}, "lon": -76.93913416666666, "bike_id": "eab64fce3b3a955f5ff41b0f171c6df0", "type": "electric_scooter", "name": "eab64fce3b3a955f5ff41b0f171c6df0"}, {"is_disabled": 0, "is_reserved": 0, "fusion_lat": 0.0, "lat": 38.871762833333335, "fusion_lon": 0.0, "rental_uris": {"ios": "https://dc.lft.to/lastmile_qr_scan", "android": "https://dc.lft.to/lastmile_qr_scan"}, "lon": -77.00625083333334, "bike_id": "f6c61af4b825351dae0d42c73186fb35", "type": "electric_scooter", "name": "f6c61af4b825351dae0d42c73186fb35"}, {"is_disabled": 0, "is_reserved": 0, "fusion_lat": 0.0, "lat": 38.89013116666667, "fusion_lon": 0.0, "rental_uris": {"ios": "https://dc.lft.to/lastmile_qr_scan", "android": "https://dc.lft.to/lastmile_qr_scan"}, "lon": -76.93735833333334, "bike_id": "e9807a33ab9ef0e76152b3b7c243c60b", "type": "electric_scooter", "name": "e9807a33ab9ef0e76152b3b7c243c60b"}, {"is_disabled": 0, "is_reserved": 0, "fusion_lat": 0.0, "lat": 38.89566083333333, "fusion_lon": 0.0, "rental_uris": {"ios": "https://dc.lft.to/lastmile_qr_scan", "android": "https://dc.lft.to/lastmile_qr_scan"}, "lon": -77.12732916666667, "bike_id": "0f6de01cffc588ee20b9d4dbae1ada6a", "type": "electric_bike", "name": "0f6de01cffc588ee20b9d4dbae1ada6a"}, {"is_disabled": 0, "is_reserved": 0, "fusion_lat": 0.0, "lat": 38.92318183333333, "fusion_lon": 0.0, "rental_uris": {"ios": "https://dc.lft.to/lastmile_qr_scan", "android": "https://dc.lft.to/lastmile_qr_scan"}, "lon": -77.03625233333334, "bike_id": "3f9d8493bf7492584eaaacc17acee678", "type": "electric_scooter", "name": "3f9d8493bf7492584eaaacc17acee678"}, {"is_disabled": 0, "is_reserved": 0, "fusion_lat": 0.0, "lat": 38.9032175, "fusion_lon": 0.0, "rental_uris": {"ios": "https://dc.lft.to/lastmile_qr_scan", "android": "https://dc.lft.to/lastmile_qr_scan"}, "lon": -76.9754455, "bike_id": "955ef371ad2ee42bf7603554738faddd", "type": "electric_scooter", "name": "955ef371ad2ee42bf7603554738faddd"}, {"is_disabled": 0, "is_reserved": 0, "fusion_lat": 0.0, "lat": 38.909700666666666, "fusion_lon": 0.0, "rental_uris": {"ios": "https://dc.lft.to/lastmile_qr_scan", "android": "https://dc.lft.to/lastmile_qr_scan"}, "lon": -77.03328033333334, "bike_id": "10765ef62bfc637568c42a69167e16af", "type": "electric_scooter", "name": "10765ef62bfc637568c42a69167e16af"}, {"is_disabled": 0, "is_reserved": 0, "fusion_lat": 0.0, "lat": 38.89488433333333, "fusion_lon": 0.0, "rental_uris": {"ios": "https://dc.lft.to/lastmile_qr_scan", "android": "https://dc.lft.to/lastmile_qr_scan"}, "lon": -77.009869, "bike_id": "c73e1e429be1b2f113d9ef4b170eae2d", "type": "electric_scooter", "name": "c73e1e429be1b2f113d9ef4b170eae2d"}, {"is_disabled": 0, "is_reserved": 0, "fusion_lat": 0.0, "lat": 38.91712616666667, "fusion_lon": 0.0, "rental_uris": {"ios": "https://dc.lft.to/lastmile_qr_scan", "android": "https://dc.lft.to/lastmile_qr_scan"}, "lon": -77.04178016666667, "bike_id": "8bd8669a204f151fbb4e2deb02863d2d", "type": "electric_scooter", "name": "8bd8669a204f151fbb4e2deb02863d2d"}, {"is_disabled": 0, "is_reserved": 0, "fusion_lat": 0.0, "lat": 38.97155083333333, "fusion_lon": 0.0, "rental_uris": {"ios": "https://dc.lft.to/lastmile_qr_scan", "android": "https://dc.lft.to/lastmile_qr_scan"}, "lon": -76.98362516666667, "bike_id": "3aac2d06fe2ceba8aaa71527839bc20c", "type": "electric_bike", "name": "3aac2d06fe2ceba8aaa71527839bc20c"}, {"is_disabled": 0, "is_reserved": 0, "fusion_lat": 0.0, "lat": 38.905546, "fusion_lon": 0.0, "rental_uris": {"ios": "https://dc.lft.to/lastmile_qr_scan", "android": "https://dc.lft.to/lastmile_qr_scan"}, "lon": -77.00806583333333, "bike_id": "5e0095f0d2913e71b4d13e40402e675b", "type": "electric_scooter", "name": "5e0095f0d2913e71b4d13e40402e675b"}, {"is_disabled": 0, "is_reserved": 0, "fusion_lat": 0.0, "lat": 38.89335166666667, "fusion_lon": 0.0, "rental_uris": {"ios": "https://dc.lft.to/lastmile_qr_scan", "android": "https://dc.lft.to/lastmile_qr_scan"}, "lon": -76.92887733333333, "bike_id": "16176a9f4f2251f1bb2545bc98ef44af", "type": "electric_scooter", "name": "16176a9f4f2251f1bb2545bc98ef44af"}, {"is_disabled": 0, "is_reserved": 0, "fusion_lat": 0.0, "lat": 39.010665333333336, "fusion_lon": 0.0, "rental_uris": {"ios": "https://dc.lft.to/lastmile_qr_scan", "android": "https://dc.lft.to/lastmile_qr_scan"}, "lon": -76.922442, "bike_id": "0101278d7fcb580125fb3eaedc270b85", "type": "electric_bike", "name": "0101278d7fcb580125fb3eaedc270b85"}, {"is_disabled": 0, "is_reserved": 0, "fusion_lat": 0.0, "lat": 38.91758683333333, "fusion_lon": 0.0, "rental_uris": {"ios": "https://dc.lft.to/lastmile_qr_scan", "android": "https://dc.lft.to/lastmile_qr_scan"}, "lon": -77.0151945, "bike_id": "d920176dad9ac7c36417571e87ad42b4", "type": "electric_scooter", "name": "d920176dad9ac7c36417571e87ad42b4"}, {"is_disabled": 0, "is_reserved": 0, "fusion_lat": 0.0, "lat": 38.8784125, "fusion_lon": 0.0, "rental_uris": {"ios": "https://dc.lft.to/lastmile_qr_scan", "android": "https://dc.lft.to/lastmile_qr_scan"}, "lon": -76.93138566666667, "bike_id": "9bbed90897ad2387e2cc95de02b839a8", "type": "electric_scooter", "name": "9bbed90897ad2387e2cc95de02b839a8"}, {"is_disabled": 0, "is_reserved": 0, "fusion_lat": 0.0, "lat": 38.920662, "fusion_lon": 0.0, "rental_uris": {"ios": "https://dc.lft.to/lastmile_qr_scan", "android": "https://dc.lft.to/lastmile_qr_scan"}, "lon": -77.039909, "bike_id": "e9fe84692e39112b628b6a586c25356a", "type": "electric_scooter", "name": "e9fe84692e39112b628b6a586c25356a"}, {"is_disabled": 0, "is_reserved": 0, "fusion_lat": 0.0, "lat": 38.89440583333333, "fusion_lon": 0.0, "rental_uris": {"ios": "https://dc.lft.to/lastmile_qr_scan", "android": "https://dc.lft.to/lastmile_qr_scan"}, "lon": -76.97511033333333, "bike_id": "e65f4bcb48f02ff2a3b79082be82ff7d", "type": "electric_bike", "name": "e65f4bcb48f02ff2a3b79082be82ff7d"}, {"is_disabled": 0, "is_reserved": 0, "fusion_lat": 0.0, "lat": 38.92037283333333, "fusion_lon": 0.0, "rental_uris": {"ios": "https://dc.lft.to/lastmile_qr_scan", "android": "https://dc.lft.to/lastmile_qr_scan"}, "lon": -77.02607416666666, "bike_id": "375d6fc3d20c9bd477c5d83f7057ebb8", "type": "electric_scooter", "name": "375d6fc3d20c9bd477c5d83f7057ebb8"}, {"is_disabled": 0, "is_reserved": 0, "fusion_lat": 0.0, "lat": 38.899519, "fusion_lon": 0.0, "rental_uris": {"ios": "https://dc.lft.to/lastmile_qr_scan", "android": "https://dc.lft.to/lastmile_qr_scan"}, "lon": -77.02730933333333, "bike_id": "983c46024a6b7f29e96b757377dbe264", "type": "electric_scooter", "name": "983c46024a6b7f29e96b757377dbe264"}, {"is_disabled": 0, "is_reserved": 0, "fusion_lat": 0.0, "lat": 38.9125705, "fusion_lon": 0.0, "rental_uris": {"ios": "https://dc.lft.to/lastmile_qr_scan", "android": "https://dc.lft.to/lastmile_qr_scan"}, "lon": -77.03176416666666, "bike_id": "08f0add936f160677884a17cbbc750ac", "type": "electric_scooter", "name": "08f0add936f160677884a17cbbc750ac"}, {"is_disabled": 0, "is_reserved": 0, "fusion_lat": 0.0, "lat": 38.88305066666667, "fusion_lon": 0.0, "rental_uris": {"ios": "https://dc.lft.to/lastmile_qr_scan", "android": "https://dc.lft.to/lastmile_qr_scan"}, "lon": -77.02560166666666, "bike_id": "d884eee152de4f43f57f8188ae8b933a", "type": "electric_scooter", "name": "d884eee152de4f43f57f8188ae8b933a"}, {"is_disabled": 0, "is_reserved": 0, "fusion_lat": 0.0, "lat": 38.903711333333334, "fusion_lon": 0.0, "rental_uris": {"ios": "https://dc.lft.to/lastmile_qr_scan", "android": "https://dc.lft.to/lastmile_qr_scan"}, "lon": -77.06025666666666, "bike_id": "6b7d4ee32eefa5a658af047eee01d114", "type": "electric_scooter", "name": "6b7d4ee32eefa5a658af047eee01d114"}, {"is_disabled": 0, "is_reserved": 0, "fusion_lat": 0.0, "lat": 38.898538333333335, "fusion_lon": 0.0, "rental_uris": {"ios": "https://dc.lft.to/lastmile_qr_scan", "android": "https://dc.lft.to/lastmile_qr_scan"}, "lon": -77.03925983333333, "bike_id": "c36a7251442aeefff739c611f7b57ab1", "type": "electric_scooter", "name": "c36a7251442aeefff739c611f7b57ab1"}, {"is_disabled": 0, "is_reserved": 0, "fusion_lat": 0.0, "lat": 38.91630133333334, "fusion_lon": 0.0, "rental_uris": {"ios": "https://dc.lft.to/lastmile_qr_scan", "android": "https://dc.lft.to/lastmile_qr_scan"}, "lon": -77.032108, "bike_id": "a265811774133ff02a566810854ef39f", "type": "electric_scooter", "name": "a265811774133ff02a566810854ef39f"}, {"is_disabled": 0, "is_reserved": 0, "fusion_lat": 0.0, "lat": 38.941379833333336, "fusion_lon": 0.0, "rental_uris": {"ios": "https://dc.lft.to/lastmile_qr_scan", "android": "https://dc.lft.to/lastmile_qr_scan"}, "lon": -77.02323733333333, "bike_id": "1c8d8415107973a4c67cb556401e2fcc", "type": "electric_scooter", "name": "1c8d8415107973a4c67cb556401e2fcc"}, {"is_disabled": 0, "is_reserved": 0, "fusion_lat": 0.0, "lat": 38.947483, "fusion_lon": 0.0, "rental_uris": {"ios": "https://dc.lft.to/lastmile_qr_scan", "android": "https://dc.lft.to/lastmile_qr_scan"}, "lon": -77.02355983333334, "bike_id": "611d573829be8df5673e51c83c2891f2", "type": "electric_scooter", "name": "611d573829be8df5673e51c83c2891f2"}, {"is_disabled": 0, "is_reserved": 0, "fusion_lat": 0.0, "lat": 38.85593516666667, "fusion_lon": 0.0, "rental_uris": {"ios": "https://dc.lft.to/lastmile_qr_scan", "android": "https://dc.lft.to/lastmile_qr_scan"}, "lon": -76.9727765, "bike_id": "3c81982fc0f9aa94768a8afe3503735e", "type": "electric_bike", "name": "3c81982fc0f9aa94768a8afe3503735e"}, {"is_disabled": 0, "is_reserved": 0, "fusion_lat": 0.0, "lat": 38.80404133333333, "fusion_lon": 0.0, "rental_uris": {"ios": "https://dc.lft.to/lastmile_qr_scan", "android": "https://dc.lft.to/lastmile_qr_scan"}, "lon": -77.11331033333333, "bike_id": "c2b16a2f255484c57714a8eb254be268", "type": "electric_bike", "name": "c2b16a2f255484c57714a8eb254be268"}, {"is_disabled": 0, "is_reserved": 0, "fusion_lat": 0.0, "lat": 38.915225, "fusion_lon": 0.0, "rental_uris": {"ios": "https://dc.lft.to/lastmile_qr_scan", "android": "https://dc.lft.to/lastmile_qr_scan"}, "lon": -77.01222183333333, "bike_id": "058ccedb6cfb869ec8f5454efa9823c8", "type": "electric_scooter", "name": "058ccedb6cfb869ec8f5454efa9823c8"}, {"is_disabled": 0, "is_reserved": 0, "fusion_lat": 0.0, "lat": 38.918165, "fusion_lon": 0.0, "rental_uris": {"ios": "https://dc.lft.to/lastmile_qr_scan", "android": "https://dc.lft.to/lastmile_qr_scan"}, "lon": -77.02525266666666, "bike_id": "212d68d3a5533baa6779bcb918c5f7f3", "type": "electric_scooter", "name": "212d68d3a5533baa6779bcb918c5f7f3"}, {"is_disabled": 0, "is_reserved": 0, "fusion_lat": 0.0, "lat": 39.07435816666667, "fusion_lon": 0.0, "rental_uris": {"ios": "https://dc.lft.to/lastmile_qr_scan", "android": "https://dc.lft.to/lastmile_qr_scan"}, "lon": -77.11533, "bike_id": "bd12e3c2a7617f66429d35153574dd22", "type": "electric_bike", "name": "bd12e3c2a7617f66429d35153574dd22"}, {"is_disabled": 0, "is_reserved": 0, "fusion_lat": 0.0, "lat": 38.899940666666666, "fusion_lon": 0.0, "rental_uris": {"ios": "https://dc.lft.to/lastmile_qr_scan", "android": "https://dc.lft.to/lastmile_qr_scan"}, "lon": -77.0102285, "bike_id": "de14e0e05287e3038e8a8718117ff1e8", "type": "electric_scooter", "name": "de14e0e05287e3038e8a8718117ff1e8"}, {"is_disabled": 0, "is_reserved": 0, "fusion_lat": 0.0, "lat": 38.90796666666667, "fusion_lon": 0.0, "rental_uris": {"ios": "https://dc.lft.to/lastmile_qr_scan", "android": "https://dc.lft.to/lastmile_qr_scan"}, "lon": -77.04984316666666, "bike_id": "a4a4133e39f93ed091362ec5e092e2ad", "type": "electric_scooter", "name": "a4a4133e39f93ed091362ec5e092e2ad"}, {"is_disabled": 0, "is_reserved": 0, "fusion_lat": 0.0, "lat": 38.923572666666665, "fusion_lon": 0.0, "rental_uris": {"ios": "https://dc.lft.to/lastmile_qr_scan", "android": "https://dc.lft.to/lastmile_qr_scan"}, "lon": -77.07315416666667, "bike_id": "8a11ad2890890c49e82db258b1e8ddd9", "type": "electric_scooter", "name": "8a11ad2890890c49e82db258b1e8ddd9"}, {"is_disabled": 0, "is_reserved": 0, "fusion_lat": 0.0, "lat": 38.89291516666667, "fusion_lon": 0.0, "rental_uris": {"ios": "https://dc.lft.to/lastmile_qr_scan", "android": "https://dc.lft.to/lastmile_qr_scan"}, "lon": -76.97617966666667, "bike_id": "daad03974f4c12c798383842cf29b52a", "type": "electric_bike", "name": "daad03974f4c12c798383842cf29b52a"}, {"is_disabled": 0, "is_reserved": 0, "fusion_lat": 0.0, "lat": 38.932409166666666, "fusion_lon": 0.0, "rental_uris": {"ios": "https://dc.lft.to/lastmile_qr_scan", "android": "https://dc.lft.to/lastmile_qr_scan"}, "lon": -76.99092116666667, "bike_id": "01ab57fe3f0bd5460b70e1556dd52f4a", "type": "electric_scooter", "name": "01ab57fe3f0bd5460b70e1556dd52f4a"}, {"is_disabled": 0, "is_reserved": 0, "fusion_lat": 0.0, "lat": 38.892232666666665, "fusion_lon": 0.0, "rental_uris": {"ios": "https://dc.lft.to/lastmile_qr_scan", "android": "https://dc.lft.to/lastmile_qr_scan"}, "lon": -77.04502583333333, "bike_id": "f1536662512a29d79f05524c4d8d252a", "type": "electric_scooter", "name": "f1536662512a29d79f05524c4d8d252a"}, {"is_disabled": 0, "is_reserved": 0, "fusion_lat": 0.0, "lat": 38.93711233333333, "fusion_lon": 0.0, "rental_uris": {"ios": "https://dc.lft.to/lastmile_qr_scan", "android": "https://dc.lft.to/lastmile_qr_scan"}, "lon": -77.05592383333334, "bike_id": "6cd7e7de949788f009d32bf23d12083a", "type": "electric_scooter", "name": "6cd7e7de949788f009d32bf23d12083a"}, {"is_disabled": 0, "is_reserved": 0, "fusion_lat": 0.0, "lat": 38.92653383333333, "fusion_lon": 0.0, "rental_uris": {"ios": "https://dc.lft.to/lastmile_qr_scan", "android": "https://dc.lft.to/lastmile_qr_scan"}, "lon": -77.0244605, "bike_id": "5c1fc3888e0631d451dfe45718e13585", "type": "electric_scooter", "name": "5c1fc3888e0631d451dfe45718e13585"}, {"is_disabled": 0, "is_reserved": 0, "fusion_lat": 0.0, "lat": 38.92654433333333, "fusion_lon": 0.0, "rental_uris": {"ios": "https://dc.lft.to/lastmile_qr_scan", "android": "https://dc.lft.to/lastmile_qr_scan"}, "lon": -77.0242705, "bike_id": "f69a06d325fd58dc06a3bf446fb866c6", "type": "electric_scooter", "name": "f69a06d325fd58dc06a3bf446fb866c6"}, {"is_disabled": 0, "is_reserved": 0, "fusion_lat": 0.0, "lat": 38.923272833333336, "fusion_lon": 0.0, "rental_uris": {"ios": "https://dc.lft.to/lastmile_qr_scan", "android": "https://dc.lft.to/lastmile_qr_scan"}, "lon": -77.036216, "bike_id": "a8a15fb528677ff6cdb343fca2f8d27d", "type": "electric_scooter", "name": "a8a15fb528677ff6cdb343fca2f8d27d"}, {"is_disabled": 0, "is_reserved": 0, "fusion_lat": 0.0, "lat": 38.917029666666664, "fusion_lon": 0.0, "rental_uris": {"ios": "https://dc.lft.to/lastmile_qr_scan", "android": "https://dc.lft.to/lastmile_qr_scan"}, "lon": -77.03491866666667, "bike_id": "08de73227329d3950264c460574068b5", "type": "electric_scooter", "name": "08de73227329d3950264c460574068b5"}, {"is_disabled": 0, "is_reserved": 0, "fusion_lat": 0.0, "lat": 38.918586166666664, "fusion_lon": 0.0, "rental_uris": {"ios": "https://dc.lft.to/lastmile_qr_scan", "android": "https://dc.lft.to/lastmile_qr_scan"}, "lon": -77.04466316666667, "bike_id": "d9f2adc2a9220a471031aa0a05b53619", "type": "electric_scooter", "name": "d9f2adc2a9220a471031aa0a05b53619"}, {"is_disabled": 0, "is_reserved": 0, "fusion_lat": 0.0, "lat": 38.9312125, "fusion_lon": 0.0, "rental_uris": {"ios": "https://dc.lft.to/lastmile_qr_scan", "android": "https://dc.lft.to/lastmile_qr_scan"}, "lon": -77.020671, "bike_id": "474d95cf631e94f2d71546aea604e02c", "type": "electric_scooter", "name": "474d95cf631e94f2d71546aea604e02c"}, {"is_disabled": 0, "is_reserved": 0, "fusion_lat": 0.0, "lat": 38.9568735, "fusion_lon": 0.0, "rental_uris": {"ios": "https://dc.lft.to/lastmile_qr_scan", "android": "https://dc.lft.to/lastmile_qr_scan"}, "lon": -77.0222775, "bike_id": "da0f5c8925f21c8f20dee1fba98189b1", "type": "electric_scooter", "name": "da0f5c8925f21c8f20dee1fba98189b1"}, {"is_disabled": 0, "is_reserved": 0, "fusion_lat": 0.0, "lat": 38.89619916666667, "fusion_lon": 0.0, "rental_uris": {"ios": "https://dc.lft.to/lastmile_qr_scan", "android": "https://dc.lft.to/lastmile_qr_scan"}, "lon": -76.90753683333334, "bike_id": "1ddfdeff55dcb8b20ea1f36b84020d2f", "type": "electric_bike", "name": "1ddfdeff55dcb8b20ea1f36b84020d2f"}, {"is_disabled": 0, "is_reserved": 0, "fusion_lat": 0.0, "lat": 38.923034333333334, "fusion_lon": 0.0, "rental_uris": {"ios": "https://dc.lft.to/lastmile_qr_scan", "android": "https://dc.lft.to/lastmile_qr_scan"}, "lon": -77.02974116666667, "bike_id": "fd5557b89ec6ca5683869a1494fec6e1", "type": "electric_scooter", "name": "fd5557b89ec6ca5683869a1494fec6e1"}, {"is_disabled": 0, "is_reserved": 0, "fusion_lat": 0.0, "lat": 38.95758033333333, "fusion_lon": 0.0, "rental_uris": {"ios": "https://dc.lft.to/lastmile_qr_scan", "android": "https://dc.lft.to/lastmile_qr_scan"}, "lon": -77.02210016666666, "bike_id": "ff3df56c7d2d263f45225cc7bb1407ed", "type": "electric_scooter", "name": "ff3df56c7d2d263f45225cc7bb1407ed"}, {"is_disabled": 0, "is_reserved": 0, "fusion_lat": 0.0, "lat": 38.9025725, "fusion_lon": 0.0, "rental_uris": {"ios": "https://dc.lft.to/lastmile_qr_scan", "android": "https://dc.lft.to/lastmile_qr_scan"}, "lon": -77.03969916666667, "bike_id": "a7a1bf642c70f754a99d28bc0387e56d", "type": "electric_scooter", "name": "a7a1bf642c70f754a99d28bc0387e56d"}, {"is_disabled": 0, "is_reserved": 0, "fusion_lat": 0.0, "lat": 38.8766705, "fusion_lon": 0.0, "rental_uris": {"ios": "https://dc.lft.to/lastmile_qr_scan", "android": "https://dc.lft.to/lastmile_qr_scan"}, "lon": -76.99626933333333, "bike_id": "c260b7eb31812fee060fd810b9a3758e", "type": "electric_scooter", "name": "c260b7eb31812fee060fd810b9a3758e"}, {"is_disabled": 0, "is_reserved": 0, "fusion_lat": 0.0, "lat": 38.916843666666665, "fusion_lon": 0.0, "rental_uris": {"ios": "https://dc.lft.to/lastmile_qr_scan", "android": "https://dc.lft.to/lastmile_qr_scan"}, "lon": -77.02970016666667, "bike_id": "17233d5206a84ecb33ea49a4b4fc1f17", "type": "electric_scooter", "name": "17233d5206a84ecb33ea49a4b4fc1f17"}, {"is_disabled": 0, "is_reserved": 0, "fusion_lat": 0.0, "lat": 38.885320166666666, "fusion_lon": 0.0, "rental_uris": {"ios": "https://dc.lft.to/lastmile_qr_scan", "android": "https://dc.lft.to/lastmile_qr_scan"}, "lon": -76.9805415, "bike_id": "8b36d80b2981a7121af40b9bc47241ea", "type": "electric_scooter", "name": "8b36d80b2981a7121af40b9bc47241ea"}, {"is_disabled": 0, "is_reserved": 0, "fusion_lat": 0.0, "lat": 38.91636966666667, "fusion_lon": 0.0, "rental_uris": {"ios": "https://dc.lft.to/lastmile_qr_scan", "android": "https://dc.lft.to/lastmile_qr_scan"}, "lon": -77.024143, "bike_id": "ba5efb3f2a02015937b0b95b57b7cf36", "type": "electric_scooter", "name": "ba5efb3f2a02015937b0b95b57b7cf36"}, {"is_disabled": 0, "is_reserved": 0, "fusion_lat": 0.0, "lat": 38.8970845, "fusion_lon": 0.0, "rental_uris": {"ios": "https://dc.lft.to/lastmile_qr_scan", "android": "https://dc.lft.to/lastmile_qr_scan"}, "lon": -77.03079283333334, "bike_id": "5fc7efd22b043457df0dfd282d79eee3", "type": "electric_scooter", "name": "5fc7efd22b043457df0dfd282d79eee3"}, {"is_disabled": 0, "is_reserved": 0, "fusion_lat": 0.0, "lat": 38.88746016666666, "fusion_lon": 0.0, "rental_uris": {"ios": "https://dc.lft.to/lastmile_qr_scan", "android": "https://dc.lft.to/lastmile_qr_scan"}, "lon": -77.02252183333333, "bike_id": "4820af6630eea6ca49f09721a5bc361c", "type": "electric_bike", "name": "4820af6630eea6ca49f09721a5bc361c"}, {"is_disabled": 0, "is_reserved": 0, "fusion_lat": 0.0, "lat": 38.89947566666667, "fusion_lon": 0.0, "rental_uris": {"ios": "https://dc.lft.to/lastmile_qr_scan", "android": "https://dc.lft.to/lastmile_qr_scan"}, "lon": -77.05101716666667, "bike_id": "62257e3e277e09c8083250a7b38be4e7", "type": "electric_scooter", "name": "62257e3e277e09c8083250a7b38be4e7"}, {"is_disabled": 0, "is_reserved": 0, "fusion_lat": 0.0, "lat": 38.94139466666667, "fusion_lon": 0.0, "rental_uris": {"ios": "https://dc.lft.to/lastmile_qr_scan", "android": "https://dc.lft.to/lastmile_qr_scan"}, "lon": -77.02328083333333, "bike_id": "18cda1ebf91492fb56ccf2080051f20f", "type": "electric_scooter", "name": "18cda1ebf91492fb56ccf2080051f20f"}, {"is_disabled": 0, "is_reserved": 0, "fusion_lat": 0.0, "lat": 38.937917666666664, "fusion_lon": 0.0, "rental_uris": {"ios": "https://dc.lft.to/lastmile_qr_scan", "android": "https://dc.lft.to/lastmile_qr_scan"}, "lon": -77.02975633333334, "bike_id": "00a6773a648f8209144a3dae6bf693e9", "type": "electric_scooter", "name": "00a6773a648f8209144a3dae6bf693e9"}, {"is_disabled": 0, "is_reserved": 0, "fusion_lat": 0.0, "lat": 38.92651383333333, "fusion_lon": 0.0, "rental_uris": {"ios": "https://dc.lft.to/lastmile_qr_scan", "android": "https://dc.lft.to/lastmile_qr_scan"}, "lon": -77.02433933333333, "bike_id": "07dad5f87a8cb61430e4258e9a4fb4b6", "type": "electric_scooter", "name": "07dad5f87a8cb61430e4258e9a4fb4b6"}, {"is_disabled": 0, "is_reserved": 0, "fusion_lat": 0.0, "lat": 38.905514, "fusion_lon": 0.0, "rental_uris": {"ios": "https://dc.lft.to/lastmile_qr_scan", "android": "https://dc.lft.to/lastmile_qr_scan"}, "lon": -77.04457016666667, "bike_id": "ff54ca3882ab0b2e395d9994a170ca0c", "type": "electric_bike", "name": "ff54ca3882ab0b2e395d9994a170ca0c"}, {"is_disabled": 0, "is_reserved": 0, "fusion_lat": 0.0, "lat": 38.928152833333336, "fusion_lon": 0.0, "rental_uris": {"ios": "https://dc.lft.to/lastmile_qr_scan", "android": "https://dc.lft.to/lastmile_qr_scan"}, "lon": -77.0436475, "bike_id": "00776ab2549d1ad1d9e4eb7a864380ce", "type": "electric_scooter", "name": "00776ab2549d1ad1d9e4eb7a864380ce"}, {"is_disabled": 0, "is_reserved": 0, "fusion_lat": 0.0, "lat": 38.93552416666667, "fusion_lon": 0.0, "rental_uris": {"ios": "https://dc.lft.to/lastmile_qr_scan", "android": "https://dc.lft.to/lastmile_qr_scan"}, "lon": -77.02425283333334, "bike_id": "65fd7a703d7b61150b62adf0e2ffba68", "type": "electric_scooter", "name": "65fd7a703d7b61150b62adf0e2ffba68"}, {"is_disabled": 0, "is_reserved": 0, "fusion_lat": 0.0, "lat": 38.906951166666666, "fusion_lon": 0.0, "rental_uris": {"ios": "https://dc.lft.to/lastmile_qr_scan", "android": "https://dc.lft.to/lastmile_qr_scan"}, "lon": -76.95251333333333, "bike_id": "4c158dcba9fe36a82a8d98be497f59db", "type": "electric_bike", "name": "4c158dcba9fe36a82a8d98be497f59db"}, {"is_disabled": 0, "is_reserved": 0, "fusion_lat": 0.0, "lat": 38.9424825, "fusion_lon": 0.0, "rental_uris": {"ios": "https://dc.lft.to/lastmile_qr_scan", "android": "https://dc.lft.to/lastmile_qr_scan"}, "lon": -76.98454033333333, "bike_id": "5216682b8090f7064054bb65f799db8f", "type": "electric_scooter", "name": "5216682b8090f7064054bb65f799db8f"}, {"is_disabled": 0, "is_reserved": 0, "fusion_lat": 0.0, "lat": 38.89663016666667, "fusion_lon": 0.0, "rental_uris": {"ios": "https://dc.lft.to/lastmile_qr_scan", "android": "https://dc.lft.to/lastmile_qr_scan"}, "lon": -77.0516265, "bike_id": "278f60bfd603c660855a7a861bec440f", "type": "electric_scooter", "name": "278f60bfd603c660855a7a861bec440f"}, {"is_disabled": 0, "is_reserved": 0, "fusion_lat": 0.0, "lat": 38.9246085, "fusion_lon": 0.0, "rental_uris": {"ios": "https://dc.lft.to/lastmile_qr_scan", "android": "https://dc.lft.to/lastmile_qr_scan"}, "lon": -77.03895383333334, "bike_id": "db9cda145038dfb00d19d6b599aa561a", "type": "electric_scooter", "name": "db9cda145038dfb00d19d6b599aa561a"}, {"is_disabled": 0, "is_reserved": 0, "fusion_lat": 0.0, "lat": 38.8836315, "fusion_lon": 0.0, "rental_uris": {"ios": "https://dc.lft.to/lastmile_qr_scan", "android": "https://dc.lft.to/lastmile_qr_scan"}, "lon": -76.9576595, "bike_id": "dc59da2929c0cad367934c80a6bc3313", "type": "electric_scooter", "name": "dc59da2929c0cad367934c80a6bc3313"}, {"is_disabled": 0, "is_reserved": 0, "fusion_lat": 0.0, "lat": 38.93045016666667, "fusion_lon": 0.0, "rental_uris": {"ios": "https://dc.lft.to/lastmile_qr_scan", "android": "https://dc.lft.to/lastmile_qr_scan"}, "lon": -77.01947816666667, "bike_id": "4f41e97afa9f28e6ae499d74e114dbd2", "type": "electric_scooter", "name": "4f41e97afa9f28e6ae499d74e114dbd2"}, {"is_disabled": 0, "is_reserved": 0, "fusion_lat": 0.0, "lat": 38.89230833333333, "fusion_lon": 0.0, "rental_uris": {"ios": "https://dc.lft.to/lastmile_qr_scan", "android": "https://dc.lft.to/lastmile_qr_scan"}, "lon": -77.0500165, "bike_id": "97cc2a3d7ab27ca53ed518a77ce27e36", "type": "electric_scooter", "name": "97cc2a3d7ab27ca53ed518a77ce27e36"}, {"is_disabled": 0, "is_reserved": 0, "fusion_lat": 0.0, "lat": 38.91517433333333, "fusion_lon": 0.0, "rental_uris": {"ios": "https://dc.lft.to/lastmile_qr_scan", "android": "https://dc.lft.to/lastmile_qr_scan"}, "lon": -77.044923, "bike_id": "ba24194ac0ca451c78bec33260539d36", "type": "electric_scooter", "name": "ba24194ac0ca451c78bec33260539d36"}, {"is_disabled": 0, "is_reserved": 0, "fusion_lat": 0.0, "lat": 38.90514783333333, "fusion_lon": 0.0, "rental_uris": {"ios": "https://dc.lft.to/lastmile_qr_scan", "android": "https://dc.lft.to/lastmile_qr_scan"}, "lon": -77.00891216666666, "bike_id": "07981f00251420c22e43ef4acfcd2571", "type": "electric_scooter", "name": "07981f00251420c22e43ef4acfcd2571"}, {"is_disabled": 0, "is_reserved": 0, "fusion_lat": 0.0, "lat": 38.904133333333334, "fusion_lon": 0.0, "rental_uris": {"ios": "https://dc.lft.to/lastmile_qr_scan", "android": "https://dc.lft.to/lastmile_qr_scan"}, "lon": -77.029539, "bike_id": "ae1eaf723215d0d501968d823acd30f5", "type": "electric_scooter", "name": "ae1eaf723215d0d501968d823acd30f5"}, {"is_disabled": 0, "is_reserved": 0, "fusion_lat": 0.0, "lat": 38.894238666666666, "fusion_lon": 0.0, "rental_uris": {"ios": "https://dc.lft.to/lastmile_qr_scan", "android": "https://dc.lft.to/lastmile_qr_scan"}, "lon": -77.02415666666667, "bike_id": "8e3184ecb1c1d79bb24172fdd72a13f3", "type": "electric_scooter", "name": "8e3184ecb1c1d79bb24172fdd72a13f3"}, {"is_disabled": 0, "is_reserved": 0, "fusion_lat": 0.0, "lat": 38.917049, "fusion_lon": 0.0, "rental_uris": {"ios": "https://dc.lft.to/lastmile_qr_scan", "android": "https://dc.lft.to/lastmile_qr_scan"}, "lon": -77.03769566666666, "bike_id": "b2e837b845eb2bff341a8f537ca589ac", "type": "electric_scooter", "name": "b2e837b845eb2bff341a8f537ca589ac"}, {"is_disabled": 0, "is_reserved": 0, "fusion_lat": 0.0, "lat": 38.90428, "fusion_lon": 0.0, "rental_uris": {"ios": "https://dc.lft.to/lastmile_qr_scan", "android": "https://dc.lft.to/lastmile_qr_scan"}, "lon": -77.061119, "bike_id": "bc8041c3ffc472d24ec2ca7f47bae02c", "type": "electric_scooter", "name": "bc8041c3ffc472d24ec2ca7f47bae02c"}, {"is_disabled": 0, "is_reserved": 0, "fusion_lat": 0.0, "lat": 38.94448583333333, "fusion_lon": 0.0, "rental_uris": {"ios": "https://dc.lft.to/lastmile_qr_scan", "android": "https://dc.lft.to/lastmile_qr_scan"}, "lon": -77.03279516666667, "bike_id": "5f5e45a9a0fa4553c7010f965d30bfbd", "type": "electric_scooter", "name": "5f5e45a9a0fa4553c7010f965d30bfbd"}, {"is_disabled": 0, "is_reserved": 0, "fusion_lat": 0.0, "lat": 38.92881333333333, "fusion_lon": 0.0, "rental_uris": {"ios": "https://dc.lft.to/lastmile_qr_scan", "android": "https://dc.lft.to/lastmile_qr_scan"}, "lon": -77.0399365, "bike_id": "d35610210b5b1976f43661782acf7e76", "type": "electric_scooter", "name": "d35610210b5b1976f43661782acf7e76"}, {"is_disabled": 0, "is_reserved": 0, "fusion_lat": 0.0, "lat": 38.956153666666665, "fusion_lon": 0.0, "rental_uris": {"ios": "https://dc.lft.to/lastmile_qr_scan", "android": "https://dc.lft.to/lastmile_qr_scan"}, "lon": -77.03312466666667, "bike_id": "db09348fdb12d254f132569fccc7c5bd", "type": "electric_scooter", "name": "db09348fdb12d254f132569fccc7c5bd"}, {"is_disabled": 0, "is_reserved": 0, "fusion_lat": 0.0, "lat": 38.91954883333333, "fusion_lon": 0.0, "rental_uris": {"ios": "https://dc.lft.to/lastmile_qr_scan", "android": "https://dc.lft.to/lastmile_qr_scan"}, "lon": -77.02310933333334, "bike_id": "93e149911358c1571985cb947047b197", "type": "electric_scooter", "name": "93e149911358c1571985cb947047b197"},