{"data": {"bikes": [{"bike_id": "0dda22d781dc95a52427340e52ead573", "type": "electric_scooter", "is_disabled": 0, "lat": 38.921981833333334, "rental_uris": {"ios": "https://dc.lft.to/lastmile_qr_scan", "android": "https://dc.lft.to/lastmile_qr_scan"}, "is_reserved": 0, "fusion_lon": 0.0, "fusion_lat": 0.0, "lon": -77.04693816666666, "name": "0dda22d781dc95a52427340e52ead573"}, {"bike_id": "6c83cbcd840e39dbf47b8b72f7c532ab", "type": "electric_scooter", "is_disabled": 0, "lat": 38.9215005, "rental_uris": {"ios": "https://dc.lft.to/lastmile_qr_scan", "android": "https://dc.lft.to/lastmile_qr_scan"}, "is_reserved": 0, "fusion_lon": 0.0, "fusion_lat": 0.0, "lon": -77.0424, "name": "6c83cbcd840e39dbf47b8b72f7c532ab"}, {"bike_id": "9f65c026fd62a819e7b68349b6bb2058", "type": "electric_scooter", "is_disabled": 0, "lat": 38.91685566666666, "rental_uris": {"ios": "https://dc.lft.to/lastmile_qr_scan", "android": "https://dc.lft.to/lastmile_qr_scan"}, "is_reserved": 0, "fusion_lon": 0.0, "fusion_lat": 0.0, "lon": -77.03462566666667, "name": "9f65c026fd62a819e7b68349b6bb2058"}, {"bike_id": "5fa0868c0685357fbec2212ce170c1e2", "type": "electric_scooter", "is_disabled": 0, "lat": 38.864682333333334, "rental_uris": {"ios": "https://dc.lft.to/lastmile_qr_scan", "android": "https://dc.lft.to/lastmile_qr_scan"}, "is_reserved": 0, "fusion_lon": 0.0, "fusion_lat": 0.0, "lon": -76.977324, "name": "5fa0868c0685357fbec2212ce170c1e2"}, {"bike_id": "6f7d4ee6ac69eeaee371cff3f2487000", "type": "electric_scooter", "is_disabled": 0, "lat": 38.8829815, "rental_uris": {"ios": "https://dc.lft.to/lastmile_qr_scan", "android": "https://dc.lft.to/lastmile_qr_scan"}, "is_reserved": 0, "fusion_lon": 0.0, "fusion_lat": 0.0, "lon": -76.94856083333333, "name": "6f7d4ee6ac69eeaee371cff3f2487000"}, {"bike_id": "adbdc9f836fd7ae1b1399b5448df6c9d", "type": "electric_scooter", "is_disabled": 0, "lat": 38.92700683333333, "rental_uris": {"ios": "https://dc.lft.to/lastmile_qr_scan", "android": "https://dc.lft.to/lastmile_qr_scan"}, "is_reserved": 0, "fusion_lon": 0.0, "fusion_lat": 0.0, "lon": -77.02091883333334, "name": "adbdc9f836fd7ae1b1399b5448df6c9d"}, {"bike_id": "2fb1258879395b438e8af71e4dbaf4d2", "type": "electric_scooter", "is_disabled": 0, "lat": 38.9247395, "rental_uris": {"ios": "https://dc.lft.to/lastmile_qr_scan", "android": "https://dc.lft.to/lastmile_qr_scan"}, "is_reserved": 0, "fusion_lon": 0.0, "fusion_lat": 0.0, "lon": -77.0283845, "name": "2fb1258879395b438e8af71e4dbaf4d2"}, {"bike_id": "5e5c7818640ac5f85b8ddad1d0202afc", "type": "electric_scooter", "is_disabled": 0, "lat": 38.90699766666667, "rental_uris": {"ios": "https://dc.lft.to/lastmile_qr_scan", "android": "https://dc.lft.to/lastmile_qr_scan"}, "is_reserved": 0, "fusion_lon": 0.0, "fusion_lat": 0.0, "lon": -76.98728633333333, "name": "5e5c7818640ac5f85b8ddad1d0202afc"}, {"bike_id": "23443b2ab8022d04df7d0ecf72e63649", "type": "electric_scooter", "is_disabled": 0, "lat": 38.9181785, "rental_uris": {"ios": "https://dc.lft.to/lastmile_qr_scan", "android": "https://dc.lft.to/lastmile_qr_scan"}, "is_reserved": 0, "fusion_lon": 0.0, "fusion_lat": 0.0, "lon": -77.0247515, "name": "23443b2ab8022d04df7d0ecf72e63649"}, {"bike_id": "9d9d278ee2f912cd2700f4fea3b7b13f", "type": "electric_bike", "is_disabled": 0, "lat": 38.912007333333335, "rental_uris": {"ios": "https://dc.lft.to/lastmile_qr_scan", "android": "https://dc.lft.to/lastmile_qr_scan"}, "is_reserved": 0, "fusion_lon": 0.0, "fusion_lat": 0.0, "lon": -77.05938016666667, "name": "9d9d278ee2f912cd2700f4fea3b7b13f"}, {"bike_id": "19039da321bd21482e511b8f4b32a844", "type": "electric_bike", "is_disabled": 0, "lat": 38.96959416666667, "rental_uris": {"ios": "https://dc.lft.to/lastmile_qr_scan", "android": "https://dc.lft.to/lastmile_qr_scan"}, "is_reserved": 0, "fusion_lon": 0.0, "fusion_lat": 0.0, "lon": -76.95748183333333, "name": "19039da321bd21482e511b8f4b32a844"}, {"bike_id": "631396dc92bf4b0000b8ed741b222a01", "type": "electric_scooter", "is_disabled": 0, "lat": 38.923649833333336, "rental_uris": {"ios": "https://dc.lft.to/lastmile_qr_scan", "android": "https://dc.lft.to/lastmile_qr_scan"}, "is_reserved": 0, "fusion_lon": 0.0, "fusion_lat": 0.0, "lon": -77.07642316666667, "name": "631396dc92bf4b0000b8ed741b222a01"}, {"bike_id": "8bf07b7d84745b06adbb7804e0ec1813", "type": "electric_scooter", "is_disabled": 0, "lat": 38.92264683333333, "rental_uris": {"ios": "https://dc.lft.to/lastmile_qr_scan", "android": "https://dc.lft.to/lastmile_qr_scan"}, "is_reserved": 0, "fusion_lon": 0.0, "fusion_lat": 0.0, "lon": -77.01952433333334, "name": "8bf07b7d84745b06adbb7804e0ec1813"}, {"bike_id": "be1821473c6d58f195d409bf14f4b4ad", "type": "electric_scooter", "is_disabled": 0, "lat": 38.90109916666667, "rental_uris": {"ios": "https://dc.lft.to/lastmile_qr_scan", "android": "https://dc.lft.to/lastmile_qr_scan"}, "is_reserved": 0, "fusion_lon": 0.0, "fusion_lat": 0.0, "lon": -76.986225, "name": "be1821473c6d58f195d409bf14f4b4ad"}, {"bike_id": "95adc62ad7f4fa2560c06241f322540f", "type": "electric_scooter", "is_disabled": 0, "lat": 38.917661833333334, "rental_uris": {"ios": "https://dc.lft.to/lastmile_qr_scan", "android": "https://dc.lft.to/lastmile_qr_scan"}, "is_reserved": 0, "fusion_lon": 0.0, "fusion_lat": 0.0, "lon": -77.0476285, "name": "95adc62ad7f4fa2560c06241f322540f"}, {"bike_id": "1f8ad78b3946c0267ea2fcd476062459", "type": "electric_bike", "is_disabled": 0, "lat": 38.94022266666666, "rental_uris": {"ios": "https://dc.lft.to/lastmile_qr_scan", "android": "https://dc.lft.to/lastmile_qr_scan"}, "is_reserved": 0, "fusion_lon": 0.0, "fusion_lat": 0.0, "lon": -76.97606116666667, "name": "1f8ad78b3946c0267ea2fcd476062459"}, {"bike_id": "cdc073102b9d6388d650e5efe575f60f", "type": "electric_bike", "is_disabled": 0, "lat": 38.956400333333335, "rental_uris": {"ios": "https://dc.lft.to/lastmile_qr_scan", "android": "https://dc.lft.to/lastmile_qr_scan"}, "is_reserved": 0, "fusion_lon": 0.0, "fusion_lat": 0.0, "lon": -76.93866216666666, "name": "cdc073102b9d6388d650e5efe575f60f"}, {"bike_id": "febdd7cb5d99290b6a7c850c94304e72", "type": "electric_scooter", "is_disabled": 0, "lat": 38.881587333333336, "rental_uris": {"ios": "https://dc.lft.to/lastmile_qr_scan", "android": "https://dc.lft.to/lastmile_qr_scan"}, "is_reserved": 0, "fusion_lon": 0.0, "fusion_lat": 0.0, "lon": -77.02762183333333, "name": "febdd7cb5d99290b6a7c850c94304e72"}, {"bike_id": "30c9bbb03ff293a603b4a9fc6e6476c8", "type": "electric_scooter", "is_disabled": 0, "lat": 38.935235, "rental_uris": {"ios": "https://dc.lft.to/lastmile_qr_scan", "android": "https://dc.lft.to/lastmile_qr_scan"}, "is_reserved": 0, "fusion_lon": 0.0, "fusion_lat": 0.0, "lon": -77.024228, "name": "30c9bbb03ff293a603b4a9fc6e6476c8"}, {"bike_id": "4077621bca8f782cbf477a1e8d42ceaf", "type": "electric_scooter", "is_disabled": 0, "lat": 38.87451033333333, "rental_uris": {"ios": "https://dc.lft.to/lastmile_qr_scan", "android": "https://dc.lft.to/lastmile_qr_scan"}, "is_reserved": 0, "fusion_lon": 0.0, "fusion_lat": 0.0, "lon": -77.00918866666666, "name": "4077621bca8f782cbf477a1e8d42ceaf"}, {"bike_id": "4e39637be56c701eee2e3ec097075ffc", "type": "electric_scooter", "is_disabled": 0, "lat": 38.87851466666667, "rental_uris": {"ios": "https://dc.lft.to/lastmile_qr_scan", "android": "https://dc.lft.to/lastmile_qr_scan"}, "is_reserved": 0, "fusion_lon": 0.0, "fusion_lat": 0.0, "lon": -77.00852816666666, "name": "4e39637be56c701eee2e3ec097075ffc"}, {"bike_id": "21f9b6e8e68201cde866a05c1718432d", "type": "electric_scooter", "is_disabled": 0, "lat": 38.984273, "rental_uris": {"ios": "https://dc.lft.to/lastmile_qr_scan", "android": "https://dc.lft.to/lastmile_qr_scan"}, "is_reserved": 0, "fusion_lon": 0.0, "fusion_lat": 0.0, "lon": -77.02666866666667, "name": "21f9b6e8e68201cde866a05c1718432d"}, {"bike_id": "85007a6707bfcbe8e9449039cc6ec4ea", "type": "electric_scooter", "is_disabled": 0, "lat": 38.9012075, "rental_uris": {"ios": "https://dc.lft.to/lastmile_qr_scan", "android": "https://dc.lft.to/lastmile_qr_scan"}, "is_reserved": 0, "fusion_lon": 0.0, "fusion_lat": 0.0, "lon": -77.0363425, "name": "85007a6707bfcbe8e9449039cc6ec4ea"}, {"bike_id": "7fa9e5e214ee69f728e57f80f8c2f0a4", "type": "electric_scooter", "is_disabled": 0, "lat": 38.9282855, "rental_uris": {"ios": "https://dc.lft.to/lastmile_qr_scan", "android": "https://dc.lft.to/lastmile_qr_scan"}, "is_reserved": 0, "fusion_lon": 0.0, "fusion_lat": 0.0, "lon": -77.05513366666666, "name": "7fa9e5e214ee69f728e57f80f8c2f0a4"}, {"bike_id": "f97274acc1a454890775e8f5c970e46b", "type": "electric_scooter", "is_disabled": 0, "lat": 38.95581216666667, "rental_uris": {"ios": "https://dc.lft.to/lastmile_qr_scan", "android": "https://dc.lft.to/lastmile_qr_scan"}, "is_reserved": 0, "fusion_lon": 0.0, "fusion_lat": 0.0, "lon": -77.080346, "name": "f97274acc1a454890775e8f5c970e46b"}, {"bike_id": "9aa8266a5b41e7818af385382c4991c5", "type": "electric_scooter", "is_disabled": 0, "lat": 38.9286035, "rental_uris": {"ios": "https://dc.lft.to/lastmile_qr_scan", "android": "https://dc.lft.to/lastmile_qr_scan"}, "is_reserved": 0, "fusion_lon": 0.0, "fusion_lat": 0.0, "lon": -77.03704166666667, "name": "9aa8266a5b41e7818af385382c4991c5"}, {"bike_id": "4ac55d53cbea5b0fb10d4aba476028c9", "type": "electric_scooter", "is_disabled": 0, "lat": 38.8637255, "rental_uris": {"ios": "https://dc.lft.to/lastmile_qr_scan", "android": "https://dc.lft.to/lastmile_qr_scan"}, "is_reserved": 0, "fusion_lon": 0.0, "fusion_lat": 0.0, "lon": -76.9905645, "name": "4ac55d53cbea5b0fb10d4aba476028c9"}, {"bike_id": "ae3cf555a0a44640029189b35c0fc909", "type": "electric_scooter", "is_disabled": 0, "lat": 38.906281166666666, "rental_uris": {"ios": "https://dc.lft.to/lastmile_qr_scan", "android": "https://dc.lft.to/lastmile_qr_scan"}, "is_reserved": 0, "fusion_lon": 0.0, "fusion_lat": 0.0, "lon": -77.0555275, "name": "ae3cf555a0a44640029189b35c0fc909"}, {"bike_id": "61f8ced13fe80f3701e68bd307a760d7", "type": "electric_scooter", "is_disabled": 0, "lat": 38.90026016666667, "rental_uris": {"ios": "https://dc.lft.to/lastmile_qr_scan", "android": "https://dc.lft.to/lastmile_qr_scan"}, "is_reserved": 0, "fusion_lon": 0.0, "fusion_lat": 0.0, "lon": -77.01223016666667, "name": "61f8ced13fe80f3701e68bd307a760d7"}, {"bike_id": "a421e22724cd4b1d161c4fe4990d9896", "type": "electric_scooter", "is_disabled": 0, "lat": 38.908159, "rental_uris": {"ios": "https://dc.lft.to/lastmile_qr_scan", "android": "https://dc.lft.to/lastmile_qr_scan"}, "is_reserved": 0, "fusion_lon": 0.0, "fusion_lat": 0.0, "lon": -77.0637165, "name": "a421e22724cd4b1d161c4fe4990d9896"}, {"bike_id": "ae1e9f4a5781416a33b0c7da7b0fe567", "type": "electric_scooter", "is_disabled": 0, "lat": 38.916995166666666, "rental_uris": {"ios": "https://dc.lft.to/lastmile_qr_scan", "android": "https://dc.lft.to/lastmile_qr_scan"}, "is_reserved": 0, "fusion_lon": 0.0, "fusion_lat": 0.0, "lon": -77.03146866666667, "name": "ae1e9f4a5781416a33b0c7da7b0fe567"}, {"bike_id": "b42e599e5777ece132d9c892ca300b4f", "type": "electric_bike", "is_disabled": 0, "lat": 38.936883, "rental_uris": {"ios": "https://dc.lft.to/lastmile_qr_scan", "android": "https://dc.lft.to/lastmile_qr_scan"}, "is_reserved": 0, "fusion_lon": 0.0, "fusion_lat": 0.0, "lon": -77.05639383333333, "name": "b42e599e5777ece132d9c892ca300b4f"}, {"bike_id": "ba910642231e55931d6dffb773d308f6", "type": "electric_scooter", "is_disabled": 0, "lat": 38.91703583333334, "rental_uris": {"ios": "https://dc.lft.to/lastmile_qr_scan", "android": "https://dc.lft.to/lastmile_qr_scan"}, "is_reserved": 0, "fusion_lon": 0.0, "fusion_lat": 0.0, "lon": -77.010126, "name": "ba910642231e55931d6dffb773d308f6"}, {"bike_id": "f3e287edf56d887b123def1086987bbd", "type": "electric_scooter", "is_disabled": 0, "lat": 38.88571133333333, "rental_uris": {"ios": "https://dc.lft.to/lastmile_qr_scan", "android": "https://dc.lft.to/lastmile_qr_scan"}, "is_reserved": 0, "fusion_lon": 0.0, "fusion_lat": 0.0, "lon": -77.01739183333333, "name": "f3e287edf56d887b123def1086987bbd"}, {"bike_id": "020d6a1606fca7a21613f2c364c5e221", "type": "electric_scooter", "is_disabled": 0, "lat": 38.923329833333334, "rental_uris": {"ios": "https://dc.lft.to/lastmile_qr_scan", "android": "https://dc.lft.to/lastmile_qr_scan"}, "is_reserved": 0, "fusion_lon": 0.0, "fusion_lat": 0.0, "lon": -77.03571466666666, "name": "020d6a1606fca7a21613f2c364c5e221"}, {"bike_id": "d5ccf1db26fd3b7a0becbd77beebf454", "type": "electric_scooter", "is_disabled": 0, "lat": 38.908819, "rental_uris": {"ios": "https://dc.lft.to/lastmile_qr_scan", "android": "https://dc.lft.to/lastmile_qr_scan"}, "is_reserved": 0, "fusion_lon": 0.0, "fusion_lat": 0.0, "lon": -77.02231266666666, "name": "d5ccf1db26fd3b7a0becbd77beebf454"}, {"bike_id": "fb91343e64c35b7a86b0cc91dd9a4b69", "type": "electric_scooter", "is_disabled": 0, "lat": 38.919922, "rental_uris": {"ios": "https://dc.lft.to/lastmile_qr_scan", "android": "https://dc.lft.to/lastmile_qr_scan"}, "is_reserved": 0, "fusion_lon": 0.0, "fusion_lat": 0.0, "lon": -77.01784783333333, "name": "fb91343e64c35b7a86b0cc91dd9a4b69"}, {"bike_id": "506e18cee6437a908e3877d270148f97", "type": "electric_scooter", "is_disabled": 0, "lat": 38.899162, "rental_uris": {"ios": "https://dc.lft.to/lastmile_qr_scan", "android": "https://dc.lft.to/lastmile_qr_scan"}, "is_reserved": 0, "fusion_lon": 0.0, "fusion_lat": 0.0, "lon": -76.93363216666667, "name": "506e18cee6437a908e3877d270148f97"}, {"bike_id": "f6d9ece3158dabc12c6b4f2c8e87d2f5", "type": "electric_bike", "is_disabled": 0, "lat": 38.8572275, "rental_uris": {"ios": "https://dc.lft.to/lastmile_qr_scan", "android": "https://dc.lft.to/lastmile_qr_scan"}, "is_reserved": 0, "fusion_lon": 0.0, "fusion_lat": 0.0, "lon": -77.07966383333333, "name": "f6d9ece3158dabc12c6b4f2c8e87d2f5"}, {"bike_id": "58b13ad5540e925ddfee0bbe1f155df2", "type": "electric_scooter", "is_disabled": 0, "lat": 38.91830266666667, "rental_uris": {"ios": "https://dc.lft.to/lastmile_qr_scan", "android": "https://dc.lft.to/lastmile_qr_scan"}, "is_reserved": 0, "fusion_lon": 0.0, "fusion_lat": 0.0, "lon": -77.02447983333333, "name": "58b13ad5540e925ddfee0bbe1f155df2"}, {"bike_id": "d3d3fd41c6fd95ef1814b9eaa92b719e", "type": "electric_scooter", "is_disabled": 0, "lat": 38.9068745, "rental_uris": {"ios": "https://dc.lft.to/lastmile_qr_scan", "android": "https://dc.lft.to/lastmile_qr_scan"}, "is_reserved": 0, "fusion_lon": 0.0, "fusion_lat": 0.0, "lon": -77.035345, "name": "d3d3fd41c6fd95ef1814b9eaa92b719e"}, {"bike_id": "cd5644a575a16bbda333411ef25faf4d", "type": "electric_scooter", "is_disabled": 0, "lat": 38.9421435, "rental_uris": {"ios": "https://dc.lft.to/lastmile_qr_scan", "android": "https://dc.lft.to/lastmile_qr_scan"}, "is_reserved": 0, "fusion_lon": 0.0, "fusion_lat": 0.0, "lon": -77.025829, "name": "cd5644a575a16bbda333411ef25faf4d"}, {"bike_id": "536ec256e7e1c2bb943bdd67a042c5e1", "type": "electric_scooter", "is_disabled": 0, "lat": 38.923474, "rental_uris": {"ios": "https://dc.lft.to/lastmile_qr_scan", "android": "https://dc.lft.to/lastmile_qr_scan"}, "is_reserved": 0, "fusion_lon": 0.0, "fusion_lat": 0.0, "lon": -77.04134066666667, "name": "536ec256e7e1c2bb943bdd67a042c5e1"}, {"bike_id": "0fcf71e956c6897de6cc5fc641fa7e26", "type": "electric_scooter", "is_disabled": 0, "lat": 38.9132925, "rental_uris": {"ios": "https://dc.lft.to/lastmile_qr_scan", "android": "https://dc.lft.to/lastmile_qr_scan"}, "is_reserved": 0, "fusion_lon": 0.0, "fusion_lat": 0.0, "lon": -77.02689116666667, "name": "0fcf71e956c6897de6cc5fc641fa7e26"}, {"bike_id": "5da6369093e1c127ef0c5534992e8b46", "type": "electric_scooter", "is_disabled": 0, "lat": 38.916378, "rental_uris": {"ios": "https://dc.lft.to/lastmile_qr_scan", "android": "https://dc.lft.to/lastmile_qr_scan"}, "is_reserved": 0, "fusion_lon": 0.0, "fusion_lat": 0.0, "lon": -77.03037816666667, "name": "5da6369093e1c127ef0c5534992e8b46"}, {"bike_id": "25e1f7699244e46cb83c58954aefbc92", "type": "electric_scooter", "is_disabled": 0, "lat": 38.924881, "rental_uris": {"ios": "https://dc.lft.to/lastmile_qr_scan", "android": "https://dc.lft.to/lastmile_qr_scan"}, "is_reserved": 0, "fusion_lon": 0.0, "fusion_lat": 0.0, "lon": -77.05748233333334, "name": "25e1f7699244e46cb83c58954aefbc92"}, {"bike_id": "d4990d44177067aa1e2a3fb6b434e34d", "type": "electric_scooter", "is_disabled": 0, "lat": 38.91709, "rental_uris": {"ios": "https://dc.lft.to/lastmile_qr_scan", "android": "https://dc.lft.to/lastmile_qr_scan"}, "is_reserved": 0, "fusion_lon": 0.0, "fusion_lat": 0.0, "lon": -77.02550933333333, "name": "d4990d44177067aa1e2a3fb6b434e34d"}, {"bike_id": "8037db4b8d8c3c16829c0ffcd260803f", "type": "electric_scooter", "is_disabled": 0, "lat": 38.936350833333336, "rental_uris": {"ios": "https://dc.lft.to/lastmile_qr_scan", "android": "https://dc.lft.to/lastmile_qr_scan"}, "is_reserved": 0, "fusion_lon": 0.0, "fusion_lat": 0.0, "lon": -77.05878433333334, "name": "8037db4b8d8c3c16829c0ffcd260803f"}, {"bike_id": "7c31c926a994ed8d485ec8a5fb66921d", "type": "electric_scooter", "is_disabled": 0, "lat": 38.91683416666667, "rental_uris": {"ios": "https://dc.lft.to/lastmile_qr_scan", "android": "https://dc.lft.to/lastmile_qr_scan"}, "is_reserved": 0, "fusion_lon": 0.0, "fusion_lat": 0.0, "lon": -77.0157665, "name": "7c31c926a994ed8d485ec8a5fb66921d"}, {"bike_id": "8cd5a33af531cf20f3dc6a31bcf921d9", "type": "electric_scooter", "is_disabled": 0, "lat": 38.914060166666665, "rental_uris": {"ios": "https://dc.lft.to/lastmile_qr_scan", "android": "https://dc.lft.to/lastmile_qr_scan"}, "is_reserved": 0, "fusion_lon": 0.0, "fusion_lat": 0.0, "lon": -77.03255616666667, "name": "8cd5a33af531cf20f3dc6a31bcf921d9"}, {"bike_id": "05f6aef6f8c4122c894b09c1184215b7", "type": "electric_scooter", "is_disabled": 0, "lat": 38.897498, "rental_uris": {"ios": "https://dc.lft.to/lastmile_qr_scan", "android": "https://dc.lft.to/lastmile_qr_scan"}, "is_reserved": 0, "fusion_lon": 0.0, "fusion_lat": 0.0, "lon": -77.04533366666666, "name": "05f6aef6f8c4122c894b09c1184215b7"}, {"bike_id": "203fb47249640151354fd1a621cba934", "type": "electric_scooter", "is_disabled": 0, "lat": 38.9389155, "rental_uris": {"ios": "https://dc.lft.to/lastmile_qr_scan", "android": "https://dc.lft.to/lastmile_qr_scan"}, "is_reserved": 0, "fusion_lon": 0.0, "fusion_lat": 0.0, "lon": -77.02819933333333, "name": "203fb47249640151354fd1a621cba934"}, {"bike_id": "57193e42b0bc9a329a81de59d3252ebb", "type": "electric_scooter", "is_disabled": 0, "lat": 38.91247883333333, "rental_uris": {"ios": "https://dc.lft.to/lastmile_qr_scan", "android": "https://dc.lft.to/lastmile_qr_scan"}, "is_reserved": 0, "fusion_lon": 0.0, "fusion_lat": 0.0, "lon": -77.03238216666666, "name": "57193e42b0bc9a329a81de59d3252ebb"}, {"bike_id": "ea82b9711b8589c143d609de4d02c993", "type": "electric_scooter", "is_disabled": 0, "lat": 38.9233355, "rental_uris": {"ios": "https://dc.lft.to/lastmile_qr_scan", "android": "https://dc.lft.to/lastmile_qr_scan"}, "is_reserved": 0, "fusion_lon": 0.0, "fusion_lat": 0.0, "lon": -77.02300016666666, "name": "ea82b9711b8589c143d609de4d02c993"}, {"bike_id": "82879c2813420d42f8b028c1a8196442", "type": "electric_scooter", "is_disabled": 0, "lat": 38.9054305, "rental_uris": {"ios": "https://dc.lft.to/lastmile_qr_scan", "android": "https://dc.lft.to/lastmile_qr_scan"}, "is_reserved": 0, "fusion_lon": 0.0, "fusion_lat": 0.0, "lon": -77.04145416666667, "name": "82879c2813420d42f8b028c1a8196442"}, {"bike_id": "580044a1d8ba41820ceae2570636f60b", "type": "electric_scooter", "is_disabled": 0, "lat": 38.920920333333335, "rental_uris": {"ios": "https://dc.lft.to/lastmile_qr_scan", "android": "https://dc.lft.to/lastmile_qr_scan"}, "is_reserved": 0, "fusion_lon": 0.0, "fusion_lat": 0.0, "lon": -77.004394, "name": "580044a1d8ba41820ceae2570636f60b"}, {"bike_id": "5087a90db99f1c7911bf6373f60a5a76", "type": "electric_scooter", "is_disabled": 0, "lat": 38.91565283333333, "rental_uris": {"ios": "https://dc.lft.to/lastmile_qr_scan", "android": "https://dc.lft.to/lastmile_qr_scan"}, "is_reserved": 0, "fusion_lon": 0.0, "fusion_lat": 0.0, "lon": -77.03162766666667, "name": "5087a90db99f1c7911bf6373f60a5a76"}, {"bike_id": "383623a96ea71be940f3cf19f8dea551", "type": "electric_bike", "is_disabled": 0, "lat": 38.9508905, "rental_uris": {"ios": "https://dc.lft.to/lastmile_qr_scan", "android": "https://dc.lft.to/lastmile_qr_scan"}, "is_reserved": 0, "fusion_lon": 0.0, "fusion_lat": 0.0, "lon": -76.997895, "name": "383623a96ea71be940f3cf19f8dea551"}, {"bike_id": "8f4814aabe47b87e8cb450d89e1c12c2", "type": "electric_scooter", "is_disabled": 0, "lat": 38.926279666666666, "rental_uris": {"ios": "https://dc.lft.to/lastmile_qr_scan", "android": "https://dc.lft.to/lastmile_qr_scan"}, "is_reserved": 0, "fusion_lon": 0.0, "fusion_lat": 0.0, "lon": -77.05316566666667, "name": "8f4814aabe47b87e8cb450d89e1c12c2"}, {"bike_id": "0143aa022c2344231794d8200462577f", "type": "electric_scooter", "is_disabled": 0, "lat": 38.91674116666667, "rental_uris": {"ios": "https://dc.lft.to/lastmile_qr_scan", "android": "https://dc.lft.to/lastmile_qr_scan"}, "is_reserved": 0, "fusion_lon": 0.0, "fusion_lat": 0.0, "lon": -77.0239165, "name": "0143aa022c2344231794d8200462577f"}, {"bike_id": "90b6ac9e56b4c93498b58cda4c893c0f", "type": "electric_scooter", "is_disabled": 0, "lat": 38.90963033333333, "rental_uris": {"ios": "https://dc.lft.to/lastmile_qr_scan", "android": "https://dc.lft.to/lastmile_qr_scan"}, "is_reserved": 0, "fusion_lon": 0.0, "fusion_lat": 0.0, "lon": -77.022788, "name": "90b6ac9e56b4c93498b58cda4c893c0f"}, {"bike_id": "2d021d6d603b9cf742627037fcbddeb6", "type": "electric_scooter", "is_disabled": 0, "lat": 38.935423666666665, "rental_uris": {"ios": "https://dc.lft.to/lastmile_qr_scan", "android": "https://dc.lft.to/lastmile_qr_scan"}, "is_reserved": 0, "fusion_lon": 0.0, "fusion_lat": 0.0, "lon": -77.05824333333334, "name": "2d021d6d603b9cf742627037fcbddeb6"}, {"bike_id": "8fc8b873764bbdbb8a34ed84b1046392", "type": "electric_scooter", "is_disabled": 0, "lat": 38.8967005, "rental_uris": {"ios": "https://dc.lft.to/lastmile_qr_scan", "android": "https://dc.lft.to/lastmile_qr_scan"}, "is_reserved": 0, "fusion_lon": 0.0, "fusion_lat": 0.0, "lon": -77.00503916666666, "name": "8fc8b873764bbdbb8a34ed84b1046392"}, {"bike_id": "86b768bb7444efcf7fae481b884bdf0c", "type": "electric_bike", "is_disabled": 0, "lat": 39.0137005, "rental_uris": {"ios": "https://dc.lft.to/lastmile_qr_scan", "android": "https://dc.lft.to/lastmile_qr_scan"}, "is_reserved": 0, "fusion_lon": 0.0, "fusion_lat": 0.0, "lon": -76.92134716666666, "name": "86b768bb7444efcf7fae481b884bdf0c"}, {"bike_id": "9b2818fd9eac659a1da6d5a44fe7b69d", "type": "electric_scooter", "is_disabled": 0, "lat": 38.9082185, "rental_uris": {"ios": "https://dc.lft.to/lastmile_qr_scan", "android": "https://dc.lft.to/lastmile_qr_scan"}, "is_reserved": 0, "fusion_lon": 0.0, "fusion_lat": 0.0, "lon": -77.00400816666667, "name": "9b2818fd9eac659a1da6d5a44fe7b69d"}, {"bike_id": "f6bb88597a88f17eed0b0b61fbbb8500", "type": "electric_scooter", "is_disabled": 0, "lat": 38.8936045, "rental_uris": {"ios": "https://dc.lft.to/lastmile_qr_scan", "android": "https://dc.lft.to/lastmile_qr_scan"}, "is_reserved": 0, "fusion_lon": 0.0, "fusion_lat": 0.0, "lon": -76.94928883333333, "name": "f6bb88597a88f17eed0b0b61fbbb8500"}, {"bike_id": "b3ce8af0f9327bfd8afdafea885a18ed", "type": "electric_scooter", "is_disabled": 0, "lat": 38.903768166666666, "rental_uris": {"ios": "https://dc.lft.to/lastmile_qr_scan", "android": "https://dc.lft.to/lastmile_qr_scan"}, "is_reserved": 0, "fusion_lon": 0.0, "fusion_lat": 0.0, "lon": -77.043336, "name": "b3ce8af0f9327bfd8afdafea885a18ed"}, {"bike_id": "fdecf3a153285ed9ada4ab14e6086d8d", "type": "electric_scooter", "is_disabled": 0, "lat": 38.915786, "rental_uris": {"ios": "https://dc.lft.to/lastmile_qr_scan", "android": "https://dc.lft.to/lastmile_qr_scan"}, "is_reserved": 0, "fusion_lon": 0.0, "fusion_lat": 0.0, "lon": -77.05008866666667, "name": "fdecf3a153285ed9ada4ab14e6086d8d"}, {"bike_id": "7ba53fe948cc560c7f65acd72b77e97c", "type": "electric_scooter", "is_disabled": 0, "lat": 38.927897, "rental_uris": {"ios": "https://dc.lft.to/lastmile_qr_scan", "android": "https://dc.lft.to/lastmile_qr_scan"}, "is_reserved": 0, "fusion_lon": 0.0, "fusion_lat": 0.0, "lon": -77.0318005, "name": "7ba53fe948cc560c7f65acd72b77e97c"}, {"bike_id": "724a50cdc15c07070efbf1c42c0c8594", "type": "electric_scooter", "is_disabled": 0, "lat": 38.87841433333333, "rental_uris": {"ios": "https://dc.lft.to/lastmile_qr_scan", "android": "https://dc.lft.to/lastmile_qr_scan"}, "is_reserved": 0, "fusion_lon": 0.0, "fusion_lat": 0.0, "lon": -76.9861855, "name": "724a50cdc15c07070efbf1c42c0c8594"}, {"bike_id": "0e468ba84cb4beb50c028be9d04f25b4", "type": "electric_scooter", "is_disabled": 0, "lat": 38.902072, "rental_uris": {"ios": "https://dc.lft.to/lastmile_qr_scan", "android": "https://dc.lft.to/lastmile_qr_scan"}, "is_reserved": 0, "fusion_lon": 0.0, "fusion_lat": 0.0, "lon": -77.06116466666667, "name": "0e468ba84cb4beb50c028be9d04f25b4"}, {"bike_id": "e9e01f27e3aa747b27a9f61e05419c5b", "type": "electric_bike", "is_disabled": 0, "lat": 38.821780333333336, "rental_uris": {"ios": "https://dc.lft.to/lastmile_qr_scan", "android": "https://dc.lft.to/lastmile_qr_scan"}, "is_reserved": 0, "fusion_lon": 0.0, "fusion_lat": 0.0, "lon": -76.9950935, "name": "e9e01f27e3aa747b27a9f61e05419c5b"}, {"bike_id": "bf080fa797cd58bf810b29f69e9d55ab", "type": "electric_scooter", "is_disabled": 0, "lat": 38.903662833333335, "rental_uris": {"ios": "https://dc.lft.to/lastmile_qr_scan", "android": "https://dc.lft.to/lastmile_qr_scan"}, "is_reserved": 0, "fusion_lon": 0.0, "fusion_lat": 0.0, "lon": -76.9994625, "name": "bf080fa797cd58bf810b29f69e9d55ab"}, {"bike_id": "e1d53085c5ac4e80fa1992024667ed78", "type": "electric_scooter", "is_disabled": 0, "lat": 38.846401, "rental_uris": {"ios": "https://dc.lft.to/lastmile_qr_scan", "android": "https://dc.lft.to/lastmile_qr_scan"}, "is_reserved": 0, "fusion_lon": 0.0, "fusion_lat": 0.0, "lon": -76.991231, "name": "e1d53085c5ac4e80fa1992024667ed78"}, {"bike_id": "6889f80813cc3b6be694c30515c315f8", "type": "electric_scooter", "is_disabled": 0, "lat": 38.90416783333333, "rental_uris": {"ios": "https://dc.lft.to/lastmile_qr_scan", "android": "https://dc.lft.to/lastmile_qr_scan"}, "is_reserved": 0, "fusion_lon": 0.0, "fusion_lat": 0.0, "lon": -77.04865633333333, "name": "6889f80813cc3b6be694c30515c315f8"}, {"bike_id": "9ce4d082786324fd3af925393ab8f036", "type": "electric_scooter", "is_disabled": 0, "lat": 38.889282333333334, "rental_uris": {"ios": "https://dc.lft.to/lastmile_qr_scan", "android": "https://dc.lft.to/lastmile_qr_scan"}, "is_reserved": 0, "fusion_lon": 0.0, "fusion_lat": 0.0, "lon": -76.93573216666667, "name": "9ce4d082786324fd3af925393ab8f036"}, {"bike_id": "578086ffb36e853fe75c44b828741872", "type": "electric_scooter", "is_disabled": 0, "lat": 38.93287816666667, "rental_uris": {"ios": "https://dc.lft.to/lastmile_qr_scan", "android": "https://dc.lft.to/lastmile_qr_scan"}, "is_reserved": 0, "fusion_lon": 0.0, "fusion_lat": 0.0, "lon": -77.035417, "name": "578086ffb36e853fe75c44b828741872"}, {"bike_id": "213517ea9022f7f26bfcc7653816ac86", "type": "electric_bike", "is_disabled": 0, "lat": 39.043186, "rental_uris": {"ios": "https://dc.lft.to/lastmile_qr_scan", "android": "https://dc.lft.to/lastmile_qr_scan"}, "is_reserved": 0, "fusion_lon": 0.0, "fusion_lat": 0.0, "lon": -77.051561, "name": "213517ea9022f7f26bfcc7653816ac86"}, {"bike_id": "78fd7cedf52aa6c6762ab841950d3729", "type": "electric_scooter", "is_disabled": 0, "lat": 38.888579, "rental_uris": {"ios": "https://dc.lft.to/lastmile_qr_scan", "android": "https://dc.lft.to/lastmile_qr_scan"}, "is_reserved": 0, "fusion_lon": 0.0, "fusion_lat": 0.0, "lon": -77.0004775, "name": "78fd7cedf52aa6c6762ab841950d3729"}, {"bike_id": "1b716101a6b4e7cc816ec4de717f467a", "type": "electric_scooter", "is_disabled": 0, "lat": 38.88032833333333, "rental_uris": {"ios": "https://dc.lft.to/lastmile_qr_scan", "android": "https://dc.lft.to/lastmile_qr_scan"}, "is_reserved": 0, "fusion_lon": 0.0, "fusion_lat": 0.0, "lon": -77.005416, "name": "1b716101a6b4e7cc816ec4de717f467a"}, {"bike_id": "c4d2e914765ab25478c5c997c34f64f2", "type": "electric_scooter", "is_disabled": 0, "lat": 38.918242666666664, "rental_uris": {"ios": "https://dc.lft.to/lastmile_qr_scan", "android": "https://dc.lft.to/lastmile_qr_scan"}, "is_reserved": 0, "fusion_lon": 0.0, "fusion_lat": 0.0, "lon": -77.0250615, "name": "c4d2e914765ab25478c5c997c34f64f2"}, {"bike_id": "7fa1eb26164b393804cde51251ee3afe", "type": "electric_scooter", "is_disabled": 0, "lat": 38.92035683333334, "rental_uris": {"ios": "https://dc.lft.to/lastmile_qr_scan", "android": "https://dc.lft.to/lastmile_qr_scan"}, "is_reserved": 0, "fusion_lon": 0.0, "fusion_lat": 0.0, "lon": -77.0242415, "name": "7fa1eb26164b393804cde51251ee3afe"}, {"bike_id": "57d6a13585e7cedb9f5064205481d44b", "type": "electric_scooter", "is_disabled": 0, "lat": 38.93512916666667, "rental_uris": {"ios": "https://dc.lft.to/lastmile_qr_scan", "android": "https://dc.lft.to/lastmile_qr_scan"}, "is_reserved": 0, "fusion_lon": 0.0, "fusion_lat": 0.0, "lon": -77.03668933333333, "name": "57d6a13585e7cedb9f5064205481d44b"}, {"bike_id": "c2d05f5bcb931436faaf610caa37c626", "type": "electric_scooter", "is_disabled": 0, "lat": 38.8716015, "rental_uris": {"ios": "https://dc.lft.to/lastmile_qr_scan", "android": "https://dc.lft.to/lastmile_qr_scan"}, "is_reserved": 0, "fusion_lon": 0.0, "fusion_lat": 0.0, "lon": -77.0135065, "name": "c2d05f5bcb931436faaf610caa37c626"}, {"bike_id": "7b6073aebc2fd165e24e34afc9494216", "type": "electric_scooter", "is_disabled": 0, "lat": 38.920282666666665, "rental_uris": {"ios": "https://dc.lft.to/lastmile_qr_scan", "android": "https://dc.lft.to/lastmile_qr_scan"}, "is_reserved": 0, "fusion_lon": 0.0, "fusion_lat": 0.0, "lon": -77.0409335, "name": "7b6073aebc2fd165e24e34afc9494216"}, {"bike_id": "c3454650a911b6e6c13640a2dbb155ee", "type": "electric_scooter", "is_disabled": 0, "lat": 38.92666583333333, "rental_uris": {"ios": "https://dc.lft.to/lastmile_qr_scan", "android": "https://dc.lft.to/lastmile_qr_scan"}, "is_reserved": 0, "fusion_lon": 0.0, "fusion_lat": 0.0, "lon": -77.03027483333334, "name": "c3454650a911b6e6c13640a2dbb155ee"}, {"bike_id": "72b06fda4e97b4d389069d346fab3a6b", "type": "electric_scooter", "is_disabled": 0, "lat": 38.92120233333333, "rental_uris": {"ios": "https://dc.lft.to/lastmile_qr_scan", "android": "https://dc.lft.to/lastmile_qr_scan"}, "is_reserved": 0, "fusion_lon": 0.0, "fusion_lat": 0.0, "lon": -77.01204816666667, "name": "72b06fda4e97b4d389069d346fab3a6b"}, {"bike_id": "d193cc6f886144ccfe10763e1f3ff6a1", "type": "electric_scooter", "is_disabled": 0, "lat": 38.91108233333333, "rental_uris": {"ios": "https://dc.lft.to/lastmile_qr_scan", "android": "https://dc.lft.to/lastmile_qr_scan"}, "is_reserved": 0, "fusion_lon": 0.0, "fusion_lat": 0.0, "lon": -77.0325335, "name": "d193cc6f886144ccfe10763e1f3ff6a1"}, {"bike_id": "89c314c807aef2bbf8ddb0ac547c1c54", "type": "electric_scooter", "is_disabled": 0, "lat": 38.9399445, "rental_uris": {"ios": "https://dc.lft.to/lastmile_qr_scan", "android": "https://dc.lft.to/lastmile_qr_scan"}, "is_reserved": 0, "fusion_lon": 0.0, "fusion_lat": 0.0, "lon": -77.01688633333333, "name": "89c314c807aef2bbf8ddb0ac547c1c54"}, {"bike_id": "8d2187859651d92eed86fdd71e2deec5", "type": "electric_scooter", "is_disabled": 0, "lat": 38.920029666666665, "rental_uris": {"ios": "https://dc.lft.to/lastmile_qr_scan", "android": "https://dc.lft.to/lastmile_qr_scan"}, "is_reserved": 0, "fusion_lon": 0.0, "fusion_lat": 0.0, "lon": -77.04168716666666, "name": "8d2187859651d92eed86fdd71e2deec5"}, {"bike_id": "f19c32fc87cddc71170e1a3caf5ad144", "type": "electric_scooter", "is_disabled": 0, "lat": 38.91031016666667, "rental_uris": {"ios": "https://dc.lft.to/lastmile_qr_scan", "android": "https://dc.lft.to/lastmile_qr_scan"}, "is_reserved": 0, "fusion_lon": 0.0, "fusion_lat": 0.0, "lon": -77.04247483333333, "name": "f19c32fc87cddc71170e1a3caf5ad144"}, {"bike_id": "b22415fe6fd4db4a2a99bb15953445e7", "type": "electric_bike", "is_disabled": 0, "lat": 38.83241566666667, "rental_uris": {"ios": "https://dc.lft.to/lastmile_qr_scan", "android": "https://dc.lft.to/lastmile_qr_scan"}, "is_reserved": 0, "fusion_lon": 0.0, "fusion_lat": 0.0, "lon": -76.9463085, "name": "b22415fe6fd4db4a2a99bb15953445e7"}, {"bike_id": "645f72111116517efbb183071de7c4a2", "type": "electric_scooter", "is_disabled": 0, "lat": 38.90572266666667, "rental_uris": {"ios": "https://dc.lft.to/lastmile_qr_scan", "android": "https://dc.lft.to/lastmile_qr_scan"}, "is_reserved": 0, "fusion_lon": 0.0, "fusion_lat": 0.0, "lon": -76.97783333333334, "name": "645f72111116517efbb183071de7c4a2"}, {"bike_id": "3ca72624fa71f5651748c8bbbbc6ca9e", "type": "electric_scooter", "is_disabled": 0, "lat": 38.9040995, "rental_uris": {"ios": "https://dc.lft.to/lastmile_qr_scan", "android": "https://dc.lft.to/lastmile_qr_scan"}, "is_reserved": 0, "fusion_lon": 0.0, "fusion_lat": 0.0, "lon": -76.97331583333333, "name": "3ca72624fa71f5651748c8bbbbc6ca9e"}, {"bike_id": "4ea93a6761739ee1ff90182370ec8bea", "type": "electric_scooter", "is_disabled": 0, "lat": 38.895742, "rental_uris": {"ios": "https://dc.lft.to/lastmile_qr_scan", "android": "https://dc.lft.to/lastmile_qr_scan"}, "is_reserved": 0, "fusion_lon": 0.0, "fusion_lat": 0.0, "lon": -76.930299, "name": "4ea93a6761739ee1ff90182370ec8bea"}, {"bike_id": "061fec318d5f6b79af902d8a7c1321a1", "type": "electric_scooter", "is_disabled": 0, "lat": 38.916000333333336, "rental_uris": {"ios": "https://dc.lft.to/lastmile_qr_scan", "android": "https://dc.lft.to/lastmile_qr_scan"}, "is_reserved": 0, "fusion_lon": 0.0, "fusion_lat": 0.0, "lon": -77.0239935, "name": "061fec318d5f6b79af902d8a7c1321a1"}, {"bike_id": "6ef2a14bf3c95dc31849ccda4a9764b2", "type": "electric_scooter", "is_disabled": 0, "lat": 38.936220166666665, "rental_uris": {"ios": "https://dc.lft.to/lastmile_qr_scan", "android": "https://dc.lft.to/lastmile_qr_scan"}, "is_reserved": 0, "fusion_lon": 0.0, "fusion_lat": 0.0, "lon": -77.036556, "name": "6ef2a14bf3c95dc31849ccda4a9764b2"}, {"bike_id": "54213c685ae1b956bdafa21cb06e9691", "type": "electric_scooter", "is_disabled": 0, "lat": 38.911984333333336, "rental_uris": {"ios": "https://dc.lft.to/lastmile_qr_scan", "android": "https://dc.lft.to/lastmile_qr_scan"}, "is_reserved": 0, "fusion_lon": 0.0, "fusion_lat": 0.0, "lon": -77.00195366666667, "name": "54213c685ae1b956bdafa21cb06e9691"}, {"bike_id": "460c1badec86b956101f8be3b742be9a", "type": "electric_bike", "is_disabled": 0, "lat": 39.0505435, "rental_uris": {"ios": "https://dc.lft.to/lastmile_qr_scan", "android": "https://dc.lft.to/lastmile_qr_scan"}, "is_reserved": 0, "fusion_lon": 0.0, "fusion_lat": 0.0, "lon": -77.05146883333333, "name": "460c1badec86b956101f8be3b742be9a"}, {"bike_id": "137b296baacffa49cf76243dc245ed1a", "type": "electric_scooter", "is_disabled": 0, "lat": 38.90635433333333, "rental_uris": {"ios": "https://dc.lft.to/lastmile_qr_scan", "android": "https://dc.lft.to/lastmile_qr_scan"}, "is_reserved": 0, "fusion_lon": 0.0, "fusion_lat": 0.0, "lon": -77.04160216666666, "name": "137b296baacffa49cf76243dc245ed1a"}, {"bike_id": "3e82a067ff7e32795d3d53a9fc45c2cf", "type": "electric_scooter", "is_disabled": 0, "lat": 38.93085083333333, "rental_uris": {"ios": "https://dc.lft.to/lastmile_qr_scan", "android": "https://dc.lft.to/lastmile_qr_scan"}, "is_reserved": 0, "fusion_lon": 0.0, "fusion_lat": 0.0, "lon": -77.03654483333334, "name": "3e82a067ff7e32795d3d53a9fc45c2cf"}, {"bike_id": "36a3ed0e14d9cfb11116b03ced1d8fdc", "type": "electric_bike", "is_disabled": 0, "lat": 38.899665, "rental_uris": {"ios": "https://dc.lft.to/lastmile_qr_scan", "android": "https://dc.lft.to/lastmile_qr_scan"}, "is_reserved": 0, "fusion_lon": 0.0, "fusion_lat": 0.0, "lon": -76.986861, "name": "36a3ed0e14d9cfb11116b03ced1d8fdc"}, {"bike_id": "ab10112653e1fd1a5a10a0e8ac2c4406", "type": "electric_bike", "is_disabled": 0, "lat": 38.811680333333335, "rental_uris": {"ios": "https://dc.lft.to/lastmile_qr_scan", "android": "https://dc.lft.to/lastmile_qr_scan"}, "is_reserved": 0, "fusion_lon": 0.0, "fusion_lat": 0.0, "lon": -77.0696625, "name": "ab10112653e1fd1a5a10a0e8ac2c4406"}, {"bike_id": "d15c18ecdca0e9395e0d7455c6d90e29", "type": "electric_bike", "is_disabled": 0, "lat": 38.8876875, "rental_uris": {"ios": "https://dc.lft.to/lastmile_qr_scan", "android": "https://dc.lft.to/lastmile_qr_scan"}, "is_reserved": 0, "fusion_lon": 0.0, "fusion_lat": 0.0, "lon": -77.09586466666667, "name": "d15c18ecdca0e9395e0d7455c6d90e29"}, {"bike_id": "ddee0e0a3611e17a433854d56c2a3671", "type": "electric_scooter", "is_disabled": 0, "lat": 38.9057085, "rental_uris": {"ios": "https://dc.lft.to/lastmile_qr_scan", "android": "https://dc.lft.to/lastmile_qr_scan"}, "is_reserved": 0, "fusion_lon": 0.0, "fusion_lat": 0.0, "lon": -77.00563766666667, "name": "ddee0e0a3611e17a433854d56c2a3671"}, {"bike_id": "0d49cb0ea5638434b17830475c029f71", "type": "electric_scooter", "is_disabled": 0, "lat": 38.92283966666667, "rental_uris": {"ios": "https://dc.lft.to/lastmile_qr_scan", "android": "https://dc.lft.to/lastmile_qr_scan"}, "is_reserved": 0, "fusion_lon": 0.0, "fusion_lat": 0.0, "lon": -76.994616, "name": "0d49cb0ea5638434b17830475c029f71"}, {"bike_id": "1ca0c304a101957236d2da39bf2cb70d", "type": "electric_scooter", "is_disabled": 0, "lat": 38.92248283333333, "rental_uris": {"ios": "https://dc.lft.to/lastmile_qr_scan", "android": "https://dc.lft.to/lastmile_qr_scan"}, "is_reserved": 0, "fusion_lon": 0.0, "fusion_lat": 0.0, "lon": -77.03901683333333, "name": "1ca0c304a101957236d2da39bf2cb70d"}, {"bike_id": "43e62bf95cfd20a6d9af7f6df024aae6", "type": "electric_bike", "is_disabled": 0, "lat": 38.80413983333333, "rental_uris": {"ios": "https://dc.lft.to/lastmile_qr_scan", "android": "https://dc.lft.to/lastmile_qr_scan"}, "is_reserved": 0, "fusion_lon": 0.0, "fusion_lat": 0.0, "lon": -77.05553716666667, "name": "43e62bf95cfd20a6d9af7f6df024aae6"}, {"bike_id": "8c5185e3c87bd90b52ad044958fbf1d9", "type": "electric_scooter", "is_disabled": 0, "lat": 38.92230966666666, "rental_uris": {"ios": "https://dc.lft.to/lastmile_qr_scan", "android": "https://dc.lft.to/lastmile_qr_scan"}, "is_reserved": 0, "fusion_lon": 0.0, "fusion_lat": 0.0, "lon": -76.97339966666667, "name": "8c5185e3c87bd90b52ad044958fbf1d9"}, {"bike_id": "60fc7e08260f92f4c2e3aeb887ec454a", "type": "electric_scooter", "is_disabled": 0, "lat": 38.90553416666667, "rental_uris": {"ios": "https://dc.lft.to/lastmile_qr_scan", "android": "https://dc.lft.to/lastmile_qr_scan"}, "is_reserved": 0, "fusion_lon": 0.0, "fusion_lat": 0.0, "lon": -76.996172, "name": "60fc7e08260f92f4c2e3aeb887ec454a"}, {"bike_id": "bb4f2b53d336bde46e852d691315b475", "type": "electric_scooter", "is_disabled": 0, "lat": 38.9181595, "rental_uris": {"ios": "https://dc.lft.to/lastmile_qr_scan", "android": "https://dc.lft.to/lastmile_qr_scan"}, "is_reserved": 0, "fusion_lon": 0.0, "fusion_lat": 0.0, "lon": -77.0246925, "name": "bb4f2b53d336bde46e852d691315b475"}, {"bike_id": "a176718eef92c714417b30053bca997c", "type": "electric_scooter", "is_disabled": 0, "lat": 38.9247915, "rental_uris": {"ios": "https://dc.lft.to/lastmile_qr_scan", "android": "https://dc.lft.to/lastmile_qr_scan"}, "is_reserved": 0, "fusion_lon": 0.0, "fusion_lat": 0.0, "lon": -77.0520825, "name": "a176718eef92c714417b30053bca997c"}, {"bike_id": "43d54b25d875fd072cb4a4407f2ce90e", "type": "electric_scooter", "is_disabled": 0, "lat": 38.92651383333333, "rental_uris": {"ios": "https://dc.lft.to/lastmile_qr_scan", "android": "https://dc.lft.to/lastmile_qr_scan"}, "is_reserved": 0, "fusion_lon": 0.0, "fusion_lat": 0.0, "lon": -77.02449416666667, "name": "43d54b25d875fd072cb4a4407f2ce90e"}, {"bike_id": "fe1f1be2c29129952dabb32b3a9a010d", "type": "electric_scooter", "is_disabled": 0, "lat": 38.91971366666667, "rental_uris": {"ios": "https://dc.lft.to/lastmile_qr_scan", "android": "https://dc.lft.to/lastmile_qr_scan"}, "is_reserved": 0, "fusion_lon": 0.0, "fusion_lat": 0.0, "lon": -77.0421795, "name": "fe1f1be2c29129952dabb32b3a9a010d"}, {"bike_id": "494eea28652296e6ebb28eaf018afc94", "type": "electric_scooter", "is_disabled": 0, "lat": 38.884229500000004, "rental_uris": {"ios": "https://dc.lft.to/lastmile_qr_scan", "android": "https://dc.lft.to/lastmile_qr_scan"}, "is_reserved": 0, "fusion_lon": 0.0, "fusion_lat": 0.0, "lon": -76.95743816666666, "name": "494eea28652296e6ebb28eaf018afc94"}, {"bike_id": "04dfc0b6c3dbd64724ae6365f10df93b", "type": "electric_scooter", "is_disabled": 0, "lat": 38.909543666666664, "rental_uris": {"ios": "https://dc.lft.to/lastmile_qr_scan", "android": "https://dc.lft.to/lastmile_qr_scan"}, "is_reserved": 0, "fusion_lon": 0.0, "fusion_lat": 0.0, "lon": -77.02710266666666, "name": "04dfc0b6c3dbd64724ae6365f10df93b"}, {"bike_id": "4d082a155455e9e5d4d223ee02292bb4", "type": "electric_scooter", "is_disabled": 0, "lat": 38.902136166666665, "rental_uris": {"ios": "https://dc.lft.to/lastmile_qr_scan", "android": "https://dc.lft.to/lastmile_qr_scan"}, "is_reserved": 0, "fusion_lon": 0.0, "fusion_lat": 0.0, "lon": -77.05109516666667, "name": "4d082a155455e9e5d4d223ee02292bb4"}, {"bike_id": "0f9a50d289059336f11bc7ef1cf85689", "type": "electric_scooter", "is_disabled": 0, "lat": 38.91273733333333, "rental_uris": {"ios": "https://dc.lft.to/lastmile_qr_scan", "android": "https://dc.lft.to/lastmile_qr_scan"}, "is_reserved": 0, "fusion_lon": 0.0, "fusion_lat": 0.0, "lon": -77.02297833333333, "name": "0f9a50d289059336f11bc7ef1cf85689"}, {"bike_id": "804badb02946b59257718228a449fc41", "type": "electric_scooter", "is_disabled": 0, "lat": 38.8984265, "rental_uris": {"ios": "https://dc.lft.to/lastmile_qr_scan", "android": "https://dc.lft.to/lastmile_qr_scan"}, "is_reserved": 0, "fusion_lon": 0.0, "fusion_lat": 0.0, "lon": -76.94629383333333, "name": "804badb02946b59257718228a449fc41"}, {"bike_id": "782c061cdcc820b26f64686239221ba5", "type": "electric_scooter", "is_disabled": 0, "lat": 38.919283166666666, "rental_uris": {"ios": "https://dc.lft.to/lastmile_qr_scan", "android": "https://dc.lft.to/lastmile_qr_scan"}, "is_reserved": 0, "fusion_lon": 0.0, "fusion_lat": 0.0, "lon": -77.04498266666667, "name": "782c061cdcc820b26f64686239221ba5"}, {"bike_id": "b4e154f23b4ae21a9ecfa9baccffd536", "type": "electric_scooter", "is_disabled": 0, "lat": 38.91032833333333, "rental_uris": {"ios": "https://dc.lft.to/lastmile_qr_scan", "android": "https://dc.lft.to/lastmile_qr_scan"}, "is_reserved": 0, "fusion_lon": 0.0, "fusion_lat": 0.0, "lon": -77.03343533333333, "name": "b4e154f23b4ae21a9ecfa9baccffd536"}, {"bike_id": "6808349131c0710caecf19b09ffd3238", "type": "electric_scooter", "is_disabled": 0, "lat": 38.89485033333333, "rental_uris": {"ios": "https://dc.lft.to/lastmile_qr_scan", "android": "https://dc.lft.to/lastmile_qr_scan"}, "is_reserved": 0, "fusion_lon": 0.0, "fusion_lat": 0.0, "lon": -77.00291916666667, "name": "6808349131c0710caecf19b09ffd3238"}, {"bike_id": "a1b5df1b1152daed465701531610a54c", "type": "electric_scooter", "is_disabled": 0, "lat": 38.902722, "rental_uris": {"ios": "https://dc.lft.to/lastmile_qr_scan", "android": "https://dc.lft.to/lastmile_qr_scan"}, "is_reserved": 0, "fusion_lon": 0.0, "fusion_lat": 0.0, "lon": -77.0547565, "name": "a1b5df1b1152daed465701531610a54c"}, {"bike_id": "dabb3475e95102f1c12c47abc999cbc7", "type": "electric_scooter", "is_disabled": 0, "lat": 38.923462666666666, "rental_uris": {"ios": "https://dc.lft.to/lastmile_qr_scan", "android": "https://dc.lft.to/lastmile_qr_scan"}, "is_reserved": 0, "fusion_lon": 0.0, "fusion_lat": 0.0, "lon": -77.03347816666667, "name": "dabb3475e95102f1c12c47abc999cbc7"}, {"bike_id": "ca04ef18cd0e67ef3641648a125d97dd", "type": "electric_scooter", "is_disabled": 0, "lat": 38.90851966666666, "rental_uris": {"ios": "https://dc.lft.to/lastmile_qr_scan", "android": "https://dc.lft.to/lastmile_qr_scan"}, "is_reserved": 0, "fusion_lon": 0.0, "fusion_lat": 0.0, "lon": -77.02358066666666, "name": "ca04ef18cd0e67ef3641648a125d97dd"}, {"bike_id": "162b52b8fe8ae024b886bdade97af3aa", "type": "electric_scooter", "is_disabled": 0, "lat": 38.91481983333333, "rental_uris": {"ios": "https://dc.lft.to/lastmile_qr_scan", "android": "https://dc.lft.to/lastmile_qr_scan"}, "is_reserved": 0, "fusion_lon": 0.0, "fusion_lat": 0.0, "lon": -77.02180016666667, "name": "162b52b8fe8ae024b886bdade97af3aa"}, {"bike_id": "68e807bdec9851a7f82ca245bb4288ea", "type": "electric_scooter", "is_disabled": 0, "lat": 38.91574883333333, "rental_uris": {"ios": "https://dc.lft.to/lastmile_qr_scan", "android": "https://dc.lft.to/lastmile_qr_scan"}, "is_reserved": 0, "fusion_lon": 0.0, "fusion_lat": 0.0, "lon": -77.03181266666667, "name": "68e807bdec9851a7f82ca245bb4288ea"}, {"bike_id": "e7f6e9abf441b8593285cb1b27de6161", "type": "electric_scooter", "is_disabled": 0, "lat": 38.89479, "rental_uris": {"ios": "https://dc.lft.to/lastmile_qr_scan", "android": "https://dc.lft.to/lastmile_qr_scan"}, "is_reserved": 0, "fusion_lon": 0.0, "fusion_lat": 0.0, "lon": -76.94858616666667, "name": "e7f6e9abf441b8593285cb1b27de6161"}, {"bike_id": "de66884fe70070156756626127b432ca", "type": "electric_scooter", "is_disabled": 0, "lat": 38.90726683333333, "rental_uris": {"ios": "https://dc.lft.to/lastmile_qr_scan", "android": "https://dc.lft.to/lastmile_qr_scan"}, "is_reserved": 0, "fusion_lon": 0.0, "fusion_lat": 0.0, "lon": -77.00926883333334, "name": "de66884fe70070156756626127b432ca"}, {"bike_id": "a4e5f8926d42a6845ee2b285e224b2d6", "type": "electric_bike", "is_disabled": 0, "lat": 38.8755905, "rental_uris": {"ios": "https://dc.lft.to/lastmile_qr_scan", "android": "https://dc.lft.to/lastmile_qr_scan"}, "is_reserved": 0, "fusion_lon": 0.0, "fusion_lat": 0.0, "lon": -76.96501666666667, "name": "a4e5f8926d42a6845ee2b285e224b2d6"}, {"bike_id": "fbd6b846b05f35a9aae844e3e610a756", "type": "electric_scooter", "is_disabled": 0, "lat": 38.866582, "rental_uris": {"ios": "https://dc.lft.to/lastmile_qr_scan", "android": "https://dc.lft.to/lastmile_qr_scan"}, "is_reserved": 0, "fusion_lon": 0.0, "fusion_lat": 0.0, "lon": -76.98886283333333, "name": "fbd6b846b05f35a9aae844e3e610a756"}, {"bike_id": "4e4711116ccd3f4c5b6f079f6ad141c1", "type": "electric_scooter", "is_disabled": 0, "lat": 38.9037675, "rental_uris": {"ios": "https://dc.lft.to/lastmile_qr_scan", "android": "https://dc.lft.to/lastmile_qr_scan"}, "is_reserved": 0, "fusion_lon": 0.0, "fusion_lat": 0.0, "lon": -77.03823766666666, "name": "4e4711116ccd3f4c5b6f079f6ad141c1"}, {"bike_id": "10664bf93b4768453c6e98de1c87945b", "type": "electric_scooter", "is_disabled": 0, "lat": 38.91228383333333, "rental_uris": {"ios": "https://dc.lft.to/lastmile_qr_scan", "android": "https://dc.lft.to/lastmile_qr_scan"}, "is_reserved": 0, "fusion_lon": 0.0, "fusion_lat": 0.0, "lon": -76.98792116666667, "name": "10664bf93b4768453c6e98de1c87945b"}, {"bike_id": "e284f8ec440d1189a79ca1ef0d09125a", "type": "electric_scooter", "is_disabled": 0, "lat": 38.897287666666664, "rental_uris": {"ios": "https://dc.lft.to/lastmile_qr_scan", "android": "https://dc.lft.to/lastmile_qr_scan"}, "is_reserved": 0, "fusion_lon": 0.0, "fusion_lat": 0.0, "lon": -77.054679, "name": "e284f8ec440d1189a79ca1ef0d09125a"}, {"bike_id": "3bad670658e343f15a1565b03a63a7ce", "type": "electric_scooter", "is_disabled": 0, "lat": 38.90246833333333, "rental_uris": {"ios": "https://dc.lft.to/lastmile_qr_scan", "android": "https://dc.lft.to/lastmile_qr_scan"}, "is_reserved": 0, "fusion_lon": 0.0, "fusion_lat": 0.0, "lon": -77.01910916666667, "name": "3bad670658e343f15a1565b03a63a7ce"}, {"bike_id": "ca45af7bfa027194cfded32a865233a9", "type": "electric_scooter", "is_disabled": 0, "lat": 38.9042005, "rental_uris": {"ios": "https://dc.lft.to/lastmile_qr_scan", "android": "https://dc.lft.to/lastmile_qr_scan"}, "is_reserved": 0, "fusion_lon": 0.0, "fusion_lat": 0.0, "lon": -77.068592, "name": "ca45af7bfa027194cfded32a865233a9"}, {"bike_id": "ea13ebfbde5233e02a18b6ebac5e83f4", "type": "electric_scooter", "is_disabled": 0, "lat": 38.94139366666667, "rental_uris": {"ios": "https://dc.lft.to/lastmile_qr_scan", "android": "https://dc.lft.to/lastmile_qr_scan"}, "is_reserved": 0, "fusion_lon": 0.0, "fusion_lat": 0.0, "lon": -77.09262683333333, "name": "ea13ebfbde5233e02a18b6ebac5e83f4"}, {"bike_id": "107b17642ac825578cedfbaa222e38a1", "type": "electric_scooter", "is_disabled": 0, "lat": 38.910028, "rental_uris": {"ios": "https://dc.lft.to/lastmile_qr_scan", "android": "https://dc.lft.to/lastmile_qr_scan"}, "is_reserved": 0, "fusion_lon": 0.0, "fusion_lat": 0.0, "lon": -77.0400415, "name": "107b17642ac825578cedfbaa222e38a1"}, {"bike_id": "833630ed786a6a64447913f3d6f38bbb", "type": "electric_bike", "is_disabled": 0, "lat": 38.849667833333335, "rental_uris": {"ios": "https://dc.lft.to/lastmile_qr_scan", "android": "https://dc.lft.to/lastmile_qr_scan"}, "is_reserved": 0, "fusion_lon": 0.0, "fusion_lat": 0.0, "lon": -77.07748833333333, "name": "833630ed786a6a64447913f3d6f38bbb"}, {"bike_id": "3012b0cbca1d09939c67cfb5a8d19905", "type": "electric_bike", "is_disabled": 0, "lat": 38.944677, "rental_uris": {"ios": "https://dc.lft.to/lastmile_qr_scan", "android": "https://dc.lft.to/lastmile_qr_scan"}, "is_reserved": 0, "fusion_lon": 0.0, "fusion_lat": 0.0, "lon": -76.98689, "name": "3012b0cbca1d09939c67cfb5a8d19905"}, {"bike_id": "17089a9744996e8bdd4aca8af3075d70", "type": "electric_scooter", "is_disabled": 0, "lat": 38.926685666666664, "rental_uris": {"ios": "https://dc.lft.to/lastmile_qr_scan", "android": "https://dc.lft.to/lastmile_qr_scan"}, "is_reserved": 0, "fusion_lon": 0.0, "fusion_lat": 0.0, "lon": -77.03190633333334, "name": "17089a9744996e8bdd4aca8af3075d70"}, {"bike_id": "a7d40349c1eebde94d3a0f3e7d7a0172", "type": "electric_scooter", "is_disabled": 0, "lat": 38.91706283333333, "rental_uris": {"ios": "https://dc.lft.to/lastmile_qr_scan", "android": "https://dc.lft.to/lastmile_qr_scan"}, "is_reserved": 0, "fusion_lon": 0.0, "fusion_lat": 0.0, "lon": -77.0242225, "name": "a7d40349c1eebde94d3a0f3e7d7a0172"}, {"bike_id": "c2754588df32b96046bc441b26da0cf8", "type": "electric_scooter", "is_disabled": 0, "lat": 38.89863533333333, "rental_uris": {"ios": "https://dc.lft.to/lastmile_qr_scan", "android": "https://dc.lft.to/lastmile_qr_scan"}, "is_reserved": 0, "fusion_lon": 0.0, "fusion_lat": 0.0, "lon": -77.0408, "name": "c2754588df32b96046bc441b26da0cf8"}, {"bike_id": "e460070dc57494966e2f9ba8f613f62c", "type": "electric_scooter", "is_disabled": 0, "lat": 38.93216366666667, "rental_uris": {"ios": "https://dc.lft.to/lastmile_qr_scan", "android": "https://dc.lft.to/lastmile_qr_scan"}, "is_reserved": 0, "fusion_lon": 0.0, "fusion_lat": 0.0, "lon": -77.03506966666667, "name": "e460070dc57494966e2f9ba8f613f62c"}, {"bike_id": "eff949f5fce714da59d87b7e67adf1c8", "type": "electric_scooter", "is_disabled": 0, "lat": 38.90725066666667, "rental_uris": {"ios": "https://dc.lft.to/lastmile_qr_scan", "android": "https://dc.lft.to/lastmile_qr_scan"}, "is_reserved": 0, "fusion_lon": 0.0, "fusion_lat": 0.0, "lon": -77.02889033333334, "name": "eff949f5fce714da59d87b7e67adf1c8"}, {"bike_id": "18606d0572ccfefafa0e0bc6a29af809", "type": "electric_scooter", "is_disabled": 0, "lat": 38.9162025, "rental_uris": {"ios": "https://dc.lft.to/lastmile_qr_scan", "android": "https://dc.lft.to/lastmile_qr_scan"}, "is_reserved": 0, "fusion_lon": 0.0, "fusion_lat": 0.0, "lon": -77.02160133333334, "name": "18606d0572ccfefafa0e0bc6a29af809"}, {"bike_id": "2b4e491ea0be6ab581d1f03d3f4e1923", "type": "electric_bike", "is_disabled": 0, "lat": 38.8452545, "rental_uris": {"ios": "https://dc.lft.to/lastmile_qr_scan", "android": "https://dc.lft.to/lastmile_qr_scan"}, "is_reserved": 0, "fusion_lon": 0.0, "fusion_lat": 0.0, "lon": -76.97392, "name": "2b4e491ea0be6ab581d1f03d3f4e1923"}, {"bike_id": "400d0f6b4f55dc19a41df14453b5ceb0", "type": "electric_scooter", "is_disabled": 0, "lat": 38.91815883333334, "rental_uris": {"ios": "https://dc.lft.to/lastmile_qr_scan", "android": "https://dc.lft.to/lastmile_qr_scan"}, "is_reserved": 0, "fusion_lon": 0.0, "fusion_lat": 0.0, "lon": -77.02463533333334, "name": "400d0f6b4f55dc19a41df14453b5ceb0"}, {"bike_id": "cae9fcd0f833ac943bf4fd7f1ece409a", "type": "electric_scooter", "is_disabled": 0, "lat": 38.93678166666667, "rental_uris": {"ios": "https://dc.lft.to/lastmile_qr_scan", "android": "https://dc.lft.to/lastmile_qr_scan"}, "is_reserved": 0, "fusion_lon": 0.0, "fusion_lat": 0.0, "lon": -77.02454166666666, "name": "cae9fcd0f833ac943bf4fd7f1ece409a"}, {"bike_id": "7fc7f897fffeef83ff0f945216ab11d7", "type": "electric_scooter", "is_disabled": 0, "lat": 38.916165666666664, "rental_uris": {"ios": "https://dc.lft.to/lastmile_qr_scan", "android": "https://dc.lft.to/lastmile_qr_scan"}, "is_reserved": 0, "fusion_lon": 0.0, "fusion_lat": 0.0, "lon": -77.03637916666666, "name": "7fc7f897fffeef83ff0f945216ab11d7"}, {"bike_id": "fcc93f6aa22b8c501fe060becd9394ec", "type": "electric_scooter", "is_disabled": 0, "lat": 38.92321333333334, "rental_uris": {"ios": "https://dc.lft.to/lastmile_qr_scan", "android": "https://dc.lft.to/lastmile_qr_scan"}, "is_reserved": 0, "fusion_lon": 0.0, "fusion_lat": 0.0, "lon": -77.02143666666667, "name": "fcc93f6aa22b8c501fe060becd9394ec"}, {"bike_id": "00c006f9742ef2f2e58b80b136c8ffd3", "type": "electric_scooter", "is_disabled": 0, "lat": 38.91875983333333, "rental_uris": {"ios": "https://dc.lft.to/lastmile_qr_scan", "android": "https://dc.lft.to/lastmile_qr_scan"}, "is_reserved": 0, "fusion_lon": 0.0, "fusion_lat": 0.0, "lon": -77.02473566666667, "name": "00c006f9742ef2f2e58b80b136c8ffd3"}, {"bike_id": "7fa62a0b87d2cbc792c2d0fd406a755a", "type": "electric_scooter", "is_disabled": 0, "lat": 38.9261515, "rental_uris": {"ios": "https://dc.lft.to/lastmile_qr_scan", "android": "https://dc.lft.to/lastmile_qr_scan"}, "is_reserved": 0, "fusion_lon": 0.0, "fusion_lat": 0.0, "lon": -77.04192383333333, "name": "7fa62a0b87d2cbc792c2d0fd406a755a"}, {"bike_id": "fa5aefcac249e2e02923aa00cbf22ba1", "type": "electric_scooter", "is_disabled": 0, "lat": 38.94715733333334, "rental_uris": {"ios": "https://dc.lft.to/lastmile_qr_scan", "android": "https://dc.lft.to/lastmile_qr_scan"}, "is_reserved": 0, "fusion_lon": 0.0, "fusion_lat": 0.0, "lon": -77.03326416666667, "name": "fa5aefcac249e2e02923aa00cbf22ba1"}, {"bike_id": "fbb4cf66b88954d94ec58d712fa7b0fb", "type": "electric_bike", "is_disabled": 0, "lat": 38.926694166666664, "rental_uris": {"ios": "https://dc.lft.to/lastmile_qr_scan", "android": "https://dc.lft.to/lastmile_qr_scan"}, "is_reserved": 0, "fusion_lon": 0.0, "fusion_lat": 0.0, "lon": -77.02575166666666, "name": "fbb4cf66b88954d94ec58d712fa7b0fb"}, {"bike_id": "afa8facc3fdaa802a20e7793dc03a18f", "type": "electric_scooter", "is_disabled": 0, "lat": 38.916404, "rental_uris": {"ios": "https://dc.lft.to/lastmile_qr_scan", "android": "https://dc.lft.to/lastmile_qr_scan"}, "is_reserved": 0, "fusion_lon": 0.0, "fusion_lat": 0.0, "lon": -77.0207825, "name": "afa8facc3fdaa802a20e7793dc03a18f"}, {"bike_id": "b06e349b7d80e44e353a894ec73c166b", "type": "electric_scooter", "is_disabled": 0, "lat": 38.905437666666664, "rental_uris": {"ios": "https://dc.lft.to/lastmile_qr_scan", "android": "https://dc.lft.to/lastmile_qr_scan"}, "is_reserved": 0, "fusion_lon": 0.0, "fusion_lat": 0.0, "lon": -77.041467, "name": "b06e349b7d80e44e353a894ec73c166b"}, {"bike_id": "93e1c6bf4de998270cc99b8d4bfe31e3", "type": "electric_scooter", "is_disabled": 0, "lat": 38.878132666666666, "rental_uris": {"ios": "https://dc.lft.to/lastmile_qr_scan", "android": "https://dc.lft.to/lastmile_qr_scan"}, "is_reserved": 0, "fusion_lon": 0.0, "fusion_lat": 0.0, "lon": -76.97165866666667, "name": "93e1c6bf4de998270cc99b8d4bfe31e3"}, {"bike_id": "89f234dac73678469ab67a54ebebeae9", "type": "electric_scooter", "is_disabled": 0, "lat": 38.9377345, "rental_uris": {"ios": "https://dc.lft.to/lastmile_qr_scan", "android": "https://dc.lft.to/lastmile_qr_scan"}, "is_reserved": 0, "fusion_lon": 0.0, "fusion_lat": 0.0, "lon": -77.019683, "name": "89f234dac73678469ab67a54ebebeae9"}, {"bike_id": "2578b66a7da3f8a68d090f676f1dc9f7", "type": "electric_bike", "is_disabled": 0, "lat": 38.86338883333333, "rental_uris": {"ios": "https://dc.lft.to/lastmile_qr_scan", "android": "https://dc.lft.to/lastmile_qr_scan"}, "is_reserved": 0, "fusion_lon": 0.0, "fusion_lat": 0.0, "lon": -76.98724916666667, "name": "2578b66a7da3f8a68d090f676f1dc9f7"}, {"bike_id": "247553bc599bc0b4694bc85ec49d5a28", "type": "electric_scooter", "is_disabled": 0, "lat": 38.899853, "rental_uris": {"ios": "https://dc.lft.to/lastmile_qr_scan", "android": "https://dc.lft.to/lastmile_qr_scan"}, "is_reserved": 0, "fusion_lon": 0.0, "fusion_lat": 0.0, "lon": -76.95001, "name": "247553bc599bc0b4694bc85ec49d5a28"}, {"bike_id": "c1bc210f6606901aad51cbd8242ca5b3", "type": "electric_scooter", "is_disabled": 0, "lat": 38.858937, "rental_uris": {"ios": "https://dc.lft.to/lastmile_qr_scan", "android": "https://dc.lft.to/lastmile_qr_scan"}, "is_reserved": 0, "fusion_lon": 0.0, "fusion_lat": 0.0, "lon": -76.99730216666667, "name": "c1bc210f6606901aad51cbd8242ca5b3"}, {"bike_id": "9a0ba730d6f1103df9619778b7e044f2", "type": "electric_scooter", "is_disabled": 0, "lat": 38.90193566666667, "rental_uris": {"ios": "https://dc.lft.to/lastmile_qr_scan", "android": "https://dc.lft.to/lastmile_qr_scan"}, "is_reserved": 0, "fusion_lon": 0.0, "fusion_lat": 0.0, "lon": -77.02556766666666, "name": "9a0ba730d6f1103df9619778b7e044f2"}, {"bike_id": "ff045d2083dc1f7326465881207f6228", "type": "electric_scooter", "is_disabled": 0, "lat": 38.906676166666664, "rental_uris": {"ios": "https://dc.lft.to/lastmile_qr_scan", "android": "https://dc.lft.to/lastmile_qr_scan"}, "is_reserved": 0, "fusion_lon": 0.0, "fusion_lat": 0.0, "lon": -77.06124516666667, "name": "ff045d2083dc1f7326465881207f6228"}, {"bike_id": "69cb32ec3c6da93945c2da7443527fd5", "type": "electric_bike", "is_disabled": 0, "lat": 38.86370316666667, "rental_uris": {"ios": "https://dc.lft.to/lastmile_qr_scan", "android": "https://dc.lft.to/lastmile_qr_scan"}, "is_reserved": 0, "fusion_lon": 0.0, "fusion_lat": 0.0, "lon": -76.9700565, "name": "69cb32ec3c6da93945c2da7443527fd5"}, {"bike_id": "2717bb1a2b8fd94c820721054d14177b", "type": "electric_bike", "is_disabled": 0, "lat": 38.911747166666665, "rental_uris": {"ios": "https://dc.lft.to/lastmile_qr_scan", "android": "https://dc.lft.to/lastmile_qr_scan"}, "is_reserved": 0, "fusion_lon": 0.0, "fusion_lat": 0.0, "lon": -77.0364005, "name": "2717bb1a2b8fd94c820721054d14177b"}, {"bike_id": "1139b3cc4aa8e0bccf24e9c43f482d4c", "type": "electric_scooter", "is_disabled": 0, "lat": 38.90119416666667, "rental_uris": {"ios": "https://dc.lft.to/lastmile_qr_scan", "android": "https://dc.lft.to/lastmile_qr_scan"}, "is_reserved": 0, "fusion_lon": 0.0, "fusion_lat": 0.0, "lon": -77.0176575, "name": "1139b3cc4aa8e0bccf24e9c43f482d4c"}, {"bike_id": "e57de05b6506e26f519b9c9f3d4ead36", "type": "electric_scooter", "is_disabled": 0, "lat": 38.92180233333333, "rental_uris": {"ios": "https://dc.lft.to/lastmile_qr_scan", "android": "https://dc.lft.to/lastmile_qr_scan"}, "is_reserved": 0, "fusion_lon": 0.0, "fusion_lat": 0.0, "lon": -76.997926, "name": "e57de05b6506e26f519b9c9f3d4ead36"}, {"bike_id": "1fe03333eff5670a76e7514bf29f0c43", "type": "electric_scooter", "is_disabled": 0, "lat": 38.915533833333335, "rental_uris": {"ios": "https://dc.lft.to/lastmile_qr_scan", "android": "https://dc.lft.to/lastmile_qr_scan"}, "is_reserved": 0, "fusion_lon": 0.0, "fusion_lat": 0.0, "lon": -77.0259175, "name": "1fe03333eff5670a76e7514bf29f0c43"}, {"bike_id": "90be1730831a8cab19cbdbf7c3e99e7e", "type": "electric_scooter", "is_disabled": 0, "lat": 38.931202166666665, "rental_uris": {"ios": "https://dc.lft.to/lastmile_qr_scan", "android": "https://dc.lft.to/lastmile_qr_scan"}, "is_reserved": 0, "fusion_lon": 0.0, "fusion_lat": 0.0, "lon": -77.03039433333333, "name": "90be1730831a8cab19cbdbf7c3e99e7e"}, {"bike_id": "a559c1c8fab7f5a98e536921f9ea1854", "type": "electric_scooter", "is_disabled": 0, "lat": 38.8974215, "rental_uris": {"ios": "https://dc.lft.to/lastmile_qr_scan", "android": "https://dc.lft.to/lastmile_qr_scan"}, "is_reserved": 0, "fusion_lon": 0.0, "fusion_lat": 0.0, "lon": -77.00003866666667, "name": "a559c1c8fab7f5a98e536921f9ea1854"}, {"bike_id": "2868379a124faeb2e92fb8f823f1be17", "type": "electric_scooter", "is_disabled": 0, "lat": 38.89499033333333, "rental_uris": {"ios": "https://dc.lft.to/lastmile_qr_scan", "android": "https://dc.lft.to/lastmile_qr_scan"}, "is_reserved": 0, "fusion_lon": 0.0, "fusion_lat": 0.0, "lon": -77.00054966666667, "name": "2868379a124faeb2e92fb8f823f1be17"}, {"bike_id": "60910f5885b227d85c494a8f8bb087ee", "type": "electric_scooter", "is_disabled": 0, "lat": 38.8954565, "rental_uris": {"ios": "https://dc.lft.to/lastmile_qr_scan", "android": "https://dc.lft.to/lastmile_qr_scan"}, "is_reserved": 0, "fusion_lon": 0.0, "fusion_lat": 0.0, "lon": -76.92948483333333, "name": "60910f5885b227d85c494a8f8bb087ee"}, {"bike_id": "c226765b6f925d451bbc89beffa663e4", "type": "electric_scooter", "is_disabled": 0, "lat": 38.872869666666666, "rental_uris": {"ios": "https://dc.lft.to/lastmile_qr_scan", "android": "https://dc.lft.to/lastmile_qr_scan"}, "is_reserved": 0, "fusion_lon": 0.0, "fusion_lat": 0.0, "lon": -76.977272, "name": "c226765b6f925d451bbc89beffa663e4"}, {"bike_id": "308f83644b38c6e1c91e28c4451687a0", "type": "electric_scooter", "is_disabled": 0, "lat": 38.920457, "rental_uris": {"ios": "https://dc.lft.to/lastmile_qr_scan", "android": "https://dc.lft.to/lastmile_qr_scan"}, "is_reserved": 0, "fusion_lon": 0.0, "fusion_lat": 0.0, "lon": -77.03392366666667, "name": "308f83644b38c6e1c91e28c4451687a0"}, {"bike_id": "2bc57300e53e46c581c1c11ff0c183e4", "type": "electric_scooter", "is_disabled": 0, "lat": 38.914215, "rental_uris": {"ios": "https://dc.lft.to/lastmile_qr_scan", "android": "https://dc.lft.to/lastmile_qr_scan"}, "is_reserved": 0, "fusion_lon": 0.0, "fusion_lat": 0.0, "lon": -77.03185466666666, "name": "2bc57300e53e46c581c1c11ff0c183e4"}, {"bike_id": "d5acc0cf5a526a2d1b99b60ea111b481", "type": "electric_scooter", "is_disabled": 0, "lat": 38.87764766666667, "rental_uris": {"ios": "https://dc.lft.to/lastmile_qr_scan", "android": "https://dc.lft.to/lastmile_qr_scan"}, "is_reserved": 0, "fusion_lon": 0.0, "fusion_lat": 0.0, "lon": -77.00758016666667, "name": "d5acc0cf5a526a2d1b99b60ea111b481"}, {"bike_id": "b359917686ceb1d21615ca60383883ee", "type": "electric_scooter", "is_disabled": 0, "lat": 38.94140683333333, "rental_uris": {"ios": "https://dc.lft.to/lastmile_qr_scan", "android": "https://dc.lft.to/lastmile_qr_scan"}, "is_reserved": 0, "fusion_lon": 0.0, "fusion_lat": 0.0, "lon": -77.0232305, "name": "b359917686ceb1d21615ca60383883ee"}, {"bike_id": "f80a1cc06edf3a1adc683ad2bac00585", "type": "electric_scooter", "is_disabled": 0, "lat": 38.89720166666667, "rental_uris": {"ios": "https://dc.lft.to/lastmile_qr_scan", "android": "https://dc.lft.to/lastmile_qr_scan"}, "is_reserved": 0, "fusion_lon": 0.0, "fusion_lat": 0.0, "lon": -77.02398966666667, "name": "f80a1cc06edf3a1adc683ad2bac00585"}, {"bike_id": "20f0d682a6e6b4a66761ca7cd990b92a", "type": "electric_scooter", "is_disabled": 0, "lat": 38.908131833333336, "rental_uris": {"ios": "https://dc.lft.to/lastmile_qr_scan", "android": "https://dc.lft.to/lastmile_qr_scan"}, "is_reserved": 0, "fusion_lon": 0.0, "fusion_lat": 0.0, "lon": -77.04350583333333, "name": "20f0d682a6e6b4a66761ca7cd990b92a"}, {"bike_id": "d3c00c3496aea1bce18c448a0012a54b", "type": "electric_scooter", "is_disabled": 0, "lat": 38.89361783333333, "rental_uris": {"ios": "https://dc.lft.to/lastmile_qr_scan", "android": "https://dc.lft.to/lastmile_qr_scan"}, "is_reserved": 0, "fusion_lon": 0.0, "fusion_lat": 0.0, "lon": -76.92879533333333, "name": "d3c00c3496aea1bce18c448a0012a54b"}, {"bike_id": "beeef4e68c1fcfab2643972539ce681b", "type": "electric_scooter", "is_disabled": 0, "lat": 38.8953035, "rental_uris": {"ios": "https://dc.lft.to/lastmile_qr_scan", "android": "https://dc.lft.to/lastmile_qr_scan"}, "is_reserved": 0, "fusion_lon": 0.0, "fusion_lat": 0.0, "lon": -76.94890833333334, "name": "beeef4e68c1fcfab2643972539ce681b"}, {"bike_id": "df2b768246e4a4de61b7489f26c6997f", "type": "electric_scooter", "is_disabled": 0, "lat": 38.93595216666667, "rental_uris": {"ios": "https://dc.lft.to/lastmile_qr_scan", "android": "https://dc.lft.to/lastmile_qr_scan"}, "is_reserved": 0, "fusion_lon": 0.0, "fusion_lat": 0.0, "lon": -77.03646383333333, "name": "df2b768246e4a4de61b7489f26c6997f"}, {"bike_id": "71c5a6ed02ee5c23a5cccb041d8b2f90", "type": "electric_scooter", "is_disabled": 0, "lat": 38.935355, "rental_uris": {"ios": "https://dc.lft.to/lastmile_qr_scan", "android": "https://dc.lft.to/lastmile_qr_scan"}, "is_reserved": 0, "fusion_lon": 0.0, "fusion_lat": 0.0, "lon": -77.05815516666667, "name": "71c5a6ed02ee5c23a5cccb041d8b2f90"}, {"bike_id": "11969d60fea78c0bb9d34be5146cc8d5", "type": "electric_bike", "is_disabled": 0, "lat": 38.993278833333335, "rental_uris": {"ios": "https://dc.lft.to/lastmile_qr_scan", "android": "https://dc.lft.to/lastmile_qr_scan"}, "is_reserved": 0, "fusion_lon": 0.0, "fusion_lat": 0.0, "lon": -76.9461335, "name": "11969d60fea78c0bb9d34be5146cc8d5"}, {"bike_id": "3a383e1b984f659b54a2b1a7d8179fb9", "type": "electric_scooter", "is_disabled": 0, "lat": 38.92211616666667, "rental_uris": {"ios": "https://dc.lft.to/lastmile_qr_scan", "android": "https://dc.lft.to/lastmile_qr_scan"}, "is_reserved": 0, "fusion_lon": 0.0, "fusion_lat": 0.0, "lon": -77.03650916666666, "name": "3a383e1b984f659b54a2b1a7d8179fb9"}, {"bike_id": "a70954124b4d2ab876307f19addd8b8a", "type": "electric_scooter", "is_disabled": 0, "lat": 38.916796, "rental_uris": {"ios": "https://dc.lft.to/lastmile_qr_scan", "android": "https://dc.lft.to/lastmile_qr_scan"}, "is_reserved": 0, "fusion_lon": 0.0, "fusion_lat": 0.0, "lon": -77.01576783333333, "name": "a70954124b4d2ab876307f19addd8b8a"}, {"bike_id": "6aebdae6e4dac45a349dcd6caabfbec1", "type": "electric_scooter", "is_disabled": 0, "lat": 38.91400483333334, "rental_uris": {"ios": "https://dc.lft.to/lastmile_qr_scan", "android": "https://dc.lft.to/lastmile_qr_scan"}, "is_reserved": 0, "fusion_lon": 0.0, "fusion_lat": 0.0, "lon": -76.98185616666666, "name": "6aebdae6e4dac45a349dcd6caabfbec1"}, {"bike_id": "0fd0a6d27482a6d00a697c4743be4617", "type": "electric_bike", "is_disabled": 0, "lat": 38.85523366666666, "rental_uris": {"ios": "https://dc.lft.to/lastmile_qr_scan", "android": "https://dc.lft.to/lastmile_qr_scan"}, "is_reserved": 0, "fusion_lon": 0.0, "fusion_lat": 0.0, "lon": -77.1200795, "name": "0fd0a6d27482a6d00a697c4743be4617"}, {"bike_id": "b5eeb83c7e25bff17437754bfde90a16", "type": "electric_scooter", "is_disabled": 0, "lat": 38.9099315, "rental_uris": {"ios": "https://dc.lft.to/lastmile_qr_scan", "android": "https://dc.lft.to/lastmile_qr_scan"}, "is_reserved": 0, "fusion_lon": 0.0, "fusion_lat": 0.0, "lon": -77.04417183333334, "name": "b5eeb83c7e25bff17437754bfde90a16"}, {"bike_id": "7d35b84ae2ce81932c56b01a58f35a22", "type": "electric_scooter", "is_disabled": 0, "lat": 38.915932833333336, "rental_uris": {"ios": "https://dc.lft.to/lastmile_qr_scan", "android": "https://dc.lft.to/lastmile_qr_scan"}, "is_reserved": 0, "fusion_lon": 0.0, "fusion_lat": 0.0, "lon": -77.03195716666667, "name": "7d35b84ae2ce81932c56b01a58f35a22"}, {"bike_id": "1af58fcc1ee529f03d8e8e73d85bcf3d", "type": "electric_scooter", "is_disabled": 0, "lat": 38.902179, "rental_uris": {"ios": "https://dc.lft.to/lastmile_qr_scan", "android": "https://dc.lft.to/lastmile_qr_scan"}, "is_reserved": 0, "fusion_lon": 0.0, "fusion_lat": 0.0, "lon": -77.02425966666667, "name": "1af58fcc1ee529f03d8e8e73d85bcf3d"}, {"bike_id": "d5df394333a2f5c5b86b84a6b3396116", "type": "electric_scooter", "is_disabled": 0, "lat": 38.90955, "rental_uris": {"ios": "https://dc.lft.to/lastmile_qr_scan", "android": "https://dc.lft.to/lastmile_qr_scan"}, "is_reserved": 0, "fusion_lon": 0.0, "fusion_lat": 0.0, "lon": -77.02712166666667, "name": "d5df394333a2f5c5b86b84a6b3396116"}, {"bike_id": "4d4e55cba3fd8e74ff44c3ec84506377", "type": "electric_scooter", "is_disabled": 0, "lat": 38.91797583333334, "rental_uris": {"ios": "https://dc.lft.to/lastmile_qr_scan", "android": "https://dc.lft.to/lastmile_qr_scan"}, "is_reserved": 0, "fusion_lon": 0.0, "fusion_lat": 0.0, "lon": -77.02313066666666, "name": "4d4e55cba3fd8e74ff44c3ec84506377"}, {"bike_id": "63c0147734470c91d1fa57d75691073a", "type": "electric_scooter", "is_disabled": 0, "lat": 38.92825583333333, "rental_uris": {"ios": "https://dc.lft.to/lastmile_qr_scan", "android": "https://dc.lft.to/lastmile_qr_scan"}, "is_reserved": 0, "fusion_lon": 0.0, "fusion_lat": 0.0, "lon": -77.00591833333333, "name": "63c0147734470c91d1fa57d75691073a"}, {"bike_id": "5b0dfad22ff25519851bc90f1eea6ff3", "type": "electric_scooter", "is_disabled": 0, "lat": 38.928537666666664, "rental_uris": {"ios": "https://dc.lft.to/lastmile_qr_scan", "android": "https://dc.lft.to/lastmile_qr_scan"}, "is_reserved": 0, "fusion_lon": 0.0, "fusion_lat": 0.0, "lon": -77.019431, "name": "5b0dfad22ff25519851bc90f1eea6ff3"}, {"bike_id": "084fd263f5dc71e21fd04119e35db939", "type": "electric_bike", "is_disabled": 0, "lat": 38.88060516666667, "rental_uris": {"ios": "https://dc.lft.to/lastmile_qr_scan", "android": "https://dc.lft.to/lastmile_qr_scan"}, "is_reserved": 0, "fusion_lon": 0.0, "fusion_lat": 0.0, "lon": -76.96238466666667, "name": "084fd263f5dc71e21fd04119e35db939"}, {"bike_id": "08ae366d7580ba80b9e21ff7c2f2e7bd", "type": "electric_scooter", "is_disabled": 0, "lat": 38.869783166666664, "rental_uris": {"ios": "https://dc.lft.to/lastmile_qr_scan", "android": "https://dc.lft.to/lastmile_qr_scan"}, "is_reserved": 0, "fusion_lon": 0.0, "fusion_lat": 0.0, "lon": -76.981677, "name": "08ae366d7580ba80b9e21ff7c2f2e7bd"}, {"bike_id": "bd25a1ad4fae7ea992fd8d841c8c1d7a", "type": "electric_scooter", "is_disabled": 0, "lat": 38.913022, "rental_uris": {"ios": "https://dc.lft.to/lastmile_qr_scan", "android": "https://dc.lft.to/lastmile_qr_scan"}, "is_reserved": 0, "fusion_lon": 0.0, "fusion_lat": 0.0, "lon": -77.04553466666667, "name": "bd25a1ad4fae7ea992fd8d841c8c1d7a"}, {"bike_id": "d6578fe80270c28b539f10ff2ab65eb8", "type": "electric_scooter", "is_disabled": 0, "lat": 38.9478615, "rental_uris": {"ios": "https://dc.lft.to/lastmile_qr_scan", "android": "https://dc.lft.to/lastmile_qr_scan"}, "is_reserved": 0, "fusion_lon": 0.0, "fusion_lat": 0.0, "lon": -77.02130283333334, "name": "d6578fe80270c28b539f10ff2ab65eb8"}, {"bike_id": "5c0cde3c549a4d7e30eb3807bcc9ca87", "type": "electric_scooter", "is_disabled": 0, "lat": 38.921901, "rental_uris": {"ios": "https://dc.lft.to/lastmile_qr_scan", "android": "https://dc.lft.to/lastmile_qr_scan"}, "is_reserved": 0, "fusion_lon": 0.0, "fusion_lat": 0.0, "lon": -77.04263366666666, "name": "5c0cde3c549a4d7e30eb3807bcc9ca87"}, {"bike_id": "fea1c8806606acc7d9d118c0b9ef63fc", "type": "electric_scooter", "is_disabled": 0, "lat": 38.911281333333335, "rental_uris": {"ios": "https://dc.lft.to/lastmile_qr_scan", "android": "https://dc.lft.to/lastmile_qr_scan"}, "is_reserved": 0, "fusion_lon": 0.0, "fusion_lat": 0.0, "lon": -77.03179066666667, "name": "fea1c8806606acc7d9d118c0b9ef63fc"}, {"bike_id": "1a91d68e0af013a3e69c2e4bb5cbeaba", "type": "electric_scooter", "is_disabled": 0, "lat": 38.92382216666667, "rental_uris": {"ios": "https://dc.lft.to/lastmile_qr_scan", "android": "https://dc.lft.to/lastmile_qr_scan"}, "is_reserved": 0, "fusion_lon": 0.0, "fusion_lat": 0.0, "lon": -77.03040066666667, "name": "1a91d68e0af013a3e69c2e4bb5cbeaba"}, {"bike_id": "30bad56fe75b3c05f833d7258400a302", "type": "electric_scooter", "is_disabled": 0, "lat": 38.8822135, "rental_uris": {"ios": "https://dc.lft.to/lastmile_qr_scan", "android": "https://dc.lft.to/lastmile_qr_scan"}, "is_reserved": 0, "fusion_lon": 0.0, "fusion_lat": 0.0, "lon": -76.92663266666666, "name": "30bad56fe75b3c05f833d7258400a302"}, {"bike_id": "62fcda6e7433b377add7d819786d470e", "type": "electric_scooter", "is_disabled": 0, "lat": 38.91873533333333, "rental_uris": {"ios": "https://dc.lft.to/lastmile_qr_scan", "android": "https://dc.lft.to/lastmile_qr_scan"}, "is_reserved": 0, "fusion_lon": 0.0, "fusion_lat": 0.0, "lon": -77.04182733333333, "name": "62fcda6e7433b377add7d819786d470e"}, {"bike_id": "cc7b693200559e3b69a3688bca39b3d3", "type": "electric_scooter", "is_disabled": 0, "lat": 38.96605183333333, "rental_uris": {"ios": "https://dc.lft.to/lastmile_qr_scan", "android": "https://dc.lft.to/lastmile_qr_scan"}, "is_reserved": 0, "fusion_lon": 0.0, "fusion_lat": 0.0, "lon": -77.01971966666666, "name": "cc7b693200559e3b69a3688bca39b3d3"}, {"bike_id": "fe535f593cc2c93856419c7199ff6aef", "type": "electric_bike", "is_disabled": 0, "lat": 38.91006766666667, "rental_uris": {"ios": "https://dc.lft.to/lastmile_qr_scan", "android": "https://dc.lft.to/lastmile_qr_scan"}, "is_reserved": 0, "fusion_lon": 0.0, "fusion_lat": 0.0, "lon": -77.227883, "name": "fe535f593cc2c93856419c7199ff6aef"}, {"bike_id": "c479b51397609d6d10fb2d15311f8ea5", "type": "electric_scooter", "is_disabled": 0, "lat": 38.91419966666667, "rental_uris": {"ios": "https://dc.lft.to/lastmile_qr_scan", "android": "https://dc.lft.to/lastmile_qr_scan"}, "is_reserved": 0, "fusion_lon": 0.0, "fusion_lat": 0.0, "lon": -77.0480465, "name": "c479b51397609d6d10fb2d15311f8ea5"}, {"bike_id": "c3cfc01c5da69bd72cd4c7b5478d2ab4", "type": "electric_bike", "is_disabled": 0, "lat": 38.853548333333336, "rental_uris": {"ios": "https://dc.lft.to/lastmile_qr_scan", "android": "https://dc.lft.to/lastmile_qr_scan"}, "is_reserved": 0, "fusion_lon": 0.0, "fusion_lat": 0.0, "lon": -77.1346595, "name": "c3cfc01c5da69bd72cd4c7b5478d2ab4"}, {"bike_id": "603360b277301881d8f8eed5b8f317b7", "type": "electric_scooter", "is_disabled": 0, "lat": 38.9275495, "rental_uris": {"ios": "https://dc.lft.to/lastmile_qr_scan", "android": "https://dc.lft.to/lastmile_qr_scan"}, "is_reserved": 0, "fusion_lon": 0.0, "fusion_lat": 0.0, "lon": -77.02534466666667, "name": "603360b277301881d8f8eed5b8f317b7"}, {"bike_id": "c02ffae051da11b903b4f53647cbecb8", "type": "electric_scooter", "is_disabled": 0, "lat": 38.93675266666666, "rental_uris": {"ios": "https://dc.lft.to/lastmile_qr_scan", "android": "https://dc.lft.to/lastmile_qr_scan"}, "is_reserved": 0, "fusion_lon": 0.0, "fusion_lat": 0.0, "lon": -77.03584966666666, "name": "c02ffae051da11b903b4f53647cbecb8"}, {"bike_id": "3cac37233498aa70a5621513de8671ee", "type": "electric_scooter", "is_disabled": 0, "lat": 38.90087366666667, "rental_uris": {"ios": "https://dc.lft.to/lastmile_qr_scan", "android": "https://dc.lft.to/lastmile_qr_scan"}, "is_reserved": 0, "fusion_lon": 0.0, "fusion_lat": 0.0, "lon": -77.01773616666667, "name": "3cac37233498aa70a5621513de8671ee"}, {"bike_id": "96cedac1d82325dd86ab80b3cffa1140", "type": "electric_bike", "is_disabled": 0, "lat": 38.87085233333333, "rental_uris": {"ios": "https://dc.lft.to/lastmile_qr_scan", "android": "https://dc.lft.to/lastmile_qr_scan"}, "is_reserved": 0, "fusion_lon": 0.0, "fusion_lat": 0.0, "lon": -76.96432883333334, "name": "96cedac1d82325dd86ab80b3cffa1140"}, {"bike_id": "d1c7bc123b8384ffbf98d68c0d3444b5", "type": "electric_scooter", "is_disabled": 0, "lat": 38.931838666666664, "rental_uris": {"ios": "https://dc.lft.to/lastmile_qr_scan", "android": "https://dc.lft.to/lastmile_qr_scan"}, "is_reserved": 0, "fusion_lon": 0.0, "fusion_lat": 0.0, "lon": -77.02368666666666, "name": "d1c7bc123b8384ffbf98d68c0d3444b5"}, {"bike_id": "7a0a72877f7735ced627e97a379084a3", "type": "electric_scooter", "is_disabled": 0, "lat": 38.90289383333333, "rental_uris": {"ios": "https://dc.lft.to/lastmile_qr_scan", "android": "https://dc.lft.to/lastmile_qr_scan"}, "is_reserved": 0, "fusion_lon": 0.0, "fusion_lat": 0.0, "lon": -76.9904305, "name": "7a0a72877f7735ced627e97a379084a3"}, {"bike_id": "2343598e573ef0d17d947f4b8a4aeace", "type": "electric_scooter", "is_disabled": 0, "lat": 38.9141375, "rental_uris": {"ios": "https://dc.lft.to/lastmile_qr_scan", "android": "https://dc.lft.to/lastmile_qr_scan"}, "is_reserved": 0, "fusion_lon": 0.0, "fusion_lat": 0.0, "lon": -77.03030266666667, "name": "2343598e573ef0d17d947f4b8a4aeace"}, {"bike_id": "16b0c0df556477f20d8cf49d87d8eb21", "type": "electric_scooter", "is_disabled": 0, "lat": 38.914012, "rental_uris": {"ios": "https://dc.lft.to/lastmile_qr_scan", "android": "https://dc.lft.to/lastmile_qr_scan"}, "is_reserved": 0, "fusion_lon": 0.0, "fusion_lat": 0.0, "lon": -77.03232233333334, "name": "16b0c0df556477f20d8cf49d87d8eb21"}, {"bike_id": "c042d223b6c94434b5cc59cc78cced28", "type": "electric_scooter", "is_disabled": 0, "lat": 38.94290016666667, "rental_uris": {"ios": "https://dc.lft.to/lastmile_qr_scan", "android": "https://dc.lft.to/lastmile_qr_scan"}, "is_reserved": 0, "fusion_lon": 0.0, "fusion_lat": 0.0, "lon": -77.0216525, "name": "c042d223b6c94434b5cc59cc78cced28"}, {"bike_id": "e575c0ddf9f5057db797ccb3c6d03e6a", "type": "electric_scooter", "is_disabled": 0, "lat": 38.89595466666667, "rental_uris": {"ios": "https://dc.lft.to/lastmile_qr_scan", "android": "https://dc.lft.to/lastmile_qr_scan"}, "is_reserved": 0, "fusion_lon": 0.0, "fusion_lat": 0.0, "lon": -77.00502333333333, "name": "e575c0ddf9f5057db797ccb3c6d03e6a"}, {"bike_id": "9049c2132a32bd7ef3e891248fed41c3", "type": "electric_scooter", "is_disabled": 0, "lat": 38.91700433333333, "rental_uris": {"ios": "https://dc.lft.to/lastmile_qr_scan", "android": "https://dc.lft.to/lastmile_qr_scan"}, "is_reserved": 0, "fusion_lon": 0.0, "fusion_lat": 0.0, "lon": -77.0353885, "name": "9049c2132a32bd7ef3e891248fed41c3"}, {"bike_id": "85aa0f4755272aa19e625e32904f774f", "type": "electric_scooter", "is_disabled": 0, "lat": 38.912917, "rental_uris": {"ios": "https://dc.lft.to/lastmile_qr_scan", "android": "https://dc.lft.to/lastmile_qr_scan"}, "is_reserved": 0, "fusion_lon": 0.0, "fusion_lat": 0.0, "lon": -77.0385415, "name": "85aa0f4755272aa19e625e32904f774f"}, {"bike_id": "746f3ebd833977c1b95dd7b64d78953b", "type": "electric_scooter", "is_disabled": 0, "lat": 38.90915433333333, "rental_uris": {"ios": "https://dc.lft.to/lastmile_qr_scan", "android": "https://dc.lft.to/lastmile_qr_scan"}, "is_reserved": 0, "fusion_lon": 0.0, "fusion_lat": 0.0, "lon": -77.073744, "name": "746f3ebd833977c1b95dd7b64d78953b"}, {"bike_id": "3c7343381d0e1bcf12e162ca7333c355", "type": "electric_scooter", "is_disabled": 0, "lat": 38.924723166666666, "rental_uris": {"ios": "https://dc.lft.to/lastmile_qr_scan", "android": "https://dc.lft.to/lastmile_qr_scan"}, "is_reserved": 0, "fusion_lon": 0.0, "fusion_lat": 0.0, "lon": -77.02757566666666, "name": "3c7343381d0e1bcf12e162ca7333c355"}, {"bike_id": "402b0310e7f421baf228381838cd9145", "type": "electric_bike", "is_disabled": 0, "lat": 39.02435533333333, "rental_uris": {"ios": "https://dc.lft.to/lastmile_qr_scan", "android": "https://dc.lft.to/lastmile_qr_scan"}, "is_reserved": 0, "fusion_lon": 0.0, "fusion_lat": 0.0, "lon": -77.1309765, "name": "402b0310e7f421baf228381838cd9145"}, {"bike_id": "e3df1416cab8a884b79d0856551f73c6", "type": "electric_scooter", "is_disabled": 0, "lat": 38.906716333333335, "rental_uris": {"ios": "https://dc.lft.to/lastmile_qr_scan", "android": "https://dc.lft.to/lastmile_qr_scan"}, "is_reserved": 0, "fusion_lon": 0.0, "fusion_lat": 0.0, "lon": -77.03747666666666, "name": "e3df1416cab8a884b79d0856551f73c6"}, {"bike_id": "59b52131fb923c82e6cc2f4f01e79036", "type": "electric_scooter", "is_disabled": 0, "lat": 38.9346015, "rental_uris": {"ios": "https://dc.lft.to/lastmile_qr_scan", "android": "https://dc.lft.to/lastmile_qr_scan"}, "is_reserved": 0, "fusion_lon": 0.0, "fusion_lat": 0.0, "lon": -76.96435883333334, "name": "59b52131fb923c82e6cc2f4f01e79036"}, {"bike_id": "8b433e73be35b3498903eefffe998583", "type": "electric_scooter", "is_disabled": 0, "lat": 38.8669555, "rental_uris": {"ios": "https://dc.lft.to/lastmile_qr_scan", "android": "https://dc.lft.to/lastmile_qr_scan"}, "is_reserved": 0, "fusion_lon": 0.0, "fusion_lat": 0.0, "lon": -76.98704666666667, "name": "8b433e73be35b3498903eefffe998583"}, {"bike_id": "4810596d7ea5978dd303bb7ec3847aab", "type": "electric_scooter", "is_disabled": 0, "lat": 38.91667066666667, "rental_uris": {"ios": "https://dc.lft.to/lastmile_qr_scan", "android": "https://dc.lft.to/lastmile_qr_scan"}, "is_reserved": 0, "fusion_lon": 0.0, "fusion_lat": 0.0, "lon": -77.02398983333333, "name": "4810596d7ea5978dd303bb7ec3847aab"}, {"bike_id": "baac7e6e40a35232aa9123e83d3b72fb", "type": "electric_scooter", "is_disabled": 0, "lat": 38.928351166666666, "rental_uris": {"ios": "https://dc.lft.to/lastmile_qr_scan", "android": "https://dc.lft.to/lastmile_qr_scan"}, "is_reserved": 0, "fusion_lon": 0.0, "fusion_lat": 0.0, "lon": -77.03279616666667, "name": "baac7e6e40a35232aa9123e83d3b72fb"}, {"bike_id": "0f2243032ee0ebc25cb32c7cc2d9007b", "type": "electric_scooter", "is_disabled": 0, "lat": 38.91327866666666, "rental_uris": {"ios": "https://dc.lft.to/lastmile_qr_scan", "android": "https://dc.lft.to/lastmile_qr_scan"}, "is_reserved": 0, "fusion_lon": 0.0, "fusion_lat": 0.0, "lon": -77.02694283333334, "name": "0f2243032ee0ebc25cb32c7cc2d9007b"}, {"bike_id": "2d5dc4a49db44d35c8982f626a63a05f", "type": "electric_scooter", "is_disabled": 0, "lat": 38.9226475, "rental_uris": {"ios": "https://dc.lft.to/lastmile_qr_scan", "android": "https://dc.lft.to/lastmile_qr_scan"}, "is_reserved": 0, "fusion_lon": 0.0, "fusion_lat": 0.0, "lon": -76.9975735, "name": "2d5dc4a49db44d35c8982f626a63a05f"}, {"bike_id": "15d7722e401188e3adba5c1f2d7883a6", "type": "electric_scooter", "is_disabled": 0, "lat": 38.914274166666665, "rental_uris": {"ios": "https://dc.lft.to/lastmile_qr_scan", "android": "https://dc.lft.to/lastmile_qr_scan"}, "is_reserved": 0, "fusion_lon": 0.0, "fusion_lat": 0.0, "lon": -77.0213835, "name": "15d7722e401188e3adba5c1f2d7883a6"}, {"bike_id": "2be9fa3628c5b0d4e5c2ebb85e9d94ad", "type": "electric_bike", "is_disabled": 0, "lat": 38.957085, "rental_uris": {"ios": "https://dc.lft.to/lastmile_qr_scan", "android": "https://dc.lft.to/lastmile_qr_scan"}, "is_reserved": 0, "fusion_lon": 0.0, "fusion_lat": 0.0, "lon": -77.02396066666667, "name": "2be9fa3628c5b0d4e5c2ebb85e9d94ad"}, {"bike_id": "fadaecb1d903536474c3a802706fcb21", "type": "electric_scooter", "is_disabled": 0, "lat": 38.93154116666667, "rental_uris": {"ios": "https://dc.lft.to/lastmile_qr_scan", "android": "https://dc.lft.to/lastmile_qr_scan"}, "is_reserved": 0, "fusion_lon": 0.0, "fusion_lat": 0.0, "lon": -77.04518283333333, "name": "fadaecb1d903536474c3a802706fcb21"}, {"bike_id": "7aec4c3f52c1d777268d8fad795ffad9", "type": "electric_scooter", "is_disabled": 0, "lat": 38.906378333333336, "rental_uris": {"ios": "https://dc.lft.to/lastmile_qr_scan", "android": "https://dc.lft.to/lastmile_qr_scan"}, "is_reserved": 0, "fusion_lon": 0.0, "fusion_lat": 0.0, "lon": -77.03138683333333, "name": "7aec4c3f52c1d777268d8fad795ffad9"}, {"bike_id": "334f332c6e0761ac65740b6f239ca4b3", "type": "electric_scooter", "is_disabled": 0, "lat": 38.926694166666664, "rental_uris": {"ios": "https://dc.lft.to/lastmile_qr_scan", "android": "https://dc.lft.to/lastmile_qr_scan"}, "is_reserved": 0, "fusion_lon": 0.0, "fusion_lat": 0.0, "lon": -77.031958, "name": "334f332c6e0761ac65740b6f239ca4b3"}, {"bike_id": "3a1836049cd12d1b0f565f68df65b0a6", "type": "electric_scooter", "is_disabled": 0, "lat": 38.9168475, "rental_uris": {"ios": "https://dc.lft.to/lastmile_qr_scan", "android": "https://dc.lft.to/lastmile_qr_scan"}, "is_reserved": 0, "fusion_lon": 0.0, "fusion_lat": 0.0, "lon": -77.0288975, "name": "3a1836049cd12d1b0f565f68df65b0a6"}, {"bike_id": "c99f92c3608967076b4f8e6925c0db64", "type": "electric_scooter", "is_disabled": 0, "lat": 38.86679316666667, "rental_uris": {"ios": "https://dc.lft.to/lastmile_qr_scan", "android": "https://dc.lft.to/lastmile_qr_scan"}, "is_reserved": 0, "fusion_lon": 0.0, "fusion_lat": 0.0, "lon": -76.985854, "name": "c99f92c3608967076b4f8e6925c0db64"}, {"bike_id": "50a43959a2d544c807a7b0b49577df48", "type": "electric_scooter", "is_disabled": 0, "lat": 38.92194333333333, "rental_uris": {"ios": "https://dc.lft.to/lastmile_qr_scan", "android": "https://dc.lft.to/lastmile_qr_scan"}, "is_reserved": 0, "fusion_lon": 0.0, "fusion_lat": 0.0, "lon": -77.037775, "name": "50a43959a2d544c807a7b0b49577df48"}, {"bike_id": "0b994c122233d396ce33bfe1ef3b3ba9", "type": "electric_scooter", "is_disabled": 0, "lat": 38.93370766666666, "rental_uris": {"ios": "https://dc.lft.to/lastmile_qr_scan", "android": "https://dc.lft.to/lastmile_qr_scan"}, "is_reserved": 0, "fusion_lon": 0.0, "fusion_lat": 0.0, "lon": -77.05727566666667, "name": "0b994c122233d396ce33bfe1ef3b3ba9"}, {"bike_id": "b566eaca1102268d65da35b43e2ade3a", "type": "electric_scooter", "is_disabled": 0, "lat": 38.927933, "rental_uris": {"ios": "https://dc.lft.to/lastmile_qr_scan", "android": "https://dc.lft.to/lastmile_qr_scan"}, "is_reserved": 0, "fusion_lon": 0.0, "fusion_lat": 0.0, "lon": -77.0295955, "name": "b566eaca1102268d65da35b43e2ade3a"}, {"bike_id": "0679666130d6a1dc07086aa38701b18c", "type": "electric_scooter", "is_disabled": 0, "lat": 38.9181525, "rental_uris": {"ios": "https://dc.lft.to/lastmile_qr_scan", "android": "https://dc.lft.to/lastmile_qr_scan"}, "is_reserved": 0, "fusion_lon": 0.0, "fusion_lat": 0.0, "lon": -77.024682, "name": "0679666130d6a1dc07086aa38701b18c"}, {"bike_id": "678a0bfe1c4b9109533a97da36856bdf", "type": "electric_scooter", "is_disabled": 0, "lat": 38.9148515, "rental_uris": {"ios": "https://dc.lft.to/lastmile_qr_scan", "android": "https://dc.lft.to/lastmile_qr_scan"}, "is_reserved": 0, "fusion_lon": 0.0, "fusion_lat": 0.0, "lon": -76.983496, "name": "678a0bfe1c4b9109533a97da36856bdf"}, {"bike_id": "8d583e54b9b6cc8489fae13e06fbe7b5", "type": "electric_scooter", "is_disabled": 0, "lat": 38.89907783333334, "rental_uris": {"ios": "https://dc.lft.to/lastmile_qr_scan", "android": "https://dc.lft.to/lastmile_qr_scan"}, "is_reserved": 0, "fusion_lon": 0.0, "fusion_lat": 0.0, "lon": -76.98166016666667, "name": "8d583e54b9b6cc8489fae13e06fbe7b5"}, {"bike_id": "6efde70e86eda282950757bc7463b8f7", "type": "electric_scooter", "is_disabled": 0, "lat": 38.86685083333333, "rental_uris": {"ios": "https://dc.lft.to/lastmile_qr_scan", "android": "https://dc.lft.to/lastmile_qr_scan"}, "is_reserved": 0, "fusion_lon": 0.0, "fusion_lat": 0.0, "lon": -76.98574316666667, "name": "6efde70e86eda282950757bc7463b8f7"}, {"bike_id": "572ff320707dc324f92e238e7fd353dc", "type": "electric_scooter", "is_disabled": 0, "lat": 38.91185133333333, "rental_uris": {"ios": "https://dc.lft.to/lastmile_qr_scan", "android": "https://dc.lft.to/lastmile_qr_scan"}, "is_reserved": 0, "fusion_lon": 0.0, "fusion_lat": 0.0, "lon": -77.0454635, "name": "572ff320707dc324f92e238e7fd353dc"}, {"bike_id": "fdb890a0e86b2f8f0ce6374afdd861a7", "type": "electric_scooter", "is_disabled": 0, "lat": 38.942276166666666, "rental_uris": {"ios": "https://dc.lft.to/lastmile_qr_scan", "android": "https://dc.lft.to/lastmile_qr_scan"}, "is_reserved": 0, "fusion_lon": 0.0, "fusion_lat": 0.0, "lon": -77.0143545, "name": "fdb890a0e86b2f8f0ce6374afdd861a7"}, {"bike_id": "554a541dc6763e6d842904c9a26aec3d", "type": "electric_scooter", "is_disabled": 0, "lat": 38.8443945, "rental_uris": {"ios": "https://dc.lft.to/lastmile_qr_scan", "android": "https://dc.lft.to/lastmile_qr_scan"}, "is_reserved": 0, "fusion_lon": 0.0, "fusion_lat": 0.0, "lon": -76.99870766666666, "name": "554a541dc6763e6d842904c9a26aec3d"}, {"bike_id": "22d49fbfe13c3c6a1dc39a3d9b2eb428", "type": "electric_scooter", "is_disabled": 0, "lat": 38.912682833333335, "rental_uris": {"ios": "https://dc.lft.to/lastmile_qr_scan", "android": "https://dc.lft.to/lastmile_qr_scan"}, "is_reserved": 0, "fusion_lon": 0.0, "fusion_lat": 0.0, "lon": -77.03028483333334, "name": "22d49fbfe13c3c6a1dc39a3d9b2eb428"}, {"bike_id": "794a28916b53afbc710f5b77d9586d82", "type": "electric_scooter", "is_disabled": 0, "lat": 38.90010483333333, "rental_uris": {"ios": "https://dc.lft.to/lastmile_qr_scan", "android": "https://dc.lft.to/lastmile_qr_scan"}, "is_reserved": 0, "fusion_lon": 0.0, "fusion_lat": 0.0, "lon": -77.00668, "name": "794a28916b53afbc710f5b77d9586d82"}, {"bike_id": "1685f9d6fe3a76c5360320960540ce21", "type": "electric_scooter", "is_disabled": 0, "lat": 38.91271616666667, "rental_uris": {"ios": "https://dc.lft.to/lastmile_qr_scan", "android": "https://dc.lft.to/lastmile_qr_scan"}, "is_reserved": 0, "fusion_lon": 0.0, "fusion_lat": 0.0, "lon": -77.029553, "name": "1685f9d6fe3a76c5360320960540ce21"}, {"bike_id": "2e34b5242690070235ec605a16580f5b", "type": "electric_scooter", "is_disabled": 0, "lat": 38.94114833333333, "rental_uris": {"ios": "https://dc.lft.to/lastmile_qr_scan", "android": "https://dc.lft.to/lastmile_qr_scan"}, "is_reserved": 0, "fusion_lon": 0.0, "fusion_lat": 0.0, "lon": -77.02536416666666, "name": "2e34b5242690070235ec605a16580f5b"}, {"bike_id": "0944555cba5f8ffa7e8bc5c9faaa1d49", "type": "electric_scooter", "is_disabled": 0, "lat": 38.916319, "rental_uris": {"ios": "https://dc.lft.to/lastmile_qr_scan", "android": "https://dc.lft.to/lastmile_qr_scan"}, "is_reserved": 0, "fusion_lon": 0.0, "fusion_lat": 0.0, "lon": -77.02543166666666, "name": "0944555cba5f8ffa7e8bc5c9faaa1d49"}, {"bike_id": "be9454cd934bdc5f1ec97c20db2420d5", "type": "electric_scooter", "is_disabled": 0, "lat": 38.90813716666667, "rental_uris": {"ios": "https://dc.lft.to/lastmile_qr_scan", "android": "https://dc.lft.to/lastmile_qr_scan"}, "is_reserved": 0, "fusion_lon": 0.0, "fusion_lat": 0.0, "lon": -77.06368283333333, "name": "be9454cd934bdc5f1ec97c20db2420d5"}, {"bike_id": "f96c17b4c60df2be041b34010c6b0c0d", "type": "electric_scooter", "is_disabled": 0, "lat": 38.93377616666667, "rental_uris": {"ios": "https://dc.lft.to/lastmile_qr_scan", "android": "https://dc.lft.to/lastmile_qr_scan"}, "is_reserved": 0, "fusion_lon": 0.0, "fusion_lat": 0.0, "lon": -77.05725433333333, "name": "f96c17b4c60df2be041b34010c6b0c0d"}, {"bike_id": "4f0868b674f54935a03f44572c3d40e0", "type": "electric_scooter", "is_disabled": 0, "lat": 38.885299833333335, "rental_uris": {"ios": "https://dc.lft.to/lastmile_qr_scan", "android": "https://dc.lft.to/lastmile_qr_scan"}, "is_reserved": 0, "fusion_lon": 0.0, "fusion_lat": 0.0, "lon": -76.99824316666667, "name": "4f0868b674f54935a03f44572c3d40e0"}, {"bike_id": "4cdb799edbed28c2a1d378536b016a1f", "type": "electric_scooter", "is_disabled": 0, "lat": 38.90380116666667, "rental_uris": {"ios": "https://dc.lft.to/lastmile_qr_scan", "android": "https://dc.lft.to/lastmile_qr_scan"}, "is_reserved": 0, "fusion_lon": 0.0, "fusion_lat": 0.0, "lon": -77.04889183333333, "name": "4cdb799edbed28c2a1d378536b016a1f"}, {"bike_id": "c76e849638008220a2289cbe65b931f2", "type": "electric_scooter", "is_disabled": 0, "lat": 38.90684533333334, "rental_uris": {"ios": "https://dc.lft.to/lastmile_qr_scan", "android": "https://dc.lft.to/lastmile_qr_scan"}, "is_reserved": 0, "fusion_lon": 0.0, "fusion_lat": 0.0, "lon": -77.05325233333333, "name": "c76e849638008220a2289cbe65b931f2"}, {"bike_id": "c524050a8a1ab862d85257af79ea3bc9", "type": "electric_scooter", "is_disabled": 0, "lat": 38.90870816666666, "rental_uris": {"ios": "https://dc.lft.to/lastmile_qr_scan", "android": "https://dc.lft.to/lastmile_qr_scan"}, "is_reserved": 0, "fusion_lon": 0.0, "fusion_lat": 0.0, "lon": -77.023944, "name": "c524050a8a1ab862d85257af79ea3bc9"}, {"bike_id": "98f1f5276527196a8f1e2420d8ab000e", "type": "electric_scooter", "is_disabled": 0, "lat": 38.909075666666666, "rental_uris": {"ios": "https://dc.lft.to/lastmile_qr_scan", "android": "https://dc.lft.to/lastmile_qr_scan"}, "is_reserved": 0, "fusion_lon": 0.0, "fusion_lat": 0.0, "lon": -77.03177316666667, "name": "98f1f5276527196a8f1e2420d8ab000e"}, {"bike_id": "92fa5c641519e26f67300159d5e4a94e", "type": "electric_scooter", "is_disabled": 0, "lat": 38.92216533333333, "rental_uris": {"ios": "https://dc.lft.to/lastmile_qr_scan", "android": "https://dc.lft.to/lastmile_qr_scan"}, "is_reserved": 0, "fusion_lon": 0.0, "fusion_lat": 0.0, "lon": -77.022062, "name": "92fa5c641519e26f67300159d5e4a94e"}, {"bike_id": "2f44e32daaff87ff73ff166a00a5269a", "type": "electric_scooter", "is_disabled": 0, "lat": 38.91564316666667, "rental_uris": {"ios": "https://dc.lft.to/lastmile_qr_scan", "android": "https://dc.lft.to/lastmile_qr_scan"}, "is_reserved": 0, "fusion_lon": 0.0, "fusion_lat": 0.0, "lon": -77.0319955, "name": "2f44e32daaff87ff73ff166a00a5269a"}, {"bike_id": "f7b9e7d793a31d2f6e83fa12db2dcf21", "type": "electric_bike", "is_disabled": 0, "lat": 38.80910516666667, "rental_uris": {"ios": "https://dc.lft.to/lastmile_qr_scan", "android": "https://dc.lft.to/lastmile_qr_scan"}, "is_reserved": 0, "fusion_lon": 0.0, "fusion_lat": 0.0, "lon": -77.0864575, "name": "f7b9e7d793a31d2f6e83fa12db2dcf21"}, {"bike_id": "f71b47e8ad3babfb14c8dc72da8d86fd", "type": "electric_scooter", "is_disabled": 0, "lat": 38.927980833333336, "rental_uris": {"ios": "https://dc.lft.to/lastmile_qr_scan", "android": "https://dc.lft.to/lastmile_qr_scan"}, "is_reserved": 0, "fusion_lon": 0.0, "fusion_lat": 0.0, "lon": -77.04317683333333, "name": "f71b47e8ad3babfb14c8dc72da8d86fd"}, {"bike_id": "46a11f903112511b5a5779bd6944a9bc", "type": "electric_scooter", "is_disabled": 0, "lat": 38.90694633333333, "rental_uris": {"ios": "https://dc.lft.to/lastmile_qr_scan", "android": "https://dc.lft.to/lastmile_qr_scan"}, "is_reserved": 0, "fusion_lon": 0.0, "fusion_lat": 0.0, "lon": -77.03676716666666, "name": "46a11f903112511b5a5779bd6944a9bc"}, {"bike_id": "c284f09cb3542b00ef5369a1b9bd73db", "type": "electric_scooter", "is_disabled": 0, "lat": 38.918165, "rental_uris": {"ios": "https://dc.lft.to/lastmile_qr_scan", "android": "https://dc.lft.to/lastmile_qr_scan"}, "is_reserved": 0, "fusion_lon": 0.0, "fusion_lat": 0.0, "lon": -77.04949733333333, "name": "c284f09cb3542b00ef5369a1b9bd73db"}, {"bike_id": "c061c728355d3f985f7056dfc2059cfa", "type": "electric_scooter", "is_disabled": 0, "lat": 38.96419783333333, "rental_uris": {"ios": "https://dc.lft.to/lastmile_qr_scan", "android": "https://dc.lft.to/lastmile_qr_scan"}, "is_reserved": 0, "fusion_lon": 0.0, "fusion_lat": 0.0, "lon": -77.0242315, "name": "c061c728355d3f985f7056dfc2059cfa"}, {"bike_id": "9704f826ba00addb1d55c05763b01582", "type": "electric_scooter", "is_disabled": 0, "lat": 38.910391833333335, "rental_uris": {"ios": "https://dc.lft.to/lastmile_qr_scan", "android": "https://dc.lft.to/lastmile_qr_scan"}, "is_reserved": 0, "fusion_lon": 0.0, "fusion_lat": 0.0, "lon": -77.03830533333333, "name": "9704f826ba00addb1d55c05763b01582"}, {"bike_id": "f82c76585b03f39b53720b1f0a5e866e", "type": "electric_scooter", "is_disabled": 0, "lat": 38.924522333333336, "rental_uris": {"ios": "https://dc.lft.to/lastmile_qr_scan", "android": "https://dc.lft.to/lastmile_qr_scan"}, "is_reserved": 0, "fusion_lon": 0.0, "fusion_lat": 0.0, "lon": -77.04200233333333, "name": "f82c76585b03f39b53720b1f0a5e866e"}, {"bike_id": "6da72f18c2540842f1969103678d3cb6", "type": "electric_scooter", "is_disabled": 0, "lat": 38.92219033333333, "rental_uris": {"ios": "https://dc.lft.to/lastmile_qr_scan", "android": "https://dc.lft.to/lastmile_qr_scan"}, "is_reserved": 0, "fusion_lon": 0.0, "fusion_lat": 0.0, "lon": -77.0329115, "name": "6da72f18c2540842f1969103678d3cb6"}, {"bike_id": "550bc7ab59ade2018725acc50d57abe3", "type": "electric_scooter", "is_disabled": 0, "lat": 38.89820316666667, "rental_uris": {"ios": "https://dc.lft.to/lastmile_qr_scan", "android": "https://dc.lft.to/lastmile_qr_scan"}, "is_reserved": 0, "fusion_lon": 0.0, "fusion_lat": 0.0, "lon": -77.0465535, "name": "550bc7ab59ade2018725acc50d57abe3"}, {"bike_id": "a7803ce36e402495fc1839ed8cfa1611", "type": "electric_scooter", "is_disabled": 0, "lat": 38.90759533333333, "rental_uris": {"ios": "https://dc.lft.to/lastmile_qr_scan", "android": "https://dc.lft.to/lastmile_qr_scan"}, "is_reserved": 0, "fusion_lon": 0.0, "fusion_lat": 0.0, "lon": -77.0357795, "name": "a7803ce36e402495fc1839ed8cfa1611"}, {"bike_id": "6615c9da3c42371f501a5d4b4ddd17e0", "type": "electric_scooter", "is_disabled": 0, "lat": 38.90989016666666, "rental_uris": {"ios": "https://dc.lft.to/lastmile_qr_scan", "android": "https://dc.lft.to/lastmile_qr_scan"}, "is_reserved": 0, "fusion_lon": 0.0, "fusion_lat": 0.0, "lon": -77.04264883333333, "name": "6615c9da3c42371f501a5d4b4ddd17e0"}, {"bike_id": "09981d912958b8b0bd58c28be825f460", "type": "electric_scooter", "is_disabled": 0, "lat": 38.915690833333336, "rental_uris": {"ios": "https://dc.lft.to/lastmile_qr_scan", "android": "https://dc.lft.to/lastmile_qr_scan"}, "is_reserved": 0, "fusion_lon": 0.0, "fusion_lat": 0.0, "lon": -77.044565, "name": "09981d912958b8b0bd58c28be825f460"}, {"bike_id": "a6b6a218e22b88869a779d3481180907", "type": "electric_bike", "is_disabled": 0, "lat": 38.89743216666667, "rental_uris": {"ios": "https://dc.lft.to/lastmile_qr_scan", "android": "https://dc.lft.to/lastmile_qr_scan"}, "is_reserved": 0, "fusion_lon": 0.0, "fusion_lat": 0.0, "lon": -76.92044883333334, "name": "a6b6a218e22b88869a779d3481180907"}, {"bike_id": "8b043b10ec14ee549b5381d5f5edccb1", "type": "electric_scooter", "is_disabled": 0, "lat": 38.9219205, "rental_uris": {"ios": "https://dc.lft.to/lastmile_qr_scan", "android": "https://dc.lft.to/lastmile_qr_scan"}, "is_reserved": 0, "fusion_lon": 0.0, "fusion_lat": 0.0, "lon": -77.01970216666666, "name": "8b043b10ec14ee549b5381d5f5edccb1"}, {"bike_id": "f8c8300f444929f4fce37e0619b9413c", "type": "electric_scooter", "is_disabled": 0, "lat": 38.91566683333333, "rental_uris": {"ios": "https://dc.lft.to/lastmile_qr_scan", "android": "https://dc.lft.to/lastmile_qr_scan"}, "is_reserved": 0, "fusion_lon": 0.0, "fusion_lat": 0.0, "lon": -77.02020066666667, "name": "f8c8300f444929f4fce37e0619b9413c"}, {"bike_id": "c7622a9cc63d2d91d337451c9b415b3c", "type": "electric_scooter", "is_disabled": 0, "lat": 38.9195845, "rental_uris": {"ios": "https://dc.lft.to/lastmile_qr_scan", "android": "https://dc.lft.to/lastmile_qr_scan"}, "is_reserved": 0, "fusion_lon": 0.0, "fusion_lat": 0.0, "lon": -77.01437883333334, "name": "c7622a9cc63d2d91d337451c9b415b3c"}, {"bike_id": "33dde154b326d69521fc0b05699d7cc7", "type": "electric_scooter", "is_disabled": 0, "lat": 38.91609233333333, "rental_uris": {"ios": "https://dc.lft.to/lastmile_qr_scan", "android": "https://dc.lft.to/lastmile_qr_scan"}, "is_reserved": 0, "fusion_lon": 0.0, "fusion_lat": 0.0, "lon": -77.02277016666666, "name": "33dde154b326d69521fc0b05699d7cc7"}, {"bike_id": "bd005ceb37655d0d3ba27ee1bd764220", "type": "electric_scooter", "is_disabled": 0, "lat": 38.90146633333333, "rental_uris": {"ios": "https://dc.lft.to/lastmile_qr_scan", "android": "https://dc.lft.to/lastmile_qr_scan"}, "is_reserved": 0, "fusion_lon": 0.0, "fusion_lat": 0.0, "lon": -76.99071833333333, "name": "bd005ceb37655d0d3ba27ee1bd764220"}, {"bike_id": "8c4efa3f78a02049e985e598880e2a45", "type": "electric_scooter", "is_disabled": 0, "lat": 38.90770716666667, "rental_uris": {"ios": "https://dc.lft.to/lastmile_qr_scan", "android": "https://dc.lft.to/lastmile_qr_scan"}, "is_reserved": 0, "fusion_lon": 0.0, "fusion_lat": 0.0, "lon": -77.027077, "name": "8c4efa3f78a02049e985e598880e2a45"}, {"bike_id": "e573a34f41d5a5218b3038b5d39da366", "type": "electric_bike", "is_disabled": 0, "lat": 39.01479533333333, "rental_uris": {"ios": "https://dc.lft.to/lastmile_qr_scan", "android": "https://dc.lft.to/lastmile_qr_scan"}, "is_reserved": 0, "fusion_lon": 0.0, "fusion_lat": 0.0, "lon": -77.05491916666666, "name": "e573a34f41d5a5218b3038b5d39da366"}, {"bike_id": "028787b8dcec1ca4a1f2e1be8f5a3e3d", "type": "electric_scooter", "is_disabled": 0, "lat": 38.901108666666666, "rental_uris": {"ios": "https://dc.lft.to/lastmile_qr_scan", "android": "https://dc.lft.to/lastmile_qr_scan"},