{"data": {"bikes": [{"lon": -76.9993385, "lat": 38.896191, "name": "03305a9c6f720d4c0450beb83c3308bb", "fusion_lat": 0.0, "fusion_lon": 0.0, "rental_uris": {"android": "https://dc.lft.to/lastmile_qr_scan", "ios": "https://dc.lft.to/lastmile_qr_scan"}, "is_reserved": 0, "is_disabled": 0, "type": "electric_scooter", "bike_id": "03305a9c6f720d4c0450beb83c3308bb"}, {"lon": -77.03456766666666, "lat": 38.9048795, "name": "4749f712868d8dc5c1678a4bebfe5ba5", "fusion_lat": 0.0, "fusion_lon": 0.0, "rental_uris": {"android": "https://dc.lft.to/lastmile_qr_scan", "ios": "https://dc.lft.to/lastmile_qr_scan"}, "is_reserved": 0, "is_disabled": 0, "type": "electric_scooter", "bike_id": "4749f712868d8dc5c1678a4bebfe5ba5"}, {"lon": -77.0235645, "lat": 38.929899666666664, "name": "1553a4514377cae86c4da32e68496985", "fusion_lat": 0.0, "fusion_lon": 0.0, "rental_uris": {"android": "https://dc.lft.to/lastmile_qr_scan", "ios": "https://dc.lft.to/lastmile_qr_scan"}, "is_reserved": 0, "is_disabled": 0, "type": "electric_scooter", "bike_id": "1553a4514377cae86c4da32e68496985"}, {"lon": -76.95208483333333, "lat": 38.93670633333333, "name": "8992b86d88288171ea7a71738c7b838a", "fusion_lat": 0.0, "fusion_lon": 0.0, "rental_uris": {"android": "https://dc.lft.to/lastmile_qr_scan", "ios": "https://dc.lft.to/lastmile_qr_scan"}, "is_reserved": 0, "is_disabled": 0, "type": "electric_bike", "bike_id": "8992b86d88288171ea7a71738c7b838a"}, {"lon": -77.02832416666666, "lat": 38.91704333333333, "name": "ff1f43e1ae9fb2c2146f4473dda186e2", "fusion_lat": 0.0, "fusion_lon": 0.0, "rental_uris": {"android": "https://dc.lft.to/lastmile_qr_scan", "ios": "https://dc.lft.to/lastmile_qr_scan"}, "is_reserved": 0, "is_disabled": 0, "type": "electric_scooter", "bike_id": "ff1f43e1ae9fb2c2146f4473dda186e2"}, {"lon": -77.02780983333334, "lat": 38.92772866666667, "name": "f3d5c11c01ec147b3759713686c5f3c1", "fusion_lat": 0.0, "fusion_lon": 0.0, "rental_uris": {"android": "https://dc.lft.to/lastmile_qr_scan", "ios": "https://dc.lft.to/lastmile_qr_scan"}, "is_reserved": 0, "is_disabled": 0, "type": "electric_scooter", "bike_id": "f3d5c11c01ec147b3759713686c5f3c1"}, {"lon": -77.034168, "lat": 38.91923883333333, "name": "37926e318d2c3580f344de3060636080", "fusion_lat": 0.0, "fusion_lon": 0.0, "rental_uris": {"android": "https://dc.lft.to/lastmile_qr_scan", "ios": "https://dc.lft.to/lastmile_qr_scan"}, "is_reserved": 0, "is_disabled": 0, "type": "electric_scooter", "bike_id": "37926e318d2c3580f344de3060636080"}, {"lon": -77.03215583333333, "lat": 38.919994, "name": "10b6b1c210a922506927f4bad576b122", "fusion_lat": 0.0, "fusion_lon": 0.0, "rental_uris": {"android": "https://dc.lft.to/lastmile_qr_scan", "ios": "https://dc.lft.to/lastmile_qr_scan"}, "is_reserved": 0, "is_disabled": 0, "type": "electric_scooter", "bike_id": "10b6b1c210a922506927f4bad576b122"}, {"lon": -76.9318555, "lat": 38.89877166666667, "name": "1400caf2b6a3e2774ded36ee01afdacc", "fusion_lat": 0.0, "fusion_lon": 0.0, "rental_uris": {"android": "https://dc.lft.to/lastmile_qr_scan", "ios": "https://dc.lft.to/lastmile_qr_scan"}, "is_reserved": 0, "is_disabled": 0, "type": "electric_scooter", "bike_id": "1400caf2b6a3e2774ded36ee01afdacc"}, {"lon": -76.96489, "lat": 38.875527166666664, "name": "d1805dc23d8d068b9911735ba5c09597", "fusion_lat": 0.0, "fusion_lon": 0.0, "rental_uris": {"android": "https://dc.lft.to/lastmile_qr_scan", "ios": "https://dc.lft.to/lastmile_qr_scan"}, "is_reserved": 0, "is_disabled": 0, "type": "electric_bike", "bike_id": "d1805dc23d8d068b9911735ba5c09597"}, {"lon": -77.001349, "lat": 38.90414766666667, "name": "149c95ec0c0c1fa8df93266bcf4d7cba", "fusion_lat": 0.0, "fusion_lon": 0.0, "rental_uris": {"android": "https://dc.lft.to/lastmile_qr_scan", "ios": "https://dc.lft.to/lastmile_qr_scan"}, "is_reserved": 0, "is_disabled": 0, "type": "electric_scooter", "bike_id": "149c95ec0c0c1fa8df93266bcf4d7cba"}, {"lon": -77.0160805, "lat": 38.87689916666667, "name": "5ae2a8a28d0881fe05f754dac7d6ba89", "fusion_lat": 0.0, "fusion_lon": 0.0, "rental_uris": {"android": "https://dc.lft.to/lastmile_qr_scan", "ios": "https://dc.lft.to/lastmile_qr_scan"}, "is_reserved": 0, "is_disabled": 0, "type": "electric_scooter", "bike_id": "5ae2a8a28d0881fe05f754dac7d6ba89"}, {"lon": -77.0544295, "lat": 38.90273416666667, "name": "4ffce60de1798f4720d63bdb6421d928", "fusion_lat": 0.0, "fusion_lon": 0.0, "rental_uris": {"android": "https://dc.lft.to/lastmile_qr_scan", "ios": "https://dc.lft.to/lastmile_qr_scan"}, "is_reserved": 0, "is_disabled": 0, "type": "electric_scooter", "bike_id": "4ffce60de1798f4720d63bdb6421d928"}, {"lon": -77.01392833333334, "lat": 38.92860533333333, "name": "3c7bbf5093acdc21a8de25181ae5771b", "fusion_lat": 0.0, "fusion_lon": 0.0, "rental_uris": {"android": "https://dc.lft.to/lastmile_qr_scan", "ios": "https://dc.lft.to/lastmile_qr_scan"}, "is_reserved": 0, "is_disabled": 0, "type": "electric_scooter", "bike_id": "3c7bbf5093acdc21a8de25181ae5771b"}, {"lon": -77.02205766666667, "lat": 38.895017833333334, "name": "c0f5a4670542b003901e31b21761477f", "fusion_lat": 0.0, "fusion_lon": 0.0, "rental_uris": {"android": "https://dc.lft.to/lastmile_qr_scan", "ios": "https://dc.lft.to/lastmile_qr_scan"}, "is_reserved": 0, "is_disabled": 0, "type": "electric_scooter", "bike_id": "c0f5a4670542b003901e31b21761477f"}, {"lon": -77.03659683333333, "lat": 38.911742833333335, "name": "4b739e4bb2e1bfbef2e4d0d0fa1818d8", "fusion_lat": 0.0, "fusion_lon": 0.0, "rental_uris": {"android": "https://dc.lft.to/lastmile_qr_scan", "ios": "https://dc.lft.to/lastmile_qr_scan"}, "is_reserved": 0, "is_disabled": 0, "type": "electric_scooter", "bike_id": "4b739e4bb2e1bfbef2e4d0d0fa1818d8"}, {"lon": -77.034715, "lat": 38.92873983333333, "name": "4a58025b72a5c83c16c4fcdd64d843f2", "fusion_lat": 0.0, "fusion_lon": 0.0, "rental_uris": {"android": "https://dc.lft.to/lastmile_qr_scan", "ios": "https://dc.lft.to/lastmile_qr_scan"}, "is_reserved": 0, "is_disabled": 0, "type": "electric_scooter", "bike_id": "4a58025b72a5c83c16c4fcdd64d843f2"}, {"lon": -77.0237335, "lat": 38.90206, "name": "068c75ccd4d068cbca6898dbff66af7a", "fusion_lat": 0.0, "fusion_lon": 0.0, "rental_uris": {"android": "https://dc.lft.to/lastmile_qr_scan", "ios": "https://dc.lft.to/lastmile_qr_scan"}, "is_reserved": 0, "is_disabled": 0, "type": "electric_scooter", "bike_id": "068c75ccd4d068cbca6898dbff66af7a"}, {"lon": -77.0144905, "lat": 38.877833833333334, "name": "b4277695c6b403f13412616e8972fafa", "fusion_lat": 0.0, "fusion_lon": 0.0, "rental_uris": {"android": "https://dc.lft.to/lastmile_qr_scan", "ios": "https://dc.lft.to/lastmile_qr_scan"}, "is_reserved": 0, "is_disabled": 0, "type": "electric_scooter", "bike_id": "b4277695c6b403f13412616e8972fafa"}, {"lon": -77.13596716666666, "lat": 39.05347716666667, "name": "953882811642751af11ab5676b339043", "fusion_lat": 0.0, "fusion_lon": 0.0, "rental_uris": {"android": "https://dc.lft.to/lastmile_qr_scan", "ios": "https://dc.lft.to/lastmile_qr_scan"}, "is_reserved": 0, "is_disabled": 0, "type": "electric_bike", "bike_id": "953882811642751af11ab5676b339043"}, {"lon": -76.9875555, "lat": 38.84500233333333, "name": "a2812abd69f77ce64de56fdf3fdd0dd0", "fusion_lat": 0.0, "fusion_lon": 0.0, "rental_uris": {"android": "https://dc.lft.to/lastmile_qr_scan", "ios": "https://dc.lft.to/lastmile_qr_scan"}, "is_reserved": 0, "is_disabled": 0, "type": "electric_scooter", "bike_id": "a2812abd69f77ce64de56fdf3fdd0dd0"}, {"lon": -76.94858633333334, "lat": 38.8830275, "name": "6aa72ca435acc37b1cd5f8240bd68de9", "fusion_lat": 0.0, "fusion_lon": 0.0, "rental_uris": {"android": "https://dc.lft.to/lastmile_qr_scan", "ios": "https://dc.lft.to/lastmile_qr_scan"}, "is_reserved": 0, "is_disabled": 0, "type": "electric_scooter", "bike_id": "6aa72ca435acc37b1cd5f8240bd68de9"}, {"lon": -77.03654316666666, "lat": 38.929177833333334, "name": "ecc857c5e6cb7235d61ca3e92c1ababa", "fusion_lat": 0.0, "fusion_lon": 0.0, "rental_uris": {"android": "https://dc.lft.to/lastmile_qr_scan", "ios": "https://dc.lft.to/lastmile_qr_scan"}, "is_reserved": 0, "is_disabled": 0, "type": "electric_scooter", "bike_id": "ecc857c5e6cb7235d61ca3e92c1ababa"}, {"lon": -77.02632283333334, "lat": 38.892205833333335, "name": "697c19535544d9c8be823a3c286589f4", "fusion_lat": 0.0, "fusion_lon": 0.0, "rental_uris": {"android": "https://dc.lft.to/lastmile_qr_scan", "ios": "https://dc.lft.to/lastmile_qr_scan"}, "is_reserved": 0, "is_disabled": 0, "type": "electric_scooter", "bike_id": "697c19535544d9c8be823a3c286589f4"}, {"lon": -77.05283183333333, "lat": 38.92612883333334, "name": "c907c9c700711e338a24e608951949ca", "fusion_lat": 0.0, "fusion_lon": 0.0, "rental_uris": {"android": "https://dc.lft.to/lastmile_qr_scan", "ios": "https://dc.lft.to/lastmile_qr_scan"}, "is_reserved": 0, "is_disabled": 0, "type": "electric_scooter", "bike_id": "c907c9c700711e338a24e608951949ca"}, {"lon": -76.99272966666666, "lat": 38.8968945, "name": "c0a8f6acbcfb29866e0be52024bc9b8f", "fusion_lat": 0.0, "fusion_lon": 0.0, "rental_uris": {"android": "https://dc.lft.to/lastmile_qr_scan", "ios": "https://dc.lft.to/lastmile_qr_scan"}, "is_reserved": 0, "is_disabled": 0, "type": "electric_scooter", "bike_id": "c0a8f6acbcfb29866e0be52024bc9b8f"}, {"lon": -77.0334795, "lat": 38.88505116666666, "name": "6ae9e013cf62b5d5f4f508b070075642", "fusion_lat": 0.0, "fusion_lon": 0.0, "rental_uris": {"android": "https://dc.lft.to/lastmile_qr_scan", "ios": "https://dc.lft.to/lastmile_qr_scan"}, "is_reserved": 0, "is_disabled": 0, "type": "electric_scooter", "bike_id": "6ae9e013cf62b5d5f4f508b070075642"}, {"lon": -76.99317183333334, "lat": 38.85759433333333, "name": "ddeacaea456baba855f482a0e6c515d7", "fusion_lat": 0.0, "fusion_lon": 0.0, "rental_uris": {"android": "https://dc.lft.to/lastmile_qr_scan", "ios": "https://dc.lft.to/lastmile_qr_scan"}, "is_reserved": 0, "is_disabled": 0, "type": "electric_scooter", "bike_id": "ddeacaea456baba855f482a0e6c515d7"}, {"lon": -76.94839083333333, "lat": 38.89494083333334, "name": "a0e84935c52a8f1b793640ee36401f56", "fusion_lat": 0.0, "fusion_lon": 0.0, "rental_uris": {"android": "https://dc.lft.to/lastmile_qr_scan", "ios": "https://dc.lft.to/lastmile_qr_scan"}, "is_reserved": 0, "is_disabled": 0, "type": "electric_scooter", "bike_id": "a0e84935c52a8f1b793640ee36401f56"}, {"lon": -77.032814, "lat": 38.93878433333333, "name": "f527e7e9f2a310c77086f96bbdfbd42a", "fusion_lat": 0.0, "fusion_lon": 0.0, "rental_uris": {"android": "https://dc.lft.to/lastmile_qr_scan", "ios": "https://dc.lft.to/lastmile_qr_scan"}, "is_reserved": 0, "is_disabled": 0, "type": "electric_scooter", "bike_id": "f527e7e9f2a310c77086f96bbdfbd42a"}, {"lon": -76.93173716666666, "lat": 38.898849, "name": "805dfa1a4c6b6a25b87f848f2e76ab82", "fusion_lat": 0.0, "fusion_lon": 0.0, "rental_uris": {"android": "https://dc.lft.to/lastmile_qr_scan", "ios": "https://dc.lft.to/lastmile_qr_scan"}, "is_reserved": 0, "is_disabled": 0, "type": "electric_scooter", "bike_id": "805dfa1a4c6b6a25b87f848f2e76ab82"}, {"lon": -76.94853633333334, "lat": 38.88299516666667, "name": "ebbcba437b309cd65c0db561ef7ce05e", "fusion_lat": 0.0, "fusion_lon": 0.0, "rental_uris": {"android": "https://dc.lft.to/lastmile_qr_scan", "ios": "https://dc.lft.to/lastmile_qr_scan"}, "is_reserved": 0, "is_disabled": 0, "type": "electric_scooter", "bike_id": "ebbcba437b309cd65c0db561ef7ce05e"}, {"lon": -77.04573433333333, "lat": 38.921301, "name": "0746b880ea38e216a3f32115ceadfa68", "fusion_lat": 0.0, "fusion_lon": 0.0, "rental_uris": {"android": "https://dc.lft.to/lastmile_qr_scan", "ios": "https://dc.lft.to/lastmile_qr_scan"}, "is_reserved": 0, "is_disabled": 0, "type": "electric_scooter", "bike_id": "0746b880ea38e216a3f32115ceadfa68"}, {"lon": -77.03444483333334, "lat": 38.91823333333333, "name": "a53e3315a35fd2d9536fedbda936129a", "fusion_lat": 0.0, "fusion_lon": 0.0, "rental_uris": {"android": "https://dc.lft.to/lastmile_qr_scan", "ios": "https://dc.lft.to/lastmile_qr_scan"}, "is_reserved": 0, "is_disabled": 0, "type": "electric_scooter", "bike_id": "a53e3315a35fd2d9536fedbda936129a"}, {"lon": -77.05511533333333, "lat": 38.944166833333334, "name": "7e0fe7c49c49850eec3d0cb4c4d1bc70", "fusion_lat": 0.0, "fusion_lon": 0.0, "rental_uris": {"android": "https://dc.lft.to/lastmile_qr_scan", "ios": "https://dc.lft.to/lastmile_qr_scan"}, "is_reserved": 0, "is_disabled": 0, "type": "electric_scooter", "bike_id": "7e0fe7c49c49850eec3d0cb4c4d1bc70"}, {"lon": -77.03597366666666, "lat": 38.926862, "name": "6ab5a25c262953c3739436ebfc1e7707", "fusion_lat": 0.0, "fusion_lon": 0.0, "rental_uris": {"android": "https://dc.lft.to/lastmile_qr_scan", "ios": "https://dc.lft.to/lastmile_qr_scan"}, "is_reserved": 0, "is_disabled": 0, "type": "electric_scooter", "bike_id": "6ab5a25c262953c3739436ebfc1e7707"}, {"lon": -77.01463083333333, "lat": 38.917697833333335, "name": "27e97e16da9ed3db71a4c96339ed5d01", "fusion_lat": 0.0, "fusion_lon": 0.0, "rental_uris": {"android": "https://dc.lft.to/lastmile_qr_scan", "ios": "https://dc.lft.to/lastmile_qr_scan"}, "is_reserved": 0, "is_disabled": 0, "type": "electric_scooter", "bike_id": "27e97e16da9ed3db71a4c96339ed5d01"}, {"lon": -76.99513083333333, "lat": 38.89483216666667, "name": "e6721e1a10761562b88a8d28eafa3329", "fusion_lat": 0.0, "fusion_lon": 0.0, "rental_uris": {"android": "https://dc.lft.to/lastmile_qr_scan", "ios": "https://dc.lft.to/lastmile_qr_scan"}, "is_reserved": 0, "is_disabled": 0, "type": "electric_scooter", "bike_id": "e6721e1a10761562b88a8d28eafa3329"}, {"lon": -77.02500166666667, "lat": 38.90726433333333, "name": "cd0534006366ffa96f715c6ff4e6dc83", "fusion_lat": 0.0, "fusion_lon": 0.0, "rental_uris": {"android": "https://dc.lft.to/lastmile_qr_scan", "ios": "https://dc.lft.to/lastmile_qr_scan"}, "is_reserved": 0, "is_disabled": 0, "type": "electric_scooter", "bike_id": "cd0534006366ffa96f715c6ff4e6dc83"}, {"lon": -76.99140166666666, "lat": 38.900141166666664, "name": "6cba341ac82ad8f55936df39efc87126", "fusion_lat": 0.0, "fusion_lon": 0.0, "rental_uris": {"android": "https://dc.lft.to/lastmile_qr_scan", "ios": "https://dc.lft.to/lastmile_qr_scan"}, "is_reserved": 0, "is_disabled": 0, "type": "electric_scooter", "bike_id": "6cba341ac82ad8f55936df39efc87126"}, {"lon": -77.04492183333333, "lat": 38.902895666666666, "name": "07bdfdb22569d1902e108deb89c9b7de", "fusion_lat": 0.0, "fusion_lon": 0.0, "rental_uris": {"android": "https://dc.lft.to/lastmile_qr_scan", "ios": "https://dc.lft.to/lastmile_qr_scan"}, "is_reserved": 0, "is_disabled": 0, "type": "electric_scooter", "bike_id": "07bdfdb22569d1902e108deb89c9b7de"}, {"lon": -76.979179, "lat": 38.8943675, "name": "c7ca0186d70f078e3a7445d35c8c40b5", "fusion_lat": 0.0, "fusion_lon": 0.0, "rental_uris": {"android": "https://dc.lft.to/lastmile_qr_scan", "ios": "https://dc.lft.to/lastmile_qr_scan"}, "is_reserved": 0, "is_disabled": 0, "type": "electric_scooter", "bike_id": "c7ca0186d70f078e3a7445d35c8c40b5"}, {"lon": -77.02416, "lat": 38.90421416666667, "name": "15e5fe915dc2e9e0516f771b1ca1c067", "fusion_lat": 0.0, "fusion_lon": 0.0, "rental_uris": {"android": "https://dc.lft.to/lastmile_qr_scan", "ios": "https://dc.lft.to/lastmile_qr_scan"}, "is_reserved": 0, "is_disabled": 0, "type": "electric_scooter", "bike_id": "15e5fe915dc2e9e0516f771b1ca1c067"}, {"lon": -77.0392035, "lat": 38.9183835, "name": "9de2261953ea07b6a149da64dbbf5abb", "fusion_lat": 0.0, "fusion_lon": 0.0, "rental_uris": {"android": "https://dc.lft.to/lastmile_qr_scan", "ios": "https://dc.lft.to/lastmile_qr_scan"}, "is_reserved": 0, "is_disabled": 0, "type": "electric_scooter", "bike_id": "9de2261953ea07b6a149da64dbbf5abb"}, {"lon": -77.046559, "lat": 38.89337833333333, "name": "d1bb763a0fa7f380173ed4402dc5b4d6", "fusion_lat": 0.0, "fusion_lon": 0.0, "rental_uris": {"android": "https://dc.lft.to/lastmile_qr_scan", "ios": "https://dc.lft.to/lastmile_qr_scan"}, "is_reserved": 0, "is_disabled": 0, "type": "electric_scooter", "bike_id": "d1bb763a0fa7f380173ed4402dc5b4d6"}, {"lon": -77.03636083333333, "lat": 38.918834, "name": "2f254ec2c7739a39867a7e37f48f3e72", "fusion_lat": 0.0, "fusion_lon": 0.0, "rental_uris": {"android": "https://dc.lft.to/lastmile_qr_scan", "ios": "https://dc.lft.to/lastmile_qr_scan"}, "is_reserved": 0, "is_disabled": 0, "type": "electric_scooter", "bike_id": "2f254ec2c7739a39867a7e37f48f3e72"}, {"lon": -77.0445375, "lat": 38.918517, "name": "24629a3ff0127327fd9e44f007afed6d", "fusion_lat": 0.0, "fusion_lon": 0.0, "rental_uris": {"android": "https://dc.lft.to/lastmile_qr_scan", "ios": "https://dc.lft.to/lastmile_qr_scan"}, "is_reserved": 0, "is_disabled": 0, "type": "electric_scooter", "bike_id": "24629a3ff0127327fd9e44f007afed6d"}, {"lon": -77.032301, "lat": 38.930508833333334, "name": "e39070f667b49b2d0e1d665b21c682ce", "fusion_lat": 0.0, "fusion_lon": 0.0, "rental_uris": {"android": "https://dc.lft.to/lastmile_qr_scan", "ios": "https://dc.lft.to/lastmile_qr_scan"}, "is_reserved": 0, "is_disabled": 0, "type": "electric_scooter", "bike_id": "e39070f667b49b2d0e1d665b21c682ce"}, {"lon": -77.038767, "lat": 38.91409616666667, "name": "b0145a8b7389b0ed23018236b59ef552", "fusion_lat": 0.0, "fusion_lon": 0.0, "rental_uris": {"android": "https://dc.lft.to/lastmile_qr_scan", "ios": "https://dc.lft.to/lastmile_qr_scan"}, "is_reserved": 0, "is_disabled": 0, "type": "electric_scooter", "bike_id": "b0145a8b7389b0ed23018236b59ef552"}, {"lon": -77.0102555, "lat": 38.9212595, "name": "7af7b9e9406e41a2948f693e9dff428d", "fusion_lat": 0.0, "fusion_lon": 0.0, "rental_uris": {"android": "https://dc.lft.to/lastmile_qr_scan", "ios": "https://dc.lft.to/lastmile_qr_scan"}, "is_reserved": 0, "is_disabled": 0, "type": "electric_scooter", "bike_id": "7af7b9e9406e41a2948f693e9dff428d"}, {"lon": -77.1068255, "lat": 38.93585016666667, "name": "6a34b130c62d91a67444be078fc731f2", "fusion_lat": 0.0, "fusion_lon": 0.0, "rental_uris": {"android": "https://dc.lft.to/lastmile_qr_scan", "ios": "https://dc.lft.to/lastmile_qr_scan"}, "is_reserved": 0, "is_disabled": 0, "type": "electric_bike", "bike_id": "6a34b130c62d91a67444be078fc731f2"}, {"lon": -76.994247, "lat": 38.901418, "name": "66b841146bb1a76e4688f5ecda3163c4", "fusion_lat": 0.0, "fusion_lon": 0.0, "rental_uris": {"android": "https://dc.lft.to/lastmile_qr_scan", "ios": "https://dc.lft.to/lastmile_qr_scan"}, "is_reserved": 0, "is_disabled": 0, "type": "electric_scooter", "bike_id": "66b841146bb1a76e4688f5ecda3163c4"}, {"lon": -76.998692, "lat": 38.90030016666667, "name": "a048e7259ea498e3790ddcf94eec03f1", "fusion_lat": 0.0, "fusion_lon": 0.0, "rental_uris": {"android": "https://dc.lft.to/lastmile_qr_scan", "ios": "https://dc.lft.to/lastmile_qr_scan"}, "is_reserved": 0, "is_disabled": 0, "type": "electric_scooter", "bike_id": "a048e7259ea498e3790ddcf94eec03f1"}, {"lon": -76.99007433333334, "lat": 38.865131166666664, "name": "56b33afa886cb971ba5684d544eafadd", "fusion_lat": 0.0, "fusion_lon": 0.0, "rental_uris": {"android": "https://dc.lft.to/lastmile_qr_scan", "ios": "https://dc.lft.to/lastmile_qr_scan"}, "is_reserved": 0, "is_disabled": 0, "type": "electric_scooter", "bike_id": "56b33afa886cb971ba5684d544eafadd"}, {"lon": -77.02414966666667, "lat": 38.93490166666667, "name": "942369da8f38c272e9dceab7f2cdf0f6", "fusion_lat": 0.0, "fusion_lon": 0.0, "rental_uris": {"android": "https://dc.lft.to/lastmile_qr_scan", "ios": "https://dc.lft.to/lastmile_qr_scan"}, "is_reserved": 0, "is_disabled": 0, "type": "electric_scooter", "bike_id": "942369da8f38c272e9dceab7f2cdf0f6"}, {"lon": -76.93434533333334, "lat": 38.899676, "name": "98d56a05d29334dddccb1ccb873fc8de", "fusion_lat": 0.0, "fusion_lon": 0.0, "rental_uris": {"android": "https://dc.lft.to/lastmile_qr_scan", "ios": "https://dc.lft.to/lastmile_qr_scan"}, "is_reserved": 0, "is_disabled": 0, "type": "electric_scooter", "bike_id": "98d56a05d29334dddccb1ccb873fc8de"}, {"lon": -77.0514405, "lat": 38.908029666666664, "name": "eb381114f223df80e02848dcf2a38158", "fusion_lat": 0.0, "fusion_lon": 0.0, "rental_uris": {"android": "https://dc.lft.to/lastmile_qr_scan", "ios": "https://dc.lft.to/lastmile_qr_scan"}, "is_reserved": 0, "is_disabled": 0, "type": "electric_scooter", "bike_id": "eb381114f223df80e02848dcf2a38158"}, {"lon": -76.9926655, "lat": 38.899823833333336, "name": "26663cdebbe3a18e5b13e404fceeecc1", "fusion_lat": 0.0, "fusion_lon": 0.0, "rental_uris": {"android": "https://dc.lft.to/lastmile_qr_scan", "ios": "https://dc.lft.to/lastmile_qr_scan"}, "is_reserved": 0, "is_disabled": 0, "type": "electric_scooter", "bike_id": "26663cdebbe3a18e5b13e404fceeecc1"}, {"lon": -77.06925733333334, "lat": 38.942852, "name": "3c28ee6e42ac0dafee35363eab98d4d0", "fusion_lat": 0.0, "fusion_lon": 0.0, "rental_uris": {"android": "https://dc.lft.to/lastmile_qr_scan", "ios": "https://dc.lft.to/lastmile_qr_scan"}, "is_reserved": 0, "is_disabled": 0, "type": "electric_bike", "bike_id": "3c28ee6e42ac0dafee35363eab98d4d0"}, {"lon": -76.98781366666667, "lat": 38.90034633333333, "name": "bb1ba74273c5cb4be52f95fe22d0b022", "fusion_lat": 0.0, "fusion_lon": 0.0, "rental_uris": {"android": "https://dc.lft.to/lastmile_qr_scan", "ios": "https://dc.lft.to/lastmile_qr_scan"}, "is_reserved": 0, "is_disabled": 0, "type": "electric_scooter", "bike_id": "bb1ba74273c5cb4be52f95fe22d0b022"}, {"lon": -76.99024166666666, "lat": 38.864076, "name": "1024dafbd6e92b84ca343e2217227480", "fusion_lat": 0.0, "fusion_lon": 0.0, "rental_uris": {"android": "https://dc.lft.to/lastmile_qr_scan", "ios": "https://dc.lft.to/lastmile_qr_scan"}, "is_reserved": 0, "is_disabled": 0, "type": "electric_scooter", "bike_id": "1024dafbd6e92b84ca343e2217227480"}, {"lon": -77.0263375, "lat": 38.9155545, "name": "ada7f21dda5fab568f9d37ed97df1809", "fusion_lat": 0.0, "fusion_lon": 0.0, "rental_uris": {"android": "https://dc.lft.to/lastmile_qr_scan", "ios": "https://dc.lft.to/lastmile_qr_scan"}, "is_reserved": 0, "is_disabled": 0, "type": "electric_scooter", "bike_id": "ada7f21dda5fab568f9d37ed97df1809"}, {"lon": -77.0796575, "lat": 38.94860766666667, "name": "616a65c55b3cbc1a63086ae3c344c46a", "fusion_lat": 0.0, "fusion_lon": 0.0, "rental_uris": {"android": "https://dc.lft.to/lastmile_qr_scan", "ios": "https://dc.lft.to/lastmile_qr_scan"}, "is_reserved": 0, "is_disabled": 0, "type": "electric_scooter", "bike_id": "616a65c55b3cbc1a63086ae3c344c46a"}, {"lon": -77.003415, "lat": 38.90361333333333, "name": "4ae46cb295ac637939da9bbbd0296681", "fusion_lat": 0.0, "fusion_lon": 0.0, "rental_uris": {"android": "https://dc.lft.to/lastmile_qr_scan", "ios": "https://dc.lft.to/lastmile_qr_scan"}, "is_reserved": 0, "is_disabled": 0, "type": "electric_scooter", "bike_id": "4ae46cb295ac637939da9bbbd0296681"}, {"lon": -77.0138775, "lat": 38.875959, "name": "370b6052b3ddacffb3206c6bb557e404", "fusion_lat": 0.0, "fusion_lon": 0.0, "rental_uris": {"android": "https://dc.lft.to/lastmile_qr_scan", "ios": "https://dc.lft.to/lastmile_qr_scan"}, "is_reserved": 0, "is_disabled": 0, "type": "electric_scooter", "bike_id": "370b6052b3ddacffb3206c6bb557e404"}, {"lon": -77.04968383333333, "lat": 38.912591666666664, "name": "7d55451b282a75ac5dd510ef9b4aba1e", "fusion_lat": 0.0, "fusion_lon": 0.0, "rental_uris": {"android": "https://dc.lft.to/lastmile_qr_scan", "ios": "https://dc.lft.to/lastmile_qr_scan"}, "is_reserved": 0, "is_disabled": 0, "type": "electric_scooter", "bike_id": "7d55451b282a75ac5dd510ef9b4aba1e"}, {"lon": -76.92998966666667, "lat": 38.887963666666664, "name": "deb368fa17a47d83b943e17b41089b5f", "fusion_lat": 0.0, "fusion_lon": 0.0, "rental_uris": {"android": "https://dc.lft.to/lastmile_qr_scan", "ios": "https://dc.lft.to/lastmile_qr_scan"}, "is_reserved": 0, "is_disabled": 0, "type": "electric_bike", "bike_id": "deb368fa17a47d83b943e17b41089b5f"}, {"lon": -77.03966116666666, "lat": 38.9198505, "name": "e14231cd3b8853298dff72237a900985", "fusion_lat": 0.0, "fusion_lon": 0.0, "rental_uris": {"android": "https://dc.lft.to/lastmile_qr_scan", "ios": "https://dc.lft.to/lastmile_qr_scan"}, "is_reserved": 0, "is_disabled": 0, "type": "electric_scooter", "bike_id": "e14231cd3b8853298dff72237a900985"}, {"lon": -77.023765, "lat": 38.907216, "name": "0d904509651b2b332a80ea087f2df88f", "fusion_lat": 0.0, "fusion_lon": 0.0, "rental_uris": {"android": "https://dc.lft.to/lastmile_qr_scan", "ios": "https://dc.lft.to/lastmile_qr_scan"}, "is_reserved": 0, "is_disabled": 0, "type": "electric_scooter", "bike_id": "0d904509651b2b332a80ea087f2df88f"}, {"lon": -77.03257283333333, "lat": 38.93010183333333, "name": "efc1e5dbf87e302575bc9e77aaae3fbe", "fusion_lat": 0.0, "fusion_lon": 0.0, "rental_uris": {"android": "https://dc.lft.to/lastmile_qr_scan", "ios": "https://dc.lft.to/lastmile_qr_scan"}, "is_reserved": 0, "is_disabled": 0, "type": "electric_scooter", "bike_id": "efc1e5dbf87e302575bc9e77aaae3fbe"}, {"lon": -76.93737333333334, "lat": 38.8901565, "name": "8ebcd1f9333ee7bb48eb66dba9639d8b", "fusion_lat": 0.0, "fusion_lon": 0.0, "rental_uris": {"android": "https://dc.lft.to/lastmile_qr_scan", "ios": "https://dc.lft.to/lastmile_qr_scan"}, "is_reserved": 0, "is_disabled": 0, "type": "electric_scooter", "bike_id": "8ebcd1f9333ee7bb48eb66dba9639d8b"}, {"lon": -77.00597966666666, "lat": 38.905787833333335, "name": "d606745f75512f01c5a77d58f1afed43", "fusion_lat": 0.0, "fusion_lon": 0.0, "rental_uris": {"android": "https://dc.lft.to/lastmile_qr_scan", "ios": "https://dc.lft.to/lastmile_qr_scan"}, "is_reserved": 0, "is_disabled": 0, "type": "electric_scooter", "bike_id": "d606745f75512f01c5a77d58f1afed43"}, {"lon": -76.95184983333333, "lat": 38.891346, "name": "e93508cc7a1adfef8dedf42922a810f0", "fusion_lat": 0.0, "fusion_lon": 0.0, "rental_uris": {"android": "https://dc.lft.to/lastmile_qr_scan", "ios": "https://dc.lft.to/lastmile_qr_scan"}, "is_reserved": 0, "is_disabled": 0, "type": "electric_scooter", "bike_id": "e93508cc7a1adfef8dedf42922a810f0"}, {"lon": -77.02422533333333, "lat": 38.92613166666667, "name": "e79e6696809cf0594d3af4a92a1298e5", "fusion_lat": 0.0, "fusion_lon": 0.0, "rental_uris": {"android": "https://dc.lft.to/lastmile_qr_scan", "ios": "https://dc.lft.to/lastmile_qr_scan"}, "is_reserved": 0, "is_disabled": 0, "type": "electric_scooter", "bike_id": "e79e6696809cf0594d3af4a92a1298e5"}, {"lon": -77.00208033333334, "lat": 38.90042733333333, "name": "f415ac596e28c2f54261af87ed6fc206", "fusion_lat": 0.0, "fusion_lon": 0.0, "rental_uris": {"android": "https://dc.lft.to/lastmile_qr_scan", "ios": "https://dc.lft.to/lastmile_qr_scan"}, "is_reserved": 0, "is_disabled": 0, "type": "electric_scooter", "bike_id": "f415ac596e28c2f54261af87ed6fc206"}, {"lon": -77.01650583333333, "lat": 38.9293745, "name": "29dce43b61197bd126ceb0e820ca5393", "fusion_lat": 0.0, "fusion_lon": 0.0, "rental_uris": {"android": "https://dc.lft.to/lastmile_qr_scan", "ios": "https://dc.lft.to/lastmile_qr_scan"}, "is_reserved": 0, "is_disabled": 0, "type": "electric_scooter", "bike_id": "29dce43b61197bd126ceb0e820ca5393"}, {"lon": -77.02051366666667, "lat": 38.915567, "name": "9079dfda3429b07f14983541a6017588", "fusion_lat": 0.0, "fusion_lon": 0.0, "rental_uris": {"android": "https://dc.lft.to/lastmile_qr_scan", "ios": "https://dc.lft.to/lastmile_qr_scan"}, "is_reserved": 0, "is_disabled": 0, "type": "electric_scooter", "bike_id": "9079dfda3429b07f14983541a6017588"}, {"lon": -77.01253183333333, "lat": 38.8763465, "name": "6dd005975fc8be922bb7393a0972d5de", "fusion_lat": 0.0, "fusion_lon": 0.0, "rental_uris": {"android": "https://dc.lft.to/lastmile_qr_scan", "ios": "https://dc.lft.to/lastmile_qr_scan"}, "is_reserved": 0, "is_disabled": 0, "type": "electric_scooter", "bike_id": "6dd005975fc8be922bb7393a0972d5de"}, {"lon": -77.01596516666666, "lat": 38.95764416666667, "name": "9d2ac4c6e38e7d6a376f359db937fb77", "fusion_lat": 0.0, "fusion_lon": 0.0, "rental_uris": {"android": "https://dc.lft.to/lastmile_qr_scan", "ios": "https://dc.lft.to/lastmile_qr_scan"}, "is_reserved": 0, "is_disabled": 0, "type": "electric_scooter", "bike_id": "9d2ac4c6e38e7d6a376f359db937fb77"}, {"lon": -77.04592183333334, "lat": 38.899778166666664, "name": "91373ee18192e71dcebab3d7e1093073", "fusion_lat": 0.0, "fusion_lon": 0.0, "rental_uris": {"android": "https://dc.lft.to/lastmile_qr_scan", "ios": "https://dc.lft.to/lastmile_qr_scan"}, "is_reserved": 0, "is_disabled": 0, "type": "electric_scooter", "bike_id": "91373ee18192e71dcebab3d7e1093073"}, {"lon": -77.04038183333333, "lat": 38.91708783333333, "name": "12dc081b3e82b9a5479435207941fdee", "fusion_lat": 0.0, "fusion_lon": 0.0, "rental_uris": {"android": "https://dc.lft.to/lastmile_qr_scan", "ios": "https://dc.lft.to/lastmile_qr_scan"}, "is_reserved": 0, "is_disabled": 0, "type": "electric_scooter", "bike_id": "12dc081b3e82b9a5479435207941fdee"}, {"lon": -76.98802416666666, "lat": 38.8923225, "name": "6a6dffaed5354bfd7cc1192665a2f923", "fusion_lat": 0.0, "fusion_lon": 0.0, "rental_uris": {"android": "https://dc.lft.to/lastmile_qr_scan", "ios": "https://dc.lft.to/lastmile_qr_scan"}, "is_reserved": 0, "is_disabled": 0, "type": "electric_scooter", "bike_id": "6a6dffaed5354bfd7cc1192665a2f923"}, {"lon": -77.078496, "lat": 38.931371, "name": "48f85016a53d27b78689daeef5dd4719", "fusion_lat": 0.0, "fusion_lon": 0.0, "rental_uris": {"android": "https://dc.lft.to/lastmile_qr_scan", "ios": "https://dc.lft.to/lastmile_qr_scan"}, "is_reserved": 0, "is_disabled": 0, "type": "electric_scooter", "bike_id": "48f85016a53d27b78689daeef5dd4719"}, {"lon": -77.04380833333333, "lat": 38.9111555, "name": "15edf2051c499ecdb502a29597618163", "fusion_lat": 0.0, "fusion_lon": 0.0, "rental_uris": {"android": "https://dc.lft.to/lastmile_qr_scan", "ios": "https://dc.lft.to/lastmile_qr_scan"}, "is_reserved": 0, "is_disabled": 0, "type": "electric_scooter", "bike_id": "15edf2051c499ecdb502a29597618163"}, {"lon": -76.9655015, "lat": 38.95100083333333, "name": "43a09e3665514bf413c6cdad735c0104", "fusion_lat": 0.0, "fusion_lon": 0.0, "rental_uris": {"android": "https://dc.lft.to/lastmile_qr_scan", "ios": "https://dc.lft.to/lastmile_qr_scan"}, "is_reserved": 0, "is_disabled": 0, "type": "electric_bike", "bike_id": "43a09e3665514bf413c6cdad735c0104"}, {"lon": -77.03735366666666, "lat": 38.928962166666665, "name": "f3f8ed9b074419125ae8e23cc6d61b27", "fusion_lat": 0.0, "fusion_lon": 0.0, "rental_uris": {"android": "https://dc.lft.to/lastmile_qr_scan", "ios": "https://dc.lft.to/lastmile_qr_scan"}, "is_reserved": 0, "is_disabled": 0, "type": "electric_scooter", "bike_id": "f3f8ed9b074419125ae8e23cc6d61b27"}, {"lon": -77.04304066666667, "lat": 39.054485666666665, "name": "2490589841811c956abd2ca8aab77605", "fusion_lat": 0.0, "fusion_lon": 0.0, "rental_uris": {"android": "https://dc.lft.to/lastmile_qr_scan", "ios": "https://dc.lft.to/lastmile_qr_scan"}, "is_reserved": 0, "is_disabled": 0, "type": "electric_bike", "bike_id": "2490589841811c956abd2ca8aab77605"}, {"lon": -77.0420615, "lat": 38.91414966666667, "name": "f3c5e82cad69132b64ed7ef794303899", "fusion_lat": 0.0, "fusion_lon": 0.0, "rental_uris": {"android": "https://dc.lft.to/lastmile_qr_scan", "ios": "https://dc.lft.to/lastmile_qr_scan"}, "is_reserved": 0, "is_disabled": 0, "type": "electric_scooter", "bike_id": "f3c5e82cad69132b64ed7ef794303899"}, {"lon": -77.178468, "lat": 39.08863633333333, "name": "1e43e65261ba1b3ca12fdc38120a9b9e", "fusion_lat": 0.0, "fusion_lon": 0.0, "rental_uris": {"android": "https://dc.lft.to/lastmile_qr_scan", "ios": "https://dc.lft.to/lastmile_qr_scan"}, "is_reserved": 0, "is_disabled": 0, "type": "electric_bike", "bike_id": "1e43e65261ba1b3ca12fdc38120a9b9e"}, {"lon": -77.0033875, "lat": 38.894663333333334, "name": "41536b8312fc35b0883dae1789d9127d", "fusion_lat": 0.0, "fusion_lon": 0.0, "rental_uris": {"android": "https://dc.lft.to/lastmile_qr_scan", "ios": "https://dc.lft.to/lastmile_qr_scan"}, "is_reserved": 0, "is_disabled": 0, "type": "electric_scooter", "bike_id": "41536b8312fc35b0883dae1789d9127d"}, {"lon": -77.02708316666667, "lat": 38.950018, "name": "bddba0f772ba5b811199ecb1cd6a6573", "fusion_lat": 0.0, "fusion_lon": 0.0, "rental_uris": {"android": "https://dc.lft.to/lastmile_qr_scan", "ios": "https://dc.lft.to/lastmile_qr_scan"}, "is_reserved": 0, "is_disabled": 0, "type": "electric_scooter", "bike_id": "bddba0f772ba5b811199ecb1cd6a6573"}, {"lon": -77.08210516666666, "lat": 38.93553633333333, "name": "4ff2e81f63b087259a25a376be4a48ca", "fusion_lat": 0.0, "fusion_lon": 0.0, "rental_uris": {"android": "https://dc.lft.to/lastmile_qr_scan", "ios": "https://dc.lft.to/lastmile_qr_scan"}, "is_reserved": 0, "is_disabled": 0, "type": "electric_scooter", "bike_id": "4ff2e81f63b087259a25a376be4a48ca"}, {"lon": -77.03511216666666, "lat": 38.9215395, "name": "600bb2f086ccba6ebe14c45f465eabb4", "fusion_lat": 0.0, "fusion_lon": 0.0, "rental_uris": {"android": "https://dc.lft.to/lastmile_qr_scan", "ios": "https://dc.lft.to/lastmile_qr_scan"}, "is_reserved": 0, "is_disabled": 0, "type": "electric_scooter", "bike_id": "600bb2f086ccba6ebe14c45f465eabb4"}, {"lon": -77.01339116666666, "lat": 38.91943333333333, "name": "12ac60064604c8aa0f6008c31ef6c235", "fusion_lat": 0.0, "fusion_lon": 0.0, "rental_uris": {"android": "https://dc.lft.to/lastmile_qr_scan", "ios": "https://dc.lft.to/lastmile_qr_scan"}, "is_reserved": 0, "is_disabled": 0, "type": "electric_scooter", "bike_id": "12ac60064604c8aa0f6008c31ef6c235"}, {"lon": -76.9942355, "lat": 38.92279683333334, "name": "7cdbc941b029190abe55f2af124802ea", "fusion_lat": 0.0, "fusion_lon": 0.0, "rental_uris": {"android": "https://dc.lft.to/lastmile_qr_scan", "ios": "https://dc.lft.to/lastmile_qr_scan"}, "is_reserved": 0, "is_disabled": 0, "type": "electric_scooter", "bike_id": "7cdbc941b029190abe55f2af124802ea"}, {"lon": -77.0384255, "lat": 38.90268916666667, "name": "cc29bc183379b1b11f114ad2f19dfbcf", "fusion_lat": 0.0, "fusion_lon": 0.0, "rental_uris": {"android": "https://dc.lft.to/lastmile_qr_scan", "ios": "https://dc.lft.to/lastmile_qr_scan"}, "is_reserved": 0, "is_disabled": 0, "type": "electric_scooter", "bike_id": "cc29bc183379b1b11f114ad2f19dfbcf"}, {"lon": -76.98844983333333, "lat": 38.9002155, "name": "97885b9fa647675783b4fcfb9df9a5a1", "fusion_lat": 0.0, "fusion_lon": 0.0, "rental_uris": {"android": "https://dc.lft.to/lastmile_qr_scan", "ios": "https://dc.lft.to/lastmile_qr_scan"}, "is_reserved": 0, "is_disabled": 0, "type": "electric_scooter", "bike_id": "97885b9fa647675783b4fcfb9df9a5a1"}, {"lon": -76.9652005, "lat": 38.874827333333336, "name": "966c1e4983c56a917b37846d7e48d236", "fusion_lat": 0.0, "fusion_lon": 0.0, "rental_uris": {"android": "https://dc.lft.to/lastmile_qr_scan", "ios": "https://dc.lft.to/lastmile_qr_scan"}, "is_reserved": 0, "is_disabled": 0, "type": "electric_scooter", "bike_id": "966c1e4983c56a917b37846d7e48d236"}, {"lon": -77.0384595, "lat": 38.9121535, "name": "a0f3e426eb198e3196ba1e2428485a5a", "fusion_lat": 0.0, "fusion_lon": 0.0, "rental_uris": {"android": "https://dc.lft.to/lastmile_qr_scan", "ios": "https://dc.lft.to/lastmile_qr_scan"}, "is_reserved": 0, "is_disabled": 0, "type": "electric_scooter", "bike_id": "a0f3e426eb198e3196ba1e2428485a5a"}, {"lon": -77.02704566666667, "lat": 38.950009, "name": "636837bbc8b9731fb23385ea279e6330", "fusion_lat": 0.0, "fusion_lon": 0.0, "rental_uris": {"android": "https://dc.lft.to/lastmile_qr_scan", "ios": "https://dc.lft.to/lastmile_qr_scan"}, "is_reserved": 0, "is_disabled": 0, "type": "electric_scooter", "bike_id": "636837bbc8b9731fb23385ea279e6330"}, {"lon": -77.01249216666666, "lat": 38.90869, "name": "4c63ac3a29fc535681f086e7bc54b9d0", "fusion_lat": 0.0, "fusion_lon": 0.0, "rental_uris": {"android": "https://dc.lft.to/lastmile_qr_scan", "ios": "https://dc.lft.to/lastmile_qr_scan"}, "is_reserved": 0, "is_disabled": 0, "type": "electric_scooter", "bike_id": "4c63ac3a29fc535681f086e7bc54b9d0"}, {"lon": -77.032646, "lat": 38.933359333333335, "name": "cc8682b2cea4e7accb34c1b757232e42", "fusion_lat": 0.0, "fusion_lon": 0.0, "rental_uris": {"android": "https://dc.lft.to/lastmile_qr_scan", "ios": "https://dc.lft.to/lastmile_qr_scan"}, "is_reserved": 0, "is_disabled": 0, "type": "electric_scooter", "bike_id": "cc8682b2cea4e7accb34c1b757232e42"}, {"lon": -77.01449533333333, "lat": 38.912052, "name": "ce3c4c6c090882d87b2f16cfc06941fd", "fusion_lat": 0.0, "fusion_lon": 0.0, "rental_uris": {"android": "https://dc.lft.to/lastmile_qr_scan", "ios": "https://dc.lft.to/lastmile_qr_scan"}, "is_reserved": 0, "is_disabled": 0, "type": "electric_scooter", "bike_id": "ce3c4c6c090882d87b2f16cfc06941fd"}, {"lon": -77.0180745, "lat": 38.9143725, "name": "ecfe4a955d32991330d05aa4f1775421", "fusion_lat": 0.0, "fusion_lon": 0.0, "rental_uris": {"android": "https://dc.lft.to/lastmile_qr_scan", "ios": "https://dc.lft.to/lastmile_qr_scan"}, "is_reserved": 0, "is_disabled": 0, "type": "electric_scooter", "bike_id": "ecfe4a955d32991330d05aa4f1775421"}, {"lon": -77.01291783333333, "lat": 38.930271, "name": "8eaaf437f9afd59a26a944e7d3d145d3", "fusion_lat": 0.0, "fusion_lon": 0.0, "rental_uris": {"android": "https://dc.lft.to/lastmile_qr_scan", "ios": "https://dc.lft.to/lastmile_qr_scan"}, "is_reserved": 0, "is_disabled": 0, "type": "electric_scooter", "bike_id": "8eaaf437f9afd59a26a944e7d3d145d3"}, {"lon": -77.03639416666667, "lat": 38.917926, "name": "ba09c5ef9151ce25fbda7b2764002639", "fusion_lat": 0.0, "fusion_lon": 0.0, "rental_uris": {"android": "https://dc.lft.to/lastmile_qr_scan", "ios": "https://dc.lft.to/lastmile_qr_scan"}, "is_reserved": 0, "is_disabled": 0, "type": "electric_scooter", "bike_id": "ba09c5ef9151ce25fbda7b2764002639"}, {"lon": -77.02693733333334, "lat": 38.9127325, "name": "f007c8e3b771bede5a91f7db9345f9e3", "fusion_lat": 0.0, "fusion_lon": 0.0, "rental_uris": {"android": "https://dc.lft.to/lastmile_qr_scan", "ios": "https://dc.lft.to/lastmile_qr_scan"}, "is_reserved": 0, "is_disabled": 0, "type": "electric_scooter", "bike_id": "f007c8e3b771bede5a91f7db9345f9e3"}, {"lon": -77.02398766666667, "lat": 38.91122983333333, "name": "11e52e76f0fa0684a2e5020f16534f61", "fusion_lat": 0.0, "fusion_lon": 0.0, "rental_uris": {"android": "https://dc.lft.to/lastmile_qr_scan", "ios": "https://dc.lft.to/lastmile_qr_scan"}, "is_reserved": 0, "is_disabled": 0, "type": "electric_scooter", "bike_id": "11e52e76f0fa0684a2e5020f16534f61"}, {"lon": -77.01402583333333, "lat": 38.9285345, "name": "1f9db84276cd48fc639a4347b62d6475", "fusion_lat": 0.0, "fusion_lon": 0.0, "rental_uris": {"android": "https://dc.lft.to/lastmile_qr_scan", "ios": "https://dc.lft.to/lastmile_qr_scan"}, "is_reserved": 0, "is_disabled": 0, "type": "electric_scooter", "bike_id": "1f9db84276cd48fc639a4347b62d6475"}, {"lon": -77.00128716666667, "lat": 38.900022166666666, "name": "9480a4ebc6a861993e543689204c09ab", "fusion_lat": 0.0, "fusion_lon": 0.0, "rental_uris": {"android": "https://dc.lft.to/lastmile_qr_scan", "ios": "https://dc.lft.to/lastmile_qr_scan"}, "is_reserved": 0, "is_disabled": 0, "type": "electric_scooter", "bike_id": "9480a4ebc6a861993e543689204c09ab"}, {"lon": -77.05007216666667, "lat": 38.8923275, "name": "de4739c040b71ed032180b505dc42647", "fusion_lat": 0.0, "fusion_lon": 0.0, "rental_uris": {"android": "https://dc.lft.to/lastmile_qr_scan", "ios": "https://dc.lft.to/lastmile_qr_scan"}, "is_reserved": 0, "is_disabled": 0, "type": "electric_scooter", "bike_id": "de4739c040b71ed032180b505dc42647"}, {"lon": -77.01706933333334, "lat": 38.92030333333334, "name": "2d5045171fe3fc3158bcbb89ed2893c0", "fusion_lat": 0.0, "fusion_lon": 0.0, "rental_uris": {"android": "https://dc.lft.to/lastmile_qr_scan", "ios": "https://dc.lft.to/lastmile_qr_scan"}, "is_reserved": 0, "is_disabled": 0, "type": "electric_scooter", "bike_id": "2d5045171fe3fc3158bcbb89ed2893c0"}, {"lon": -77.03658133333333, "lat": 38.917246, "name": "a75306b2aa56ce7d2c3a386334012228", "fusion_lat": 0.0, "fusion_lon": 0.0, "rental_uris": {"android": "https://dc.lft.to/lastmile_qr_scan", "ios": "https://dc.lft.to/lastmile_qr_scan"}, "is_reserved": 0, "is_disabled": 0, "type": "electric_scooter", "bike_id": "a75306b2aa56ce7d2c3a386334012228"}, {"lon": -77.0450785, "lat": 38.912811, "name": "6a3430b1d0494dfe8bee5787156d5cce", "fusion_lat": 0.0, "fusion_lon": 0.0, "rental_uris": {"android": "https://dc.lft.to/lastmile_qr_scan", "ios": "https://dc.lft.to/lastmile_qr_scan"}, "is_reserved": 0, "is_disabled": 0, "type": "electric_scooter", "bike_id": "6a3430b1d0494dfe8bee5787156d5cce"}, {"lon": -77.038976, "lat": 38.9216975, "name": "d0cd129378d62b81dbd28b4ae0f4a878", "fusion_lat": 0.0, "fusion_lon": 0.0, "rental_uris": {"android": "https://dc.lft.to/lastmile_qr_scan", "ios": "https://dc.lft.to/lastmile_qr_scan"}, "is_reserved": 0, "is_disabled": 0, "type": "electric_scooter", "bike_id": "d0cd129378d62b81dbd28b4ae0f4a878"}, {"lon": -76.94897283333333, "lat": 38.89526333333333, "name": "88e7ea72dd673ef67f9716ab6c1ca465", "fusion_lat": 0.0, "fusion_lon": 0.0, "rental_uris": {"android": "https://dc.lft.to/lastmile_qr_scan", "ios": "https://dc.lft.to/lastmile_qr_scan"}, "is_reserved": 0, "is_disabled": 0, "type": "electric_scooter", "bike_id": "88e7ea72dd673ef67f9716ab6c1ca465"}, {"lon": -77.026988, "lat": 38.91596633333333, "name": "dd0d0ceeb3f43f6eda949edf0f9fc2d7", "fusion_lat": 0.0, "fusion_lon": 0.0, "rental_uris": {"android": "https://dc.lft.to/lastmile_qr_scan", "ios": "https://dc.lft.to/lastmile_qr_scan"}, "is_reserved": 0, "is_disabled": 0, "type": "electric_scooter", "bike_id": "dd0d0ceeb3f43f6eda949edf0f9fc2d7"}, {"lon": -77.04408283333333, "lat": 38.902151833333335, "name": "00e8844a8c2cd510d95eac1caef146d3", "fusion_lat": 0.0, "fusion_lon": 0.0, "rental_uris": {"android": "https://dc.lft.to/lastmile_qr_scan", "ios": "https://dc.lft.to/lastmile_qr_scan"}, "is_reserved": 0, "is_disabled": 0, "type": "electric_scooter", "bike_id": "00e8844a8c2cd510d95eac1caef146d3"}, {"lon": -77.02474633333334, "lat": 38.926483, "name": "81e33bfcbdd7315a04d59b44a01021f5", "fusion_lat": 0.0, "fusion_lon": 0.0, "rental_uris": {"android": "https://dc.lft.to/lastmile_qr_scan", "ios": "https://dc.lft.to/lastmile_qr_scan"}, "is_reserved": 0, "is_disabled": 0, "type": "electric_scooter", "bike_id": "81e33bfcbdd7315a04d59b44a01021f5"}, {"lon": -77.0417905, "lat": 38.901394833333335, "name": "cbc3ea51c8e250be64b944ee26cd9bc6", "fusion_lat": 0.0, "fusion_lon": 0.0, "rental_uris": {"android": "https://dc.lft.to/lastmile_qr_scan", "ios": "https://dc.lft.to/lastmile_qr_scan"}, "is_reserved": 0, "is_disabled": 0, "type": "electric_scooter", "bike_id": "cbc3ea51c8e250be64b944ee26cd9bc6"}, {"lon": -77.0334755, "lat": 38.887646, "name": "7eb37b78781993590e8105fcfe4f642c", "fusion_lat": 0.0, "fusion_lon": 0.0, "rental_uris": {"android": "https://dc.lft.to/lastmile_qr_scan", "ios": "https://dc.lft.to/lastmile_qr_scan"}, "is_reserved": 0, "is_disabled": 0, "type": "electric_scooter", "bike_id": "7eb37b78781993590e8105fcfe4f642c"}, {"lon": -77.02379983333333, "lat": 38.911573833333335, "name": "241571e2dac0e080434bbb817cd8e541", "fusion_lat": 0.0, "fusion_lon": 0.0, "rental_uris": {"android": "https://dc.lft.to/lastmile_qr_scan", "ios": "https://dc.lft.to/lastmile_qr_scan"}, "is_reserved": 0, "is_disabled": 0, "type": "electric_scooter", "bike_id": "241571e2dac0e080434bbb817cd8e541"}, {"lon": -77.023677, "lat": 38.92518716666667, "name": "b3418aacec0121ba2810ad1a38068004", "fusion_lat": 0.0, "fusion_lon": 0.0, "rental_uris": {"android": "https://dc.lft.to/lastmile_qr_scan", "ios": "https://dc.lft.to/lastmile_qr_scan"}, "is_reserved": 0, "is_disabled": 0, "type": "electric_scooter", "bike_id": "b3418aacec0121ba2810ad1a38068004"}, {"lon": -77.0345955, "lat": 38.91811283333333, "name": "0404771bada87a65cf0b1a7013471f0f", "fusion_lat": 0.0, "fusion_lon": 0.0, "rental_uris": {"android": "https://dc.lft.to/lastmile_qr_scan", "ios": "https://dc.lft.to/lastmile_qr_scan"}, "is_reserved": 0, "is_disabled": 0, "type": "electric_scooter", "bike_id": "0404771bada87a65cf0b1a7013471f0f"}, {"lon": -77.05298933333333, "lat": 38.925534666666664, "name": "5589c515ad4a6ff310ee69e496bdb527", "fusion_lat": 0.0, "fusion_lon": 0.0, "rental_uris": {"android": "https://dc.lft.to/lastmile_qr_scan", "ios": "https://dc.lft.to/lastmile_qr_scan"}, "is_reserved": 0, "is_disabled": 0, "type": "electric_scooter", "bike_id": "5589c515ad4a6ff310ee69e496bdb527"}, {"lon": -77.01393633333333, "lat": 38.9279985, "name": "ecd725fc0e06651c0a3eaad3bbc67b4a", "fusion_lat": 0.0, "fusion_lon": 0.0, "rental_uris": {"android": "https://dc.lft.to/lastmile_qr_scan", "ios": "https://dc.lft.to/lastmile_qr_scan"}, "is_reserved": 0, "is_disabled": 0, "type": "electric_scooter", "bike_id": "ecd725fc0e06651c0a3eaad3bbc67b4a"}, {"lon": -77.03209216666667, "lat": 38.9076785, "name": "cd0b8f6e6af836668636d2c0120bcf35", "fusion_lat": 0.0, "fusion_lon": 0.0, "rental_uris": {"android": "https://dc.lft.to/lastmile_qr_scan", "ios": "https://dc.lft.to/lastmile_qr_scan"}, "is_reserved": 0, "is_disabled": 0, "type": "electric_scooter", "bike_id": "cd0b8f6e6af836668636d2c0120bcf35"}, {"lon": -76.95756033333333, "lat": 38.88431716666667, "name": "6aac88f20283b10a97baa1a9497246c3", "fusion_lat": 0.0, "fusion_lon": 0.0, "rental_uris": {"android": "https://dc.lft.to/lastmile_qr_scan", "ios": "https://dc.lft.to/lastmile_qr_scan"}, "is_reserved": 0, "is_disabled": 0, "type": "electric_scooter", "bike_id": "6aac88f20283b10a97baa1a9497246c3"}, {"lon": -77.04050033333333, "lat": 38.92708416666667, "name": "142ed87cdb48f172a585948eb923e377", "fusion_lat": 0.0, "fusion_lon": 0.0, "rental_uris": {"android": "https://dc.lft.to/lastmile_qr_scan", "ios": "https://dc.lft.to/lastmile_qr_scan"}, "is_reserved": 0, "is_disabled": 0, "type": "electric_scooter", "bike_id": "142ed87cdb48f172a585948eb923e377"}, {"lon": -76.96506616666667, "lat": 38.87647916666667, "name": "73c07d518b7c4de6f9e5d5dad41f18ba", "fusion_lat": 0.0, "fusion_lon": 0.0, "rental_uris": {"android": "https://dc.lft.to/lastmile_qr_scan", "ios": "https://dc.lft.to/lastmile_qr_scan"}, "is_reserved": 0, "is_disabled": 0, "type": "electric_scooter", "bike_id": "73c07d518b7c4de6f9e5d5dad41f18ba"}, {"lon": -77.041573, "lat": 38.919022, "name": "0db46334a0e34d0b95459af0474e846b", "fusion_lat": 0.0, "fusion_lon": 0.0, "rental_uris": {"android": "https://dc.lft.to/lastmile_qr_scan", "ios": "https://dc.lft.to/lastmile_qr_scan"}, "is_reserved": 0, "is_disabled": 0, "type": "electric_scooter", "bike_id": "0db46334a0e34d0b95459af0474e846b"}, {"lon": -77.15270166666667, "lat": 39.1056925, "name": "8af094884af4aa7c948bb868ec1163ee", "fusion_lat": 0.0, "fusion_lon": 0.0, "rental_uris": {"android": "https://dc.lft.to/lastmile_qr_scan", "ios": "https://dc.lft.to/lastmile_qr_scan"}, "is_reserved": 0, "is_disabled": 0, "type": "electric_bike", "bike_id": "8af094884af4aa7c948bb868ec1163ee"}, {"lon": -77.03028983333333, "lat": 38.915577, "name": "90539ccea17c94e58ea7ad7eb67fb9ad", "fusion_lat": 0.0, "fusion_lon": 0.0, "rental_uris": {"android": "https://dc.lft.to/lastmile_qr_scan", "ios": "https://dc.lft.to/lastmile_qr_scan"}, "is_reserved": 0, "is_disabled": 0, "type": "electric_scooter", "bike_id": "90539ccea17c94e58ea7ad7eb67fb9ad"}, {"lon": -77.03811816666666, "lat": 38.90975733333333, "name": "ed96ec643be271971bf80b51652c0b53", "fusion_lat": 0.0, "fusion_lon": 0.0, "rental_uris": {"android": "https://dc.lft.to/lastmile_qr_scan", "ios": "https://dc.lft.to/lastmile_qr_scan"}, "is_reserved": 0, "is_disabled": 0, "type": "electric_scooter", "bike_id": "ed96ec643be271971bf80b51652c0b53"}, {"lon": -77.04588883333334, "lat": 38.91905083333333, "name": "7b15cb5ebf933f779ba4d940363a4340", "fusion_lat": 0.0, "fusion_lon": 0.0, "rental_uris": {"android": "https://dc.lft.to/lastmile_qr_scan", "ios": "https://dc.lft.to/lastmile_qr_scan"}, "is_reserved": 0, "is_disabled": 0, "type": "electric_scooter", "bike_id": "7b15cb5ebf933f779ba4d940363a4340"}, {"lon": -76.97563166666667, "lat": 38.904475166666664, "name": "1607de3b0d0601e31b8fd2ad973841fd", "fusion_lat": 0.0, "fusion_lon": 0.0, "rental_uris": {"android": "https://dc.lft.to/lastmile_qr_scan", "ios": "https://dc.lft.to/lastmile_qr_scan"}, "is_reserved": 0, "is_disabled": 0, "type": "electric_scooter", "bike_id": "1607de3b0d0601e31b8fd2ad973841fd"}, {"lon": -76.98785283333333, "lat": 38.900271000000004, "name": "fe0b4f37dedc499d1eb451cc018f71d8", "fusion_lat": 0.0, "fusion_lon": 0.0, "rental_uris": {"android": "https://dc.lft.to/lastmile_qr_scan", "ios": "https://dc.lft.to/lastmile_qr_scan"}, "is_reserved": 0, "is_disabled": 0, "type": "electric_scooter", "bike_id": "fe0b4f37dedc499d1eb451cc018f71d8"}, {"lon": -77.038356, "lat": 38.91557133333333, "name": "799716b09b50fe275dbe9192fa236d47", "fusion_lat": 0.0, "fusion_lon": 0.0, "rental_uris": {"android": "https://dc.lft.to/lastmile_qr_scan", "ios": "https://dc.lft.to/lastmile_qr_scan"}, "is_reserved": 0, "is_disabled": 0, "type": "electric_scooter", "bike_id": "799716b09b50fe275dbe9192fa236d47"}, {"lon": -76.9837405, "lat": 38.86030083333333, "name": "4fbd53505e4c7b277e81b9ec2d972bea", "fusion_lat": 0.0, "fusion_lon": 0.0, "rental_uris": {"android": "https://dc.lft.to/lastmile_qr_scan", "ios": "https://dc.lft.to/lastmile_qr_scan"}, "is_reserved": 0, "is_disabled": 0, "type": "electric_scooter", "bike_id": "4fbd53505e4c7b277e81b9ec2d972bea"}, {"lon": -76.98232483333334, "lat": 38.91675633333333, "name": "299001f085eb82e3e006a1b0a123fb75", "fusion_lat": 0.0, "fusion_lon": 0.0, "rental_uris": {"android": "https://dc.lft.to/lastmile_qr_scan", "ios": "https://dc.lft.to/lastmile_qr_scan"}, "is_reserved": 0, "is_disabled": 0, "type": "electric_scooter", "bike_id": "299001f085eb82e3e006a1b0a123fb75"}, {"lon": -77.01752666666667, "lat": 38.90257033333334, "name": "ed166c85397cc9f747ce31e0ca726b3f", "fusion_lat": 0.0, "fusion_lon": 0.0, "rental_uris": {"android": "https://dc.lft.to/lastmile_qr_scan", "ios": "https://dc.lft.to/lastmile_qr_scan"}, "is_reserved": 0, "is_disabled": 0, "type": "electric_scooter", "bike_id": "ed166c85397cc9f747ce31e0ca726b3f"}, {"lon": -76.97498866666666, "lat": 38.91937633333333, "name": "9b557a41821bcf0fea10b85a470f4a02", "fusion_lat": 0.0, "fusion_lon": 0.0, "rental_uris": {"android": "https://dc.lft.to/lastmile_qr_scan", "ios": "https://dc.lft.to/lastmile_qr_scan"}, "is_reserved": 0, "is_disabled": 0, "type": "electric_bike", "bike_id": "9b557a41821bcf0fea10b85a470f4a02"}, {"lon": -77.03180933333333, "lat": 38.91910816666667, "name": "aad1d8aa0ef56c98d20d18b7456dc98e", "fusion_lat": 0.0, "fusion_lon": 0.0, "rental_uris": {"android": "https://dc.lft.to/lastmile_qr_scan", "ios": "https://dc.lft.to/lastmile_qr_scan"}, "is_reserved": 0, "is_disabled": 0, "type": "electric_scooter", "bike_id": "aad1d8aa0ef56c98d20d18b7456dc98e"}, {"lon": -77.01069716666667, "lat": 38.87117116666667, "name": "123f81cbd88142ac4c324863c16eb95d", "fusion_lat": 0.0, "fusion_lon": 0.0, "rental_uris": {"android": "https://dc.lft.to/lastmile_qr_scan", "ios": "https://dc.lft.to/lastmile_qr_scan"}, "is_reserved": 0, "is_disabled": 0, "type": "electric_scooter", "bike_id": "123f81cbd88142ac4c324863c16eb95d"}, {"lon": -77.08373333333333, "lat": 38.808407333333335, "name": "b571ed94bb94903ca079107000e07f72", "fusion_lat": 0.0, "fusion_lon": 0.0, "rental_uris": {"android": "https://dc.lft.to/lastmile_qr_scan", "ios": "https://dc.lft.to/lastmile_qr_scan"}, "is_reserved": 0, "is_disabled": 0, "type": "electric_bike", "bike_id": "b571ed94bb94903ca079107000e07f72"}, {"lon": -76.98603116666666, "lat": 38.86099883333333, "name": "657493d0137e6af1aed134872e217d1e", "fusion_lat": 0.0, "fusion_lon": 0.0, "rental_uris": {"android": "https://dc.lft.to/lastmile_qr_scan", "ios": "https://dc.lft.to/lastmile_qr_scan"}, "is_reserved": 0, "is_disabled": 0, "type": "electric_scooter", "bike_id": "657493d0137e6af1aed134872e217d1e"}, {"lon": -77.00141316666667, "lat": 38.90011166666667, "name": "12a52ab673a031bbc86a200024987479", "fusion_lat": 0.0, "fusion_lon": 0.0, "rental_uris": {"android": "https://dc.lft.to/lastmile_qr_scan", "ios": "https://dc.lft.to/lastmile_qr_scan"}, "is_reserved": 0, "is_disabled": 0, "type": "electric_scooter", "bike_id": "12a52ab673a031bbc86a200024987479"}, {"lon": -76.99036683333334, "lat": 38.89855816666667, "name": "094f1b19ecb7518e6c848b2930152523", "fusion_lat": 0.0, "fusion_lon": 0.0, "rental_uris": {"android": "https://dc.lft.to/lastmile_qr_scan", "ios": "https://dc.lft.to/lastmile_qr_scan"}, "is_reserved": 0, "is_disabled": 0, "type": "electric_scooter", "bike_id": "094f1b19ecb7518e6c848b2930152523"}, {"lon": -76.9756175, "lat": 38.92461483333334, "name": "e766c4c82c00e54781f4c384ddc8d4d2", "fusion_lat": 0.0, "fusion_lon": 0.0, "rental_uris": {"android": "https://dc.lft.to/lastmile_qr_scan", "ios": "https://dc.lft.to/lastmile_qr_scan"}, "is_reserved": 0, "is_disabled": 0, "type": "electric_bike", "bike_id": "e766c4c82c00e54781f4c384ddc8d4d2"}, {"lon": -77.016554, "lat": 38.95328516666667, "name": "56fd3179f6c0cf3814b20eac030b2591", "fusion_lat": 0.0, "fusion_lon": 0.0, "rental_uris": {"android": "https://dc.lft.to/lastmile_qr_scan", "ios": "https://dc.lft.to/lastmile_qr_scan"}, "is_reserved": 0, "is_disabled": 0, "type": "electric_scooter", "bike_id": "56fd3179f6c0cf3814b20eac030b2591"}, {"lon": -77.01844433333333, "lat": 38.90877233333333, "name": "b4608d35eb07076bb5cbb4ac1d943506", "fusion_lat": 0.0, "fusion_lon": 0.0, "rental_uris": {"android": "https://dc.lft.to/lastmile_qr_scan", "ios": "https://dc.lft.to/lastmile_qr_scan"}, "is_reserved": 0, "is_disabled": 0, "type": "electric_scooter", "bike_id": "b4608d35eb07076bb5cbb4ac1d943506"}, {"lon": -77.0423005, "lat": 38.938630333333336, "name": "ef045420c838dff313a197e32997a499", "fusion_lat": 0.0, "fusion_lon": 0.0, "rental_uris": {"android": "https://dc.lft.to/lastmile_qr_scan", "ios": "https://dc.lft.to/lastmile_qr_scan"}, "is_reserved": 0, "is_disabled": 0, "type": "electric_bike", "bike_id": "ef045420c838dff313a197e32997a499"}, {"lon": -77.03006066666667, "lat": 38.91413333333333, "name": "21e0307e3aa39fafab67ed88f004f808", "fusion_lat": 0.0, "fusion_lon": 0.0, "rental_uris": {"android": "https://dc.lft.to/lastmile_qr_scan", "ios": "https://dc.lft.to/lastmile_qr_scan"}, "is_reserved": 0, "is_disabled": 0, "type": "electric_scooter", "bike_id": "21e0307e3aa39fafab67ed88f004f808"}, {"lon": -76.982676, "lat": 38.86357016666667, "name": "60e07f35c54c309366053e4dbaab6f0b", "fusion_lat": 0.0, "fusion_lon": 0.0, "rental_uris": {"android": "https://dc.lft.to/lastmile_qr_scan", "ios": "https://dc.lft.to/lastmile_qr_scan"}, "is_reserved": 0, "is_disabled": 0, "type": "electric_scooter", "bike_id": "60e07f35c54c309366053e4dbaab6f0b"}, {"lon": -77.02196866666667, "lat": 38.93131983333333, "name": "544aacf525a870ecbb7e64960cbe1589", "fusion_lat": 0.0, "fusion_lon": 0.0, "rental_uris": {"android": "https://dc.lft.to/lastmile_qr_scan", "ios": "https://dc.lft.to/lastmile_qr_scan"}, "is_reserved": 0, "is_disabled": 0, "type": "electric_scooter", "bike_id": "544aacf525a870ecbb7e64960cbe1589"}, {"lon": -77.03274033333334, "lat": 38.9382525, "name": "ceb87540817306ba8f06e7a01d4887d8", "fusion_lat": 0.0, "fusion_lon": 0.0, "rental_uris": {"android": "https://dc.lft.to/lastmile_qr_scan", "ios": "https://dc.lft.to/lastmile_qr_scan"}, "is_reserved": 0, "is_disabled": 0, "type": "electric_scooter", "bike_id": "ceb87540817306ba8f06e7a01d4887d8"}, {"lon": -76.99770983333333, "lat": 38.9228515, "name": "8ded89148348ce980c5fe898b53d144a", "fusion_lat": 0.0, "fusion_lon": 0.0, "rental_uris": {"android": "https://dc.lft.to/lastmile_qr_scan", "ios": "https://dc.lft.to/lastmile_qr_scan"}, "is_reserved": 0, "is_disabled": 0, "type": "electric_scooter", "bike_id": "8ded89148348ce980c5fe898b53d144a"}, {"lon": -77.03644766666666, "lat": 38.902862166666665, "name": "237281ce20e2e01d46e0043bb085303d", "fusion_lat": 0.0, "fusion_lon": 0.0, "rental_uris": {"android": "https://dc.lft.to/lastmile_qr_scan", "ios": "https://dc.lft.to/lastmile_qr_scan"}, "is_reserved": 0, "is_disabled": 0, "type": "electric_scooter", "bike_id": "237281ce20e2e01d46e0043bb085303d"}, {"lon": -77.01184466666666, "lat": 38.90022066666667, "name": "d0b069a03cfc98a44e2f8d40df446a47", "fusion_lat": 0.0, "fusion_lon": 0.0, "rental_uris": {"android": "https://dc.lft.to/lastmile_qr_scan", "ios": "https://dc.lft.to/lastmile_qr_scan"}, "is_reserved": 0, "is_disabled": 0, "type": "electric_scooter", "bike_id": "d0b069a03cfc98a44e2f8d40df446a47"}, {"lon": -77.03592466666667, "lat": 38.93675133333333, "name": "5b0e52574f13ead81bf8400b62e36ee6", "fusion_lat": 0.0, "fusion_lon": 0.0, "rental_uris": {"android": "https://dc.lft.to/lastmile_qr_scan", "ios": "https://dc.lft.to/lastmile_qr_scan"}, "is_reserved": 0, "is_disabled": 0, "type": "electric_scooter", "bike_id": "5b0e52574f13ead81bf8400b62e36ee6"}, {"lon": -76.99953666666667, "lat": 38.88045566666667, "name": "6a336156470fced5125f194c6be91d69", "fusion_lat": 0.0, "fusion_lon": 0.0, "rental_uris": {"android": "https://dc.lft.to/lastmile_qr_scan", "ios": "https://dc.lft.to/lastmile_qr_scan"}, "is_reserved": 0, "is_disabled": 0, "type": "electric_scooter", "bike_id": "6a336156470fced5125f194c6be91d69"}, {"lon": -77.03207333333333, "lat": 38.938678333333336, "name": "f35e68cf78942195a00175c519300a72", "fusion_lat": 0.0, "fusion_lon": 0.0, "rental_uris": {"android": "https://dc.lft.to/lastmile_qr_scan", "ios": "https://dc.lft.to/lastmile_qr_scan"}, "is_reserved": 0, "is_disabled": 0, "type": "electric_scooter", "bike_id": "f35e68cf78942195a00175c519300a72"}, {"lon": -76.96101416666667, "lat": 38.928722666666665, "name": "e778cd5e46155e4b44c37924ca3c3dc5", "fusion_lat": 0.0, "fusion_lon": 0.0, "rental_uris": {"android": "https://dc.lft.to/lastmile_qr_scan", "ios": "https://dc.lft.to/lastmile_qr_scan"}, "is_reserved": 0, "is_disabled": 0, "type": "electric_bike", "bike_id": "e778cd5e46155e4b44c37924ca3c3dc5"}, {"lon": -77.02157983333333, "lat": 38.9260435, "name": "90ea0c9341d92637e18e0b9ab3f7ec87", "fusion_lat": 0.0, "fusion_lon": 0.0, "rental_uris": {"android": "https://dc.lft.to/lastmile_qr_scan", "ios": "https://dc.lft.to/lastmile_qr_scan"}, "is_reserved": 0, "is_disabled": 0, "type": "electric_scooter", "bike_id": "90ea0c9341d92637e18e0b9ab3f7ec87"}, {"lon": -77.00345466666667, "lat": 38.897421333333334, "name": "6fc8d25493151b42a481c83f77846cdd", "fusion_lat": 0.0, "fusion_lon": 0.0, "rental_uris": {"android": "https://dc.lft.to/lastmile_qr_scan", "ios": "https://dc.lft.to/lastmile_qr_scan"}, "is_reserved": 0, "is_disabled": 0, "type": "electric_scooter", "bike_id": "6fc8d25493151b42a481c83f77846cdd"}, {"lon": -77.00213466666666, "lat": 38.907280666666665, "name": "5aaf362678ae196665804a3d8137e832", "fusion_lat": 0.0, "fusion_lon": 0.0, "rental_uris": {"android": "https://dc.lft.to/lastmile_qr_scan", "ios": "https://dc.lft.to/lastmile_qr_scan"}, "is_reserved": 0, "is_disabled": 0, "type": "electric_scooter", "bike_id": "5aaf362678ae196665804a3d8137e832"}, {"lon": -77.00191583333333, "lat": 38.89878816666667, "name": "0e8160a91abd9570781001f1476007b6", "fusion_lat": 0.0, "fusion_lon": 0.0, "rental_uris": {"android": "https://dc.lft.to/lastmile_qr_scan", "ios": "https://dc.lft.to/lastmile_qr_scan"}, "is_reserved": 0, "is_disabled": 0, "type": "electric_scooter", "bike_id": "0e8160a91abd9570781001f1476007b6"}, {"lon": -77.02157733333334, "lat": 38.898841166666664, "name": "013d40bdcebf1d5e0a686bfd2096fae0", "fusion_lat": 0.0, "fusion_lon": 0.0, "rental_uris": {"android": "https://dc.lft.to/lastmile_qr_scan", "ios": "https://dc.lft.to/lastmile_qr_scan"}, "is_reserved": 0, "is_disabled": 0, "type": "electric_bike", "bike_id": "013d40bdcebf1d5e0a686bfd2096fae0"}, {"lon": -77.01982366666667, "lat": 38.88377666666667, "name": "9ac1035161b061167c7d4ea91e4f0566", "fusion_lat": 0.0, "fusion_lon": 0.0, "rental_uris": {"android": "https://dc.lft.to/lastmile_qr_scan", "ios": "https://dc.lft.to/lastmile_qr_scan"}, "is_reserved": 0, "is_disabled": 0, "type": "electric_scooter", "bike_id": "9ac1035161b061167c7d4ea91e4f0566"}, {"lon": -77.0407635, "lat": 38.920181166666666, "name": "8fee03c9588814d5635f92d90e6ec110", "fusion_lat": 0.0, "fusion_lon": 0.0, "rental_uris": {"android": "https://dc.lft.to/lastmile_qr_scan", "ios": "https://dc.lft.to/lastmile_qr_scan"}, "is_reserved": 0, "is_disabled": 0, "type": "electric_scooter", "bike_id": "8fee03c9588814d5635f92d90e6ec110"}, {"lon": -77.01149166666667, "lat": 38.95673433333333, "name": "e6986d780aa5670fc7782137cd9fbda2", "fusion_lat": 0.0, "fusion_lon": 0.0, "rental_uris": {"android": "https://dc.lft.to/lastmile_qr_scan", "ios": "https://dc.lft.to/lastmile_qr_scan"}, "is_reserved": 0, "is_disabled": 0, "type": "electric_scooter", "bike_id": "e6986d780aa5670fc7782137cd9fbda2"}, {"lon": -77.02309083333333, "lat": 38.917819333333334, "name": "e0b5258d87b3f7234d3f49f9695d4a85", "fusion_lat": 0.0, "fusion_lon": 0.0, "rental_uris": {"android": "https://dc.lft.to/lastmile_qr_scan", "ios": "https://dc.lft.to/lastmile_qr_scan"}, "is_reserved": 0, "is_disabled": 0, "type": "electric_scooter", "bike_id": "e0b5258d87b3f7234d3f49f9695d4a85"}, {"lon": -77.01776233333334, "lat": 38.90270483333333, "name": "f1b1439634e2e1d69f9e8d138cc75a60", "fusion_lat": 0.0, "fusion_lon": 0.0, "rental_uris": {"android": "https://dc.lft.to/lastmile_qr_scan", "ios": "https://dc.lft.to/lastmile_qr_scan"}, "is_reserved": 0, "is_disabled": 0, "type": "electric_scooter", "bike_id": "f1b1439634e2e1d69f9e8d138cc75a60"}, {"lon": -77.00211366666667, "lat": 38.822708166666665, "name": "398734ca6d1788a498e64a4236b9482a", "fusion_lat": 0.0, "fusion_lon": 0.0, "rental_uris": {"android": "https://dc.lft.to/lastmile_qr_scan", "ios": "https://dc.lft.to/lastmile_qr_scan"}, "is_reserved": 0, "is_disabled": 0, "type": "electric_scooter", "bike_id": "398734ca6d1788a498e64a4236b9482a"}, {"lon": -77.015212, "lat": 38.88741983333333, "name": "77effad19d6010ff57311ef1644b2dbb", "fusion_lat": 0.0, "fusion_lon": 0.0, "rental_uris": {"android": "https://dc.lft.to/lastmile_qr_scan", "ios": "https://dc.lft.to/lastmile_qr_scan"}, "is_reserved": 0, "is_disabled": 0, "type": "electric_scooter", "bike_id": "77effad19d6010ff57311ef1644b2dbb"}, {"lon": -76.99510216666667, "lat": 38.86203316666667, "name": "1f531682dc7ca3990738e7ae4d90703b", "fusion_lat": 0.0, "fusion_lon": 0.0, "rental_uris": {"android": "https://dc.lft.to/lastmile_qr_scan", "ios": "https://dc.lft.to/lastmile_qr_scan"}, "is_reserved": 0, "is_disabled": 0, "type": "electric_scooter", "bike_id": "1f531682dc7ca3990738e7ae4d90703b"}, {"lon": -77.07790183333333, "lat": 38.845167333333336, "name": "05c36b53de0faf217d366c96c876db4a", "fusion_lat": 0.0, "fusion_lon": 0.0, "rental_uris": {"android": "https://dc.lft.to/lastmile_qr_scan", "ios": "https://dc.lft.to/lastmile_qr_scan"}, "is_reserved": 0, "is_disabled": 0, "type": "electric_bike", "bike_id": "05c36b53de0faf217d366c96c876db4a"}, {"lon": -77.00741066666667, "lat": 38.955259833333336, "name": "0ba075227a8dbef66698f6e824ca0073", "fusion_lat": 0.0, "fusion_lon": 0.0, "rental_uris": {"android": "https://dc.lft.to/lastmile_qr_scan", "ios": "https://dc.lft.to/lastmile_qr_scan"}, "is_reserved": 0, "is_disabled": 0, "type": "electric_scooter", "bike_id": "0ba075227a8dbef66698f6e824ca0073"}, {"lon": -77.02011033333334, "lat": 38.924157666666666, "name": "fa452151ca415dec8214061b50e17d01", "fusion_lat": 0.0, "fusion_lon": 0.0, "rental_uris": {"android": "https://dc.lft.to/lastmile_qr_scan", "ios": "https://dc.lft.to/lastmile_qr_scan"}, "is_reserved": 0, "is_disabled": 0, "type": "electric_scooter", "bike_id": "fa452151ca415dec8214061b50e17d01"}, {"lon": -77.00210383333334, "lat": 38.902229166666665, "name": "9caa7cdc42d6f464c0e05e455a7e2cc7", "fusion_lat": 0.0, "fusion_lon": 0.0, "rental_uris": {"android": "https://dc.lft.to/lastmile_qr_scan", "ios": "https://dc.lft.to/lastmile_qr_scan"}, "is_reserved": 0, "is_disabled": 0, "type": "electric_scooter", "bike_id": "9caa7cdc42d6f464c0e05e455a7e2cc7"}, {"lon": -77.0184765, "lat": 38.94999633333333, "name": "6cd6a6965c978fcd63df503198a08a40", "fusion_lat": 0.0, "fusion_lon": 0.0, "rental_uris": {"android": "https://dc.lft.to/lastmile_qr_scan", "ios": "https://dc.lft.to/lastmile_qr_scan"}, "is_reserved": 0, "is_disabled": 0, "type": "electric_scooter", "bike_id": "6cd6a6965c978fcd63df503198a08a40"}, {"lon": -77.03302833333333, "lat": 38.930375833333336, "name": "f4268802d36efbdedaa765f570c2e971", "fusion_lat": 0.0, "fusion_lon": 0.0, "rental_uris": {"android": "https://dc.lft.to/lastmile_qr_scan", "ios": "https://dc.lft.to/lastmile_qr_scan"}, "is_reserved": 0, "is_disabled": 0, "type": "electric_scooter", "bike_id": "f4268802d36efbdedaa765f570c2e971"}, {"lon": -77.03180866666666, "lat": 38.919241, "name": "dda10bd7ab821b3d07a4c39567b7fccb", "fusion_lat": 0.0, "fusion_lon": 0.0, "rental_uris": {"android": "https://dc.lft.to/lastmile_qr_scan", "ios": "https://dc.lft.to/lastmile_qr_scan"}, "is_reserved": 0, "is_disabled": 0, "type": "electric_scooter", "bike_id": "dda10bd7ab821b3d07a4c39567b7fccb"}, {"lon": -77.032166, "lat": 38.919985, "name": "6ad4749b03a1b5cd1d42127bb34ed49e", "fusion_lat": 0.0, "fusion_lon": 0.0, "rental_uris": {"android": "https://dc.lft.to/lastmile_qr_scan", "ios": "https://dc.lft.to/lastmile_qr_scan"}, "is_reserved": 0, "is_disabled": 0, "type": "electric_scooter", "bike_id": "6ad4749b03a1b5cd1d42127bb34ed49e"}, {"lon": -77.0248835, "lat": 38.93973066666667, "name": "cae93b94022988906b50eeafc796536b", "fusion_lat": 0.0, "fusion_lon": 0.0, "rental_uris": {"android": "https://dc.lft.to/lastmile_qr_scan", "ios": "https://dc.lft.to/lastmile_qr_scan"}, "is_reserved": 0, "is_disabled": 0, "type": "electric_scooter", "bike_id": "cae93b94022988906b50eeafc796536b"}, {"lon": -77.0679675, "lat": 38.95196116666666, "name": "93df78d5956e6b9f29c75fc3ccf51c05", "fusion_lat": 0.0, "fusion_lon": 0.0, "rental_uris": {"android": "https://dc.lft.to/lastmile_qr_scan", "ios": "https://dc.lft.to/lastmile_qr_scan"}, "is_reserved": 0, "is_disabled": 0, "type": "electric_scooter", "bike_id": "93df78d5956e6b9f29c75fc3ccf51c05"}, {"lon": -77.01096716666666, "lat": 38.89822616666667, "name": "e377ba406cba2edb4c16403640e11db9", "fusion_lat": 0.0, "fusion_lon": 0.0, "rental_uris": {"android": "https://dc.lft.to/lastmile_qr_scan", "ios": "https://dc.lft.to/lastmile_qr_scan"}, "is_reserved": 0, "is_disabled": 0, "type": "electric_scooter", "bike_id": "e377ba406cba2edb4c16403640e11db9"}, {"lon": -77.02817233333333, "lat": 38.928769333333335, "name": "400c9f8cdc2728887cee7e431c1971cf", "fusion_lat": 0.0, "fusion_lon": 0.0, "rental_uris": {"android": "https://dc.lft.to/lastmile_qr_scan", "ios": "https://dc.lft.to/lastmile_qr_scan"}, "is_reserved": 0, "is_disabled": 0, "type": "electric_scooter", "bike_id": "400c9f8cdc2728887cee7e431c1971cf"}, {"lon": -77.04437166666666, "lat": 38.921261666666666, "name": "c5f3dcb18e05d0b53c7071a970366ed3", "fusion_lat": 0.0, "fusion_lon": 0.0, "rental_uris": {"android": "https://dc.lft.to/lastmile_qr_scan", "ios": "https://dc.lft.to/lastmile_qr_scan"}, "is_reserved": 0, "is_disabled": 0, "type": "electric_scooter", "bike_id": "c5f3dcb18e05d0b53c7071a970366ed3"}, {"lon": -77.0020605, "lat": 38.91427433333333, "name": "9e5496b08ea9b1987dd5a58de284b6fd", "fusion_lat": 0.0, "fusion_lon": 0.0, "rental_uris": {"android": "https://dc.lft.to/lastmile_qr_scan", "ios": "https://dc.lft.to/lastmile_qr_scan"}, "is_reserved": 0, "is_disabled": 0, "type": "electric_scooter", "bike_id": "9e5496b08ea9b1987dd5a58de284b6fd"}, {"lon": -77.04678866666667, "lat": 38.9213225, "name": "de39fa0e86ff08bec10383686a1edbdd", "fusion_lat": 0.0, "fusion_lon": 0.0, "rental_uris": {"android": "https://dc.lft.to/lastmile_qr_scan", "ios": "https://dc.lft.to/lastmile_qr_scan"}, "is_reserved": 0, "is_disabled": 0, "type": "electric_scooter", "bike_id": "de39fa0e86ff08bec10383686a1edbdd"}, {"lon": -77.04734616666667, "lat": 38.912557, "name": "5f224c60e3effe6d1e0ffb908b5343b8", "fusion_lat": 0.0, "fusion_lon": 0.0, "rental_uris": {"android": "https://dc.lft.to/lastmile_qr_scan", "ios": "https://dc.lft.to/lastmile_qr_scan"}, "is_reserved": 0, "is_disabled": 0, "type": "electric_scooter", "bike_id": "5f224c60e3effe6d1e0ffb908b5343b8"}, {"lon": -77.02376866666667, "lat": 38.90207733333333, "name": "3af5f1533d55fa81ef4a22aff13a4171", "fusion_lat": 0.0, "fusion_lon": 0.0, "rental_uris": {"android": "https://dc.lft.to/lastmile_qr_scan", "ios": "https://dc.lft.to/lastmile_qr_scan"}, "is_reserved": 0, "is_disabled": 0, "type": "electric_scooter", "bike_id": "3af5f1533d55fa81ef4a22aff13a4171"}, {"lon": -77.0394155, "lat": 38.9081725, "name": "56544e276665a866004caaf4a18981cc", "fusion_lat": 0.0, "fusion_lon": 0.0, "rental_uris": {"android": "https://dc.lft.to/lastmile_qr_scan", "ios": "https://dc.lft.to/lastmile_qr_scan"}, "is_reserved": 0, "is_disabled": 0, "type": "electric_scooter", "bike_id": "56544e276665a866004caaf4a18981cc"}, {"lon": -76.94668183333333, "lat": 38.898698333333336, "name": "01f5d18b5d3a2dedd42559f2606e7159", "fusion_lat": 0.0, "fusion_lon": 0.0, "rental_uris": {"android": "https://dc.lft.to/lastmile_qr_scan", "ios": "https://dc.lft.to/lastmile_qr_scan"}, "is_reserved": 0, "is_disabled": 0, "type": "electric_scooter", "bike_id": "01f5d18b5d3a2dedd42559f2606e7159"}, {"lon": -77.0279595, "lat": 38.9308025, "name": "6e9dcaaadc8e5620882a73e1c5fadbfa", "fusion_lat": 0.0, "fusion_lon": 0.0, "rental_uris": {"android": "https://dc.lft.to/lastmile_qr_scan", "ios": "https://dc.lft.to/lastmile_qr_scan"}, "is_reserved": 0, "is_disabled": 0, "type": "electric_scooter", "bike_id": "6e9dcaaadc8e5620882a73e1c5fadbfa"}, {"lon": -77.02211483333333, "lat": 38.90577283333333, "name": "3d5e70d4f16cf3676d0926e40f49e93e", "fusion_lat": 0.0, "fusion_lon": 0.0, "rental_uris": {"android": "https://dc.lft.to/lastmile_qr_scan", "ios": "https://dc.lft.to/lastmile_qr_scan"}, "is_reserved": 0, "is_disabled": 0, "type": "electric_scooter", "bike_id": "3d5e70d4f16cf3676d0926e40f49e93e"}, {"lon": -77.04179433333333, "lat": 38.914097166666664, "name": "614d3f9e3220753fb8be76768d7e18de", "fusion_lat": 0.0, "fusion_lon": 0.0, "rental_uris": {"android": "https://dc.lft.to/lastmile_qr_scan", "ios": "https://dc.lft.to/lastmile_qr_scan"}, "is_reserved": 0, "is_disabled": 0, "type": "electric_scooter", "bike_id": "614d3f9e3220753fb8be76768d7e18de"}, {"lon": -76.9744435, "lat": 38.864025, "name": "9d79d623635458634777672423ad8ca7", "fusion_lat": 0.0, "fusion_lon": 0.0, "rental_uris": {"android": "https://dc.lft.to/lastmile_qr_scan", "ios": "https://dc.lft.to/lastmile_qr_scan"}, "is_reserved": 0, "is_disabled": 0, "type": "electric_bike", "bike_id": "9d79d623635458634777672423ad8ca7"}, {"lon": -77.0351645, "lat": 38.923356, "name": "41deeda8eba7c5547a88c21937dfc162", "fusion_lat": 0.0, "fusion_lon": 0.0, "rental_uris": {"android": "https://dc.lft.to/lastmile_qr_scan", "ios": "https://dc.lft.to/lastmile_qr_scan"}, "is_reserved": 0, "is_disabled": 0, "type": "electric_scooter", "bike_id": "41deeda8eba7c5547a88c21937dfc162"}, {"lon": -77.02769933333333, "lat": 38.892275833333336, "name": "0c81c806015a1272bb7bbc25fb377ae7", "fusion_lat": 0.0, "fusion_lon": 0.0, "rental_uris": {"android": "https://dc.lft.to/lastmile_qr_scan", "ios": "https://dc.lft.to/lastmile_qr_scan"}, "is_reserved": 0, "is_disabled": 0, "type": "electric_scooter", "bike_id": "0c81c806015a1272bb7bbc25fb377ae7"}, {"lon": -77.026928, "lat": 38.90368083333333, "name": "d2d033d53271cd3290f71ec997175505", "fusion_lat": 0.0, "fusion_lon": 0.0, "rental_uris": {"android": "https://dc.lft.to/lastmile_qr_scan", "ios": "https://dc.lft.to/lastmile_qr_scan"}, "is_reserved": 0, "is_disabled": 0, "type": "electric_scooter", "bike_id": "d2d033d53271cd3290f71ec997175505"}, {"lon": -77.0385055, "lat": 38.91062, "name": "17eae7bf4680ef40ed83e586eca8e4fa", "fusion_lat": 0.0, "fusion_lon": 0.0, "rental_uris": {"android": "https://dc.lft.to/lastmile_qr_scan", "ios": "https://dc.lft.to/lastmile_qr_scan"}, "is_reserved": 0, "is_disabled": 0, "type": "electric_scooter", "bike_id": "17eae7bf4680ef40ed83e586eca8e4fa"}, {"lon": -77.02898833333333, "lat": 38.92475566666667, "name": "044079549f5d34150bf8774bdba49336", "fusion_lat": 0.0, "fusion_lon": 0.0, "rental_uris": {"android": "https://dc.lft.to/lastmile_qr_scan", "ios": "https://dc.lft.to/lastmile_qr_scan"}, "is_reserved": 0, "is_disabled": 0, "type": "electric_scooter", "bike_id": "044079549f5d34150bf8774bdba49336"}, {"lon": -76.98851083333334, "lat": 38.903431, "name": "de6850059736c6dab9d2bf7e231eb342", "fusion_lat": 0.0, "fusion_lon": 0.0, "rental_uris": {"android": "https://dc.lft.to/lastmile_qr_scan", "ios": "https://dc.lft.to/lastmile_qr_scan"}, "is_reserved": 0, "is_disabled": 0, "type": "electric_scooter", "bike_id": "de6850059736c6dab9d2bf7e231eb342"}, {"lon": -77.02374233333333, "lat": 38.90721766666667, "name": "66429f8ea11f2628f32d1f2567477b75", "fusion_lat": 0.0, "fusion_lon": 0.0, "rental_uris": {"android": "https://dc.lft.to/lastmile_qr_scan", "ios": "https://dc.lft.to/lastmile_qr_scan"}, "is_reserved": 0, "is_disabled": 0, "type": "electric_scooter", "bike_id": "66429f8ea11f2628f32d1f2567477b75"}, {"lon": -76.98567583333333, "lat": 38.89412183333334, "name": "4b71a16a343cd0096ffd2502f70a83ec", "fusion_lat": 0.0, "fusion_lon": 0.0, "rental_uris": {"android": "https://dc.lft.to/lastmile_qr_scan", "ios": "https://dc.lft.to/lastmile_qr_scan"}, "is_reserved": 0, "is_disabled": 0, "type": "electric_scooter", "bike_id": "4b71a16a343cd0096ffd2502f70a83ec"}, {"lon": -77.02778766666667, "lat": 38.927702333333336, "name": "3105100a440bc7648cd1ff307860e63b", "fusion_lat": 0.0, "fusion_lon": 0.0, "rental_uris": {"android": "https://dc.lft.to/lastmile_qr_scan", "ios": "https://dc.lft.to/lastmile_qr_scan"}, "is_reserved": 0, "is_disabled": 0, "type": "electric_scooter", "bike_id": "3105100a440bc7648cd1ff307860e63b"}, {"lon": -77.02866133333333, "lat": 38.904597333333335, "name": "31312afd1cfdf6b1518d6df0196f7418", "fusion_lat": 0.0, "fusion_lon": 0.0, "rental_uris": {"android": "https://dc.lft.to/lastmile_qr_scan", "ios": "https://dc.lft.to/lastmile_qr_scan"}, "is_reserved": 0, "is_disabled": 0, "type": "electric_scooter", "bike_id": "31312afd1cfdf6b1518d6df0196f7418"}, {"lon": -77.05932416666667, "lat": 38.936745, "name": "d96360672e42008fa75964c46109fd62", "fusion_lat": 0.0, "fusion_lon": 0.0, "rental_uris": {"android": "https://dc.lft.to/lastmile_qr_scan", "ios": "https://dc.lft.to/lastmile_qr_scan"}, "is_reserved": 0, "is_disabled": 0, "type": "electric_scooter", "bike_id": "d96360672e42008fa75964c46109fd62"}, {"lon": -77.02574933333334, "lat": 38.925116833333334, "name": "66397cc62a8a58b43c1d3bc48c730c2e", "fusion_lat": 0.0, "fusion_lon": 0.0, "rental_uris": {"android": "https://dc.lft.to/lastmile_qr_scan", "ios": "https://dc.lft.to/lastmile_qr_scan"}, "is_reserved": 0, "is_disabled": 0, "type": "electric_scooter", "bike_id": "66397cc62a8a58b43c1d3bc48c730c2e"}, {"lon": -77.02724083333334, "lat": 38.9513385, "name": "02ec83d4b11ecd8151b398b6f5ed511d", "fusion_lat": 0.0, "fusion_lon": 0.0, "rental_uris": {"android": "https://dc.lft.to/lastmile_qr_scan", "ios": "https://dc.lft.to/lastmile_qr_scan"}, "is_reserved": 0, "is_disabled": 0, "type": "electric_scooter", "bike_id": "02ec83d4b11ecd8151b398b6f5ed511d"}, {"lon": -77.0210175, "lat": 38.93004116666667, "name": "e0e315581a1d61aeb5f30e9eb43a9998", "fusion_lat": 0.0, "fusion_lon": 0.0, "rental_uris": {"android": "https://dc.lft.to/lastmile_qr_scan", "ios": "https://dc.lft.to/lastmile_qr_scan"}, "is_reserved": 0, "is_disabled": 0, "type": "electric_scooter", "bike_id": "e0e315581a1d61aeb5f30e9eb43a9998"}, {"lon": -77.03367366666667, "lat": 38.935938166666666, "name": "1488eaa135353d6c1ef08c1c2cee72b0", "fusion_lat": 0.0, "fusion_lon": 0.0, "rental_uris": {"android": "https://dc.lft.to/lastmile_qr_scan", "ios": "https://dc.lft.to/lastmile_qr_scan"}, "is_reserved": 0, "is_disabled": 0, "type": "electric_scooter", "bike_id": "1488eaa135353d6c1ef08c1c2cee72b0"}, {"lon": -77.00802916666666, "lat": 38.94928083333333, "name": "75579d44fbedd016fcbf1488da4a8453", "fusion_lat": 0.0, "fusion_lon": 0.0, "rental_uris": {"android": "https://dc.lft.to/lastmile_qr_scan", "ios": "https://dc.lft.to/lastmile_qr_scan"}, "is_reserved": 0, "is_disabled": 0, "type": "electric_bike", "bike_id": "75579d44fbedd016fcbf1488da4a8453"}, {"lon": -76.99789083333333, "lat": 38.890876166666665, "name": "0f7673e364406e8443bf0cc71bacbbae", "fusion_lat": 0.0, "fusion_lon": 0.0, "rental_uris": {"android": "https://dc.lft.to/lastmile_qr_scan", "ios": "https://dc.lft.to/lastmile_qr_scan"}, "is_reserved": 0, "is_disabled": 0, "type": "electric_scooter", "bike_id": "0f7673e364406e8443bf0cc71bacbbae"}, {"lon": -77.0253685, "lat": 38.940993666666664, "name": "de75c63f26f12448832947193c222285", "fusion_lat": 0.0, "fusion_lon": 0.0, "rental_uris": {"android": "https://dc.lft.to/lastmile_qr_scan", "ios": "https://dc.lft.to/lastmile_qr_scan"}, "is_reserved": 0, "is_disabled": 0, "type": "electric_scooter", "bike_id": "de75c63f26f12448832947193c222285"}, {"lon": -77.01229766666667, "lat": 38.915251166666664, "name": "4a5fc60e365996c9bb02fb9c316ab993", "fusion_lat": 0.0, "fusion_lon": 0.0, "rental_uris": {"android": "https://dc.lft.to/lastmile_qr_scan", "ios": "https://dc.lft.to/lastmile_qr_scan"}, "is_reserved": 0, "is_disabled": 0, "type": "electric_scooter", "bike_id": "4a5fc60e365996c9bb02fb9c316ab993"}, {"lon": -77.0340575, "lat": 38.935028, "name": "f1043d6bf4fd0fd14074944c015e1135", "fusion_lat": 0.0, "fusion_lon": 0.0, "rental_uris": {"android": "https://dc.lft.to/lastmile_qr_scan", "ios": "https://dc.lft.to/lastmile_qr_scan"}, "is_reserved": 0, "is_disabled": 0, "type": "electric_scooter", "bike_id": "f1043d6bf4fd0fd14074944c015e1135"}, {"lon": -77.04588266666667, "lat": 38.90247683333333, "name": "a1864f365b5365207f631272b135aca0", "fusion_lat": 0.0, "fusion_lon": 0.0, "rental_uris": {"android": "https://dc.lft.to/lastmile_qr_scan", "ios": "https://dc.lft.to/lastmile_qr_scan"}, "is_reserved": 0, "is_disabled": 0, "type": "electric_scooter", "bike_id": "a1864f365b5365207f631272b135aca0"}, {"lon": -77.02119183333333, "lat": 38.917421166666664, "name": "1ee132856f081239fa63f2aab9a1c719", "fusion_lat": 0.0, "fusion_lon": 0.0, "rental_uris": {"android": "https://dc.lft.to/lastmile_qr_scan", "ios": "https://dc.lft.to/lastmile_qr_scan"}, "is_reserved": 0, "is_disabled": 0, "type": "electric_scooter", "bike_id": "1ee132856f081239fa63f2aab9a1c719"}, {"lon": -77.032927, "lat": 38.922157, "name": "92007f3a528327efa624f763c30a34bc", "fusion_lat": 0.0, "fusion_lon": 0.0, "rental_uris": {"android": "https://dc.lft.to/lastmile_qr_scan", "ios": "https://dc.lft.to/lastmile_qr_scan"}, "is_reserved": 0, "is_disabled": 0, "type": "electric_scooter", "bike_id": "92007f3a528327efa624f763c30a34bc"}, {"lon": -77.0325655, "lat": 38.9352925, "name": "a25485c4a0f2da9c76cdc643e96be43f", "fusion_lat": 0.0, "fusion_lon": 0.0, "rental_uris": {"android": "https://dc.lft.to/lastmile_qr_scan", "ios": "https://dc.lft.to/lastmile_qr_scan"}, "is_reserved": 0, "is_disabled": 0, "type": "electric_scooter", "bike_id": "a25485c4a0f2da9c76cdc643e96be43f"}, {"lon": -76.9798405, "lat": 38.87759366666667, "name": "fe42d2a1bb898c11e7c94b8252d672d2", "fusion_lat": 0.0, "fusion_lon": 0.0, "rental_uris": {"android": "https://dc.lft.to/lastmile_qr_scan", "ios": "https://dc.lft.to/lastmile_qr_scan"}, "is_reserved": 0, "is_disabled": 0, "type": "electric_bike", "bike_id": "fe42d2a1bb898c11e7c94b8252d672d2"}, {"lon": -77.0220965, "lat": 38.9020565, "name": "d7b30187bf1baf05207c9cef6acb0049", "fusion_lat": 0.0, "fusion_lon": 0.0, "rental_uris": {"android": "https://dc.lft.to/lastmile_qr_scan", "ios": "https://dc.lft.to/lastmile_qr_scan"}, "is_reserved": 0, "is_disabled": 0, "type": "electric_scooter", "bike_id": "d7b30187bf1baf05207c9cef6acb0049"}, {"lon": -77.03147383333334, "lat": 38.91570183333333, "name": "37a46d6e786a768ec07a4f787ae13d40", "fusion_lat": 0.0, "fusion_lon": 0.0, "rental_uris": {"android": "https://dc.lft.to/lastmile_qr_scan", "ios": "https://dc.lft.to/lastmile_qr_scan"}, "is_reserved": 0, "is_disabled": 0, "type": "electric_scooter", "bike_id": "37a46d6e786a768ec07a4f787ae13d40"}, {"lon": -77.03793116666667, "lat": 38.90574816666667, "name": "3ec6eea0477af6ea48dd65c916492b0f", "fusion_lat": 0.0, "fusion_lon": 0.0, "rental_uris": {"android": "https://dc.lft.to/lastmile_qr_scan", "ios": "https://dc.lft.to/lastmile_qr_scan"}, "is_reserved": 0, "is_disabled": 0, "type": "electric_scooter", "bike_id": "3ec6eea0477af6ea48dd65c916492b0f"}, {"lon": -76.99696433333334, "lat": 38.91083233333333, "name": "c4180c99aaccf319d2f7c884deaca2c0", "fusion_lat": 0.0, "fusion_lon": 0.0, "rental_uris": {"android": "https://dc.lft.to/lastmile_qr_scan", "ios": "https://dc.lft.to/lastmile_qr_scan"}, "is_reserved": 0, "is_disabled": 0, "type": "electric_scooter", "bike_id": "c4180c99aaccf319d2f7c884deaca2c0"}, {"lon": -76.9774235, "lat": 38.9050565, "name": "442ca95d4d4ef3ebba16e2a6d27be61a", "fusion_lat": 0.0, "fusion_lon": 0.0, "rental_uris": {"android": "https://dc.lft.to/lastmile_qr_scan", "ios": "https://dc.lft.to/lastmile_qr_scan"}, "is_reserved": 0, "is_disabled": 0, "type": "electric_scooter", "bike_id": "442ca95d4d4ef3ebba16e2a6d27be61a"}, {"lon": -76.94782166666667, "lat": 38.894396, "name": "3d2044a87c3d14b6241c27a9e39a46cd", "fusion_lat": 0.0, "fusion_lon": 0.0, "rental_uris": {"android": "https://dc.lft.to/lastmile_qr_scan", "ios": "https://dc.lft.to/lastmile_qr_scan"}, "is_reserved": 0, "is_disabled": 0, "type": "electric_bike", "bike_id": "3d2044a87c3d14b6241c27a9e39a46cd"}, {"lon": -77.031864, "lat": 38.907961666666665, "name": "751a6d9a92249f91a5cfa877418d2a9c", "fusion_lat": 0.0, "fusion_lon": 0.0, "rental_uris": {"android": "https://dc.lft.to/lastmile_qr_scan", "ios": "https://dc.lft.to/lastmile_qr_scan"}, "is_reserved": 0, "is_disabled": 0, "type": "electric_scooter", "bike_id": "751a6d9a92249f91a5cfa877418d2a9c"}, {"lon": -77.3609165, "lat": 38.9396085, "name": "9ed30845009f971ce1434786d409e73c", "fusion_lat": 0.0, "fusion_lon": 0.0, "rental_uris": {"android": "https://dc.lft.to/lastmile_qr_scan", "ios": "https://dc.lft.to/lastmile_qr_scan"}, "is_reserved": 0, "is_disabled": 0, "type": "electric_bike", "bike_id": "9ed30845009f971ce1434786d409e73c"}, {"lon": -77.02276733333333, "lat": 38.90960616666667, "name": "3787a19b29b45efc5d9eb36650f1741e", "fusion_lat": 0.0, "fusion_lon": 0.0, "rental_uris": {"android": "https://dc.lft.to/lastmile_qr_scan", "ios": "https://dc.lft.to/lastmile_qr_scan"}, "is_reserved": 0, "is_disabled": 0, "type": "electric_scooter", "bike_id": "3787a19b29b45efc5d9eb36650f1741e"}, {"lon": -77.02354366666667, "lat": 38.919976166666665, "name": "4883d1c7471a3fcb604715f1ab9eb874", "fusion_lat": 0.0, "fusion_lon": 0.0, "rental_uris": {"android": "https://dc.lft.to/lastmile_qr_scan", "ios": "https://dc.lft.to/lastmile_qr_scan"}, "is_reserved": 0, "is_disabled": 0, "type": "electric_scooter", "bike_id": "4883d1c7471a3fcb604715f1ab9eb874"}, {"lon": -77.0385685, "lat": 38.91721366666667, "name": "1490101825363eebbc02bfc898e224f2", "fusion_lat": 0.0, "fusion_lon": 0.0, "rental_uris": {"android": "https://dc.lft.to/lastmile_qr_scan", "ios": "https://dc.lft.to/lastmile_qr_scan"}, "is_reserved": 0, "is_disabled": 0, "type": "electric_scooter", "bike_id": "1490101825363eebbc02bfc898e224f2"}, {"lon": -77.03938866666667, "lat": 38.914154, "name": "7815dd7cc42a8ddb950286613502beab", "fusion_lat": 0.0, "fusion_lon": 0.0, "rental_uris": {"android": "https://dc.lft.to/lastmile_qr_scan", "ios": "https://dc.lft.to/lastmile_qr_scan"}, "is_reserved": 0, "is_disabled": 0, "type": "electric_scooter", "bike_id": "7815dd7cc42a8ddb950286613502beab"}, {"lon": -77.00558533333333, "lat": 38.9057715, "name": "ff98b26c57b8bd8e7f819de0b93b4a2c", "fusion_lat": 0.0, "fusion_lon": 0.0, "rental_uris": {"android": "https://dc.lft.to/lastmile_qr_scan", "ios": "https://dc.lft.to/lastmile_qr_scan"}, "is_reserved": 0, "is_disabled": 0, "type": "electric_scooter", "bike_id": "ff98b26c57b8bd8e7f819de0b93b4a2c"}, {"lon": -77.07890366666666, "lat": 38.919286666666665, "name": "127484504555702b6e039f23ac3e4d6f", "fusion_lat": 0.0, "fusion_lon": 0.0, "rental_uris": {"android": "https://dc.lft.to/lastmile_qr_scan", "ios": "https://dc.lft.to/lastmile_qr_scan"}, "is_reserved": 0, "is_disabled": 0, "type": "electric_scooter", "bike_id": "127484504555702b6e039f23ac3e4d6f"}, {"lon": -77.03700083333334, "lat": 38.9264785, "name": "7860401ab7d0767a0fa5fd5a3047ef0f", "fusion_lat": 0.0, "fusion_lon": 0.0, "rental_uris": {"android": "https://dc.lft.to/lastmile_qr_scan", "ios": "https://dc.lft.to/lastmile_qr_scan"}, "is_reserved": 0, "is_disabled": 0, "type": "electric_scooter", "bike_id": "7860401ab7d0767a0fa5fd5a3047ef0f"}, {"lon": -77.00794083333334, "lat": 38.91707783333333, "name": "c3a5b129cc962ef09111e72dbf5c05c4", "fusion_lat": 0.0, "fusion_lon": 0.0, "rental_uris": {"android": "https://dc.lft.to/lastmile_qr_scan", "ios": "https://dc.lft.to/lastmile_qr_scan"}, "is_reserved": 0, "is_disabled": 0, "type": "electric_scooter", "bike_id": "c3a5b129cc962ef09111e72dbf5c05c4"}, {"lon": -77.02987783333333, "lat": 38.91682983333333, "name": "9d37259af92d1bd31bf06845a9bb1a5d", "fusion_lat": 0.0, "fusion_lon": 0.0, "rental_uris": {"android": "https://dc.lft.to/lastmile_qr_scan", "ios": "https://dc.lft.to/lastmile_qr_scan"}, "is_reserved": 0, "is_disabled": 0, "type": "electric_scooter", "bike_id": "9d37259af92d1bd31bf06845a9bb1a5d"}, {"lon": -77.02001016666667, "lat": 38.966263166666664, "name": "6dc40a37272e07df6b66b97b9b18f6b1", "fusion_lat": 0.0, "fusion_lon": 0.0, "rental_uris": {"android": "https://dc.lft.to/lastmile_qr_scan", "ios": "https://dc.lft.to/lastmile_qr_scan"}, "is_reserved": 0, "is_disabled": 0, "type": "electric_scooter", "bike_id": "6dc40a37272e07df6b66b97b9b18f6b1"}, {"lon": -77.0158785, "lat": 38.92845033333333, "name": "c2e98ff9b47d645da18056f3a9677f0d", "fusion_lat": 0.0, "fusion_lon": 0.0, "rental_uris": {"android": "https://dc.lft.to/lastmile_qr_scan", "ios": "https://dc.lft.to/lastmile_qr_scan"}, "is_reserved": 0, "is_disabled": 0, "type": "electric_scooter", "bike_id": "c2e98ff9b47d645da18056f3a9677f0d"}, {"lon": -76.97626566666666, "lat": 38.89579033333333, "name": "c03eca5581b8a22f17f93843b8d4d8cc", "fusion_lat": 0.0, "fusion_lon": 0.0, "rental_uris": {"android": "https://dc.lft.to/lastmile_qr_scan", "ios": "https://dc.lft.to/lastmile_qr_scan"}, "is_reserved": 0, "is_disabled": 0, "type": "electric_bike", "bike_id": "c03eca5581b8a22f17f93843b8d4d8cc"}, {"lon": -77.00520466666667, "lat": 38.916991, "name": "852d560053580aa748b0f5bc0dfa5a73", "fusion_lat": 0.0, "fusion_lon": 0.0, "rental_uris": {"android": "https://dc.lft.to/lastmile_qr_scan", "ios": "https://dc.lft.to/lastmile_qr_scan"}, "is_reserved": 0, "is_disabled": 0, "type": "electric_scooter", "bike_id": "852d560053580aa748b0f5bc0dfa5a73"}, {"lon": -77.01055433333333, "lat": 38.872454, "name": "e08153a714e90342319e6a0761ed2686", "fusion_lat": 0.0, "fusion_lon": 0.0, "rental_uris": {"android": "https://dc.lft.to/lastmile_qr_scan", "ios": "https://dc.lft.to/lastmile_qr_scan"}, "is_reserved": 0, "is_disabled": 0, "type": "electric_scooter", "bike_id": "e08153a714e90342319e6a0761ed2686"}, {"lon": -77.03448866666666, "lat": 38.91809166666667, "name": "327f7116f716042c9c4645c80c125daf", "fusion_lat": 0.0, "fusion_lon": 0.0, "rental_uris": {"android": "https://dc.lft.to/lastmile_qr_scan", "ios": "https://dc.lft.to/lastmile_qr_scan"}, "is_reserved": 0, "is_disabled": 0, "type": "electric_scooter", "bike_id": "327f7116f716042c9c4645c80c125daf"}, {"lon": -77.08942233333333, "lat": 38.840913666666665, "name": "c803f11936f1f186ff278f23bdb79d2d", "fusion_lat": 0.0, "fusion_lon": 0.0, "rental_uris": {"android": "https://dc.lft.to/lastmile_qr_scan", "ios": "https://dc.lft.to/lastmile_qr_scan"}, "is_reserved": 0, "is_disabled": 0, "type": "electric_bike", "bike_id": "c803f11936f1f186ff278f23bdb79d2d"}, {"lon": -77.019758, "lat": 38.902314833333335, "name": "77643782ab59573448803ebba6135bf9", "fusion_lat": 0.0, "fusion_lon": 0.0, "rental_uris": {"android": "https://dc.lft.to/lastmile_qr_scan", "ios": "https://dc.lft.to/lastmile_qr_scan"}, "is_reserved": 0, "is_disabled": 0, "type": "electric_scooter", "bike_id": "77643782ab59573448803ebba6135bf9"}, {"lon": -77.02700916666667, "lat": 38.950029, "name": "b0df2f45a71d83dab6969bc0d85c1904", "fusion_lat": 0.0, "fusion_lon": 0.0, "rental_uris": {"android": "https://dc.lft.to/lastmile_qr_scan", "ios": "https://dc.lft.to/lastmile_qr_scan"}, "is_reserved": 0, "is_disabled": 0, "type": "electric_scooter", "bike_id": "b0df2f45a71d83dab6969bc0d85c1904"}, {"lon": -77.0329375, "lat": 38.95656483333333, "name": "0abd6e197d6c59938b3d9e56f8f53dc8", "fusion_lat": 0.0, "fusion_lon": 0.0, "rental_uris": {"android": "https://dc.lft.to/lastmile_qr_scan", "ios": "https://dc.lft.to/lastmile_qr_scan"}, "is_reserved": 0, "is_disabled": 0, "type": "electric_scooter", "bike_id": "0abd6e197d6c59938b3d9e56f8f53dc8"}, {"lon": -77.01901866666667, "lat": 38.917346333333334, "name": "49e948946d74c1a1374529daeb0c4648", "fusion_lat": 0.0, "fusion_lon": 0.0, "rental_uris": {"android": "https://dc.lft.to/lastmile_qr_scan", "ios": "https://dc.lft.to/lastmile_qr_scan"}, "is_reserved": 0, "is_disabled": 0, "type": "electric_scooter", "bike_id": "49e948946d74c1a1374529daeb0c4648"}, {"lon": -77.02795866666666, "lat": 38.9056285, "name": "cdc595ffdbcf5eaf279385ce9254654e", "fusion_lat": 0.0, "fusion_lon": 0.0, "rental_uris": {"android": "https://dc.lft.to/lastmile_qr_scan", "ios": "https://dc.lft.to/lastmile_qr_scan"}, "is_reserved": 0, "is_disabled": 0, "type": "electric_scooter", "bike_id": "cdc595ffdbcf5eaf279385ce9254654e"}, {"lon": -76.99060483333334, "lat": 38.936928, "name": "af8949bdfe78eb6c37c0d24862eb5656", "fusion_lat": 0.0, "fusion_lon": 0.0, "rental_uris": {"android": "https://dc.lft.to/lastmile_qr_scan", "ios": "https://dc.lft.to/lastmile_qr_scan"}, "is_reserved": 0, "is_disabled": 0, "type": "electric_bike", "bike_id": "af8949bdfe78eb6c37c0d24862eb5656"}, {"lon": -77.04077466666666, "lat": 38.812408833333336, "name": "0ed30407563f12d9eb34a4ae3232ae90", "fusion_lat": 0.0, "fusion_lon": 0.0, "rental_uris": {"android": "https://dc.lft.to/lastmile_qr_scan", "ios": "https://dc.lft.to/lastmile_qr_scan"}, "is_reserved": 0, "is_disabled": 0, "type": "electric_bike", "bike_id": "0ed30407563f12d9eb34a4ae3232ae90"}, {"lon": -77.03273083333333, "lat": 38.91994033333334, "name": "d8a6f02f81651d75b8909dc57231b1df", "fusion_lat": 0.0, "fusion_lon": 0.0, "rental_uris": {"android": "https://dc.lft.to/lastmile_qr_scan", "ios": "https://dc.lft.to/lastmile_qr_scan"}, "is_reserved": 0, "is_disabled": 0, "type": "electric_scooter", "bike_id": "d8a6f02f81651d75b8909dc57231b1df"}, {"lon": -77.0020465, "lat": 38.902441333333336, "name": "983051fde0e7921f89eb792a5ea2497b", "fusion_lat": 0.0, "fusion_lon": 0.0, "rental_uris": {"android": "https://dc.lft.to/lastmile_qr_scan", "ios": "https://dc.lft.to/lastmile_qr_scan"}, "is_reserved": 0, "is_disabled": 0, "type": "electric_scooter", "bike_id": "983051fde0e7921f89eb792a5ea2497b"}, {"lon": -76.93203433333333, "lat": 38.87233883333333, "name": "e7b8dcc93031da227c772ee56960cb61", "fusion_lat": 0.0, "fusion_lon": 0.0, "rental_uris": {"android": "https://dc.lft.to/lastmile_qr_scan", "ios": "https://dc.lft.to/lastmile_qr_scan"}, "is_reserved": 0, "is_disabled": 0, "type": "electric_bike", "bike_id": "e7b8dcc93031da227c772ee56960cb61"}, {"lon": -77.07015783333334, "lat": 38.927725, "name": "26b862afb784aae7d43956f7fde107f0", "fusion_lat": 0.0, "fusion_lon": 0.0, "rental_uris": {"android": "https://dc.lft.to/lastmile_qr_scan", "ios": "https://dc.lft.to/lastmile_qr_scan"}, "is_reserved": 0, "is_disabled": 0, "type": "electric_bike", "bike_id": "26b862afb784aae7d43956f7fde107f0"}, {"lon": -77.03833516666667, "lat": 38.9050295, "name": "ad6da2e200f7e6c1c4bbb0a4a93b0528", "fusion_lat": 0.0, "fusion_lon": 0.0, "rental_uris": {"android": "https://dc.lft.to/lastmile_qr_scan", "ios": "https://dc.lft.to/lastmile_qr_scan"}, "is_reserved": 0, "is_disabled": 0, "type": "electric_scooter", "bike_id": "ad6da2e200f7e6c1c4bbb0a4a93b0528"}, {"lon": -76.95241883333334, "lat": 38.88677333333333, "name": "04999226e810fef05abfbd862f658e47", "fusion_lat": 0.0, "fusion_lon": 0.0, "rental_uris": {"android": "https://dc.lft.to/lastmile_qr_scan", "ios": "https://dc.lft.to/lastmile_qr_scan"}, "is_reserved": 0, "is_disabled": 0, "type": "electric_scooter", "bike_id": "04999226e810fef05abfbd862f658e47"}, {"lon": -77.03696983333333, "lat": 38.91696683333333, "name": "2153008664996a33f1694aa9e9c3c62d", "fusion_lat": 0.0, "fusion_lon": 0.0, "rental_uris": {"android": "https://dc.lft.to/lastmile_qr_scan", "ios": "https://dc.lft.to/lastmile_qr_scan"}, "is_reserved": 0, "is_disabled": 0, "type": "electric_scooter", "bike_id": "2153008664996a33f1694aa9e9c3c62d"}, {"lon": -77.0298775, "lat": 38.95630416666667, "name": "465f3ba57d6cee571bfe0e7a45f9f5f1", "fusion_lat": 0.0, "fusion_lon": 0.0, "rental_uris": {"android": "https://dc.lft.to/lastmile_qr_scan", "ios": "https://dc.lft.to/lastmile_qr_scan"}, "is_reserved": 0, "is_disabled": 0, "type": "electric_scooter", "bike_id": "465f3ba57d6cee571bfe0e7a45f9f5f1"}, {"lon": -77.02254833333333, "lat": 38.92500316666667, "name": "1f979346f9f80896a392c2fc51f62b76", "fusion_lat": 0.0, "fusion_lon": 0.0, "rental_uris": {"android": "https://dc.lft.to/lastmile_qr_scan", "ios": "https://dc.lft.to/lastmile_qr_scan"}, "is_reserved": 0, "is_disabled": 0, "type": "electric_scooter", "bike_id": "1f979346f9f80896a392c2fc51f62b76"}, {"lon": -76.9978125, "lat": 38.844261833333334, "name": "ea10c7efeae8a4adebdbaa042e404755", "fusion_lat": 0.0, "fusion_lon": 0.0, "rental_uris": {"android": "https://dc.lft.to/lastmile_qr_scan", "ios": "https://dc.lft.to/lastmile_qr_scan"}, "is_reserved": 0, "is_disabled": 0, "type": "electric_scooter", "bike_id": "ea10c7efeae8a4adebdbaa042e404755"}, {"lon": -77.0325485, "lat": 38.93528033333333, "name": "4c2ae8169b9f75cb9c43bbe013fedcea", "fusion_lat": 0.0, "fusion_lon": 0.0, "rental_uris": {"android": "https://dc.lft.to/lastmile_qr_scan", "ios": "https://dc.lft.to/lastmile_qr_scan"}, "is_reserved": 0, "is_disabled": 0, "type": "electric_scooter", "bike_id": "4c2ae8169b9f75cb9c43bbe013fedcea"}, {"lon": -77.02165983333333, "lat": 38.886365833333336, "name": "772eb0dec6f617b73202cf5781ba2c1d", "fusion_lat": 0.0, "fusion_lon": 0.0, "rental_uris": {"android": "https://dc.lft.to/lastmile_qr_scan", "ios": "https://dc.lft.to/lastmile_qr_scan"}, "is_reserved": 0, "is_disabled": 0, "type": "electric_scooter", "bike_id": "772eb0dec6f617b73202cf5781ba2c1d"}, {"lon": -77.0424655, "lat": 38.92237933333333, "name": "080e282c4e4f77e087680a8c21de6f64", "fusion_lat": 0.0, "fusion_lon": 0.0, "rental_uris": {"android": "https://dc.lft.to/lastmile_qr_scan", "ios": "https://dc.lft.to/lastmile_qr_scan"}, "is_reserved": 0, "is_disabled": 0, "type": "electric_scooter", "bike_id": "080e282c4e4f77e087680a8c21de6f64"}, {"lon": -77.07167083333333, "lat": 38.914564166666665, "name": "58d3136bffb99b1023fa00e5a46bf83c", "fusion_lat": 0.0, "fusion_lon": 0.0, "rental_uris": {"android": "https://dc.lft.to/lastmile_qr_scan", "ios": "https://dc.lft.to/lastmile_qr_scan"}, "is_reserved": 0, "is_disabled": 0, "type": "electric_scooter", "bike_id": "58d3136bffb99b1023fa00e5a46bf83c"}, {"lon": -77.0287075, "lat": 38.89754766666667, "name": "825dfe7f627605caf6d05c48ffbb9c33", "fusion_lat": 0.0, "fusion_lon": 0.0, "rental_uris": {"android": "https://dc.lft.to/lastmile_qr_scan", "ios": "https://dc.lft.to/lastmile_qr_scan"}, "is_reserved": 0, "is_disabled": 0, "type": "electric_scooter", "bike_id": "825dfe7f627605caf6d05c48ffbb9c33"}, {"lon": -76.99631533333333, "lat": 38.846187, "name": "a36b39c5973cf9d1f1094acd227eb46d", "fusion_lat": 0.0, "fusion_lon": 0.0, "rental_uris": {"android": "https://dc.lft.to/lastmile_qr_scan", "ios": "https://dc.lft.to/lastmile_qr_scan"}, "is_reserved": 0, "is_disabled": 0, "type": "electric_scooter", "bike_id": "a36b39c5973cf9d1f1094acd227eb46d"}, {"lon": -77.03864433333334, "lat": 38.90386916666667, "name": "a3ac48262fb1ffc559a6aeab781fec02", "fusion_lat": 0.0, "fusion_lon": 0.0, "rental_uris": {"android": "https://dc.lft.to/lastmile_qr_scan", "ios": "https://dc.lft.to/lastmile_qr_scan"}, "is_reserved": 0, "is_disabled": 0, "type": "electric_scooter", "bike_id": "a3ac48262fb1ffc559a6aeab781fec02"}, {"lon": -77.041706, "lat": 38.91462533333333, "name": "a7393d1113d640769a5361a4f83f4585", "fusion_lat": 0.0, "fusion_lon": 0.0, "rental_uris": {"android": "https://dc.lft.to/lastmile_qr_scan", "ios": "https://dc.lft.to/lastmile_qr_scan"}, "is_reserved": 0, "is_disabled": 0, "type": "electric_scooter", "bike_id": "a7393d1113d640769a5361a4f83f4585"}, {"lon": -76.94284633333334, "lat": 38.954075333333336, "name": "d9d4bd0e894cbf604b8d70bbe37a5960", "fusion_lat": 0.0, "fusion_lon": 0.0, "rental_uris": {"android": "https://dc.lft.to/lastmile_qr_scan", "ios": "https://dc.lft.to/lastmile_qr_scan"}, "is_reserved": 0, "is_disabled": 0, "type": "electric_bike", "bike_id": "d9d4bd0e894cbf604b8d70bbe37a5960"}, {"lon": -77.026912, "lat": 38.90943016666667, "name": "65e1408c3ba25ffcf371a15c5c050dc2", "fusion_lat": 0.0, "fusion_lon": 0.0, "rental_uris": {"android": "https://dc.lft.to/lastmile_qr_scan", "ios": "https://dc.lft.to/lastmile_qr_scan"}, "is_reserved": 0, "is_disabled": 0, "type": "electric_scooter", "bike_id": "65e1408c3ba25ffcf371a15c5c050dc2"}, {"lon": -76.965292, "lat": 38.876314, "name": "0f60aff2a1e9d9b66faaff11e10342a7", "fusion_lat": 0.0, "fusion_lon": 0.0, "rental_uris": {"android": "https://dc.lft.to/lastmile_qr_scan", "ios": "https://dc.lft.to/lastmile_qr_scan"}, "is_reserved": 0, "is_disabled": 0, "type": "electric_scooter", "bike_id": "0f60aff2a1e9d9b66faaff11e10342a7"}, {"lon": -77.02718933333334, "lat": 38.892215666666665, "name": "e09a6f7bf2bf07bea05b88c6794c7900", "fusion_lat": 0.0, "fusion_lon": 0.0, "rental_uris": {"android": "https://dc.lft.to/lastmile_qr_scan", "ios": "https://dc.lft.to/lastmile_qr_scan"}, "is_reserved": 0, "is_disabled": 0, "type": "electric_scooter", "bike_id": "e09a6f7bf2bf07bea05b88c6794c7900"}, {"lon": -77.01112666666667, "lat": 38.903724, "name": "a5e5bcf8309a8f9038c93863e7e267ed", "fusion_lat": 0.0, "fusion_lon": 0.0, "rental_uris": {"android": "https://dc.lft.to/lastmile_qr_scan", "ios": "https://dc.lft.to/lastmile_qr_scan"}, "is_reserved": 0, "is_disabled": 0, "type": "electric_scooter", "bike_id": "a5e5bcf8309a8f9038c93863e7e267ed"}, {"lon": -77.028191, "lat": 38.916006333333335, "name": "de3da6677d1072e43aa85a9dd687af2f", "fusion_lat": 0.0, "fusion_lon": 0.0, "rental_uris": {"android": "https://dc.lft.to/lastmile_qr_scan", "ios": "https://dc.lft.to/lastmile_qr_scan"}, "is_reserved": 0, "is_disabled": 0, "type": "electric_scooter", "bike_id": "de3da6677d1072e43aa85a9dd687af2f"}, {"lon": -77.022307, "lat": 38.912693833333336, "name": "08665b4cbb89880b4b192b1595e504a9", "fusion_lat": 0.0, "fusion_lon": 0.0, "rental_uris": {"android": "https://dc.lft.to/lastmile_qr_scan", "ios": "https://dc.lft.to/lastmile_qr_scan"}, "is_reserved": 0, "is_disabled": 0, "type": "electric_scooter", "bike_id": "08665b4cbb89880b4b192b1595e504a9"}, {"lon": -77.0389545, "lat": 38.92333633333333, "name": "c173c76d492495563a3e5689d2cbd820", "fusion_lat": 0.0, "fusion_lon": 0.0, "rental_uris": {"android": "https://dc.lft.to/lastmile_qr_scan", "ios": "https://dc.lft.to/lastmile_qr_scan"}, "is_reserved": 0, "is_disabled": 0, "type": "electric_scooter", "bike_id": "c173c76d492495563a3e5689d2cbd820"}, {"lon": -77.06974933333333, "lat": 38.952734, "name": "136e1f12e5b1ef61479b413073bc9839", "fusion_lat": 0.0, "fusion_lon": 0.0, "rental_uris": {"android": "https://dc.lft.to/lastmile_qr_scan", "ios": "https://dc.lft.to/lastmile_qr_scan"}, "is_reserved": 0, "is_disabled": 0, "type": "electric_bike", "bike_id": "136e1f12e5b1ef61479b413073bc9839"},