{"data": {"bikes": [{"lon": -77.12506733333333, "lat": 39.02417666666667, "name": "a618dbbe0b350d5c7154bf1a6b157182", "fusion_lat": 0.0, "fusion_lon": 0.0, "rental_uris": {"android": "https://dc.lft.to/lastmile_qr_scan", "ios": "https://dc.lft.to/lastmile_qr_scan"}, "is_reserved": 0, "is_disabled": 0, "type": "electric_bike", "bike_id": "a618dbbe0b350d5c7154bf1a6b157182"}, {"lon": -77.00915566666667, "lat": 38.87935083333333, "name": "50077b2645d566fe25a236fa527c7e68", "fusion_lat": 0.0, "fusion_lon": 0.0, "rental_uris": {"android": "https://dc.lft.to/lastmile_qr_scan", "ios": "https://dc.lft.to/lastmile_qr_scan"}, "is_reserved": 0, "is_disabled": 0, "type": "electric_scooter", "bike_id": "50077b2645d566fe25a236fa527c7e68"}, {"lon": -77.03855583333333, "lat": 38.91279316666667, "name": "153cad0b80edccce567d281affb5e520", "fusion_lat": 0.0, "fusion_lon": 0.0, "rental_uris": {"android": "https://dc.lft.to/lastmile_qr_scan", "ios": "https://dc.lft.to/lastmile_qr_scan"}, "is_reserved": 0, "is_disabled": 0, "type": "electric_scooter", "bike_id": "153cad0b80edccce567d281affb5e520"}, {"lon": -77.043914, "lat": 38.92939333333333, "name": "fdb19b0a57348356856a20ab6afa066c", "fusion_lat": 0.0, "fusion_lon": 0.0, "rental_uris": {"android": "https://dc.lft.to/lastmile_qr_scan", "ios": "https://dc.lft.to/lastmile_qr_scan"}, "is_reserved": 0, "is_disabled": 0, "type": "electric_scooter", "bike_id": "fdb19b0a57348356856a20ab6afa066c"}, {"lon": -77.04299966666666, "lat": 38.916289, "name": "ad7c77bad07bdd4fd0af85fb0038fc45", "fusion_lat": 0.0, "fusion_lon": 0.0, "rental_uris": {"android": "https://dc.lft.to/lastmile_qr_scan", "ios": "https://dc.lft.to/lastmile_qr_scan"}, "is_reserved": 0, "is_disabled": 0, "type": "electric_scooter", "bike_id": "ad7c77bad07bdd4fd0af85fb0038fc45"}, {"lon": -77.01309933333333, "lat": 38.90735133333333, "name": "adab3860edfd3ae31fffd3b7bde9057b", "fusion_lat": 0.0, "fusion_lon": 0.0, "rental_uris": {"android": "https://dc.lft.to/lastmile_qr_scan", "ios": "https://dc.lft.to/lastmile_qr_scan"}, "is_reserved": 0, "is_disabled": 0, "type": "electric_scooter", "bike_id": "adab3860edfd3ae31fffd3b7bde9057b"}, {"lon": -77.22576466666666, "lat": 38.92990566666667, "name": "a3f0913a902fd701c2ddd833c722c472", "fusion_lat": 0.0, "fusion_lon": 0.0, "rental_uris": {"android": "https://dc.lft.to/lastmile_qr_scan", "ios": "https://dc.lft.to/lastmile_qr_scan"}, "is_reserved": 0, "is_disabled": 0, "type": "electric_bike", "bike_id": "a3f0913a902fd701c2ddd833c722c472"}, {"lon": -77.03651283333333, "lat": 38.93629716666667, "name": "0939392d9523d98ad29daa9590247e35", "fusion_lat": 0.0, "fusion_lon": 0.0, "rental_uris": {"android": "https://dc.lft.to/lastmile_qr_scan", "ios": "https://dc.lft.to/lastmile_qr_scan"}, "is_reserved": 0, "is_disabled": 0, "type": "electric_scooter", "bike_id": "0939392d9523d98ad29daa9590247e35"}, {"lon": -77.0248925, "lat": 38.9057, "name": "db69eec68ec26a76bec76873f1dfc1da", "fusion_lat": 0.0, "fusion_lon": 0.0, "rental_uris": {"android": "https://dc.lft.to/lastmile_qr_scan", "ios": "https://dc.lft.to/lastmile_qr_scan"}, "is_reserved": 0, "is_disabled": 0, "type": "electric_scooter", "bike_id": "db69eec68ec26a76bec76873f1dfc1da"}, {"lon": -77.00589916666667, "lat": 38.91569966666667, "name": "4d0ed86688252b8e58ebc80e5f2ef8c9", "fusion_lat": 0.0, "fusion_lon": 0.0, "rental_uris": {"android": "https://dc.lft.to/lastmile_qr_scan", "ios": "https://dc.lft.to/lastmile_qr_scan"}, "is_reserved": 0, "is_disabled": 0, "type": "electric_scooter", "bike_id": "4d0ed86688252b8e58ebc80e5f2ef8c9"}, {"lon": -77.04332083333334, "lat": 38.922224, "name": "3fc1538db7ca9526e608371221c0f880", "fusion_lat": 0.0, "fusion_lon": 0.0, "rental_uris": {"android": "https://dc.lft.to/lastmile_qr_scan", "ios": "https://dc.lft.to/lastmile_qr_scan"}, "is_reserved": 0, "is_disabled": 0, "type": "electric_scooter", "bike_id": "3fc1538db7ca9526e608371221c0f880"}, {"lon": -77.02341066666666, "lat": 38.962127333333335, "name": "300e3ee914fb5a76491a486983253cf4", "fusion_lat": 0.0, "fusion_lon": 0.0, "rental_uris": {"android": "https://dc.lft.to/lastmile_qr_scan", "ios": "https://dc.lft.to/lastmile_qr_scan"}, "is_reserved": 0, "is_disabled": 0, "type": "electric_scooter", "bike_id": "300e3ee914fb5a76491a486983253cf4"}, {"lon": -77.0423255, "lat": 38.90746583333333, "name": "9d731169a995692f07e7b0dfb75c7b4d", "fusion_lat": 0.0, "fusion_lon": 0.0, "rental_uris": {"android": "https://dc.lft.to/lastmile_qr_scan", "ios": "https://dc.lft.to/lastmile_qr_scan"}, "is_reserved": 0, "is_disabled": 0, "type": "electric_scooter", "bike_id": "9d731169a995692f07e7b0dfb75c7b4d"}, {"lon": -77.043262, "lat": 38.90365883333333, "name": "92540e6865e2e63145a629548b9180f5", "fusion_lat": 0.0, "fusion_lon": 0.0, "rental_uris": {"android": "https://dc.lft.to/lastmile_qr_scan", "ios": "https://dc.lft.to/lastmile_qr_scan"}, "is_reserved": 0, "is_disabled": 0, "type": "electric_scooter", "bike_id": "92540e6865e2e63145a629548b9180f5"}, {"lon": -77.017528, "lat": 38.876856833333335, "name": "5abe52fa86ebb93f1ca57076f72dfb96", "fusion_lat": 0.0, "fusion_lon": 0.0, "rental_uris": {"android": "https://dc.lft.to/lastmile_qr_scan", "ios": "https://dc.lft.to/lastmile_qr_scan"}, "is_reserved": 0, "is_disabled": 0, "type": "electric_scooter", "bike_id": "5abe52fa86ebb93f1ca57076f72dfb96"}, {"lon": -77.03281833333334, "lat": 38.93078766666667, "name": "78e363b6047de53ba192babde2d3e326", "fusion_lat": 0.0, "fusion_lon": 0.0, "rental_uris": {"android": "https://dc.lft.to/lastmile_qr_scan", "ios": "https://dc.lft.to/lastmile_qr_scan"}, "is_reserved": 0, "is_disabled": 0, "type": "electric_scooter", "bike_id": "78e363b6047de53ba192babde2d3e326"}, {"lon": -77.02693066666667, "lat": 38.90842283333333, "name": "cfce5fe212f98f1d49e71b66cb6999fc", "fusion_lat": 0.0, "fusion_lon": 0.0, "rental_uris": {"android": "https://dc.lft.to/lastmile_qr_scan", "ios": "https://dc.lft.to/lastmile_qr_scan"}, "is_reserved": 0, "is_disabled": 0, "type": "electric_scooter", "bike_id": "cfce5fe212f98f1d49e71b66cb6999fc"}, {"lon": -77.0332045, "lat": 38.89851066666667, "name": "38a871d8f1809f1b76ba9bcdab11feb6", "fusion_lat": 0.0, "fusion_lon": 0.0, "rental_uris": {"android": "https://dc.lft.to/lastmile_qr_scan", "ios": "https://dc.lft.to/lastmile_qr_scan"}, "is_reserved": 0, "is_disabled": 0, "type": "electric_scooter", "bike_id": "38a871d8f1809f1b76ba9bcdab11feb6"}, {"lon": -77.0271345, "lat": 38.91815033333334, "name": "2f34eb41d84cfd87b69fc42f41b865c6", "fusion_lat": 0.0, "fusion_lon": 0.0, "rental_uris": {"android": "https://dc.lft.to/lastmile_qr_scan", "ios": "https://dc.lft.to/lastmile_qr_scan"}, "is_reserved": 0, "is_disabled": 0, "type": "electric_scooter", "bike_id": "2f34eb41d84cfd87b69fc42f41b865c6"}, {"lon": -77.0253995, "lat": 38.920723333333335, "name": "64ba99ee4b9eafc0f2264059afe50bc2", "fusion_lat": 0.0, "fusion_lon": 0.0, "rental_uris": {"android": "https://dc.lft.to/lastmile_qr_scan", "ios": "https://dc.lft.to/lastmile_qr_scan"}, "is_reserved": 0, "is_disabled": 0, "type": "electric_scooter", "bike_id": "64ba99ee4b9eafc0f2264059afe50bc2"}, {"lon": -77.03788533333334, "lat": 38.912142333333335, "name": "fd37de9acbe711594925d254c2cec800", "fusion_lat": 0.0, "fusion_lon": 0.0, "rental_uris": {"android": "https://dc.lft.to/lastmile_qr_scan", "ios": "https://dc.lft.to/lastmile_qr_scan"}, "is_reserved": 0, "is_disabled": 0, "type": "electric_scooter", "bike_id": "fd37de9acbe711594925d254c2cec800"}, {"lon": -77.02797033333333, "lat": 38.92079916666667, "name": "7f76958431223bad87fbc7a29a8e2aa2", "fusion_lat": 0.0, "fusion_lon": 0.0, "rental_uris": {"android": "https://dc.lft.to/lastmile_qr_scan", "ios": "https://dc.lft.to/lastmile_qr_scan"}, "is_reserved": 0, "is_disabled": 0, "type": "electric_scooter", "bike_id": "7f76958431223bad87fbc7a29a8e2aa2"}, {"lon": -77.0448965, "lat": 38.903832333333334, "name": "eff6a38a1c6ccece93386dcab2734f20", "fusion_lat": 0.0, "fusion_lon": 0.0, "rental_uris": {"android": "https://dc.lft.to/lastmile_qr_scan", "ios": "https://dc.lft.to/lastmile_qr_scan"}, "is_reserved": 0, "is_disabled": 0, "type": "electric_scooter", "bike_id": "eff6a38a1c6ccece93386dcab2734f20"}, {"lon": -77.04363966666666, "lat": 38.92577433333334, "name": "9f57280eab540123fc300a5d8793d1df", "fusion_lat": 0.0, "fusion_lon": 0.0, "rental_uris": {"android": "https://dc.lft.to/lastmile_qr_scan", "ios": "https://dc.lft.to/lastmile_qr_scan"}, "is_reserved": 0, "is_disabled": 0, "type": "electric_scooter", "bike_id": "9f57280eab540123fc300a5d8793d1df"}, {"lon": -77.01935833333333, "lat": 38.949325, "name": "7e33c350e9a8e4752807c1ff3708b854", "fusion_lat": 0.0, "fusion_lon": 0.0, "rental_uris": {"android": "https://dc.lft.to/lastmile_qr_scan", "ios": "https://dc.lft.to/lastmile_qr_scan"}, "is_reserved": 0, "is_disabled": 0, "type": "electric_scooter", "bike_id": "7e33c350e9a8e4752807c1ff3708b854"}, {"lon": -76.9995175, "lat": 38.8429295, "name": "b101e13dcf0cc3bd7fc50377923aca19", "fusion_lat": 0.0, "fusion_lon": 0.0, "rental_uris": {"android": "https://dc.lft.to/lastmile_qr_scan", "ios": "https://dc.lft.to/lastmile_qr_scan"}, "is_reserved": 0, "is_disabled": 0, "type": "electric_scooter", "bike_id": "b101e13dcf0cc3bd7fc50377923aca19"}, {"lon": -77.000202, "lat": 38.9197885, "name": "295e81dbd1cd058b4ba9c2980b42645c", "fusion_lat": 0.0, "fusion_lon": 0.0, "rental_uris": {"android": "https://dc.lft.to/lastmile_qr_scan", "ios": "https://dc.lft.to/lastmile_qr_scan"}, "is_reserved": 0, "is_disabled": 0, "type": "electric_scooter", "bike_id": "295e81dbd1cd058b4ba9c2980b42645c"}, {"lon": -77.03823883333334, "lat": 38.920731333333336, "name": "0c58838f967f077496cb7ec6c612417b", "fusion_lat": 0.0, "fusion_lon": 0.0, "rental_uris": {"android": "https://dc.lft.to/lastmile_qr_scan", "ios": "https://dc.lft.to/lastmile_qr_scan"}, "is_reserved": 0, "is_disabled": 0, "type": "electric_scooter", "bike_id": "0c58838f967f077496cb7ec6c612417b"}, {"lon": -77.06007066666666, "lat": 38.90222766666667, "name": "71f898287e6b03c10f9d890b2ae7956c", "fusion_lat": 0.0, "fusion_lon": 0.0, "rental_uris": {"android": "https://dc.lft.to/lastmile_qr_scan", "ios": "https://dc.lft.to/lastmile_qr_scan"}, "is_reserved": 0, "is_disabled": 0, "type": "electric_scooter", "bike_id": "71f898287e6b03c10f9d890b2ae7956c"}, {"lon": -77.04150833333334, "lat": 38.918985, "name": "3e97d91425a1809f9ed50240ba096791", "fusion_lat": 0.0, "fusion_lon": 0.0, "rental_uris": {"android": "https://dc.lft.to/lastmile_qr_scan", "ios": "https://dc.lft.to/lastmile_qr_scan"}, "is_reserved": 0, "is_disabled": 0, "type": "electric_scooter", "bike_id": "3e97d91425a1809f9ed50240ba096791"}, {"lon": -77.025742, "lat": 38.9204915, "name": "1f42165065f0a8a5a06c3dc478479730", "fusion_lat": 0.0, "fusion_lon": 0.0, "rental_uris": {"android": "https://dc.lft.to/lastmile_qr_scan", "ios": "https://dc.lft.to/lastmile_qr_scan"}, "is_reserved": 0, "is_disabled": 0, "type": "electric_scooter", "bike_id": "1f42165065f0a8a5a06c3dc478479730"}, {"lon": -77.04878666666667, "lat": 38.912375833333336, "name": "aed736a4e32526de05643dd14f5c5171", "fusion_lat": 0.0, "fusion_lon": 0.0, "rental_uris": {"android": "https://dc.lft.to/lastmile_qr_scan", "ios": "https://dc.lft.to/lastmile_qr_scan"}, "is_reserved": 0, "is_disabled": 0, "type": "electric_scooter", "bike_id": "aed736a4e32526de05643dd14f5c5171"}, {"lon": -77.03786983333333, "lat": 38.9256175, "name": "f8f103c676a4c5030e7c37ecc66ed30c", "fusion_lat": 0.0, "fusion_lon": 0.0, "rental_uris": {"android": "https://dc.lft.to/lastmile_qr_scan", "ios": "https://dc.lft.to/lastmile_qr_scan"}, "is_reserved": 0, "is_disabled": 0, "type": "electric_scooter", "bike_id": "f8f103c676a4c5030e7c37ecc66ed30c"}, {"lon": -77.019874, "lat": 38.904836833333334, "name": "9f595f4daf97da91edcc742dd5d5191a", "fusion_lat": 0.0, "fusion_lon": 0.0, "rental_uris": {"android": "https://dc.lft.to/lastmile_qr_scan", "ios": "https://dc.lft.to/lastmile_qr_scan"}, "is_reserved": 0, "is_disabled": 0, "type": "electric_scooter", "bike_id": "9f595f4daf97da91edcc742dd5d5191a"}, {"lon": -77.03188983333334, "lat": 38.90709616666667, "name": "f2f6393fc159cc9b1e5160f82b23f608", "fusion_lat": 0.0, "fusion_lon": 0.0, "rental_uris": {"android": "https://dc.lft.to/lastmile_qr_scan", "ios": "https://dc.lft.to/lastmile_qr_scan"}, "is_reserved": 0, "is_disabled": 0, "type": "electric_scooter", "bike_id": "f2f6393fc159cc9b1e5160f82b23f608"}, {"lon": -76.9053295, "lat": 38.8973865, "name": "77af750cc37a5fafda266876ea24bcd2", "fusion_lat": 0.0, "fusion_lon": 0.0, "rental_uris": {"android": "https://dc.lft.to/lastmile_qr_scan", "ios": "https://dc.lft.to/lastmile_qr_scan"}, "is_reserved": 0, "is_disabled": 0, "type": "electric_bike", "bike_id": "77af750cc37a5fafda266876ea24bcd2"}, {"lon": -77.007258, "lat": 38.88492766666667, "name": "07e030320875f9475be1aa6228cf1019", "fusion_lat": 0.0, "fusion_lon": 0.0, "rental_uris": {"android": "https://dc.lft.to/lastmile_qr_scan", "ios": "https://dc.lft.to/lastmile_qr_scan"}, "is_reserved": 0, "is_disabled": 0, "type": "electric_scooter", "bike_id": "07e030320875f9475be1aa6228cf1019"}, {"lon": -76.974435, "lat": 38.966693, "name": "82f797238ce50b998c033687489a549d", "fusion_lat": 0.0, "fusion_lon": 0.0, "rental_uris": {"android": "https://dc.lft.to/lastmile_qr_scan", "ios": "https://dc.lft.to/lastmile_qr_scan"}, "is_reserved": 0, "is_disabled": 0, "type": "electric_bike", "bike_id": "82f797238ce50b998c033687489a549d"}, {"lon": -77.03024266666667, "lat": 38.92966583333333, "name": "c59e466efe03bcb0233886a6f11096f2", "fusion_lat": 0.0, "fusion_lon": 0.0, "rental_uris": {"android": "https://dc.lft.to/lastmile_qr_scan", "ios": "https://dc.lft.to/lastmile_qr_scan"}, "is_reserved": 0, "is_disabled": 0, "type": "electric_scooter", "bike_id": "c59e466efe03bcb0233886a6f11096f2"}, {"lon": -77.02684666666667, "lat": 38.924908, "name": "d1900877919799b71d1c3fdda1aa84b6", "fusion_lat": 0.0, "fusion_lon": 0.0, "rental_uris": {"android": "https://dc.lft.to/lastmile_qr_scan", "ios": "https://dc.lft.to/lastmile_qr_scan"}, "is_reserved": 0, "is_disabled": 0, "type": "electric_scooter", "bike_id": "d1900877919799b71d1c3fdda1aa84b6"}, {"lon": -77.00832716666666, "lat": 38.915577666666664, "name": "ad1ea3f1f3ff2413a6406f0697827c91", "fusion_lat": 0.0, "fusion_lon": 0.0, "rental_uris": {"android": "https://dc.lft.to/lastmile_qr_scan", "ios": "https://dc.lft.to/lastmile_qr_scan"}, "is_reserved": 0, "is_disabled": 0, "type": "electric_scooter", "bike_id": "ad1ea3f1f3ff2413a6406f0697827c91"}, {"lon": -77.03714866666667, "lat": 38.926651, "name": "5dd2042ce89e6abd583022bebd4cb7ea", "fusion_lat": 0.0, "fusion_lon": 0.0, "rental_uris": {"android": "https://dc.lft.to/lastmile_qr_scan", "ios": "https://dc.lft.to/lastmile_qr_scan"}, "is_reserved": 0, "is_disabled": 0, "type": "electric_scooter", "bike_id": "5dd2042ce89e6abd583022bebd4cb7ea"}, {"lon": -77.03088416666667, "lat": 38.90992, "name": "550c5277308761a8a418409211afe52f", "fusion_lat": 0.0, "fusion_lon": 0.0, "rental_uris": {"android": "https://dc.lft.to/lastmile_qr_scan", "ios": "https://dc.lft.to/lastmile_qr_scan"}, "is_reserved": 0, "is_disabled": 0, "type": "electric_scooter", "bike_id": "550c5277308761a8a418409211afe52f"}, {"lon": -77.02488866666667, "lat": 38.885135166666664, "name": "6c200d98a5f08bcf4f1acbf556b7b8b1", "fusion_lat": 0.0, "fusion_lon": 0.0, "rental_uris": {"android": "https://dc.lft.to/lastmile_qr_scan", "ios": "https://dc.lft.to/lastmile_qr_scan"}, "is_reserved": 0, "is_disabled": 0, "type": "electric_scooter", "bike_id": "6c200d98a5f08bcf4f1acbf556b7b8b1"}, {"lon": -77.04040933333333, "lat": 38.9230835, "name": "60f7e0a4f6d7742c164c3a2ad5a0acf1", "fusion_lat": 0.0, "fusion_lon": 0.0, "rental_uris": {"android": "https://dc.lft.to/lastmile_qr_scan", "ios": "https://dc.lft.to/lastmile_qr_scan"}, "is_reserved": 0, "is_disabled": 0, "type": "electric_scooter", "bike_id": "60f7e0a4f6d7742c164c3a2ad5a0acf1"}, {"lon": -77.0279015, "lat": 38.93291083333333, "name": "c50251966e42ab3ea76b0a357a2393c4", "fusion_lat": 0.0, "fusion_lon": 0.0, "rental_uris": {"android": "https://dc.lft.to/lastmile_qr_scan", "ios": "https://dc.lft.to/lastmile_qr_scan"}, "is_reserved": 0, "is_disabled": 0, "type": "electric_scooter", "bike_id": "c50251966e42ab3ea76b0a357a2393c4"}, {"lon": -77.0468615, "lat": 38.92137183333333, "name": "87030e48ace5b3a57014cf102bc24cf0", "fusion_lat": 0.0, "fusion_lon": 0.0, "rental_uris": {"android": "https://dc.lft.to/lastmile_qr_scan", "ios": "https://dc.lft.to/lastmile_qr_scan"}, "is_reserved": 0, "is_disabled": 0, "type": "electric_scooter", "bike_id": "87030e48ace5b3a57014cf102bc24cf0"}, {"lon": -77.04737933333334, "lat": 38.9125535, "name": "5c1afc248b4b9624f47cc1d905a3e439", "fusion_lat": 0.0, "fusion_lon": 0.0, "rental_uris": {"android": "https://dc.lft.to/lastmile_qr_scan", "ios": "https://dc.lft.to/lastmile_qr_scan"}, "is_reserved": 0, "is_disabled": 0, "type": "electric_scooter", "bike_id": "5c1afc248b4b9624f47cc1d905a3e439"}, {"lon": -77.02622933333333, "lat": 38.89642716666667, "name": "7e6af0f7d79636a9ba74b508a9de0c10", "fusion_lat": 0.0, "fusion_lon": 0.0, "rental_uris": {"android": "https://dc.lft.to/lastmile_qr_scan", "ios": "https://dc.lft.to/lastmile_qr_scan"}, "is_reserved": 0, "is_disabled": 0, "type": "electric_scooter", "bike_id": "7e6af0f7d79636a9ba74b508a9de0c10"}, {"lon": -77.0002945, "lat": 38.8764745, "name": "c9faefc92123fabf6f500515bba63790", "fusion_lat": 0.0, "fusion_lon": 0.0, "rental_uris": {"android": "https://dc.lft.to/lastmile_qr_scan", "ios": "https://dc.lft.to/lastmile_qr_scan"}, "is_reserved": 0, "is_disabled": 0, "type": "electric_scooter", "bike_id": "c9faefc92123fabf6f500515bba63790"}, {"lon": -77.03942866666667, "lat": 38.908196, "name": "9d51d6a7d7a144313c0c5cef29a222eb", "fusion_lat": 0.0, "fusion_lon": 0.0, "rental_uris": {"android": "https://dc.lft.to/lastmile_qr_scan", "ios": "https://dc.lft.to/lastmile_qr_scan"}, "is_reserved": 0, "is_disabled": 0, "type": "electric_scooter", "bike_id": "9d51d6a7d7a144313c0c5cef29a222eb"}, {"lon": -77.024728, "lat": 38.918920166666666, "name": "3c1bb6b10121e41e4ba52705e09432fd", "fusion_lat": 0.0, "fusion_lon": 0.0, "rental_uris": {"android": "https://dc.lft.to/lastmile_qr_scan", "ios": "https://dc.lft.to/lastmile_qr_scan"}, "is_reserved": 0, "is_disabled": 0, "type": "electric_scooter", "bike_id": "3c1bb6b10121e41e4ba52705e09432fd"}, {"lon": -76.94663833333334, "lat": 38.8987325, "name": "f71e3affa1381e232a2bbc24c45abcd7", "fusion_lat": 0.0, "fusion_lon": 0.0, "rental_uris": {"android": "https://dc.lft.to/lastmile_qr_scan", "ios": "https://dc.lft.to/lastmile_qr_scan"}, "is_reserved": 0, "is_disabled": 0, "type": "electric_scooter", "bike_id": "f71e3affa1381e232a2bbc24c45abcd7"}, {"lon": -77.0033765, "lat": 38.89362883333333, "name": "01c451a8e6d1ddf7eab529e39c424380", "fusion_lat": 0.0, "fusion_lon": 0.0, "rental_uris": {"android": "https://dc.lft.to/lastmile_qr_scan", "ios": "https://dc.lft.to/lastmile_qr_scan"}, "is_reserved": 0, "is_disabled": 0, "type": "electric_scooter", "bike_id": "01c451a8e6d1ddf7eab529e39c424380"}, {"lon": -77.03180033333334, "lat": 38.908491166666664, "name": "cc3d9f4c16006d6775853583667c5403", "fusion_lat": 0.0, "fusion_lon": 0.0, "rental_uris": {"android": "https://dc.lft.to/lastmile_qr_scan", "ios": "https://dc.lft.to/lastmile_qr_scan"}, "is_reserved": 0, "is_disabled": 0, "type": "electric_scooter", "bike_id": "cc3d9f4c16006d6775853583667c5403"}, {"lon": -77.01866083333333, "lat": 38.948919833333335, "name": "c40fa6dae9a7e8707c3114a4590ee077", "fusion_lat": 0.0, "fusion_lon": 0.0, "rental_uris": {"android": "https://dc.lft.to/lastmile_qr_scan", "ios": "https://dc.lft.to/lastmile_qr_scan"}, "is_reserved": 0, "is_disabled": 0, "type": "electric_scooter", "bike_id": "c40fa6dae9a7e8707c3114a4590ee077"}, {"lon": -77.02928516666667, "lat": 38.882206833333335, "name": "fee570ed1d56e1c6aeff57f81e9e3d74", "fusion_lat": 0.0, "fusion_lon": 0.0, "rental_uris": {"android": "https://dc.lft.to/lastmile_qr_scan", "ios": "https://dc.lft.to/lastmile_qr_scan"}, "is_reserved": 0, "is_disabled": 0, "type": "electric_scooter", "bike_id": "fee570ed1d56e1c6aeff57f81e9e3d74"}, {"lon": -77.02234783333333, "lat": 38.914159166666664, "name": "676899772859c376739a388deb349c17", "fusion_lat": 0.0, "fusion_lon": 0.0, "rental_uris": {"android": "https://dc.lft.to/lastmile_qr_scan", "ios": "https://dc.lft.to/lastmile_qr_scan"}, "is_reserved": 0, "is_disabled": 0, "type": "electric_scooter", "bike_id": "676899772859c376739a388deb349c17"}, {"lon": -77.04265266666667, "lat": 38.91041033333333, "name": "6bc3133fcae5d39d87983025f6e549f4", "fusion_lat": 0.0, "fusion_lon": 0.0, "rental_uris": {"android": "https://dc.lft.to/lastmile_qr_scan", "ios": "https://dc.lft.to/lastmile_qr_scan"}, "is_reserved": 0, "is_disabled": 0, "type": "electric_scooter", "bike_id": "6bc3133fcae5d39d87983025f6e549f4"}, {"lon": -77.0247795, "lat": 38.91924483333333, "name": "f8d3d32de3e8b3a8460a225080fe5ba0", "fusion_lat": 0.0, "fusion_lon": 0.0, "rental_uris": {"android": "https://dc.lft.to/lastmile_qr_scan", "ios": "https://dc.lft.to/lastmile_qr_scan"}, "is_reserved": 0, "is_disabled": 0, "type": "electric_scooter", "bike_id": "f8d3d32de3e8b3a8460a225080fe5ba0"}, {"lon": -77.01100383333333, "lat": 38.90573416666667, "name": "f20431928b59ff664558fe367ff9089e", "fusion_lat": 0.0, "fusion_lon": 0.0, "rental_uris": {"android": "https://dc.lft.to/lastmile_qr_scan", "ios": "https://dc.lft.to/lastmile_qr_scan"}, "is_reserved": 0, "is_disabled": 0, "type": "electric_scooter", "bike_id": "f20431928b59ff664558fe367ff9089e"}, {"lon": -76.9652235, "lat": 38.87627916666667, "name": "1e7c43e39ea106253e4c1a665129b416", "fusion_lat": 0.0, "fusion_lon": 0.0, "rental_uris": {"android": "https://dc.lft.to/lastmile_qr_scan", "ios": "https://dc.lft.to/lastmile_qr_scan"}, "is_reserved": 0, "is_disabled": 0, "type": "electric_scooter", "bike_id": "1e7c43e39ea106253e4c1a665129b416"}, {"lon": -77.05539216666666, "lat": 38.89990983333333, "name": "fcaba1c15a22910ce407c1187bdce1d2", "fusion_lat": 0.0, "fusion_lon": 0.0, "rental_uris": {"android": "https://dc.lft.to/lastmile_qr_scan", "ios": "https://dc.lft.to/lastmile_qr_scan"}, "is_reserved": 0, "is_disabled": 0, "type": "electric_scooter", "bike_id": "fcaba1c15a22910ce407c1187bdce1d2"}, {"lon": -77.033296, "lat": 38.899208, "name": "78854b7a51270f485d6ce9bfc86b1f5a", "fusion_lat": 0.0, "fusion_lon": 0.0, "rental_uris": {"android": "https://dc.lft.to/lastmile_qr_scan", "ios": "https://dc.lft.to/lastmile_qr_scan"}, "is_reserved": 0, "is_disabled": 0, "type": "electric_scooter", "bike_id": "78854b7a51270f485d6ce9bfc86b1f5a"}, {"lon": -77.04609666666667, "lat": 38.9026925, "name": "d6732504731497a34b3c183d80481560", "fusion_lat": 0.0, "fusion_lon": 0.0, "rental_uris": {"android": "https://dc.lft.to/lastmile_qr_scan", "ios": "https://dc.lft.to/lastmile_qr_scan"}, "is_reserved": 0, "is_disabled": 0, "type": "electric_scooter", "bike_id": "d6732504731497a34b3c183d80481560"}, {"lon": -76.98173533333333, "lat": 38.95958616666667, "name": "e5902c8970de17637bd36eccc68c02dc", "fusion_lat": 0.0, "fusion_lon": 0.0, "rental_uris": {"android": "https://dc.lft.to/lastmile_qr_scan", "ios": "https://dc.lft.to/lastmile_qr_scan"}, "is_reserved": 0, "is_disabled": 0, "type": "electric_bike", "bike_id": "e5902c8970de17637bd36eccc68c02dc"}, {"lon": -77.02173783333333, "lat": 38.90979383333333, "name": "58da8ab33ddaef7ef7d2536bc7d29697", "fusion_lat": 0.0, "fusion_lon": 0.0, "rental_uris": {"android": "https://dc.lft.to/lastmile_qr_scan", "ios": "https://dc.lft.to/lastmile_qr_scan"}, "is_reserved": 0, "is_disabled": 0, "type": "electric_scooter", "bike_id": "58da8ab33ddaef7ef7d2536bc7d29697"}, {"lon": -76.99166816666667, "lat": 38.87918833333333, "name": "1a291b6b72ad33c06ebd10d7a14d14ab", "fusion_lat": 0.0, "fusion_lon": 0.0, "rental_uris": {"android": "https://dc.lft.to/lastmile_qr_scan", "ios": "https://dc.lft.to/lastmile_qr_scan"}, "is_reserved": 0, "is_disabled": 0, "type": "electric_scooter", "bike_id": "1a291b6b72ad33c06ebd10d7a14d14ab"}, {"lon": -77.04515516666666, "lat": 38.907864833333335, "name": "4f7750951406cd544195f8b0b0229c77", "fusion_lat": 0.0, "fusion_lon": 0.0, "rental_uris": {"android": "https://dc.lft.to/lastmile_qr_scan", "ios": "https://dc.lft.to/lastmile_qr_scan"}, "is_reserved": 0, "is_disabled": 0, "type": "electric_scooter", "bike_id": "4f7750951406cd544195f8b0b0229c77"}, {"lon": -77.02363966666667, "lat": 38.91904133333333, "name": "8aa719ed3150f1ab4873b1c49f5ba276", "fusion_lat": 0.0, "fusion_lon": 0.0, "rental_uris": {"android": "https://dc.lft.to/lastmile_qr_scan", "ios": "https://dc.lft.to/lastmile_qr_scan"}, "is_reserved": 0, "is_disabled": 0, "type": "electric_scooter", "bike_id": "8aa719ed3150f1ab4873b1c49f5ba276"}, {"lon": -76.97348983333333, "lat": 38.865118833333334, "name": "e5cc569c583cf5546bb7bdee5df924d5", "fusion_lat": 0.0, "fusion_lon": 0.0, "rental_uris": {"android": "https://dc.lft.to/lastmile_qr_scan", "ios": "https://dc.lft.to/lastmile_qr_scan"}, "is_reserved": 0, "is_disabled": 0, "type": "electric_scooter", "bike_id": "e5cc569c583cf5546bb7bdee5df924d5"}, {"lon": -77.006047, "lat": 38.90619616666667, "name": "980115ac9ae511599fffdefd334fe086", "fusion_lat": 0.0, "fusion_lon": 0.0, "rental_uris": {"android": "https://dc.lft.to/lastmile_qr_scan", "ios": "https://dc.lft.to/lastmile_qr_scan"}, "is_reserved": 0, "is_disabled": 0, "type": "electric_scooter", "bike_id": "980115ac9ae511599fffdefd334fe086"}, {"lon": -77.0216775, "lat": 38.89255, "name": "2e389b565b14010a4f66b31fc6317517", "fusion_lat": 0.0, "fusion_lon": 0.0, "rental_uris": {"android": "https://dc.lft.to/lastmile_qr_scan", "ios": "https://dc.lft.to/lastmile_qr_scan"}, "is_reserved": 0, "is_disabled": 0, "type": "electric_scooter", "bike_id": "2e389b565b14010a4f66b31fc6317517"}, {"lon": -76.9319285, "lat": 38.889949, "name": "84875b887aec8247e0d08f25315de045", "fusion_lat": 0.0, "fusion_lon": 0.0, "rental_uris": {"android": "https://dc.lft.to/lastmile_qr_scan", "ios": "https://dc.lft.to/lastmile_qr_scan"}, "is_reserved": 0, "is_disabled": 0, "type": "electric_scooter", "bike_id": "84875b887aec8247e0d08f25315de045"}, {"lon": -76.95400233333334, "lat": 38.89164683333333, "name": "ec523dddece873cfb967648e768e1c9d", "fusion_lat": 0.0, "fusion_lon": 0.0, "rental_uris": {"android": "https://dc.lft.to/lastmile_qr_scan", "ios": "https://dc.lft.to/lastmile_qr_scan"}, "is_reserved": 0, "is_disabled": 0, "type": "electric_scooter", "bike_id": "ec523dddece873cfb967648e768e1c9d"}, {"lon": -77.02975533333333, "lat": 38.9168445, "name": "3a4ed85fa5f77cf4ab831da3eb4a160d", "fusion_lat": 0.0, "fusion_lon": 0.0, "rental_uris": {"android": "https://dc.lft.to/lastmile_qr_scan", "ios": "https://dc.lft.to/lastmile_qr_scan"}, "is_reserved": 0, "is_disabled": 0, "type": "electric_scooter", "bike_id": "3a4ed85fa5f77cf4ab831da3eb4a160d"}, {"lon": -77.04343333333334, "lat": 38.89675866666666, "name": "e0eaaf416f4b0055c0a42e81f03d10bb", "fusion_lat": 0.0, "fusion_lon": 0.0, "rental_uris": {"android": "https://dc.lft.to/lastmile_qr_scan", "ios": "https://dc.lft.to/lastmile_qr_scan"}, "is_reserved": 0, "is_disabled": 0, "type": "electric_scooter", "bike_id": "e0eaaf416f4b0055c0a42e81f03d10bb"}, {"lon": -77.043743, "lat": 38.90386816666667, "name": "114d861fca680a0208b5a3133bd4447e", "fusion_lat": 0.0, "fusion_lon": 0.0, "rental_uris": {"android": "https://dc.lft.to/lastmile_qr_scan", "ios": "https://dc.lft.to/lastmile_qr_scan"}, "is_reserved": 0, "is_disabled": 0, "type": "electric_scooter", "bike_id": "114d861fca680a0208b5a3133bd4447e"}, {"lon": -76.91649783333334, "lat": 38.86856816666667, "name": "a4f2ec00e6f0903937af5bcdecbee684", "fusion_lat": 0.0, "fusion_lon": 0.0, "rental_uris": {"android": "https://dc.lft.to/lastmile_qr_scan", "ios": "https://dc.lft.to/lastmile_qr_scan"}, "is_reserved": 0, "is_disabled": 0, "type": "electric_bike", "bike_id": "a4f2ec00e6f0903937af5bcdecbee684"}, {"lon": -77.0297055, "lat": 38.922519, "name": "6c16fefeefe485e40b3b19c947728633", "fusion_lat": 0.0, "fusion_lon": 0.0, "rental_uris": {"android": "https://dc.lft.to/lastmile_qr_scan", "ios": "https://dc.lft.to/lastmile_qr_scan"}, "is_reserved": 0, "is_disabled": 0, "type": "electric_scooter", "bike_id": "6c16fefeefe485e40b3b19c947728633"}, {"lon": -77.10760633333334, "lat": 38.8923325, "name": "a9cc7fd4917e16e48a37c424cc09f3a5", "fusion_lat": 0.0, "fusion_lon": 0.0, "rental_uris": {"android": "https://dc.lft.to/lastmile_qr_scan", "ios": "https://dc.lft.to/lastmile_qr_scan"}, "is_reserved": 0, "is_disabled": 0, "type": "electric_bike", "bike_id": "a9cc7fd4917e16e48a37c424cc09f3a5"}, {"lon": -77.0174575, "lat": 38.90260766666667, "name": "cbf1ac6d331825f2e82125632a8a5c57", "fusion_lat": 0.0, "fusion_lon": 0.0, "rental_uris": {"android": "https://dc.lft.to/lastmile_qr_scan", "ios": "https://dc.lft.to/lastmile_qr_scan"}, "is_reserved": 0, "is_disabled": 0, "type": "electric_scooter", "bike_id": "cbf1ac6d331825f2e82125632a8a5c57"}, {"lon": -77.002116, "lat": 38.90225216666666, "name": "da70d7b8552b4a7e7a1e5ba2193ec294", "fusion_lat": 0.0, "fusion_lon": 0.0, "rental_uris": {"android": "https://dc.lft.to/lastmile_qr_scan", "ios": "https://dc.lft.to/lastmile_qr_scan"}, "is_reserved": 0, "is_disabled": 0, "type": "electric_scooter", "bike_id": "da70d7b8552b4a7e7a1e5ba2193ec294"}, {"lon": -77.02697833333333, "lat": 38.915207333333335, "name": "7970783dd7859fdc5822d4d9182b9d50", "fusion_lat": 0.0, "fusion_lon": 0.0, "rental_uris": {"android": "https://dc.lft.to/lastmile_qr_scan", "ios": "https://dc.lft.to/lastmile_qr_scan"}, "is_reserved": 0, "is_disabled": 0, "type": "electric_scooter", "bike_id": "7970783dd7859fdc5822d4d9182b9d50"}, {"lon": -77.02923333333334, "lat": 38.903822, "name": "b0afb6faaac393cf4c802c8cb46f626d", "fusion_lat": 0.0, "fusion_lon": 0.0, "rental_uris": {"android": "https://dc.lft.to/lastmile_qr_scan", "ios": "https://dc.lft.to/lastmile_qr_scan"}, "is_reserved": 0, "is_disabled": 0, "type": "electric_scooter", "bike_id": "b0afb6faaac393cf4c802c8cb46f626d"}, {"lon": -77.06911983333333, "lat": 38.9074645, "name": "7e25b98fea9aefa49fa6ff12dc563d24", "fusion_lat": 0.0, "fusion_lon": 0.0, "rental_uris": {"android": "https://dc.lft.to/lastmile_qr_scan", "ios": "https://dc.lft.to/lastmile_qr_scan"}, "is_reserved": 0, "is_disabled": 0, "type": "electric_scooter", "bike_id": "7e25b98fea9aefa49fa6ff12dc563d24"}, {"lon": -77.03394416666667, "lat": 38.919132, "name": "e8aa57b0aa352955f0e3b6b48ffe4369", "fusion_lat": 0.0, "fusion_lon": 0.0, "rental_uris": {"android": "https://dc.lft.to/lastmile_qr_scan", "ios": "https://dc.lft.to/lastmile_qr_scan"}, "is_reserved": 0, "is_disabled": 0, "type": "electric_scooter", "bike_id": "e8aa57b0aa352955f0e3b6b48ffe4369"}, {"lon": -77.03263316666667, "lat": 38.93211183333333, "name": "fb43d919396c92c860b6658e4b2c9c07", "fusion_lat": 0.0, "fusion_lon": 0.0, "rental_uris": {"android": "https://dc.lft.to/lastmile_qr_scan", "ios": "https://dc.lft.to/lastmile_qr_scan"}, "is_reserved": 0, "is_disabled": 0, "type": "electric_scooter", "bike_id": "fb43d919396c92c860b6658e4b2c9c07"}, {"lon": -77.04864933333333, "lat": 38.892289833333336, "name": "1af109ea71c0d1c051980ba219c40162", "fusion_lat": 0.0, "fusion_lon": 0.0, "rental_uris": {"android": "https://dc.lft.to/lastmile_qr_scan", "ios": "https://dc.lft.to/lastmile_qr_scan"}, "is_reserved": 0, "is_disabled": 0, "type": "electric_scooter", "bike_id": "1af109ea71c0d1c051980ba219c40162"}, {"lon": -77.1073785, "lat": 38.85545616666667, "name": "9d3bac23fc8b125cf28abd5e8cbe3805", "fusion_lat": 0.0, "fusion_lon": 0.0, "rental_uris": {"android": "https://dc.lft.to/lastmile_qr_scan", "ios": "https://dc.lft.to/lastmile_qr_scan"}, "is_reserved": 0, "is_disabled": 0, "type": "electric_bike", "bike_id": "9d3bac23fc8b125cf28abd5e8cbe3805"}, {"lon": -77.02124233333333, "lat": 38.903076, "name": "7c382b1a0f52f5b9e3a61482f4b066bf", "fusion_lat": 0.0, "fusion_lon": 0.0, "rental_uris": {"android": "https://dc.lft.to/lastmile_qr_scan", "ios": "https://dc.lft.to/lastmile_qr_scan"}, "is_reserved": 0, "is_disabled": 0, "type": "electric_scooter", "bike_id": "7c382b1a0f52f5b9e3a61482f4b066bf"}, {"lon": -77.032046, "lat": 38.912478, "name": "72a4861e5c702a2ef65330c4801faef1", "fusion_lat": 0.0, "fusion_lon": 0.0, "rental_uris": {"android": "https://dc.lft.to/lastmile_qr_scan", "ios": "https://dc.lft.to/lastmile_qr_scan"}, "is_reserved": 0, "is_disabled": 0, "type": "electric_scooter", "bike_id": "72a4861e5c702a2ef65330c4801faef1"}, {"lon": -76.98575516666666, "lat": 38.898843166666666, "name": "3ccc683822a4f90fb9e62d7ca85ea9d7", "fusion_lat": 0.0, "fusion_lon": 0.0, "rental_uris": {"android": "https://dc.lft.to/lastmile_qr_scan", "ios": "https://dc.lft.to/lastmile_qr_scan"}, "is_reserved": 0, "is_disabled": 0, "type": "electric_scooter", "bike_id": "3ccc683822a4f90fb9e62d7ca85ea9d7"}, {"lon": -77.01814816666666, "lat": 38.911945, "name": "c718293e1824727139a89456a8d587af", "fusion_lat": 0.0, "fusion_lon": 0.0, "rental_uris": {"android": "https://dc.lft.to/lastmile_qr_scan", "ios": "https://dc.lft.to/lastmile_qr_scan"}, "is_reserved": 0, "is_disabled": 0, "type": "electric_scooter", "bike_id": "c718293e1824727139a89456a8d587af"}, {"lon": -77.04432483333333, "lat": 38.932762333333336, "name": "e27a10cb1097b4591786c75402894060", "fusion_lat": 0.0, "fusion_lon": 0.0, "rental_uris": {"android": "https://dc.lft.to/lastmile_qr_scan", "ios": "https://dc.lft.to/lastmile_qr_scan"}, "is_reserved": 0, "is_disabled": 0, "type": "electric_scooter", "bike_id": "e27a10cb1097b4591786c75402894060"}, {"lon": -77.04184533333333, "lat": 38.920510166666666, "name": "4f1544e67887d9fd3801875e966a7b1f", "fusion_lat": 0.0, "fusion_lon": 0.0, "rental_uris": {"android": "https://dc.lft.to/lastmile_qr_scan", "ios": "https://dc.lft.to/lastmile_qr_scan"}, "is_reserved": 0, "is_disabled": 0, "type": "electric_scooter", "bike_id": "4f1544e67887d9fd3801875e966a7b1f"}, {"lon": -76.9700065, "lat": 38.89761216666667, "name": "c35c2f9f35904c875452518c2f6c39de", "fusion_lat": 0.0, "fusion_lon": 0.0, "rental_uris": {"android": "https://dc.lft.to/lastmile_qr_scan", "ios": "https://dc.lft.to/lastmile_qr_scan"}, "is_reserved": 0, "is_disabled": 0, "type": "electric_scooter", "bike_id": "c35c2f9f35904c875452518c2f6c39de"}, {"lon": -77.00457366666667, "lat": 38.877483, "name": "f4507a40125faf4e3f360d9c399a0657", "fusion_lat": 0.0, "fusion_lon": 0.0, "rental_uris": {"android": "https://dc.lft.to/lastmile_qr_scan", "ios": "https://dc.lft.to/lastmile_qr_scan"}, "is_reserved": 0, "is_disabled": 0, "type": "electric_scooter", "bike_id": "f4507a40125faf4e3f360d9c399a0657"}, {"lon": -77.0389355, "lat": 38.917062666666666, "name": "5a0fe195c924277bd4cc7c59ff302b94", "fusion_lat": 0.0, "fusion_lon": 0.0, "rental_uris": {"android": "https://dc.lft.to/lastmile_qr_scan", "ios": "https://dc.lft.to/lastmile_qr_scan"}, "is_reserved": 0, "is_disabled": 0, "type": "electric_scooter", "bike_id": "5a0fe195c924277bd4cc7c59ff302b94"}, {"lon": -77.03424466666667, "lat": 38.919319, "name": "428ffb9e39b116520a1675c0eb2a034a", "fusion_lat": 0.0, "fusion_lon": 0.0, "rental_uris": {"android": "https://dc.lft.to/lastmile_qr_scan", "ios": "https://dc.lft.to/lastmile_qr_scan"}, "is_reserved": 0, "is_disabled": 0, "type": "electric_scooter", "bike_id": "428ffb9e39b116520a1675c0eb2a034a"}, {"lon": -77.034323, "lat": 38.939699, "name": "ca5f296e19f4b50cdf257612ae76b298", "fusion_lat": 0.0, "fusion_lon": 0.0, "rental_uris": {"android": "https://dc.lft.to/lastmile_qr_scan", "ios": "https://dc.lft.to/lastmile_qr_scan"}, "is_reserved": 0, "is_disabled": 0, "type": "electric_scooter", "bike_id": "ca5f296e19f4b50cdf257612ae76b298"}, {"lon": -77.00616533333333, "lat": 38.90700366666667, "name": "23db73cc35bcd2177f94d734182692a4", "fusion_lat": 0.0, "fusion_lon": 0.0, "rental_uris": {"android": "https://dc.lft.to/lastmile_qr_scan", "ios": "https://dc.lft.to/lastmile_qr_scan"}, "is_reserved": 0, "is_disabled": 0, "type": "electric_scooter", "bike_id": "23db73cc35bcd2177f94d734182692a4"}, {"lon": -77.10026516666667, "lat": 38.990715333333334, "name": "e8b91e7820e2362d234b6a3632bd7e40", "fusion_lat": 0.0, "fusion_lon": 0.0, "rental_uris": {"android": "https://dc.lft.to/lastmile_qr_scan", "ios": "https://dc.lft.to/lastmile_qr_scan"}, "is_reserved": 0, "is_disabled": 0, "type": "electric_bike", "bike_id": "e8b91e7820e2362d234b6a3632bd7e40"}, {"lon": -77.05008716666667, "lat": 38.90127716666667, "name": "5d3c484e0914b0679ef236c12001ffc0", "fusion_lat": 0.0, "fusion_lon": 0.0, "rental_uris": {"android": "https://dc.lft.to/lastmile_qr_scan", "ios": "https://dc.lft.to/lastmile_qr_scan"}, "is_reserved": 0, "is_disabled": 0, "type": "electric_scooter", "bike_id": "5d3c484e0914b0679ef236c12001ffc0"}, {"lon": -77.06118683333334, "lat": 38.905326, "name": "3d96f210b14fe131589d8d98be9540da", "fusion_lat": 0.0, "fusion_lon": 0.0, "rental_uris": {"android": "https://dc.lft.to/lastmile_qr_scan", "ios": "https://dc.lft.to/lastmile_qr_scan"}, "is_reserved": 0, "is_disabled": 0, "type": "electric_scooter", "bike_id": "3d96f210b14fe131589d8d98be9540da"}, {"lon": -77.04092566666667, "lat": 38.912541166666664, "name": "b653c899dbc09492266ba1376cd18dcf", "fusion_lat": 0.0, "fusion_lon": 0.0, "rental_uris": {"android": "https://dc.lft.to/lastmile_qr_scan", "ios": "https://dc.lft.to/lastmile_qr_scan"}, "is_reserved": 0, "is_disabled": 0, "type": "electric_scooter", "bike_id": "b653c899dbc09492266ba1376cd18dcf"}, {"lon": -77.04899366666666, "lat": 38.874982833333334, "name": "24275c8da7ba8ebab0bc5a8a4c65437d", "fusion_lat": 0.0, "fusion_lon": 0.0, "rental_uris": {"android": "https://dc.lft.to/lastmile_qr_scan", "ios": "https://dc.lft.to/lastmile_qr_scan"}, "is_reserved": 0, "is_disabled": 0, "type": "electric_bike", "bike_id": "24275c8da7ba8ebab0bc5a8a4c65437d"}, {"lon": -77.0001955, "lat": 38.87388933333333, "name": "e4493d321764acba27cff0f7ea2b2cb9", "fusion_lat": 0.0, "fusion_lon": 0.0, "rental_uris": {"android": "https://dc.lft.to/lastmile_qr_scan", "ios": "https://dc.lft.to/lastmile_qr_scan"}, "is_reserved": 0, "is_disabled": 0, "type": "electric_scooter", "bike_id": "e4493d321764acba27cff0f7ea2b2cb9"}, {"lon": -76.94651283333333, "lat": 38.89831216666666, "name": "d0b1e7ce1a4fad1f4ba95ce4b0d05a8a", "fusion_lat": 0.0, "fusion_lon": 0.0, "rental_uris": {"android": "https://dc.lft.to/lastmile_qr_scan", "ios": "https://dc.lft.to/lastmile_qr_scan"}, "is_reserved": 0, "is_disabled": 0, "type": "electric_scooter", "bike_id": "d0b1e7ce1a4fad1f4ba95ce4b0d05a8a"}, {"lon": -77.02719383333333, "lat": 38.89222983333333, "name": "787a6094c936d4dcf97547f61a2ed0e5", "fusion_lat": 0.0, "fusion_lon": 0.0, "rental_uris": {"android": "https://dc.lft.to/lastmile_qr_scan", "ios": "https://dc.lft.to/lastmile_qr_scan"}, "is_reserved": 0, "is_disabled": 0, "type": "electric_scooter", "bike_id": "787a6094c936d4dcf97547f61a2ed0e5"}, {"lon": -77.0111145, "lat": 38.903585166666666, "name": "d6d07d2b158ae816c1ad96c062e4d6df", "fusion_lat": 0.0, "fusion_lon": 0.0, "rental_uris": {"android": "https://dc.lft.to/lastmile_qr_scan", "ios": "https://dc.lft.to/lastmile_qr_scan"}, "is_reserved": 0, "is_disabled": 0, "type": "electric_scooter", "bike_id": "d6d07d2b158ae816c1ad96c062e4d6df"}, {"lon": -77.02820333333334, "lat": 38.91601433333334, "name": "c911b6555b2a37fb37e16362e5e44c6a", "fusion_lat": 0.0, "fusion_lon": 0.0, "rental_uris": {"android": "https://dc.lft.to/lastmile_qr_scan", "ios": "https://dc.lft.to/lastmile_qr_scan"}, "is_reserved": 0, "is_disabled": 0, "type": "electric_scooter", "bike_id": "c911b6555b2a37fb37e16362e5e44c6a"}, {"lon": -77.02229516666667, "lat": 38.912735, "name": "8abdb0ac30ca49e10b32f36b98b06d17", "fusion_lat": 0.0, "fusion_lon": 0.0, "rental_uris": {"android": "https://dc.lft.to/lastmile_qr_scan", "ios": "https://dc.lft.to/lastmile_qr_scan"}, "is_reserved": 0, "is_disabled": 0, "type": "electric_scooter", "bike_id": "8abdb0ac30ca49e10b32f36b98b06d17"}, {"lon": -77.06623483333334, "lat": 38.947404166666665, "name": "d354f4fdc7511d81830d081d46017313", "fusion_lat": 0.0, "fusion_lon": 0.0, "rental_uris": {"android": "https://dc.lft.to/lastmile_qr_scan", "ios": "https://dc.lft.to/lastmile_qr_scan"}, "is_reserved": 0, "is_disabled": 0, "type": "electric_bike", "bike_id": "d354f4fdc7511d81830d081d46017313"}, {"lon": -77.05238816666666, "lat": 38.92468916666667, "name": "b326338f79fdd2194b8e0d3dc4942168", "fusion_lat": 0.0, "fusion_lon": 0.0, "rental_uris": {"android": "https://dc.lft.to/lastmile_qr_scan", "ios": "https://dc.lft.to/lastmile_qr_scan"}, "is_reserved": 0, "is_disabled": 0, "type": "electric_scooter", "bike_id": "b326338f79fdd2194b8e0d3dc4942168"}, {"lon": -77.02693316666667, "lat": 38.90945883333333, "name": "22e467b87d52429222842801f1055072", "fusion_lat": 0.0, "fusion_lon": 0.0, "rental_uris": {"android": "https://dc.lft.to/lastmile_qr_scan", "ios": "https://dc.lft.to/lastmile_qr_scan"}, "is_reserved": 0, "is_disabled": 0, "type": "electric_scooter", "bike_id": "22e467b87d52429222842801f1055072"}, {"lon": -76.965248, "lat": 38.87630083333333, "name": "1c0f3daf68c2fbf27b15ff3bda5ee9f5", "fusion_lat": 0.0, "fusion_lon": 0.0, "rental_uris": {"android": "https://dc.lft.to/lastmile_qr_scan", "ios": "https://dc.lft.to/lastmile_qr_scan"}, "is_reserved": 0, "is_disabled": 0, "type": "electric_scooter", "bike_id": "1c0f3daf68c2fbf27b15ff3bda5ee9f5"}, {"lon": -77.079074, "lat": 38.8393995, "name": "7cec2a2e973b3ef709f99251a8a780c3", "fusion_lat": 0.0, "fusion_lon": 0.0, "rental_uris": {"android": "https://dc.lft.to/lastmile_qr_scan", "ios": "https://dc.lft.to/lastmile_qr_scan"}, "is_reserved": 0, "is_disabled": 0, "type": "electric_bike", "bike_id": "7cec2a2e973b3ef709f99251a8a780c3"}, {"lon": -77.03704683333333, "lat": 38.9166815, "name": "f5b4d067913d7cf3762d0999689b4ce2", "fusion_lat": 0.0, "fusion_lon": 0.0, "rental_uris": {"android": "https://dc.lft.to/lastmile_qr_scan", "ios": "https://dc.lft.to/lastmile_qr_scan"}, "is_reserved": 0, "is_disabled": 0, "type": "electric_scooter", "bike_id": "f5b4d067913d7cf3762d0999689b4ce2"}, {"lon": -77.04769233333333, "lat": 38.905035, "name": "9e38d47119152c9686ca5b3be87ef5dd", "fusion_lat": 0.0, "fusion_lon": 0.0, "rental_uris": {"android": "https://dc.lft.to/lastmile_qr_scan", "ios": "https://dc.lft.to/lastmile_qr_scan"}, "is_reserved": 0, "is_disabled": 0, "type": "electric_scooter", "bike_id": "9e38d47119152c9686ca5b3be87ef5dd"}, {"lon": -77.02888266666666, "lat": 38.88444916666667, "name": "7e500ae461af05e5106f21151808a588", "fusion_lat": 0.0, "fusion_lon": 0.0, "rental_uris": {"android": "https://dc.lft.to/lastmile_qr_scan", "ios": "https://dc.lft.to/lastmile_qr_scan"}, "is_reserved": 0, "is_disabled": 0, "type": "electric_scooter", "bike_id": "7e500ae461af05e5106f21151808a588"}, {"lon": -77.01537033333334, "lat": 38.88735533333333, "name": "44b5f54c4ac0874c56849796bcd3e594", "fusion_lat": 0.0, "fusion_lon": 0.0, "rental_uris": {"android": "https://dc.lft.to/lastmile_qr_scan", "ios": "https://dc.lft.to/lastmile_qr_scan"}, "is_reserved": 0, "is_disabled": 0, "type": "electric_scooter", "bike_id": "44b5f54c4ac0874c56849796bcd3e594"}, {"lon": -77.000913, "lat": 38.87381516666667, "name": "538919ebc545deca1ec33ced9d18e8f2", "fusion_lat": 0.0, "fusion_lon": 0.0, "rental_uris": {"android": "https://dc.lft.to/lastmile_qr_scan", "ios": "https://dc.lft.to/lastmile_qr_scan"}, "is_reserved": 0, "is_disabled": 0, "type": "electric_scooter", "bike_id": "538919ebc545deca1ec33ced9d18e8f2"}, {"lon": -77.02778866666667, "lat": 38.9181615, "name": "c4553876e8217f41d2a1ccea1f385127", "fusion_lat": 0.0, "fusion_lon": 0.0, "rental_uris": {"android": "https://dc.lft.to/lastmile_qr_scan", "ios": "https://dc.lft.to/lastmile_qr_scan"}, "is_reserved": 0, "is_disabled": 0, "type": "electric_scooter", "bike_id": "c4553876e8217f41d2a1ccea1f385127"}, {"lon": -77.11425266666667, "lat": 38.8430685, "name": "1438911ab585c2df5b2fcdb2463091ba", "fusion_lat": 0.0, "fusion_lon": 0.0, "rental_uris": {"android": "https://dc.lft.to/lastmile_qr_scan", "ios": "https://dc.lft.to/lastmile_qr_scan"}, "is_reserved": 0, "is_disabled": 0, "type": "electric_bike", "bike_id": "1438911ab585c2df5b2fcdb2463091ba"}, {"lon": -77.01428233333333, "lat": 38.91404416666666, "name": "69d13dab96ead44cef264117abda9193", "fusion_lat": 0.0, "fusion_lon": 0.0, "rental_uris": {"android": "https://dc.lft.to/lastmile_qr_scan", "ios": "https://dc.lft.to/lastmile_qr_scan"}, "is_reserved": 0, "is_disabled": 0, "type": "electric_scooter", "bike_id": "69d13dab96ead44cef264117abda9193"}, {"lon": -77.02179733333334, "lat": 38.909222666666665, "name": "54d3aa94f4025e76a393224d15c37d46", "fusion_lat": 0.0, "fusion_lon": 0.0, "rental_uris": {"android": "https://dc.lft.to/lastmile_qr_scan", "ios": "https://dc.lft.to/lastmile_qr_scan"}, "is_reserved": 0, "is_disabled": 0, "type": "electric_scooter", "bike_id": "54d3aa94f4025e76a393224d15c37d46"}, {"lon": -77.021936, "lat": 38.918804333333334, "name": "84f99631fb1dd57ded2b23687ffa6a2f", "fusion_lat": 0.0, "fusion_lon": 0.0, "rental_uris": {"android": "https://dc.lft.to/lastmile_qr_scan", "ios": "https://dc.lft.to/lastmile_qr_scan"}, "is_reserved": 0, "is_disabled": 0, "type": "electric_scooter", "bike_id": "84f99631fb1dd57ded2b23687ffa6a2f"}, {"lon": -77.05082533333334, "lat": 38.8133055, "name": "efe1b2aa47c3e815ee6c6a89e6853fd0", "fusion_lat": 0.0, "fusion_lon": 0.0, "rental_uris": {"android": "https://dc.lft.to/lastmile_qr_scan", "ios": "https://dc.lft.to/lastmile_qr_scan"}, "is_reserved": 0, "is_disabled": 0, "type": "electric_bike", "bike_id": "efe1b2aa47c3e815ee6c6a89e6853fd0"}, {"lon": -77.00859633333333, "lat": 38.86948316666667, "name": "6e35cc6c5e9075d6efd022be20da994c", "fusion_lat": 0.0, "fusion_lon": 0.0, "rental_uris": {"android": "https://dc.lft.to/lastmile_qr_scan", "ios": "https://dc.lft.to/lastmile_qr_scan"}, "is_reserved": 0, "is_disabled": 0, "type": "electric_scooter", "bike_id": "6e35cc6c5e9075d6efd022be20da994c"}, {"lon": -77.10912516666667, "lat": 39.052068166666665, "name": "d7fa0bbf5a8442e8dbfc613d364015f2", "fusion_lat": 0.0, "fusion_lon": 0.0, "rental_uris": {"android": "https://dc.lft.to/lastmile_qr_scan", "ios": "https://dc.lft.to/lastmile_qr_scan"}, "is_reserved": 0, "is_disabled": 0, "type": "electric_bike", "bike_id": "d7fa0bbf5a8442e8dbfc613d364015f2"}, {"lon": -77.022206, "lat": 38.886303166666664, "name": "857163a586c9a25caad96368862c0ff7", "fusion_lat": 0.0, "fusion_lon": 0.0, "rental_uris": {"android": "https://dc.lft.to/lastmile_qr_scan", "ios": "https://dc.lft.to/lastmile_qr_scan"}, "is_reserved": 0, "is_disabled": 0, "type": "electric_bike", "bike_id": "857163a586c9a25caad96368862c0ff7"}, {"lon": -77.04386866666667, "lat": 38.922776666666664, "name": "c516d5358c7b6901d76eb4e09837b590", "fusion_lat": 0.0, "fusion_lon": 0.0, "rental_uris": {"android": "https://dc.lft.to/lastmile_qr_scan", "ios": "https://dc.lft.to/lastmile_qr_scan"}, "is_reserved": 0, "is_disabled": 0, "type": "electric_scooter", "bike_id": "c516d5358c7b6901d76eb4e09837b590"}, {"lon": -77.02400966666667, "lat": 38.887417166666665, "name": "581d750372819efb85ea8d69bf85b667", "fusion_lat": 0.0, "fusion_lon": 0.0, "rental_uris": {"android": "https://dc.lft.to/lastmile_qr_scan", "ios": "https://dc.lft.to/lastmile_qr_scan"}, "is_reserved": 0, "is_disabled": 0, "type": "electric_scooter", "bike_id": "581d750372819efb85ea8d69bf85b667"}, {"lon": -77.0182245, "lat": 38.908169, "name": "64b63ce729d3162152af1c5aba03a765", "fusion_lat": 0.0, "fusion_lon": 0.0, "rental_uris": {"android": "https://dc.lft.to/lastmile_qr_scan", "ios": "https://dc.lft.to/lastmile_qr_scan"}, "is_reserved": 0, "is_disabled": 0, "type": "electric_scooter", "bike_id": "64b63ce729d3162152af1c5aba03a765"}, {"lon": -77.0106825, "lat": 38.87116916666667, "name": "a4b851ae3765eb86a14de051f217d0af", "fusion_lat": 0.0, "fusion_lon": 0.0, "rental_uris": {"android": "https://dc.lft.to/lastmile_qr_scan", "ios": "https://dc.lft.to/lastmile_qr_scan"}, "is_reserved": 0, "is_disabled": 0, "type": "electric_scooter", "bike_id": "a4b851ae3765eb86a14de051f217d0af"}, {"lon": -77.022748, "lat": 38.8873955, "name": "ac6fd3eea0ec4a15366ec2aa8da459c5", "fusion_lat": 0.0, "fusion_lon": 0.0, "rental_uris": {"android": "https://dc.lft.to/lastmile_qr_scan", "ios": "https://dc.lft.to/lastmile_qr_scan"}, "is_reserved": 0, "is_disabled": 0, "type": "electric_scooter", "bike_id": "ac6fd3eea0ec4a15366ec2aa8da459c5"}, {"lon": -77.00094983333334, "lat": 38.873824, "name": "a475f0ef26a795a0962312a9fac74e7a", "fusion_lat": 0.0, "fusion_lon": 0.0, "rental_uris": {"android": "https://dc.lft.to/lastmile_qr_scan", "ios": "https://dc.lft.to/lastmile_qr_scan"}, "is_reserved": 0, "is_disabled": 0, "type": "electric_scooter", "bike_id": "a475f0ef26a795a0962312a9fac74e7a"}, {"lon": -76.99034716666667, "lat": 38.858745, "name": "a7405abf17631858907a48ab61ea1e5b", "fusion_lat": 0.0, "fusion_lon": 0.0, "rental_uris": {"android": "https://dc.lft.to/lastmile_qr_scan", "ios": "https://dc.lft.to/lastmile_qr_scan"}, "is_reserved": 0, "is_disabled": 0, "type": "electric_scooter", "bike_id": "a7405abf17631858907a48ab61ea1e5b"}, {"lon": -77.03213116666667, "lat": 38.900459833333336, "name": "2f0da0162b0f5e9effbceb5c0fe6fc43", "fusion_lat": 0.0, "fusion_lon": 0.0, "rental_uris": {"android": "https://dc.lft.to/lastmile_qr_scan", "ios": "https://dc.lft.to/lastmile_qr_scan"}, "is_reserved": 0, "is_disabled": 0, "type": "electric_scooter", "bike_id": "2f0da0162b0f5e9effbceb5c0fe6fc43"}, {"lon": -76.97188416666667, "lat": 38.912638333333334, "name": "bdaa6979ac34973cb3f55a288f6f8476", "fusion_lat": 0.0, "fusion_lon": 0.0, "rental_uris": {"android": "https://dc.lft.to/lastmile_qr_scan", "ios": "https://dc.lft.to/lastmile_qr_scan"}, "is_reserved": 0, "is_disabled": 0, "type": "electric_scooter", "bike_id": "bdaa6979ac34973cb3f55a288f6f8476"}, {"lon": -76.931717, "lat": 38.898865666666666, "name": "cbaf5eef88e25c00dad18c7f068e0a76", "fusion_lat": 0.0, "fusion_lon": 0.0, "rental_uris": {"android": "https://dc.lft.to/lastmile_qr_scan", "ios": "https://dc.lft.to/lastmile_qr_scan"}, "is_reserved": 0, "is_disabled": 0, "type": "electric_scooter", "bike_id": "cbaf5eef88e25c00dad18c7f068e0a76"}, {"lon": -76.95756166666666, "lat": 38.88436683333333, "name": "5fa9a105cb229d3543cd88475fca81d7", "fusion_lat": 0.0, "fusion_lon": 0.0, "rental_uris": {"android": "https://dc.lft.to/lastmile_qr_scan", "ios": "https://dc.lft.to/lastmile_qr_scan"}, "is_reserved": 0, "is_disabled": 0, "type": "electric_scooter", "bike_id": "5fa9a105cb229d3543cd88475fca81d7"}, {"lon": -77.01896066666667, "lat": 38.90993983333333, "name": "c89b149c2a73a86f2425d0b1b32b80e2", "fusion_lat": 0.0, "fusion_lon": 0.0, "rental_uris": {"android": "https://dc.lft.to/lastmile_qr_scan", "ios": "https://dc.lft.to/lastmile_qr_scan"}, "is_reserved": 0, "is_disabled": 0, "type": "electric_scooter", "bike_id": "c89b149c2a73a86f2425d0b1b32b80e2"}, {"lon": -76.93019566666666, "lat": 38.9008415, "name": "9bcce58dcb06270557949cd81bf80ad0", "fusion_lat": 0.0, "fusion_lon": 0.0, "rental_uris": {"android": "https://dc.lft.to/lastmile_qr_scan", "ios": "https://dc.lft.to/lastmile_qr_scan"}, "is_reserved": 0, "is_disabled": 0, "type": "electric_scooter", "bike_id": "9bcce58dcb06270557949cd81bf80ad0"}, {"lon": -77.038381, "lat": 38.91831216666667, "name": "93d8afba88fe04980176c59ab2e909b9", "fusion_lat": 0.0, "fusion_lon": 0.0, "rental_uris": {"android": "https://dc.lft.to/lastmile_qr_scan", "ios": "https://dc.lft.to/lastmile_qr_scan"}, "is_reserved": 0, "is_disabled": 0, "type": "electric_scooter", "bike_id": "93d8afba88fe04980176c59ab2e909b9"}, {"lon": -77.02716166666667, "lat": 38.909538833333336, "name": "f348c62dfce3611230012e912b48d039", "fusion_lat": 0.0, "fusion_lon": 0.0, "rental_uris": {"android": "https://dc.lft.to/lastmile_qr_scan", "ios": "https://dc.lft.to/lastmile_qr_scan"}, "is_reserved": 0, "is_disabled": 0, "type": "electric_scooter", "bike_id": "f348c62dfce3611230012e912b48d039"}, {"lon": -77.04525566666666, "lat": 38.90555333333333, "name": "d02e6121824707d5c1c463b434207f87", "fusion_lat": 0.0, "fusion_lon": 0.0, "rental_uris": {"android": "https://dc.lft.to/lastmile_qr_scan", "ios": "https://dc.lft.to/lastmile_qr_scan"}, "is_reserved": 0, "is_disabled": 0, "type": "electric_scooter", "bike_id": "d02e6121824707d5c1c463b434207f87"}, {"lon": -77.00504016666666, "lat": 38.87537666666667, "name": "312a5a67b7d98117085883d9ddff80da", "fusion_lat": 0.0, "fusion_lon": 0.0, "rental_uris": {"android": "https://dc.lft.to/lastmile_qr_scan", "ios": "https://dc.lft.to/lastmile_qr_scan"}, "is_reserved": 0, "is_disabled": 0, "type": "electric_scooter", "bike_id": "312a5a67b7d98117085883d9ddff80da"}, {"lon": -77.04187016666667, "lat": 38.9202235, "name": "cc0593d2d3a730bc9b02810f5fd7b6b8", "fusion_lat": 0.0, "fusion_lon": 0.0, "rental_uris": {"android": "https://dc.lft.to/lastmile_qr_scan", "ios": "https://dc.lft.to/lastmile_qr_scan"}, "is_reserved": 0, "is_disabled": 0, "type": "electric_scooter", "bike_id": "cc0593d2d3a730bc9b02810f5fd7b6b8"}, {"lon": -77.01826416666667, "lat": 38.90255766666667, "name": "8515796a363578145b4c6a771e722f43", "fusion_lat": 0.0, "fusion_lon": 0.0, "rental_uris": {"android": "https://dc.lft.to/lastmile_qr_scan", "ios": "https://dc.lft.to/lastmile_qr_scan"}, "is_reserved": 0, "is_disabled": 0, "type": "electric_scooter", "bike_id": "8515796a363578145b4c6a771e722f43"}, {"lon": -77.03159883333333, "lat": 38.914133666666665, "name": "dfc4301a47228146ee8ec5fac372984c", "fusion_lat": 0.0, "fusion_lon": 0.0, "rental_uris": {"android": "https://dc.lft.to/lastmile_qr_scan", "ios": "https://dc.lft.to/lastmile_qr_scan"}, "is_reserved": 0, "is_disabled": 0, "type": "electric_scooter", "bike_id": "dfc4301a47228146ee8ec5fac372984c"}, {"lon": -77.04417816666667, "lat": 38.91133966666666, "name": "f0ffe79f28d01eb5ee6c362befdf9fb8", "fusion_lat": 0.0, "fusion_lon": 0.0, "rental_uris": {"android": "https://dc.lft.to/lastmile_qr_scan", "ios": "https://dc.lft.to/lastmile_qr_scan"}, "is_reserved": 0, "is_disabled": 0, "type": "electric_scooter", "bike_id": "f0ffe79f28d01eb5ee6c362befdf9fb8"}, {"lon": -77.00211666666667, "lat": 38.9051665, "name": "37c1990c19b4b67b316104adfdbdbd53", "fusion_lat": 0.0, "fusion_lon": 0.0, "rental_uris": {"android": "https://dc.lft.to/lastmile_qr_scan", "ios": "https://dc.lft.to/lastmile_qr_scan"}, "is_reserved": 0, "is_disabled": 0, "type": "electric_scooter", "bike_id": "37c1990c19b4b67b316104adfdbdbd53"}, {"lon": -77.02820566666666, "lat": 38.89248083333333, "name": "9a649a489b4c569c0bcc7abc393f7100", "fusion_lat": 0.0, "fusion_lon": 0.0, "rental_uris": {"android": "https://dc.lft.to/lastmile_qr_scan", "ios": "https://dc.lft.to/lastmile_qr_scan"}, "is_reserved": 0, "is_disabled": 0, "type": "electric_scooter", "bike_id": "9a649a489b4c569c0bcc7abc393f7100"}, {"lon": -77.02822583333334, "lat": 38.89528816666667, "name": "3d73e174b445545c7ec9ac380058aefc", "fusion_lat": 0.0, "fusion_lon": 0.0, "rental_uris": {"android": "https://dc.lft.to/lastmile_qr_scan", "ios": "https://dc.lft.to/lastmile_qr_scan"}, "is_reserved": 0, "is_disabled": 0, "type": "electric_scooter", "bike_id": "3d73e174b445545c7ec9ac380058aefc"}, {"lon": -77.02059733333333, "lat": 38.92018766666666, "name": "a9e529fdfcf64ceb207766353f96f655", "fusion_lat": 0.0, "fusion_lon": 0.0, "rental_uris": {"android": "https://dc.lft.to/lastmile_qr_scan", "ios": "https://dc.lft.to/lastmile_qr_scan"}, "is_reserved": 0, "is_disabled": 0, "type": "electric_scooter", "bike_id": "a9e529fdfcf64ceb207766353f96f655"}, {"lon": -77.033859, "lat": 38.92161466666667, "name": "64608d11de1469c34012d83275e884bb", "fusion_lat": 0.0, "fusion_lon": 0.0, "rental_uris": {"android": "https://dc.lft.to/lastmile_qr_scan", "ios": "https://dc.lft.to/lastmile_qr_scan"}, "is_reserved": 0, "is_disabled": 0, "type": "electric_scooter", "bike_id": "64608d11de1469c34012d83275e884bb"}, {"lon": -77.01508566666666, "lat": 38.91343883333333, "name": "21e0579b4a6bce3edab4dbe2194dd8fe", "fusion_lat": 0.0, "fusion_lon": 0.0, "rental_uris": {"android": "https://dc.lft.to/lastmile_qr_scan", "ios": "https://dc.lft.to/lastmile_qr_scan"}, "is_reserved": 0, "is_disabled": 0, "type": "electric_scooter", "bike_id": "21e0579b4a6bce3edab4dbe2194dd8fe"}, {"lon": -77.06473766666667, "lat": 38.973842166666664, "name": "eeaf4e863a48c117ca8b883d666fbde8", "fusion_lat": 0.0, "fusion_lon": 0.0, "rental_uris": {"android": "https://dc.lft.to/lastmile_qr_scan", "ios": "https://dc.lft.to/lastmile_qr_scan"}, "is_reserved": 0, "is_disabled": 0, "type": "electric_bike", "bike_id": "eeaf4e863a48c117ca8b883d666fbde8"}, {"lon": -77.04189033333333, "lat": 38.9342455, "name": "fe8138780448bc336538fc7e3f02a80d", "fusion_lat": 0.0, "fusion_lon": 0.0, "rental_uris": {"android": "https://dc.lft.to/lastmile_qr_scan", "ios": "https://dc.lft.to/lastmile_qr_scan"}, "is_reserved": 0, "is_disabled": 0, "type": "electric_bike", "bike_id": "fe8138780448bc336538fc7e3f02a80d"}, {"lon": -76.99876666666667, "lat": 38.9075525, "name": "59bb720a4cfeafdd03d74eb070b823aa", "fusion_lat": 0.0, "fusion_lon": 0.0, "rental_uris": {"android": "https://dc.lft.to/lastmile_qr_scan", "ios": "https://dc.lft.to/lastmile_qr_scan"}, "is_reserved": 0, "is_disabled": 0, "type": "electric_scooter", "bike_id": "59bb720a4cfeafdd03d74eb070b823aa"}, {"lon": -77.03855583333333, "lat": 38.91258666666667, "name": "bf191ff72b5af38ae9064bb407f5b477", "fusion_lat": 0.0, "fusion_lon": 0.0, "rental_uris": {"android": "https://dc.lft.to/lastmile_qr_scan", "ios": "https://dc.lft.to/lastmile_qr_scan"}, "is_reserved": 0, "is_disabled": 0, "type": "electric_scooter", "bike_id": "bf191ff72b5af38ae9064bb407f5b477"}, {"lon": -77.0485015, "lat": 38.91964566666667, "name": "7818443b7fb8272aa8781668d6abed11", "fusion_lat": 0.0, "fusion_lon": 0.0, "rental_uris": {"android": "https://dc.lft.to/lastmile_qr_scan", "ios": "https://dc.lft.to/lastmile_qr_scan"}, "is_reserved": 0, "is_disabled": 0, "type": "electric_scooter", "bike_id": "7818443b7fb8272aa8781668d6abed11"}, {"lon": -77.02542583333333, "lat": 38.892260666666665, "name": "4c9bdf38b94358e04625320283489cda", "fusion_lat": 0.0, "fusion_lon": 0.0, "rental_uris": {"android": "https://dc.lft.to/lastmile_qr_scan", "ios": "https://dc.lft.to/lastmile_qr_scan"}, "is_reserved": 0, "is_disabled": 0, "type": "electric_scooter", "bike_id": "4c9bdf38b94358e04625320283489cda"}, {"lon": -77.032084, "lat": 38.908944166666664, "name": "8c4be44512062bd050ed774ad7de4ace", "fusion_lat": 0.0, "fusion_lon": 0.0, "rental_uris": {"android": "https://dc.lft.to/lastmile_qr_scan", "ios": "https://dc.lft.to/lastmile_qr_scan"}, "is_reserved": 0, "is_disabled": 0, "type": "electric_scooter", "bike_id": "8c4be44512062bd050ed774ad7de4ace"}, {"lon": -77.02539316666666, "lat": 38.92072, "name": "b9761fbcf2550097cf7c49e9bcfec2fd", "fusion_lat": 0.0, "fusion_lon": 0.0, "rental_uris": {"android": "https://dc.lft.to/lastmile_qr_scan", "ios": "https://dc.lft.to/lastmile_qr_scan"}, "is_reserved": 0, "is_disabled": 0, "type": "electric_scooter", "bike_id": "b9761fbcf2550097cf7c49e9bcfec2fd"}, {"lon": -77.04318683333334, "lat": 38.90337066666667, "name": "26f554acb53673f98f23964154a03893", "fusion_lat": 0.0, "fusion_lon": 0.0, "rental_uris": {"android": "https://dc.lft.to/lastmile_qr_scan", "ios": "https://dc.lft.to/lastmile_qr_scan"}, "is_reserved": 0, "is_disabled": 0, "type": "electric_scooter", "bike_id": "26f554acb53673f98f23964154a03893"}, {"lon": -77.00490733333334, "lat": 38.89694166666666, "name": "13e30ff4e44177c873b92852e2df0a15", "fusion_lat": 0.0, "fusion_lon": 0.0, "rental_uris": {"android": "https://dc.lft.to/lastmile_qr_scan", "ios": "https://dc.lft.to/lastmile_qr_scan"}, "is_reserved": 0, "is_disabled": 0, "type": "electric_scooter", "bike_id": "13e30ff4e44177c873b92852e2df0a15"}, {"lon": -77.03327083333333, "lat": 38.896511333333336, "name": "e5ba8441999b3766a009192bd79f355a", "fusion_lat": 0.0, "fusion_lon": 0.0, "rental_uris": {"android": "https://dc.lft.to/lastmile_qr_scan", "ios": "https://dc.lft.to/lastmile_qr_scan"}, "is_reserved": 0, "is_disabled": 0, "type": "electric_scooter", "bike_id": "e5ba8441999b3766a009192bd79f355a"}, {"lon": -76.99184166666667, "lat": 38.9050595, "name": "a7621f03cf8010e89ea54359dbfe60ff", "fusion_lat": 0.0, "fusion_lon": 0.0, "rental_uris": {"android": "https://dc.lft.to/lastmile_qr_scan", "ios": "https://dc.lft.to/lastmile_qr_scan"}, "is_reserved": 0, "is_disabled": 0, "type": "electric_scooter", "bike_id": "a7621f03cf8010e89ea54359dbfe60ff"}, {"lon": -76.99020716666666, "lat": 38.85870216666667, "name": "d7632bccc1a9ddf39fd09893d53da9d4", "fusion_lat": 0.0, "fusion_lon": 0.0, "rental_uris": {"android": "https://dc.lft.to/lastmile_qr_scan", "ios": "https://dc.lft.to/lastmile_qr_scan"}, "is_reserved": 0, "is_disabled": 0, "type": "electric_scooter", "bike_id": "d7632bccc1a9ddf39fd09893d53da9d4"}, {"lon": -77.03760683333333, "lat": 38.90368566666667, "name": "964b54e9ee37265dc794d91905bb2a74", "fusion_lat": 0.0, "fusion_lon": 0.0, "rental_uris": {"android": "https://dc.lft.to/lastmile_qr_scan", "ios": "https://dc.lft.to/lastmile_qr_scan"}, "is_reserved": 0, "is_disabled": 0, "type": "electric_scooter", "bike_id": "964b54e9ee37265dc794d91905bb2a74"}, {"lon": -77.03340183333333, "lat": 38.8925545, "name": "8520a10de2d44b6870c0098f6f49113d", "fusion_lat": 0.0, "fusion_lon": 0.0, "rental_uris": {"android": "https://dc.lft.to/lastmile_qr_scan", "ios": "https://dc.lft.to/lastmile_qr_scan"}, "is_reserved": 0, "is_disabled": 0, "type": "electric_scooter", "bike_id": "8520a10de2d44b6870c0098f6f49113d"}, {"lon": -77.02541883333333, "lat": 38.892222333333336, "name": "eb62bfbc44bdbf566606887953f59168", "fusion_lat": 0.0, "fusion_lon": 0.0, "rental_uris": {"android": "https://dc.lft.to/lastmile_qr_scan", "ios": "https://dc.lft.to/lastmile_qr_scan"}, "is_reserved": 0, "is_disabled": 0, "type": "electric_scooter", "bike_id": "eb62bfbc44bdbf566606887953f59168"}, {"lon": -77.0128525, "lat": 39.00383583333333, "name": "1691c696eba0778e9155cf19b1785881", "fusion_lat": 0.0, "fusion_lon": 0.0, "rental_uris": {"android": "https://dc.lft.to/lastmile_qr_scan", "ios": "https://dc.lft.to/lastmile_qr_scan"}, "is_reserved": 0, "is_disabled": 0, "type": "electric_bike", "bike_id": "1691c696eba0778e9155cf19b1785881"}, {"lon": -77.02013666666667, "lat": 38.89225316666667, "name": "a2679d87d99c6060ac664303657efe46", "fusion_lat": 0.0, "fusion_lon": 0.0, "rental_uris": {"android": "https://dc.lft.to/lastmile_qr_scan", "ios": "https://dc.lft.to/lastmile_qr_scan"}, "is_reserved": 0, "is_disabled": 0, "type": "electric_scooter", "bike_id": "a2679d87d99c6060ac664303657efe46"}, {"lon": -77.0113025, "lat": 38.90359733333333, "name": "4d9ade000f2ff6133f1c25350f908f60", "fusion_lat": 0.0, "fusion_lon": 0.0, "rental_uris": {"android": "https://dc.lft.to/lastmile_qr_scan", "ios": "https://dc.lft.to/lastmile_qr_scan"}, "is_reserved": 0, "is_disabled": 0, "type": "electric_scooter", "bike_id": "4d9ade000f2ff6133f1c25350f908f60"}, {"lon": -77.0049385, "lat": 38.896918166666666, "name": "4e262a6b9178ddb0c020fa9104552320", "fusion_lat": 0.0, "fusion_lon": 0.0, "rental_uris": {"android": "https://dc.lft.to/lastmile_qr_scan", "ios": "https://dc.lft.to/lastmile_qr_scan"}, "is_reserved": 0, "is_disabled": 0, "type": "electric_scooter", "bike_id": "4e262a6b9178ddb0c020fa9104552320"}, {"lon": -77.0271315, "lat": 38.90675683333333, "name": "1aedc6a83280c532461defd4a661b0c6", "fusion_lat": 0.0, "fusion_lon": 0.0, "rental_uris": {"android": "https://dc.lft.to/lastmile_qr_scan", "ios": "https://dc.lft.to/lastmile_qr_scan"}, "is_reserved": 0, "is_disabled": 0, "type": "electric_scooter", "bike_id": "1aedc6a83280c532461defd4a661b0c6"}, {"lon": -77.09546666666667, "lat": 38.858704833333334, "name": "4da2707e7d449551e4518adac0e07b9c", "fusion_lat": 0.0, "fusion_lon": 0.0, "rental_uris": {"android": "https://dc.lft.to/lastmile_qr_scan", "ios": "https://dc.lft.to/lastmile_qr_scan"}, "is_reserved": 0, "is_disabled": 0, "type": "electric_bike", "bike_id": "4da2707e7d449551e4518adac0e07b9c"}, {"lon": -76.94844283333333, "lat": 38.89487666666667, "name": "7e0824d3e294bd0cd5a0709b8754498c", "fusion_lat": 0.0, "fusion_lon": 0.0, "rental_uris": {"android": "https://dc.lft.to/lastmile_qr_scan", "ios": "https://dc.lft.to/lastmile_qr_scan"}, "is_reserved": 0, "is_disabled": 0, "type": "electric_scooter", "bike_id": "7e0824d3e294bd0cd5a0709b8754498c"}, {"lon": -77.04900933333333, "lat": 38.9133695, "name": "e89ad2aea58d5f5eaa33bca9886196c6", "fusion_lat": 0.0, "fusion_lon": 0.0, "rental_uris": {"android": "https://dc.lft.to/lastmile_qr_scan", "ios": "https://dc.lft.to/lastmile_qr_scan"}, "is_reserved": 0, "is_disabled": 0, "type": "electric_scooter", "bike_id": "e89ad2aea58d5f5eaa33bca9886196c6"}, {"lon": -77.045182, "lat": 38.909775, "name": "b193ba75bf803512d087cbef4f831689", "fusion_lat": 0.0, "fusion_lon": 0.0, "rental_uris": {"android": "https://dc.lft.to/lastmile_qr_scan", "ios": "https://dc.lft.to/lastmile_qr_scan"}, "is_reserved": 0, "is_disabled": 0, "type": "electric_scooter", "bike_id": "b193ba75bf803512d087cbef4f831689"}, {"lon": -77.038069, "lat": 38.92572933333334, "name": "79cfd9cdb235ce8dc062cc39eca35daf", "fusion_lat": 0.0, "fusion_lon": 0.0, "rental_uris": {"android": "https://dc.lft.to/lastmile_qr_scan", "ios": "https://dc.lft.to/lastmile_qr_scan"}, "is_reserved": 0, "is_disabled": 0, "type": "electric_scooter", "bike_id": "79cfd9cdb235ce8dc062cc39eca35daf"}, {"lon": -76.995453, "lat": 38.8842695, "name": "263b3a008a68bd4a3efe55aff2b5dadd", "fusion_lat": 0.0, "fusion_lon": 0.0, "rental_uris": {"android": "https://dc.lft.to/lastmile_qr_scan", "ios": "https://dc.lft.to/lastmile_qr_scan"}, "is_reserved": 0, "is_disabled": 0, "type": "electric_scooter", "bike_id": "263b3a008a68bd4a3efe55aff2b5dadd"}, {"lon": -77.02343033333334, "lat": 38.962066666666665, "name": "b9aded2bdf5c139fdb00e26ace32481a", "fusion_lat": 0.0, "fusion_lon": 0.0, "rental_uris": {"android": "https://dc.lft.to/lastmile_qr_scan", "ios": "https://dc.lft.to/lastmile_qr_scan"}, "is_reserved": 0, "is_disabled": 0, "type": "electric_scooter", "bike_id": "b9aded2bdf5c139fdb00e26ace32481a"}, {"lon": -77.02286016666666, "lat": 38.915712666666664, "name": "ad7e8bb88d789867d3489ffdbb42bbba", "fusion_lat": 0.0, "fusion_lon": 0.0, "rental_uris": {"android": "https://dc.lft.to/lastmile_qr_scan", "ios": "https://dc.lft.to/lastmile_qr_scan"}, "is_reserved": 0, "is_disabled": 0, "type": "electric_scooter", "bike_id": "ad7e8bb88d789867d3489ffdbb42bbba"}, {"lon": -77.0034405, "lat": 38.89492, "name": "c70d9666008e5ba4f2b2d1a4d6533c8f", "fusion_lat": 0.0, "fusion_lon": 0.0, "rental_uris": {"android": "https://dc.lft.to/lastmile_qr_scan", "ios": "https://dc.lft.to/lastmile_qr_scan"}, "is_reserved": 0, "is_disabled": 0, "type": "electric_scooter", "bike_id": "c70d9666008e5ba4f2b2d1a4d6533c8f"}, {"lon": -77.02419383333333, "lat": 38.892234, "name": "36f7abee65f5220252b2f2577009616f", "fusion_lat": 0.0, "fusion_lon": 0.0, "rental_uris": {"android": "https://dc.lft.to/lastmile_qr_scan", "ios": "https://dc.lft.to/lastmile_qr_scan"}, "is_reserved": 0, "is_disabled": 0, "type": "electric_scooter", "bike_id": "36f7abee65f5220252b2f2577009616f"}, {"lon": -77.05730366666667, "lat": 38.93370633333333, "name": "483020950da8185f222f1510f1c2682b", "fusion_lat": 0.0, "fusion_lon": 0.0, "rental_uris": {"android": "https://dc.lft.to/lastmile_qr_scan", "ios": "https://dc.lft.to/lastmile_qr_scan"}, "is_reserved": 0, "is_disabled": 0, "type": "electric_scooter", "bike_id": "483020950da8185f222f1510f1c2682b"}, {"lon": -77.004864, "lat": 38.89685933333333, "name": "615b784fdba11f6168366bed196e75c8", "fusion_lat": 0.0, "fusion_lon": 0.0, "rental_uris": {"android": "https://dc.lft.to/lastmile_qr_scan", "ios": "https://dc.lft.to/lastmile_qr_scan"}, "is_reserved": 0, "is_disabled": 0, "type": "electric_scooter", "bike_id": "615b784fdba11f6168366bed196e75c8"}, {"lon": -77.04234866666667, "lat": 38.89729166666667, "name": "fff9e33f381526d055ab7f8bb8232d43", "fusion_lat": 0.0, "fusion_lon": 0.0, "rental_uris": {"android": "https://dc.lft.to/lastmile_qr_scan", "ios": "https://dc.lft.to/lastmile_qr_scan"}, "is_reserved": 0, "is_disabled": 0, "type": "electric_scooter", "bike_id": "fff9e33f381526d055ab7f8bb8232d43"}, {"lon": -76.99622283333333, "lat": 38.900314, "name": "a6384c1e76a6152b291af77e37c9f5ce", "fusion_lat": 0.0, "fusion_lon": 0.0, "rental_uris": {"android": "https://dc.lft.to/lastmile_qr_scan", "ios": "https://dc.lft.to/lastmile_qr_scan"}, "is_reserved": 0, "is_disabled": 0, "type": "electric_scooter", "bike_id": "a6384c1e76a6152b291af77e37c9f5ce"}, {"lon": -77.0051805, "lat": 38.92896416666667, "name": "57c6e1c61afbfd846b79993dcae560c6", "fusion_lat": 0.0, "fusion_lon": 0.0, "rental_uris": {"android": "https://dc.lft.to/lastmile_qr_scan", "ios": "https://dc.lft.to/lastmile_qr_scan"}, "is_reserved": 0, "is_disabled": 0, "type": "electric_scooter", "bike_id": "57c6e1c61afbfd846b79993dcae560c6"}, {"lon": -77.00753816666666, "lat": 38.92675666666667, "name": "02a5e9bdb1d2bd51fb0255e8ea2aba57", "fusion_lat": 0.0, "fusion_lon": 0.0, "rental_uris": {"android": "https://dc.lft.to/lastmile_qr_scan", "ios": "https://dc.lft.to/lastmile_qr_scan"}, "is_reserved": 0, "is_disabled": 0, "type": "electric_scooter", "bike_id": "02a5e9bdb1d2bd51fb0255e8ea2aba57"}, {"lon": -77.02390733333333, "lat": 38.90991283333334, "name": "229ad5b5a8deecc33b006cb7bf59f8fd", "fusion_lat": 0.0, "fusion_lon": 0.0, "rental_uris": {"android": "https://dc.lft.to/lastmile_qr_scan", "ios": "https://dc.lft.to/lastmile_qr_scan"}, "is_reserved": 0, "is_disabled": 0, "type": "electric_scooter", "bike_id": "229ad5b5a8deecc33b006cb7bf59f8fd"}, {"lon": -76.93171483333333, "lat": 38.898859, "name": "2a588fdadd5513ff23257652f0faf989", "fusion_lat": 0.0, "fusion_lon": 0.0, "rental_uris": {"android": "https://dc.lft.to/lastmile_qr_scan", "ios": "https://dc.lft.to/lastmile_qr_scan"}, "is_reserved": 0, "is_disabled": 0, "type": "electric_scooter", "bike_id": "2a588fdadd5513ff23257652f0faf989"}, {"lon": -77.02720216666667, "lat": 38.95133783333333, "name": "062af2f27e09acba07793c0ce6fcbd9a", "fusion_lat": 0.0, "fusion_lon": 0.0, "rental_uris": {"android": "https://dc.lft.to/lastmile_qr_scan", "ios": "https://dc.lft.to/lastmile_qr_scan"}, "is_reserved": 0, "is_disabled": 0, "type": "electric_scooter", "bike_id": "062af2f27e09acba07793c0ce6fcbd9a"}, {"lon": -77.00926283333334, "lat": 38.89608116666667, "name": "7f583428b7fe48710d9687fc405430a4", "fusion_lat": 0.0, "fusion_lon": 0.0, "rental_uris": {"android": "https://dc.lft.to/lastmile_qr_scan", "ios": "https://dc.lft.to/lastmile_qr_scan"}, "is_reserved": 0, "is_disabled": 0, "type": "electric_scooter", "bike_id": "7f583428b7fe48710d9687fc405430a4"}, {"lon": -77.00728066666667, "lat": 38.884955, "name": "2f4b3488295c6582234e7807d9469f5d", "fusion_lat": 0.0, "fusion_lon": 0.0, "rental_uris": {"android": "https://dc.lft.to/lastmile_qr_scan", "ios": "https://dc.lft.to/lastmile_qr_scan"}, "is_reserved": 0, "is_disabled": 0, "type": "electric_scooter", "bike_id": "2f4b3488295c6582234e7807d9469f5d"}, {"lon": -76.98860383333333, "lat": 38.90030616666667, "name": "bc41926385f9ab45d9e694f2b3e04ceb", "fusion_lat": 0.0, "fusion_lon": 0.0, "rental_uris": {"android": "https://dc.lft.to/lastmile_qr_scan", "ios": "https://dc.lft.to/lastmile_qr_scan"}, "is_reserved": 0, "is_disabled": 0, "type": "electric_scooter", "bike_id": "bc41926385f9ab45d9e694f2b3e04ceb"}, {"lon": -77.0213275, "lat": 38.9032675, "name": "347e2e719fbedefd4af34d02f5b49089", "fusion_lat": 0.0, "fusion_lon": 0.0, "rental_uris": {"android": "https://dc.lft.to/lastmile_qr_scan", "ios": "https://dc.lft.to/lastmile_qr_scan"}, "is_reserved": 0, "is_disabled": 0, "type": "electric_scooter", "bike_id": "347e2e719fbedefd4af34d02f5b49089"}, {"lon": -77.007527, "lat": 38.87118666666667, "name": "ce2bb33127128d62e4d8f151ec6fa490", "fusion_lat": 0.0, "fusion_lon": 0.0, "rental_uris": {"android": "https://dc.lft.to/lastmile_qr_scan", "ios": "https://dc.lft.to/lastmile_qr_scan"}, "is_reserved": 0, "is_disabled": 0, "type": "electric_scooter", "bike_id": "ce2bb33127128d62e4d8f151ec6fa490"}, {"lon": -77.35307216666666, "lat": 38.950016, "name": "4116ee918bdf7f54972beb64a935fadb", "fusion_lat": 0.0, "fusion_lon": 0.0, "rental_uris": {"android": "https://dc.lft.to/lastmile_qr_scan", "ios": "https://dc.lft.to/lastmile_qr_scan"}, "is_reserved": 0, "is_disabled": 0, "type": "electric_bike", "bike_id": "4116ee918bdf7f54972beb64a935fadb"}, {"lon": -77.03828716666666, "lat": 38.931434, "name": "f7147f5275b04380599386c2a1620a8b", "fusion_lat": 0.0, "fusion_lon": 0.0, "rental_uris": {"android": "https://dc.lft.to/lastmile_qr_scan", "ios": "https://dc.lft.to/lastmile_qr_scan"}, "is_reserved": 0, "is_disabled": 0, "type": "electric_scooter", "bike_id": "f7147f5275b04380599386c2a1620a8b"}, {"lon": -77.0343865, "lat": 38.9103215, "name": "a63d88374b0aaa64fbca02437732d8ff", "fusion_lat": 0.0, "fusion_lon": 0.0, "rental_uris": {"android": "https://dc.lft.to/lastmile_qr_scan", "ios": "https://dc.lft.to/lastmile_qr_scan"}, "is_reserved": 0, "is_disabled": 0, "type": "electric_scooter", "bike_id": "a63d88374b0aaa64fbca02437732d8ff"}, {"lon": -77.02305583333333, "lat": 38.90877016666666, "name": "3ccb37e75ae16f5bad64a5a7358b413c", "fusion_lat": 0.0, "fusion_lon": 0.0, "rental_uris": {"android": "https://dc.lft.to/lastmile_qr_scan", "ios": "https://dc.lft.to/lastmile_qr_scan"}, "is_reserved": 0, "is_disabled": 0, "type": "electric_scooter", "bike_id": "3ccb37e75ae16f5bad64a5a7358b413c"}, {"lon": -76.98854083333333, "lat": 38.903482, "name": "7bb72a6c01f645f5d2439c178f36a4e1", "fusion_lat": 0.0, "fusion_lon": 0.0, "rental_uris": {"android": "https://dc.lft.to/lastmile_qr_scan", "ios": "https://dc.lft.to/lastmile_qr_scan"}, "is_reserved": 0, "is_disabled": 0, "type": "electric_scooter", "bike_id": "7bb72a6c01f645f5d2439c178f36a4e1"}, {"lon": -77.038524, "lat": 38.910560833333335, "name": "8fb071115a52f8b44331e030588ffa78", "fusion_lat": 0.0, "fusion_lon": 0.0, "rental_uris": {"android": "https://dc.lft.to/lastmile_qr_scan", "ios": "https://dc.lft.to/lastmile_qr_scan"}, "is_reserved": 0, "is_disabled": 0, "type": "electric_scooter", "bike_id": "8fb071115a52f8b44331e030588ffa78"}, {"lon": -77.038421, "lat": 38.925298833333336, "name": "67cab5115a7f7a213506c3b7d0b6aac0", "fusion_lat": 0.0, "fusion_lon": 0.0, "rental_uris": {"android": "https://dc.lft.to/lastmile_qr_scan", "ios": "https://dc.lft.to/lastmile_qr_scan"}, "is_reserved": 0, "is_disabled": 0, "type": "electric_scooter", "bike_id": "67cab5115a7f7a213506c3b7d0b6aac0"}, {"lon": -77.03305633333333, "lat": 38.90835883333333, "name": "af4de2109afb2d0b8983324b0b6d4034", "fusion_lat": 0.0, "fusion_lon": 0.0, "rental_uris": {"android": "https://dc.lft.to/lastmile_qr_scan", "ios": "https://dc.lft.to/lastmile_qr_scan"}, "is_reserved": 0, "is_disabled": 0, "type": "electric_scooter", "bike_id": "af4de2109afb2d0b8983324b0b6d4034"}, {"lon": -77.040001, "lat": 38.918175, "name": "ee67de7ecea94fd731267cae52574720", "fusion_lat": 0.0, "fusion_lon": 0.0, "rental_uris": {"android": "https://dc.lft.to/lastmile_qr_scan", "ios": "https://dc.lft.to/lastmile_qr_scan"}, "is_reserved": 0, "is_disabled": 0, "type": "electric_scooter", "bike_id": "ee67de7ecea94fd731267cae52574720"}, {"lon": -77.060947, "lat": 38.90506033333333, "name": "c3e3fb54ffc65263818f4fad161d4a37", "fusion_lat": 0.0, "fusion_lon": 0.0, "rental_uris": {"android": "https://dc.lft.to/lastmile_qr_scan", "ios": "https://dc.lft.to/lastmile_qr_scan"}, "is_reserved": 0, "is_disabled": 0, "type": "electric_scooter", "bike_id": "c3e3fb54ffc65263818f4fad161d4a37"}, {"lon": -76.92875166666667, "lat": 38.884499166666664, "name": "8dbfaf8aabd07501092b5798d2c9e816", "fusion_lat": 0.0, "fusion_lon": 0.0, "rental_uris": {"android": "https://dc.lft.to/lastmile_qr_scan", "ios": "https://dc.lft.to/lastmile_qr_scan"}, "is_reserved": 0, "is_disabled": 0, "type": "electric_scooter", "bike_id": "8dbfaf8aabd07501092b5798d2c9e816"}, {"lon": -77.02154983333334, "lat": 38.916200833333335, "name": "12ba52f081ee6fcca76f325468ef4045", "fusion_lat": 0.0, "fusion_lon": 0.0, "rental_uris": {"android": "https://dc.lft.to/lastmile_qr_scan", "ios": "https://dc.lft.to/lastmile_qr_scan"}, "is_reserved": 0, "is_disabled": 0, "type": "electric_scooter", "bike_id": "12ba52f081ee6fcca76f325468ef4045"}, {"lon": -77.01114183333334, "lat": 38.87094066666667, "name": "9642c09b9f005be73fc5a584d0726dc9", "fusion_lat": 0.0, "fusion_lon": 0.0, "rental_uris": {"android": "https://dc.lft.to/lastmile_qr_scan", "ios": "https://dc.lft.to/lastmile_qr_scan"}, "is_reserved": 0, "is_disabled": 0, "type": "electric_scooter", "bike_id": "9642c09b9f005be73fc5a584d0726dc9"}, {"lon": -76.95107983333334, "lat": 38.8879245, "name": "c2be5f42d2be305be4b295593da0a04e", "fusion_lat": 0.0, "fusion_lon": 0.0, "rental_uris": {"android": "https://dc.lft.to/lastmile_qr_scan", "ios": "https://dc.lft.to/lastmile_qr_scan"}, "is_reserved": 0, "is_disabled": 0, "type": "electric_scooter", "bike_id": "c2be5f42d2be305be4b295593da0a04e"}, {"lon": -76.99458183333333, "lat": 38.85164533333333, "name": "11812f7243ccc44cdc88915cb2afb51e", "fusion_lat": 0.0, "fusion_lon": 0.0, "rental_uris": {"android": "https://dc.lft.to/lastmile_qr_scan", "ios": "https://dc.lft.to/lastmile_qr_scan"}, "is_reserved": 0, "is_disabled": 0, "type": "electric_scooter", "bike_id": "11812f7243ccc44cdc88915cb2afb51e"}, {"lon": -77.04572716666667, "lat": 38.902517, "name": "ade8194be298079538c60331c827258f", "fusion_lat": 0.0, "fusion_lon": 0.0, "rental_uris": {"android": "https://dc.lft.to/lastmile_qr_scan", "ios": "https://dc.lft.to/lastmile_qr_scan"}, "is_reserved": 0, "is_disabled": 0, "type": "electric_scooter", "bike_id": "ade8194be298079538c60331c827258f"}, {"lon": -77.02148716666666, "lat": 38.89228466666667, "name": "085cbd2427fb748290134b64e6fda5d4", "fusion_lat": 0.0, "fusion_lon": 0.0, "rental_uris": {"android": "https://dc.lft.to/lastmile_qr_scan", "ios": "https://dc.lft.to/lastmile_qr_scan"}, "is_reserved": 0, "is_disabled": 0, "type": "electric_scooter", "bike_id": "085cbd2427fb748290134b64e6fda5d4"}, {"lon": -77.0022195, "lat": 38.894529166666665, "name": "f750babea036f04ddae699844c0e3412", "fusion_lat": 0.0, "fusion_lon": 0.0, "rental_uris": {"android": "https://dc.lft.to/lastmile_qr_scan", "ios": "https://dc.lft.to/lastmile_qr_scan"}, "is_reserved": 0, "is_disabled": 0, "type": "electric_scooter", "bike_id": "f750babea036f04ddae699844c0e3412"}, {"lon": -77.08045266666667, "lat": 38.848481166666666, "name": "19eb7a7b85b6a10f5cdf4f9913f3d6ab", "fusion_lat": 0.0, "fusion_lon": 0.0, "rental_uris": {"android": "https://dc.lft.to/lastmile_qr_scan", "ios": "https://dc.lft.to/lastmile_qr_scan"}, "is_reserved": 0, "is_disabled": 0, "type": "electric_bike", "bike_id": "19eb7a7b85b6a10f5cdf4f9913f3d6ab"}, {"lon": -77.02154883333333, "lat": 38.9143715, "name": "a88a9273b6fdf7203f974cd8617579a9", "fusion_lat": 0.0, "fusion_lon": 0.0, "rental_uris": {"android": "https://dc.lft.to/lastmile_qr_scan", "ios": "https://dc.lft.to/lastmile_qr_scan"}, "is_reserved": 0, "is_disabled": 0, "type": "electric_scooter", "bike_id": "a88a9273b6fdf7203f974cd8617579a9"}, {"lon": -77.04278383333333, "lat": 38.907359, "name": "1191bf9907bb009bdeec1a58f83bbdbb", "fusion_lat": 0.0, "fusion_lon": 0.0, "rental_uris": {"android": "https://dc.lft.to/lastmile_qr_scan", "ios": "https://dc.lft.to/lastmile_qr_scan"}, "is_reserved": 0, "is_disabled": 0, "type": "electric_scooter", "bike_id": "1191bf9907bb009bdeec1a58f83bbdbb"}, {"lon": -77.03335983333334, "lat": 38.903088, "name": "50f351ce42512bcc23e0357088c29662", "fusion_lat": 0.0, "fusion_lon": 0.0, "rental_uris": {"android": "https://dc.lft.to/lastmile_qr_scan", "ios": "https://dc.lft.to/lastmile_qr_scan"}, "is_reserved": 0, "is_disabled": 0, "type": "electric_scooter", "bike_id": "50f351ce42512bcc23e0357088c29662"}, {"lon": -76.95678366666667, "lat": 38.947319666666665, "name": "93dbb31129ae06a2f05cc1ba7e0ef719", "fusion_lat": 0.0, "fusion_lon": 0.0, "rental_uris": {"android": "https://dc.lft.to/lastmile_qr_scan", "ios": "https://dc.lft.to/lastmile_qr_scan"}, "is_reserved": 0, "is_disabled": 0, "type": "electric_bike", "bike_id": "93dbb31129ae06a2f05cc1ba7e0ef719"}, {"lon": -76.99519816666667, "lat": 38.9002555, "name": "4bb81f86509554470008af68916b86f3", "fusion_lat": 0.0, "fusion_lon": 0.0, "rental_uris": {"android": "https://dc.lft.to/lastmile_qr_scan", "ios": "https://dc.lft.to/lastmile_qr_scan"}, "is_reserved": 0, "is_disabled": 0, "type": "electric_scooter", "bike_id": "4bb81f86509554470008af68916b86f3"}, {"lon": -77.03245433333333, "lat": 38.918178833333336, "name": "285f0817c26b2ba8bdba2e0dc644a749", "fusion_lat": 0.0, "fusion_lon": 0.0, "rental_uris": {"android": "https://dc.lft.to/lastmile_qr_scan", "ios": "https://dc.lft.to/lastmile_qr_scan"}, "is_reserved": 0, "is_disabled": 0, "type": "electric_scooter", "bike_id": "285f0817c26b2ba8bdba2e0dc644a749"}, {"lon": -77.03182083333333, "lat": 38.893631166666665, "name": "980637f81dd92133a226d9c96e924c1c", "fusion_lat": 0.0, "fusion_lon": 0.0, "rental_uris": {"android": "https://dc.lft.to/lastmile_qr_scan", "ios": "https://dc.lft.to/lastmile_qr_scan"}, "is_reserved": 0, "is_disabled": 0, "type": "electric_scooter", "bike_id": "980637f81dd92133a226d9c96e924c1c"}, {"lon": -76.97621033333333, "lat": 38.8958005, "name": "1057bb5bd6744834e1c5b9c105351c16", "fusion_lat": 0.0, "fusion_lon": 0.0, "rental_uris": {"android": "https://dc.lft.to/lastmile_qr_scan", "ios": "https://dc.lft.to/lastmile_qr_scan"}, "is_reserved": 0, "is_disabled": 0, "type": "electric_bike", "bike_id": "1057bb5bd6744834e1c5b9c105351c16"}, {"lon": -77.02741416666667, "lat": 38.967197, "name": "4cb162302b19bf5079fde4758fa5c9df", "fusion_lat": 0.0, "fusion_lon": 0.0, "rental_uris": {"android": "https://dc.lft.to/lastmile_qr_scan", "ios": "https://dc.lft.to/lastmile_qr_scan"}, "is_reserved": 0, "is_disabled": 0, "type": "electric_scooter", "bike_id": "4cb162302b19bf5079fde4758fa5c9df"}, {"lon": -76.9374905, "lat": 38.8904585, "name": "8e16624294ee1cc3c742830023098118", "fusion_lat": 0.0, "fusion_lon": 0.0, "rental_uris": {"android": "https://dc.lft.to/lastmile_qr_scan", "ios": "https://dc.lft.to/lastmile_qr_scan"}, "is_reserved": 0, "is_disabled": 0, "type": "electric_scooter", "bike_id": "8e16624294ee1cc3c742830023098118"}, {"lon": -77.01061433333334, "lat": 38.8724685, "name": "54054428d4b78535e9602cf0fbf8a18b", "fusion_lat": 0.0, "fusion_lon": 0.0, "rental_uris": {"android": "https://dc.lft.to/lastmile_qr_scan", "ios": "https://dc.lft.to/lastmile_qr_scan"}, "is_reserved": 0, "is_disabled": 0, "type": "electric_scooter", "bike_id": "54054428d4b78535e9602cf0fbf8a18b"}, {"lon": -77.07894616666667, "lat": 38.9192415, "name": "97c45078a9d0dfc4ded167ae6df0ec63", "fusion_lat": 0.0, "fusion_lon": 0.0, "rental_uris": {"android": "https://dc.lft.to/lastmile_qr_scan", "ios": "https://dc.lft.to/lastmile_qr_scan"}, "is_reserved": 0, "is_disabled": 0, "type": "electric_scooter", "bike_id": "97c45078a9d0dfc4ded167ae6df0ec63"}, {"lon": -77.02829616666666, "lat": 38.924769, "name": "987bf111db9c5e35f9cbc4d77f0076fd", "fusion_lat": 0.0, "fusion_lon": 0.0, "rental_uris": {"android": "https://dc.lft.to/lastmile_qr_scan", "ios": "https://dc.lft.to/lastmile_qr_scan"}, "is_reserved": 0, "is_disabled": 0, "type": "electric_scooter", "bike_id": "987bf111db9c5e35f9cbc4d77f0076fd"}, {"lon": -77.03876033333333, "lat": 38.917057166666666, "name": "de7d52f79ba7dbea71cf6b4e5281b0d9", "fusion_lat": 0.0, "fusion_lon": 0.0, "rental_uris": {"android": "https://dc.lft.to/lastmile_qr_scan", "ios": "https://dc.lft.to/lastmile_qr_scan"}, "is_reserved": 0, "is_disabled": 0, "type": "electric_scooter", "bike_id": "de7d52f79ba7dbea71cf6b4e5281b0d9"}, {"lon": -77.00519233333333, "lat": 38.917021, "name": "7ced09aef2765a4239d983040cbfab51", "fusion_lat": 0.0, "fusion_lon": 0.0, "rental_uris": {"android": "https://dc.lft.to/lastmile_qr_scan", "ios": "https://dc.lft.to/lastmile_qr_scan"}, "is_reserved": 0, "is_disabled": 0, "type": "electric_scooter", "bike_id": "7ced09aef2765a4239d983040cbfab51"}, {"lon": -77.04133516666667, "lat": 38.923695, "name": "72cb84b5dad97fcfb55f5ccc0091eecb", "fusion_lat": 0.0, "fusion_lon": 0.0, "rental_uris": {"android": "https://dc.lft.to/lastmile_qr_scan", "ios": "https://dc.lft.to/lastmile_qr_scan"}, "is_reserved": 0, "is_disabled": 0, "type": "electric_scooter", "bike_id": "72cb84b5dad97fcfb55f5ccc0091eecb"}, {"lon": -77.034221, "lat": 38.918122, "name": "e32d09ed9e603d48a12e562be98295fd", "fusion_lat": 0.0, "fusion_lon": 0.0, "rental_uris": {"android": "https://dc.lft.to/lastmile_qr_scan", "ios": "https://dc.lft.to/lastmile_qr_scan"}, "is_reserved": 0, "is_disabled": 0, "type": "electric_scooter", "bike_id": "e32d09ed9e603d48a12e562be98295fd"}, {"lon": -77.03824983333334, "lat": 38.92545366666667, "name": "51cdeef128f04d4df201149958d116c1", "fusion_lat": 0.0, "fusion_lon": 0.0, "rental_uris": {"android": "https://dc.lft.to/lastmile_qr_scan", "ios": "https://dc.lft.to/lastmile_qr_scan"}, "is_reserved": 0, "is_disabled": 0, "type": "electric_scooter", "bike_id": "51cdeef128f04d4df201149958d116c1"}, {"lon": -77.017588, "lat": 38.90259616666667, "name": "59e950a36eef3e38d69e988eace72665", "fusion_lat": 0.0, "fusion_lon": 0.0, "rental_uris": {"android": "https://dc.lft.to/lastmile_qr_scan", "ios": "https://dc.lft.to/lastmile_qr_scan"}, "is_reserved": 0, "is_disabled": 0, "type": "electric_scooter", "bike_id": "59e950a36eef3e38d69e988eace72665"}, {"lon": -77.02666066666667, "lat": 38.94850483333333, "name": "d45fa71cc297c41bc530b8dfbd13aab8", "fusion_lat": 0.0, "fusion_lon": 0.0, "rental_uris": {"android": "https://dc.lft.to/lastmile_qr_scan", "ios": "https://dc.lft.to/lastmile_qr_scan"}, "is_reserved": 0, "is_disabled": 0, "type": "electric_scooter", "bike_id": "d45fa71cc297c41bc530b8dfbd13aab8"}, {"lon": -77.0415295, "lat": 38.907083666666665, "name": "6b18d57b631fbcf8fbb92a0a20485453", "fusion_lat": 0.0, "fusion_lon": 0.0, "rental_uris": {"android": "https://dc.lft.to/lastmile_qr_scan", "ios": "https://dc.lft.to/lastmile_qr_scan"}, "is_reserved": 0, "is_disabled": 0, "type": "electric_scooter", "bike_id": "6b18d57b631fbcf8fbb92a0a20485453"}, {"lon": -77.00794716666667, "lat": 38.91710783333333, "name": "033402b32eae695b961cca3df349d82a", "fusion_lat": 0.0, "fusion_lon": 0.0, "rental_uris": {"android": "https://dc.lft.to/lastmile_qr_scan", "ios": "https://dc.lft.to/lastmile_qr_scan"}, "is_reserved": 0, "is_disabled": 0, "type": "electric_scooter", "bike_id": "033402b32eae695b961cca3df349d82a"}, {"lon": -77.04017933333333, "lat": 38.900228166666665, "name": "f7e5021fae82d98003e12630433989a2", "fusion_lat": 0.0, "fusion_lon": 0.0, "rental_uris": {"android": "https://dc.lft.to/lastmile_qr_scan", "ios": "https://dc.lft.to/lastmile_qr_scan"}, "is_reserved": 0, "is_disabled": 0, "type": "electric_scooter", "bike_id": "f7e5021fae82d98003e12630433989a2"}, {"lon": -77.040261, "lat": 38.903792833333334, "name": "fa5ee869619314533eeae260df7c3ebb", "fusion_lat": 0.0, "fusion_lon": 0.0, "rental_uris": {"android": "https://dc.lft.to/lastmile_qr_scan", "ios": "https://dc.lft.to/lastmile_qr_scan"}, "is_reserved": 0, "is_disabled": 0, "type": "electric_scooter", "bike_id": "fa5ee869619314533eeae260df7c3ebb"}, {"lon": -77.03988816666667, "lat": 38.907329, "name": "66f680fb77b20e25383f52f19e48a1c0", "fusion_lat": 0.0, "fusion_lon": 0.0, "rental_uris": {"android": "https://dc.lft.to/lastmile_qr_scan", "ios": "https://dc.lft.to/lastmile_qr_scan"}, "is_reserved": 0, "is_disabled": 0, "type": "electric_scooter", "bike_id": "66f680fb77b20e25383f52f19e48a1c0"}, {"lon": -77.03832616666666, "lat": 38.91193716666667, "name": "2168aebe3844e73c36cdc9214327b02c", "fusion_lat": 0.0, "fusion_lon": 0.0, "rental_uris": {"android": "https://dc.lft.to/lastmile_qr_scan", "ios": "https://dc.lft.to/lastmile_qr_scan"}, "is_reserved": 0, "is_disabled": 0, "type": "electric_scooter", "bike_id": "2168aebe3844e73c36cdc9214327b02c"}, {"lon": -76.9986515, "lat": 38.90032683333333, "name": "04c1a6c8bdd7d1decb6c430f4c96ed4f", "fusion_lat": 0.0, "fusion_lon": 0.0, "rental_uris": {"android": "https://dc.lft.to/lastmile_qr_scan", "ios": "https://dc.lft.to/lastmile_qr_scan"}, "is_reserved": 0, "is_disabled": 0, "type": "electric_scooter", "bike_id": "04c1a6c8bdd7d1decb6c430f4c96ed4f"}, {"lon": -76.936634, "lat": 38.880316666666666, "name": "a9f5b0b13d4134500a3c1e1a184e3d08", "fusion_lat": 0.0, "fusion_lon": 0.0, "rental_uris": {"android": "https://dc.lft.to/lastmile_qr_scan", "ios": "https://dc.lft.to/lastmile_qr_scan"}, "is_reserved": 0, "is_disabled": 0, "type": "electric_scooter", "bike_id": "a9f5b0b13d4134500a3c1e1a184e3d08"}, {"lon": -77.00098583333333, "lat": 38.873818166666666, "name": "e47659679fc14dcb6f20610d61ff7a06", "fusion_lat": 0.0, "fusion_lon": 0.0, "rental_uris": {"android": "https://dc.lft.to/lastmile_qr_scan", "ios": "https://dc.lft.to/lastmile_qr_scan"}, "is_reserved": 0, "is_disabled": 0, "type": "electric_scooter", "bike_id": "e47659679fc14dcb6f20610d61ff7a06"}, {"lon": -77.030683, "lat": 38.8804605, "name": "8995620cb8b17fae1b3970c005de5f05", "fusion_lat": 0.0, "fusion_lon": 0.0, "rental_uris": {"android": "https://dc.lft.to/lastmile_qr_scan", "ios": "https://dc.lft.to/lastmile_qr_scan"}, "is_reserved": 0, "is_disabled": 0, "type": "electric_scooter", "bike_id": "8995620cb8b17fae1b3970c005de5f05"}, {"lon": -77.03410966666667, "lat": 38.929535, "name": "4f0d7746bc9c7b0d3f23da87fd6b35d1", "fusion_lat": 0.0, "fusion_lon": 0.0, "rental_uris": {"android": "https://dc.lft.to/lastmile_qr_scan", "ios": "https://dc.lft.to/lastmile_qr_scan"}, "is_reserved": 0, "is_disabled": 0, "type": "electric_scooter", "bike_id": "4f0d7746bc9c7b0d3f23da87fd6b35d1"}, {"lon": -77.03658466666667, "lat": 38.92280183333333, "name": "9fc7344c8c78f9235cd2bf95965f9577", "fusion_lat": 0.0, "fusion_lon": 0.0, "rental_uris": {"android": "https://dc.lft.to/lastmile_qr_scan", "ios": "https://dc.lft.to/lastmile_qr_scan"}, "is_reserved": 0, "is_disabled": 0, "type": "electric_scooter", "bike_id": "9fc7344c8c78f9235cd2bf95965f9577"}, {"lon": -77.0191955, "lat": 38.91657466666667, "name": "be713b216768c91661d56bee94308434", "fusion_lat": 0.0, "fusion_lon": 0.0, "rental_uris": {"android": "https://dc.lft.to/lastmile_qr_scan", "ios": "https://dc.lft.to/lastmile_qr_scan"}, "is_reserved": 0, "is_disabled": 0, "type": "electric_scooter", "bike_id": "be713b216768c91661d56bee94308434"}, {"lon": -77.13174183333334, "lat": 38.869050333333334, "name": "ea11ebdb483a29e7d6dcfb6398ab1680", "fusion_lat": 0.0, "fusion_lon": 0.0, "rental_uris": {"android": "https://dc.lft.to/lastmile_qr_scan", "ios": "https://dc.lft.to/lastmile_qr_scan"}, "is_reserved": 0, "is_disabled": 0, "type": "electric_bike", "bike_id": "ea11ebdb483a29e7d6dcfb6398ab1680"}, {"lon": -77.0240915, "lat": 38.909632, "name": "f83ed5905bfa18ba1b41693deb6a6fc1", "fusion_lat": 0.0, "fusion_lon": 0.0, "rental_uris": {"android": "https://dc.lft.to/lastmile_qr_scan", "ios": "https://dc.lft.to/lastmile_qr_scan"}, "is_reserved": 0, "is_disabled": 0, "type": "electric_scooter", "bike_id": "f83ed5905bfa18ba1b41693deb6a6fc1"}, {"lon": -77.02820866666667, "lat": 38.88514933333333, "name": "cc8f0ff04da3bd46f150d9696ea7e664", "fusion_lat": 0.0, "fusion_lon": 0.0, "rental_uris": {"android": "https://dc.lft.to/lastmile_qr_scan", "ios": "https://dc.lft.to/lastmile_qr_scan"}, "is_reserved": 0, "is_disabled": 0, "type": "electric_scooter", "bike_id": "cc8f0ff04da3bd46f150d9696ea7e664"}, {"lon": -77.03779666666667, "lat": 38.9968145, "name": "b93844ae45681f18f99cb1f25669c06a", "fusion_lat": 0.0, "fusion_lon": 0.0, "rental_uris": {"android": "https://dc.lft.to/lastmile_qr_scan", "ios": "https://dc.lft.to/lastmile_qr_scan"}, "is_reserved": 0, "is_disabled": 0, "type": "electric_bike", "bike_id": "b93844ae45681f18f99cb1f25669c06a"}, {"lon": -77.04199966666667, "lat": 38.92115483333333, "name": "7860fac51be6b46a9eeb117423f9a37e", "fusion_lat": 0.0, "fusion_lon": 0.0, "rental_uris": {"android": "https://dc.lft.to/lastmile_qr_scan", "ios": "https://dc.lft.to/lastmile_qr_scan"}, "is_reserved": 0, "is_disabled": 0, "type": "electric_scooter", "bike_id": "7860fac51be6b46a9eeb117423f9a37e"}, {"lon": -77.04671883333333, "lat": 38.91569033333333, "name": "9d58581ac77f7895039e2574026f9c42", "fusion_lat": 0.0, "fusion_lon": 0.0, "rental_uris": {"android": "https://dc.lft.to/lastmile_qr_scan", "ios": "https://dc.lft.to/lastmile_qr_scan"}, "is_reserved": 0, "is_disabled": 0, "type": "electric_scooter", "bike_id": "9d58581ac77f7895039e2574026f9c42"}, {"lon": -77.04280716666666, "lat": 38.90740183333333, "name": "2d7a135ad569af35bdb78e117c9f2f79", "fusion_lat": 0.0, "fusion_lon": 0.0, "rental_uris": {"android": "https://dc.lft.to/lastmile_qr_scan", "ios": "https://dc.lft.to/lastmile_qr_scan"}, "is_reserved": 0, "is_disabled": 0, "type": "electric_scooter", "bike_id": "2d7a135ad569af35bdb78e117c9f2f79"}, {"lon": -76.98901166666667, "lat": 38.86695316666667, "name": "18b92bf30286f85ba7495053c18c7fc3", "fusion_lat": 0.0, "fusion_lon": 0.0, "rental_uris": {"android": "https://dc.lft.to/lastmile_qr_scan", "ios": "https://dc.lft.to/lastmile_qr_scan"}, "is_reserved": 0, "is_disabled": 0, "type": "electric_scooter", "bike_id": "18b92bf30286f85ba7495053c18c7fc3"}, {"lon": -77.02925516666667, "lat": 38.9306695, "name": "eacaca91b2c62fc29a5edb3e6d1cfd53", "fusion_lat": 0.0, "fusion_lon": 0.0, "rental_uris": {"android": "https://dc.lft.to/lastmile_qr_scan", "ios": "https://dc.lft.to/lastmile_qr_scan"}, "is_reserved": 0, "is_disabled": 0, "type": "electric_scooter", "bike_id": "eacaca91b2c62fc29a5edb3e6d1cfd53"}, {"lon": -77.02395166666666, "lat": 38.919773, "name": "0c7489e64bcad75f0d5f6839beaf2a1a", "fusion_lat": 0.0, "fusion_lon": 0.0, "rental_uris": {"android": "https://dc.lft.to/lastmile_qr_scan", "ios": "https://dc.lft.to/lastmile_qr_scan"}, "is_reserved": 0, "is_disabled": 0, "type": "electric_scooter", "bike_id": "0c7489e64bcad75f0d5f6839beaf2a1a"}, {"lon": -77.03881833333334, "lat": 38.9149295, "name": "2f304859ff7a0943b4fb656a9f0a886c", "fusion_lat": 0.0, "fusion_lon": 0.0, "rental_uris": {"android": "https://dc.lft.to/lastmile_qr_scan", "ios": "https://dc.lft.to/lastmile_qr_scan"}, "is_reserved": 0, "is_disabled": 0, "type": "electric_scooter", "bike_id": "2f304859ff7a0943b4fb656a9f0a886c"}, {"lon": -77.03118666666667, "lat": 38.897381, "name": "e0edd5e4079dd396583ba4447b8fd291", "fusion_lat": 0.0, "fusion_lon": 0.0, "rental_uris": {"android": "https://dc.lft.to/lastmile_qr_scan", "ios": "https://dc.lft.to/lastmile_qr_scan"}, "is_reserved": 0, "is_disabled": 0, "type": "electric_scooter", "bike_id": "e0edd5e4079dd396583ba4447b8fd291"}, {"lon": -77.046376, "lat": 38.892244166666664, "name": "657d1ae2dcc30047dd2721f0dbd79a51", "fusion_lat": 0.0, "fusion_lon": 0.0, "rental_uris": {"android": "https://dc.lft.to/lastmile_qr_scan", "ios": "https://dc.lft.to/lastmile_qr_scan"}, "is_reserved": 0, "is_disabled": 0, "type": "electric_scooter", "bike_id": "657d1ae2dcc30047dd2721f0dbd79a51"}, {"lon": -76.9948875, "lat": 38.862473333333334, "name": "27ad9f81364b8b9ceaa8aa2d9e6310b9", "fusion_lat": 0.0, "fusion_lon": 0.0, "rental_uris": {"android": "https://dc.lft.to/lastmile_qr_scan", "ios": "https://dc.lft.to/lastmile_qr_scan"}, "is_reserved": 0, "is_disabled": 0, "type": "electric_scooter", "bike_id": "27ad9f81364b8b9ceaa8aa2d9e6310b9"}, {"lon": -77.06269716666667, "lat": 38.90596733333334, "name": "fa5aa2e770b12a9289e1ba8c95c635cd", "fusion_lat": 0.0, "fusion_lon": 0.0, "rental_uris": {"android": "https://dc.lft.to/lastmile_qr_scan", "ios": "https://dc.lft.to/lastmile_qr_scan"}, "is_reserved": 0, "is_disabled": 0, "type": "electric_scooter", "bike_id": "fa5aa2e770b12a9289e1ba8c95c635cd"}, {"lon": -77.04153183333334, "lat": 38.92334566666667, "name": "8122ad1c8cadd9dcfb69d9cce084e800", "fusion_lat": 0.0, "fusion_lon": 0.0, "rental_uris": {"android": "https://dc.lft.to/lastmile_qr_scan", "ios": "https://dc.lft.to/lastmile_qr_scan"}, "is_reserved": 0, "is_disabled": 0, "type": "electric_scooter", "bike_id": "8122ad1c8cadd9dcfb69d9cce084e800"}, {"lon": -77.00677916666666, "lat": 38.8770005, "name": "6854b96cff8a07f9239e89f464b44ed1", "fusion_lat": 0.0, "fusion_lon": 0.0, "rental_uris": {"android": "https://dc.lft.to/lastmile_qr_scan", "ios": "https://dc.lft.to/lastmile_qr_scan"}, "is_reserved": 0, "is_disabled": 0, "type": "electric_scooter", "bike_id": "6854b96cff8a07f9239e89f464b44ed1"}, {"lon": -77.03408033333334, "lat": 38.91931983333333, "name": "3fa194bc23ff04b32d43f85f52fc1988", "fusion_lat": 0.0, "fusion_lon": 0.0, "rental_uris": {"android": "https://dc.lft.to/lastmile_qr_scan", "ios": "https://dc.lft.to/lastmile_qr_scan"}, "is_reserved": 0, "is_disabled": 0, "type": "electric_scooter", "bike_id": "3fa194bc23ff04b32d43f85f52fc1988"}, {"lon": -76.9990905, "lat": 38.90948383333333, "name": "e86f645c8562a560ac98f0f97e1bfbfd", "fusion_lat": 0.0, "fusion_lon": 0.0, "rental_uris": {"android": "https://dc.lft.to/lastmile_qr_scan", "ios": "https://dc.lft.to/lastmile_qr_scan"}, "is_reserved": 0, "is_disabled": 0, "type": "electric_scooter", "bike_id": "e86f645c8562a560ac98f0f97e1bfbfd"}, {"lon": -77.03856933333333, "lat": 38.93240433333333, "name": "6c7f6e6e67c557bcc56e1873e52e614f", "fusion_lat": 0.0, "fusion_lon": 0.0, "rental_uris": {"android": "https://dc.lft.to/lastmile_qr_scan", "ios": "https://dc.lft.to/lastmile_qr_scan"}, "is_reserved": 0, "is_disabled": 0, "type": "electric_scooter", "bike_id": "6c7f6e6e67c557bcc56e1873e52e614f"}, {"lon": -77.04093133333333, "lat": 38.923880833333335, "name": "17245e48e4f455f3eddfa3ef9a343470", "fusion_lat": 0.0, "fusion_lon": 0.0, "rental_uris": {"android": "https://dc.lft.to/lastmile_qr_scan", "ios": "https://dc.lft.to/lastmile_qr_scan"}, "is_reserved": 0, "is_disabled": 0, "type": "electric_scooter", "bike_id": "17245e48e4f455f3eddfa3ef9a343470"}, {"lon": -77.130929, "lat": 38.86168, "name": "94a7043d5a9cfb66b86b51579f56f8c5", "fusion_lat": 0.0, "fusion_lon": 0.0, "rental_uris": {"android": "https://dc.lft.to/lastmile_qr_scan", "ios": "https://dc.lft.to/lastmile_qr_scan"}, "is_reserved": 0, "is_disabled": 0, "type": "electric_bike", "bike_id": "94a7043d5a9cfb66b86b51579f56f8c5"}, {"lon": -77.02280383333333, "lat": 38.91840583333333, "name": "014dcbff97297eb12f9fc65d4a7aeb90", "fusion_lat": 0.0, "fusion_lon": 0.0, "rental_uris": {"android": "https://dc.lft.to/lastmile_qr_scan", "ios": "https://dc.lft.to/lastmile_qr_scan"}, "is_reserved": 0, "is_disabled": 0, "type": "electric_scooter", "bike_id": "014dcbff97297eb12f9fc65d4a7aeb90"}, {"lon": -77.02474433333333, "lat": 38.938508, "name": "1276d2fb79d4084fa1f8770d122dec4e", "fusion_lat": 0.0, "fusion_lon": 0.0, "rental_uris": {"android": "https://dc.lft.to/lastmile_qr_scan", "ios": "https://dc.lft.to/lastmile_qr_scan"}, "is_reserved": 0, "is_disabled": 0, "type": "electric_scooter", "bike_id": "1276d2fb79d4084fa1f8770d122dec4e"}, {"lon": -77.0283865, "lat": 38.88770266666667, "name": "4a41d3edf487c0c44b34595c18252ef5", "fusion_lat": 0.0, "fusion_lon": 0.0, "rental_uris": {"android": "https://dc.lft.to/lastmile_qr_scan", "ios": "https://dc.lft.to/lastmile_qr_scan"}, "is_reserved": 0, "is_disabled": 0, "type": "electric_scooter", "bike_id": "4a41d3edf487c0c44b34595c18252ef5"}, {"lon": -77.0663045, "lat": 38.9136895, "name": "728ff5f069b6bd41ab715695433d4749", "fusion_lat": 0.0, "fusion_lon": 0.0, "rental_uris": {"android": "https://dc.lft.to/lastmile_qr_scan", "ios": "https://dc.lft.to/lastmile_qr_scan"}, "is_reserved": 0, "is_disabled": 0, "type": "electric_scooter", "bike_id": "728ff5f069b6bd41ab715695433d4749"},