{"data": {"bikes": [{"is_disabled": 0, "rental_uris": {"android": "https://dc.lft.to/lastmile_qr_scan", "ios": "https://dc.lft.to/lastmile_qr_scan"}, "is_reserved": 0, "name": "1a541a46d7722b13533630588ce1876f", "lon": -77.01434266666666, "type": "electric_scooter", "bike_id": "1a541a46d7722b13533630588ce1876f", "fusion_lon": 0.0, "lat": 38.87775666666667, "fusion_lat": 0.0}, {"is_disabled": 0, "rental_uris": {"android": "https://dc.lft.to/lastmile_qr_scan", "ios": "https://dc.lft.to/lastmile_qr_scan"}, "is_reserved": 0, "name": "5f81de02c471aa3c1a64e0845cc523ff", "lon": -77.0498285, "type": "electric_scooter", "bike_id": "5f81de02c471aa3c1a64e0845cc523ff", "fusion_lon": 0.0, "lat": 38.9012295, "fusion_lat": 0.0}, {"is_disabled": 0, "rental_uris": {"android": "https://dc.lft.to/lastmile_qr_scan", "ios": "https://dc.lft.to/lastmile_qr_scan"}, "is_reserved": 0, "name": "2752c654a2d37ede1708dd75ccc6d530", "lon": -77.0365995, "type": "electric_scooter", "bike_id": "2752c654a2d37ede1708dd75ccc6d530", "fusion_lon": 0.0, "lat": 38.9173205, "fusion_lat": 0.0}, {"is_disabled": 0, "rental_uris": {"android": "https://dc.lft.to/lastmile_qr_scan", "ios": "https://dc.lft.to/lastmile_qr_scan"}, "is_reserved": 0, "name": "d9ad57c547a122e0a68a245620fa7d89", "lon": -77.021527, "type": "electric_scooter", "bike_id": "d9ad57c547a122e0a68a245620fa7d89", "fusion_lon": 0.0, "lat": 38.92600483333333, "fusion_lat": 0.0}, {"is_disabled": 0, "rental_uris": {"android": "https://dc.lft.to/lastmile_qr_scan", "ios": "https://dc.lft.to/lastmile_qr_scan"}, "is_reserved": 0, "name": "73687ff582afb415eb4dbf57819ddb41", "lon": -77.00509883333334, "type": "electric_scooter", "bike_id": "73687ff582afb415eb4dbf57819ddb41", "fusion_lon": 0.0, "lat": 38.848721, "fusion_lat": 0.0}, {"is_disabled": 0, "rental_uris": {"android": "https://dc.lft.to/lastmile_qr_scan", "ios": "https://dc.lft.to/lastmile_qr_scan"}, "is_reserved": 0, "name": "34d57385779183701cde85e3dae01a77", "lon": -77.02804916666666, "type": "electric_scooter", "bike_id": "34d57385779183701cde85e3dae01a77", "fusion_lon": 0.0, "lat": 38.930819166666666, "fusion_lat": 0.0}, {"is_disabled": 0, "rental_uris": {"android": "https://dc.lft.to/lastmile_qr_scan", "ios": "https://dc.lft.to/lastmile_qr_scan"}, "is_reserved": 0, "name": "800b67898c716a845939cd9f50bfc4d4", "lon": -77.0008335, "type": "electric_scooter", "bike_id": "800b67898c716a845939cd9f50bfc4d4", "fusion_lon": 0.0, "lat": 38.8940245, "fusion_lat": 0.0}, {"is_disabled": 0, "rental_uris": {"android": "https://dc.lft.to/lastmile_qr_scan", "ios": "https://dc.lft.to/lastmile_qr_scan"}, "is_reserved": 0, "name": "ee326823754a1bdb23b818a541d195ae", "lon": -77.01381833333333, "type": "electric_scooter", "bike_id": "ee326823754a1bdb23b818a541d195ae", "fusion_lon": 0.0, "lat": 38.910103, "fusion_lat": 0.0}, {"is_disabled": 0, "rental_uris": {"android": "https://dc.lft.to/lastmile_qr_scan", "ios": "https://dc.lft.to/lastmile_qr_scan"}, "is_reserved": 0, "name": "30552ffdc5c930c02e1fee4e04cd4422", "lon": -77.03365366666667, "type": "electric_scooter", "bike_id": "30552ffdc5c930c02e1fee4e04cd4422", "fusion_lon": 0.0, "lat": 38.917161166666666, "fusion_lat": 0.0}, {"is_disabled": 0, "rental_uris": {"android": "https://dc.lft.to/lastmile_qr_scan", "ios": "https://dc.lft.to/lastmile_qr_scan"}, "is_reserved": 0, "name": "f659b33d37530b61c627c47a71f63ecb", "lon": -77.03438866666667, "type": "electric_scooter", "bike_id": "f659b33d37530b61c627c47a71f63ecb", "fusion_lon": 0.0, "lat": 38.905733833333336, "fusion_lat": 0.0}, {"is_disabled": 0, "rental_uris": {"android": "https://dc.lft.to/lastmile_qr_scan", "ios": "https://dc.lft.to/lastmile_qr_scan"}, "is_reserved": 0, "name": "10bf2b2030e94f3f8c804245c6aa19aa", "lon": -77.0298455, "type": "electric_scooter", "bike_id": "10bf2b2030e94f3f8c804245c6aa19aa", "fusion_lon": 0.0, "lat": 38.924760666666664, "fusion_lat": 0.0}, {"is_disabled": 0, "rental_uris": {"android": "https://dc.lft.to/lastmile_qr_scan", "ios": "https://dc.lft.to/lastmile_qr_scan"}, "is_reserved": 0, "name": "be7b39990dbc1ce03f3111144314fb4a", "lon": -77.01767516666666, "type": "electric_scooter", "bike_id": "be7b39990dbc1ce03f3111144314fb4a", "fusion_lon": 0.0, "lat": 38.877183, "fusion_lat": 0.0}, {"is_disabled": 0, "rental_uris": {"android": "https://dc.lft.to/lastmile_qr_scan", "ios": "https://dc.lft.to/lastmile_qr_scan"}, "is_reserved": 0, "name": "017fb0190392d1fec158bf30bf75122e", "lon": -77.07793566666666, "type": "electric_bike", "bike_id": "017fb0190392d1fec158bf30bf75122e", "fusion_lon": 0.0, "lat": 38.845167333333336, "fusion_lat": 0.0}, {"is_disabled": 0, "rental_uris": {"android": "https://dc.lft.to/lastmile_qr_scan", "ios": "https://dc.lft.to/lastmile_qr_scan"}, "is_reserved": 0, "name": "1d1355610b9d2f42c7bf2014c4cb9e51", "lon": -77.02663333333334, "type": "electric_scooter", "bike_id": "1d1355610b9d2f42c7bf2014c4cb9e51", "fusion_lon": 0.0, "lat": 38.923862, "fusion_lat": 0.0}, {"is_disabled": 0, "rental_uris": {"android": "https://dc.lft.to/lastmile_qr_scan", "ios": "https://dc.lft.to/lastmile_qr_scan"}, "is_reserved": 0, "name": "9ea490afb46b311d8ecb28546771d6ff", "lon": -76.980172, "type": "electric_scooter", "bike_id": "9ea490afb46b311d8ecb28546771d6ff", "fusion_lon": 0.0, "lat": 38.864057833333334, "fusion_lat": 0.0}, {"is_disabled": 0, "rental_uris": {"android": "https://dc.lft.to/lastmile_qr_scan", "ios": "https://dc.lft.to/lastmile_qr_scan"}, "is_reserved": 0, "name": "6a1e6d96ed29e9feae8a2f8c6d2a251c", "lon": -77.039488, "type": "electric_scooter", "bike_id": "6a1e6d96ed29e9feae8a2f8c6d2a251c", "fusion_lon": 0.0, "lat": 38.90273466666667, "fusion_lat": 0.0}, {"is_disabled": 0, "rental_uris": {"android": "https://dc.lft.to/lastmile_qr_scan", "ios": "https://dc.lft.to/lastmile_qr_scan"}, "is_reserved": 0, "name": "adc6ae12553c64d600edf9a8c7387180", "lon": -77.02493733333333, "type": "electric_scooter", "bike_id": "adc6ae12553c64d600edf9a8c7387180", "fusion_lon": 0.0, "lat": 38.941855, "fusion_lat": 0.0}, {"is_disabled": 0, "rental_uris": {"android": "https://dc.lft.to/lastmile_qr_scan", "ios": "https://dc.lft.to/lastmile_qr_scan"}, "is_reserved": 0, "name": "6db1087d6b007d1847300d00927b5fb5", "lon": -77.04160016666667, "type": "electric_scooter", "bike_id": "6db1087d6b007d1847300d00927b5fb5", "fusion_lon": 0.0, "lat": 38.9161415, "fusion_lat": 0.0}, {"is_disabled": 0, "rental_uris": {"android": "https://dc.lft.to/lastmile_qr_scan", "ios": "https://dc.lft.to/lastmile_qr_scan"}, "is_reserved": 0, "name": "f5fa8bdacba90e2534bde71976f5d573", "lon": -77.029578, "type": "electric_scooter", "bike_id": "f5fa8bdacba90e2534bde71976f5d573", "fusion_lon": 0.0, "lat": 38.921429333333336, "fusion_lat": 0.0}, {"is_disabled": 0, "rental_uris": {"android": "https://dc.lft.to/lastmile_qr_scan", "ios": "https://dc.lft.to/lastmile_qr_scan"}, "is_reserved": 0, "name": "ab0d1fb02b8891b368af07ee364ef435", "lon": -77.017564, "type": "electric_scooter", "bike_id": "ab0d1fb02b8891b368af07ee364ef435", "fusion_lon": 0.0, "lat": 38.90265266666667, "fusion_lat": 0.0}, {"is_disabled": 0, "rental_uris": {"android": "https://dc.lft.to/lastmile_qr_scan", "ios": "https://dc.lft.to/lastmile_qr_scan"}, "is_reserved": 0, "name": "c848be998d55825d92e5bc437d78e799", "lon": -77.0277855, "type": "electric_scooter", "bike_id": "c848be998d55825d92e5bc437d78e799", "fusion_lon": 0.0, "lat": 38.89606533333333, "fusion_lat": 0.0}, {"is_disabled": 0, "rental_uris": {"android": "https://dc.lft.to/lastmile_qr_scan", "ios": "https://dc.lft.to/lastmile_qr_scan"}, "is_reserved": 0, "name": "fcc0a2b1f267e9d3099567a83b8d291b", "lon": -77.000665, "type": "electric_scooter", "bike_id": "fcc0a2b1f267e9d3099567a83b8d291b", "fusion_lon": 0.0, "lat": 38.923948833333334, "fusion_lat": 0.0}, {"is_disabled": 0, "rental_uris": {"android": "https://dc.lft.to/lastmile_qr_scan", "ios": "https://dc.lft.to/lastmile_qr_scan"}, "is_reserved": 0, "name": "f6683f69bbbf061c1b931c0c8935c68a", "lon": -77.03524733333333, "type": "electric_scooter", "bike_id": "f6683f69bbbf061c1b931c0c8935c68a", "fusion_lon": 0.0, "lat": 38.9097395, "fusion_lat": 0.0}, {"is_disabled": 0, "rental_uris": {"android": "https://dc.lft.to/lastmile_qr_scan", "ios": "https://dc.lft.to/lastmile_qr_scan"}, "is_reserved": 0, "name": "750274e51a4051389e882e45132ab139", "lon": -77.0729375, "type": "electric_scooter", "bike_id": "750274e51a4051389e882e45132ab139", "fusion_lon": 0.0, "lat": 38.9318365, "fusion_lat": 0.0}, {"is_disabled": 0, "rental_uris": {"android": "https://dc.lft.to/lastmile_qr_scan", "ios": "https://dc.lft.to/lastmile_qr_scan"}, "is_reserved": 0, "name": "e6cf5aa4ba5914b323b2efc41496b866", "lon": -77.05253733333333, "type": "electric_scooter", "bike_id": "e6cf5aa4ba5914b323b2efc41496b866", "fusion_lon": 0.0, "lat": 38.92385133333333, "fusion_lat": 0.0}, {"is_disabled": 0, "rental_uris": {"android": "https://dc.lft.to/lastmile_qr_scan", "ios": "https://dc.lft.to/lastmile_qr_scan"}, "is_reserved": 0, "name": "7f0a2480699107cd1513598db33b9aee", "lon": -77.024066, "type": "electric_scooter", "bike_id": "7f0a2480699107cd1513598db33b9aee", "fusion_lon": 0.0, "lat": 38.9156775, "fusion_lat": 0.0}, {"is_disabled": 0, "rental_uris": {"android": "https://dc.lft.to/lastmile_qr_scan", "ios": "https://dc.lft.to/lastmile_qr_scan"}, "is_reserved": 0, "name": "3037acd22f963179bc14c3be9569c916", "lon": -77.0298865, "type": "electric_scooter", "bike_id": "3037acd22f963179bc14c3be9569c916", "fusion_lon": 0.0, "lat": 38.92471716666667, "fusion_lat": 0.0}, {"is_disabled": 0, "rental_uris": {"android": "https://dc.lft.to/lastmile_qr_scan", "ios": "https://dc.lft.to/lastmile_qr_scan"}, "is_reserved": 0, "name": "f93d60eaac9ed81481fe24ff5cb33182", "lon": -77.01109416666667, "type": "electric_scooter", "bike_id": "f93d60eaac9ed81481fe24ff5cb33182", "fusion_lon": 0.0, "lat": 38.907867833333334, "fusion_lat": 0.0}, {"is_disabled": 0, "rental_uris": {"android": "https://dc.lft.to/lastmile_qr_scan", "ios": "https://dc.lft.to/lastmile_qr_scan"}, "is_reserved": 0, "name": "1463757aac44027fc44073e7eecfad71", "lon": -77.05397733333334, "type": "electric_scooter", "bike_id": "1463757aac44027fc44073e7eecfad71", "fusion_lon": 0.0, "lat": 38.92791016666666, "fusion_lat": 0.0}, {"is_disabled": 0, "rental_uris": {"android": "https://dc.lft.to/lastmile_qr_scan", "ios": "https://dc.lft.to/lastmile_qr_scan"}, "is_reserved": 0, "name": "eca97ea47b06369aaf5bd034d79cfc10", "lon": -77.02794083333333, "type": "electric_scooter", "bike_id": "eca97ea47b06369aaf5bd034d79cfc10", "fusion_lon": 0.0, "lat": 38.8842005, "fusion_lat": 0.0}, {"is_disabled": 0, "rental_uris": {"android": "https://dc.lft.to/lastmile_qr_scan", "ios": "https://dc.lft.to/lastmile_qr_scan"}, "is_reserved": 0, "name": "bc59a9243e000d6d3834af8b0138212a", "lon": -77.04191816666666, "type": "electric_scooter", "bike_id": "bc59a9243e000d6d3834af8b0138212a", "fusion_lon": 0.0, "lat": 38.916749833333334, "fusion_lat": 0.0}, {"is_disabled": 0, "rental_uris": {"android": "https://dc.lft.to/lastmile_qr_scan", "ios": "https://dc.lft.to/lastmile_qr_scan"}, "is_reserved": 0, "name": "f5f4bf13bc4e185f2fa71c874a1c67f3", "lon": -77.02210166666667, "type": "electric_scooter", "bike_id": "f5f4bf13bc4e185f2fa71c874a1c67f3", "fusion_lon": 0.0, "lat": 38.9098325, "fusion_lat": 0.0}, {"is_disabled": 0, "rental_uris": {"android": "https://dc.lft.to/lastmile_qr_scan", "ios": "https://dc.lft.to/lastmile_qr_scan"}, "is_reserved": 0, "name": "0bdea002699d15b74f4e09239eaf85a8", "lon": -77.038598, "type": "electric_scooter", "bike_id": "0bdea002699d15b74f4e09239eaf85a8", "fusion_lon": 0.0, "lat": 38.90369483333333, "fusion_lat": 0.0}, {"is_disabled": 0, "rental_uris": {"android": "https://dc.lft.to/lastmile_qr_scan", "ios": "https://dc.lft.to/lastmile_qr_scan"}, "is_reserved": 0, "name": "da86c9ef0e4441ca77bd72227e7d0acb", "lon": -76.97727, "type": "electric_scooter", "bike_id": "da86c9ef0e4441ca77bd72227e7d0acb", "fusion_lon": 0.0, "lat": 38.8948955, "fusion_lat": 0.0}, {"is_disabled": 0, "rental_uris": {"android": "https://dc.lft.to/lastmile_qr_scan", "ios": "https://dc.lft.to/lastmile_qr_scan"}, "is_reserved": 0, "name": "435aac986e41537b9837f1d1517d9ebe", "lon": -77.02160716666667, "type": "electric_scooter", "bike_id": "435aac986e41537b9837f1d1517d9ebe", "fusion_lon": 0.0, "lat": 38.9015105, "fusion_lat": 0.0}, {"is_disabled": 0, "rental_uris": {"android": "https://dc.lft.to/lastmile_qr_scan", "ios": "https://dc.lft.to/lastmile_qr_scan"}, "is_reserved": 0, "name": "5cde3d1ec53a52fda7410e11cfd548c0", "lon": -77.03227983333333, "type": "electric_scooter", "bike_id": "5cde3d1ec53a52fda7410e11cfd548c0", "fusion_lon": 0.0, "lat": 38.90978466666667, "fusion_lat": 0.0}, {"is_disabled": 0, "rental_uris": {"android": "https://dc.lft.to/lastmile_qr_scan", "ios": "https://dc.lft.to/lastmile_qr_scan"}, "is_reserved": 0, "name": "e9d2ca7be87591b5a2561ff4a970f078", "lon": -76.97993933333333, "type": "electric_scooter", "bike_id": "e9d2ca7be87591b5a2561ff4a970f078", "fusion_lon": 0.0, "lat": 38.888737666666664, "fusion_lat": 0.0}, {"is_disabled": 0, "rental_uris": {"android": "https://dc.lft.to/lastmile_qr_scan", "ios": "https://dc.lft.to/lastmile_qr_scan"}, "is_reserved": 0, "name": "0078f65e545e6a743eb04bd5b9234ec0", "lon": -77.05938433333333, "type": "electric_scooter", "bike_id": "0078f65e545e6a743eb04bd5b9234ec0", "fusion_lon": 0.0, "lat": 38.862392166666666, "fusion_lat": 0.0}, {"is_disabled": 0, "rental_uris": {"android": "https://dc.lft.to/lastmile_qr_scan", "ios": "https://dc.lft.to/lastmile_qr_scan"}, "is_reserved": 0, "name": "199537c1bccc4ee61be62bf08ab9d916", "lon": -77.03861916666666, "type": "electric_scooter", "bike_id": "199537c1bccc4ee61be62bf08ab9d916", "fusion_lon": 0.0, "lat": 38.9125665, "fusion_lat": 0.0}, {"is_disabled": 0, "rental_uris": {"android": "https://dc.lft.to/lastmile_qr_scan", "ios": "https://dc.lft.to/lastmile_qr_scan"}, "is_reserved": 0, "name": "90b4ca640e002b6dbc9338fd5b6e565b", "lon": -77.00201583333333, "type": "electric_scooter", "bike_id": "90b4ca640e002b6dbc9338fd5b6e565b", "fusion_lon": 0.0, "lat": 38.90026483333333, "fusion_lat": 0.0}, {"is_disabled": 0, "rental_uris": {"android": "https://dc.lft.to/lastmile_qr_scan", "ios": "https://dc.lft.to/lastmile_qr_scan"}, "is_reserved": 0, "name": "fb0680ac883f21ba6233161b77d4e3dd", "lon": -77.02955383333334, "type": "electric_scooter", "bike_id": "fb0680ac883f21ba6233161b77d4e3dd", "fusion_lon": 0.0, "lat": 38.91200466666667, "fusion_lat": 0.0}, {"is_disabled": 0, "rental_uris": {"android": "https://dc.lft.to/lastmile_qr_scan", "ios": "https://dc.lft.to/lastmile_qr_scan"}, "is_reserved": 0, "name": "c5463637ea570d56f6d6c1113bafc9dd", "lon": -76.9846955, "type": "electric_scooter", "bike_id": "c5463637ea570d56f6d6c1113bafc9dd", "fusion_lon": 0.0, "lat": 38.893550833333336, "fusion_lat": 0.0}, {"is_disabled": 0, "rental_uris": {"android": "https://dc.lft.to/lastmile_qr_scan", "ios": "https://dc.lft.to/lastmile_qr_scan"}, "is_reserved": 0, "name": "6e1d6e6feff9274ccea2eb89d66d5f43", "lon": -77.03081366666666, "type": "electric_scooter", "bike_id": "6e1d6e6feff9274ccea2eb89d66d5f43", "fusion_lon": 0.0, "lat": 38.92242533333334, "fusion_lat": 0.0}, {"is_disabled": 0, "rental_uris": {"android": "https://dc.lft.to/lastmile_qr_scan", "ios": "https://dc.lft.to/lastmile_qr_scan"}, "is_reserved": 0, "name": "90a4b44ab08893a26c8844828e52e31c", "lon": -77.115045, "type": "electric_bike", "bike_id": "90a4b44ab08893a26c8844828e52e31c", "fusion_lon": 0.0, "lat": 38.8818095, "fusion_lat": 0.0}, {"is_disabled": 0, "rental_uris": {"android": "https://dc.lft.to/lastmile_qr_scan", "ios": "https://dc.lft.to/lastmile_qr_scan"}, "is_reserved": 0, "name": "fc7da01324f618553ecbf655ac244982", "lon": -77.0653275, "type": "electric_scooter", "bike_id": "fc7da01324f618553ecbf655ac244982", "fusion_lon": 0.0, "lat": 38.90522766666667, "fusion_lat": 0.0}, {"is_disabled": 0, "rental_uris": {"android": "https://dc.lft.to/lastmile_qr_scan", "ios": "https://dc.lft.to/lastmile_qr_scan"}, "is_reserved": 0, "name": "8495a4786325627d9ea13f71c440d7a1", "lon": -77.0351395, "type": "electric_scooter", "bike_id": "8495a4786325627d9ea13f71c440d7a1", "fusion_lon": 0.0, "lat": 38.92241, "fusion_lat": 0.0}, {"is_disabled": 0, "rental_uris": {"android": "https://dc.lft.to/lastmile_qr_scan", "ios": "https://dc.lft.to/lastmile_qr_scan"}, "is_reserved": 0, "name": "6d91d5b8cbe28e4f80313a816a231c02", "lon": -76.9836905, "type": "electric_scooter", "bike_id": "6d91d5b8cbe28e4f80313a816a231c02", "fusion_lon": 0.0, "lat": 38.922008, "fusion_lat": 0.0}, {"is_disabled": 0, "rental_uris": {"android": "https://dc.lft.to/lastmile_qr_scan", "ios": "https://dc.lft.to/lastmile_qr_scan"}, "is_reserved": 0, "name": "b96b67498ca75dc86a49152054d64844", "lon": -77.03189416666666, "type": "electric_scooter", "bike_id": "b96b67498ca75dc86a49152054d64844", "fusion_lon": 0.0, "lat": 38.93063316666667, "fusion_lat": 0.0}, {"is_disabled": 0, "rental_uris": {"android": "https://dc.lft.to/lastmile_qr_scan", "ios": "https://dc.lft.to/lastmile_qr_scan"}, "is_reserved": 0, "name": "0c42a0d47ebe29687308c0a0d50c8d16", "lon": -77.06361666666666, "type": "electric_scooter", "bike_id": "0c42a0d47ebe29687308c0a0d50c8d16", "fusion_lon": 0.0, "lat": 38.94417166666667, "fusion_lat": 0.0}, {"is_disabled": 0, "rental_uris": {"android": "https://dc.lft.to/lastmile_qr_scan", "ios": "https://dc.lft.to/lastmile_qr_scan"}, "is_reserved": 0, "name": "e00822d200d391199ecbb76910873237", "lon": -77.04028783333334, "type": "electric_scooter", "bike_id": "e00822d200d391199ecbb76910873237", "fusion_lon": 0.0, "lat": 38.91789633333333, "fusion_lat": 0.0}, {"is_disabled": 0, "rental_uris": {"android": "https://dc.lft.to/lastmile_qr_scan", "ios": "https://dc.lft.to/lastmile_qr_scan"}, "is_reserved": 0, "name": "c604ac62a380b5cb570d2d8ceea66be6", "lon": -77.001947, "type": "electric_scooter", "bike_id": "c604ac62a380b5cb570d2d8ceea66be6", "fusion_lon": 0.0, "lat": 38.90238733333333, "fusion_lat": 0.0}, {"is_disabled": 0, "rental_uris": {"android": "https://dc.lft.to/lastmile_qr_scan", "ios": "https://dc.lft.to/lastmile_qr_scan"}, "is_reserved": 0, "name": "9723ed358f9a21ba62ed20d753032b90", "lon": -76.99957366666666, "type": "electric_scooter", "bike_id": "9723ed358f9a21ba62ed20d753032b90", "fusion_lon": 0.0, "lat": 38.90341266666667, "fusion_lat": 0.0}, {"is_disabled": 0, "rental_uris": {"android": "https://dc.lft.to/lastmile_qr_scan", "ios": "https://dc.lft.to/lastmile_qr_scan"}, "is_reserved": 0, "name": "092f7e489348fb19da7cb9e1a9e7602c", "lon": -77.00644833333334, "type": "electric_bike", "bike_id": "092f7e489348fb19da7cb9e1a9e7602c", "fusion_lon": 0.0, "lat": 38.94476783333333, "fusion_lat": 0.0}, {"is_disabled": 0, "rental_uris": {"android": "https://dc.lft.to/lastmile_qr_scan", "ios": "https://dc.lft.to/lastmile_qr_scan"}, "is_reserved": 0, "name": "221572c7da06c00922c2c410384db35b", "lon": -77.031858, "type": "electric_scooter", "bike_id": "221572c7da06c00922c2c410384db35b", "fusion_lon": 0.0, "lat": 38.9191065, "fusion_lat": 0.0}, {"is_disabled": 0, "rental_uris": {"android": "https://dc.lft.to/lastmile_qr_scan", "ios": "https://dc.lft.to/lastmile_qr_scan"}, "is_reserved": 0, "name": "f9d0d08d039addd8e50b912b2af10924", "lon": -77.03876766666667, "type": "electric_scooter", "bike_id": "f9d0d08d039addd8e50b912b2af10924", "fusion_lon": 0.0, "lat": 38.9343025, "fusion_lat": 0.0}, {"is_disabled": 0, "rental_uris": {"android": "https://dc.lft.to/lastmile_qr_scan", "ios": "https://dc.lft.to/lastmile_qr_scan"}, "is_reserved": 0, "name": "d4e25a89cd54a5fe00cb78a8031c3bd5", "lon": -77.04361566666667, "type": "electric_scooter", "bike_id": "d4e25a89cd54a5fe00cb78a8031c3bd5", "fusion_lon": 0.0, "lat": 38.901184666666666, "fusion_lat": 0.0}, {"is_disabled": 0, "rental_uris": {"android": "https://dc.lft.to/lastmile_qr_scan", "ios": "https://dc.lft.to/lastmile_qr_scan"}, "is_reserved": 0, "name": "61aa3d8222381807faf404fb0af154d8", "lon": -77.03182283333334, "type": "electric_scooter", "bike_id": "61aa3d8222381807faf404fb0af154d8", "fusion_lon": 0.0, "lat": 38.919061, "fusion_lat": 0.0}, {"is_disabled": 0, "rental_uris": {"android": "https://dc.lft.to/lastmile_qr_scan", "ios": "https://dc.lft.to/lastmile_qr_scan"}, "is_reserved": 0, "name": "6c772aeabcd504a6f1985e6dd27eff69", "lon": -77.02173266666667, "type": "electric_scooter", "bike_id": "6c772aeabcd504a6f1985e6dd27eff69", "fusion_lon": 0.0, "lat": 38.897421333333334, "fusion_lat": 0.0}, {"is_disabled": 0, "rental_uris": {"android": "https://dc.lft.to/lastmile_qr_scan", "ios": "https://dc.lft.to/lastmile_qr_scan"}, "is_reserved": 0, "name": "6551ef13cebc4f94a30955d282e31fd9", "lon": -77.051116, "type": "electric_bike", "bike_id": "6551ef13cebc4f94a30955d282e31fd9", "fusion_lon": 0.0, "lat": 38.945605, "fusion_lat": 0.0}, {"is_disabled": 0, "rental_uris": {"android": "https://dc.lft.to/lastmile_qr_scan", "ios": "https://dc.lft.to/lastmile_qr_scan"}, "is_reserved": 0, "name": "15514fbf186160bdfaa1115b931812bd", "lon": -77.0282805, "type": "electric_scooter", "bike_id": "15514fbf186160bdfaa1115b931812bd", "fusion_lon": 0.0, "lat": 38.914176499999996, "fusion_lat": 0.0}, {"is_disabled": 0, "rental_uris": {"android": "https://dc.lft.to/lastmile_qr_scan", "ios": "https://dc.lft.to/lastmile_qr_scan"}, "is_reserved": 0, "name": "71f14012086108cc317f3f205facb28b", "lon": -77.03335166666666, "type": "electric_scooter", "bike_id": "71f14012086108cc317f3f205facb28b", "fusion_lon": 0.0, "lat": 38.89834716666667, "fusion_lat": 0.0}, {"is_disabled": 0, "rental_uris": {"android": "https://dc.lft.to/lastmile_qr_scan", "ios": "https://dc.lft.to/lastmile_qr_scan"}, "is_reserved": 0, "name": "eafe0c16042997cc5ec52cf1e5d87567", "lon": -77.10731466666667, "type": "electric_bike", "bike_id": "eafe0c16042997cc5ec52cf1e5d87567", "fusion_lon": 0.0, "lat": 38.8557515, "fusion_lat": 0.0}, {"is_disabled": 0, "rental_uris": {"android": "https://dc.lft.to/lastmile_qr_scan", "ios": "https://dc.lft.to/lastmile_qr_scan"}, "is_reserved": 0, "name": "34e9a2c040d940876bdeb0c633d49e73", "lon": -77.040481, "type": "electric_scooter", "bike_id": "34e9a2c040d940876bdeb0c633d49e73", "fusion_lon": 0.0, "lat": 38.90026483333333, "fusion_lat": 0.0}, {"is_disabled": 0, "rental_uris": {"android": "https://dc.lft.to/lastmile_qr_scan", "ios": "https://dc.lft.to/lastmile_qr_scan"}, "is_reserved": 0, "name": "f7baedbe595538f70069b49e1119bf40", "lon": -77.03628983333333, "type": "electric_scooter", "bike_id": "f7baedbe595538f70069b49e1119bf40", "fusion_lon": 0.0, "lat": 38.92804666666667, "fusion_lat": 0.0}, {"is_disabled": 0, "rental_uris": {"android": "https://dc.lft.to/lastmile_qr_scan", "ios": "https://dc.lft.to/lastmile_qr_scan"}, "is_reserved": 0, "name": "e8c4078de6c087e31d3885210a21c574", "lon": -77.04154883333334, "type": "electric_scooter", "bike_id": "e8c4078de6c087e31d3885210a21c574", "fusion_lon": 0.0, "lat": 38.914204166666664, "fusion_lat": 0.0}, {"is_disabled": 0, "rental_uris": {"android": "https://dc.lft.to/lastmile_qr_scan", "ios": "https://dc.lft.to/lastmile_qr_scan"}, "is_reserved": 0, "name": "c5bd4d4555fd4d38222e9d5d7bbfb046", "lon": -77.03344266666667, "type": "electric_scooter", "bike_id": "c5bd4d4555fd4d38222e9d5d7bbfb046", "fusion_lon": 0.0, "lat": 38.91799833333334, "fusion_lat": 0.0}, {"is_disabled": 0, "rental_uris": {"android": "https://dc.lft.to/lastmile_qr_scan", "ios": "https://dc.lft.to/lastmile_qr_scan"}, "is_reserved": 0, "name": "2ebaa3913b844766ac85cbde20197d5d", "lon": -76.93053016666667, "type": "electric_scooter", "bike_id": "2ebaa3913b844766ac85cbde20197d5d", "fusion_lon": 0.0, "lat": 38.898036, "fusion_lat": 0.0}, {"is_disabled": 0, "rental_uris": {"android": "https://dc.lft.to/lastmile_qr_scan", "ios": "https://dc.lft.to/lastmile_qr_scan"}, "is_reserved": 0, "name": "e943dea630e37fc0f916439aeaa4b1da", "lon": -77.02321016666667, "type": "electric_scooter", "bike_id": "e943dea630e37fc0f916439aeaa4b1da", "fusion_lon": 0.0, "lat": 38.921007, "fusion_lat": 0.0}, {"is_disabled": 0, "rental_uris": {"android": "https://dc.lft.to/lastmile_qr_scan", "ios": "https://dc.lft.to/lastmile_qr_scan"}, "is_reserved": 0, "name": "83bee754c7ce2b599be997d0adb45e62", "lon": -77.12741116666666, "type": "electric_bike", "bike_id": "83bee754c7ce2b599be997d0adb45e62", "fusion_lon": 0.0, "lat": 38.895702, "fusion_lat": 0.0}, {"is_disabled": 0, "rental_uris": {"android": "https://dc.lft.to/lastmile_qr_scan", "ios": "https://dc.lft.to/lastmile_qr_scan"}, "is_reserved": 0, "name": "408b652448e337c1656e9f682c00cd6d", "lon": -77.03209833333334, "type": "electric_scooter", "bike_id": "408b652448e337c1656e9f682c00cd6d", "fusion_lon": 0.0, "lat": 38.92009783333334, "fusion_lat": 0.0}, {"is_disabled": 0, "rental_uris": {"android": "https://dc.lft.to/lastmile_qr_scan", "ios": "https://dc.lft.to/lastmile_qr_scan"}, "is_reserved": 0, "name": "43f916b2373ebd4c6f2006ae3853a84c", "lon": -77.02173833333333, "type": "electric_scooter", "bike_id": "43f916b2373ebd4c6f2006ae3853a84c", "fusion_lon": 0.0, "lat": 38.89474116666667, "fusion_lat": 0.0}, {"is_disabled": 0, "rental_uris": {"android": "https://dc.lft.to/lastmile_qr_scan", "ios": "https://dc.lft.to/lastmile_qr_scan"}, "is_reserved": 0, "name": "7e678c8a6238c68c850f8b43bfda7d52", "lon": -77.02217233333333, "type": "electric_scooter", "bike_id": "7e678c8a6238c68c850f8b43bfda7d52", "fusion_lon": 0.0, "lat": 38.93553283333333, "fusion_lat": 0.0}, {"is_disabled": 0, "rental_uris": {"android": "https://dc.lft.to/lastmile_qr_scan", "ios": "https://dc.lft.to/lastmile_qr_scan"}, "is_reserved": 0, "name": "a56757c14749b0cebf2b6784eaeda857", "lon": -77.032035, "type": "electric_scooter", "bike_id": "a56757c14749b0cebf2b6784eaeda857", "fusion_lon": 0.0, "lat": 38.91838816666667, "fusion_lat": 0.0}, {"is_disabled": 0, "rental_uris": {"android": "https://dc.lft.to/lastmile_qr_scan", "ios": "https://dc.lft.to/lastmile_qr_scan"}, "is_reserved": 0, "name": "a7f93172fc9e22303fc201d4f48224cd", "lon": -76.996317, "type": "electric_scooter", "bike_id": "a7f93172fc9e22303fc201d4f48224cd", "fusion_lon": 0.0, "lat": 38.8462185, "fusion_lat": 0.0}, {"is_disabled": 0, "rental_uris": {"android": "https://dc.lft.to/lastmile_qr_scan", "ios": "https://dc.lft.to/lastmile_qr_scan"}, "is_reserved": 0, "name": "bb3fa89422808d900dae8abae1fa13f1", "lon": -77.0317285, "type": "electric_scooter", "bike_id": "bb3fa89422808d900dae8abae1fa13f1", "fusion_lon": 0.0, "lat": 38.914166333333334, "fusion_lat": 0.0}, {"is_disabled": 0, "rental_uris": {"android": "https://dc.lft.to/lastmile_qr_scan", "ios": "https://dc.lft.to/lastmile_qr_scan"}, "is_reserved": 0, "name": "3990b908959c3deff0073e4a148a3c31", "lon": -77.039255, "type": "electric_scooter", "bike_id": "3990b908959c3deff0073e4a148a3c31", "fusion_lon": 0.0, "lat": 38.919086666666665, "fusion_lat": 0.0}, {"is_disabled": 0, "rental_uris": {"android": "https://dc.lft.to/lastmile_qr_scan", "ios": "https://dc.lft.to/lastmile_qr_scan"}, "is_reserved": 0, "name": "edd03af18521a43196e5eacc6335b11c", "lon": -77.0330475, "type": "electric_scooter", "bike_id": "edd03af18521a43196e5eacc6335b11c", "fusion_lon": 0.0, "lat": 38.9181255, "fusion_lat": 0.0}, {"is_disabled": 0, "rental_uris": {"android": "https://dc.lft.to/lastmile_qr_scan", "ios": "https://dc.lft.to/lastmile_qr_scan"}, "is_reserved": 0, "name": "af1adb3365521e9272fefa43c674124b", "lon": -77.03844083333334, "type": "electric_scooter", "bike_id": "af1adb3365521e9272fefa43c674124b", "fusion_lon": 0.0, "lat": 38.932018, "fusion_lat": 0.0}, {"is_disabled": 0, "rental_uris": {"android": "https://dc.lft.to/lastmile_qr_scan", "ios": "https://dc.lft.to/lastmile_qr_scan"}, "is_reserved": 0, "name": "b8d00cab8f91b5ddfcc4912d0fa2d657", "lon": -77.05212033333333, "type": "electric_scooter", "bike_id": "b8d00cab8f91b5ddfcc4912d0fa2d657", "fusion_lon": 0.0, "lat": 38.924786166666664, "fusion_lat": 0.0}, {"is_disabled": 0, "rental_uris": {"android": "https://dc.lft.to/lastmile_qr_scan", "ios": "https://dc.lft.to/lastmile_qr_scan"}, "is_reserved": 0, "name": "7be3081a7d454601085e5a11a98a6b47", "lon": -76.94630983333333, "type": "electric_scooter", "bike_id": "7be3081a7d454601085e5a11a98a6b47", "fusion_lon": 0.0, "lat": 38.89834966666667, "fusion_lat": 0.0}, {"is_disabled": 0, "rental_uris": {"android": "https://dc.lft.to/lastmile_qr_scan", "ios": "https://dc.lft.to/lastmile_qr_scan"}, "is_reserved": 0, "name": "6aa820bfb37a07f4101bbc413a16af55", "lon": -77.05939883333333, "type": "electric_scooter", "bike_id": "6aa820bfb37a07f4101bbc413a16af55", "fusion_lon": 0.0, "lat": 38.93675283333334, "fusion_lat": 0.0}, {"is_disabled": 0, "rental_uris": {"android": "https://dc.lft.to/lastmile_qr_scan", "ios": "https://dc.lft.to/lastmile_qr_scan"}, "is_reserved": 0, "name": "606cebe03a43b627d8fc379efaae7cb4", "lon": -77.0325665, "type": "electric_scooter", "bike_id": "606cebe03a43b627d8fc379efaae7cb4", "fusion_lon": 0.0, "lat": 38.93700166666667, "fusion_lat": 0.0}, {"is_disabled": 0, "rental_uris": {"android": "https://dc.lft.to/lastmile_qr_scan", "ios": "https://dc.lft.to/lastmile_qr_scan"}, "is_reserved": 0, "name": "7b3e3efed485ec332ec37cd5e3302f8c", "lon": -77.00500716666667, "type": "electric_bike", "bike_id": "7b3e3efed485ec332ec37cd5e3302f8c", "fusion_lon": 0.0, "lat": 38.90992883333333, "fusion_lat": 0.0}, {"is_disabled": 0, "rental_uris": {"android": "https://dc.lft.to/lastmile_qr_scan", "ios": "https://dc.lft.to/lastmile_qr_scan"}, "is_reserved": 0, "name": "4639baabd8c89732cfe7621a5d086b11", "lon": -77.03045983333334, "type": "electric_scooter", "bike_id": "4639baabd8c89732cfe7621a5d086b11", "fusion_lon": 0.0, "lat": 38.92383916666667, "fusion_lat": 0.0}, {"is_disabled": 0, "rental_uris": {"android": "https://dc.lft.to/lastmile_qr_scan", "ios": "https://dc.lft.to/lastmile_qr_scan"}, "is_reserved": 0, "name": "8a8db9d806f17d27d130ca4363807b1a", "lon": -76.99845916666666, "type": "electric_scooter", "bike_id": "8a8db9d806f17d27d130ca4363807b1a", "fusion_lon": 0.0, "lat": 38.9088675, "fusion_lat": 0.0}, {"is_disabled": 0, "rental_uris": {"android": "https://dc.lft.to/lastmile_qr_scan", "ios": "https://dc.lft.to/lastmile_qr_scan"}, "is_reserved": 0, "name": "6b06443230f3c7435c4a55d53c44ca3c", "lon": -77.04553483333333, "type": "electric_scooter", "bike_id": "6b06443230f3c7435c4a55d53c44ca3c", "fusion_lon": 0.0, "lat": 38.91319216666667, "fusion_lat": 0.0}, {"is_disabled": 0, "rental_uris": {"android": "https://dc.lft.to/lastmile_qr_scan", "ios": "https://dc.lft.to/lastmile_qr_scan"}, "is_reserved": 0, "name": "07f7cb11e90b58ab1a32d413dc0ebe1a", "lon": -77.00759, "type": "electric_scooter", "bike_id": "07f7cb11e90b58ab1a32d413dc0ebe1a", "fusion_lon": 0.0, "lat": 38.9037465, "fusion_lat": 0.0}, {"is_disabled": 0, "rental_uris": {"android": "https://dc.lft.to/lastmile_qr_scan", "ios": "https://dc.lft.to/lastmile_qr_scan"}, "is_reserved": 0, "name": "5a36d67030be691dd6418a85b643ca22", "lon": -77.04237666666667, "type": "electric_scooter", "bike_id": "5a36d67030be691dd6418a85b643ca22", "fusion_lon": 0.0, "lat": 38.90781, "fusion_lat": 0.0}, {"is_disabled": 0, "rental_uris": {"android": "https://dc.lft.to/lastmile_qr_scan", "ios": "https://dc.lft.to/lastmile_qr_scan"}, "is_reserved": 0, "name": "68285cfcb43679e3c4743d353d07f78c", "lon": -76.99858266666666, "type": "electric_scooter", "bike_id": "68285cfcb43679e3c4743d353d07f78c", "fusion_lon": 0.0, "lat": 38.90022033333333, "fusion_lat": 0.0}, {"is_disabled": 0, "rental_uris": {"android": "https://dc.lft.to/lastmile_qr_scan", "ios": "https://dc.lft.to/lastmile_qr_scan"}, "is_reserved": 0, "name": "041ee005a7badc37e4e6b4eb64f7907b", "lon": -76.99869933333333, "type": "electric_scooter", "bike_id": "041ee005a7badc37e4e6b4eb64f7907b", "fusion_lon": 0.0, "lat": 38.90031466666667, "fusion_lat": 0.0}, {"is_disabled": 0, "rental_uris": {"android": "https://dc.lft.to/lastmile_qr_scan", "ios": "https://dc.lft.to/lastmile_qr_scan"}, "is_reserved": 0, "name": "90235f1c845939da1efc74ec74480f98", "lon": -77.03853716666667, "type": "electric_scooter", "bike_id": "90235f1c845939da1efc74ec74480f98", "fusion_lon": 0.0, "lat": 38.9183915, "fusion_lat": 0.0}, {"is_disabled": 0, "rental_uris": {"android": "https://dc.lft.to/lastmile_qr_scan", "ios": "https://dc.lft.to/lastmile_qr_scan"}, "is_reserved": 0, "name": "1506c09633b892928236d7e560a428a5", "lon": -77.02581083333334, "type": "electric_scooter", "bike_id": "1506c09633b892928236d7e560a428a5", "fusion_lon": 0.0, "lat": 38.92035516666667, "fusion_lat": 0.0}, {"is_disabled": 0, "rental_uris": {"android": "https://dc.lft.to/lastmile_qr_scan", "ios": "https://dc.lft.to/lastmile_qr_scan"}, "is_reserved": 0, "name": "b72d188fd5e06a3c324adcc4608b4bcb", "lon": -76.948932, "type": "electric_scooter", "bike_id": "b72d188fd5e06a3c324adcc4608b4bcb", "fusion_lon": 0.0, "lat": 38.89533333333333, "fusion_lat": 0.0}, {"is_disabled": 0, "rental_uris": {"android": "https://dc.lft.to/lastmile_qr_scan", "ios": "https://dc.lft.to/lastmile_qr_scan"}, "is_reserved": 0, "name": "cde1f3d8e84f4c086c4ecf6552885bc3", "lon": -77.029242, "type": "electric_scooter", "bike_id": "cde1f3d8e84f4c086c4ecf6552885bc3", "fusion_lon": 0.0, "lat": 38.898695333333336, "fusion_lat": 0.0}, {"is_disabled": 0, "rental_uris": {"android": "https://dc.lft.to/lastmile_qr_scan", "ios": "https://dc.lft.to/lastmile_qr_scan"}, "is_reserved": 0, "name": "b4fdc0c662ff8030c1cec236896b150c", "lon": -77.06187816666667, "type": "electric_scooter", "bike_id": "b4fdc0c662ff8030c1cec236896b150c", "fusion_lon": 0.0, "lat": 38.930147166666664, "fusion_lat": 0.0}, {"is_disabled": 0, "rental_uris": {"android": "https://dc.lft.to/lastmile_qr_scan", "ios": "https://dc.lft.to/lastmile_qr_scan"}, "is_reserved": 0, "name": "19d71e18ab2b523e9bf71f37b9a8e595", "lon": -77.03829216666666, "type": "electric_scooter", "bike_id": "19d71e18ab2b523e9bf71f37b9a8e595", "fusion_lon": 0.0, "lat": 38.9111395, "fusion_lat": 0.0}, {"is_disabled": 0, "rental_uris": {"android": "https://dc.lft.to/lastmile_qr_scan", "ios": "https://dc.lft.to/lastmile_qr_scan"}, "is_reserved": 0, "name": "404922e369caf99bede27fcb697a86ab", "lon": -77.03190233333333, "type": "electric_scooter", "bike_id": "404922e369caf99bede27fcb697a86ab", "fusion_lon": 0.0, "lat": 38.91909016666666, "fusion_lat": 0.0}, {"is_disabled": 0, "rental_uris": {"android": "https://dc.lft.to/lastmile_qr_scan", "ios": "https://dc.lft.to/lastmile_qr_scan"}, "is_reserved": 0, "name": "630e68c8cc5d7a062a038f6362856218", "lon": -77.01224866666666, "type": "electric_scooter", "bike_id": "630e68c8cc5d7a062a038f6362856218", "fusion_lon": 0.0, "lat": 38.915028166666666, "fusion_lat": 0.0}, {"is_disabled": 0, "rental_uris": {"android": "https://dc.lft.to/lastmile_qr_scan", "ios": "https://dc.lft.to/lastmile_qr_scan"}, "is_reserved": 0, "name": "fdfe427906461a526b08a9bdc9ee1e4a", "lon": -76.98885133333333, "type": "electric_scooter", "bike_id": "fdfe427906461a526b08a9bdc9ee1e4a", "fusion_lon": 0.0, "lat": 38.86672466666667, "fusion_lat": 0.0}, {"is_disabled": 0, "rental_uris": {"android": "https://dc.lft.to/lastmile_qr_scan", "ios": "https://dc.lft.to/lastmile_qr_scan"}, "is_reserved": 0, "name": "d173d783de009ecd4e4ccdc356102559", "lon": -77.01166466666666, "type": "electric_scooter", "bike_id": "d173d783de009ecd4e4ccdc356102559", "fusion_lon": 0.0, "lat": 38.868076333333335, "fusion_lat": 0.0}, {"is_disabled": 0, "rental_uris": {"android": "https://dc.lft.to/lastmile_qr_scan", "ios": "https://dc.lft.to/lastmile_qr_scan"}, "is_reserved": 0, "name": "3d9dbe124bc071252751ef5cd0a703fc", "lon": -77.03461, "type": "electric_scooter", "bike_id": "3d9dbe124bc071252751ef5cd0a703fc", "fusion_lon": 0.0, "lat": 38.9166855, "fusion_lat": 0.0}, {"is_disabled": 0, "rental_uris": {"android": "https://dc.lft.to/lastmile_qr_scan", "ios": "https://dc.lft.to/lastmile_qr_scan"}, "is_reserved": 0, "name": "0f19131201b8a8c8d01fa53d04271c09", "lon": -77.34415466666667, "type": "electric_bike", "bike_id": "0f19131201b8a8c8d01fa53d04271c09", "fusion_lon": 0.0, "lat": 38.94599616666667, "fusion_lat": 0.0}, {"is_disabled": 0, "rental_uris": {"android": "https://dc.lft.to/lastmile_qr_scan", "ios": "https://dc.lft.to/lastmile_qr_scan"}, "is_reserved": 0, "name": "831f0bb31a7fd30a5fc25051aeccc30f", "lon": -77.14322633333333, "type": "electric_bike", "bike_id": "831f0bb31a7fd30a5fc25051aeccc30f", "fusion_lon": 0.0, "lat": 39.0545315, "fusion_lat": 0.0}, {"is_disabled": 0, "rental_uris": {"android": "https://dc.lft.to/lastmile_qr_scan", "ios": "https://dc.lft.to/lastmile_qr_scan"}, "is_reserved": 0, "name": "5698975411401492cff5a09e1ca49635", "lon": -77.016475, "type": "electric_scooter", "bike_id": "5698975411401492cff5a09e1ca49635", "fusion_lon": 0.0, "lat": 38.90372033333333, "fusion_lat": 0.0}, {"is_disabled": 0, "rental_uris": {"android": "https://dc.lft.to/lastmile_qr_scan", "ios": "https://dc.lft.to/lastmile_qr_scan"}, "is_reserved": 0, "name": "71783c73abf7f7b7251c078f260d9c7d", "lon": -77.0251425, "type": "electric_scooter", "bike_id": "71783c73abf7f7b7251c078f260d9c7d", "fusion_lon": 0.0, "lat": 38.92139983333333, "fusion_lat": 0.0}, {"is_disabled": 0, "rental_uris": {"android": "https://dc.lft.to/lastmile_qr_scan", "ios": "https://dc.lft.to/lastmile_qr_scan"}, "is_reserved": 0, "name": "3ff398f4e08783908ac154d943ca81aa", "lon": -76.97943416666666, "type": "electric_scooter", "bike_id": "3ff398f4e08783908ac154d943ca81aa", "fusion_lon": 0.0, "lat": 38.905054166666666, "fusion_lat": 0.0}, {"is_disabled": 0, "rental_uris": {"android": "https://dc.lft.to/lastmile_qr_scan", "ios": "https://dc.lft.to/lastmile_qr_scan"}, "is_reserved": 0, "name": "ee22110e0e628ca49439182b5163fcfe", "lon": -77.02001566666667, "type": "electric_scooter", "bike_id": "ee22110e0e628ca49439182b5163fcfe", "fusion_lon": 0.0, "lat": 38.924073, "fusion_lat": 0.0}, {"is_disabled": 0, "rental_uris": {"android": "https://dc.lft.to/lastmile_qr_scan", "ios": "https://dc.lft.to/lastmile_qr_scan"}, "is_reserved": 0, "name": "3472ee466059a500dfffaab9ca431136", "lon": -77.04006683333333, "type": "electric_scooter", "bike_id": "3472ee466059a500dfffaab9ca431136", "fusion_lon": 0.0, "lat": 38.921004333333336, "fusion_lat": 0.0}, {"is_disabled": 0, "rental_uris": {"android": "https://dc.lft.to/lastmile_qr_scan", "ios": "https://dc.lft.to/lastmile_qr_scan"}, "is_reserved": 0, "name": "d6374b09fab2b3840d2671db846b6b7c", "lon": -77.0452465, "type": "electric_scooter", "bike_id": "d6374b09fab2b3840d2671db846b6b7c", "fusion_lon": 0.0, "lat": 38.9036125, "fusion_lat": 0.0}, {"is_disabled": 0, "rental_uris": {"android": "https://dc.lft.to/lastmile_qr_scan", "ios": "https://dc.lft.to/lastmile_qr_scan"}, "is_reserved": 0, "name": "75b387419a179cb8f9f08dad659fd0c9", "lon": -77.0347095, "type": "electric_scooter", "bike_id": "75b387419a179cb8f9f08dad659fd0c9", "fusion_lon": 0.0, "lat": 38.907449166666666, "fusion_lat": 0.0}, {"is_disabled": 0, "rental_uris": {"android": "https://dc.lft.to/lastmile_qr_scan", "ios": "https://dc.lft.to/lastmile_qr_scan"}, "is_reserved": 0, "name": "e15c0196592ebd4b2aff4804836cc6a6", "lon": -77.04355666666666, "type": "electric_scooter", "bike_id": "e15c0196592ebd4b2aff4804836cc6a6", "fusion_lon": 0.0, "lat": 38.90834183333333, "fusion_lat": 0.0}, {"is_disabled": 0, "rental_uris": {"android": "https://dc.lft.to/lastmile_qr_scan", "ios": "https://dc.lft.to/lastmile_qr_scan"}, "is_reserved": 0, "name": "2dfa13a23a49beff72abda4f5d87f152", "lon": -76.96974366666667, "type": "electric_scooter", "bike_id": "2dfa13a23a49beff72abda4f5d87f152", "fusion_lon": 0.0, "lat": 38.87299333333333, "fusion_lat": 0.0}, {"is_disabled": 0, "rental_uris": {"android": "https://dc.lft.to/lastmile_qr_scan", "ios": "https://dc.lft.to/lastmile_qr_scan"}, "is_reserved": 0, "name": "39493173db60a6e4de6d66b6c322b014", "lon": -77.04651533333333, "type": "electric_scooter", "bike_id": "39493173db60a6e4de6d66b6c322b014", "fusion_lon": 0.0, "lat": 38.9117995, "fusion_lat": 0.0}, {"is_disabled": 0, "rental_uris": {"android": "https://dc.lft.to/lastmile_qr_scan", "ios": "https://dc.lft.to/lastmile_qr_scan"}, "is_reserved": 0, "name": "4c08d845ef2aa10f6e34751a14049bbf", "lon": -76.99160833333333, "type": "electric_scooter", "bike_id": "4c08d845ef2aa10f6e34751a14049bbf", "fusion_lon": 0.0, "lat": 38.88140716666667, "fusion_lat": 0.0}, {"is_disabled": 0, "rental_uris": {"android": "https://dc.lft.to/lastmile_qr_scan", "ios": "https://dc.lft.to/lastmile_qr_scan"}, "is_reserved": 0, "name": "2cfcef0032e5e9142858c37f2b3565e4", "lon": -77.04642966666667, "type": "electric_scooter", "bike_id": "2cfcef0032e5e9142858c37f2b3565e4", "fusion_lon": 0.0, "lat": 38.90552433333333, "fusion_lat": 0.0}, {"is_disabled": 0, "rental_uris": {"android": "https://dc.lft.to/lastmile_qr_scan", "ios": "https://dc.lft.to/lastmile_qr_scan"}, "is_reserved": 0, "name": "5be9fe3880eb953910a4eacda87962d8", "lon": -77.015424, "type": "electric_scooter", "bike_id": "5be9fe3880eb953910a4eacda87962d8", "fusion_lon": 0.0, "lat": 38.88772266666667, "fusion_lat": 0.0}, {"is_disabled": 0, "rental_uris": {"android": "https://dc.lft.to/lastmile_qr_scan", "ios": "https://dc.lft.to/lastmile_qr_scan"}, "is_reserved": 0, "name": "8a360f3fb5eeda0becda09901b0bb1e7", "lon": -77.03663133333333, "type": "electric_scooter", "bike_id": "8a360f3fb5eeda0becda09901b0bb1e7", "fusion_lon": 0.0, "lat": 38.92333416666666, "fusion_lat": 0.0}, {"is_disabled": 0, "rental_uris": {"android": "https://dc.lft.to/lastmile_qr_scan", "ios": "https://dc.lft.to/lastmile_qr_scan"}, "is_reserved": 0, "name": "03310feefc4c0fbd17516c3be558a628", "lon": -77.040059, "type": "electric_scooter", "bike_id": "03310feefc4c0fbd17516c3be558a628", "fusion_lon": 0.0, "lat": 38.917959833333335, "fusion_lat": 0.0}, {"is_disabled": 0, "rental_uris": {"android": "https://dc.lft.to/lastmile_qr_scan", "ios": "https://dc.lft.to/lastmile_qr_scan"}, "is_reserved": 0, "name": "87509ea95a91064ca7670c9f240e6a86", "lon": -77.02968966666667, "type": "electric_scooter", "bike_id": "87509ea95a91064ca7670c9f240e6a86", "fusion_lon": 0.0, "lat": 38.9045555, "fusion_lat": 0.0}, {"is_disabled": 0, "rental_uris": {"android": "https://dc.lft.to/lastmile_qr_scan", "ios": "https://dc.lft.to/lastmile_qr_scan"}, "is_reserved": 0, "name": "cc183c41df077a2a4ee4b86337d0f696", "lon": -77.02490216666666, "type": "electric_scooter", "bike_id": "cc183c41df077a2a4ee4b86337d0f696", "fusion_lon": 0.0, "lat": 38.91805216666667, "fusion_lat": 0.0}, {"is_disabled": 0, "rental_uris": {"android": "https://dc.lft.to/lastmile_qr_scan", "ios": "https://dc.lft.to/lastmile_qr_scan"}, "is_reserved": 0, "name": "4996b1b6c9b869ca4983fd04023ba070", "lon": -77.03861883333333, "type": "electric_scooter", "bike_id": "4996b1b6c9b869ca4983fd04023ba070", "fusion_lon": 0.0, "lat": 38.91719116666667, "fusion_lat": 0.0}, {"is_disabled": 0, "rental_uris": {"android": "https://dc.lft.to/lastmile_qr_scan", "ios": "https://dc.lft.to/lastmile_qr_scan"}, "is_reserved": 0, "name": "6d4e88d0dd6bb9d18fb0f545f938bafe", "lon": -77.04185683333333, "type": "electric_scooter", "bike_id": "6d4e88d0dd6bb9d18fb0f545f938bafe", "fusion_lon": 0.0, "lat": 38.91646583333333, "fusion_lat": 0.0}, {"is_disabled": 0, "rental_uris": {"android": "https://dc.lft.to/lastmile_qr_scan", "ios": "https://dc.lft.to/lastmile_qr_scan"}, "is_reserved": 0, "name": "3d0edb142721b983949c1a5a80a0566a", "lon": -77.03468683333334, "type": "electric_scooter", "bike_id": "3d0edb142721b983949c1a5a80a0566a", "fusion_lon": 0.0, "lat": 38.906373333333335, "fusion_lat": 0.0}, {"is_disabled": 0, "rental_uris": {"android": "https://dc.lft.to/lastmile_qr_scan", "ios": "https://dc.lft.to/lastmile_qr_scan"}, "is_reserved": 0, "name": "9f6660479f80b32f5f22c89bca86cef1", "lon": -77.02939483333333, "type": "electric_scooter", "bike_id": "9f6660479f80b32f5f22c89bca86cef1", "fusion_lon": 0.0, "lat": 38.917092333333336, "fusion_lat": 0.0}, {"is_disabled": 0, "rental_uris": {"android": "https://dc.lft.to/lastmile_qr_scan", "ios": "https://dc.lft.to/lastmile_qr_scan"}, "is_reserved": 0, "name": "3be2063f3fd0705c00387c79409d4fcd", "lon": -77.04317683333333, "type": "electric_bike", "bike_id": "3be2063f3fd0705c00387c79409d4fcd", "fusion_lon": 0.0, "lat": 38.831235666666664, "fusion_lat": 0.0}, {"is_disabled": 0, "rental_uris": {"android": "https://dc.lft.to/lastmile_qr_scan", "ios": "https://dc.lft.to/lastmile_qr_scan"}, "is_reserved": 0, "name": "5dc9c7a169821212da2027130d31fb72", "lon": -77.032121, "type": "electric_scooter", "bike_id": "5dc9c7a169821212da2027130d31fb72", "fusion_lon": 0.0, "lat": 38.906626, "fusion_lat": 0.0}, {"is_disabled": 0, "rental_uris": {"android": "https://dc.lft.to/lastmile_qr_scan", "ios": "https://dc.lft.to/lastmile_qr_scan"}, "is_reserved": 0, "name": "a42504c1227ddf1440cddea493877ed2", "lon": -77.0297325, "type": "electric_scooter", "bike_id": "a42504c1227ddf1440cddea493877ed2", "fusion_lon": 0.0, "lat": 38.8982545, "fusion_lat": 0.0}, {"is_disabled": 0, "rental_uris": {"android": "https://dc.lft.to/lastmile_qr_scan", "ios": "https://dc.lft.to/lastmile_qr_scan"}, "is_reserved": 0, "name": "f1e891409ae3cce42ad053bb1cc3e2db", "lon": -77.03993933333334, "type": "electric_scooter", "bike_id": "f1e891409ae3cce42ad053bb1cc3e2db", "fusion_lon": 0.0, "lat": 38.91806666666667, "fusion_lat": 0.0}, {"is_disabled": 0, "rental_uris": {"android": "https://dc.lft.to/lastmile_qr_scan", "ios": "https://dc.lft.to/lastmile_qr_scan"}, "is_reserved": 0, "name": "a49aea25ff97b619536f3d47889916f6", "lon": -76.9884795, "type": "electric_scooter", "bike_id": "a49aea25ff97b619536f3d47889916f6", "fusion_lon": 0.0, "lat": 38.885865833333334, "fusion_lat": 0.0}, {"is_disabled": 0, "rental_uris": {"android": "https://dc.lft.to/lastmile_qr_scan", "ios": "https://dc.lft.to/lastmile_qr_scan"}, "is_reserved": 0, "name": "a03a9beb4193a3d1f4b683c7c303e473", "lon": -77.0268695, "type": "electric_scooter", "bike_id": "a03a9beb4193a3d1f4b683c7c303e473", "fusion_lon": 0.0, "lat": 38.9023595, "fusion_lat": 0.0}, {"is_disabled": 0, "rental_uris": {"android": "https://dc.lft.to/lastmile_qr_scan", "ios": "https://dc.lft.to/lastmile_qr_scan"}, "is_reserved": 0, "name": "229452c458f5ef72696b17f585cd0d70", "lon": -77.01258033333333, "type": "electric_scooter", "bike_id": "229452c458f5ef72696b17f585cd0d70", "fusion_lon": 0.0, "lat": 38.9000475, "fusion_lat": 0.0}, {"is_disabled": 0, "rental_uris": {"android": "https://dc.lft.to/lastmile_qr_scan", "ios": "https://dc.lft.to/lastmile_qr_scan"}, "is_reserved": 0, "name": "87498b50a7b94435b85b3da322da8229", "lon": -76.96524433333333, "type": "electric_scooter", "bike_id": "87498b50a7b94435b85b3da322da8229", "fusion_lon": 0.0, "lat": 38.850824833333334, "fusion_lat": 0.0}, {"is_disabled": 0, "rental_uris": {"android": "https://dc.lft.to/lastmile_qr_scan", "ios": "https://dc.lft.to/lastmile_qr_scan"}, "is_reserved": 0, "name": "c3ac83472f73a7b91ca1ae7f14277051", "lon": -77.038141, "type": "electric_scooter", "bike_id": "c3ac83472f73a7b91ca1ae7f14277051", "fusion_lon": 0.0, "lat": 38.909753, "fusion_lat": 0.0}, {"is_disabled": 0, "rental_uris": {"android": "https://dc.lft.to/lastmile_qr_scan", "ios": "https://dc.lft.to/lastmile_qr_scan"}, "is_reserved": 0, "name": "c49b67634893900fa371b050df4f8421", "lon": -77.02692633333334, "type": "electric_scooter", "bike_id": "c49b67634893900fa371b050df4f8421", "fusion_lon": 0.0, "lat": 38.9113645, "fusion_lat": 0.0}, {"is_disabled": 0, "rental_uris": {"android": "https://dc.lft.to/lastmile_qr_scan", "ios": "https://dc.lft.to/lastmile_qr_scan"}, "is_reserved": 0, "name": "7fe84f79249da2e4a8c99cde54e175f5", "lon": -77.0075975, "type": "electric_scooter", "bike_id": "7fe84f79249da2e4a8c99cde54e175f5", "fusion_lon": 0.0, "lat": 38.910337, "fusion_lat": 0.0}, {"is_disabled": 0, "rental_uris": {"android": "https://dc.lft.to/lastmile_qr_scan", "ios": "https://dc.lft.to/lastmile_qr_scan"}, "is_reserved": 0, "name": "8aaf93e164564e1a600ec483a9c0cad3", "lon": -76.98330983333334, "type": "electric_scooter", "bike_id": "8aaf93e164564e1a600ec483a9c0cad3", "fusion_lon": 0.0, "lat": 38.895485, "fusion_lat": 0.0}, {"is_disabled": 0, "rental_uris": {"android": "https://dc.lft.to/lastmile_qr_scan", "ios": "https://dc.lft.to/lastmile_qr_scan"}, "is_reserved": 0, "name": "7e603e09c54d77ac70bce9fc1c9259eb", "lon": -77.01772816666667, "type": "electric_scooter", "bike_id": "7e603e09c54d77ac70bce9fc1c9259eb", "fusion_lon": 0.0, "lat": 38.87728766666667, "fusion_lat": 0.0}, {"is_disabled": 0, "rental_uris": {"android": "https://dc.lft.to/lastmile_qr_scan", "ios": "https://dc.lft.to/lastmile_qr_scan"}, "is_reserved": 0, "name": "8e568112950fe82b4531efbc9ecd7f30", "lon": -77.00860966666667, "type": "electric_bike", "bike_id": "8e568112950fe82b4531efbc9ecd7f30", "fusion_lon": 0.0, "lat": 38.827261, "fusion_lat": 0.0}, {"is_disabled": 0, "rental_uris": {"android": "https://dc.lft.to/lastmile_qr_scan", "ios": "https://dc.lft.to/lastmile_qr_scan"}, "is_reserved": 0, "name": "731cbf260eb8ae20f40d4c0aabb138c7", "lon": -77.0414665, "type": "electric_scooter", "bike_id": "731cbf260eb8ae20f40d4c0aabb138c7", "fusion_lon": 0.0, "lat": 38.90146583333333, "fusion_lat": 0.0}, {"is_disabled": 0, "rental_uris": {"android": "https://dc.lft.to/lastmile_qr_scan", "ios": "https://dc.lft.to/lastmile_qr_scan"}, "is_reserved": 0, "name": "36e9871a7dc52a30d41f90603cef91a0", "lon": -77.05328616666667, "type": "electric_scooter", "bike_id": "36e9871a7dc52a30d41f90603cef91a0", "fusion_lon": 0.0, "lat": 38.9231805, "fusion_lat": 0.0}, {"is_disabled": 0, "rental_uris": {"android": "https://dc.lft.to/lastmile_qr_scan", "ios": "https://dc.lft.to/lastmile_qr_scan"}, "is_reserved": 0, "name": "a21c0761e2b847a0720be4e100821e7f", "lon": -77.0293085, "type": "electric_scooter", "bike_id": "a21c0761e2b847a0720be4e100821e7f", "fusion_lon": 0.0, "lat": 38.882189333333336, "fusion_lat": 0.0}, {"is_disabled": 0, "rental_uris": {"android": "https://dc.lft.to/lastmile_qr_scan", "ios": "https://dc.lft.to/lastmile_qr_scan"}, "is_reserved": 0, "name": "c0247b5ceffefd26be0e078958bba800", "lon": -77.0052535, "type": "electric_scooter", "bike_id": "c0247b5ceffefd26be0e078958bba800", "fusion_lon": 0.0, "lat": 38.874715333333334, "fusion_lat": 0.0}, {"is_disabled": 0, "rental_uris": {"android": "https://dc.lft.to/lastmile_qr_scan", "ios": "https://dc.lft.to/lastmile_qr_scan"}, "is_reserved": 0, "name": "40db09e363dc568b1811bb9eb110b2de", "lon": -77.038643, "type": "electric_scooter", "bike_id": "40db09e363dc568b1811bb9eb110b2de", "fusion_lon": 0.0, "lat": 38.9097835, "fusion_lat": 0.0}, {"is_disabled": 0, "rental_uris": {"android": "https://dc.lft.to/lastmile_qr_scan", "ios": "https://dc.lft.to/lastmile_qr_scan"}, "is_reserved": 0, "name": "8717ab74f228c17d18a3db858ee7453c", "lon": -76.98111466666667, "type": "electric_scooter", "bike_id": "8717ab74f228c17d18a3db858ee7453c", "fusion_lon": 0.0, "lat": 38.8960965, "fusion_lat": 0.0}, {"is_disabled": 0, "rental_uris": {"android": "https://dc.lft.to/lastmile_qr_scan", "ios": "https://dc.lft.to/lastmile_qr_scan"}, "is_reserved": 0, "name": "8fbc30424a2e8f538db190825f194d8b", "lon": -77.00336883333334, "type": "electric_scooter", "bike_id": "8fbc30424a2e8f538db190825f194d8b", "fusion_lon": 0.0, "lat": 38.889872, "fusion_lat": 0.0}, {"is_disabled": 0, "rental_uris": {"android": "https://dc.lft.to/lastmile_qr_scan", "ios": "https://dc.lft.to/lastmile_qr_scan"}, "is_reserved": 0, "name": "4f622c734095a2c57a3d90189e38a765", "lon": -77.013935, "type": "electric_scooter", "bike_id": "4f622c734095a2c57a3d90189e38a765", "fusion_lon": 0.0, "lat": 38.880309, "fusion_lat": 0.0}, {"is_disabled": 0, "rental_uris": {"android": "https://dc.lft.to/lastmile_qr_scan", "ios": "https://dc.lft.to/lastmile_qr_scan"}, "is_reserved": 0, "name": "4369231ce3e2d1b6c92401d74148b1ce", "lon": -77.0318525, "type": "electric_scooter", "bike_id": "4369231ce3e2d1b6c92401d74148b1ce", "fusion_lon": 0.0, "lat": 38.91001966666666, "fusion_lat": 0.0}, {"is_disabled": 0, "rental_uris": {"android": "https://dc.lft.to/lastmile_qr_scan", "ios": "https://dc.lft.to/lastmile_qr_scan"}, "is_reserved": 0, "name": "c8b7fc726a1a78f2199495645b0b9329", "lon": -77.0217665, "type": "electric_scooter", "bike_id": "c8b7fc726a1a78f2199495645b0b9329", "fusion_lon": 0.0, "lat": 38.901393166666665, "fusion_lat": 0.0}, {"is_disabled": 0, "rental_uris": {"android": "https://dc.lft.to/lastmile_qr_scan", "ios": "https://dc.lft.to/lastmile_qr_scan"}, "is_reserved": 0, "name": "f9821f7a16985bbf35e3f6296c641b3a", "lon": -77.041377, "type": "electric_scooter", "bike_id": "f9821f7a16985bbf35e3f6296c641b3a", "fusion_lon": 0.0, "lat": 38.906526666666664, "fusion_lat": 0.0}, {"is_disabled": 0, "rental_uris": {"android": "https://dc.lft.to/lastmile_qr_scan", "ios": "https://dc.lft.to/lastmile_qr_scan"}, "is_reserved": 0, "name": "38c236b20da4785c5fb3a4116e38705f", "lon": -77.070769, "type": "electric_scooter", "bike_id": "38c236b20da4785c5fb3a4116e38705f", "fusion_lon": 0.0, "lat": 38.93904633333333, "fusion_lat": 0.0}, {"is_disabled": 0, "rental_uris": {"android": "https://dc.lft.to/lastmile_qr_scan", "ios": "https://dc.lft.to/lastmile_qr_scan"}, "is_reserved": 0, "name": "84f1572c14ad14c456ea36a614410898", "lon": -76.996029, "type": "electric_scooter", "bike_id": "84f1572c14ad14c456ea36a614410898", "fusion_lon": 0.0, "lat": 38.8646545, "fusion_lat": 0.0}, {"is_disabled": 0, "rental_uris": {"android": "https://dc.lft.to/lastmile_qr_scan", "ios": "https://dc.lft.to/lastmile_qr_scan"}, "is_reserved": 0, "name": "823d76186c8357daa1e0de35503bad25", "lon": -77.020754, "type": "electric_scooter", "bike_id": "823d76186c8357daa1e0de35503bad25", "fusion_lon": 0.0, "lat": 38.884806833333336, "fusion_lat": 0.0}, {"is_disabled": 0, "rental_uris": {"android": "https://dc.lft.to/lastmile_qr_scan", "ios": "https://dc.lft.to/lastmile_qr_scan"}, "is_reserved": 0, "name": "2a91a3a421d444634f787525c1e02421", "lon": -77.04271883333334, "type": "electric_scooter", "bike_id": "2a91a3a421d444634f787525c1e02421", "fusion_lon": 0.0, "lat": 38.910382166666665, "fusion_lat": 0.0}, {"is_disabled": 0, "rental_uris": {"android": "https://dc.lft.to/lastmile_qr_scan", "ios": "https://dc.lft.to/lastmile_qr_scan"}, "is_reserved": 0, "name": "c34e1a542c3b0c75d8bb46cd54a501af", "lon": -77.03625483333333, "type": "electric_scooter", "bike_id": "c34e1a542c3b0c75d8bb46cd54a501af", "fusion_lon": 0.0, "lat": 38.93685216666667, "fusion_lat": 0.0}, {"is_disabled": 0, "rental_uris": {"android": "https://dc.lft.to/lastmile_qr_scan", "ios": "https://dc.lft.to/lastmile_qr_scan"}, "is_reserved": 0, "name": "2b20170f1773767d0ede879c45f0ad86", "lon": -77.03844633333334, "type": "electric_scooter", "bike_id": "2b20170f1773767d0ede879c45f0ad86", "fusion_lon": 0.0, "lat": 38.90887333333333, "fusion_lat": 0.0}, {"is_disabled": 0, "rental_uris": {"android": "https://dc.lft.to/lastmile_qr_scan", "ios": "https://dc.lft.to/lastmile_qr_scan"}, "is_reserved": 0, "name": "aed9b2f439ff199601146e756063ba87", "lon": -77.031833, "type": "electric_scooter", "bike_id": "aed9b2f439ff199601146e756063ba87", "fusion_lon": 0.0, "lat": 38.892299, "fusion_lat": 0.0}, {"is_disabled": 0, "rental_uris": {"android": "https://dc.lft.to/lastmile_qr_scan", "ios": "https://dc.lft.to/lastmile_qr_scan"}, "is_reserved": 0, "name": "e93dd908e5981e508676d3c6f7f5f856", "lon": -77.05027566666666, "type": "electric_scooter", "bike_id": "e93dd908e5981e508676d3c6f7f5f856", "fusion_lon": 0.0, "lat": 38.9042035, "fusion_lat": 0.0}, {"is_disabled": 0, "rental_uris": {"android": "https://dc.lft.to/lastmile_qr_scan", "ios": "https://dc.lft.to/lastmile_qr_scan"}, "is_reserved": 0, "name": "3a219a3f8c4e81ac388af71e321b5b80", "lon": -76.93747566666667, "type": "electric_scooter", "bike_id": "3a219a3f8c4e81ac388af71e321b5b80", "fusion_lon": 0.0, "lat": 38.89037833333333, "fusion_lat": 0.0}, {"is_disabled": 0, "rental_uris": {"android": "https://dc.lft.to/lastmile_qr_scan", "ios": "https://dc.lft.to/lastmile_qr_scan"}, "is_reserved": 0, "name": "798b7d8e2604fca94af27b210321ecaf", "lon": -77.03821516666666, "type": "electric_scooter", "bike_id": "798b7d8e2604fca94af27b210321ecaf", "fusion_lon": 0.0, "lat": 38.909627666666665, "fusion_lat": 0.0}, {"is_disabled": 0, "rental_uris": {"android": "https://dc.lft.to/lastmile_qr_scan", "ios": "https://dc.lft.to/lastmile_qr_scan"}, "is_reserved": 0, "name": "84dbea44fb2644bbe66d5825586a5945", "lon": -77.01773266666666, "type": "electric_scooter", "bike_id": "84dbea44fb2644bbe66d5825586a5945", "fusion_lon": 0.0, "lat": 38.9209995, "fusion_lat": 0.0}, {"is_disabled": 0, "rental_uris": {"android": "https://dc.lft.to/lastmile_qr_scan", "ios": "https://dc.lft.to/lastmile_qr_scan"}, "is_reserved": 0, "name": "21849ff4849398cc53e0cdba72912333", "lon": -76.87494283333334, "type": "electric_bike", "bike_id": "21849ff4849398cc53e0cdba72912333", "fusion_lon": 0.0, "lat": 38.990914333333336, "fusion_lat": 0.0}, {"is_disabled": 0, "rental_uris": {"android": "https://dc.lft.to/lastmile_qr_scan", "ios": "https://dc.lft.to/lastmile_qr_scan"}, "is_reserved": 0, "name": "5574e44aedfea8e6b7fec493ffb6ba3c", "lon": -77.0121775, "type": "electric_scooter", "bike_id": "5574e44aedfea8e6b7fec493ffb6ba3c", "fusion_lon": 0.0, "lat": 38.910212333333334, "fusion_lat": 0.0}, {"is_disabled": 0, "rental_uris": {"android": "https://dc.lft.to/lastmile_qr_scan", "ios": "https://dc.lft.to/lastmile_qr_scan"}, "is_reserved": 0, "name": "efac71fee0f3d9e9a9b308106cb507db", "lon": -77.1121525, "type": "electric_bike", "bike_id": "efac71fee0f3d9e9a9b308106cb507db", "fusion_lon": 0.0, "lat": 38.828748, "fusion_lat": 0.0}, {"is_disabled": 0, "rental_uris": {"android": "https://dc.lft.to/lastmile_qr_scan", "ios": "https://dc.lft.to/lastmile_qr_scan"}, "is_reserved": 0, "name": "32dc69ce506ea34d47f44c7b7fabd146", "lon": -77.03980583333333, "type": "electric_scooter", "bike_id": "32dc69ce506ea34d47f44c7b7fabd146", "fusion_lon": 0.0, "lat": 38.902232, "fusion_lat": 0.0}, {"is_disabled": 0, "rental_uris": {"android": "https://dc.lft.to/lastmile_qr_scan", "ios": "https://dc.lft.to/lastmile_qr_scan"}, "is_reserved": 0, "name": "22f50fc6bc9aa4968322f398d807cfad", "lon": -77.03442066666666, "type": "electric_scooter", "bike_id": "22f50fc6bc9aa4968322f398d807cfad", "fusion_lon": 0.0, "lat": 38.918107, "fusion_lat": 0.0}, {"is_disabled": 0, "rental_uris": {"android": "https://dc.lft.to/lastmile_qr_scan", "ios": "https://dc.lft.to/lastmile_qr_scan"}, "is_reserved": 0, "name": "2491ea53c15790d4cc1efc9a3fbd4717", "lon": -77.0283915, "type": "electric_scooter", "bike_id": "2491ea53c15790d4cc1efc9a3fbd4717", "fusion_lon": 0.0, "lat": 38.9170255, "fusion_lat": 0.0}, {"is_disabled": 0, "rental_uris": {"android": "https://dc.lft.to/lastmile_qr_scan", "ios": "https://dc.lft.to/lastmile_qr_scan"}, "is_reserved": 0, "name": "daadff126c63a0f01694ab786cfefddd", "lon": -77.052514, "type": "electric_scooter", "bike_id": "daadff126c63a0f01694ab786cfefddd", "fusion_lon": 0.0, "lat": 38.927342333333335, "fusion_lat": 0.0}, {"is_disabled": 0, "rental_uris": {"android": "https://dc.lft.to/lastmile_qr_scan", "ios": "https://dc.lft.to/lastmile_qr_scan"}, "is_reserved": 0, "name": "0fec99d19577720c52c0af0b58cbd02d", "lon": -77.05290466666666, "type": "electric_scooter", "bike_id": "0fec99d19577720c52c0af0b58cbd02d", "fusion_lon": 0.0, "lat": 38.903457333333336, "fusion_lat": 0.0}, {"is_disabled": 0, "rental_uris": {"android": "https://dc.lft.to/lastmile_qr_scan", "ios": "https://dc.lft.to/lastmile_qr_scan"}, "is_reserved": 0, "name": "0aa1b99cb720b118a8e746415a746f95", "lon": -77.01655466666666, "type": "electric_bike", "bike_id": "0aa1b99cb720b118a8e746415a746f95", "fusion_lon": 0.0, "lat": 38.954355666666665, "fusion_lat": 0.0}, {"is_disabled": 0, "rental_uris": {"android": "https://dc.lft.to/lastmile_qr_scan", "ios": "https://dc.lft.to/lastmile_qr_scan"}, "is_reserved": 0, "name": "53c72d131a56d4cbfe1a4ebcc02ab6ff", "lon": -77.03263216666667, "type": "electric_scooter", "bike_id": "53c72d131a56d4cbfe1a4ebcc02ab6ff", "fusion_lon": 0.0, "lat": 38.933281666666666, "fusion_lat": 0.0}, {"is_disabled": 0, "rental_uris": {"android": "https://dc.lft.to/lastmile_qr_scan", "ios": "https://dc.lft.to/lastmile_qr_scan"}, "is_reserved": 0, "name": "5c84f526666bf83a746cb26e0bcc7722", "lon": -76.98717116666667, "type": "electric_scooter", "bike_id": "5c84f526666bf83a746cb26e0bcc7722", "fusion_lon": 0.0, "lat": 38.86701433333333, "fusion_lat": 0.0}, {"is_disabled": 0, "rental_uris": {"android": "https://dc.lft.to/lastmile_qr_scan", "ios": "https://dc.lft.to/lastmile_qr_scan"}, "is_reserved": 0, "name": "397400fdf3734b4ad8942eea22b07e7f", "lon": -77.00617566666666, "type": "electric_scooter", "bike_id": "397400fdf3734b4ad8942eea22b07e7f", "fusion_lon": 0.0, "lat": 38.90586416666667, "fusion_lat": 0.0}, {"is_disabled": 0, "rental_uris": {"android": "https://dc.lft.to/lastmile_qr_scan", "ios": "https://dc.lft.to/lastmile_qr_scan"}, "is_reserved": 0, "name": "11845e7d8118949d70d989021523fa0c", "lon": -76.94995216666666, "type": "electric_scooter", "bike_id": "11845e7d8118949d70d989021523fa0c", "fusion_lon": 0.0, "lat": 38.893937333333334, "fusion_lat": 0.0}, {"is_disabled": 0, "rental_uris": {"android": "https://dc.lft.to/lastmile_qr_scan", "ios": "https://dc.lft.to/lastmile_qr_scan"}, "is_reserved": 0, "name": "1a9bfd3d7dee852d89fb0609662636c1", "lon": -77.02690266666667, "type": "electric_scooter", "bike_id": "1a9bfd3d7dee852d89fb0609662636c1", "fusion_lon": 0.0, "lat": 38.907383333333335, "fusion_lat": 0.0}, {"is_disabled": 0, "rental_uris": {"android": "https://dc.lft.to/lastmile_qr_scan", "ios": "https://dc.lft.to/lastmile_qr_scan"}, "is_reserved": 0, "name": "28aa9d64a50b571103321860a2b60432", "lon": -77.009199, "type": "electric_scooter", "bike_id": "28aa9d64a50b571103321860a2b60432", "fusion_lon": 0.0, "lat": 38.8978815, "fusion_lat": 0.0}, {"is_disabled": 0, "rental_uris": {"android": "https://dc.lft.to/lastmile_qr_scan", "ios": "https://dc.lft.to/lastmile_qr_scan"}, "is_reserved": 0, "name": "69cfcb102eceb73ac2082a7f6b70f744", "lon": -77.04203816666667, "type": "electric_scooter", "bike_id": "69cfcb102eceb73ac2082a7f6b70f744", "fusion_lon": 0.0, "lat": 38.929645, "fusion_lat": 0.0}, {"is_disabled": 0, "rental_uris": {"android": "https://dc.lft.to/lastmile_qr_scan", "ios": "https://dc.lft.to/lastmile_qr_scan"}, "is_reserved": 0, "name": "9fb3d2f574dde511b02cc4474e4fa71b", "lon": -77.0226205, "type": "electric_scooter", "bike_id": "9fb3d2f574dde511b02cc4474e4fa71b", "fusion_lon": 0.0, "lat": 38.92743166666666, "fusion_lat": 0.0}, {"is_disabled": 0, "rental_uris": {"android": "https://dc.lft.to/lastmile_qr_scan", "ios": "https://dc.lft.to/lastmile_qr_scan"}, "is_reserved": 0, "name": "eb142328df6c5aad08aebf7ca6d194ec", "lon": -77.0414575, "type": "electric_scooter", "bike_id": "eb142328df6c5aad08aebf7ca6d194ec", "fusion_lon": 0.0, "lat": 38.910301, "fusion_lat": 0.0}, {"is_disabled": 0, "rental_uris": {"android": "https://dc.lft.to/lastmile_qr_scan", "ios": "https://dc.lft.to/lastmile_qr_scan"}, "is_reserved": 0, "name": "b953bf757f8802a249db0a0527e4ca70", "lon": -76.98872666666666, "type": "electric_scooter", "bike_id": "b953bf757f8802a249db0a0527e4ca70", "fusion_lon": 0.0, "lat": 38.89216666666667, "fusion_lat": 0.0}, {"is_disabled": 0, "rental_uris": {"android": "https://dc.lft.to/lastmile_qr_scan", "ios": "https://dc.lft.to/lastmile_qr_scan"}, "is_reserved": 0, "name": "8e23d982d4f1ba9628190bfb17ed1a6c", "lon": -77.02666583333334, "type": "electric_scooter", "bike_id": "8e23d982d4f1ba9628190bfb17ed1a6c", "fusion_lon": 0.0, "lat": 38.896002333333335, "fusion_lat": 0.0}, {"is_disabled": 0, "rental_uris": {"android": "https://dc.lft.to/lastmile_qr_scan", "ios": "https://dc.lft.to/lastmile_qr_scan"}, "is_reserved": 0, "name": "ca8d1057bb0b63a0b12a59465fbce785", "lon": -77.03657466666667, "type": "electric_scooter", "bike_id": "ca8d1057bb0b63a0b12a59465fbce785", "fusion_lon": 0.0, "lat": 38.917319, "fusion_lat": 0.0}, {"is_disabled": 0, "rental_uris": {"android": "https://dc.lft.to/lastmile_qr_scan", "ios": "https://dc.lft.to/lastmile_qr_scan"}, "is_reserved": 0, "name": "3b1bb2d10f387fa44c3c0b185c16c5fb", "lon": -77.032065, "type": "electric_scooter", "bike_id": "3b1bb2d10f387fa44c3c0b185c16c5fb", "fusion_lon": 0.0, "lat": 38.925823333333334, "fusion_lat": 0.0}, {"is_disabled": 0, "rental_uris": {"android": "https://dc.lft.to/lastmile_qr_scan", "ios": "https://dc.lft.to/lastmile_qr_scan"}, "is_reserved": 0, "name": "c07708c839bf6e1a221c8efb0eb21352", "lon": -77.0295495, "type": "electric_scooter", "bike_id": "c07708c839bf6e1a221c8efb0eb21352", "fusion_lon": 0.0, "lat": 38.917755, "fusion_lat": 0.0}, {"is_disabled": 0, "rental_uris": {"android": "https://dc.lft.to/lastmile_qr_scan", "ios": "https://dc.lft.to/lastmile_qr_scan"}, "is_reserved": 0, "name": "5ecabc9cbd602f5ce961650539a99f5d", "lon": -77.0402695, "type": "electric_scooter", "bike_id": "5ecabc9cbd602f5ce961650539a99f5d", "fusion_lon": 0.0, "lat": 38.91702433333333, "fusion_lat": 0.0}, {"is_disabled": 0, "rental_uris": {"android": "https://dc.lft.to/lastmile_qr_scan", "ios": "https://dc.lft.to/lastmile_qr_scan"}, "is_reserved": 0, "name": "256b3d87201eda8705c4748055b87944", "lon": -77.0215315, "type": "electric_scooter", "bike_id": "256b3d87201eda8705c4748055b87944", "fusion_lon": 0.0, "lat": 38.92604083333333, "fusion_lat": 0.0}, {"is_disabled": 0, "rental_uris": {"android": "https://dc.lft.to/lastmile_qr_scan", "ios": "https://dc.lft.to/lastmile_qr_scan"}, "is_reserved": 0, "name": "00bf0aba3ffa7b90d9e0da0ee21a5fb3", "lon": -76.9957575, "type": "electric_bike", "bike_id": "00bf0aba3ffa7b90d9e0da0ee21a5fb3", "fusion_lon": 0.0, "lat": 39.007944, "fusion_lat": 0.0}, {"is_disabled": 0, "rental_uris": {"android": "https://dc.lft.to/lastmile_qr_scan", "ios": "https://dc.lft.to/lastmile_qr_scan"}, "is_reserved": 0, "name": "80b575c21ab3969a149c3f27a8303cbf", "lon": -77.02220333333334, "type": "electric_scooter", "bike_id": "80b575c21ab3969a149c3f27a8303cbf", "fusion_lon": 0.0, "lat": 38.90590016666667, "fusion_lat": 0.0}, {"is_disabled": 0, "rental_uris": {"android": "https://dc.lft.to/lastmile_qr_scan", "ios": "https://dc.lft.to/lastmile_qr_scan"}, "is_reserved": 0, "name": "f1c1a4ca2e9254b3204c2c6240c6468a", "lon": -77.02260666666666, "type": "electric_scooter", "bike_id": "f1c1a4ca2e9254b3204c2c6240c6468a", "fusion_lon": 0.0, "lat": 38.927417166666665, "fusion_lat": 0.0}, {"is_disabled": 0, "rental_uris": {"android": "https://dc.lft.to/lastmile_qr_scan", "ios": "https://dc.lft.to/lastmile_qr_scan"}, "is_reserved": 0, "name": "0fb0da15d78b8b64c090e91104737174", "lon": -76.98710716666666, "type": "electric_scooter", "bike_id": "0fb0da15d78b8b64c090e91104737174", "fusion_lon": 0.0, "lat": 38.866992, "fusion_lat": 0.0}, {"is_disabled": 0, "rental_uris": {"android": "https://dc.lft.to/lastmile_qr_scan", "ios": "https://dc.lft.to/lastmile_qr_scan"}, "is_reserved": 0, "name": "33f102ef407d92b094a11fd4cb39ba62", "lon": -77.073673, "type": "electric_bike", "bike_id": "33f102ef407d92b094a11fd4cb39ba62", "fusion_lon": 0.0, "lat": 38.961881, "fusion_lat": 0.0}, {"is_disabled": 0, "rental_uris": {"android": "https://dc.lft.to/lastmile_qr_scan", "ios": "https://dc.lft.to/lastmile_qr_scan"}, "is_reserved": 0, "name": "5b666cd010d74df8861e87c32674d9bb", "lon": -77.00388433333333, "type": "electric_scooter", "bike_id": "5b666cd010d74df8861e87c32674d9bb", "fusion_lon": 0.0, "lat": 38.9106955, "fusion_lat": 0.0}, {"is_disabled": 0, "rental_uris": {"android": "https://dc.lft.to/lastmile_qr_scan", "ios": "https://dc.lft.to/lastmile_qr_scan"}, "is_reserved": 0, "name": "b441139c3d966ab971507f4232847feb", "lon": -77.02330766666667, "type": "electric_scooter", "bike_id": "b441139c3d966ab971507f4232847feb", "fusion_lon": 0.0, "lat": 38.894914166666666, "fusion_lat": 0.0}, {"is_disabled": 0, "rental_uris": {"android": "https://dc.lft.to/lastmile_qr_scan", "ios": "https://dc.lft.to/lastmile_qr_scan"}, "is_reserved": 0, "name": "cf5a5f104a8b20e8d8a90321f3fea0a4", "lon": -77.02202816666667, "type": "electric_scooter", "bike_id": "cf5a5f104a8b20e8d8a90321f3fea0a4", "fusion_lon": 0.0, "lat": 38.895058166666665, "fusion_lat": 0.0}, {"is_disabled": 0, "rental_uris": {"android": "https://dc.lft.to/lastmile_qr_scan", "ios": "https://dc.lft.to/lastmile_qr_scan"}, "is_reserved": 0, "name": "e216725e38b113bc83f0667ab68b0152", "lon": -76.94282616666666, "type": "electric_scooter", "bike_id": "e216725e38b113bc83f0667ab68b0152", "fusion_lon": 0.0, "lat": 38.883098333333336, "fusion_lat": 0.0}, {"is_disabled": 0, "rental_uris": {"android": "https://dc.lft.to/lastmile_qr_scan", "ios": "https://dc.lft.to/lastmile_qr_scan"}, "is_reserved": 0, "name": "88ffe1c2fe134f5201c09133fc75847c", "lon": -77.01211733333334, "type": "electric_scooter", "bike_id": "88ffe1c2fe134f5201c09133fc75847c", "fusion_lon": 0.0, "lat": 38.918237, "fusion_lat": 0.0}, {"is_disabled": 0, "rental_uris": {"android": "https://dc.lft.to/lastmile_qr_scan", "ios": "https://dc.lft.to/lastmile_qr_scan"}, "is_reserved": 0, "name": "0d5ef36662d82cac1beb2cd6c447bcdd", "lon": -76.922294, "type": "electric_scooter", "bike_id": "0d5ef36662d82cac1beb2cd6c447bcdd", "fusion_lon": 0.0, "lat": 38.899953, "fusion_lat": 0.0}, {"is_disabled": 0, "rental_uris": {"android": "https://dc.lft.to/lastmile_qr_scan", "ios": "https://dc.lft.to/lastmile_qr_scan"}, "is_reserved": 0, "name": "bb7cf07e19a730ca105e24716d5a86ac", "lon": -77.02166783333334, "type": "electric_scooter", "bike_id": "bb7cf07e19a730ca105e24716d5a86ac", "fusion_lon": 0.0, "lat": 38.89930716666667, "fusion_lat": 0.0}, {"is_disabled": 0, "rental_uris": {"android": "https://dc.lft.to/lastmile_qr_scan", "ios": "https://dc.lft.to/lastmile_qr_scan"}, "is_reserved": 0, "name": "6b4e4bb00e2efae012da574d57a333cb", "lon": -77.072738, "type": "electric_scooter", "bike_id": "6b4e4bb00e2efae012da574d57a333cb", "fusion_lon": 0.0, "lat": 38.934703999999996, "fusion_lat": 0.0}, {"is_disabled": 0, "rental_uris": {"android": "https://dc.lft.to/lastmile_qr_scan", "ios": "https://dc.lft.to/lastmile_qr_scan"}, "is_reserved": 0, "name": "5edf62b9be5ccfeefcd6ebe3309bf6d9", "lon": -77.0141525, "type": "electric_scooter", "bike_id": "5edf62b9be5ccfeefcd6ebe3309bf6d9", "fusion_lon": 0.0, "lat": 38.91399083333334, "fusion_lat": 0.0}, {"is_disabled": 0, "rental_uris": {"android": "https://dc.lft.to/lastmile_qr_scan", "ios": "https://dc.lft.to/lastmile_qr_scan"}, "is_reserved": 0, "name": "c2b4c1176ce86ae58de7f4353664c569", "lon": -77.03826983333333, "type": "electric_scooter", "bike_id": "c2b4c1176ce86ae58de7f4353664c569", "fusion_lon": 0.0, "lat": 38.911106333333336, "fusion_lat": 0.0}, {"is_disabled": 0, "rental_uris": {"android": "https://dc.lft.to/lastmile_qr_scan", "ios": "https://dc.lft.to/lastmile_qr_scan"}, "is_reserved": 0, "name": "b30882cb7daedc102d0d20795659cca2", "lon": -76.90538883333333, "type": "electric_bike", "bike_id": "b30882cb7daedc102d0d20795659cca2", "fusion_lon": 0.0, "lat": 38.89734033333333, "fusion_lat": 0.0}, {"is_disabled": 0, "rental_uris": {"android": "https://dc.lft.to/lastmile_qr_scan", "ios": "https://dc.lft.to/lastmile_qr_scan"}, "is_reserved": 0, "name": "f8c7c47a1cbedcd6311777dd83cb0233", "lon": -77.04209416666667, "type": "electric_scooter", "bike_id": "f8c7c47a1cbedcd6311777dd83cb0233", "fusion_lon": 0.0, "lat": 38.9141415, "fusion_lat": 0.0}, {"is_disabled": 0, "rental_uris": {"android": "https://dc.lft.to/lastmile_qr_scan", "ios": "https://dc.lft.to/lastmile_qr_scan"}, "is_reserved": 0, "name": "211a6ac0db62ff4facb95df384261ccb", "lon": -77.033859, "type": "electric_scooter", "bike_id": "211a6ac0db62ff4facb95df384261ccb", "fusion_lon": 0.0, "lat": 38.91271833333333, "fusion_lat": 0.0}, {"is_disabled": 0, "rental_uris": {"android": "https://dc.lft.to/lastmile_qr_scan", "ios": "https://dc.lft.to/lastmile_qr_scan"}, "is_reserved": 0, "name": "fbd836015e68f4956d0236d3b63829ed", "lon": -77.01371666666667, "type": "electric_scooter", "bike_id": "fbd836015e68f4956d0236d3b63829ed", "fusion_lon": 0.0, "lat": 38.886432666666664, "fusion_lat": 0.0}, {"is_disabled": 0, "rental_uris": {"android": "https://dc.lft.to/lastmile_qr_scan", "ios": "https://dc.lft.to/lastmile_qr_scan"}, "is_reserved": 0, "name": "94d10f78a1867f4f6e828d6be6c89cde", "lon": -77.04988783333333, "type": "electric_scooter", "bike_id": "94d10f78a1867f4f6e828d6be6c89cde", "fusion_lon": 0.0, "lat": 38.905069833333336, "fusion_lat": 0.0}, {"is_disabled": 0, "rental_uris": {"android": "https://dc.lft.to/lastmile_qr_scan", "ios": "https://dc.lft.to/lastmile_qr_scan"}, "is_reserved": 0, "name": "7e6ebf89e306348845a2c665fe98748a", "lon": -77.00333333333333, "type": "electric_scooter", "bike_id": "7e6ebf89e306348845a2c665fe98748a", "fusion_lon": 0.0, "lat": 38.8867055, "fusion_lat": 0.0}, {"is_disabled": 0, "rental_uris": {"android": "https://dc.lft.to/lastmile_qr_scan", "ios": "https://dc.lft.to/lastmile_qr_scan"}, "is_reserved": 0, "name": "d72055fdb9d7cfce8c6ac4a36ad54884", "lon": -77.01961916666667, "type": "electric_scooter", "bike_id": "d72055fdb9d7cfce8c6ac4a36ad54884", "fusion_lon": 0.0, "lat": 38.8839205, "fusion_lat": 0.0}, {"is_disabled": 0, "rental_uris": {"android": "https://dc.lft.to/lastmile_qr_scan", "ios": "https://dc.lft.to/lastmile_qr_scan"}, "is_reserved": 0, "name": "3e86ee1e94b0a7bab383694e51a24b02", "lon": -77.01352883333334, "type": "electric_scooter", "bike_id": "3e86ee1e94b0a7bab383694e51a24b02", "fusion_lon": 0.0, "lat": 38.9288225, "fusion_lat": 0.0}, {"is_disabled": 0, "rental_uris": {"android": "https://dc.lft.to/lastmile_qr_scan", "ios": "https://dc.lft.to/lastmile_qr_scan"}, "is_reserved": 0, "name": "b6e5b379c852d044e6d17c5fd68f8e2b", "lon": -77.0440905, "type": "electric_bike", "bike_id": "b6e5b379c852d044e6d17c5fd68f8e2b", "fusion_lon": 0.0, "lat": 39.052053, "fusion_lat": 0.0}, {"is_disabled": 0, "rental_uris": {"android": "https://dc.lft.to/lastmile_qr_scan", "ios": "https://dc.lft.to/lastmile_qr_scan"}, "is_reserved": 0, "name": "4e0e3bbb1243a818adc770ebfc69affe", "lon": -77.04423883333334, "type": "electric_scooter", "bike_id": "4e0e3bbb1243a818adc770ebfc69affe", "fusion_lon": 0.0, "lat": 38.912556333333335, "fusion_lat": 0.0}, {"is_disabled": 0, "rental_uris": {"android": "https://dc.lft.to/lastmile_qr_scan", "ios": "https://dc.lft.to/lastmile_qr_scan"}, "is_reserved": 0, "name": "e93b5efddb08039edee570ea8b5023b5", "lon": -77.038331, "type": "electric_scooter", "bike_id": "e93b5efddb08039edee570ea8b5023b5", "fusion_lon": 0.0, "lat": 38.9164555, "fusion_lat": 0.0}, {"is_disabled": 0, "rental_uris": {"android": "https://dc.lft.to/lastmile_qr_scan", "ios": "https://dc.lft.to/lastmile_qr_scan"}, "is_reserved": 0, "name": "86929ca6fd58186fd71f5b1d4096fc8d", "lon": -77.03245633333333, "type": "electric_scooter", "bike_id": "86929ca6fd58186fd71f5b1d4096fc8d", "fusion_lon": 0.0, "lat": 38.9111455, "fusion_lat": 0.0}, {"is_disabled": 0, "rental_uris": {"android": "https://dc.lft.to/lastmile_qr_scan", "ios": "https://dc.lft.to/lastmile_qr_scan"}, "is_reserved": 0, "name": "ea0bf52a47171d3a10f0eb9a023de10e", "lon": -77.01530483333333, "type": "electric_scooter", "bike_id": "ea0bf52a47171d3a10f0eb9a023de10e", "fusion_lon": 0.0, "lat": 38.887379, "fusion_lat": 0.0}, {"is_disabled": 0, "rental_uris": {"android": "https://dc.lft.to/lastmile_qr_scan", "ios": "https://dc.lft.to/lastmile_qr_scan"}, "is_reserved": 0, "name": "832c96ff950dd8c3feaf1c61df64510d", "lon": -77.047862, "type": "electric_bike", "bike_id": "832c96ff950dd8c3feaf1c61df64510d", "fusion_lon": 0.0, "lat": 38.91941283333333, "fusion_lat": 0.0}, {"is_disabled": 0, "rental_uris": {"android": "https://dc.lft.to/lastmile_qr_scan", "ios": "https://dc.lft.to/lastmile_qr_scan"}, "is_reserved": 0, "name": "376ee4e0ebb3c654da6c7ea7e16d14eb", "lon": -76.94695616666667, "type": "electric_scooter", "bike_id": "376ee4e0ebb3c654da6c7ea7e16d14eb", "fusion_lon": 0.0, "lat": 38.897309, "fusion_lat": 0.0}, {"is_disabled": 0, "rental_uris": {"android": "https://dc.lft.to/lastmile_qr_scan", "ios": "https://dc.lft.to/lastmile_qr_scan"}, "is_reserved": 0, "name": "e80854473b5f97ee10608fa05d017c5f", "lon": -77.00118666666667, "type": "electric_bike", "bike_id": "e80854473b5f97ee10608fa05d017c5f", "fusion_lon": 0.0, "lat": 38.99934016666667, "fusion_lat": 0.0}, {"is_disabled": 0, "rental_uris": {"android": "https://dc.lft.to/lastmile_qr_scan", "ios": "https://dc.lft.to/lastmile_qr_scan"}, "is_reserved": 0, "name": "7ee91461dc21f835593baab744e36b7a", "lon": -77.01858316666667, "type": "electric_scooter", "bike_id": "7ee91461dc21f835593baab744e36b7a", "fusion_lon": 0.0, "lat": 38.90407533333333, "fusion_lat": 0.0}, {"is_disabled": 0, "rental_uris": {"android": "https://dc.lft.to/lastmile_qr_scan", "ios": "https://dc.lft.to/lastmile_qr_scan"}, "is_reserved": 0, "name": "e0679b0c3850e5cb986db25b3840fcf4", "lon": -76.9922415, "type": "electric_scooter", "bike_id": "e0679b0c3850e5cb986db25b3840fcf4", "fusion_lon": 0.0, "lat": 38.8988995, "fusion_lat": 0.0}, {"is_disabled": 0, "rental_uris": {"android": "https://dc.lft.to/lastmile_qr_scan", "ios": "https://dc.lft.to/lastmile_qr_scan"}, "is_reserved": 0, "name": "efccc70a274773ec8226c25d6e6149fc", "lon": -77.03057666666666, "type": "electric_scooter", "bike_id": "efccc70a274773ec8226c25d6e6149fc", "fusion_lon": 0.0, "lat": 38.9563155, "fusion_lat": 0.0}, {"is_disabled": 0, "rental_uris": {"android": "https://dc.lft.to/lastmile_qr_scan", "ios": "https://dc.lft.to/lastmile_qr_scan"}, "is_reserved": 0, "name": "c47b971489456d38e4fde1c2de51013c", "lon": -77.045861, "type": "electric_scooter", "bike_id": "c47b971489456d38e4fde1c2de51013c", "fusion_lon": 0.0, "lat": 38.91713, "fusion_lat": 0.0}, {"is_disabled": 0, "rental_uris": {"android": "https://dc.lft.to/lastmile_qr_scan", "ios": "https://dc.lft.to/lastmile_qr_scan"}, "is_reserved": 0, "name": "5847b329d47830c2c8bd17cfe62e36fd", "lon": -77.02561416666667, "type": "electric_scooter", "bike_id": "5847b329d47830c2c8bd17cfe62e36fd", "fusion_lon": 0.0, "lat": 38.899458833333334, "fusion_lat": 0.0}, {"is_disabled": 0, "rental_uris": {"android": "https://dc.lft.to/lastmile_qr_scan", "ios": "https://dc.lft.to/lastmile_qr_scan"}, "is_reserved": 0, "name": "a4ef128ad1cde8f2dedc18de047c8cb0", "lon": -77.04122033333333, "type": "electric_scooter", "bike_id": "a4ef128ad1cde8f2dedc18de047c8cb0", "fusion_lon": 0.0, "lat": 38.917068, "fusion_lat": 0.0}, {"is_disabled": 0, "rental_uris": {"android": "https://dc.lft.to/lastmile_qr_scan", "ios": "https://dc.lft.to/lastmile_qr_scan"}, "is_reserved": 0, "name": "a3a47b79c0fca0950530cf03e5b14015", "lon": -76.99680766666667, "type": "electric_scooter", "bike_id": "a3a47b79c0fca0950530cf03e5b14015", "fusion_lon": 0.0, "lat": 38.860453666666665, "fusion_lat": 0.0}, {"is_disabled": 0, "rental_uris": {"android": "https://dc.lft.to/lastmile_qr_scan", "ios": "https://dc.lft.to/lastmile_qr_scan"}, "is_reserved": 0, "name": "476425a2c2dc470ecb73d4fecfb5f2f5", "lon": -77.002471, "type": "electric_scooter", "bike_id": "476425a2c2dc470ecb73d4fecfb5f2f5", "fusion_lon": 0.0, "lat": 38.911818, "fusion_lat": 0.0}, {"is_disabled": 0, "rental_uris": {"android": "https://dc.lft.to/lastmile_qr_scan", "ios": "https://dc.lft.to/lastmile_qr_scan"}, "is_reserved": 0, "name": "bac6328feebf6cff782ca171f161e34e", "lon": -77.1477255, "type": "electric_bike", "bike_id": "bac6328feebf6cff782ca171f161e34e", "fusion_lon": 0.0, "lat": 39.095963833333336, "fusion_lat": 0.0}, {"is_disabled": 0, "rental_uris": {"android": "https://dc.lft.to/lastmile_qr_scan", "ios": "https://dc.lft.to/lastmile_qr_scan"}, "is_reserved": 0, "name": "172c694125cbf421a864e75e770296f4", "lon": -77.03608016666666, "type": "electric_scooter", "bike_id": "172c694125cbf421a864e75e770296f4", "fusion_lon": 0.0, "lat": 38.93150033333333, "fusion_lat": 0.0}, {"is_disabled": 0, "rental_uris": {"android": "https://dc.lft.to/lastmile_qr_scan", "ios": "https://dc.lft.to/lastmile_qr_scan"}, "is_reserved": 0, "name": "23542c6678b0f1d5f21c6fcb55f0eb15", "lon": -76.9488735, "type": "electric_scooter", "bike_id": "23542c6678b0f1d5f21c6fcb55f0eb15", "fusion_lon": 0.0, "lat": 38.89512233333333, "fusion_lat": 0.0}, {"is_disabled": 0, "rental_uris": {"android": "https://dc.lft.to/lastmile_qr_scan", "ios": "https://dc.lft.to/lastmile_qr_scan"}, "is_reserved": 0, "name": "87497b1b2c283a87a8dc323c204c00d7", "lon": -77.09568366666667, "type": "electric_bike", "bike_id": "87497b1b2c283a87a8dc323c204c00d7", "fusion_lon": 0.0, "lat": 38.83790666666667, "fusion_lat": 0.0}, {"is_disabled": 0, "rental_uris": {"android": "https://dc.lft.to/lastmile_qr_scan", "ios": "https://dc.lft.to/lastmile_qr_scan"}, "is_reserved": 0, "name": "24e71cd316346381a46d3b848284448b", "lon": -77.03492966666667, "type": "electric_scooter", "bike_id": "24e71cd316346381a46d3b848284448b", "fusion_lon": 0.0, "lat": 38.92156766666667, "fusion_lat": 0.0}, {"is_disabled": 0, "rental_uris": {"android": "https://dc.lft.to/lastmile_qr_scan", "ios": "https://dc.lft.to/lastmile_qr_scan"}, "is_reserved": 0, "name": "fe2ad9dc64fc15d6e3fc0c2143e1e64b", "lon": -77.04132966666667, "type": "electric_scooter", "bike_id": "fe2ad9dc64fc15d6e3fc0c2143e1e64b", "fusion_lon": 0.0, "lat": 38.92136133333333, "fusion_lat": 0.0}, {"is_disabled": 0, "rental_uris": {"android": "https://dc.lft.to/lastmile_qr_scan", "ios": "https://dc.lft.to/lastmile_qr_scan"}, "is_reserved": 0, "name": "b7ef569d2506ea66c760f481ba7fe679", "lon": -77.03878466666667, "type": "electric_scooter", "bike_id": "b7ef569d2506ea66c760f481ba7fe679", "fusion_lon": 0.0, "lat": 38.91556516666667, "fusion_lat": 0.0}, {"is_disabled": 0, "rental_uris": {"android": "https://dc.lft.to/lastmile_qr_scan", "ios": "https://dc.lft.to/lastmile_qr_scan"}, "is_reserved": 0, "name": "d41d0eb8bdbbd585349e8fbe4d31ad83", "lon": -77.02106833333333, "type": "electric_scooter", "bike_id": "d41d0eb8bdbbd585349e8fbe4d31ad83", "fusion_lon": 0.0, "lat": 38.9409725, "fusion_lat": 0.0}, {"is_disabled": 0, "rental_uris": {"android": "https://dc.lft.to/lastmile_qr_scan", "ios": "https://dc.lft.to/lastmile_qr_scan"}, "is_reserved": 0, "name": "1985fa0a569efae77c5825d836554443", "lon": -77.01246316666666, "type": "electric_scooter", "bike_id": "1985fa0a569efae77c5825d836554443", "fusion_lon": 0.0, "lat": 38.93114966666667, "fusion_lat": 0.0}, {"is_disabled": 0, "rental_uris": {"android": "https://dc.lft.to/lastmile_qr_scan", "ios": "https://dc.lft.to/lastmile_qr_scan"}, "is_reserved": 0, "name": "07ce0e55a29d040e6fe6c5187c16b46c", "lon": -76.9905035, "type": "electric_scooter", "bike_id": "07ce0e55a29d040e6fe6c5187c16b46c", "fusion_lon": 0.0, "lat": 38.86368866666667, "fusion_lat": 0.0}, {"is_disabled": 0, "rental_uris": {"android": "https://dc.lft.to/lastmile_qr_scan", "ios": "https://dc.lft.to/lastmile_qr_scan"}, "is_reserved": 0, "name": "72a33cdce700e1b99a9da88aed1e7f67", "lon": -77.02479583333333, "type": "electric_scooter", "bike_id": "72a33cdce700e1b99a9da88aed1e7f67", "fusion_lon": 0.0, "lat": 38.937661166666665, "fusion_lat": 0.0}, {"is_disabled": 0, "rental_uris": {"android": "https://dc.lft.to/lastmile_qr_scan", "ios": "https://dc.lft.to/lastmile_qr_scan"}, "is_reserved": 0, "name": "1a1d4490bcc1550f072b52e9ff813a4d", "lon": -77.038644, "type": "electric_scooter", "bike_id": "1a1d4490bcc1550f072b52e9ff813a4d", "fusion_lon": 0.0, "lat": 38.921536, "fusion_lat": 0.0}, {"is_disabled": 0, "rental_uris": {"android": "https://dc.lft.to/lastmile_qr_scan", "ios": "https://dc.lft.to/lastmile_qr_scan"}, "is_reserved": 0, "name": "98dd174c66e6068ab346a12402b8ba9e", "lon": -77.04404433333333, "type": "electric_scooter", "bike_id": "98dd174c66e6068ab346a12402b8ba9e", "fusion_lon": 0.0, "lat": 38.92955383333333, "fusion_lat": 0.0}, {"is_disabled": 0, "rental_uris": {"android": "https://dc.lft.to/lastmile_qr_scan", "ios": "https://dc.lft.to/lastmile_qr_scan"}, "is_reserved": 0, "name": "8078646549f3616dd83505e333efbcca", "lon": -77.11523266666667, "type": "electric_bike", "bike_id": "8078646549f3616dd83505e333efbcca", "fusion_lon": 0.0, "lat": 38.854929, "fusion_lat": 0.0}, {"is_disabled": 0, "rental_uris": {"android": "https://dc.lft.to/lastmile_qr_scan", "ios": "https://dc.lft.to/lastmile_qr_scan"}, "is_reserved": 0, "name": "9321a5a48f7047c5054bb246514307cc", "lon": -77.02048333333333, "type": "electric_scooter", "bike_id": "9321a5a48f7047c5054bb246514307cc", "fusion_lon": 0.0, "lat": 38.958713833333334, "fusion_lat": 0.0}, {"is_disabled": 0, "rental_uris": {"android": "https://dc.lft.to/lastmile_qr_scan", "ios": "https://dc.lft.to/lastmile_qr_scan"}, "is_reserved": 0, "name": "ebd5026da4bf6765c50d3594cc5fd9ef", "lon": -77.05382816666666, "type": "electric_scooter", "bike_id": "ebd5026da4bf6765c50d3594cc5fd9ef", "fusion_lon": 0.0, "lat": 38.91064683333333, "fusion_lat": 0.0}, {"is_disabled": 0, "rental_uris": {"android": "https://dc.lft.to/lastmile_qr_scan", "ios": "https://dc.lft.to/lastmile_qr_scan"}, "is_reserved": 0, "name": "8b4e46e7eaa19e59501672df36523b9e", "lon": -77.02781633333333, "type": "electric_scooter", "bike_id": "8b4e46e7eaa19e59501672df36523b9e", "fusion_lon": 0.0, "lat": 38.95126583333333, "fusion_lat": 0.0}, {"is_disabled": 0, "rental_uris": {"android": "https://dc.lft.to/lastmile_qr_scan", "ios": "https://dc.lft.to/lastmile_qr_scan"}, "is_reserved": 0, "name": "0f928e8be105180ceb5672ad693ad615", "lon": -76.972184, "type": "electric_bike", "bike_id": "0f928e8be105180ceb5672ad693ad615", "fusion_lon": 0.0, "lat": 38.844874, "fusion_lat": 0.0}, {"is_disabled": 0, "rental_uris": {"android": "https://dc.lft.to/lastmile_qr_scan", "ios": "https://dc.lft.to/lastmile_qr_scan"}, "is_reserved": 0, "name": "848b6e9a41273e3fe6f7e3f62bd7a272", "lon": -77.047298, "type": "electric_scooter", "bike_id": "848b6e9a41273e3fe6f7e3f62bd7a272", "fusion_lon": 0.0, "lat": 38.898458833333336, "fusion_lat": 0.0}, {"is_disabled": 0, "rental_uris": {"android": "https://dc.lft.to/lastmile_qr_scan", "ios": "https://dc.lft.to/lastmile_qr_scan"}, "is_reserved": 0, "name": "b571c7813bccca9b8c84011c8f29ff25", "lon": -77.0399875, "type": "electric_bike", "bike_id": "b571c7813bccca9b8c84011c8f29ff25", "fusion_lon": 0.0, "lat": 38.901714166666665, "fusion_lat": 0.0}, {"is_disabled": 0, "rental_uris": {"android": "https://dc.lft.to/lastmile_qr_scan", "ios": "https://dc.lft.to/lastmile_qr_scan"}, "is_reserved": 0, "name": "7c82b054eb3750bf2453e0331c7b38ef", "lon": -77.01770366666666, "type": "electric_scooter", "bike_id": "7c82b054eb3750bf2453e0331c7b38ef", "fusion_lon": 0.0, "lat": 38.92102633333333, "fusion_lat": 0.0}, {"is_disabled": 0, "rental_uris": {"android": "https://dc.lft.to/lastmile_qr_scan", "ios": "https://dc.lft.to/lastmile_qr_scan"}, "is_reserved": 0, "name": "831b064b95783f11b64dbd7d224f8520", "lon": -77.0268555, "type": "electric_scooter", "bike_id": "831b064b95783f11b64dbd7d224f8520", "fusion_lon": 0.0, "lat": 38.908723, "fusion_lat": 0.0}, {"is_disabled": 0, "rental_uris": {"android": "https://dc.lft.to/lastmile_qr_scan", "ios": "https://dc.lft.to/lastmile_qr_scan"}, "is_reserved": 0, "name": "1689df292c23513d8b594b5324831f80", "lon": -77.04172366666667, "type": "electric_scooter", "bike_id": "1689df292c23513d8b594b5324831f80", "fusion_lon": 0.0, "lat": 38.913116333333335, "fusion_lat": 0.0}, {"is_disabled": 0, "rental_uris": {"android": "https://dc.lft.to/lastmile_qr_scan", "ios": "https://dc.lft.to/lastmile_qr_scan"}, "is_reserved": 0, "name": "e83fb0c57ab1e23a0fb4383638aea700", "lon": -76.97465166666667, "type": "electric_scooter", "bike_id": "e83fb0c57ab1e23a0fb4383638aea700", "fusion_lon": 0.0, "lat": 38.864974, "fusion_lat": 0.0}, {"is_disabled": 0, "rental_uris": {"android": "https://dc.lft.to/lastmile_qr_scan", "ios": "https://dc.lft.to/lastmile_qr_scan"}, "is_reserved": 0, "name": "ee3f8be21cd7cb04f11337152368aed1", "lon": -77.06766416666666, "type": "electric_scooter", "bike_id": "ee3f8be21cd7cb04f11337152368aed1", "fusion_lon": 0.0, "lat": 38.9497425, "fusion_lat": 0.0}, {"is_disabled": 0, "rental_uris": {"android": "https://dc.lft.to/lastmile_qr_scan", "ios": "https://dc.lft.to/lastmile_qr_scan"}, "is_reserved": 0, "name": "696eae33040babb1bea7087f26f2dd64", "lon": -77.02866283333333, "type": "electric_bike", "bike_id": "696eae33040babb1bea7087f26f2dd64", "fusion_lon": 0.0, "lat": 38.9988665, "fusion_lat": 0.0}, {"is_disabled": 0, "rental_uris": {"android": "https://dc.lft.to/lastmile_qr_scan", "ios": "https://dc.lft.to/lastmile_qr_scan"}, "is_reserved": 0, "name": "d0ab87155e8748ee4e9b11fea7cdbc38", "lon": -77.022198, "type": "electric_scooter", "bike_id": "d0ab87155e8748ee4e9b11fea7cdbc38", "fusion_lon": 0.0, "lat": 38.915711, "fusion_lat": 0.0}, {"is_disabled": 0, "rental_uris": {"android": "https://dc.lft.to/lastmile_qr_scan", "ios": "https://dc.lft.to/lastmile_qr_scan"}, "is_reserved": 0, "name": "8f1bd1c2bd880df6fd7494f461a951f0", "lon": -77.04027816666667, "type": "electric_scooter", "bike_id": "8f1bd1c2bd880df6fd7494f461a951f0", "fusion_lon": 0.0, "lat": 38.917904166666666, "fusion_lat": 0.0}, {"is_disabled": 0, "rental_uris": {"android": "https://dc.lft.to/lastmile_qr_scan", "ios": "https://dc.lft.to/lastmile_qr_scan"}, "is_reserved": 0, "name": "a5a521495f25d1b4a9a4ffc56916925e", "lon": -76.95020933333333, "type": "electric_scooter", "bike_id": "a5a521495f25d1b4a9a4ffc56916925e", "fusion_lon": 0.0, "lat": 38.883939166666664, "fusion_lat": 0.0}, {"is_disabled": 0, "rental_uris": {"android": "https://dc.lft.to/lastmile_qr_scan", "ios": "https://dc.lft.to/lastmile_qr_scan"}, "is_reserved": 0, "name": "e8a7da9a4378a3942b465f007b1d249f", "lon": -76.95194583333334, "type": "electric_bike", "bike_id": "e8a7da9a4378a3942b465f007b1d249f", "fusion_lon": 0.0, "lat": 38.9069985, "fusion_lat": 0.0}, {"is_disabled": 0, "rental_uris": {"android": "https://dc.lft.to/lastmile_qr_scan", "ios": "https://dc.lft.to/lastmile_qr_scan"}, "is_reserved": 0, "name": "ebd6690b7894b9ee88d6b387e03e4eff", "lon": -77.02463, "type": "electric_scooter", "bike_id": "ebd6690b7894b9ee88d6b387e03e4eff", "fusion_lon": 0.0, "lat": 38.93717316666667, "fusion_lat": 0.0}, {"is_disabled": 0, "rental_uris": {"android": "https://dc.lft.to/lastmile_qr_scan", "ios": "https://dc.lft.to/lastmile_qr_scan"}, "is_reserved": 0, "name": "b9db73336b153b4cd1c4794e51fa5656", "lon": -77.0473685, "type": "electric_scooter", "bike_id": "b9db73336b153b4cd1c4794e51fa5656", "fusion_lon": 0.0, "lat": 38.908698666666666, "fusion_lat": 0.0}, {"is_disabled": 0, "rental_uris": {"android": "https://dc.lft.to/lastmile_qr_scan", "ios": "https://dc.lft.to/lastmile_qr_scan"}, "is_reserved": 0, "name": "1b02286a879f2a74c93f5a4019565734", "lon": -77.01404733333334, "type": "electric_scooter", "bike_id": "1b02286a879f2a74c93f5a4019565734", "fusion_lon": 0.0, "lat": 38.8766225, "fusion_lat": 0.0}, {"is_disabled": 0, "rental_uris": {"android": "https://dc.lft.to/lastmile_qr_scan", "ios": "https://dc.lft.to/lastmile_qr_scan"}, "is_reserved": 0, "name": "c2481e6da8af1a9a6399812bd9952058", "lon": -76.99867416666666, "type": "electric_scooter", "bike_id": "c2481e6da8af1a9a6399812bd9952058", "fusion_lon": 0.0, "lat": 38.889784, "fusion_lat": 0.0}, {"is_disabled": 0, "rental_uris": {"android": "https://dc.lft.to/lastmile_qr_scan", "ios": "https://dc.lft.to/lastmile_qr_scan"}, "is_reserved": 0, "name": "b60209ecf37500c2f8474cd32a2f13f5", "lon": -77.02152233333334, "type": "electric_scooter", "bike_id": "b60209ecf37500c2f8474cd32a2f13f5", "fusion_lon": 0.0, "lat": 38.925997833333334, "fusion_lat": 0.0}, {"is_disabled": 0, "rental_uris": {"android": "https://dc.lft.to/lastmile_qr_scan", "ios": "https://dc.lft.to/lastmile_qr_scan"}, "is_reserved": 0, "name": "9fc9865ba5427da83f7944bb28071180", "lon": -76.9838095, "type": "electric_scooter", "bike_id": "9fc9865ba5427da83f7944bb28071180", "fusion_lon": 0.0, "lat": 38.90649616666666, "fusion_lat": 0.0}, {"is_disabled": 0, "rental_uris": {"android": "https://dc.lft.to/lastmile_qr_scan", "ios": "https://dc.lft.to/lastmile_qr_scan"}, "is_reserved": 0, "name": "7beb150e9682b804b7566ef18620b02c", "lon": -77.04263583333334, "type": "electric_scooter", "bike_id": "7beb150e9682b804b7566ef18620b02c", "fusion_lon": 0.0, "lat": 38.93415233333333, "fusion_lat": 0.0}, {"is_disabled": 0, "rental_uris": {"android": "https://dc.lft.to/lastmile_qr_scan", "ios": "https://dc.lft.to/lastmile_qr_scan"}, "is_reserved": 0, "name": "cce32b192534c0f3310c72984f9de4d8", "lon": -76.9546115, "type": "electric_bike", "bike_id": "cce32b192534c0f3310c72984f9de4d8", "fusion_lon": 0.0, "lat": 38.93567433333333, "fusion_lat": 0.0}, {"is_disabled": 0, "rental_uris": {"android": "https://dc.lft.to/lastmile_qr_scan", "ios": "https://dc.lft.to/lastmile_qr_scan"}, "is_reserved": 0, "name": "d18f5333d8eeacab210a30445bc5a21c", "lon": -77.03503966666666, "type": "electric_scooter", "bike_id": "d18f5333d8eeacab210a30445bc5a21c", "fusion_lon": 0.0, "lat": 38.90786666666666, "fusion_lat": 0.0}, {"is_disabled": 0, "rental_uris": {"android": "https://dc.lft.to/lastmile_qr_scan", "ios": "https://dc.lft.to/lastmile_qr_scan"}, "is_reserved": 0, "name": "372240ab56abb2c38ff138c5e1c6eb4d", "lon": -76.99861716666666, "type": "electric_scooter", "bike_id": "372240ab56abb2c38ff138c5e1c6eb4d", "fusion_lon": 0.0, "lat": 38.9001095, "fusion_lat": 0.0}, {"is_disabled": 0, "rental_uris": {"android": "https://dc.lft.to/lastmile_qr_scan", "ios": "https://dc.lft.to/lastmile_qr_scan"}, "is_reserved": 0, "name": "eed00d450d2fd8548b943337e7a306c0", "lon": -77.03868016666667, "type": "electric_scooter", "bike_id": "eed00d450d2fd8548b943337e7a306c0", "fusion_lon": 0.0, "lat": 38.909761333333336, "fusion_lat": 0.0}, {"is_disabled": 0, "rental_uris": {"android": "https://dc.lft.to/lastmile_qr_scan", "ios": "https://dc.lft.to/lastmile_qr_scan"}, "is_reserved": 0, "name": "288d5ac8ae232dbc57e46665ccf0a3dd", "lon": -76.99054166666667, "type": "electric_scooter", "bike_id": "288d5ac8ae232dbc57e46665ccf0a3dd", "fusion_lon": 0.0, "lat": 38.858999833333336, "fusion_lat": 0.0}, {"is_disabled": 0, "rental_uris": {"android": "https://dc.lft.to/lastmile_qr_scan", "ios": "https://dc.lft.to/lastmile_qr_scan"}, "is_reserved": 0, "name": "9b2d8f058a29bc571d36ffce2d0764c8", "lon": -76.98305533333334, "type": "electric_scooter", "bike_id": "9b2d8f058a29bc571d36ffce2d0764c8", "fusion_lon": 0.0, "lat": 38.868953166666664, "fusion_lat": 0.0}, {"is_disabled": 0, "rental_uris": {"android": "https://dc.lft.to/lastmile_qr_scan", "ios": "https://dc.lft.to/lastmile_qr_scan"}, "is_reserved": 0, "name": "0ebabb4cda84bbc6d4928c5ffb1fbc02", "lon": -77.0120835, "type": "electric_scooter", "bike_id": "0ebabb4cda84bbc6d4928c5ffb1fbc02", "fusion_lon": 0.0, "lat": 38.900277833333334, "fusion_lat": 0.0}, {"is_disabled": 0, "rental_uris": {"android": "https://dc.lft.to/lastmile_qr_scan", "ios": "https://dc.lft.to/lastmile_qr_scan"}, "is_reserved": 0, "name": "f1d8e4403d6193647688d030058273c8", "lon": -77.02671516666666, "type": "electric_scooter", "bike_id": "f1d8e4403d6193647688d030058273c8", "fusion_lon": 0.0, "lat": 38.912678166666666, "fusion_lat": 0.0}, {"is_disabled": 0, "rental_uris": {"android": "https://dc.lft.to/lastmile_qr_scan", "ios": "https://dc.lft.to/lastmile_qr_scan"}, "is_reserved": 0, "name": "b22873bb119d9eb5a888a279fe000cc4", "lon": -77.03668983333333, "type": "electric_scooter", "bike_id": "b22873bb119d9eb5a888a279fe000cc4", "fusion_lon": 0.0, "lat": 38.918119833333336, "fusion_lat": 0.0}, {"is_disabled": 0, "rental_uris": {"android": "https://dc.lft.to/lastmile_qr_scan", "ios": "https://dc.lft.to/lastmile_qr_scan"}, "is_reserved": 0, "name": "9d1155f2884b77049acb81b1aa7645b7", "lon": -77.03371033333333, "type": "electric_scooter", "bike_id": "9d1155f2884b77049acb81b1aa7645b7", "fusion_lon": 0.0, "lat": 38.921676166666664, "fusion_lat": 0.0}, {"is_disabled": 0, "rental_uris": {"android": "https://dc.lft.to/lastmile_qr_scan", "ios": "https://dc.lft.to/lastmile_qr_scan"}, "is_reserved": 0, "name": "c0e778e78005c7eedaf8392b19d1487e", "lon": -77.03182716666667, "type": "electric_scooter", "bike_id": "c0e778e78005c7eedaf8392b19d1487e", "fusion_lon": 0.0, "lat": 38.91919083333333, "fusion_lat": 0.0}, {"is_disabled": 0, "rental_uris": {"android": "https://dc.lft.to/lastmile_qr_scan", "ios": "https://dc.lft.to/lastmile_qr_scan"}, "is_reserved": 0, "name": "eee6fd4fe6fe3407dc1fa7e682b7602f", "lon": -77.0283565, "type": "electric_scooter", "bike_id": "eee6fd4fe6fe3407dc1fa7e682b7602f", "fusion_lon": 0.0, "lat": 38.925727, "fusion_lat": 0.0}, {"is_disabled": 0, "rental_uris": {"android": "https://dc.lft.to/lastmile_qr_scan", "ios": "https://dc.lft.to/lastmile_qr_scan"}, "is_reserved": 0, "name": "618ffb70be1a0cf2082661fd681f4731", "lon": -77.03213033333333, "type": "electric_scooter", "bike_id": "618ffb70be1a0cf2082661fd681f4731", "fusion_lon": 0.0, "lat": 38.90357516666667, "fusion_lat": 0.0}, {"is_disabled": 0, "rental_uris": {"android": "https://dc.lft.to/lastmile_qr_scan", "ios": "https://dc.lft.to/lastmile_qr_scan"}, "is_reserved": 0, "name": "f9f900f1082a940c901dd225e5f2f741", "lon": -76.9965855, "type": "electric_bike", "bike_id": "f9f900f1082a940c901dd225e5f2f741", "fusion_lon": 0.0, "lat": 38.98815466666667, "fusion_lat": 0.0}, {"is_disabled": 0, "rental_uris": {"android": "https://dc.lft.to/lastmile_qr_scan", "ios": "https://dc.lft.to/lastmile_qr_scan"}, "is_reserved": 0, "name": "319a9cccf979ff5466a9b033fe1ab93a", "lon": -77.00879183333333, "type": "electric_scooter", "bike_id": "319a9cccf979ff5466a9b033fe1ab93a", "fusion_lon": 0.0, "lat": 38.905827333333335, "fusion_lat": 0.0}, {"is_disabled": 0, "rental_uris": {"android": "https://dc.lft.to/lastmile_qr_scan", "ios": "https://dc.lft.to/lastmile_qr_scan"}, "is_reserved": 0, "name": "27aa22c2eb37b4a4c92f3ccc948b1f6e", "lon": -77.03829916666666, "type": "electric_scooter", "bike_id": "27aa22c2eb37b4a4c92f3ccc948b1f6e", "fusion_lon": 0.0, "lat": 38.914711833333335, "fusion_lat": 0.0}, {"is_disabled": 0, "rental_uris": {"android": "https://dc.lft.to/lastmile_qr_scan", "ios": "https://dc.lft.to/lastmile_qr_scan"}, "is_reserved": 0, "name": "f9f9427cacbac9831c0d621bbe19a3ac", "lon": -77.0150855, "type": "electric_scooter", "bike_id": "f9f9427cacbac9831c0d621bbe19a3ac", "fusion_lon": 0.0, "lat": 38.910034333333336, "fusion_lat": 0.0}, {"is_disabled": 0, "rental_uris": {"android": "https://dc.lft.to/lastmile_qr_scan", "ios": "https://dc.lft.to/lastmile_qr_scan"}, "is_reserved": 0, "name": "d44de0d8d44a7ca2b62a0fa503687a88", "lon": -77.04574216666667, "type": "electric_scooter", "bike_id": "d44de0d8d44a7ca2b62a0fa503687a88", "fusion_lon": 0.0, "lat": 38.924214166666665, "fusion_lat": 0.0}, {"is_disabled": 0, "rental_uris": {"android": "https://dc.lft.to/lastmile_qr_scan", "ios": "https://dc.lft.to/lastmile_qr_scan"}, "is_reserved": 0, "name": "afda6aea970b06b35b5c8552097def25", "lon": -77.0239115, "type": "electric_scooter", "bike_id": "afda6aea970b06b35b5c8552097def25", "fusion_lon": 0.0, "lat": 38.92805, "fusion_lat": 0.0}, {"is_disabled": 0, "rental_uris": {"android": "https://dc.lft.to/lastmile_qr_scan", "ios": "https://dc.lft.to/lastmile_qr_scan"}, "is_reserved": 0, "name": "01a320c57e594841770c77c2495da6df", "lon": -77.04129033333334, "type": "electric_bike", "bike_id": "01a320c57e594841770c77c2495da6df", "fusion_lon": 0.0, "lat": 38.943975, "fusion_lat": 0.0}, {"is_disabled": 0, "rental_uris": {"android": "https://dc.lft.to/lastmile_qr_scan", "ios": "https://dc.lft.to/lastmile_qr_scan"}, "is_reserved": 0, "name": "ce7b0d07a92ff8bc8669b564e280f704", "lon": -77.03660533333333, "type": "electric_scooter", "bike_id": "ce7b0d07a92ff8bc8669b564e280f704", "fusion_lon": 0.0, "lat": 38.917181166666666, "fusion_lat": 0.0}, {"is_disabled": 0, "rental_uris": {"android": "https://dc.lft.to/lastmile_qr_scan", "ios": "https://dc.lft.to/lastmile_qr_scan"},