{"data": {"bikes": [{"lon": -77.03188616666667, "name": "528ab13eeb4727d272a1bb88ec97a20a", "is_disabled": 0, "type": "electric_scooter", "is_reserved": 0, "fusion_lon": 0.0, "lat": 38.91329666666667, "rental_uris": {"ios": "https://dc.lft.to/lastmile_qr_scan", "android": "https://dc.lft.to/lastmile_qr_scan"}, "bike_id": "528ab13eeb4727d272a1bb88ec97a20a", "fusion_lat": 0.0}, {"lon": -77.0014945, "name": "dc19ed9db3140410c336f4f571d4cc75", "is_disabled": 0, "type": "electric_scooter", "is_reserved": 0, "fusion_lon": 0.0, "lat": 38.86750883333333, "rental_uris": {"ios": "https://dc.lft.to/lastmile_qr_scan", "android": "https://dc.lft.to/lastmile_qr_scan"}, "bike_id": "dc19ed9db3140410c336f4f571d4cc75", "fusion_lat": 0.0}, {"lon": -76.9506325, "name": "3000aae462c5f2a8a62addd25b4c0d1e", "is_disabled": 0, "type": "electric_bike", "is_reserved": 0, "fusion_lon": 0.0, "lat": 39.08505566666667, "rental_uris": {"ios": "https://dc.lft.to/lastmile_qr_scan", "android": "https://dc.lft.to/lastmile_qr_scan"}, "bike_id": "3000aae462c5f2a8a62addd25b4c0d1e", "fusion_lat": 0.0}, {"lon": -77.01951216666667, "name": "e152da214ea310e34c6134cdf422ed38", "is_disabled": 0, "type": "electric_scooter", "is_reserved": 0, "fusion_lon": 0.0, "lat": 38.974716, "rental_uris": {"ios": "https://dc.lft.to/lastmile_qr_scan", "android": "https://dc.lft.to/lastmile_qr_scan"}, "bike_id": "e152da214ea310e34c6134cdf422ed38", "fusion_lat": 0.0}, {"lon": -76.98519383333333, "name": "ff24c3f9da5fb5882e6dfa79515b6c64", "is_disabled": 0, "type": "electric_scooter", "is_reserved": 0, "fusion_lon": 0.0, "lat": 38.86675616666667, "rental_uris": {"ios": "https://dc.lft.to/lastmile_qr_scan", "android": "https://dc.lft.to/lastmile_qr_scan"}, "bike_id": "ff24c3f9da5fb5882e6dfa79515b6c64", "fusion_lat": 0.0}, {"lon": -77.03195816666667, "name": "b5644c0e27ca1a42cbdf197cb5efccb7", "is_disabled": 0, "type": "electric_scooter", "is_reserved": 0, "fusion_lon": 0.0, "lat": 38.89226333333333, "rental_uris": {"ios": "https://dc.lft.to/lastmile_qr_scan", "android": "https://dc.lft.to/lastmile_qr_scan"}, "bike_id": "b5644c0e27ca1a42cbdf197cb5efccb7", "fusion_lat": 0.0}, {"lon": -77.04814133333333, "name": "8766b7f2bff1cd37996674b653c5b27a", "is_disabled": 0, "type": "electric_scooter", "is_reserved": 0, "fusion_lon": 0.0, "lat": 38.90203183333333, "rental_uris": {"ios": "https://dc.lft.to/lastmile_qr_scan", "android": "https://dc.lft.to/lastmile_qr_scan"}, "bike_id": "8766b7f2bff1cd37996674b653c5b27a", "fusion_lat": 0.0}, {"lon": -77.03614433333334, "name": "a038af852a305c2875b42710fbd74d91", "is_disabled": 0, "type": "electric_scooter", "is_reserved": 0, "fusion_lon": 0.0, "lat": 38.92338316666667, "rental_uris": {"ios": "https://dc.lft.to/lastmile_qr_scan", "android": "https://dc.lft.to/lastmile_qr_scan"}, "bike_id": "a038af852a305c2875b42710fbd74d91", "fusion_lat": 0.0}, {"lon": -77.04135216666667, "name": "93d52be3bafb0c456175068b26d44a01", "is_disabled": 0, "type": "electric_scooter", "is_reserved": 0, "fusion_lon": 0.0, "lat": 38.923664333333335, "rental_uris": {"ios": "https://dc.lft.to/lastmile_qr_scan", "android": "https://dc.lft.to/lastmile_qr_scan"}, "bike_id": "93d52be3bafb0c456175068b26d44a01", "fusion_lat": 0.0}, {"lon": -77.007204, "name": "8ac8626ca9f99783956b48801d18abcf", "is_disabled": 0, "type": "electric_scooter", "is_reserved": 0, "fusion_lon": 0.0, "lat": 38.87916633333333, "rental_uris": {"ios": "https://dc.lft.to/lastmile_qr_scan", "android": "https://dc.lft.to/lastmile_qr_scan"}, "bike_id": "8ac8626ca9f99783956b48801d18abcf", "fusion_lat": 0.0}, {"lon": -77.03197616666667, "name": "740981ac5f81b3df101c9c64af294ab2", "is_disabled": 0, "type": "electric_scooter", "is_reserved": 0, "fusion_lon": 0.0, "lat": 38.913261, "rental_uris": {"ios": "https://dc.lft.to/lastmile_qr_scan", "android": "https://dc.lft.to/lastmile_qr_scan"}, "bike_id": "740981ac5f81b3df101c9c64af294ab2", "fusion_lat": 0.0}, {"lon": -77.04510166666667, "name": "68b68e744b489b0e6bbd8a2a2664d0c8", "is_disabled": 0, "type": "electric_scooter", "is_reserved": 0, "fusion_lon": 0.0, "lat": 38.910119, "rental_uris": {"ios": "https://dc.lft.to/lastmile_qr_scan", "android": "https://dc.lft.to/lastmile_qr_scan"}, "bike_id": "68b68e744b489b0e6bbd8a2a2664d0c8", "fusion_lat": 0.0}, {"lon": -77.0057835, "name": "7818aa5dddaed36ca0d3c74cdcb2b9ea", "is_disabled": 0, "type": "electric_scooter", "is_reserved": 0, "fusion_lon": 0.0, "lat": 38.872120833333334, "rental_uris": {"ios": "https://dc.lft.to/lastmile_qr_scan", "android": "https://dc.lft.to/lastmile_qr_scan"}, "bike_id": "7818aa5dddaed36ca0d3c74cdcb2b9ea", "fusion_lat": 0.0}, {"lon": -77.0294455, "name": "72325c75279254d3e08f60afa2bff6ef", "is_disabled": 0, "type": "electric_scooter", "is_reserved": 0, "fusion_lon": 0.0, "lat": 38.942780166666665, "rental_uris": {"ios": "https://dc.lft.to/lastmile_qr_scan", "android": "https://dc.lft.to/lastmile_qr_scan"}, "bike_id": "72325c75279254d3e08f60afa2bff6ef", "fusion_lat": 0.0}, {"lon": -77.08910033333333, "name": "812f5e3912a2edc03eb901a48a79143f", "is_disabled": 0, "type": "electric_bike", "is_reserved": 0, "fusion_lon": 0.0, "lat": 38.9673025, "rental_uris": {"ios": "https://dc.lft.to/lastmile_qr_scan", "android": "https://dc.lft.to/lastmile_qr_scan"}, "bike_id": "812f5e3912a2edc03eb901a48a79143f", "fusion_lat": 0.0}, {"lon": -77.02830866666666, "name": "72a9fbcb8984bb7545e4daf1297121ff", "is_disabled": 0, "type": "electric_scooter", "is_reserved": 0, "fusion_lon": 0.0, "lat": 38.8865685, "rental_uris": {"ios": "https://dc.lft.to/lastmile_qr_scan", "android": "https://dc.lft.to/lastmile_qr_scan"}, "bike_id": "72a9fbcb8984bb7545e4daf1297121ff", "fusion_lat": 0.0}, {"lon": -76.99825216666666, "name": "350f155db6eeff5afa718f94aaad2d19", "is_disabled": 0, "type": "electric_scooter", "is_reserved": 0, "fusion_lon": 0.0, "lat": 38.900573333333334, "rental_uris": {"ios": "https://dc.lft.to/lastmile_qr_scan", "android": "https://dc.lft.to/lastmile_qr_scan"}, "bike_id": "350f155db6eeff5afa718f94aaad2d19", "fusion_lat": 0.0}, {"lon": -77.01576483333334, "name": "b163f72ad429dda6108530e61049ddc6", "is_disabled": 0, "type": "electric_scooter", "is_reserved": 0, "fusion_lon": 0.0, "lat": 38.916864833333335, "rental_uris": {"ios": "https://dc.lft.to/lastmile_qr_scan", "android": "https://dc.lft.to/lastmile_qr_scan"}, "bike_id": "b163f72ad429dda6108530e61049ddc6", "fusion_lat": 0.0}, {"lon": -77.05475333333334, "name": "a8860aa9de493cee4d867a4964ec07f4", "is_disabled": 0, "type": "electric_scooter", "is_reserved": 0, "fusion_lon": 0.0, "lat": 38.903002666666666, "rental_uris": {"ios": "https://dc.lft.to/lastmile_qr_scan", "android": "https://dc.lft.to/lastmile_qr_scan"}, "bike_id": "a8860aa9de493cee4d867a4964ec07f4", "fusion_lat": 0.0}, {"lon": -77.019534, "name": "b82444c266033047a350098b70c3588e", "is_disabled": 0, "type": "electric_scooter", "is_reserved": 0, "fusion_lon": 0.0, "lat": 38.9225645, "rental_uris": {"ios": "https://dc.lft.to/lastmile_qr_scan", "android": "https://dc.lft.to/lastmile_qr_scan"}, "bike_id": "b82444c266033047a350098b70c3588e", "fusion_lat": 0.0}, {"lon": -77.03199616666667, "name": "311aeeed8936d7b9e9790d0f91cc4785", "is_disabled": 0, "type": "electric_scooter", "is_reserved": 0, "fusion_lon": 0.0, "lat": 38.91800333333333, "rental_uris": {"ios": "https://dc.lft.to/lastmile_qr_scan", "android": "https://dc.lft.to/lastmile_qr_scan"}, "bike_id": "311aeeed8936d7b9e9790d0f91cc4785", "fusion_lat": 0.0}, {"lon": -77.00595733333333, "name": "80872cb432dbb0996777e0a627305d41", "is_disabled": 0, "type": "electric_bike", "is_reserved": 0, "fusion_lon": 0.0, "lat": 38.898093, "rental_uris": {"ios": "https://dc.lft.to/lastmile_qr_scan", "android": "https://dc.lft.to/lastmile_qr_scan"}, "bike_id": "80872cb432dbb0996777e0a627305d41", "fusion_lat": 0.0}, {"lon": -76.97270266666666, "name": "76662c296f9c58c2e322b64f80421696", "is_disabled": 0, "type": "electric_bike", "is_reserved": 0, "fusion_lon": 0.0, "lat": 38.914544, "rental_uris": {"ios": "https://dc.lft.to/lastmile_qr_scan", "android": "https://dc.lft.to/lastmile_qr_scan"}, "bike_id": "76662c296f9c58c2e322b64f80421696", "fusion_lat": 0.0}, {"lon": -77.047619, "name": "7a01992bc982eba9abcc415baddfc0fb", "is_disabled": 0, "type": "electric_scooter", "is_reserved": 0, "fusion_lon": 0.0, "lat": 38.905261333333335, "rental_uris": {"ios": "https://dc.lft.to/lastmile_qr_scan", "android": "https://dc.lft.to/lastmile_qr_scan"}, "bike_id": "7a01992bc982eba9abcc415baddfc0fb", "fusion_lat": 0.0}, {"lon": -76.9902325, "name": "b16f568dc935e2a93b4dbea4ad3d052a", "is_disabled": 0, "type": "electric_bike", "is_reserved": 0, "fusion_lon": 0.0, "lat": 38.83585083333333, "rental_uris": {"ios": "https://dc.lft.to/lastmile_qr_scan", "android": "https://dc.lft.to/lastmile_qr_scan"}, "bike_id": "b16f568dc935e2a93b4dbea4ad3d052a", "fusion_lat": 0.0}, {"lon": -77.06622566666667, "name": "76cc579037b397e6a77564428ccefb33", "is_disabled": 0, "type": "electric_scooter", "is_reserved": 0, "fusion_lon": 0.0, "lat": 38.93684983333333, "rental_uris": {"ios": "https://dc.lft.to/lastmile_qr_scan", "android": "https://dc.lft.to/lastmile_qr_scan"}, "bike_id": "76cc579037b397e6a77564428ccefb33", "fusion_lat": 0.0}, {"lon": -77.000476, "name": "3b0b29f587c0e77fddb668844c897f67", "is_disabled": 0, "type": "electric_scooter", "is_reserved": 0, "fusion_lon": 0.0, "lat": 38.887643833333335, "rental_uris": {"ios": "https://dc.lft.to/lastmile_qr_scan", "android": "https://dc.lft.to/lastmile_qr_scan"}, "bike_id": "3b0b29f587c0e77fddb668844c897f67", "fusion_lat": 0.0}, {"lon": -77.0419185, "name": "8ed34892590666c7b5ff75890bf180bc", "is_disabled": 0, "type": "electric_scooter", "is_reserved": 0, "fusion_lon": 0.0, "lat": 38.92625566666667, "rental_uris": {"ios": "https://dc.lft.to/lastmile_qr_scan", "android": "https://dc.lft.to/lastmile_qr_scan"}, "bike_id": "8ed34892590666c7b5ff75890bf180bc", "fusion_lat": 0.0}, {"lon": -77.01550466666667, "name": "a7df8240a3e89da50ab0ee87a842836f", "is_disabled": 0, "type": "electric_scooter", "is_reserved": 0, "fusion_lon": 0.0, "lat": 38.9280105, "rental_uris": {"ios": "https://dc.lft.to/lastmile_qr_scan", "android": "https://dc.lft.to/lastmile_qr_scan"}, "bike_id": "a7df8240a3e89da50ab0ee87a842836f", "fusion_lat": 0.0}, {"lon": -77.02821633333333, "name": "36a9678faffa942099f7096fed961208", "is_disabled": 0, "type": "electric_bike", "is_reserved": 0, "fusion_lon": 0.0, "lat": 38.965611333333335, "rental_uris": {"ios": "https://dc.lft.to/lastmile_qr_scan", "android": "https://dc.lft.to/lastmile_qr_scan"}, "bike_id": "36a9678faffa942099f7096fed961208", "fusion_lat": 0.0}, {"lon": -77.015146, "name": "15d338cf476058497d1f62a1aa022205", "is_disabled": 0, "type": "electric_scooter", "is_reserved": 0, "fusion_lon": 0.0, "lat": 38.913239, "rental_uris": {"ios": "https://dc.lft.to/lastmile_qr_scan", "android": "https://dc.lft.to/lastmile_qr_scan"}, "bike_id": "15d338cf476058497d1f62a1aa022205", "fusion_lat": 0.0}, {"lon": -77.03206833333333, "name": "6c11074750db060d1c12984c90173ed9", "is_disabled": 0, "type": "electric_scooter", "is_reserved": 0, "fusion_lon": 0.0, "lat": 38.916331666666665, "rental_uris": {"ios": "https://dc.lft.to/lastmile_qr_scan", "android": "https://dc.lft.to/lastmile_qr_scan"}, "bike_id": "6c11074750db060d1c12984c90173ed9", "fusion_lat": 0.0}, {"lon": -77.03279216666667, "name": "862584a1c69c2e65e90db56e5fcd6703", "is_disabled": 0, "type": "electric_scooter", "is_reserved": 0, "fusion_lon": 0.0, "lat": 38.9294195, "rental_uris": {"ios": "https://dc.lft.to/lastmile_qr_scan", "android": "https://dc.lft.to/lastmile_qr_scan"}, "bike_id": "862584a1c69c2e65e90db56e5fcd6703", "fusion_lat": 0.0}, {"lon": -77.06981533333334, "name": "56e475d4af84d1daebce5ca4073f9ce7", "is_disabled": 0, "type": "electric_scooter", "is_reserved": 0, "fusion_lon": 0.0, "lat": 38.95301933333333, "rental_uris": {"ios": "https://dc.lft.to/lastmile_qr_scan", "android": "https://dc.lft.to/lastmile_qr_scan"}, "bike_id": "56e475d4af84d1daebce5ca4073f9ce7", "fusion_lat": 0.0}, {"lon": -77.0051015, "name": "ea1a03d9c2eefea51022b65d6b92a24a", "is_disabled": 0, "type": "electric_scooter", "is_reserved": 0, "fusion_lon": 0.0, "lat": 38.8753005, "rental_uris": {"ios": "https://dc.lft.to/lastmile_qr_scan", "android": "https://dc.lft.to/lastmile_qr_scan"}, "bike_id": "ea1a03d9c2eefea51022b65d6b92a24a", "fusion_lat": 0.0}, {"lon": -77.03954416666667, "name": "b3c81b55eb49037bf72605f2d1c46ffb", "is_disabled": 0, "type": "electric_scooter", "is_reserved": 0, "fusion_lon": 0.0, "lat": 38.924883333333334, "rental_uris": {"ios": "https://dc.lft.to/lastmile_qr_scan", "android": "https://dc.lft.to/lastmile_qr_scan"}, "bike_id": "b3c81b55eb49037bf72605f2d1c46ffb", "fusion_lat": 0.0}, {"lon": -77.002834, "name": "fbcd67415f23ea051c7c50c026b7c1d7", "is_disabled": 0, "type": "electric_scooter", "is_reserved": 0, "fusion_lon": 0.0, "lat": 38.9111655, "rental_uris": {"ios": "https://dc.lft.to/lastmile_qr_scan", "android": "https://dc.lft.to/lastmile_qr_scan"}, "bike_id": "fbcd67415f23ea051c7c50c026b7c1d7", "fusion_lat": 0.0}, {"lon": -76.97329916666666, "name": "202a2385d613da2383bfe2660ad1fb46", "is_disabled": 0, "type": "electric_scooter", "is_reserved": 0, "fusion_lon": 0.0, "lat": 38.904111, "rental_uris": {"ios": "https://dc.lft.to/lastmile_qr_scan", "android": "https://dc.lft.to/lastmile_qr_scan"}, "bike_id": "202a2385d613da2383bfe2660ad1fb46", "fusion_lat": 0.0}, {"lon": -76.99565066666666, "name": "3833d7cc7ca0913157c101759f0defe8", "is_disabled": 0, "type": "electric_scooter", "is_reserved": 0, "fusion_lon": 0.0, "lat": 38.90004316666667, "rental_uris": {"ios": "https://dc.lft.to/lastmile_qr_scan", "android": "https://dc.lft.to/lastmile_qr_scan"}, "bike_id": "3833d7cc7ca0913157c101759f0defe8", "fusion_lat": 0.0}, {"lon": -76.98829333333333, "name": "660c8f1f6b0b9e795670c942d7a1e06d", "is_disabled": 0, "type": "electric_scooter", "is_reserved": 0, "fusion_lon": 0.0, "lat": 38.89098333333333, "rental_uris": {"ios": "https://dc.lft.to/lastmile_qr_scan", "android": "https://dc.lft.to/lastmile_qr_scan"}, "bike_id": "660c8f1f6b0b9e795670c942d7a1e06d", "fusion_lat": 0.0}, {"lon": -76.993938, "name": "356bf0b246ef5e53c58c01fe8f1df237", "is_disabled": 0, "type": "electric_scooter", "is_reserved": 0, "fusion_lon": 0.0, "lat": 38.9100175, "rental_uris": {"ios": "https://dc.lft.to/lastmile_qr_scan", "android": "https://dc.lft.to/lastmile_qr_scan"}, "bike_id": "356bf0b246ef5e53c58c01fe8f1df237", "fusion_lat": 0.0}, {"lon": -77.03540266666667, "name": "4db913c8c7a1c9edacf9fc5560baf6f0", "is_disabled": 0, "type": "electric_scooter", "is_reserved": 0, "fusion_lon": 0.0, "lat": 38.907660666666665, "rental_uris": {"ios": "https://dc.lft.to/lastmile_qr_scan", "android": "https://dc.lft.to/lastmile_qr_scan"}, "bike_id": "4db913c8c7a1c9edacf9fc5560baf6f0", "fusion_lat": 0.0}, {"lon": -77.01221266666667, "name": "f9fc78a1754bbde3e44dbf954364c1d2", "is_disabled": 0, "type": "electric_scooter", "is_reserved": 0, "fusion_lon": 0.0, "lat": 38.91349966666667, "rental_uris": {"ios": "https://dc.lft.to/lastmile_qr_scan", "android": "https://dc.lft.to/lastmile_qr_scan"}, "bike_id": "f9fc78a1754bbde3e44dbf954364c1d2", "fusion_lat": 0.0}, {"lon": -77.02132983333334, "name": "1d6842c5a40da7410c5d452f83fea47d", "is_disabled": 0, "type": "electric_scooter", "is_reserved": 0, "fusion_lon": 0.0, "lat": 38.92417, "rental_uris": {"ios": "https://dc.lft.to/lastmile_qr_scan", "android": "https://dc.lft.to/lastmile_qr_scan"}, "bike_id": "1d6842c5a40da7410c5d452f83fea47d", "fusion_lat": 0.0}, {"lon": -77.05034716666667, "name": "5fb6644069eb75fe828b0ed5ee0f3a92", "is_disabled": 0, "type": "electric_scooter", "is_reserved": 0, "fusion_lon": 0.0, "lat": 38.903617833333335, "rental_uris": {"ios": "https://dc.lft.to/lastmile_qr_scan", "android": "https://dc.lft.to/lastmile_qr_scan"}, "bike_id": "5fb6644069eb75fe828b0ed5ee0f3a92", "fusion_lat": 0.0}, {"lon": -77.02385316666667, "name": "64f0b849251ab7c389a2b659803c14fc", "is_disabled": 0, "type": "electric_scooter", "is_reserved": 0, "fusion_lon": 0.0, "lat": 38.903409333333336, "rental_uris": {"ios": "https://dc.lft.to/lastmile_qr_scan", "android": "https://dc.lft.to/lastmile_qr_scan"}, "bike_id": "64f0b849251ab7c389a2b659803c14fc", "fusion_lat": 0.0}, {"lon": -76.9857235, "name": "5761d85fca926646539f687743a8bea2", "is_disabled": 0, "type": "electric_scooter", "is_reserved": 0, "fusion_lon": 0.0, "lat": 38.899561166666665, "rental_uris": {"ios": "https://dc.lft.to/lastmile_qr_scan", "android": "https://dc.lft.to/lastmile_qr_scan"}, "bike_id": "5761d85fca926646539f687743a8bea2", "fusion_lat": 0.0}, {"lon": -77.13936216666667, "name": "60624678e133ddb06ce70a5d6159f650", "is_disabled": 0, "type": "electric_bike", "is_reserved": 0, "fusion_lon": 0.0, "lat": 38.8467715, "rental_uris": {"ios": "https://dc.lft.to/lastmile_qr_scan", "android": "https://dc.lft.to/lastmile_qr_scan"}, "bike_id": "60624678e133ddb06ce70a5d6159f650", "fusion_lat": 0.0}, {"lon": -76.99031316666667, "name": "4e70bd4ccb0abdc0b6d887049064d9a9", "is_disabled": 0, "type": "electric_scooter", "is_reserved": 0, "fusion_lon": 0.0, "lat": 38.898515333333336, "rental_uris": {"ios": "https://dc.lft.to/lastmile_qr_scan", "android": "https://dc.lft.to/lastmile_qr_scan"}, "bike_id": "4e70bd4ccb0abdc0b6d887049064d9a9", "fusion_lat": 0.0}, {"lon": -77.015564, "name": "e9d1ebc5b04e68aa6cb86ce0289ce034", "is_disabled": 0, "type": "electric_scooter", "is_reserved": 0, "fusion_lon": 0.0, "lat": 38.8936905, "rental_uris": {"ios": "https://dc.lft.to/lastmile_qr_scan", "android": "https://dc.lft.to/lastmile_qr_scan"}, "bike_id": "e9d1ebc5b04e68aa6cb86ce0289ce034", "fusion_lat": 0.0}, {"lon": -77.00204666666667, "name": "cd3ea2cf74a886bed6459dec6068a9ed", "is_disabled": 0, "type": "electric_scooter", "is_reserved": 0, "fusion_lon": 0.0, "lat": 38.905113666666665, "rental_uris": {"ios": "https://dc.lft.to/lastmile_qr_scan", "android": "https://dc.lft.to/lastmile_qr_scan"}, "bike_id": "cd3ea2cf74a886bed6459dec6068a9ed", "fusion_lat": 0.0}, {"lon": -77.00743633333333, "name": "b1828de38b28a133e57c1e58fefa99ab", "is_disabled": 0, "type": "electric_scooter", "is_reserved": 0, "fusion_lon": 0.0, "lat": 38.909550833333334, "rental_uris": {"ios": "https://dc.lft.to/lastmile_qr_scan", "android": "https://dc.lft.to/lastmile_qr_scan"}, "bike_id": "b1828de38b28a133e57c1e58fefa99ab", "fusion_lat": 0.0}, {"lon": -77.00213316666667, "name": "279b147139300bbb3788f9862342fc7a", "is_disabled": 0, "type": "electric_scooter", "is_reserved": 0, "fusion_lon": 0.0, "lat": 38.924522333333336, "rental_uris": {"ios": "https://dc.lft.to/lastmile_qr_scan", "android": "https://dc.lft.to/lastmile_qr_scan"}, "bike_id": "279b147139300bbb3788f9862342fc7a", "fusion_lat": 0.0}, {"lon": -77.0468715, "name": "9c7aa8c6e9e6733cb27d67e4e833f07e", "is_disabled": 0, "type": "electric_scooter", "is_reserved": 0, "fusion_lon": 0.0, "lat": 38.89222766666666, "rental_uris": {"ios": "https://dc.lft.to/lastmile_qr_scan", "android": "https://dc.lft.to/lastmile_qr_scan"}, "bike_id": "9c7aa8c6e9e6733cb27d67e4e833f07e", "fusion_lat": 0.0}, {"lon": -76.99504233333333, "name": "3f42528511139ee8bde81f096d628b31", "is_disabled": 0, "type": "electric_scooter", "is_reserved": 0, "fusion_lon": 0.0, "lat": 38.880025, "rental_uris": {"ios": "https://dc.lft.to/lastmile_qr_scan", "android": "https://dc.lft.to/lastmile_qr_scan"}, "bike_id": "3f42528511139ee8bde81f096d628b31", "fusion_lat": 0.0}, {"lon": -77.01253366666667, "name": "4082d6a7c666f1c7ed5c0f7ecca1cdd5", "is_disabled": 0, "type": "electric_scooter", "is_reserved": 0, "fusion_lon": 0.0, "lat": 38.915771, "rental_uris": {"ios": "https://dc.lft.to/lastmile_qr_scan", "android": "https://dc.lft.to/lastmile_qr_scan"}, "bike_id": "4082d6a7c666f1c7ed5c0f7ecca1cdd5", "fusion_lat": 0.0}, {"lon": -77.03888133333334, "name": "775325c0de7889e3baa551fbd573dbbf", "is_disabled": 0, "type": "electric_scooter", "is_reserved": 0, "fusion_lon": 0.0, "lat": 38.917492833333334, "rental_uris": {"ios": "https://dc.lft.to/lastmile_qr_scan", "android": "https://dc.lft.to/lastmile_qr_scan"}, "bike_id": "775325c0de7889e3baa551fbd573dbbf", "fusion_lat": 0.0}, {"lon": -77.01408133333334, "name": "f348c26b5c44fd41f6e251f2fe3d9159", "is_disabled": 0, "type": "electric_scooter", "is_reserved": 0, "fusion_lon": 0.0, "lat": 38.92846633333333, "rental_uris": {"ios": "https://dc.lft.to/lastmile_qr_scan", "android": "https://dc.lft.to/lastmile_qr_scan"}, "bike_id": "f348c26b5c44fd41f6e251f2fe3d9159", "fusion_lat": 0.0}, {"lon": -76.94723483333334, "name": "ae99cd2698c822691ea921935427e0f0", "is_disabled": 0, "type": "electric_bike", "is_reserved": 0, "fusion_lon": 0.0, "lat": 38.98379033333333, "rental_uris": {"ios": "https://dc.lft.to/lastmile_qr_scan", "android": "https://dc.lft.to/lastmile_qr_scan"}, "bike_id": "ae99cd2698c822691ea921935427e0f0", "fusion_lat": 0.0}, {"lon": -77.0764445, "name": "904deda5cd25aa9dd2af2460b4362165", "is_disabled": 0, "type": "electric_scooter", "is_reserved": 0, "fusion_lon": 0.0, "lat": 38.92361866666667, "rental_uris": {"ios": "https://dc.lft.to/lastmile_qr_scan", "android": "https://dc.lft.to/lastmile_qr_scan"}, "bike_id": "904deda5cd25aa9dd2af2460b4362165", "fusion_lat": 0.0}, {"lon": -77.07236333333333, "name": "e58c75c6d349a39fa0e73278a4611679", "is_disabled": 0, "type": "electric_scooter", "is_reserved": 0, "fusion_lon": 0.0, "lat": 38.94108683333333, "rental_uris": {"ios": "https://dc.lft.to/lastmile_qr_scan", "android": "https://dc.lft.to/lastmile_qr_scan"}, "bike_id": "e58c75c6d349a39fa0e73278a4611679", "fusion_lat": 0.0}, {"lon": -77.00057666666666, "name": "8afa702811a0109eac3d9a1e99bd969a", "is_disabled": 0, "type": "electric_scooter", "is_reserved": 0, "fusion_lon": 0.0, "lat": 38.9080635, "rental_uris": {"ios": "https://dc.lft.to/lastmile_qr_scan", "android": "https://dc.lft.to/lastmile_qr_scan"}, "bike_id": "8afa702811a0109eac3d9a1e99bd969a", "fusion_lat": 0.0}, {"lon": -77.02163783333333, "name": "58936385f2e9c00762964ae6c454cf02", "is_disabled": 0, "type": "electric_scooter", "is_reserved": 0, "fusion_lon": 0.0, "lat": 38.902299, "rental_uris": {"ios": "https://dc.lft.to/lastmile_qr_scan", "android": "https://dc.lft.to/lastmile_qr_scan"}, "bike_id": "58936385f2e9c00762964ae6c454cf02", "fusion_lat": 0.0}, {"lon": -76.97333383333333, "name": "f701e60c40cd90c870964a8ec157a393", "is_disabled": 0, "type": "electric_scooter", "is_reserved": 0, "fusion_lon": 0.0, "lat": 38.90410116666666, "rental_uris": {"ios": "https://dc.lft.to/lastmile_qr_scan", "android": "https://dc.lft.to/lastmile_qr_scan"}, "bike_id": "f701e60c40cd90c870964a8ec157a393", "fusion_lat": 0.0}, {"lon": -76.98377833333333, "name": "b5a6978f38a12cb5223ceaf5beee9e1d", "is_disabled": 0, "type": "electric_scooter", "is_reserved": 0, "fusion_lon": 0.0, "lat": 38.86031216666667, "rental_uris": {"ios": "https://dc.lft.to/lastmile_qr_scan", "android": "https://dc.lft.to/lastmile_qr_scan"}, "bike_id": "b5a6978f38a12cb5223ceaf5beee9e1d", "fusion_lat": 0.0}, {"lon": -76.996969, "name": "cc563576425a3cb45cc2f1f833a4eedb", "is_disabled": 0, "type": "electric_scooter", "is_reserved": 0, "fusion_lon": 0.0, "lat": 38.907970666666664, "rental_uris": {"ios": "https://dc.lft.to/lastmile_qr_scan", "android": "https://dc.lft.to/lastmile_qr_scan"}, "bike_id": "cc563576425a3cb45cc2f1f833a4eedb", "fusion_lat": 0.0}, {"lon": -77.02157116666666, "name": "5103bcd39c873368c8b400b307c39e4b", "is_disabled": 0, "type": "electric_scooter", "is_reserved": 0, "fusion_lon": 0.0, "lat": 38.926012666666665, "rental_uris": {"ios": "https://dc.lft.to/lastmile_qr_scan", "android": "https://dc.lft.to/lastmile_qr_scan"}, "bike_id": "5103bcd39c873368c8b400b307c39e4b", "fusion_lat": 0.0}, {"lon": -77.00536183333334, "name": "8c235170826c3d39e97b7cecb58f392e", "is_disabled": 0, "type": "electric_scooter", "is_reserved": 0, "fusion_lon": 0.0, "lat": 38.87544916666667, "rental_uris": {"ios": "https://dc.lft.to/lastmile_qr_scan", "android": "https://dc.lft.to/lastmile_qr_scan"}, "bike_id": "8c235170826c3d39e97b7cecb58f392e", "fusion_lat": 0.0}, {"lon": -76.98236083333333, "name": "27ef573305edcd3a3e62fbcc2b1f3c18", "is_disabled": 0, "type": "electric_scooter", "is_reserved": 0, "fusion_lon": 0.0, "lat": 38.90474183333333, "rental_uris": {"ios": "https://dc.lft.to/lastmile_qr_scan", "android": "https://dc.lft.to/lastmile_qr_scan"}, "bike_id": "27ef573305edcd3a3e62fbcc2b1f3c18", "fusion_lat": 0.0}, {"lon": -77.02398816666667, "name": "bc94c1a575ed8c0183f597ebbb043196", "is_disabled": 0, "type": "electric_scooter", "is_reserved": 0, "fusion_lon": 0.0, "lat": 38.898645, "rental_uris": {"ios": "https://dc.lft.to/lastmile_qr_scan", "android": "https://dc.lft.to/lastmile_qr_scan"}, "bike_id": "bc94c1a575ed8c0183f597ebbb043196", "fusion_lat": 0.0}, {"lon": -77.01990183333334, "name": "edcd7a4bb63c9fefe9f427edcc7e18f6", "is_disabled": 0, "type": "electric_scooter", "is_reserved": 0, "fusion_lon": 0.0, "lat": 38.93781883333333, "rental_uris": {"ios": "https://dc.lft.to/lastmile_qr_scan", "android": "https://dc.lft.to/lastmile_qr_scan"}, "bike_id": "edcd7a4bb63c9fefe9f427edcc7e18f6", "fusion_lat": 0.0}, {"lon": -77.0231775, "name": "4f0ab1ccc7972a92e96ce7950f47318a", "is_disabled": 0, "type": "electric_scooter", "is_reserved": 0, "fusion_lon": 0.0, "lat": 38.92074866666667, "rental_uris": {"ios": "https://dc.lft.to/lastmile_qr_scan", "android": "https://dc.lft.to/lastmile_qr_scan"}, "bike_id": "4f0ab1ccc7972a92e96ce7950f47318a", "fusion_lat": 0.0}, {"lon": -77.02455416666666, "name": "775041740870ac24bbd8fb4f6dd528d3", "is_disabled": 0, "type": "electric_scooter", "is_reserved": 0, "fusion_lon": 0.0, "lat": 38.893831166666665, "rental_uris": {"ios": "https://dc.lft.to/lastmile_qr_scan", "android": "https://dc.lft.to/lastmile_qr_scan"}, "bike_id": "775041740870ac24bbd8fb4f6dd528d3", "fusion_lat": 0.0}, {"lon": -76.99906466666667, "name": "28baa37e2398f6c42bbb74e0b13e99c3", "is_disabled": 0, "type": "electric_scooter", "is_reserved": 0, "fusion_lon": 0.0, "lat": 38.89095916666667, "rental_uris": {"ios": "https://dc.lft.to/lastmile_qr_scan", "android": "https://dc.lft.to/lastmile_qr_scan"}, "bike_id": "28baa37e2398f6c42bbb74e0b13e99c3", "fusion_lat": 0.0}, {"lon": -77.021076, "name": "b9ec0de82612becc320bd0ff9ac37953", "is_disabled": 0, "type": "electric_bike", "is_reserved": 0, "fusion_lon": 0.0, "lat": 39.02293366666667, "rental_uris": {"ios": "https://dc.lft.to/lastmile_qr_scan", "android": "https://dc.lft.to/lastmile_qr_scan"}, "bike_id": "b9ec0de82612becc320bd0ff9ac37953", "fusion_lat": 0.0}, {"lon": -77.09447733333333, "name": "700867bd7fe57ce1cb3a251a01ebb9dd", "is_disabled": 0, "type": "electric_bike", "is_reserved": 0, "fusion_lon": 0.0, "lat": 38.8942445, "rental_uris": {"ios": "https://dc.lft.to/lastmile_qr_scan", "android": "https://dc.lft.to/lastmile_qr_scan"}, "bike_id": "700867bd7fe57ce1cb3a251a01ebb9dd", "fusion_lat": 0.0}, {"lon": -77.0216215, "name": "2aa84625b98ddd96bc0ff2d68eee656e", "is_disabled": 0, "type": "electric_scooter", "is_reserved": 0, "fusion_lon": 0.0, "lat": 38.9261275, "rental_uris": {"ios": "https://dc.lft.to/lastmile_qr_scan", "android": "https://dc.lft.to/lastmile_qr_scan"}, "bike_id": "2aa84625b98ddd96bc0ff2d68eee656e", "fusion_lat": 0.0}, {"lon": -76.9864905, "name": "1eefc284b702c265b9b57a0a15db886e", "is_disabled": 0, "type": "electric_bike", "is_reserved": 0, "fusion_lon": 0.0, "lat": 38.97474666666667, "rental_uris": {"ios": "https://dc.lft.to/lastmile_qr_scan", "android": "https://dc.lft.to/lastmile_qr_scan"}, "bike_id": "1eefc284b702c265b9b57a0a15db886e", "fusion_lat": 0.0}, {"lon": -77.06052216666667, "name": "6e00ed9f6423566f84a7cdd8ab08ea80", "is_disabled": 0, "type": "electric_scooter", "is_reserved": 0, "fusion_lon": 0.0, "lat": 38.939327166666665, "rental_uris": {"ios": "https://dc.lft.to/lastmile_qr_scan", "android": "https://dc.lft.to/lastmile_qr_scan"}, "bike_id": "6e00ed9f6423566f84a7cdd8ab08ea80", "fusion_lat": 0.0}, {"lon": -77.02277016666666, "name": "f54670a8b01db11a51257bf2bb3de72e", "is_disabled": 0, "type": "electric_scooter", "is_reserved": 0, "fusion_lon": 0.0, "lat": 38.9027695, "rental_uris": {"ios": "https://dc.lft.to/lastmile_qr_scan", "android": "https://dc.lft.to/lastmile_qr_scan"}, "bike_id": "f54670a8b01db11a51257bf2bb3de72e", "fusion_lat": 0.0}, {"lon": -77.020721, "name": "aa0fa9dde4bdacbbdf6c0fe6854fbfe6", "is_disabled": 0, "type": "electric_scooter", "is_reserved": 0, "fusion_lon": 0.0, "lat": 38.92134216666667, "rental_uris": {"ios": "https://dc.lft.to/lastmile_qr_scan", "android": "https://dc.lft.to/lastmile_qr_scan"}, "bike_id": "aa0fa9dde4bdacbbdf6c0fe6854fbfe6", "fusion_lat": 0.0}, {"lon": -76.9869235, "name": "7fbd6ca7f3f06f4186fa2af24209ce8b", "is_disabled": 0, "type": "electric_bike", "is_reserved": 0, "fusion_lon": 0.0, "lat": 38.94470833333333, "rental_uris": {"ios": "https://dc.lft.to/lastmile_qr_scan", "android": "https://dc.lft.to/lastmile_qr_scan"}, "bike_id": "7fbd6ca7f3f06f4186fa2af24209ce8b", "fusion_lat": 0.0}, {"lon": -77.05525183333333, "name": "ec6d1569a9cf9dfeb274cbe0990392b8", "is_disabled": 0, "type": "electric_scooter", "is_reserved": 0, "fusion_lon": 0.0, "lat": 38.89727216666667, "rental_uris": {"ios": "https://dc.lft.to/lastmile_qr_scan", "android": "https://dc.lft.to/lastmile_qr_scan"}, "bike_id": "ec6d1569a9cf9dfeb274cbe0990392b8", "fusion_lat": 0.0}, {"lon": -77.01809366666667, "name": "2112415f022588e9a8135a28992c3ba0", "is_disabled": 0, "type": "electric_scooter", "is_reserved": 0, "fusion_lon": 0.0, "lat": 38.9214265, "rental_uris": {"ios": "https://dc.lft.to/lastmile_qr_scan", "android": "https://dc.lft.to/lastmile_qr_scan"}, "bike_id": "2112415f022588e9a8135a28992c3ba0", "fusion_lat": 0.0}, {"lon": -77.02426983333334, "name": "3f805a4ae36ddb9a8194e85ecdc31c26", "is_disabled": 0, "type": "electric_scooter", "is_reserved": 0, "fusion_lon": 0.0, "lat": 38.92090666666667, "rental_uris": {"ios": "https://dc.lft.to/lastmile_qr_scan", "android": "https://dc.lft.to/lastmile_qr_scan"}, "bike_id": "3f805a4ae36ddb9a8194e85ecdc31c26", "fusion_lat": 0.0}, {"lon": -77.01144733333334, "name": "e7a86dd944acfacd738eb9bfeea65ffa", "is_disabled": 0, "type": "electric_scooter", "is_reserved": 0, "fusion_lon": 0.0, "lat": 38.911039333333335, "rental_uris": {"ios": "https://dc.lft.to/lastmile_qr_scan", "android": "https://dc.lft.to/lastmile_qr_scan"}, "bike_id": "e7a86dd944acfacd738eb9bfeea65ffa", "fusion_lat": 0.0}, {"lon": -77.01986066666667, "name": "3d2f08de57e5958256c58fc58d2d4f23", "is_disabled": 0, "type": "electric_scooter", "is_reserved": 0, "fusion_lon": 0.0, "lat": 38.91560066666667, "rental_uris": {"ios": "https://dc.lft.to/lastmile_qr_scan", "android": "https://dc.lft.to/lastmile_qr_scan"}, "bike_id": "3d2f08de57e5958256c58fc58d2d4f23", "fusion_lat": 0.0}, {"lon": -77.02126533333333, "name": "0eed8abc53b7bd61541d4ac7daa70f3f", "is_disabled": 0, "type": "electric_scooter", "is_reserved": 0, "fusion_lon": 0.0, "lat": 38.9310885, "rental_uris": {"ios": "https://dc.lft.to/lastmile_qr_scan", "android": "https://dc.lft.to/lastmile_qr_scan"}, "bike_id": "0eed8abc53b7bd61541d4ac7daa70f3f", "fusion_lat": 0.0}, {"lon": -76.993116, "name": "ea3b70696f75c7959e7f26ddc86ce368", "is_disabled": 0, "type": "electric_bike", "is_reserved": 0, "fusion_lon": 0.0, "lat": 38.946256166666664, "rental_uris": {"ios": "https://dc.lft.to/lastmile_qr_scan", "android": "https://dc.lft.to/lastmile_qr_scan"}, "bike_id": "ea3b70696f75c7959e7f26ddc86ce368", "fusion_lat": 0.0}, {"lon": -77.04190016666666, "name": "36a9e9250d244ff1fb56e3812d7375d4", "is_disabled": 0, "type": "electric_scooter", "is_reserved": 0, "fusion_lon": 0.0, "lat": 38.92049133333333, "rental_uris": {"ios": "https://dc.lft.to/lastmile_qr_scan", "android": "https://dc.lft.to/lastmile_qr_scan"}, "bike_id": "36a9e9250d244ff1fb56e3812d7375d4", "fusion_lat": 0.0}, {"lon": -77.03858766666667, "name": "a35a8e69d9f9f7ae450b6515f3c3d8fe", "is_disabled": 0, "type": "electric_scooter", "is_reserved": 0, "fusion_lon": 0.0, "lat": 38.901264, "rental_uris": {"ios": "https://dc.lft.to/lastmile_qr_scan", "android": "https://dc.lft.to/lastmile_qr_scan"}, "bike_id": "a35a8e69d9f9f7ae450b6515f3c3d8fe", "fusion_lat": 0.0}, {"lon": -77.00417216666666, "name": "3bb19a90f596db11266730284a7db210", "is_disabled": 0, "type": "electric_bike", "is_reserved": 0, "fusion_lon": 0.0, "lat": 38.9853095, "rental_uris": {"ios": "https://dc.lft.to/lastmile_qr_scan", "android": "https://dc.lft.to/lastmile_qr_scan"}, "bike_id": "3bb19a90f596db11266730284a7db210", "fusion_lat": 0.0}, {"lon": -77.0490845, "name": "c499534f610e01af2d1c405e703614a3", "is_disabled": 0, "type": "electric_scooter", "is_reserved": 0, "fusion_lon": 0.0, "lat": 38.915973666666666, "rental_uris": {"ios": "https://dc.lft.to/lastmile_qr_scan", "android": "https://dc.lft.to/lastmile_qr_scan"}, "bike_id": "c499534f610e01af2d1c405e703614a3", "fusion_lat": 0.0}, {"lon": -77.0417605, "name": "73b2b55a20586c9e0b94a194dd24e256", "is_disabled": 0, "type": "electric_scooter", "is_reserved": 0, "fusion_lon": 0.0, "lat": 38.91653866666667, "rental_uris": {"ios": "https://dc.lft.to/lastmile_qr_scan", "android": "https://dc.lft.to/lastmile_qr_scan"}, "bike_id": "73b2b55a20586c9e0b94a194dd24e256", "fusion_lat": 0.0}, {"lon": -77.0194955, "name": "0e7192d6ee0813fd6c0a5c6172329c52", "is_disabled": 0, "type": "electric_scooter", "is_reserved": 0, "fusion_lon": 0.0, "lat": 38.9241965, "rental_uris": {"ios": "https://dc.lft.to/lastmile_qr_scan", "android": "https://dc.lft.to/lastmile_qr_scan"}, "bike_id": "0e7192d6ee0813fd6c0a5c6172329c52", "fusion_lat": 0.0}, {"lon": -77.01950183333334, "name": "568a5a5b6f172f647f4054f54c173c2a", "is_disabled": 0, "type": "electric_scooter", "is_reserved": 0, "fusion_lon": 0.0, "lat": 38.924134333333335, "rental_uris": {"ios": "https://dc.lft.to/lastmile_qr_scan", "android": "https://dc.lft.to/lastmile_qr_scan"}, "bike_id": "568a5a5b6f172f647f4054f54c173c2a", "fusion_lat": 0.0}, {"lon": -77.04352116666666, "name": "1c8c9dd237e1da08bada006910c87efc", "is_disabled": 0, "type": "electric_scooter", "is_reserved": 0, "fusion_lon": 0.0, "lat": 38.9053735, "rental_uris": {"ios": "https://dc.lft.to/lastmile_qr_scan", "android": "https://dc.lft.to/lastmile_qr_scan"}, "bike_id": "1c8c9dd237e1da08bada006910c87efc", "fusion_lat": 0.0}, {"lon": -76.932168, "name": "dcc976578fdf0952e062099f1a17ac1b", "is_disabled": 0, "type": "electric_scooter", "is_reserved": 0, "fusion_lon": 0.0, "lat": 38.89667333333333, "rental_uris": {"ios": "https://dc.lft.to/lastmile_qr_scan", "android": "https://dc.lft.to/lastmile_qr_scan"}, "bike_id": "dcc976578fdf0952e062099f1a17ac1b", "fusion_lat": 0.0}, {"lon": -77.04454666666666, "name": "42b1af5f43a60d6772104fa67356c0a3", "is_disabled": 0, "type": "electric_scooter", "is_reserved": 0, "fusion_lon": 0.0, "lat": 38.9153885, "rental_uris": {"ios": "https://dc.lft.to/lastmile_qr_scan", "android": "https://dc.lft.to/lastmile_qr_scan"}, "bike_id": "42b1af5f43a60d6772104fa67356c0a3", "fusion_lat": 0.0}, {"lon": -77.01975516666667, "name": "b25f77c6dfe393edbc510792d9f84e53", "is_disabled": 0, "type": "electric_bike", "is_reserved": 0, "fusion_lon": 0.0, "lat": 38.96382233333333, "rental_uris": {"ios": "https://dc.lft.to/lastmile_qr_scan", "android": "https://dc.lft.to/lastmile_qr_scan"}, "bike_id": "b25f77c6dfe393edbc510792d9f84e53", "fusion_lat": 0.0}, {"lon": -76.9570135, "name": "3090347f5e482e04a25f9ae1bd3a6562", "is_disabled": 0, "type": "electric_bike", "is_reserved": 0, "fusion_lon": 0.0, "lat": 38.888761, "rental_uris": {"ios": "https://dc.lft.to/lastmile_qr_scan", "android": "https://dc.lft.to/lastmile_qr_scan"}, "bike_id": "3090347f5e482e04a25f9ae1bd3a6562", "fusion_lat": 0.0}, {"lon": -76.93242566666666, "name": "037ca726750e7645295cc8428164fb97", "is_disabled": 0, "type": "electric_bike", "is_reserved": 0, "fusion_lon": 0.0, "lat": 38.88282433333333, "rental_uris": {"ios": "https://dc.lft.to/lastmile_qr_scan", "android": "https://dc.lft.to/lastmile_qr_scan"}, "bike_id": "037ca726750e7645295cc8428164fb97", "fusion_lat": 0.0}, {"lon": -77.03869283333333, "name": "fee0e2c54ab4f954ea6e0172026f87ac", "is_disabled": 0, "type": "electric_scooter", "is_reserved": 0, "fusion_lon": 0.0, "lat": 38.921494, "rental_uris": {"ios": "https://dc.lft.to/lastmile_qr_scan", "android": "https://dc.lft.to/lastmile_qr_scan"}, "bike_id": "fee0e2c54ab4f954ea6e0172026f87ac", "fusion_lat": 0.0}, {"lon": -77.02545866666667, "name": "6ae106763efdb86e3c03676b724bf788", "is_disabled": 0, "type": "electric_scooter", "is_reserved": 0, "fusion_lon": 0.0, "lat": 38.93991583333333, "rental_uris": {"ios": "https://dc.lft.to/lastmile_qr_scan", "android": "https://dc.lft.to/lastmile_qr_scan"}, "bike_id": "6ae106763efdb86e3c03676b724bf788", "fusion_lat": 0.0}, {"lon": -77.0240415, "name": "bb11f4a713544f456b0ab622233e6d80", "is_disabled": 0, "type": "electric_scooter", "is_reserved": 0, "fusion_lon": 0.0, "lat": 38.90408083333333, "rental_uris": {"ios": "https://dc.lft.to/lastmile_qr_scan", "android": "https://dc.lft.to/lastmile_qr_scan"}, "bike_id": "bb11f4a713544f456b0ab622233e6d80", "fusion_lat": 0.0}, {"lon": -77.0529765, "name": "b19db73618cecbb92ffcf5e7dbd12114", "is_disabled": 0, "type": "electric_scooter", "is_reserved": 0, "fusion_lon": 0.0, "lat": 38.925509, "rental_uris": {"ios": "https://dc.lft.to/lastmile_qr_scan", "android": "https://dc.lft.to/lastmile_qr_scan"}, "bike_id": "b19db73618cecbb92ffcf5e7dbd12114", "fusion_lat": 0.0}, {"lon": -77.06376333333333, "name": "811f8e21d5a04dc38660d0d385e75035", "is_disabled": 0, "type": "electric_scooter", "is_reserved": 0, "fusion_lon": 0.0, "lat": 38.90852566666667, "rental_uris": {"ios": "https://dc.lft.to/lastmile_qr_scan", "android": "https://dc.lft.to/lastmile_qr_scan"}, "bike_id": "811f8e21d5a04dc38660d0d385e75035", "fusion_lat": 0.0}, {"lon": -77.0197715, "name": "5b925f00cffd6b61bb133aad0de024c8", "is_disabled": 0, "type": "electric_scooter", "is_reserved": 0, "fusion_lon": 0.0, "lat": 38.93014983333333, "rental_uris": {"ios": "https://dc.lft.to/lastmile_qr_scan", "android": "https://dc.lft.to/lastmile_qr_scan"}, "bike_id": "5b925f00cffd6b61bb133aad0de024c8", "fusion_lat": 0.0}, {"lon": -77.02215166666667, "name": "36e8bf96db0b21eada1134c2f837de91", "is_disabled": 0, "type": "electric_scooter", "is_reserved": 0, "fusion_lon": 0.0, "lat": 38.9126465, "rental_uris": {"ios": "https://dc.lft.to/lastmile_qr_scan", "android": "https://dc.lft.to/lastmile_qr_scan"}, "bike_id": "36e8bf96db0b21eada1134c2f837de91", "fusion_lat": 0.0}, {"lon": -77.027689, "name": "51888f47ccc9792a1993ff7c893b6b9c", "is_disabled": 0, "type": "electric_scooter", "is_reserved": 0, "fusion_lon": 0.0, "lat": 38.9542125, "rental_uris": {"ios": "https://dc.lft.to/lastmile_qr_scan", "android": "https://dc.lft.to/lastmile_qr_scan"}, "bike_id": "51888f47ccc9792a1993ff7c893b6b9c", "fusion_lat": 0.0}, {"lon": -77.02214566666666, "name": "ab07aca10d5bf06ef0e5bc46259a6bd6", "is_disabled": 0, "type": "electric_scooter", "is_reserved": 0, "fusion_lon": 0.0, "lat": 38.912704833333336, "rental_uris": {"ios": "https://dc.lft.to/lastmile_qr_scan", "android": "https://dc.lft.to/lastmile_qr_scan"}, "bike_id": "ab07aca10d5bf06ef0e5bc46259a6bd6", "fusion_lat": 0.0}, {"lon": -77.032176, "name": "ebc0e5ab5d99e200258ba664959a1f90", "is_disabled": 0, "type": "electric_scooter", "is_reserved": 0, "fusion_lon": 0.0, "lat": 38.917105, "rental_uris": {"ios": "https://dc.lft.to/lastmile_qr_scan", "android": "https://dc.lft.to/lastmile_qr_scan"}, "bike_id": "ebc0e5ab5d99e200258ba664959a1f90", "fusion_lat": 0.0}, {"lon": -77.02370533333334, "name": "4d2495b9e8a472411df8e0db4a354077", "is_disabled": 0, "type": "electric_scooter", "is_reserved": 0, "fusion_lon": 0.0, "lat": 38.90202883333333, "rental_uris": {"ios": "https://dc.lft.to/lastmile_qr_scan", "android": "https://dc.lft.to/lastmile_qr_scan"}, "bike_id": "4d2495b9e8a472411df8e0db4a354077", "fusion_lat": 0.0}, {"lon": -77.04336516666666, "name": "d4adb614ac72d0c3f1467d00552c730d", "is_disabled": 0, "type": "electric_scooter", "is_reserved": 0, "fusion_lon": 0.0, "lat": 38.92498833333333, "rental_uris": {"ios": "https://dc.lft.to/lastmile_qr_scan", "android": "https://dc.lft.to/lastmile_qr_scan"}, "bike_id": "d4adb614ac72d0c3f1467d00552c730d", "fusion_lat": 0.0}, {"lon": -77.04174283333333, "name": "80568aaa0f094d1b4ad61d6f06205112", "is_disabled": 0, "type": "electric_scooter", "is_reserved": 0, "fusion_lon": 0.0, "lat": 38.91703316666667, "rental_uris": {"ios": "https://dc.lft.to/lastmile_qr_scan", "android": "https://dc.lft.to/lastmile_qr_scan"}, "bike_id": "80568aaa0f094d1b4ad61d6f06205112", "fusion_lat": 0.0}, {"lon": -77.024343, "name": "5d37f44140f6b3b24636b86f4743dfc7", "is_disabled": 0, "type": "electric_scooter", "is_reserved": 0, "fusion_lon": 0.0, "lat": 38.920502166666665, "rental_uris": {"ios": "https://dc.lft.to/lastmile_qr_scan", "android": "https://dc.lft.to/lastmile_qr_scan"}, "bike_id": "5d37f44140f6b3b24636b86f4743dfc7", "fusion_lat": 0.0}, {"lon": -77.01954066666667, "name": "e567c37a9887d101bec818913afda5b7", "is_disabled": 0, "type": "electric_scooter", "is_reserved": 0, "fusion_lon": 0.0, "lat": 38.92364966666667, "rental_uris": {"ios": "https://dc.lft.to/lastmile_qr_scan", "android": "https://dc.lft.to/lastmile_qr_scan"}, "bike_id": "e567c37a9887d101bec818913afda5b7", "fusion_lat": 0.0}, {"lon": -76.98841766666666, "name": "d5cc8ef8ddb610e5d44f7b80e875373e", "is_disabled": 0, "type": "electric_scooter", "is_reserved": 0, "fusion_lon": 0.0, "lat": 38.93475166666666, "rental_uris": {"ios": "https://dc.lft.to/lastmile_qr_scan", "android": "https://dc.lft.to/lastmile_qr_scan"}, "bike_id": "d5cc8ef8ddb610e5d44f7b80e875373e", "fusion_lat": 0.0}, {"lon": -77.00194766666667, "name": "71378b13048f6ed11c375d0e29e029ff", "is_disabled": 0, "type": "electric_scooter", "is_reserved": 0, "fusion_lon": 0.0, "lat": 38.900266333333335, "rental_uris": {"ios": "https://dc.lft.to/lastmile_qr_scan", "android": "https://dc.lft.to/lastmile_qr_scan"}, "bike_id": "71378b13048f6ed11c375d0e29e029ff", "fusion_lat": 0.0}, {"lon": -77.02536, "name": "d68e317174de8d593313f54b6f3f1f9b", "is_disabled": 0, "type": "electric_scooter", "is_reserved": 0, "fusion_lon": 0.0, "lat": 38.892219, "rental_uris": {"ios": "https://dc.lft.to/lastmile_qr_scan", "android": "https://dc.lft.to/lastmile_qr_scan"}, "bike_id": "d68e317174de8d593313f54b6f3f1f9b", "fusion_lat": 0.0}, {"lon": -77.04558333333334, "name": "bf2d601b46d6645df91e2dbe6e0fecb2", "is_disabled": 0, "type": "electric_scooter", "is_reserved": 0, "fusion_lon": 0.0, "lat": 38.902309333333335, "rental_uris": {"ios": "https://dc.lft.to/lastmile_qr_scan", "android": "https://dc.lft.to/lastmile_qr_scan"}, "bike_id": "bf2d601b46d6645df91e2dbe6e0fecb2", "fusion_lat": 0.0}, {"lon": -77.03210616666667, "name": "c2c11b6c40671830fff7c76f8c413def", "is_disabled": 0, "type": "electric_scooter", "is_reserved": 0, "fusion_lon": 0.0, "lat": 38.9165895, "rental_uris": {"ios": "https://dc.lft.to/lastmile_qr_scan", "android": "https://dc.lft.to/lastmile_qr_scan"}, "bike_id": "c2c11b6c40671830fff7c76f8c413def", "fusion_lat": 0.0}, {"lon": -77.02673333333334, "name": "25386afadb07b03da16f0fb23db28231", "is_disabled": 0, "type": "electric_scooter", "is_reserved": 0, "fusion_lon": 0.0, "lat": 38.92170766666667, "rental_uris": {"ios": "https://dc.lft.to/lastmile_qr_scan", "android": "https://dc.lft.to/lastmile_qr_scan"}, "bike_id": "25386afadb07b03da16f0fb23db28231", "fusion_lat": 0.0}, {"lon": -77.01360016666666, "name": "c859df1693060893d77848d0389849b8", "is_disabled": 0, "type": "electric_scooter", "is_reserved": 0, "fusion_lon": 0.0, "lat": 38.9286605, "rental_uris": {"ios": "https://dc.lft.to/lastmile_qr_scan", "android": "https://dc.lft.to/lastmile_qr_scan"}, "bike_id": "c859df1693060893d77848d0389849b8", "fusion_lat": 0.0}, {"lon": -77.0575075, "name": "401cec9971e763a35bffde9899c24acc", "is_disabled": 0, "type": "electric_scooter", "is_reserved": 0, "fusion_lon": 0.0, "lat": 38.9247915, "rental_uris": {"ios": "https://dc.lft.to/lastmile_qr_scan", "android": "https://dc.lft.to/lastmile_qr_scan"}, "bike_id": "401cec9971e763a35bffde9899c24acc", "fusion_lat": 0.0}, {"lon": -77.057095, "name": "6e936339f39c840558d33e378cbc1930", "is_disabled": 0, "type": "electric_scooter", "is_reserved": 0, "fusion_lon": 0.0, "lat": 38.926005333333336, "rental_uris": {"ios": "https://dc.lft.to/lastmile_qr_scan", "android": "https://dc.lft.to/lastmile_qr_scan"}, "bike_id": "6e936339f39c840558d33e378cbc1930", "fusion_lat": 0.0}, {"lon": -77.04161716666667, "name": "372b1dadcfbb3b9f4f8efb94a071abdf", "is_disabled": 0, "type": "electric_scooter", "is_reserved": 0, "fusion_lon": 0.0, "lat": 38.907357166666664, "rental_uris": {"ios": "https://dc.lft.to/lastmile_qr_scan", "android": "https://dc.lft.to/lastmile_qr_scan"}, "bike_id": "372b1dadcfbb3b9f4f8efb94a071abdf", "fusion_lat": 0.0}, {"lon": -77.02397366666666, "name": "0c17d3341e1b3b774ad94e891d3a4d45", "is_disabled": 0, "type": "electric_scooter", "is_reserved": 0, "fusion_lon": 0.0, "lat": 38.916171166666665, "rental_uris": {"ios": "https://dc.lft.to/lastmile_qr_scan", "android": "https://dc.lft.to/lastmile_qr_scan"}, "bike_id": "0c17d3341e1b3b774ad94e891d3a4d45", "fusion_lat": 0.0}, {"lon": -77.03578533333334, "name": "b692d45334632f25ac7944deab116993", "is_disabled": 0, "type": "electric_scooter", "is_reserved": 0, "fusion_lon": 0.0, "lat": 38.926893, "rental_uris": {"ios": "https://dc.lft.to/lastmile_qr_scan", "android": "https://dc.lft.to/lastmile_qr_scan"}, "bike_id": "b692d45334632f25ac7944deab116993", "fusion_lat": 0.0}, {"lon": -77.05004083333333, "name": "36c0a3cdfe378da69169905404b31a30", "is_disabled": 0, "type": "electric_scooter", "is_reserved": 0, "fusion_lon": 0.0, "lat": 38.89227966666667, "rental_uris": {"ios": "https://dc.lft.to/lastmile_qr_scan", "android": "https://dc.lft.to/lastmile_qr_scan"}, "bike_id": "36c0a3cdfe378da69169905404b31a30", "fusion_lat": 0.0}, {"lon": -77.0215165, "name": "d6cb6fd3e05d560258545beee01a929a", "is_disabled": 0, "type": "electric_scooter", "is_reserved": 0, "fusion_lon": 0.0, "lat": 38.92605566666667, "rental_uris": {"ios": "https://dc.lft.to/lastmile_qr_scan", "android": "https://dc.lft.to/lastmile_qr_scan"}, "bike_id": "d6cb6fd3e05d560258545beee01a929a", "fusion_lat": 0.0}, {"lon": -76.99073116666666, "name": "f38794cfa9f73dfaea8630f91fbf36cb", "is_disabled": 0, "type": "electric_bike", "is_reserved": 0, "fusion_lon": 0.0, "lat": 38.89820116666667, "rental_uris": {"ios": "https://dc.lft.to/lastmile_qr_scan", "android": "https://dc.lft.to/lastmile_qr_scan"}, "bike_id": "f38794cfa9f73dfaea8630f91fbf36cb", "fusion_lat": 0.0}, {"lon": -77.01951633333333, "name": "dc6f2ed1b0413c7ce347699c35f34803", "is_disabled": 0, "type": "electric_scooter", "is_reserved": 0, "fusion_lon": 0.0, "lat": 38.92421816666667, "rental_uris": {"ios": "https://dc.lft.to/lastmile_qr_scan", "android": "https://dc.lft.to/lastmile_qr_scan"}, "bike_id": "dc6f2ed1b0413c7ce347699c35f34803", "fusion_lat": 0.0}, {"lon": -77.031836, "name": "8cd4d9149ce06a7dad1f32adb5b92810", "is_disabled": 0, "type": "electric_scooter", "is_reserved": 0, "fusion_lon": 0.0, "lat": 38.91940133333333, "rental_uris": {"ios": "https://dc.lft.to/lastmile_qr_scan", "android": "https://dc.lft.to/lastmile_qr_scan"}, "bike_id": "8cd4d9149ce06a7dad1f32adb5b92810", "fusion_lat": 0.0}, {"lon": -77.04186933333334, "name": "d3e09b0fa50a4ef0eccf385fd1fe9df1", "is_disabled": 0, "type": "electric_scooter", "is_reserved": 0, "fusion_lon": 0.0, "lat": 38.92049633333333, "rental_uris": {"ios": "https://dc.lft.to/lastmile_qr_scan", "android": "https://dc.lft.to/lastmile_qr_scan"}, "bike_id": "d3e09b0fa50a4ef0eccf385fd1fe9df1", "fusion_lat": 0.0}, {"lon": -77.0121725, "name": "05d3d4db63824af32da278ac45cd1000", "is_disabled": 0, "type": "electric_scooter", "is_reserved": 0, "fusion_lon": 0.0, "lat": 38.9144185, "rental_uris": {"ios": "https://dc.lft.to/lastmile_qr_scan", "android": "https://dc.lft.to/lastmile_qr_scan"}, "bike_id": "05d3d4db63824af32da278ac45cd1000", "fusion_lat": 0.0}, {"lon": -77.02255883333333, "name": "545db8a643b71897099548e87e4132fe", "is_disabled": 0, "type": "electric_scooter", "is_reserved": 0, "fusion_lon": 0.0, "lat": 38.894640333333335, "rental_uris": {"ios": "https://dc.lft.to/lastmile_qr_scan", "android": "https://dc.lft.to/lastmile_qr_scan"}, "bike_id": "545db8a643b71897099548e87e4132fe", "fusion_lat": 0.0}, {"lon": -77.00337033333334, "name": "5fd9e32510dbfe73bbdbc48e54bb9a75", "is_disabled": 0, "type": "electric_bike", "is_reserved": 0, "fusion_lon": 0.0, "lat": 38.92018783333333, "rental_uris": {"ios": "https://dc.lft.to/lastmile_qr_scan", "android": "https://dc.lft.to/lastmile_qr_scan"}, "bike_id": "5fd9e32510dbfe73bbdbc48e54bb9a75", "fusion_lat": 0.0}, {"lon": -77.04469416666667, "name": "b174cf1885290f14c6f64246556e608d", "is_disabled": 0, "type": "electric_scooter", "is_reserved": 0, "fusion_lon": 0.0, "lat": 38.915354666666666, "rental_uris": {"ios": "https://dc.lft.to/lastmile_qr_scan", "android": "https://dc.lft.to/lastmile_qr_scan"}, "bike_id": "b174cf1885290f14c6f64246556e608d", "fusion_lat": 0.0}, {"lon": -76.9790845, "name": "9bcdaa6a90530451ed631c6b627e1d7e", "is_disabled": 0, "type": "electric_scooter", "is_reserved": 0, "fusion_lon": 0.0, "lat": 38.888595, "rental_uris": {"ios": "https://dc.lft.to/lastmile_qr_scan", "android": "https://dc.lft.to/lastmile_qr_scan"}, "bike_id": "9bcdaa6a90530451ed631c6b627e1d7e", "fusion_lat": 0.0}, {"lon": -77.0770135, "name": "23cb13826e6d27b675efc02746d66463", "is_disabled": 0, "type": "electric_scooter", "is_reserved": 0, "fusion_lon": 0.0, "lat": 38.922473, "rental_uris": {"ios": "https://dc.lft.to/lastmile_qr_scan", "android": "https://dc.lft.to/lastmile_qr_scan"}, "bike_id": "23cb13826e6d27b675efc02746d66463", "fusion_lat": 0.0}, {"lon": -77.021897, "name": "c02b6500b1705be43a40377986f08768", "is_disabled": 0, "type": "electric_scooter", "is_reserved": 0, "fusion_lon": 0.0, "lat": 38.915421, "rental_uris": {"ios": "https://dc.lft.to/lastmile_qr_scan", "android": "https://dc.lft.to/lastmile_qr_scan"}, "bike_id": "c02b6500b1705be43a40377986f08768", "fusion_lat": 0.0}, {"lon": -77.0033675, "name": "3f31047d5698900735e893e73bfb3aaa", "is_disabled": 0, "type": "electric_scooter", "is_reserved": 0, "fusion_lon": 0.0, "lat": 38.89358583333333, "rental_uris": {"ios": "https://dc.lft.to/lastmile_qr_scan", "android": "https://dc.lft.to/lastmile_qr_scan"}, "bike_id": "3f31047d5698900735e893e73bfb3aaa", "fusion_lat": 0.0}, {"lon": -77.02364666666666, "name": "0fd4590366b71998920f663aae3daeea", "is_disabled": 0, "type": "electric_scooter", "is_reserved": 0, "fusion_lon": 0.0, "lat": 38.908596, "rental_uris": {"ios": "https://dc.lft.to/lastmile_qr_scan", "android": "https://dc.lft.to/lastmile_qr_scan"}, "bike_id": "0fd4590366b71998920f663aae3daeea", "fusion_lat": 0.0}, {"lon": -77.002075, "name": "6c41596a9781271edde0c2db6b916f82", "is_disabled": 0, "type": "electric_scooter", "is_reserved": 0, "fusion_lon": 0.0, "lat": 38.90791433333333, "rental_uris": {"ios": "https://dc.lft.to/lastmile_qr_scan", "android": "https://dc.lft.to/lastmile_qr_scan"}, "bike_id": "6c41596a9781271edde0c2db6b916f82", "fusion_lat": 0.0}, {"lon": -77.2341165, "name": "cb680e797a248b57aa2634579dae8fe9", "is_disabled": 0, "type": "electric_bike", "is_reserved": 0, "fusion_lon": 0.0, "lat": 38.875784833333334, "rental_uris": {"ios": "https://dc.lft.to/lastmile_qr_scan", "android": "https://dc.lft.to/lastmile_qr_scan"}, "bike_id": "cb680e797a248b57aa2634579dae8fe9", "fusion_lat": 0.0}, {"lon": -76.939306, "name": "4f64aeed24fea7438c29aedcbe56d30e", "is_disabled": 0, "type": "electric_scooter", "is_reserved": 0, "fusion_lon": 0.0, "lat": 38.893283, "rental_uris": {"ios": "https://dc.lft.to/lastmile_qr_scan", "android": "https://dc.lft.to/lastmile_qr_scan"}, "bike_id": "4f64aeed24fea7438c29aedcbe56d30e", "fusion_lat": 0.0}, {"lon": -77.04302733333333, "name": "280ba42d7f02ce2ab7441260b9e9700b", "is_disabled": 0, "type": "electric_scooter", "is_reserved": 0, "fusion_lon": 0.0, "lat": 38.92391116666667, "rental_uris": {"ios": "https://dc.lft.to/lastmile_qr_scan", "android": "https://dc.lft.to/lastmile_qr_scan"}, "bike_id": "280ba42d7f02ce2ab7441260b9e9700b", "fusion_lat": 0.0}, {"lon": -77.0056845, "name": "e4334d98ab0b7cf92a5b1dddc0b72144", "is_disabled": 0, "type": "electric_scooter", "is_reserved": 0, "fusion_lon": 0.0, "lat": 38.88501866666667, "rental_uris": {"ios": "https://dc.lft.to/lastmile_qr_scan", "android": "https://dc.lft.to/lastmile_qr_scan"}, "bike_id": "e4334d98ab0b7cf92a5b1dddc0b72144", "fusion_lat": 0.0}, {"lon": -77.0197255, "name": "9c0a15e9010b1fe2ce847b4db654095c", "is_disabled": 0, "type": "electric_scooter", "is_reserved": 0, "fusion_lon": 0.0, "lat": 38.878452, "rental_uris": {"ios": "https://dc.lft.to/lastmile_qr_scan", "android": "https://dc.lft.to/lastmile_qr_scan"}, "bike_id": "9c0a15e9010b1fe2ce847b4db654095c", "fusion_lat": 0.0}, {"lon": -76.99574133333333, "name": "6db08da060c60a9fae0ba16b4058f575", "is_disabled": 0, "type": "electric_bike", "is_reserved": 0, "fusion_lon": 0.0, "lat": 38.8315725, "rental_uris": {"ios": "https://dc.lft.to/lastmile_qr_scan", "android": "https://dc.lft.to/lastmile_qr_scan"}, "bike_id": "6db08da060c60a9fae0ba16b4058f575", "fusion_lat": 0.0}, {"lon": -77.0325905, "name": "9a7e296f3905f5de5638619548483d28", "is_disabled": 0, "type": "electric_scooter", "is_reserved": 0, "fusion_lon": 0.0, "lat": 38.93254066666667, "rental_uris": {"ios": "https://dc.lft.to/lastmile_qr_scan", "android": "https://dc.lft.to/lastmile_qr_scan"}, "bike_id": "9a7e296f3905f5de5638619548483d28", "fusion_lat": 0.0}, {"lon": -77.02487716666667, "name": "de89873261b545a10c632ee8aba36dc0", "is_disabled": 0, "type": "electric_scooter", "is_reserved": 0, "fusion_lon": 0.0, "lat": 38.91815666666667, "rental_uris": {"ios": "https://dc.lft.to/lastmile_qr_scan", "android": "https://dc.lft.to/lastmile_qr_scan"}, "bike_id": "de89873261b545a10c632ee8aba36dc0", "fusion_lat": 0.0}, {"lon": -77.00913616666666, "name": "af8cac9fc427e94e2ec88146f5475f8d", "is_disabled": 0, "type": "electric_scooter", "is_reserved": 0, "fusion_lon": 0.0, "lat": 38.900765166666666, "rental_uris": {"ios": "https://dc.lft.to/lastmile_qr_scan", "android": "https://dc.lft.to/lastmile_qr_scan"}, "bike_id": "af8cac9fc427e94e2ec88146f5475f8d", "fusion_lat": 0.0}, {"lon": -77.04004966666666, "name": "66cceedc96a35dd7285da0f4b01b9ff6", "is_disabled": 0, "type": "electric_scooter", "is_reserved": 0, "fusion_lon": 0.0, "lat": 38.91694966666667, "rental_uris": {"ios": "https://dc.lft.to/lastmile_qr_scan", "android": "https://dc.lft.to/lastmile_qr_scan"}, "bike_id": "66cceedc96a35dd7285da0f4b01b9ff6", "fusion_lat": 0.0}, {"lon": -77.029797, "name": "cb3cfd8434b4954d7cfb45b6bd53eeb0", "is_disabled": 0, "type": "electric_scooter", "is_reserved": 0, "fusion_lon": 0.0, "lat": 38.943520166666666, "rental_uris": {"ios": "https://dc.lft.to/lastmile_qr_scan", "android": "https://dc.lft.to/lastmile_qr_scan"}, "bike_id": "cb3cfd8434b4954d7cfb45b6bd53eeb0", "fusion_lat": 0.0}, {"lon": -77.00291333333334, "name": "4d9c5dc03df2ba2e353bad90789a0ea7", "is_disabled": 0, "type": "electric_scooter", "is_reserved": 0, "fusion_lon": 0.0, "lat": 38.892301333333336, "rental_uris": {"ios": "https://dc.lft.to/lastmile_qr_scan", "android": "https://dc.lft.to/lastmile_qr_scan"}, "bike_id": "4d9c5dc03df2ba2e353bad90789a0ea7", "fusion_lat": 0.0}, {"lon": -77.047225, "name": "b52c3147cf149002262af1f64f7cb95f", "is_disabled": 0, "type": "electric_scooter", "is_reserved": 0, "fusion_lon": 0.0, "lat": 38.899687166666666, "rental_uris": {"ios": "https://dc.lft.to/lastmile_qr_scan", "android": "https://dc.lft.to/lastmile_qr_scan"}, "bike_id": "b52c3147cf149002262af1f64f7cb95f", "fusion_lat": 0.0}, {"lon": -77.0044505, "name": "9937235323c44e734177397154da7d93", "is_disabled": 0, "type": "electric_scooter", "is_reserved": 0, "fusion_lon": 0.0, "lat": 38.878254, "rental_uris": {"ios": "https://dc.lft.to/lastmile_qr_scan", "android": "https://dc.lft.to/lastmile_qr_scan"}, "bike_id": "9937235323c44e734177397154da7d93", "fusion_lat": 0.0}, {"lon": -77.02081066666666, "name": "cd4ba7f56c1b1cccc4fc8ea0b7eaa223", "is_disabled": 0, "type": "electric_scooter", "is_reserved": 0, "fusion_lon": 0.0, "lat": 38.921489, "rental_uris": {"ios": "https://dc.lft.to/lastmile_qr_scan", "android": "https://dc.lft.to/lastmile_qr_scan"}, "bike_id": "cd4ba7f56c1b1cccc4fc8ea0b7eaa223", "fusion_lat": 0.0}, {"lon": -76.98490683333333, "name": "798fae2a925f8a8389920afb8d1145ba", "is_disabled": 0, "type": "electric_scooter", "is_reserved": 0, "fusion_lon": 0.0, "lat": 38.920331166666664, "rental_uris": {"ios": "https://dc.lft.to/lastmile_qr_scan", "android": "https://dc.lft.to/lastmile_qr_scan"}, "bike_id": "798fae2a925f8a8389920afb8d1145ba", "fusion_lat": 0.0}, {"lon": -77.02213983333333, "name": "a3df7eea1f5d249258ec9f936ebae1b4", "is_disabled": 0, "type": "electric_scooter", "is_reserved": 0, "fusion_lon": 0.0, "lat": 38.912700666666666, "rental_uris": {"ios": "https://dc.lft.to/lastmile_qr_scan", "android": "https://dc.lft.to/lastmile_qr_scan"}, "bike_id": "a3df7eea1f5d249258ec9f936ebae1b4", "fusion_lat": 0.0}, {"lon": -77.00211183333333, "name": "22e16fc263205b6205ba7865647d5e9a", "is_disabled": 0, "type": "electric_scooter", "is_reserved": 0, "fusion_lon": 0.0, "lat": 38.8980555, "rental_uris": {"ios": "https://dc.lft.to/lastmile_qr_scan", "android": "https://dc.lft.to/lastmile_qr_scan"}, "bike_id": "22e16fc263205b6205ba7865647d5e9a", "fusion_lat": 0.0}, {"lon": -77.02512766666666, "name": "9c095cf4894a428996bf0f6e9ea7142f", "is_disabled": 0, "type": "electric_scooter", "is_reserved": 0, "fusion_lon": 0.0, "lat": 38.9207975, "rental_uris": {"ios": "https://dc.lft.to/lastmile_qr_scan", "android": "https://dc.lft.to/lastmile_qr_scan"}, "bike_id": "9c095cf4894a428996bf0f6e9ea7142f", "fusion_lat": 0.0}, {"lon": -77.01366133333333, "name": "dca1b8b53a62ea595e75d419b0e0e0f1", "is_disabled": 0, "type": "electric_scooter", "is_reserved": 0, "fusion_lon": 0.0, "lat": 38.913275166666665, "rental_uris": {"ios": "https://dc.lft.to/lastmile_qr_scan", "android": "https://dc.lft.to/lastmile_qr_scan"}, "bike_id": "dca1b8b53a62ea595e75d419b0e0e0f1", "fusion_lat": 0.0}, {"lon": -77.0350665, "name": "82734830d09665bd70027d30faea94fc", "is_disabled": 0, "type": "electric_scooter", "is_reserved": 0, "fusion_lon": 0.0, "lat": 38.90134616666667, "rental_uris": {"ios": "https://dc.lft.to/lastmile_qr_scan", "android": "https://dc.lft.to/lastmile_qr_scan"}, "bike_id": "82734830d09665bd70027d30faea94fc", "fusion_lat": 0.0}, {"lon": -77.0471945, "name": "4c9ccf2142c8c27ad5e815a3fd7ffd02", "is_disabled": 0, "type": "electric_scooter", "is_reserved": 0, "fusion_lon": 0.0, "lat": 38.89974983333333, "rental_uris": {"ios": "https://dc.lft.to/lastmile_qr_scan", "android": "https://dc.lft.to/lastmile_qr_scan"}, "bike_id": "4c9ccf2142c8c27ad5e815a3fd7ffd02", "fusion_lat": 0.0}, {"lon": -77.02796883333333, "name": "fa0eeb82ea3a8002f18ac5b358b6c2fa", "is_disabled": 0, "type": "electric_scooter", "is_reserved": 0, "fusion_lon": 0.0, "lat": 38.93081333333333, "rental_uris": {"ios": "https://dc.lft.to/lastmile_qr_scan", "android": "https://dc.lft.to/lastmile_qr_scan"}, "bike_id": "fa0eeb82ea3a8002f18ac5b358b6c2fa", "fusion_lat": 0.0}, {"lon": -77.04020183333333, "name": "dccb387fe2660f037886da8b418fcfb8", "is_disabled": 0, "type": "electric_scooter", "is_reserved": 0, "fusion_lon": 0.0, "lat": 38.92172816666667, "rental_uris": {"ios": "https://dc.lft.to/lastmile_qr_scan", "android": "https://dc.lft.to/lastmile_qr_scan"}, "bike_id": "dccb387fe2660f037886da8b418fcfb8", "fusion_lat": 0.0}, {"lon": -76.99018683333334, "name": "c2841d1d1358f640abd849bf52b28b25", "is_disabled": 0, "type": "electric_scooter", "is_reserved": 0, "fusion_lon": 0.0, "lat": 38.86515216666667, "rental_uris": {"ios": "https://dc.lft.to/lastmile_qr_scan", "android": "https://dc.lft.to/lastmile_qr_scan"}, "bike_id": "c2841d1d1358f640abd849bf52b28b25", "fusion_lat": 0.0}, {"lon": -77.03295666666666, "name": "a901d87dc3d550e128190f77baab660f", "is_disabled": 0, "type": "electric_scooter", "is_reserved": 0, "fusion_lon": 0.0, "lat": 38.92052233333333, "rental_uris": {"ios": "https://dc.lft.to/lastmile_qr_scan", "android": "https://dc.lft.to/lastmile_qr_scan"}, "bike_id": "a901d87dc3d550e128190f77baab660f", "fusion_lat": 0.0}, {"lon": -77.02745366666667, "name": "c0531fc7f3b7a81a6998fc0341c3b456", "is_disabled": 0, "type": "electric_scooter", "is_reserved": 0, "fusion_lon": 0.0, "lat": 38.96649716666667, "rental_uris": {"ios": "https://dc.lft.to/lastmile_qr_scan", "android": "https://dc.lft.to/lastmile_qr_scan"}, "bike_id": "c0531fc7f3b7a81a6998fc0341c3b456", "fusion_lat": 0.0}, {"lon": -77.02361533333334, "name": "43471b272656503c5c1e454f5486447d", "is_disabled": 0, "type": "electric_scooter", "is_reserved": 0, "fusion_lon": 0.0, "lat": 38.9086385, "rental_uris": {"ios": "https://dc.lft.to/lastmile_qr_scan", "android": "https://dc.lft.to/lastmile_qr_scan"}, "bike_id": "43471b272656503c5c1e454f5486447d", "fusion_lat": 0.0}, {"lon": -77.00895916666667, "name": "ac026fae096a9bfc31e46bb2f20dd111", "is_disabled": 0, "type": "electric_scooter", "is_reserved": 0, "fusion_lon": 0.0, "lat": 38.909510833333336, "rental_uris": {"ios": "https://dc.lft.to/lastmile_qr_scan", "android": "https://dc.lft.to/lastmile_qr_scan"}, "bike_id": "ac026fae096a9bfc31e46bb2f20dd111", "fusion_lat": 0.0}, {"lon": -77.01379933333334, "name": "d7a09bbc17298343a57bbcee6ead4e39", "is_disabled": 0, "type": "electric_scooter", "is_reserved": 0, "fusion_lon": 0.0, "lat": 38.910358, "rental_uris": {"ios": "https://dc.lft.to/lastmile_qr_scan", "android": "https://dc.lft.to/lastmile_qr_scan"}, "bike_id": "d7a09bbc17298343a57bbcee6ead4e39", "fusion_lat": 0.0}, {"lon": -76.99010333333334, "name": "09161255db1464a6ea9e4c2a8b3016b9", "is_disabled": 0, "type": "electric_scooter", "is_reserved": 0, "fusion_lon": 0.0, "lat": 38.90389066666667, "rental_uris": {"ios": "https://dc.lft.to/lastmile_qr_scan", "android": "https://dc.lft.to/lastmile_qr_scan"}, "bike_id": "09161255db1464a6ea9e4c2a8b3016b9", "fusion_lat": 0.0}, {"lon": -77.0403565, "name": "3f9e90565822c8593a7aed7b2bf299df", "is_disabled": 0, "type": "electric_scooter", "is_reserved": 0, "fusion_lon": 0.0, "lat": 38.90365933333333, "rental_uris": {"ios": "https://dc.lft.to/lastmile_qr_scan", "android": "https://dc.lft.to/lastmile_qr_scan"}, "bike_id": "3f9e90565822c8593a7aed7b2bf299df", "fusion_lat": 0.0}, {"lon": -77.00377783333333, "name": "310c0b80c312fa403a7d2ca2b7e0ebc9", "is_disabled": 0, "type": "electric_bike", "is_reserved": 0, "fusion_lon": 0.0, "lat": 38.836046, "rental_uris": {"ios": "https://dc.lft.to/lastmile_qr_scan", "android": "https://dc.lft.to/lastmile_qr_scan"}, "bike_id": "310c0b80c312fa403a7d2ca2b7e0ebc9", "fusion_lat": 0.0}, {"lon": -77.03340016666667, "name": "eec451395b961f8266e61af370a9d3bc", "is_disabled": 0, "type": "electric_scooter", "is_reserved": 0, "fusion_lon": 0.0, "lat": 38.9180255, "rental_uris": {"ios": "https://dc.lft.to/lastmile_qr_scan", "android": "https://dc.lft.to/lastmile_qr_scan"}, "bike_id": "eec451395b961f8266e61af370a9d3bc", "fusion_lat": 0.0}, {"lon": -77.025407, "name": "b287e404a25c390522961e9629180e08", "is_disabled": 0, "type": "electric_scooter", "is_reserved": 0, "fusion_lon": 0.0, "lat": 38.922446, "rental_uris": {"ios": "https://dc.lft.to/lastmile_qr_scan", "android": "https://dc.lft.to/lastmile_qr_scan"}, "bike_id": "b287e404a25c390522961e9629180e08", "fusion_lat": 0.0}, {"lon": -77.028136, "name": "c1689add5e04ca9e43ff00057e2eb216", "is_disabled": 0, "type": "electric_scooter", "is_reserved": 0, "fusion_lon": 0.0, "lat": 38.90701033333333, "rental_uris": {"ios": "https://dc.lft.to/lastmile_qr_scan", "android": "https://dc.lft.to/lastmile_qr_scan"}, "bike_id": "c1689add5e04ca9e43ff00057e2eb216", "fusion_lat": 0.0}, {"lon": -77.03202, "name": "39ee849f1cae57f0b3fcfb0c2df94eaf", "is_disabled": 0, "type": "electric_scooter", "is_reserved": 0, "fusion_lon": 0.0, "lat": 38.9163065, "rental_uris": {"ios": "https://dc.lft.to/lastmile_qr_scan", "android": "https://dc.lft.to/lastmile_qr_scan"}, "bike_id": "39ee849f1cae57f0b3fcfb0c2df94eaf", "fusion_lat": 0.0}, {"lon": -76.99067633333334, "name": "44faf2df6128e6e1f189bc284d8ff739", "is_disabled": 0, "type": "electric_scooter", "is_reserved": 0, "fusion_lon": 0.0, "lat": 38.85623866666667, "rental_uris": {"ios": "https://dc.lft.to/lastmile_qr_scan", "android": "https://dc.lft.to/lastmile_qr_scan"}, "bike_id": "44faf2df6128e6e1f189bc284d8ff739", "fusion_lat": 0.0}, {"lon": -77.03278316666666, "name": "29d0dc4097ad54722038a244ab26c5d9", "is_disabled": 0, "type": "electric_scooter", "is_reserved": 0, "fusion_lon": 0.0, "lat": 38.89890066666667, "rental_uris": {"ios": "https://dc.lft.to/lastmile_qr_scan", "android": "https://dc.lft.to/lastmile_qr_scan"}, "bike_id": "29d0dc4097ad54722038a244ab26c5d9", "fusion_lat": 0.0}, {"lon": -76.96108983333333, "name": "fac7139c4e9226533bd84dae99662e3a", "is_disabled": 0, "type": "electric_scooter", "is_reserved": 0, "fusion_lon": 0.0, "lat": 38.89200233333333, "rental_uris": {"ios": "https://dc.lft.to/lastmile_qr_scan", "android": "https://dc.lft.to/lastmile_qr_scan"}, "bike_id": "fac7139c4e9226533bd84dae99662e3a", "fusion_lat": 0.0}, {"lon": -76.98599916666667, "name": "44c54f8661382a306a427a106b96de0d", "is_disabled": 0, "type": "electric_scooter", "is_reserved": 0, "fusion_lon": 0.0, "lat": 38.9065035, "rental_uris": {"ios": "https://dc.lft.to/lastmile_qr_scan", "android": "https://dc.lft.to/lastmile_qr_scan"}, "bike_id": "44c54f8661382a306a427a106b96de0d", "fusion_lat": 0.0}, {"lon": -76.983726, "name": "f99949e937f7ba503bd9dc6fb77639e9", "is_disabled": 0, "type": "electric_scooter", "is_reserved": 0, "fusion_lon": 0.0, "lat": 38.906546666666664, "rental_uris": {"ios": "https://dc.lft.to/lastmile_qr_scan", "android": "https://dc.lft.to/lastmile_qr_scan"}, "bike_id": "f99949e937f7ba503bd9dc6fb77639e9", "fusion_lat": 0.0}, {"lon": -77.02207383333334, "name": "47096f177256955b833202cd83f0fee2", "is_disabled": 0, "type": "electric_scooter", "is_reserved": 0, "fusion_lon": 0.0, "lat": 38.924688833333335, "rental_uris": {"ios": "https://dc.lft.to/lastmile_qr_scan", "android": "https://dc.lft.to/lastmile_qr_scan"}, "bike_id": "47096f177256955b833202cd83f0fee2", "fusion_lat": 0.0}, {"lon": -76.99796483333333, "name": "094fc00a2d3cfc180b2b63552eed5a89", "is_disabled": 0, "type": "electric_bike", "is_reserved": 0, "fusion_lon": 0.0, "lat": 38.99799333333333, "rental_uris": {"ios": "https://dc.lft.to/lastmile_qr_scan", "android": "https://dc.lft.to/lastmile_qr_scan"}, "bike_id": "094fc00a2d3cfc180b2b63552eed5a89", "fusion_lat": 0.0}, {"lon": -77.0211415, "name": "89ae55598b42178129845ee9ffbb5b56", "is_disabled": 0, "type": "electric_scooter", "is_reserved": 0, "fusion_lon": 0.0, "lat": 38.927852333333334, "rental_uris": {"ios": "https://dc.lft.to/lastmile_qr_scan", "android": "https://dc.lft.to/lastmile_qr_scan"}, "bike_id": "89ae55598b42178129845ee9ffbb5b56", "fusion_lat": 0.0}, {"lon": -77.05314516666667, "name": "411b2fdb0448b08018ef5286f8b8f22d", "is_disabled": 0, "type": "electric_scooter", "is_reserved": 0, "fusion_lon": 0.0, "lat": 38.934569833333335, "rental_uris": {"ios": "https://dc.lft.to/lastmile_qr_scan", "android": "https://dc.lft.to/lastmile_qr_scan"}, "bike_id": "411b2fdb0448b08018ef5286f8b8f22d", "fusion_lat": 0.0}, {"lon": -77.00186333333333, "name": "3cefbc0f893fba15702c1b698a09837e", "is_disabled": 0, "type": "electric_scooter", "is_reserved": 0, "fusion_lon": 0.0, "lat": 38.873848, "rental_uris": {"ios": "https://dc.lft.to/lastmile_qr_scan", "android": "https://dc.lft.to/lastmile_qr_scan"}, "bike_id": "3cefbc0f893fba15702c1b698a09837e", "fusion_lat": 0.0}, {"lon": -77.0032825, "name": "2f70112653477590918a0c8301e175c5", "is_disabled": 0, "type": "electric_scooter", "is_reserved": 0, "fusion_lon": 0.0, "lat": 38.893670166666666, "rental_uris": {"ios": "https://dc.lft.to/lastmile_qr_scan", "android": "https://dc.lft.to/lastmile_qr_scan"}, "bike_id": "2f70112653477590918a0c8301e175c5", "fusion_lat": 0.0}, {"lon": -77.0254565, "name": "53551b012c30c02806900143bbd89dd8", "is_disabled": 0, "type": "electric_scooter", "is_reserved": 0, "fusion_lon": 0.0, "lat": 38.896189666666665, "rental_uris": {"ios": "https://dc.lft.to/lastmile_qr_scan", "android": "https://dc.lft.to/lastmile_qr_scan"}, "bike_id": "53551b012c30c02806900143bbd89dd8", "fusion_lat": 0.0}, {"lon": -77.03376166666666, "name": "567bc1212d0184b9d609f1986599a44a", "is_disabled": 0, "type": "electric_scooter", "is_reserved": 0, "fusion_lon": 0.0, "lat": 38.9307535, "rental_uris": {"ios": "https://dc.lft.to/lastmile_qr_scan", "android": "https://dc.lft.to/lastmile_qr_scan"}, "bike_id": "567bc1212d0184b9d609f1986599a44a", "fusion_lat": 0.0}, {"lon": -77.00067766666666, "name": "8e45916786a01cf91f1a2ab79f58ab56", "is_disabled": 0, "type": "electric_scooter", "is_reserved": 0, "fusion_lon": 0.0, "lat": 38.924393, "rental_uris": {"ios": "https://dc.lft.to/lastmile_qr_scan", "android": "https://dc.lft.to/lastmile_qr_scan"}, "bike_id": "8e45916786a01cf91f1a2ab79f58ab56", "fusion_lat": 0.0}, {"lon": -77.04906316666667, "name": "5f39e81fd6c9f9a18d3747f08ce0a36a", "is_disabled": 0, "type": "electric_scooter", "is_reserved": 0, "fusion_lon": 0.0, "lat": 38.916008, "rental_uris": {"ios": "https://dc.lft.to/lastmile_qr_scan", "android": "https://dc.lft.to/lastmile_qr_scan"}, "bike_id": "5f39e81fd6c9f9a18d3747f08ce0a36a", "fusion_lat": 0.0}, {"lon": -77.0076285, "name": "a78f5b68aec3157efe4f11572363fcda", "is_disabled": 0, "type": "electric_scooter", "is_reserved": 0, "fusion_lon": 0.0, "lat": 38.90456533333333, "rental_uris": {"ios": "https://dc.lft.to/lastmile_qr_scan", "android": "https://dc.lft.to/lastmile_qr_scan"}, "bike_id": "a78f5b68aec3157efe4f11572363fcda", "fusion_lat": 0.0}, {"lon": -77.03195766666667, "name": "ac207ac178f78fb73c174da60100b93a", "is_disabled": 0, "type": "electric_scooter", "is_reserved": 0, "fusion_lon": 0.0, "lat": 38.91812516666667, "rental_uris": {"ios": "https://dc.lft.to/lastmile_qr_scan", "android": "https://dc.lft.to/lastmile_qr_scan"}, "bike_id": "ac207ac178f78fb73c174da60100b93a", "fusion_lat": 0.0}, {"lon": -77.02183766666667, "name": "661a6bb29389cbae39bae08f67373d82", "is_disabled": 0, "type": "electric_scooter", "is_reserved": 0, "fusion_lon": 0.0, "lat": 38.901474, "rental_uris": {"ios": "https://dc.lft.to/lastmile_qr_scan", "android": "https://dc.lft.to/lastmile_qr_scan"}, "bike_id": "661a6bb29389cbae39bae08f67373d82", "fusion_lat": 0.0}, {"lon": -76.92442166666666, "name": "f69cd18c68fa61cda7359a8178d4452e", "is_disabled": 0, "type": "electric_scooter", "is_reserved": 0, "fusion_lon": 0.0, "lat": 38.88513783333333, "rental_uris": {"ios": "https://dc.lft.to/lastmile_qr_scan", "android": "https://dc.lft.to/lastmile_qr_scan"}, "bike_id": "f69cd18c68fa61cda7359a8178d4452e", "fusion_lat": 0.0}, {"lon": -76.97593016666667, "name": "d187268444138aaf8ddd84b8b62d9871", "is_disabled": 0, "type": "electric_scooter", "is_reserved": 0, "fusion_lon": 0.0, "lat": 38.9033355, "rental_uris": {"ios": "https://dc.lft.to/lastmile_qr_scan", "android": "https://dc.lft.to/lastmile_qr_scan"}, "bike_id": "d187268444138aaf8ddd84b8b62d9871", "fusion_lat": 0.0}, {"lon": -77.02243966666667, "name": "b9ff22f2828be740ba0d756c27cafe6f", "is_disabled": 0, "type": "electric_scooter", "is_reserved": 0, "fusion_lon": 0.0, "lat": 38.924330499999996, "rental_uris": {"ios": "https://dc.lft.to/lastmile_qr_scan", "android": "https://dc.lft.to/lastmile_qr_scan"}, "bike_id": "b9ff22f2828be740ba0d756c27cafe6f", "fusion_lat": 0.0}, {"lon": -77.04107733333333, "name": "295189296570d360861491feb3564ea3", "is_disabled": 0, "type": "electric_scooter", "is_reserved": 0, "fusion_lon": 0.0, "lat": 38.892230166666664, "rental_uris": {"ios": "https://dc.lft.to/lastmile_qr_scan", "android": "https://dc.lft.to/lastmile_qr_scan"}, "bike_id": "295189296570d360861491feb3564ea3", "fusion_lat": 0.0}, {"lon": -77.02796683333334, "name": "32c0a293d688a058a65ac0c1add9a828", "is_disabled": 0, "type": "electric_scooter", "is_reserved": 0, "fusion_lon": 0.0, "lat": 38.93079383333333, "rental_uris": {"ios": "https://dc.lft.to/lastmile_qr_scan", "android": "https://dc.lft.to/lastmile_qr_scan"}, "bike_id": "32c0a293d688a058a65ac0c1add9a828", "fusion_lat": 0.0}, {"lon": -76.97220466666667, "name": "297ab60cc475235652374058af097337", "is_disabled": 0, "type": "electric_bike", "is_reserved": 0, "fusion_lon": 0.0, "lat": 38.90038633333333, "rental_uris": {"ios": "https://dc.lft.to/lastmile_qr_scan", "android": "https://dc.lft.to/lastmile_qr_scan"}, "bike_id": "297ab60cc475235652374058af097337", "fusion_lat": 0.0}, {"lon": -76.907494, "name": "5bec7b19820be7c28d990c665b52b1f3", "is_disabled": 0, "type": "electric_bike", "is_reserved": 0, "fusion_lon": 0.0, "lat": 38.896207833333335, "rental_uris": {"ios": "https://dc.lft.to/lastmile_qr_scan", "android": "https://dc.lft.to/lastmile_qr_scan"}, "bike_id": "5bec7b19820be7c28d990c665b52b1f3", "fusion_lat": 0.0}, {"lon": -77.017054, "name": "8fb634ec630cf37ec5010cc7f1759ea7", "is_disabled": 0, "type": "electric_scooter", "is_reserved": 0, "fusion_lon": 0.0, "lat": 38.90761283333333, "rental_uris": {"ios": "https://dc.lft.to/lastmile_qr_scan", "android": "https://dc.lft.to/lastmile_qr_scan"}, "bike_id": "8fb634ec630cf37ec5010cc7f1759ea7", "fusion_lat": 0.0}, {"lon": -77.029468, "name": "4b1e6c01e3064f4c5e8518daa7cbb21b", "is_disabled": 0, "type": "electric_scooter", "is_reserved": 0, "fusion_lon": 0.0, "lat": 38.9050735, "rental_uris": {"ios": "https://dc.lft.to/lastmile_qr_scan", "android": "https://dc.lft.to/lastmile_qr_scan"}, "bike_id": "4b1e6c01e3064f4c5e8518daa7cbb21b", "fusion_lat": 0.0}, {"lon": -77.07492966666666, "name": "d73674563240d0a3b0d4dc79873fcd5c", "is_disabled": 0, "type": "electric_scooter", "is_reserved": 0, "fusion_lon": 0.0, "lat": 38.91209383333333, "rental_uris": {"ios": "https://dc.lft.to/lastmile_qr_scan", "android": "https://dc.lft.to/lastmile_qr_scan"}, "bike_id": "d73674563240d0a3b0d4dc79873fcd5c", "fusion_lat": 0.0}, {"lon": -76.97316716666667, "name": "f3ef95301a2a53e848e6acc02a42b904", "is_disabled": 0, "type": "electric_bike", "is_reserved": 0, "fusion_lon": 0.0, "lat": 38.8651885, "rental_uris": {"ios": "https://dc.lft.to/lastmile_qr_scan", "android": "https://dc.lft.to/lastmile_qr_scan"}, "bike_id": "f3ef95301a2a53e848e6acc02a42b904", "fusion_lat": 0.0}, {"lon": -77.0343765, "name": "edeb0f84abf16bbaf8c05f4588856199", "is_disabled": 0, "type": "electric_scooter", "is_reserved": 0, "fusion_lon": 0.0, "lat": 38.90103416666667, "rental_uris": {"ios": "https://dc.lft.to/lastmile_qr_scan", "android": "https://dc.lft.to/lastmile_qr_scan"}, "bike_id": "edeb0f84abf16bbaf8c05f4588856199", "fusion_lat": 0.0}, {"lon": -77.01943533333333, "name": "3e5932b4af19ff5ed0cbbd389b86e6d8", "is_disabled": 0, "type": "electric_scooter", "is_reserved": 0, "fusion_lon": 0.0, "lat": 38.956415666666665, "rental_uris": {"ios": "https://dc.lft.to/lastmile_qr_scan", "android": "https://dc.lft.to/lastmile_qr_scan"}, "bike_id": "3e5932b4af19ff5ed0cbbd389b86e6d8", "fusion_lat": 0.0}, {"lon": -77.03271633333334, "name": "bb0a99acacae5aba8be910d8b4b5e9d6", "is_disabled": 0, "type": "electric_scooter", "is_reserved": 0, "fusion_lon": 0.0, "lat": 38.932467333333335, "rental_uris": {"ios": "https://dc.lft.to/lastmile_qr_scan", "android": "https://dc.lft.to/lastmile_qr_scan"}, "bike_id": "bb0a99acacae5aba8be910d8b4b5e9d6", "fusion_lat": 0.0}, {"lon": -77.1487385, "name": "7e7d280c43f1866e2ffd8c68a7f0ff7e", "is_disabled": 0, "type": "electric_bike", "is_reserved": 0, "fusion_lon": 0.0, "lat": 38.877387666666664, "rental_uris": {"ios": "https://dc.lft.to/lastmile_qr_scan", "android": "https://dc.lft.to/lastmile_qr_scan"}, "bike_id": "7e7d280c43f1866e2ffd8c68a7f0ff7e", "fusion_lat": 0.0}, {"lon": -77.0033085, "name": "8e0896372c22c759585fbff3f1a0b2ac", "is_disabled": 0, "type": "electric_scooter", "is_reserved": 0, "fusion_lon": 0.0, "lat": 38.89364466666667, "rental_uris": {"ios": "https://dc.lft.to/lastmile_qr_scan", "android": "https://dc.lft.to/lastmile_qr_scan"}, "bike_id": "8e0896372c22c759585fbff3f1a0b2ac", "fusion_lat": 0.0}, {"lon": -77.02572783333333, "name": "ac17be78f65faa01540e821d122fdf2d", "is_disabled": 0, "type": "electric_scooter", "is_reserved": 0, "fusion_lon": 0.0, "lat": 38.90419216666667, "rental_uris": {"ios": "https://dc.lft.to/lastmile_qr_scan", "android": "https://dc.lft.to/lastmile_qr_scan"}, "bike_id": "ac17be78f65faa01540e821d122fdf2d", "fusion_lat": 0.0}, {"lon": -76.94888166666667, "name": "335f550757e4c4a1b9817dfa242663b0", "is_disabled": 0, "type": "electric_scooter", "is_reserved": 0, "fusion_lon": 0.0, "lat": 38.89510583333333, "rental_uris": {"ios": "https://dc.lft.to/lastmile_qr_scan", "android": "https://dc.lft.to/lastmile_qr_scan"}, "bike_id": "335f550757e4c4a1b9817dfa242663b0", "fusion_lat": 0.0}, {"lon": -77.03609916666667, "name": "cafe341af5857514185a2f6e695c6071", "is_disabled": 0, "type": "electric_scooter", "is_reserved": 0, "fusion_lon": 0.0, "lat": 38.90567583333333, "rental_uris": {"ios": "https://dc.lft.to/lastmile_qr_scan", "android": "https://dc.lft.to/lastmile_qr_scan"}, "bike_id": "cafe341af5857514185a2f6e695c6071", "fusion_lat": 0.0}, {"lon": -77.02408366666667, "name": "2ecc9c81b83fd470e6cbd6cf86600644", "is_disabled": 0, "type": "electric_scooter", "is_reserved": 0, "fusion_lon": 0.0, "lat": 38.94182383333333, "rental_uris": {"ios": "https://dc.lft.to/lastmile_qr_scan", "android": "https://dc.lft.to/lastmile_qr_scan"}, "bike_id": "2ecc9c81b83fd470e6cbd6cf86600644", "fusion_lat": 0.0}, {"lon": -77.05689666666666, "name": "08a845e1c10f35133cec25a8dfc301e2", "is_disabled": 0, "type": "electric_scooter", "is_reserved": 0, "fusion_lon": 0.0, "lat": 38.906062, "rental_uris": {"ios": "https://dc.lft.to/lastmile_qr_scan", "android": "https://dc.lft.to/lastmile_qr_scan"}, "bike_id": "08a845e1c10f35133cec25a8dfc301e2", "fusion_lat": 0.0}, {"lon": -77.04605766666667, "name": "731e6dfd937f18980823f1cfdebeb3c2", "is_disabled": 0, "type": "electric_scooter", "is_reserved": 0, "fusion_lon": 0.0, "lat": 38.9027275, "rental_uris": {"ios": "https://dc.lft.to/lastmile_qr_scan", "android": "https://dc.lft.to/lastmile_qr_scan"}, "bike_id": "731e6dfd937f18980823f1cfdebeb3c2", "fusion_lat": 0.0}, {"lon": -77.0401145, "name": "bc28c2f188c974f768d6f8da7e68b930", "is_disabled": 0, "type": "electric_scooter", "is_reserved": 0, "fusion_lon": 0.0, "lat": 38.902616, "rental_uris": {"ios": "https://dc.lft.to/lastmile_qr_scan", "android": "https://dc.lft.to/lastmile_qr_scan"}, "bike_id": "bc28c2f188c974f768d6f8da7e68b930", "fusion_lat": 0.0}, {"lon": -77.01897533333333, "name": "db52f88fd2b9755cdb60088c5cfff4d3", "is_disabled": 0, "type": "electric_scooter", "is_reserved": 0, "fusion_lon": 0.0, "lat": 38.923363333333334, "rental_uris": {"ios": "https://dc.lft.to/lastmile_qr_scan", "android": "https://dc.lft.to/lastmile_qr_scan"}, "bike_id": "db52f88fd2b9755cdb60088c5cfff4d3", "fusion_lat": 0.0}, {"lon": -77.05930633333334, "name": "eb6886a65930eb44d3db73c497ef76a3", "is_disabled": 0, "type": "electric_scooter", "is_reserved": 0, "fusion_lon": 0.0, "lat": 38.94300033333333, "rental_uris": {"ios": "https://dc.lft.to/lastmile_qr_scan", "android": "https://dc.lft.to/lastmile_qr_scan"}, "bike_id": "eb6886a65930eb44d3db73c497ef76a3", "fusion_lat": 0.0}, {"lon": -76.9984105, "name": "0f00ca2094729dff9b506178d8c37888", "is_disabled": 0, "type": "electric_bike", "is_reserved": 0, "fusion_lon": 0.0, "lat": 38.83918, "rental_uris": {"ios": "https://dc.lft.to/lastmile_qr_scan", "android": "https://dc.lft.to/lastmile_qr_scan"}, "bike_id": "0f00ca2094729dff9b506178d8c37888", "fusion_lat": 0.0}, {"lon": -77.03168216666667, "name": "1f674752a7c16ad5b9f4b29ad63f28af", "is_disabled": 0, "type": "electric_scooter", "is_reserved": 0, "fusion_lon": 0.0, "lat": 38.892218, "rental_uris": {"ios": "https://dc.lft.to/lastmile_qr_scan", "android": "https://dc.lft.to/lastmile_qr_scan"}, "bike_id": "1f674752a7c16ad5b9f4b29ad63f28af", "fusion_lat": 0.0}, {"lon": -77.04325166666666, "name": "31af9e5159a7521907b60777305d4b95", "is_disabled": 0, "type": "electric_scooter", "is_reserved": 0, "fusion_lon": 0.0, "lat": 38.918776666666666, "rental_uris": {"ios": "https://dc.lft.to/lastmile_qr_scan", "android": "https://dc.lft.to/lastmile_qr_scan"}, "bike_id": "31af9e5159a7521907b60777305d4b95", "fusion_lat": 0.0}, {"lon": -77.01500766666666, "name": "783e1214f26bfadb1f1be7f2742cd1bd", "is_disabled": 0, "type": "electric_scooter", "is_reserved": 0, "fusion_lon": 0.0, "lat": 38.926651666666665, "rental_uris": {"ios": "https://dc.lft.to/lastmile_qr_scan", "android": "https://dc.lft.to/lastmile_qr_scan"}, "bike_id": "783e1214f26bfadb1f1be7f2742cd1bd", "fusion_lat": 0.0}, {"lon": -77.05601583333333, "name": "7613ef8221bb40687d86b89958fa38b0", "is_disabled": 0, "type": "electric_scooter", "is_reserved": 0, "fusion_lon": 0.0, "lat": 38.9369665, "rental_uris": {"ios": "https://dc.lft.to/lastmile_qr_scan", "android": "https://dc.lft.to/lastmile_qr_scan"}, "bike_id": "7613ef8221bb40687d86b89958fa38b0", "fusion_lat": 0.0}, {"lon": -77.00918983333334, "name": "1565d490bff815ac472e95875edc64c9", "is_disabled": 0, "type": "electric_scooter", "is_reserved": 0, "fusion_lon": 0.0, "lat": 38.92340216666667, "rental_uris": {"ios": "https://dc.lft.to/lastmile_qr_scan", "android": "https://dc.lft.to/lastmile_qr_scan"}, "bike_id": "1565d490bff815ac472e95875edc64c9", "fusion_lat": 0.0}, {"lon": -77.02951083333333, "name": "13652a1ba80451376e51685e8ab23b2f", "is_disabled": 0, "type": "electric_scooter", "is_reserved": 0, "fusion_lon": 0.0, "lat": 38.905054, "rental_uris": {"ios": "https://dc.lft.to/lastmile_qr_scan", "android": "https://dc.lft.to/lastmile_qr_scan"}, "bike_id": "13652a1ba80451376e51685e8ab23b2f", "fusion_lat": 0.0}, {"lon": -77.0229395, "name": "6097520006aacad133b180424f52f2af", "is_disabled": 0, "type": "electric_scooter", "is_reserved": 0, "fusion_lon": 0.0, "lat": 38.917777666666666, "rental_uris": {"ios": "https://dc.lft.to/lastmile_qr_scan", "android": "https://dc.lft.to/lastmile_qr_scan"}, "bike_id": "6097520006aacad133b180424f52f2af", "fusion_lat": 0.0}, {"lon": -77.02796316666667, "name": "069ebe9210c0f1b8c262ebaf6ada46f8", "is_disabled": 0, "type": "electric_scooter", "is_reserved": 0, "fusion_lon": 0.0, "lat": 38.94178866666667, "rental_uris": {"ios": "https://dc.lft.to/lastmile_qr_scan", "android": "https://dc.lft.to/lastmile_qr_scan"}, "bike_id": "069ebe9210c0f1b8c262ebaf6ada46f8", "fusion_lat": 0.0}, {"lon": -77.03525866666666, "name": "bad1cb7734ce32e6f21c19521a337f61", "is_disabled": 0, "type": "electric_scooter", "is_reserved": 0, "fusion_lon": 0.0, "lat": 38.91828566666667, "rental_uris": {"ios": "https://dc.lft.to/lastmile_qr_scan", "android": "https://dc.lft.to/lastmile_qr_scan"}, "bike_id": "bad1cb7734ce32e6f21c19521a337f61", "fusion_lat": 0.0}, {"lon": -77.031729, "name": "fab67c6f1f7464ba9df70267bfc2298c", "is_disabled": 0, "type": "electric_scooter", "is_reserved": 0, "fusion_lon": 0.0, "lat": 38.89232666666667, "rental_uris": {"ios": "https://dc.lft.to/lastmile_qr_scan", "android": "https://dc.lft.to/lastmile_qr_scan"}, "bike_id": "fab67c6f1f7464ba9df70267bfc2298c", "fusion_lat": 0.0}, {"lon": -76.95769033333333, "name": "9187ed8cb5ac204d2c804d46f829c423", "is_disabled": 0, "type": "electric_scooter", "is_reserved": 0, "fusion_lon": 0.0, "lat": 38.883569, "rental_uris": {"ios": "https://dc.lft.to/lastmile_qr_scan", "android": "https://dc.lft.to/lastmile_qr_scan"}, "bike_id": "9187ed8cb5ac204d2c804d46f829c423", "fusion_lat": 0.0}, {"lon": -77.00790233333333, "name": "2fdf19f3f712a45ba20b45171888eeb7", "is_disabled": 0, "type": "electric_scooter", "is_reserved": 0, "fusion_lon": 0.0, "lat": 38.92668033333333, "rental_uris": {"ios": "https://dc.lft.to/lastmile_qr_scan", "android": "https://dc.lft.to/lastmile_qr_scan"}, "bike_id": "2fdf19f3f712a45ba20b45171888eeb7", "fusion_lat": 0.0}, {"lon": -76.980274, "name": "0dc84733c192839efa9ac71642fdd40c", "is_disabled": 0, "type": "electric_bike", "is_reserved": 0, "fusion_lon": 0.0, "lat": 38.8682335, "rental_uris": {"ios": "https://dc.lft.to/lastmile_qr_scan", "android": "https://dc.lft.to/lastmile_qr_scan"}, "bike_id": "0dc84733c192839efa9ac71642fdd40c", "fusion_lat": 0.0}, {"lon": -77.0199115, "name": "053d4d0c5f1732b35509dbaae4e3315c", "is_disabled": 0, "type": "electric_scooter", "is_reserved": 0, "fusion_lon": 0.0, "lat": 38.8859525, "rental_uris": {"ios": "https://dc.lft.to/lastmile_qr_scan", "android": "https://dc.lft.to/lastmile_qr_scan"}, "bike_id": "053d4d0c5f1732b35509dbaae4e3315c", "fusion_lat": 0.0}, {"lon": -76.94466733333333, "name": "e841c4790e767c0e612d60ae3b9aba16", "is_disabled": 0, "type": "electric_scooter", "is_reserved": 0, "fusion_lon": 0.0, "lat": 38.8902625, "rental_uris": {"ios": "https://dc.lft.to/lastmile_qr_scan", "android": "https://dc.lft.to/lastmile_qr_scan"}, "bike_id": "e841c4790e767c0e612d60ae3b9aba16", "fusion_lat": 0.0}, {"lon": -77.03188766666666, "name": "c3712ae0fc504e3690da23ba5972a4ad", "is_disabled": 0, "type": "electric_scooter", "is_reserved": 0, "fusion_lon": 0.0, "lat": 38.90747533333333, "rental_uris": {"ios": "https://dc.lft.to/lastmile_qr_scan", "android": "https://dc.lft.to/lastmile_qr_scan"}, "bike_id": "c3712ae0fc504e3690da23ba5972a4ad", "fusion_lat": 0.0}, {"lon": -77.02163283333333, "name": "b225a469d577c8024aafc8a4c34abb88", "is_disabled": 0, "type": "electric_scooter", "is_reserved": 0, "fusion_lon": 0.0, "lat": 38.926148, "rental_uris": {"ios": "https://dc.lft.to/lastmile_qr_scan", "android": "https://dc.lft.to/lastmile_qr_scan"}, "bike_id": "b225a469d577c8024aafc8a4c34abb88", "fusion_lat": 0.0}, {"lon": -77.0340935, "name": "f44e7278ac944395f1e0f103151482a0", "is_disabled": 0, "type": "electric_scooter", "is_reserved": 0, "fusion_lon": 0.0, "lat": 38.923944166666665, "rental_uris": {"ios": "https://dc.lft.to/lastmile_qr_scan", "android": "https://dc.lft.to/lastmile_qr_scan"}, "bike_id": "f44e7278ac944395f1e0f103151482a0", "fusion_lat": 0.0}, {"lon": -77.003378, "name": "f9955f7f45f6f4de4a6857f82de6d206", "is_disabled": 0, "type": "electric_scooter", "is_reserved": 0, "fusion_lon": 0.0, "lat": 38.92264683333333, "rental_uris": {"ios": "https://dc.lft.to/lastmile_qr_scan", "android": "https://dc.lft.to/lastmile_qr_scan"}, "bike_id": "f9955f7f45f6f4de4a6857f82de6d206", "fusion_lat": 0.0}, {"lon": -77.01558883333334, "name": "bf65c58b070d3b6de0b31ca2b1bc943b", "is_disabled": 0, "type": "electric_scooter", "is_reserved": 0, "fusion_lon": 0.0, "lat": 38.8921765, "rental_uris": {"ios": "https://dc.lft.to/lastmile_qr_scan", "android": "https://dc.lft.to/lastmile_qr_scan"}, "bike_id": "bf65c58b070d3b6de0b31ca2b1bc943b", "fusion_lat": 0.0}, {"lon": -77.02712516666666, "name": "11571e589ea5c77c8a799377163a17d0", "is_disabled": 0, "type": "electric_scooter", "is_reserved": 0, "fusion_lon": 0.0, "lat": 38.91694583333334, "rental_uris": {"ios": "https://dc.lft.to/lastmile_qr_scan", "android": "https://dc.lft.to/lastmile_qr_scan"}, "bike_id": "11571e589ea5c77c8a799377163a17d0", "fusion_lat": 0.0}, {"lon": -77.0248, "name": "d9b5698f2b5c202e0f7289e8d3245fde", "is_disabled": 0, "type": "electric_scooter", "is_reserved": 0, "fusion_lon": 0.0, "lat": 38.93620283333333, "rental_uris": {"ios": "https://dc.lft.to/lastmile_qr_scan", "android": "https://dc.lft.to/lastmile_qr_scan"}, "bike_id": "d9b5698f2b5c202e0f7289e8d3245fde", "fusion_lat": 0.0}, {"lon": -77.02708533333333, "name": "e3581671b0a8250221770cd00a1ea7fa", "is_disabled": 0, "type": "electric_scooter", "is_reserved": 0, "fusion_lon": 0.0, "lat": 38.92878116666667, "rental_uris": {"ios": "https://dc.lft.to/lastmile_qr_scan", "android": "https://dc.lft.to/lastmile_qr_scan"}, "bike_id": "e3581671b0a8250221770cd00a1ea7fa", "fusion_lat": 0.0}, {"lon": -77.01873433333333, "name": "f1ad1bfac31e3c44cb6b323bef8cc284", "is_disabled": 0, "type": "electric_scooter", "is_reserved": 0, "fusion_lon": 0.0, "lat": 38.932063166666666, "rental_uris": {"ios": "https://dc.lft.to/lastmile_qr_scan", "android": "https://dc.lft.to/lastmile_qr_scan"}, "bike_id": "f1ad1bfac31e3c44cb6b323bef8cc284", "fusion_lat": 0.0}, {"lon": -77.026165, "name": "142e8d030864d524ce4bb3e2f609f096", "is_disabled": 0, "type": "electric_scooter", "is_reserved": 0, "fusion_lon": 0.0, "lat": 38.897447166666666, "rental_uris": {"ios": "https://dc.lft.to/lastmile_qr_scan", "android": "https://dc.lft.to/lastmile_qr_scan"}, "bike_id": "142e8d030864d524ce4bb3e2f609f096", "fusion_lat": 0.0}, {"lon": -77.0481625, "name": "4a83deffec6e0b06a919bb724b52f251", "is_disabled": 0, "type": "electric_scooter", "is_reserved": 0, "fusion_lon": 0.0, "lat": 38.90205016666667, "rental_uris": {"ios": "https://dc.lft.to/lastmile_qr_scan", "android": "https://dc.lft.to/lastmile_qr_scan"}, "bike_id": "4a83deffec6e0b06a919bb724b52f251", "fusion_lat": 0.0}, {"lon": -77.0635485, "name": "1836dc84fb01bd9cb657e37f059aa2ca", "is_disabled": 0, "type": "electric_scooter", "is_reserved": 0, "fusion_lon": 0.0, "lat": 38.9067895, "rental_uris": {"ios": "https://dc.lft.to/lastmile_qr_scan", "android": "https://dc.lft.to/lastmile_qr_scan"}, "bike_id": "1836dc84fb01bd9cb657e37f059aa2ca", "fusion_lat": 0.0}, {"lon": -77.02197333333334, "name": "775a58eeda2933dfc0f292a9d69e9d5b", "is_disabled": 0, "type": "electric_scooter", "is_reserved": 0, "fusion_lon": 0.0, "lat": 38.877831666666665, "rental_uris": {"ios": "https://dc.lft.to/lastmile_qr_scan", "android": "https://dc.lft.to/lastmile_qr_scan"}, "bike_id": "775a58eeda2933dfc0f292a9d69e9d5b", "fusion_lat": 0.0}, {"lon": -77.04581683333333, "name": "e86b58715f181b4be435906f19309150", "is_disabled": 0, "type": "electric_scooter", "is_reserved": 0, "fusion_lon": 0.0, "lat": 38.9212875, "rental_uris": {"ios": "https://dc.lft.to/lastmile_qr_scan", "android": "https://dc.lft.to/lastmile_qr_scan"}, "bike_id": "e86b58715f181b4be435906f19309150", "fusion_lat": 0.0}, {"lon": -77.02691733333333, "name": "2a5e6db108477ed3de31d474dc95a4a0", "is_disabled": 0, "type": "electric_scooter", "is_reserved": 0, "fusion_lon": 0.0, "lat": 38.92485516666667, "rental_uris": {"ios": "https://dc.lft.to/lastmile_qr_scan", "android": "https://dc.lft.to/lastmile_qr_scan"}, "bike_id": "2a5e6db108477ed3de31d474dc95a4a0", "fusion_lat": 0.0}, {"lon": -77.02971566666666, "name": "bfba44aaebca163a7149736adf7c078a", "is_disabled": 0, "type": "electric_scooter", "is_reserved": 0, "fusion_lon": 0.0, "lat": 38.910957, "rental_uris": {"ios": "https://dc.lft.to/lastmile_qr_scan", "android": "https://dc.lft.to/lastmile_qr_scan"}, "bike_id": "bfba44aaebca163a7149736adf7c078a", "fusion_lat": 0.0}, {"lon": -77.0161515, "name": "bb602e4129a87bb951ccc7d95f105277", "is_disabled": 0, "type": "electric_scooter", "is_reserved": 0, "fusion_lon": 0.0, "lat": 38.905898, "rental_uris": {"ios": "https://dc.lft.to/lastmile_qr_scan", "android": "https://dc.lft.to/lastmile_qr_scan"}, "bike_id": "bb602e4129a87bb951ccc7d95f105277", "fusion_lat": 0.0}, {"lon": -77.02605766666667, "name": "86172548e9a029b062fa0f5a8d8a0100", "is_disabled": 0, "type": "electric_scooter", "is_reserved": 0, "fusion_lon": 0.0, "lat": 38.9202595, "rental_uris": {"ios": "https://dc.lft.to/lastmile_qr_scan", "android": "https://dc.lft.to/lastmile_qr_scan"}, "bike_id": "86172548e9a029b062fa0f5a8d8a0100", "fusion_lat": 0.0}, {"lon": -77.0499855, "name": "88097bb62c8be399717b670b5b5cc79c", "is_disabled": 0, "type": "electric_scooter", "is_reserved": 0, "fusion_lon": 0.0, "lat": 38.89230366666666, "rental_uris": {"ios": "https://dc.lft.to/lastmile_qr_scan", "android": "https://dc.lft.to/lastmile_qr_scan"}, "bike_id": "88097bb62c8be399717b670b5b5cc79c", "fusion_lat": 0.0}, {"lon": -76.95561133333334, "name": "cd845744fd441b38f847ec91d92991c2", "is_disabled": 0, "type": "electric_bike", "is_reserved": 0, "fusion_lon": 0.0, "lat": 38.985025666666665, "rental_uris": {"ios": "https://dc.lft.to/lastmile_qr_scan", "android": "https://dc.lft.to/lastmile_qr_scan"}, "bike_id": "cd845744fd441b38f847ec91d92991c2", "fusion_lat": 0.0}, {"lon": -77.02225383333334, "name": "d5ae71b98f3d84c5e7cbcde50a618963", "is_disabled": 0, "type": "electric_scooter", "is_reserved": 0, "fusion_lon": 0.0, "lat": 38.92091383333333, "rental_uris": {"ios": "https://dc.lft.to/lastmile_qr_scan", "android": "https://dc.lft.to/lastmile_qr_scan"}, "bike_id": "d5ae71b98f3d84c5e7cbcde50a618963", "fusion_lat": 0.0}, {"lon": -77.02214133333334, "name": "460d13a7b6cfb9a3d53668fe5d3a3152", "is_disabled": 0, "type": "electric_scooter", "is_reserved": 0, "fusion_lon": 0.0, "lat": 38.912676833333336, "rental_uris": {"ios": "https://dc.lft.to/lastmile_qr_scan", "android": "https://dc.lft.to/lastmile_qr_scan"}, "bike_id": "460d13a7b6cfb9a3d53668fe5d3a3152", "fusion_lat": 0.0}, {"lon": -77.01590883333333, "name": "e9860c582783e67d39c6c72167e2f955", "is_disabled": 0, "type": "electric_scooter", "is_reserved": 0, "fusion_lon": 0.0, "lat": 38.87466166666667, "rental_uris": {"ios": "https://dc.lft.to/lastmile_qr_scan", "android": "https://dc.lft.to/lastmile_qr_scan"}, "bike_id": "e9860c582783e67d39c6c72167e2f955", "fusion_lat": 0.0}, {"lon": -77.08340083333333, "name": "c6b108ccaf2f9d21bf73101a800772b3", "is_disabled": 0, "type": "electric_scooter", "is_reserved": 0, "fusion_lon": 0.0, "lat": 38.9298385, "rental_uris": {"ios": "https://dc.lft.to/lastmile_qr_scan", "android": "https://dc.lft.to/lastmile_qr_scan"}, "bike_id": "c6b108ccaf2f9d21bf73101a800772b3", "fusion_lat": 0.0}, {"lon": -77.029841, "name": "50d3687c57b93c9f4f91ffb823a9127a", "is_disabled": 0, "type": "electric_scooter", "is_reserved": 0, "fusion_lon": 0.0, "lat": 38.94262883333333, "rental_uris": {"ios": "https://dc.lft.to/lastmile_qr_scan", "android": "https://dc.lft.to/lastmile_qr_scan"}, "bike_id": "50d3687c57b93c9f4f91ffb823a9127a", "fusion_lat": 0.0}, {"lon": -77.028584, "name": "fc34a77128ba3f534b321863a0b51416", "is_disabled": 0, "type": "electric_scooter", "is_reserved": 0, "fusion_lon": 0.0, "lat": 38.901612166666666, "rental_uris": {"ios": "https://dc.lft.to/lastmile_qr_scan", "android": "https://dc.lft.to/lastmile_qr_scan"}, "bike_id": "fc34a77128ba3f534b321863a0b51416", "fusion_lat": 0.0}, {"lon": -77.01763616666666, "name": "d59dbba89cab12f82b2a8e895b93e56a", "is_disabled": 0, "type": "electric_scooter", "is_reserved": 0, "fusion_lon": 0.0, "lat": 38.88227033333333, "rental_uris": {"ios": "https://dc.lft.to/lastmile_qr_scan", "android": "https://dc.lft.to/lastmile_qr_scan"}, "bike_id": "d59dbba89cab12f82b2a8e895b93e56a", "fusion_lat": 0.0}, {"lon": -77.02590866666667, "name": "41ba5f6e9d8bc3998b35756f553ce132", "is_disabled": 0, "type": "electric_scooter", "is_reserved": 0, "fusion_lon": 0.0, "lat": 38.89624933333333, "rental_uris": {"ios": "https://dc.lft.to/lastmile_qr_scan", "android": "https://dc.lft.to/lastmile_qr_scan"}, "bike_id": "41ba5f6e9d8bc3998b35756f553ce132", "fusion_lat": 0.0}, {"lon": -76.929359, "name": "ee322a1ad6349c2da19d521171cddb2f", "is_disabled": 0, "type": "electric_scooter", "is_reserved": 0, "fusion_lon": 0.0, "lat": 38.90096416666667, "rental_uris": {"ios": "https://dc.lft.to/lastmile_qr_scan", "android": "https://dc.lft.to/lastmile_qr_scan"}, "bike_id": "ee322a1ad6349c2da19d521171cddb2f", "fusion_lat": 0.0}, {"lon": -77.002182, "name": "8e26511f26f43f2771b1737ea54e8370", "is_disabled": 0, "type": "electric_scooter", "is_reserved": 0, "fusion_lon": 0.0, "lat": 38.90186333333333, "rental_uris": {"ios": "https://dc.lft.to/lastmile_qr_scan", "android": "https://dc.lft.to/lastmile_qr_scan"}, "bike_id": "8e26511f26f43f2771b1737ea54e8370", "fusion_lat": 0.0}, {"lon": -77.03204133333334, "name": "6598c770b8ddee12cfa29307d66064d7", "is_disabled": 0, "type": "electric_scooter", "is_reserved": 0, "fusion_lon": 0.0, "lat": 38.916841166666664, "rental_uris": {"ios": "https://dc.lft.to/lastmile_qr_scan", "android": "https://dc.lft.to/lastmile_qr_scan"}, "bike_id": "6598c770b8ddee12cfa29307d66064d7", "fusion_lat": 0.0}, {"lon": -77.03901533333334, "name": "a5e70a344d76eb6ed8b664f126254b67", "is_disabled": 0, "type": "electric_scooter", "is_reserved": 0, "fusion_lon": 0.0, "lat": 38.922390666666665, "rental_uris": {"ios": "https://dc.lft.to/lastmile_qr_scan", "android": "https://dc.lft.to/lastmile_qr_scan"}, "bike_id": "a5e70a344d76eb6ed8b664f126254b67", "fusion_lat": 0.0}, {"lon": -77.03143483333334, "name": "9113e3b0516edc49e9eb0907d657f33d", "is_disabled": 0, "type": "electric_scooter", "is_reserved": 0, "fusion_lon": 0.0, "lat": 38.92813, "rental_uris": {"ios": "https://dc.lft.to/lastmile_qr_scan", "android": "https://dc.lft.to/lastmile_qr_scan"}, "bike_id": "9113e3b0516edc49e9eb0907d657f33d", "fusion_lat": 0.0}, {"lon": -77.02816466666667, "name": "ecc201b13bbf6bc3b07619e87cb6fe6e", "is_disabled": 0, "type": "electric_scooter", "is_reserved": 0, "fusion_lon": 0.0, "lat": 38.907012, "rental_uris": {"ios": "https://dc.lft.to/lastmile_qr_scan", "android": "https://dc.lft.to/lastmile_qr_scan"}, "bike_id": "ecc201b13bbf6bc3b07619e87cb6fe6e", "fusion_lat": 0.0}, {"lon": -77.05756416666667, "name": "5be1281192617c4cb5408d72d13e3b6a", "is_disabled": 0, "type": "electric_scooter", "is_reserved": 0, "fusion_lon": 0.0, "lat": 38.92460333333333, "rental_uris": {"ios": "https://dc.lft.to/lastmile_qr_scan", "android": "https://dc.lft.to/lastmile_qr_scan"}, "bike_id": "5be1281192617c4cb5408d72d13e3b6a", "fusion_lat": 0.0}, {"lon": -77.03394483333334, "name": "29b19051148ab3ff9ea5d7058205d686", "is_disabled": 0, "type": "electric_scooter", "is_reserved": 0, "fusion_lon": 0.0, "lat": 38.921535, "rental_uris": {"ios": "https://dc.lft.to/lastmile_qr_scan", "android": "https://dc.lft.to/lastmile_qr_scan"}, "bike_id": "29b19051148ab3ff9ea5d7058205d686", "fusion_lat": 0.0}, {"lon": -77.02412083333333, "name": "f584d34b4f0f271986df54612acb477c", "is_disabled": 0, "type": "electric_scooter", "is_reserved": 0, "fusion_lon": 0.0, "lat": 38.92708866666667, "rental_uris": {"ios": "https://dc.lft.to/lastmile_qr_scan", "android": "https://dc.lft.to/lastmile_qr_scan"}, "bike_id": "f584d34b4f0f271986df54612acb477c", "fusion_lat": 0.0}, {"lon": -77.00563883333334, "name": "e45d2ef0439abde1cebec30c16df3028", "is_disabled": 0, "type": "electric_scooter", "is_reserved": 0, "fusion_lon": 0.0, "lat": 38.905708, "rental_uris": {"ios": "https://dc.lft.to/lastmile_qr_scan", "android": "https://dc.lft.to/lastmile_qr_scan"}, "bike_id": "e45d2ef0439abde1cebec30c16df3028", "fusion_lat": 0.0}, {"lon": -77.02347916666666, "name": "83a343a2e8ef4d8585393e1bdd07888a", "is_disabled": 0, "type": "electric_scooter", "is_reserved": 0, "fusion_lon": 0.0, "lat": 38.9296345, "rental_uris": {"ios": "https://dc.lft.to/lastmile_qr_scan", "android": "https://dc.lft.to/lastmile_qr_scan"}, "bike_id": "83a343a2e8ef4d8585393e1bdd07888a", "fusion_lat": 0.0}, {"lon": -77.02318066666666, "name": "925abddee27368c7e427c9bb6e4c04cc", "is_disabled": 0, "type": "electric_scooter", "is_reserved": 0, "fusion_lon": 0.0, "lat": 38.9207405, "rental_uris": {"ios": "https://dc.lft.to/lastmile_qr_scan", "android": "https://dc.lft.to/lastmile_qr_scan"}, "bike_id": "925abddee27368c7e427c9bb6e4c04cc", "fusion_lat": 0.0}, {"lon": -77.03189816666666, "name": "0e45fe60c978ceb922af386d8fc79261", "is_disabled": 0, "type": "electric_scooter", "is_reserved": 0, "fusion_lon": 0.0, "lat": 38.92062833333333, "rental_uris": {"ios": "https://dc.lft.to/lastmile_qr_scan", "android": "https://dc.lft.to/lastmile_qr_scan"}, "bike_id": "0e45fe60c978ceb922af386d8fc79261", "fusion_lat": 0.0},