{"data": {"bikes": [{"is_reserved": 0, "type": "electric_scooter", "bike_id": "24f58bdaac23ad04f76c69093f6c5c1f", "lat": 38.9195915, "lon": -77.04488283333333, "rental_uris": {"android": "https://dc.lft.to/lastmile_qr_scan", "ios": "https://dc.lft.to/lastmile_qr_scan"}, "is_disabled": 0, "fusion_lat": 0.0, "name": "24f58bdaac23ad04f76c69093f6c5c1f", "fusion_lon": 0.0}, {"is_reserved": 0, "type": "electric_scooter", "bike_id": "23da4bbc09e8083ebadcd61ee994625d", "lat": 38.917919833333336, "lon": -77.03179083333333, "rental_uris": {"android": "https://dc.lft.to/lastmile_qr_scan", "ios": "https://dc.lft.to/lastmile_qr_scan"}, "is_disabled": 0, "fusion_lat": 0.0, "name": "23da4bbc09e8083ebadcd61ee994625d", "fusion_lon": 0.0}, {"is_reserved": 0, "type": "electric_scooter", "bike_id": "7efda3a9a16c383435b62092ec735163", "lat": 38.919729833333335, "lon": -77.04176816666667, "rental_uris": {"android": "https://dc.lft.to/lastmile_qr_scan", "ios": "https://dc.lft.to/lastmile_qr_scan"}, "is_disabled": 0, "fusion_lat": 0.0, "name": "7efda3a9a16c383435b62092ec735163", "fusion_lon": 0.0}, {"is_reserved": 0, "type": "electric_bike", "bike_id": "78f22178edc13f7422284333f4bc9f30", "lat": 38.972659666666665, "lon": -77.14969133333334, "rental_uris": {"android": "https://dc.lft.to/lastmile_qr_scan", "ios": "https://dc.lft.to/lastmile_qr_scan"}, "is_disabled": 0, "fusion_lat": 0.0, "name": "78f22178edc13f7422284333f4bc9f30", "fusion_lon": 0.0}, {"is_reserved": 0, "type": "electric_bike", "bike_id": "c30ebf37eeeb4cfa5a846241b60a9309", "lat": 38.99933866666667, "lon": -77.05132416666666, "rental_uris": {"android": "https://dc.lft.to/lastmile_qr_scan", "ios": "https://dc.lft.to/lastmile_qr_scan"}, "is_disabled": 0, "fusion_lat": 0.0, "name": "c30ebf37eeeb4cfa5a846241b60a9309", "fusion_lon": 0.0}, {"is_reserved": 0, "type": "electric_scooter", "bike_id": "d49095f1cfa12537465d00a23c6aa775", "lat": 38.916754, "lon": -77.02961066666667, "rental_uris": {"android": "https://dc.lft.to/lastmile_qr_scan", "ios": "https://dc.lft.to/lastmile_qr_scan"}, "is_disabled": 0, "fusion_lat": 0.0, "name": "d49095f1cfa12537465d00a23c6aa775", "fusion_lon": 0.0}, {"is_reserved": 0, "type": "electric_scooter", "bike_id": "240df92accbfe2e19cd41f800ccd866e", "lat": 38.892332833333334, "lon": -77.04875066666666, "rental_uris": {"android": "https://dc.lft.to/lastmile_qr_scan", "ios": "https://dc.lft.to/lastmile_qr_scan"}, "is_disabled": 0, "fusion_lat": 0.0, "name": "240df92accbfe2e19cd41f800ccd866e", "fusion_lon": 0.0}, {"is_reserved": 0, "type": "electric_scooter", "bike_id": "2e81bd1e29f1a1494a6d36ed7c558fe7", "lat": 38.924189, "lon": -77.01945283333333, "rental_uris": {"android": "https://dc.lft.to/lastmile_qr_scan", "ios": "https://dc.lft.to/lastmile_qr_scan"}, "is_disabled": 0, "fusion_lat": 0.0, "name": "2e81bd1e29f1a1494a6d36ed7c558fe7", "fusion_lon": 0.0}, {"is_reserved": 0, "type": "electric_scooter", "bike_id": "c786eebc8f0c5dbc3949a8829ce0a7d4", "lat": 38.923523, "lon": -77.018797, "rental_uris": {"android": "https://dc.lft.to/lastmile_qr_scan", "ios": "https://dc.lft.to/lastmile_qr_scan"}, "is_disabled": 0, "fusion_lat": 0.0, "name": "c786eebc8f0c5dbc3949a8829ce0a7d4", "fusion_lon": 0.0}, {"is_reserved": 0, "type": "electric_scooter", "bike_id": "7e6fb1b73218b98335470e4c5bcafa9c", "lat": 38.89822316666667, "lon": -76.94652833333333, "rental_uris": {"android": "https://dc.lft.to/lastmile_qr_scan", "ios": "https://dc.lft.to/lastmile_qr_scan"}, "is_disabled": 0, "fusion_lat": 0.0, "name": "7e6fb1b73218b98335470e4c5bcafa9c", "fusion_lon": 0.0}, {"is_reserved": 0, "type": "electric_scooter", "bike_id": "ee4c90d25c019c8c4ff1baefb2166e4f", "lat": 38.915781333333335, "lon": -77.0122605, "rental_uris": {"android": "https://dc.lft.to/lastmile_qr_scan", "ios": "https://dc.lft.to/lastmile_qr_scan"}, "is_disabled": 0, "fusion_lat": 0.0, "name": "ee4c90d25c019c8c4ff1baefb2166e4f", "fusion_lon": 0.0}, {"is_reserved": 0, "type": "electric_scooter", "bike_id": "63632a712f93a8649ccabd22c096575c", "lat": 38.9138025, "lon": -77.04599933333333, "rental_uris": {"android": "https://dc.lft.to/lastmile_qr_scan", "ios": "https://dc.lft.to/lastmile_qr_scan"}, "is_disabled": 0, "fusion_lat": 0.0, "name": "63632a712f93a8649ccabd22c096575c", "fusion_lon": 0.0}, {"is_reserved": 0, "type": "electric_scooter", "bike_id": "def2bfbd05f51c1b84427246dc6abfda", "lat": 38.8987775, "lon": -76.98840016666666, "rental_uris": {"android": "https://dc.lft.to/lastmile_qr_scan", "ios": "https://dc.lft.to/lastmile_qr_scan"}, "is_disabled": 0, "fusion_lat": 0.0, "name": "def2bfbd05f51c1b84427246dc6abfda", "fusion_lon": 0.0}, {"is_reserved": 0, "type": "electric_scooter", "bike_id": "f9d9e0d8faaf6c0f6a634732ff716d73", "lat": 38.9227595, "lon": -77.04284566666666, "rental_uris": {"android": "https://dc.lft.to/lastmile_qr_scan", "ios": "https://dc.lft.to/lastmile_qr_scan"}, "is_disabled": 0, "fusion_lat": 0.0, "name": "f9d9e0d8faaf6c0f6a634732ff716d73", "fusion_lon": 0.0}, {"is_reserved": 0, "type": "electric_scooter", "bike_id": "3093491bc24eb6c12daff61490f26bcd", "lat": 38.898642333333335, "lon": -76.946413, "rental_uris": {"android": "https://dc.lft.to/lastmile_qr_scan", "ios": "https://dc.lft.to/lastmile_qr_scan"}, "is_disabled": 0, "fusion_lat": 0.0, "name": "3093491bc24eb6c12daff61490f26bcd", "fusion_lon": 0.0}, {"is_reserved": 0, "type": "electric_scooter", "bike_id": "6838311144d5564a571cad8d97993d3e", "lat": 38.89067166666667, "lon": -76.9382545, "rental_uris": {"android": "https://dc.lft.to/lastmile_qr_scan", "ios": "https://dc.lft.to/lastmile_qr_scan"}, "is_disabled": 0, "fusion_lat": 0.0, "name": "6838311144d5564a571cad8d97993d3e", "fusion_lon": 0.0}, {"is_reserved": 0, "type": "electric_scooter", "bike_id": "db1badaeb2371a3196dba15d95051bd4", "lat": 38.893513166666665, "lon": -76.986861, "rental_uris": {"android": "https://dc.lft.to/lastmile_qr_scan", "ios": "https://dc.lft.to/lastmile_qr_scan"}, "is_disabled": 0, "fusion_lat": 0.0, "name": "db1badaeb2371a3196dba15d95051bd4", "fusion_lon": 0.0}, {"is_reserved": 0, "type": "electric_scooter", "bike_id": "c37c83af30eb07a81870699afcdf7316", "lat": 38.934932, "lon": -77.04449616666666, "rental_uris": {"android": "https://dc.lft.to/lastmile_qr_scan", "ios": "https://dc.lft.to/lastmile_qr_scan"}, "is_disabled": 0, "fusion_lat": 0.0, "name": "c37c83af30eb07a81870699afcdf7316", "fusion_lon": 0.0}, {"is_reserved": 0, "type": "electric_scooter", "bike_id": "72db7a407c52f388c467e0a2ca623e94", "lat": 38.892278, "lon": -77.02381016666666, "rental_uris": {"android": "https://dc.lft.to/lastmile_qr_scan", "ios": "https://dc.lft.to/lastmile_qr_scan"}, "is_disabled": 0, "fusion_lat": 0.0, "name": "72db7a407c52f388c467e0a2ca623e94", "fusion_lon": 0.0}, {"is_reserved": 0, "type": "electric_bike", "bike_id": "aef2a6c3d153462a8b11e75b6dc423c6", "lat": 38.9613105, "lon": -77.02978716666667, "rental_uris": {"android": "https://dc.lft.to/lastmile_qr_scan", "ios": "https://dc.lft.to/lastmile_qr_scan"}, "is_disabled": 0, "fusion_lat": 0.0, "name": "aef2a6c3d153462a8b11e75b6dc423c6", "fusion_lon": 0.0}, {"is_reserved": 0, "type": "electric_scooter", "bike_id": "2f15a7adb2966d243e3e44edaf1850f1", "lat": 38.9273615, "lon": -77.02254216666667, "rental_uris": {"android": "https://dc.lft.to/lastmile_qr_scan", "ios": "https://dc.lft.to/lastmile_qr_scan"}, "is_disabled": 0, "fusion_lat": 0.0, "name": "2f15a7adb2966d243e3e44edaf1850f1", "fusion_lon": 0.0}, {"is_reserved": 0, "type": "electric_scooter", "bike_id": "a43943605e52954539548d1075c57bc2", "lat": 38.90453616666667, "lon": -77.00735416666667, "rental_uris": {"android": "https://dc.lft.to/lastmile_qr_scan", "ios": "https://dc.lft.to/lastmile_qr_scan"}, "is_disabled": 0, "fusion_lat": 0.0, "name": "a43943605e52954539548d1075c57bc2", "fusion_lon": 0.0}, {"is_reserved": 0, "type": "electric_scooter", "bike_id": "5b7f50239af9400ea504ccd16d9572ba", "lat": 38.9898705, "lon": -77.033591, "rental_uris": {"android": "https://dc.lft.to/lastmile_qr_scan", "ios": "https://dc.lft.to/lastmile_qr_scan"}, "is_disabled": 0, "fusion_lat": 0.0, "name": "5b7f50239af9400ea504ccd16d9572ba", "fusion_lon": 0.0}, {"is_reserved": 0, "type": "electric_scooter", "bike_id": "b950bf6a99a69a3f58714f1b2be10d86", "lat": 38.925510333333335, "lon": -77.05317716666667, "rental_uris": {"android": "https://dc.lft.to/lastmile_qr_scan", "ios": "https://dc.lft.to/lastmile_qr_scan"}, "is_disabled": 0, "fusion_lat": 0.0, "name": "b950bf6a99a69a3f58714f1b2be10d86", "fusion_lon": 0.0}, {"is_reserved": 0, "type": "electric_scooter", "bike_id": "96e346460846da94bc656fa677c46172", "lat": 38.907281833333336, "lon": -77.007015, "rental_uris": {"android": "https://dc.lft.to/lastmile_qr_scan", "ios": "https://dc.lft.to/lastmile_qr_scan"}, "is_disabled": 0, "fusion_lat": 0.0, "name": "96e346460846da94bc656fa677c46172", "fusion_lon": 0.0}, {"is_reserved": 0, "type": "electric_scooter", "bike_id": "703e5b8b5010a294bc2716e63655c44b", "lat": 38.90447183333333, "lon": -76.99626566666667, "rental_uris": {"android": "https://dc.lft.to/lastmile_qr_scan", "ios": "https://dc.lft.to/lastmile_qr_scan"}, "is_disabled": 0, "fusion_lat": 0.0, "name": "703e5b8b5010a294bc2716e63655c44b", "fusion_lon": 0.0}, {"is_reserved": 0, "type": "electric_scooter", "bike_id": "d5ee4844726ed2543b214cf5dcc63eb9", "lat": 38.91586366666667, "lon": -77.0208465, "rental_uris": {"android": "https://dc.lft.to/lastmile_qr_scan", "ios": "https://dc.lft.to/lastmile_qr_scan"}, "is_disabled": 0, "fusion_lat": 0.0, "name": "d5ee4844726ed2543b214cf5dcc63eb9", "fusion_lon": 0.0}, {"is_reserved": 0, "type": "electric_scooter", "bike_id": "c2544dfc8e01c72aa681c297d61c9910", "lat": 38.924409, "lon": -77.02037283333334, "rental_uris": {"android": "https://dc.lft.to/lastmile_qr_scan", "ios": "https://dc.lft.to/lastmile_qr_scan"}, "is_disabled": 0, "fusion_lat": 0.0, "name": "c2544dfc8e01c72aa681c297d61c9910", "fusion_lon": 0.0}, {"is_reserved": 0, "type": "electric_scooter", "bike_id": "6d13c21221afcf9b779a547addd41187", "lat": 38.91287366666667, "lon": -77.07275316666667, "rental_uris": {"android": "https://dc.lft.to/lastmile_qr_scan", "ios": "https://dc.lft.to/lastmile_qr_scan"}, "is_disabled": 0, "fusion_lat": 0.0, "name": "6d13c21221afcf9b779a547addd41187", "fusion_lon": 0.0}, {"is_reserved": 0, "type": "electric_scooter", "bike_id": "f383b73dee0e65ae67366cdafb1d99ae", "lat": 38.92380416666666, "lon": -77.05063933333334, "rental_uris": {"android": "https://dc.lft.to/lastmile_qr_scan", "ios": "https://dc.lft.to/lastmile_qr_scan"}, "is_disabled": 0, "fusion_lat": 0.0, "name": "f383b73dee0e65ae67366cdafb1d99ae", "fusion_lon": 0.0}, {"is_reserved": 0, "type": "electric_scooter", "bike_id": "d166103eaaf728ebb2bf9811f04ec1f8", "lat": 38.85648533333333, "lon": -76.99676533333333, "rental_uris": {"android": "https://dc.lft.to/lastmile_qr_scan", "ios": "https://dc.lft.to/lastmile_qr_scan"}, "is_disabled": 0, "fusion_lat": 0.0, "name": "d166103eaaf728ebb2bf9811f04ec1f8", "fusion_lon": 0.0}, {"is_reserved": 0, "type": "electric_scooter", "bike_id": "61e3a2b407a730425d431b10fa25704d", "lat": 38.92384533333333, "lon": -77.05052766666667, "rental_uris": {"android": "https://dc.lft.to/lastmile_qr_scan", "ios": "https://dc.lft.to/lastmile_qr_scan"}, "is_disabled": 0, "fusion_lat": 0.0, "name": "61e3a2b407a730425d431b10fa25704d", "fusion_lon": 0.0}, {"is_reserved": 0, "type": "electric_bike", "bike_id": "a86400632d8ce7ea38caf7e4a7344746", "lat": 38.8946075, "lon": -77.10349916666667, "rental_uris": {"android": "https://dc.lft.to/lastmile_qr_scan", "ios": "https://dc.lft.to/lastmile_qr_scan"}, "is_disabled": 0, "fusion_lat": 0.0, "name": "a86400632d8ce7ea38caf7e4a7344746", "fusion_lon": 0.0}, {"is_reserved": 0, "type": "electric_scooter", "bike_id": "5b3be29ecd186b3a7aa71ccfd4ae3348", "lat": 38.9002745, "lon": -76.98823883333333, "rental_uris": {"android": "https://dc.lft.to/lastmile_qr_scan", "ios": "https://dc.lft.to/lastmile_qr_scan"}, "is_disabled": 0, "fusion_lat": 0.0, "name": "5b3be29ecd186b3a7aa71ccfd4ae3348", "fusion_lon": 0.0}, {"is_reserved": 0, "type": "electric_scooter", "bike_id": "c2f905a22f2e1bf611c5d201e05e420e", "lat": 38.935017, "lon": -77.042834, "rental_uris": {"android": "https://dc.lft.to/lastmile_qr_scan", "ios": "https://dc.lft.to/lastmile_qr_scan"}, "is_disabled": 0, "fusion_lat": 0.0, "name": "c2f905a22f2e1bf611c5d201e05e420e", "fusion_lon": 0.0}, {"is_reserved": 0, "type": "electric_scooter", "bike_id": "f8e9d2ad5dc179b8742726adb5692569", "lat": 38.90399466666667, "lon": -77.020029, "rental_uris": {"android": "https://dc.lft.to/lastmile_qr_scan", "ios": "https://dc.lft.to/lastmile_qr_scan"}, "is_disabled": 0, "fusion_lat": 0.0, "name": "f8e9d2ad5dc179b8742726adb5692569", "fusion_lon": 0.0}, {"is_reserved": 0, "type": "electric_scooter", "bike_id": "1af3c1aa769898ab528fbbb34ad48e3c", "lat": 38.896186666666665, "lon": -77.031738, "rental_uris": {"android": "https://dc.lft.to/lastmile_qr_scan", "ios": "https://dc.lft.to/lastmile_qr_scan"}, "is_disabled": 0, "fusion_lat": 0.0, "name": "1af3c1aa769898ab528fbbb34ad48e3c", "fusion_lon": 0.0}, {"is_reserved": 0, "type": "electric_scooter", "bike_id": "594795d0183c9840085665cf1dc9d1d0", "lat": 38.916780333333335, "lon": -77.036411, "rental_uris": {"android": "https://dc.lft.to/lastmile_qr_scan", "ios": "https://dc.lft.to/lastmile_qr_scan"}, "is_disabled": 0, "fusion_lat": 0.0, "name": "594795d0183c9840085665cf1dc9d1d0", "fusion_lon": 0.0}, {"is_reserved": 0, "type": "electric_scooter", "bike_id": "f257e5095b0f172b420751e0f013950d", "lat": 38.892406666666666, "lon": -77.04896766666667, "rental_uris": {"android": "https://dc.lft.to/lastmile_qr_scan", "ios": "https://dc.lft.to/lastmile_qr_scan"}, "is_disabled": 0, "fusion_lat": 0.0, "name": "f257e5095b0f172b420751e0f013950d", "fusion_lon": 0.0}, {"is_reserved": 0, "type": "electric_scooter", "bike_id": "e17502a3e5333aab2d5c71e357653f6a", "lat": 38.91119466666667, "lon": -77.02197533333333, "rental_uris": {"android": "https://dc.lft.to/lastmile_qr_scan", "ios": "https://dc.lft.to/lastmile_qr_scan"}, "is_disabled": 0, "fusion_lat": 0.0, "name": "e17502a3e5333aab2d5c71e357653f6a", "fusion_lon": 0.0}, {"is_reserved": 0, "type": "electric_scooter", "bike_id": "277c81d224b74ecbe364423660a12b8a", "lat": 38.90143033333333, "lon": -77.0592345, "rental_uris": {"android": "https://dc.lft.to/lastmile_qr_scan", "ios": "https://dc.lft.to/lastmile_qr_scan"}, "is_disabled": 0, "fusion_lat": 0.0, "name": "277c81d224b74ecbe364423660a12b8a", "fusion_lon": 0.0}, {"is_reserved": 0, "type": "electric_scooter", "bike_id": "125ed52dd81a55eb80ca8dc6eca5aaa5", "lat": 38.9037325, "lon": -77.03144133333333, "rental_uris": {"android": "https://dc.lft.to/lastmile_qr_scan", "ios": "https://dc.lft.to/lastmile_qr_scan"}, "is_disabled": 0, "fusion_lat": 0.0, "name": "125ed52dd81a55eb80ca8dc6eca5aaa5", "fusion_lon": 0.0}, {"is_reserved": 0, "type": "electric_scooter", "bike_id": "41e877d52dfe9a1b32ac025424c32856", "lat": 38.9227355, "lon": -77.04244366666667, "rental_uris": {"android": "https://dc.lft.to/lastmile_qr_scan", "ios": "https://dc.lft.to/lastmile_qr_scan"}, "is_disabled": 0, "fusion_lat": 0.0, "name": "41e877d52dfe9a1b32ac025424c32856", "fusion_lon": 0.0}, {"is_reserved": 0, "type": "electric_scooter", "bike_id": "3652d0f180e87b1c369ec622ffb32121", "lat": 38.92704666666667, "lon": -77.002653, "rental_uris": {"android": "https://dc.lft.to/lastmile_qr_scan", "ios": "https://dc.lft.to/lastmile_qr_scan"}, "is_disabled": 0, "fusion_lat": 0.0, "name": "3652d0f180e87b1c369ec622ffb32121", "fusion_lon": 0.0}, {"is_reserved": 0, "type": "electric_scooter", "bike_id": "f2121ffef66f960341ead6ff41f170b6", "lat": 38.87337633333333, "lon": -76.99168366666666, "rental_uris": {"android": "https://dc.lft.to/lastmile_qr_scan", "ios": "https://dc.lft.to/lastmile_qr_scan"}, "is_disabled": 0, "fusion_lat": 0.0, "name": "f2121ffef66f960341ead6ff41f170b6", "fusion_lon": 0.0}, {"is_reserved": 0, "type": "electric_bike", "bike_id": "46f885eefb4c9e564383f38447db2874", "lat": 38.87000966666667, "lon": -77.22998066666666, "rental_uris": {"android": "https://dc.lft.to/lastmile_qr_scan", "ios": "https://dc.lft.to/lastmile_qr_scan"}, "is_disabled": 0, "fusion_lat": 0.0, "name": "46f885eefb4c9e564383f38447db2874", "fusion_lon": 0.0}, {"is_reserved": 0, "type": "electric_scooter", "bike_id": "9940fde04c616a5b67c9f3450716ef1c", "lat": 38.8949005, "lon": -77.028205, "rental_uris": {"android": "https://dc.lft.to/lastmile_qr_scan", "ios": "https://dc.lft.to/lastmile_qr_scan"}, "is_disabled": 0, "fusion_lat": 0.0, "name": "9940fde04c616a5b67c9f3450716ef1c", "fusion_lon": 0.0}, {"is_reserved": 0, "type": "electric_scooter", "bike_id": "4563bfa395f00670b20463567624cebf", "lat": 38.915658, "lon": -77.0385415, "rental_uris": {"android": "https://dc.lft.to/lastmile_qr_scan", "ios": "https://dc.lft.to/lastmile_qr_scan"}, "is_disabled": 0, "fusion_lat": 0.0, "name": "4563bfa395f00670b20463567624cebf", "fusion_lon": 0.0}, {"is_reserved": 0, "type": "electric_scooter", "bike_id": "619957d7a835a9c6c2bce8c6892e82e4", "lat": 38.88630466666667, "lon": -77.0222335, "rental_uris": {"android": "https://dc.lft.to/lastmile_qr_scan", "ios": "https://dc.lft.to/lastmile_qr_scan"}, "is_disabled": 0, "fusion_lat": 0.0, "name": "619957d7a835a9c6c2bce8c6892e82e4", "fusion_lon": 0.0}, {"is_reserved": 0, "type": "electric_scooter", "bike_id": "22ca643edac1590948ae184f4b97b527", "lat": 38.8935115, "lon": -77.0033545, "rental_uris": {"android": "https://dc.lft.to/lastmile_qr_scan", "ios": "https://dc.lft.to/lastmile_qr_scan"}, "is_disabled": 0, "fusion_lat": 0.0, "name": "22ca643edac1590948ae184f4b97b527", "fusion_lon": 0.0}, {"is_reserved": 0, "type": "electric_bike", "bike_id": "6cf279cb6d50a1ecf7d0c600bd5428d0", "lat": 38.8541385, "lon": -77.08366066666666, "rental_uris": {"android": "https://dc.lft.to/lastmile_qr_scan", "ios": "https://dc.lft.to/lastmile_qr_scan"}, "is_disabled": 0, "fusion_lat": 0.0, "name": "6cf279cb6d50a1ecf7d0c600bd5428d0", "fusion_lon": 0.0}, {"is_reserved": 0, "type": "electric_scooter", "bike_id": "870c6e5237d56cc805718516e3f74ca4", "lat": 38.900224, "lon": -77.01207816666667, "rental_uris": {"android": "https://dc.lft.to/lastmile_qr_scan", "ios": "https://dc.lft.to/lastmile_qr_scan"}, "is_disabled": 0, "fusion_lat": 0.0, "name": "870c6e5237d56cc805718516e3f74ca4", "fusion_lon": 0.0}, {"is_reserved": 0, "type": "electric_scooter", "bike_id": "c4830d71b0d017482f0ff67ab7448264", "lat": 38.908878666666666, "lon": -77.002868, "rental_uris": {"android": "https://dc.lft.to/lastmile_qr_scan", "ios": "https://dc.lft.to/lastmile_qr_scan"}, "is_disabled": 0, "fusion_lat": 0.0, "name": "c4830d71b0d017482f0ff67ab7448264", "fusion_lon": 0.0}, {"is_reserved": 0, "type": "electric_scooter", "bike_id": "8b05d9c13126a1d59c1575bd39a726b9", "lat": 38.92513483333333, "lon": -77.0506365, "rental_uris": {"android": "https://dc.lft.to/lastmile_qr_scan", "ios": "https://dc.lft.to/lastmile_qr_scan"}, "is_disabled": 0, "fusion_lat": 0.0, "name": "8b05d9c13126a1d59c1575bd39a726b9", "fusion_lon": 0.0}, {"is_reserved": 0, "type": "electric_scooter", "bike_id": "2dcf65cf7f7520dcbde821d008fb3c46", "lat": 38.88531583333334, "lon": -76.98087516666666, "rental_uris": {"android": "https://dc.lft.to/lastmile_qr_scan", "ios": "https://dc.lft.to/lastmile_qr_scan"}, "is_disabled": 0, "fusion_lat": 0.0, "name": "2dcf65cf7f7520dcbde821d008fb3c46", "fusion_lon": 0.0}, {"is_reserved": 0, "type": "electric_scooter", "bike_id": "51394e4730400c72e9b32d5551d0ca4b", "lat": 38.86636016666667, "lon": -76.98285233333333, "rental_uris": {"android": "https://dc.lft.to/lastmile_qr_scan", "ios": "https://dc.lft.to/lastmile_qr_scan"}, "is_disabled": 0, "fusion_lat": 0.0, "name": "51394e4730400c72e9b32d5551d0ca4b", "fusion_lon": 0.0}, {"is_reserved": 0, "type": "electric_scooter", "bike_id": "48a4d302d842cb5f216bcb816d118d2b", "lat": 38.91293016666667, "lon": -76.98545666666666, "rental_uris": {"android": "https://dc.lft.to/lastmile_qr_scan", "ios": "https://dc.lft.to/lastmile_qr_scan"}, "is_disabled": 0, "fusion_lat": 0.0, "name": "48a4d302d842cb5f216bcb816d118d2b", "fusion_lon": 0.0}, {"is_reserved": 0, "type": "electric_scooter", "bike_id": "fefd1d7f8bc99e7f5a836a3bec6e00f5", "lat": 38.909751, "lon": -77.03298366666667, "rental_uris": {"android": "https://dc.lft.to/lastmile_qr_scan", "ios": "https://dc.lft.to/lastmile_qr_scan"}, "is_disabled": 0, "fusion_lat": 0.0, "name": "fefd1d7f8bc99e7f5a836a3bec6e00f5", "fusion_lon": 0.0}, {"is_reserved": 0, "type": "electric_scooter", "bike_id": "dccbbba1eb4743c401399bbfb8b2235b", "lat": 38.928714166666666, "lon": -77.0270275, "rental_uris": {"android": "https://dc.lft.to/lastmile_qr_scan", "ios": "https://dc.lft.to/lastmile_qr_scan"}, "is_disabled": 0, "fusion_lat": 0.0, "name": "dccbbba1eb4743c401399bbfb8b2235b", "fusion_lon": 0.0}, {"is_reserved": 0, "type": "electric_scooter", "bike_id": "55f88c400f82c91de80703a73a6ba65e", "lat": 38.90602766666667, "lon": -77.04665766666666, "rental_uris": {"android": "https://dc.lft.to/lastmile_qr_scan", "ios": "https://dc.lft.to/lastmile_qr_scan"}, "is_disabled": 0, "fusion_lat": 0.0, "name": "55f88c400f82c91de80703a73a6ba65e", "fusion_lon": 0.0}, {"is_reserved": 0, "type": "electric_scooter", "bike_id": "a67f0ea613816c8e6d4fd0a95534c41e", "lat": 38.91665883333334, "lon": -77.02970533333334, "rental_uris": {"android": "https://dc.lft.to/lastmile_qr_scan", "ios": "https://dc.lft.to/lastmile_qr_scan"}, "is_disabled": 0, "fusion_lat": 0.0, "name": "a67f0ea613816c8e6d4fd0a95534c41e", "fusion_lon": 0.0}, {"is_reserved": 0, "type": "electric_scooter", "bike_id": "bbaf2c07f4b07d4738c170cb97f53764", "lat": 38.8657255, "lon": -76.9902695, "rental_uris": {"android": "https://dc.lft.to/lastmile_qr_scan", "ios": "https://dc.lft.to/lastmile_qr_scan"}, "is_disabled": 0, "fusion_lat": 0.0, "name": "bbaf2c07f4b07d4738c170cb97f53764", "fusion_lon": 0.0}, {"is_reserved": 0, "type": "electric_bike", "bike_id": "0fc1f15d5870409f61365ba443cc0af7", "lat": 38.90519416666667, "lon": -77.06102416666667, "rental_uris": {"android": "https://dc.lft.to/lastmile_qr_scan", "ios": "https://dc.lft.to/lastmile_qr_scan"}, "is_disabled": 0, "fusion_lat": 0.0, "name": "0fc1f15d5870409f61365ba443cc0af7", "fusion_lon": 0.0}, {"is_reserved": 0, "type": "electric_scooter", "bike_id": "6f26a4bdf589b85ea361be75ea6e7b04", "lat": 38.894666, "lon": -77.02697816666667, "rental_uris": {"android": "https://dc.lft.to/lastmile_qr_scan", "ios": "https://dc.lft.to/lastmile_qr_scan"}, "is_disabled": 0, "fusion_lat": 0.0, "name": "6f26a4bdf589b85ea361be75ea6e7b04", "fusion_lon": 0.0}, {"is_reserved": 0, "type": "electric_scooter", "bike_id": "446e55180c7fafd050d2d48f2eda23eb", "lat": 38.91839066666667, "lon": -77.02433, "rental_uris": {"android": "https://dc.lft.to/lastmile_qr_scan", "ios": "https://dc.lft.to/lastmile_qr_scan"}, "is_disabled": 0, "fusion_lat": 0.0, "name": "446e55180c7fafd050d2d48f2eda23eb", "fusion_lon": 0.0}, {"is_reserved": 0, "type": "electric_bike", "bike_id": "bfa73e98990bd6287a136dad9ef1143c", "lat": 39.084897, "lon": -76.95061333333334, "rental_uris": {"android": "https://dc.lft.to/lastmile_qr_scan", "ios": "https://dc.lft.to/lastmile_qr_scan"}, "is_disabled": 0, "fusion_lat": 0.0, "name": "bfa73e98990bd6287a136dad9ef1143c", "fusion_lon": 0.0}, {"is_reserved": 0, "type": "electric_scooter", "bike_id": "b4017594e4620163b06fa4b36ee79a31", "lat": 38.93046366666667, "lon": -77.036144, "rental_uris": {"android": "https://dc.lft.to/lastmile_qr_scan", "ios": "https://dc.lft.to/lastmile_qr_scan"}, "is_disabled": 0, "fusion_lat": 0.0, "name": "b4017594e4620163b06fa4b36ee79a31", "fusion_lon": 0.0}, {"is_reserved": 0, "type": "electric_scooter", "bike_id": "c9d085fb1ec38fe59c255140e49d5f59", "lat": 38.92478166666667, "lon": -77.02792133333334, "rental_uris": {"android": "https://dc.lft.to/lastmile_qr_scan", "ios": "https://dc.lft.to/lastmile_qr_scan"}, "is_disabled": 0, "fusion_lat": 0.0, "name": "c9d085fb1ec38fe59c255140e49d5f59", "fusion_lon": 0.0}, {"is_reserved": 0, "type": "electric_scooter", "bike_id": "5a1925ea37bbe28088c029acb68d311d", "lat": 38.892177, "lon": -77.02690783333334, "rental_uris": {"android": "https://dc.lft.to/lastmile_qr_scan", "ios": "https://dc.lft.to/lastmile_qr_scan"}, "is_disabled": 0, "fusion_lat": 0.0, "name": "5a1925ea37bbe28088c029acb68d311d", "fusion_lon": 0.0}, {"is_reserved": 0, "type": "electric_scooter", "bike_id": "30b5a851f0fcb018a95a1972f59fb0cb", "lat": 38.944360333333336, "lon": -76.97962916666667, "rental_uris": {"android": "https://dc.lft.to/lastmile_qr_scan", "ios": "https://dc.lft.to/lastmile_qr_scan"}, "is_disabled": 0, "fusion_lat": 0.0, "name": "30b5a851f0fcb018a95a1972f59fb0cb", "fusion_lon": 0.0}, {"is_reserved": 0, "type": "electric_scooter", "bike_id": "1c206c72f262d14b8b833439d4a19c44", "lat": 38.93993483333333, "lon": -77.0195695, "rental_uris": {"android": "https://dc.lft.to/lastmile_qr_scan", "ios": "https://dc.lft.to/lastmile_qr_scan"}, "is_disabled": 0, "fusion_lat": 0.0, "name": "1c206c72f262d14b8b833439d4a19c44", "fusion_lon": 0.0}, {"is_reserved": 0, "type": "electric_scooter", "bike_id": "6acd911ff13c388d060660894ef5626a", "lat": 38.92619033333333, "lon": -77.04324316666667, "rental_uris": {"android": "https://dc.lft.to/lastmile_qr_scan", "ios": "https://dc.lft.to/lastmile_qr_scan"}, "is_disabled": 0, "fusion_lat": 0.0, "name": "6acd911ff13c388d060660894ef5626a", "fusion_lon": 0.0}, {"is_reserved": 0, "type": "electric_scooter", "bike_id": "e3fb371cc433349e75394a67ac8b86ba", "lat": 38.8953045, "lon": -77.04472316666667, "rental_uris": {"android": "https://dc.lft.to/lastmile_qr_scan", "ios": "https://dc.lft.to/lastmile_qr_scan"}, "is_disabled": 0, "fusion_lat": 0.0, "name": "e3fb371cc433349e75394a67ac8b86ba", "fusion_lon": 0.0}, {"is_reserved": 0, "type": "electric_scooter", "bike_id": "7052e9303373c2217005c05dcb2e64eb", "lat": 38.9136425, "lon": -77.04494383333333, "rental_uris": {"android": "https://dc.lft.to/lastmile_qr_scan", "ios": "https://dc.lft.to/lastmile_qr_scan"}, "is_disabled": 0, "fusion_lat": 0.0, "name": "7052e9303373c2217005c05dcb2e64eb", "fusion_lon": 0.0}, {"is_reserved": 0, "type": "electric_scooter", "bike_id": "2a1ec3d7897d180746274c75b1ef1626", "lat": 38.90945516666667, "lon": -77.02394916666667, "rental_uris": {"android": "https://dc.lft.to/lastmile_qr_scan", "ios": "https://dc.lft.to/lastmile_qr_scan"}, "is_disabled": 0, "fusion_lat": 0.0, "name": "2a1ec3d7897d180746274c75b1ef1626", "fusion_lon": 0.0}, {"is_reserved": 0, "type": "electric_scooter", "bike_id": "0225b9c2e8c7e8aa91264ddf2439aaa7", "lat": 38.9147775, "lon": -77.0322945, "rental_uris": {"android": "https://dc.lft.to/lastmile_qr_scan", "ios": "https://dc.lft.to/lastmile_qr_scan"}, "is_disabled": 0, "fusion_lat": 0.0, "name": "0225b9c2e8c7e8aa91264ddf2439aaa7", "fusion_lon": 0.0}, {"is_reserved": 0, "type": "electric_scooter", "bike_id": "bf310e859253915a6362c23ddf5cb0fb", "lat": 38.893375666666664, "lon": -77.03003133333333, "rental_uris": {"android": "https://dc.lft.to/lastmile_qr_scan", "ios": "https://dc.lft.to/lastmile_qr_scan"}, "is_disabled": 0, "fusion_lat": 0.0, "name": "bf310e859253915a6362c23ddf5cb0fb", "fusion_lon": 0.0}, {"is_reserved": 0, "type": "electric_scooter", "bike_id": "5606dd2c819015cf81c87f07230f428d", "lat": 38.86517333333333, "lon": -76.96906383333334, "rental_uris": {"android": "https://dc.lft.to/lastmile_qr_scan", "ios": "https://dc.lft.to/lastmile_qr_scan"}, "is_disabled": 0, "fusion_lat": 0.0, "name": "5606dd2c819015cf81c87f07230f428d", "fusion_lon": 0.0}, {"is_reserved": 0, "type": "electric_scooter", "bike_id": "35265d3ceb2ce3ed9874d953df1a465a", "lat": 38.972365833333335, "lon": -77.0271475, "rental_uris": {"android": "https://dc.lft.to/lastmile_qr_scan", "ios": "https://dc.lft.to/lastmile_qr_scan"}, "is_disabled": 0, "fusion_lat": 0.0, "name": "35265d3ceb2ce3ed9874d953df1a465a", "fusion_lon": 0.0}, {"is_reserved": 0, "type": "electric_scooter", "bike_id": "768ae4d21f8ee31093d4db7a87ed3866", "lat": 38.904863166666665, "lon": -77.0485815, "rental_uris": {"android": "https://dc.lft.to/lastmile_qr_scan", "ios": "https://dc.lft.to/lastmile_qr_scan"}, "is_disabled": 0, "fusion_lat": 0.0, "name": "768ae4d21f8ee31093d4db7a87ed3866", "fusion_lon": 0.0}, {"is_reserved": 0, "type": "electric_scooter", "bike_id": "94d55824a046076233e65bf4b4e9cda2", "lat": 38.927565, "lon": -77.0278225, "rental_uris": {"android": "https://dc.lft.to/lastmile_qr_scan", "ios": "https://dc.lft.to/lastmile_qr_scan"}, "is_disabled": 0, "fusion_lat": 0.0, "name": "94d55824a046076233e65bf4b4e9cda2", "fusion_lon": 0.0}, {"is_reserved": 0, "type": "electric_scooter", "bike_id": "4f32d71b3a20e1e5bb932e6b7195d5e4", "lat": 38.918821666666666, "lon": -77.04720466666667, "rental_uris": {"android": "https://dc.lft.to/lastmile_qr_scan", "ios": "https://dc.lft.to/lastmile_qr_scan"}, "is_disabled": 0, "fusion_lat": 0.0, "name": "4f32d71b3a20e1e5bb932e6b7195d5e4", "fusion_lon": 0.0}, {"is_reserved": 0, "type": "electric_bike", "bike_id": "351a91e2cb82ad8e6cb399258747e0dd", "lat": 38.802453166666666, "lon": -77.11435516666667, "rental_uris": {"android": "https://dc.lft.to/lastmile_qr_scan", "ios": "https://dc.lft.to/lastmile_qr_scan"}, "is_disabled": 0, "fusion_lat": 0.0, "name": "351a91e2cb82ad8e6cb399258747e0dd", "fusion_lon": 0.0}, {"is_reserved": 0, "type": "electric_scooter", "bike_id": "d1f291ac4a2114253fbe8b4340eec7f7", "lat": 38.91764883333333, "lon": -77.04059883333333, "rental_uris": {"android": "https://dc.lft.to/lastmile_qr_scan", "ios": "https://dc.lft.to/lastmile_qr_scan"}, "is_disabled": 0, "fusion_lat": 0.0, "name": "d1f291ac4a2114253fbe8b4340eec7f7", "fusion_lon": 0.0}, {"is_reserved": 0, "type": "electric_scooter", "bike_id": "03a18ed8d018057a3cf5a36ac5f4de44", "lat": 38.9250065, "lon": -77.03880366666667, "rental_uris": {"android": "https://dc.lft.to/lastmile_qr_scan", "ios": "https://dc.lft.to/lastmile_qr_scan"}, "is_disabled": 0, "fusion_lat": 0.0, "name": "03a18ed8d018057a3cf5a36ac5f4de44", "fusion_lon": 0.0}, {"is_reserved": 0, "type": "electric_scooter", "bike_id": "f66d17158d2ccfa85a527bfa3fef8394", "lat": 38.9076275, "lon": -77.03184016666667, "rental_uris": {"android": "https://dc.lft.to/lastmile_qr_scan", "ios": "https://dc.lft.to/lastmile_qr_scan"}, "is_disabled": 0, "fusion_lat": 0.0, "name": "f66d17158d2ccfa85a527bfa3fef8394", "fusion_lon": 0.0}, {"is_reserved": 0, "type": "electric_scooter", "bike_id": "982a953b615aa8e97d2e580e02d51549", "lat": 38.9236925, "lon": -77.01914133333334, "rental_uris": {"android": "https://dc.lft.to/lastmile_qr_scan", "ios": "https://dc.lft.to/lastmile_qr_scan"}, "is_disabled": 0, "fusion_lat": 0.0, "name": "982a953b615aa8e97d2e580e02d51549", "fusion_lon": 0.0}, {"is_reserved": 0, "type": "electric_scooter", "bike_id": "b9a48727386b362aba3732f9adaee085", "lat": 38.91553316666667, "lon": -77.03117916666666, "rental_uris": {"android": "https://dc.lft.to/lastmile_qr_scan", "ios": "https://dc.lft.to/lastmile_qr_scan"}, "is_disabled": 0, "fusion_lat": 0.0, "name": "b9a48727386b362aba3732f9adaee085", "fusion_lon": 0.0}, {"is_reserved": 0, "type": "electric_scooter", "bike_id": "6034677fa175977eb0ba9ce182099114", "lat": 38.89608533333333, "lon": -77.04410683333333, "rental_uris": {"android": "https://dc.lft.to/lastmile_qr_scan", "ios": "https://dc.lft.to/lastmile_qr_scan"}, "is_disabled": 0, "fusion_lat": 0.0, "name": "6034677fa175977eb0ba9ce182099114", "fusion_lon": 0.0}, {"is_reserved": 0, "type": "electric_scooter", "bike_id": "c17e614a5cb5e09f8b4392f7e4c1b264", "lat": 38.894573, "lon": -77.02395616666666, "rental_uris": {"android": "https://dc.lft.to/lastmile_qr_scan", "ios": "https://dc.lft.to/lastmile_qr_scan"}, "is_disabled": 0, "fusion_lat": 0.0, "name": "c17e614a5cb5e09f8b4392f7e4c1b264", "fusion_lon": 0.0}, {"is_reserved": 0, "type": "electric_scooter", "bike_id": "aaf424ccbba41eec7b1b7ffb7e21a25b", "lat": 38.92042633333333, "lon": -77.0418005, "rental_uris": {"android": "https://dc.lft.to/lastmile_qr_scan", "ios": "https://dc.lft.to/lastmile_qr_scan"}, "is_disabled": 0, "fusion_lat": 0.0, "name": "aaf424ccbba41eec7b1b7ffb7e21a25b", "fusion_lon": 0.0}, {"is_reserved": 0, "type": "electric_bike", "bike_id": "7ccb5d3e1477755e91da72bc782a2c68", "lat": 38.8200665, "lon": -77.08103466666667, "rental_uris": {"android": "https://dc.lft.to/lastmile_qr_scan", "ios": "https://dc.lft.to/lastmile_qr_scan"}, "is_disabled": 0, "fusion_lat": 0.0, "name": "7ccb5d3e1477755e91da72bc782a2c68", "fusion_lon": 0.0}, {"is_reserved": 0, "type": "electric_bike", "bike_id": "d068db35f905ca7e116dcabea8d528a3", "lat": 38.9244835, "lon": -77.0191935, "rental_uris": {"android": "https://dc.lft.to/lastmile_qr_scan", "ios": "https://dc.lft.to/lastmile_qr_scan"}, "is_disabled": 0, "fusion_lat": 0.0, "name": "d068db35f905ca7e116dcabea8d528a3", "fusion_lon": 0.0}, {"is_reserved": 0, "type": "electric_scooter", "bike_id": "ac604c69409c708d6c28baeed3eaf6eb", "lat": 38.90768283333333, "lon": -77.04516833333334, "rental_uris": {"android": "https://dc.lft.to/lastmile_qr_scan", "ios": "https://dc.lft.to/lastmile_qr_scan"}, "is_disabled": 0, "fusion_lat": 0.0, "name": "ac604c69409c708d6c28baeed3eaf6eb", "fusion_lon": 0.0}, {"is_reserved": 0, "type": "electric_scooter", "bike_id": "08c8ed8195c0645b80627f788f8bd9df", "lat": 38.9174525, "lon": -77.04071366666666, "rental_uris": {"android": "https://dc.lft.to/lastmile_qr_scan", "ios": "https://dc.lft.to/lastmile_qr_scan"}, "is_disabled": 0, "fusion_lat": 0.0, "name": "08c8ed8195c0645b80627f788f8bd9df", "fusion_lon": 0.0}, {"is_reserved": 0, "type": "electric_bike", "bike_id": "c2a8947bfe9d5a3cd5cfc1ddda6b6b93", "lat": 39.085906, "lon": -77.122643, "rental_uris": {"android": "https://dc.lft.to/lastmile_qr_scan", "ios": "https://dc.lft.to/lastmile_qr_scan"}, "is_disabled": 0, "fusion_lat": 0.0, "name": "c2a8947bfe9d5a3cd5cfc1ddda6b6b93", "fusion_lon": 0.0}, {"is_reserved": 0, "type": "electric_scooter", "bike_id": "baa06073f2dd416cae5b7268fe3abce6", "lat": 38.935647, "lon": -77.03299766666666, "rental_uris": {"android": "https://dc.lft.to/lastmile_qr_scan", "ios": "https://dc.lft.to/lastmile_qr_scan"}, "is_disabled": 0, "fusion_lat": 0.0, "name": "baa06073f2dd416cae5b7268fe3abce6", "fusion_lon": 0.0}, {"is_reserved": 0, "type": "electric_bike", "bike_id": "2f08baf9b5c4585c1bc8486ad124cf4d", "lat": 38.972337833333334, "lon": -77.02711383333333, "rental_uris": {"android": "https://dc.lft.to/lastmile_qr_scan", "ios": "https://dc.lft.to/lastmile_qr_scan"}, "is_disabled": 0, "fusion_lat": 0.0, "name": "2f08baf9b5c4585c1bc8486ad124cf4d", "fusion_lon": 0.0}, {"is_reserved": 0, "type": "electric_scooter", "bike_id": "c3eaf326f42d85e6a875cdd244ef7845", "lat": 38.920759, "lon": -77.025297, "rental_uris": {"android": "https://dc.lft.to/lastmile_qr_scan", "ios": "https://dc.lft.to/lastmile_qr_scan"}, "is_disabled": 0, "fusion_lat": 0.0, "name": "c3eaf326f42d85e6a875cdd244ef7845", "fusion_lon": 0.0}, {"is_reserved": 0, "type": "electric_scooter", "bike_id": "a3ccf8ac29fc998d2c3d5fec09b3f236", "lat": 38.9256235, "lon": -76.970062, "rental_uris": {"android": "https://dc.lft.to/lastmile_qr_scan", "ios": "https://dc.lft.to/lastmile_qr_scan"}, "is_disabled": 0, "fusion_lat": 0.0, "name": "a3ccf8ac29fc998d2c3d5fec09b3f236", "fusion_lon": 0.0}, {"is_reserved": 0, "type": "electric_scooter", "bike_id": "63314ab75acc82b23275a50c6c8aa176", "lat": 38.908605666666666, "lon": -77.02179766666667, "rental_uris": {"android": "https://dc.lft.to/lastmile_qr_scan", "ios": "https://dc.lft.to/lastmile_qr_scan"}, "is_disabled": 0, "fusion_lat": 0.0, "name": "63314ab75acc82b23275a50c6c8aa176", "fusion_lon": 0.0}, {"is_reserved": 0, "type": "electric_scooter", "bike_id": "e4dc0f0411a5919fad975d779eaf036d", "lat": 38.929639, "lon": -77.023435, "rental_uris": {"android": "https://dc.lft.to/lastmile_qr_scan", "ios": "https://dc.lft.to/lastmile_qr_scan"}, "is_disabled": 0, "fusion_lat": 0.0, "name": "e4dc0f0411a5919fad975d779eaf036d", "fusion_lon": 0.0}, {"is_reserved": 0, "type": "electric_scooter", "bike_id": "c2704be0665be36a40c5cb9e623ff9b3", "lat": 38.92169583333333, "lon": -77.03207366666666, "rental_uris": {"android": "https://dc.lft.to/lastmile_qr_scan", "ios": "https://dc.lft.to/lastmile_qr_scan"}, "is_disabled": 0, "fusion_lat": 0.0, "name": "c2704be0665be36a40c5cb9e623ff9b3", "fusion_lon": 0.0}, {"is_reserved": 0, "type": "electric_scooter", "bike_id": "f6c6340de2b6035f2968e28ae818b058", "lat": 38.9473065, "lon": -77.02459416666666, "rental_uris": {"android": "https://dc.lft.to/lastmile_qr_scan", "ios": "https://dc.lft.to/lastmile_qr_scan"}, "is_disabled": 0, "fusion_lat": 0.0, "name": "f6c6340de2b6035f2968e28ae818b058", "fusion_lon": 0.0}, {"is_reserved": 0, "type": "electric_scooter", "bike_id": "f4e598a37029b25de18ae45bb09f70df", "lat": 38.933667, "lon": -77.0573005, "rental_uris": {"android": "https://dc.lft.to/lastmile_qr_scan", "ios": "https://dc.lft.to/lastmile_qr_scan"}, "is_disabled": 0, "fusion_lat": 0.0, "name": "f4e598a37029b25de18ae45bb09f70df", "fusion_lon": 0.0}, {"is_reserved": 0, "type": "electric_scooter", "bike_id": "d37c8e85491ee5b528ac229919928f19", "lat": 38.938706333333336, "lon": -77.03215683333333, "rental_uris": {"android": "https://dc.lft.to/lastmile_qr_scan", "ios": "https://dc.lft.to/lastmile_qr_scan"}, "is_disabled": 0, "fusion_lat": 0.0, "name": "d37c8e85491ee5b528ac229919928f19", "fusion_lon": 0.0}, {"is_reserved": 0, "type": "electric_scooter", "bike_id": "c05bdd62a6d91d9138bc7edfd62b7f45", "lat": 38.900121666666664, "lon": -77.02182916666666, "rental_uris": {"android": "https://dc.lft.to/lastmile_qr_scan", "ios": "https://dc.lft.to/lastmile_qr_scan"}, "is_disabled": 0, "fusion_lat": 0.0, "name": "c05bdd62a6d91d9138bc7edfd62b7f45", "fusion_lon": 0.0}, {"is_reserved": 0, "type": "electric_scooter", "bike_id": "ea0a7c998b67a64bb796f22af331599a", "lat": 38.92291983333333, "lon": -77.03026716666666, "rental_uris": {"android": "https://dc.lft.to/lastmile_qr_scan", "ios": "https://dc.lft.to/lastmile_qr_scan"}, "is_disabled": 0, "fusion_lat": 0.0, "name": "ea0a7c998b67a64bb796f22af331599a", "fusion_lon": 0.0}, {"is_reserved": 0, "type": "electric_scooter", "bike_id": "9cf10b821d1baaf46b6476bb2abe034e", "lat": 38.92483716666667, "lon": -77.02713316666667, "rental_uris": {"android": "https://dc.lft.to/lastmile_qr_scan", "ios": "https://dc.lft.to/lastmile_qr_scan"}, "is_disabled": 0, "fusion_lat": 0.0, "name": "9cf10b821d1baaf46b6476bb2abe034e", "fusion_lon": 0.0}, {"is_reserved": 0, "type": "electric_scooter", "bike_id": "956fdfab2f3c729b0c354a41778b6257", "lat": 38.917465, "lon": -77.06899583333333, "rental_uris": {"android": "https://dc.lft.to/lastmile_qr_scan", "ios": "https://dc.lft.to/lastmile_qr_scan"}, "is_disabled": 0, "fusion_lat": 0.0, "name": "956fdfab2f3c729b0c354a41778b6257", "fusion_lon": 0.0}, {"is_reserved": 0, "type": "electric_scooter", "bike_id": "ccb23b3d69004eb8511acaeea03b4ba7", "lat": 38.92181583333333, "lon": -77.0413545, "rental_uris": {"android": "https://dc.lft.to/lastmile_qr_scan", "ios": "https://dc.lft.to/lastmile_qr_scan"}, "is_disabled": 0, "fusion_lat": 0.0, "name": "ccb23b3d69004eb8511acaeea03b4ba7", "fusion_lon": 0.0}, {"is_reserved": 0, "type": "electric_scooter", "bike_id": "7ddbc9de5ef2d8a0b120665637cf5f96", "lat": 38.892145166666666, "lon": -77.04748583333334, "rental_uris": {"android": "https://dc.lft.to/lastmile_qr_scan", "ios": "https://dc.lft.to/lastmile_qr_scan"}, "is_disabled": 0, "fusion_lat": 0.0, "name": "7ddbc9de5ef2d8a0b120665637cf5f96", "fusion_lon": 0.0}, {"is_reserved": 0, "type": "electric_scooter", "bike_id": "f4ce40507b0554f9601081cced111043", "lat": 38.88199616666667, "lon": -76.98897316666667, "rental_uris": {"android": "https://dc.lft.to/lastmile_qr_scan", "ios": "https://dc.lft.to/lastmile_qr_scan"}, "is_disabled": 0, "fusion_lat": 0.0, "name": "f4ce40507b0554f9601081cced111043", "fusion_lon": 0.0}, {"is_reserved": 0, "type": "electric_scooter", "bike_id": "4dbd3f173409bd5df8df84a901c9d79e", "lat": 38.91704383333333, "lon": -77.0298325, "rental_uris": {"android": "https://dc.lft.to/lastmile_qr_scan", "ios": "https://dc.lft.to/lastmile_qr_scan"}, "is_disabled": 0, "fusion_lat": 0.0, "name": "4dbd3f173409bd5df8df84a901c9d79e", "fusion_lon": 0.0}, {"is_reserved": 0, "type": "electric_scooter", "bike_id": "0589574507dff7157fa102e7dc7a8850", "lat": 38.91403233333333, "lon": -77.03171183333333, "rental_uris": {"android": "https://dc.lft.to/lastmile_qr_scan", "ios": "https://dc.lft.to/lastmile_qr_scan"}, "is_disabled": 0, "fusion_lat": 0.0, "name": "0589574507dff7157fa102e7dc7a8850", "fusion_lon": 0.0}, {"is_reserved": 0, "type": "electric_scooter", "bike_id": "5f8ec9f35650ab57dd61f9e6884726c9", "lat": 38.9008495, "lon": -77.0495285, "rental_uris": {"android": "https://dc.lft.to/lastmile_qr_scan", "ios": "https://dc.lft.to/lastmile_qr_scan"}, "is_disabled": 0, "fusion_lat": 0.0, "name": "5f8ec9f35650ab57dd61f9e6884726c9", "fusion_lon": 0.0}, {"is_reserved": 0, "type": "electric_scooter", "bike_id": "ca47ae9b0b844845c02c37890af4b79a", "lat": 38.92259083333333, "lon": -77.01964433333333, "rental_uris": {"android": "https://dc.lft.to/lastmile_qr_scan", "ios": "https://dc.lft.to/lastmile_qr_scan"}, "is_disabled": 0, "fusion_lat": 0.0, "name": "ca47ae9b0b844845c02c37890af4b79a", "fusion_lon": 0.0}, {"is_reserved": 0, "type": "electric_scooter", "bike_id": "a3ed645682efc714c06919495faad983", "lat": 38.9095905, "lon": -77.03158516666667, "rental_uris": {"android": "https://dc.lft.to/lastmile_qr_scan", "ios": "https://dc.lft.to/lastmile_qr_scan"}, "is_disabled": 0, "fusion_lat": 0.0, "name": "a3ed645682efc714c06919495faad983", "fusion_lon": 0.0}, {"is_reserved": 0, "type": "electric_scooter", "bike_id": "b158023a4023653324e06e4e277dcdd8", "lat": 38.89653333333333, "lon": -77.02197816666667, "rental_uris": {"android": "https://dc.lft.to/lastmile_qr_scan", "ios": "https://dc.lft.to/lastmile_qr_scan"}, "is_disabled": 0, "fusion_lat": 0.0, "name": "b158023a4023653324e06e4e277dcdd8", "fusion_lon": 0.0}, {"is_reserved": 0, "type": "electric_scooter", "bike_id": "5a82ba1889a5c5f91a01a02c5e9a1af5", "lat": 38.90553633333333, "lon": -77.0418975, "rental_uris": {"android": "https://dc.lft.to/lastmile_qr_scan", "ios": "https://dc.lft.to/lastmile_qr_scan"}, "is_disabled": 0, "fusion_lat": 0.0, "name": "5a82ba1889a5c5f91a01a02c5e9a1af5", "fusion_lon": 0.0}, {"is_reserved": 0, "type": "electric_scooter", "bike_id": "c8071029179075eb1bf93f1cf1d11c74", "lat": 38.9077455, "lon": -76.99853983333334, "rental_uris": {"android": "https://dc.lft.to/lastmile_qr_scan", "ios": "https://dc.lft.to/lastmile_qr_scan"}, "is_disabled": 0, "fusion_lat": 0.0, "name": "c8071029179075eb1bf93f1cf1d11c74", "fusion_lon": 0.0}, {"is_reserved": 0, "type": "electric_scooter", "bike_id": "e60d13ed6808dc648113142c8a477746", "lat": 38.905355166666666, "lon": -77.02186783333333, "rental_uris": {"android": "https://dc.lft.to/lastmile_qr_scan", "ios": "https://dc.lft.to/lastmile_qr_scan"}, "is_disabled": 0, "fusion_lat": 0.0, "name": "e60d13ed6808dc648113142c8a477746", "fusion_lon": 0.0}, {"is_reserved": 0, "type": "electric_scooter", "bike_id": "91aaabd759ebf526f63d14d35f4158e1", "lat": 38.921097833333334, "lon": -77.0439315, "rental_uris": {"android": "https://dc.lft.to/lastmile_qr_scan", "ios": "https://dc.lft.to/lastmile_qr_scan"}, "is_disabled": 0, "fusion_lat": 0.0, "name": "91aaabd759ebf526f63d14d35f4158e1", "fusion_lon": 0.0}, {"is_reserved": 0, "type": "electric_scooter", "bike_id": "dc45151d07ce9a51a2157d8ce10d5bb9", "lat": 38.9112455, "lon": -77.02191516666667, "rental_uris": {"android": "https://dc.lft.to/lastmile_qr_scan", "ios": "https://dc.lft.to/lastmile_qr_scan"}, "is_disabled": 0, "fusion_lat": 0.0, "name": "dc45151d07ce9a51a2157d8ce10d5bb9", "fusion_lon": 0.0}, {"is_reserved": 0, "type": "electric_scooter", "bike_id": "f10ac23136ca7567f6b9919774be053d", "lat": 38.900491333333335, "lon": -77.054342, "rental_uris": {"android": "https://dc.lft.to/lastmile_qr_scan", "ios": "https://dc.lft.to/lastmile_qr_scan"}, "is_disabled": 0, "fusion_lat": 0.0, "name": "f10ac23136ca7567f6b9919774be053d", "fusion_lon": 0.0}, {"is_reserved": 0, "type": "electric_scooter", "bike_id": "cbea50af346473cc2ad44132a91de757", "lat": 38.88767583333333, "lon": -76.9326365, "rental_uris": {"android": "https://dc.lft.to/lastmile_qr_scan", "ios": "https://dc.lft.to/lastmile_qr_scan"}, "is_disabled": 0, "fusion_lat": 0.0, "name": "cbea50af346473cc2ad44132a91de757", "fusion_lon": 0.0}, {"is_reserved": 0, "type": "electric_scooter", "bike_id": "5b6d0288b9e007a896f13ba1ea51fc64", "lat": 38.886435166666665, "lon": -76.99612916666666, "rental_uris": {"android": "https://dc.lft.to/lastmile_qr_scan", "ios": "https://dc.lft.to/lastmile_qr_scan"}, "is_disabled": 0, "fusion_lat": 0.0, "name": "5b6d0288b9e007a896f13ba1ea51fc64", "fusion_lon": 0.0}, {"is_reserved": 0, "type": "electric_scooter", "bike_id": "6a9ca40617776dc818312275a6373768", "lat": 38.905517333333336, "lon": -77.00597033333334, "rental_uris": {"android": "https://dc.lft.to/lastmile_qr_scan", "ios": "https://dc.lft.to/lastmile_qr_scan"}, "is_disabled": 0, "fusion_lat": 0.0, "name": "6a9ca40617776dc818312275a6373768", "fusion_lon": 0.0}, {"is_reserved": 0, "type": "electric_scooter", "bike_id": "84562a02ca58223e848b17b107d93ee5", "lat": 38.927662, "lon": -77.02780466666667, "rental_uris": {"android": "https://dc.lft.to/lastmile_qr_scan", "ios": "https://dc.lft.to/lastmile_qr_scan"}, "is_disabled": 0, "fusion_lat": 0.0, "name": "84562a02ca58223e848b17b107d93ee5", "fusion_lon": 0.0}, {"is_reserved": 0, "type": "electric_scooter", "bike_id": "5ac77c9206424da53023c40fa88b41ec", "lat": 38.8940585, "lon": -76.983585, "rental_uris": {"android": "https://dc.lft.to/lastmile_qr_scan", "ios": "https://dc.lft.to/lastmile_qr_scan"}, "is_disabled": 0, "fusion_lat": 0.0, "name": "5ac77c9206424da53023c40fa88b41ec", "fusion_lon": 0.0}, {"is_reserved": 0, "type": "electric_scooter", "bike_id": "82d1ecc3d7ada9f2252dee7d776e13fe", "lat": 38.91273966666667, "lon": -77.02960583333333, "rental_uris": {"android": "https://dc.lft.to/lastmile_qr_scan", "ios": "https://dc.lft.to/lastmile_qr_scan"}, "is_disabled": 0, "fusion_lat": 0.0, "name": "82d1ecc3d7ada9f2252dee7d776e13fe", "fusion_lon": 0.0}, {"is_reserved": 0, "type": "electric_scooter", "bike_id": "a9a9dba14340aa8584b28558a35fe151", "lat": 38.900371166666666, "lon": -77.0019035, "rental_uris": {"android": "https://dc.lft.to/lastmile_qr_scan", "ios": "https://dc.lft.to/lastmile_qr_scan"}, "is_disabled": 0, "fusion_lat": 0.0, "name": "a9a9dba14340aa8584b28558a35fe151", "fusion_lon": 0.0}, {"is_reserved": 0, "type": "electric_scooter", "bike_id": "f16beb24b4dd3a5e70c6eb2ac725d3e3", "lat": 38.93557783333333, "lon": -77.0735115, "rental_uris": {"android": "https://dc.lft.to/lastmile_qr_scan", "ios": "https://dc.lft.to/lastmile_qr_scan"}, "is_disabled": 0, "fusion_lat": 0.0, "name": "f16beb24b4dd3a5e70c6eb2ac725d3e3", "fusion_lon": 0.0}, {"is_reserved": 0, "type": "electric_scooter", "bike_id": "7c6aa55192636465de0bdda73eb43ea5", "lat": 38.9135145, "lon": -77.03184233333333, "rental_uris": {"android": "https://dc.lft.to/lastmile_qr_scan", "ios": "https://dc.lft.to/lastmile_qr_scan"}, "is_disabled": 0, "fusion_lat": 0.0, "name": "7c6aa55192636465de0bdda73eb43ea5", "fusion_lon": 0.0}, {"is_reserved": 0, "type": "electric_scooter", "bike_id": "bc607af9c0ebd417f4f4c3671f2b9daa", "lat": 38.909538166666664, "lon": -76.9853465, "rental_uris": {"android": "https://dc.lft.to/lastmile_qr_scan", "ios": "https://dc.lft.to/lastmile_qr_scan"}, "is_disabled": 0, "fusion_lat": 0.0, "name": "bc607af9c0ebd417f4f4c3671f2b9daa", "fusion_lon": 0.0}, {"is_reserved": 0, "type": "electric_scooter", "bike_id": "882ba0b9d603d74fe425f4f1476c8cca", "lat": 38.902827333333335, "lon": -77.02270383333334, "rental_uris": {"android": "https://dc.lft.to/lastmile_qr_scan", "ios": "https://dc.lft.to/lastmile_qr_scan"}, "is_disabled": 0, "fusion_lat": 0.0, "name": "882ba0b9d603d74fe425f4f1476c8cca", "fusion_lon": 0.0}, {"is_reserved": 0, "type": "electric_scooter", "bike_id": "aee8d52aa0360274fceed4dc30cde568", "lat": 38.92446366666667, "lon": -77.03400283333333, "rental_uris": {"android": "https://dc.lft.to/lastmile_qr_scan", "ios": "https://dc.lft.to/lastmile_qr_scan"}, "is_disabled": 0, "fusion_lat": 0.0, "name": "aee8d52aa0360274fceed4dc30cde568", "fusion_lon": 0.0}, {"is_reserved": 0, "type": "electric_scooter", "bike_id": "d2f70a9837a5e822c31da6d1bab16248", "lat": 38.89757933333333, "lon": -77.0260995, "rental_uris": {"android": "https://dc.lft.to/lastmile_qr_scan", "ios": "https://dc.lft.to/lastmile_qr_scan"}, "is_disabled": 0, "fusion_lat": 0.0, "name": "d2f70a9837a5e822c31da6d1bab16248", "fusion_lon": 0.0}, {"is_reserved": 0, "type": "electric_scooter", "bike_id": "18e294802d949c1d7ac420ab78a6d882", "lat": 38.89219533333333, "lon": -77.04744566666666, "rental_uris": {"android": "https://dc.lft.to/lastmile_qr_scan", "ios": "https://dc.lft.to/lastmile_qr_scan"}, "is_disabled": 0, "fusion_lat": 0.0, "name": "18e294802d949c1d7ac420ab78a6d882", "fusion_lon": 0.0}, {"is_reserved": 0, "type": "electric_scooter", "bike_id": "a839a7d31d29e1a137ff55e73d62a1d1", "lat": 38.9067705, "lon": -77.06262366666667, "rental_uris": {"android": "https://dc.lft.to/lastmile_qr_scan", "ios": "https://dc.lft.to/lastmile_qr_scan"}, "is_disabled": 0, "fusion_lat": 0.0, "name": "a839a7d31d29e1a137ff55e73d62a1d1", "fusion_lon": 0.0}, {"is_reserved": 0, "type": "electric_bike", "bike_id": "7dd5e74b0f6646d5ece9349f95b18034", "lat": 39.03820616666667, "lon": -77.042443, "rental_uris": {"android": "https://dc.lft.to/lastmile_qr_scan", "ios": "https://dc.lft.to/lastmile_qr_scan"}, "is_disabled": 0, "fusion_lat": 0.0, "name": "7dd5e74b0f6646d5ece9349f95b18034", "fusion_lon": 0.0}, {"is_reserved": 0, "type": "electric_bike", "bike_id": "ad4f35ba94781a9d7c13cf6393b31a6e", "lat": 38.959555, "lon": -76.981505, "rental_uris": {"android": "https://dc.lft.to/lastmile_qr_scan", "ios": "https://dc.lft.to/lastmile_qr_scan"}, "is_disabled": 0, "fusion_lat": 0.0, "name": "ad4f35ba94781a9d7c13cf6393b31a6e", "fusion_lon": 0.0}, {"is_reserved": 0, "type": "electric_scooter", "bike_id": "e5c59697602f9f7ad709ec4d98d2484d", "lat": 38.907683166666665, "lon": -77.042654, "rental_uris": {"android": "https://dc.lft.to/lastmile_qr_scan", "ios": "https://dc.lft.to/lastmile_qr_scan"}, "is_disabled": 0, "fusion_lat": 0.0, "name": "e5c59697602f9f7ad709ec4d98d2484d", "fusion_lon": 0.0}, {"is_reserved": 0, "type": "electric_scooter", "bike_id": "2ca9a45335f8e0f5e60f5f7db188a9c8", "lat": 38.905371, "lon": -77.0628615, "rental_uris": {"android": "https://dc.lft.to/lastmile_qr_scan", "ios": "https://dc.lft.to/lastmile_qr_scan"}, "is_disabled": 0, "fusion_lat": 0.0, "name": "2ca9a45335f8e0f5e60f5f7db188a9c8", "fusion_lon": 0.0}, {"is_reserved": 0, "type": "electric_scooter", "bike_id": "3fc2da7196c72ee317b0aa01d5acd384", "lat": 38.918024333333335, "lon": -77.03444683333333, "rental_uris": {"android": "https://dc.lft.to/lastmile_qr_scan", "ios": "https://dc.lft.to/lastmile_qr_scan"}, "is_disabled": 0, "fusion_lat": 0.0, "name": "3fc2da7196c72ee317b0aa01d5acd384", "fusion_lon": 0.0}, {"is_reserved": 0, "type": "electric_scooter", "bike_id": "22cffc4a6525e6118c040e85b8f6e90b", "lat": 38.8836185, "lon": -76.9951015, "rental_uris": {"android": "https://dc.lft.to/lastmile_qr_scan", "ios": "https://dc.lft.to/lastmile_qr_scan"}, "is_disabled": 0, "fusion_lat": 0.0, "name": "22cffc4a6525e6118c040e85b8f6e90b", "fusion_lon": 0.0}, {"is_reserved": 0, "type": "electric_scooter", "bike_id": "92ae08633b7f1fc9154ab0a50da1cc6b", "lat": 38.876456833333336, "lon": -77.00733033333333, "rental_uris": {"android": "https://dc.lft.to/lastmile_qr_scan", "ios": "https://dc.lft.to/lastmile_qr_scan"}, "is_disabled": 0, "fusion_lat": 0.0, "name": "92ae08633b7f1fc9154ab0a50da1cc6b", "fusion_lon": 0.0}, {"is_reserved": 0, "type": "electric_scooter", "bike_id": "95ef5c4b30f6c47676692572a40c86c0", "lat": 38.91640566666667, "lon": -77.023843, "rental_uris": {"android": "https://dc.lft.to/lastmile_qr_scan", "ios": "https://dc.lft.to/lastmile_qr_scan"}, "is_disabled": 0, "fusion_lat": 0.0, "name": "95ef5c4b30f6c47676692572a40c86c0", "fusion_lon": 0.0}, {"is_reserved": 0, "type": "electric_scooter", "bike_id": "4f637f214de855436bf6d7df6456b36a", "lat": 38.91554166666667, "lon": -77.03990466666667, "rental_uris": {"android": "https://dc.lft.to/lastmile_qr_scan", "ios": "https://dc.lft.to/lastmile_qr_scan"}, "is_disabled": 0, "fusion_lat": 0.0, "name": "4f637f214de855436bf6d7df6456b36a", "fusion_lon": 0.0}, {"is_reserved": 0, "type": "electric_scooter", "bike_id": "87576df8817614f980e6861964106582", "lat": 38.91406683333334, "lon": -77.022502, "rental_uris": {"android": "https://dc.lft.to/lastmile_qr_scan", "ios": "https://dc.lft.to/lastmile_qr_scan"}, "is_disabled": 0, "fusion_lat": 0.0, "name": "87576df8817614f980e6861964106582", "fusion_lon": 0.0}, {"is_reserved": 0, "type": "electric_scooter", "bike_id": "6f99b349f7e867e7225a190d9feadb95", "lat": 38.89168883333333, "lon": -77.01552266666667, "rental_uris": {"android": "https://dc.lft.to/lastmile_qr_scan", "ios": "https://dc.lft.to/lastmile_qr_scan"}, "is_disabled": 0, "fusion_lat": 0.0, "name": "6f99b349f7e867e7225a190d9feadb95", "fusion_lon": 0.0}, {"is_reserved": 0, "type": "electric_scooter", "bike_id": "82af399884dbf6bf5292eab3429083e5", "lat": 38.897377, "lon": -76.99766666666666, "rental_uris": {"android": "https://dc.lft.to/lastmile_qr_scan", "ios": "https://dc.lft.to/lastmile_qr_scan"}, "is_disabled": 0, "fusion_lat": 0.0, "name": "82af399884dbf6bf5292eab3429083e5", "fusion_lon": 0.0}, {"is_reserved": 0, "type": "electric_scooter", "bike_id": "994906d5b3098808ac52facf68f34b3a", "lat": 38.9067155, "lon": -77.026947, "rental_uris": {"android": "https://dc.lft.to/lastmile_qr_scan", "ios": "https://dc.lft.to/lastmile_qr_scan"}, "is_disabled": 0, "fusion_lat": 0.0, "name": "994906d5b3098808ac52facf68f34b3a", "fusion_lon": 0.0}, {"is_reserved": 0, "type": "electric_bike", "bike_id": "98aa18a9c6719c32b140bad3684c7150", "lat": 38.94665466666667, "lon": -76.99337583333333, "rental_uris": {"android": "https://dc.lft.to/lastmile_qr_scan", "ios": "https://dc.lft.to/lastmile_qr_scan"}, "is_disabled": 0, "fusion_lat": 0.0, "name": "98aa18a9c6719c32b140bad3684c7150", "fusion_lon": 0.0}, {"is_reserved": 0, "type": "electric_scooter", "bike_id": "f604617b9b9ea09f24f4756861332d18", "lat": 38.9268275, "lon": -77.0087325, "rental_uris": {"android": "https://dc.lft.to/lastmile_qr_scan", "ios": "https://dc.lft.to/lastmile_qr_scan"}, "is_disabled": 0, "fusion_lat": 0.0, "name": "f604617b9b9ea09f24f4756861332d18", "fusion_lon": 0.0}, {"is_reserved": 0, "type": "electric_scooter", "bike_id": "271312174f48c13ee75e8b7bace285f8", "lat": 38.949751666666664, "lon": -77.02448316666667, "rental_uris": {"android": "https://dc.lft.to/lastmile_qr_scan", "ios": "https://dc.lft.to/lastmile_qr_scan"}, "is_disabled": 0, "fusion_lat": 0.0, "name": "271312174f48c13ee75e8b7bace285f8", "fusion_lon": 0.0}, {"is_reserved": 0, "type": "electric_scooter", "bike_id": "d75fc0d453a19b3b1103f165034ea51f", "lat": 38.904706833333336, "lon": -76.98140816666667, "rental_uris": {"android": "https://dc.lft.to/lastmile_qr_scan", "ios": "https://dc.lft.to/lastmile_qr_scan"}, "is_disabled": 0, "fusion_lat": 0.0, "name": "d75fc0d453a19b3b1103f165034ea51f", "fusion_lon": 0.0}, {"is_reserved": 0, "type": "electric_scooter", "bike_id": "983b03bfd806e073ed125a93e0b8b254", "lat": 38.876332166666664, "lon": -77.00764783333334, "rental_uris": {"android": "https://dc.lft.to/lastmile_qr_scan", "ios": "https://dc.lft.to/lastmile_qr_scan"}, "is_disabled": 0, "fusion_lat": 0.0, "name": "983b03bfd806e073ed125a93e0b8b254", "fusion_lon": 0.0}, {"is_reserved": 0, "type": "electric_bike", "bike_id": "6ad1040cd2db2e8d9189992673e4031c", "lat": 38.988177, "lon": -77.02661833333333, "rental_uris": {"android": "https://dc.lft.to/lastmile_qr_scan", "ios": "https://dc.lft.to/lastmile_qr_scan"}, "is_disabled": 0, "fusion_lat": 0.0, "name": "6ad1040cd2db2e8d9189992673e4031c", "fusion_lon": 0.0}, {"is_reserved": 0, "type": "electric_scooter", "bike_id": "fb6d782fb0653fb9dead54436e480299", "lat": 38.905389166666666, "lon": -77.05993683333334, "rental_uris": {"android": "https://dc.lft.to/lastmile_qr_scan", "ios": "https://dc.lft.to/lastmile_qr_scan"}, "is_disabled": 0, "fusion_lat": 0.0, "name": "fb6d782fb0653fb9dead54436e480299", "fusion_lon": 0.0}, {"is_reserved": 0, "type": "electric_scooter", "bike_id": "06ba53d7e8ea56c485420ef3773f136a", "lat": 38.900641, "lon": -77.048861, "rental_uris": {"android": "https://dc.lft.to/lastmile_qr_scan", "ios": "https://dc.lft.to/lastmile_qr_scan"}, "is_disabled": 0, "fusion_lat": 0.0, "name": "06ba53d7e8ea56c485420ef3773f136a", "fusion_lon": 0.0}, {"is_reserved": 0, "type": "electric_scooter", "bike_id": "f6dc5b7abd042fca5634437c517dddab", "lat": 38.933266833333334, "lon": -77.02909183333334, "rental_uris": {"android": "https://dc.lft.to/lastmile_qr_scan", "ios": "https://dc.lft.to/lastmile_qr_scan"}, "is_disabled": 0, "fusion_lat": 0.0, "name": "f6dc5b7abd042fca5634437c517dddab", "fusion_lon": 0.0}, {"is_reserved": 0, "type": "electric_scooter", "bike_id": "cbd6c4855c576f33494a1d534b24f7e8", "lat": 38.905085666666665, "lon": -77.02959533333333, "rental_uris": {"android": "https://dc.lft.to/lastmile_qr_scan", "ios": "https://dc.lft.to/lastmile_qr_scan"}, "is_disabled": 0, "fusion_lat": 0.0, "name": "cbd6c4855c576f33494a1d534b24f7e8", "fusion_lon": 0.0}, {"is_reserved": 0, "type": "electric_bike", "bike_id": "8e27f9248eb429c90f88616afd91faa8", "lat": 38.921327, "lon": -77.004007, "rental_uris": {"android": "https://dc.lft.to/lastmile_qr_scan", "ios": "https://dc.lft.to/lastmile_qr_scan"}, "is_disabled": 0, "fusion_lat": 0.0, "name": "8e27f9248eb429c90f88616afd91faa8", "fusion_lon": 0.0}, {"is_reserved": 0, "type": "electric_bike", "bike_id": "a7f359a871b640ab476f69333caf4d94", "lat": 39.0423615, "lon": -76.9973525, "rental_uris": {"android": "https://dc.lft.to/lastmile_qr_scan", "ios": "https://dc.lft.to/lastmile_qr_scan"}, "is_disabled": 0, "fusion_lat": 0.0, "name": "a7f359a871b640ab476f69333caf4d94", "fusion_lon": 0.0}, {"is_reserved": 0, "type": "electric_bike", "bike_id": "36b589c60164528b30db9e509d4dff44", "lat": 38.9733905, "lon": -76.99591466666666, "rental_uris": {"android": "https://dc.lft.to/lastmile_qr_scan", "ios": "https://dc.lft.to/lastmile_qr_scan"}, "is_disabled": 0, "fusion_lat": 0.0, "name": "36b589c60164528b30db9e509d4dff44", "fusion_lon": 0.0}, {"is_reserved": 0, "type": "electric_scooter", "bike_id": "bd5cbbe75c237855119c89aaa1e5c54e", "lat": 38.895068, "lon": -77.02172733333333, "rental_uris": {"android": "https://dc.lft.to/lastmile_qr_scan", "ios": "https://dc.lft.to/lastmile_qr_scan"}, "is_disabled": 0, "fusion_lat": 0.0, "name": "bd5cbbe75c237855119c89aaa1e5c54e", "fusion_lon": 0.0}, {"is_reserved": 0, "type": "electric_scooter", "bike_id": "de221dec9fc0262cfc4019e82c9bcf71", "lat": 38.91034616666666, "lon": -77.03335016666666, "rental_uris": {"android": "https://dc.lft.to/lastmile_qr_scan", "ios": "https://dc.lft.to/lastmile_qr_scan"}, "is_disabled": 0, "fusion_lat": 0.0, "name": "de221dec9fc0262cfc4019e82c9bcf71", "fusion_lon": 0.0}, {"is_reserved": 0, "type": "electric_scooter", "bike_id": "24375743e18d3aea3c8059ae38a01256", "lat": 38.92780716666667, "lon": -77.0256465, "rental_uris": {"android": "https://dc.lft.to/lastmile_qr_scan", "ios": "https://dc.lft.to/lastmile_qr_scan"}, "is_disabled": 0, "fusion_lat": 0.0, "name": "24375743e18d3aea3c8059ae38a01256", "fusion_lon": 0.0}, {"is_reserved": 0, "type": "electric_scooter", "bike_id": "f62c1b40169294612bc7664a1b86ba74", "lat": 38.952132666666664, "lon": -77.01599916666666, "rental_uris": {"android": "https://dc.lft.to/lastmile_qr_scan", "ios": "https://dc.lft.to/lastmile_qr_scan"}, "is_disabled": 0, "fusion_lat": 0.0, "name": "f62c1b40169294612bc7664a1b86ba74", "fusion_lon": 0.0}, {"is_reserved": 0, "type": "electric_scooter", "bike_id": "70dc7a4c3c299d52ab69b9e7d6c387b8", "lat": 38.91361583333333, "lon": -77.0656375, "rental_uris": {"android": "https://dc.lft.to/lastmile_qr_scan", "ios": "https://dc.lft.to/lastmile_qr_scan"}, "is_disabled": 0, "fusion_lat": 0.0, "name": "70dc7a4c3c299d52ab69b9e7d6c387b8", "fusion_lon": 0.0}, {"is_reserved": 0, "type": "electric_scooter", "bike_id": "4bdc88a033720c32f058e626e559daad", "lat": 38.9049205, "lon": -77.01980283333333, "rental_uris": {"android": "https://dc.lft.to/lastmile_qr_scan", "ios": "https://dc.lft.to/lastmile_qr_scan"}, "is_disabled": 0, "fusion_lat": 0.0, "name": "4bdc88a033720c32f058e626e559daad", "fusion_lon": 0.0}, {"is_reserved": 0, "type": "electric_scooter", "bike_id": "09b34d60625d9e9b802b702d380ee64e", "lat": 38.91928883333333, "lon": -77.03154316666667, "rental_uris": {"android": "https://dc.lft.to/lastmile_qr_scan", "ios": "https://dc.lft.to/lastmile_qr_scan"}, "is_disabled": 0, "fusion_lat": 0.0, "name": "09b34d60625d9e9b802b702d380ee64e", "fusion_lon": 0.0}, {"is_reserved": 0, "type": "electric_scooter", "bike_id": "c0c003c370539e78431d19d64c634150", "lat": 38.894968666666664, "lon": -76.934783, "rental_uris": {"android": "https://dc.lft.to/lastmile_qr_scan", "ios": "https://dc.lft.to/lastmile_qr_scan"}, "is_disabled": 0, "fusion_lat": 0.0, "name": "c0c003c370539e78431d19d64c634150", "fusion_lon": 0.0}, {"is_reserved": 0, "type": "electric_scooter", "bike_id": "dbe3be5a02de9291430fdff36d424c82", "lat": 38.908525166666664, "lon": -77.04655116666666, "rental_uris": {"android": "https://dc.lft.to/lastmile_qr_scan", "ios": "https://dc.lft.to/lastmile_qr_scan"}, "is_disabled": 0, "fusion_lat": 0.0, "name": "dbe3be5a02de9291430fdff36d424c82", "fusion_lon": 0.0}, {"is_reserved": 0, "type": "electric_scooter", "bike_id": "136c892ada867541b667ab2f33789c7b", "lat": 38.91100633333333, "lon": -77.0238495, "rental_uris": {"android": "https://dc.lft.to/lastmile_qr_scan", "ios": "https://dc.lft.to/lastmile_qr_scan"}, "is_disabled": 0, "fusion_lat": 0.0, "name": "136c892ada867541b667ab2f33789c7b", "fusion_lon": 0.0}, {"is_reserved": 0, "type": "electric_scooter", "bike_id": "88304810d876abc764e41cc9eb707f6f", "lat": 38.931455166666666, "lon": -77.03823666666666, "rental_uris": {"android": "https://dc.lft.to/lastmile_qr_scan", "ios": "https://dc.lft.to/lastmile_qr_scan"}, "is_disabled": 0, "fusion_lat": 0.0, "name": "88304810d876abc764e41cc9eb707f6f", "fusion_lon": 0.0}, {"is_reserved": 0, "type": "electric_scooter", "bike_id": "34be2db8d273cc00a57e5399d4eeb4ca", "lat": 38.916932333333335, "lon": -77.0368475, "rental_uris": {"android": "https://dc.lft.to/lastmile_qr_scan", "ios": "https://dc.lft.to/lastmile_qr_scan"}, "is_disabled": 0, "fusion_lat": 0.0, "name": "34be2db8d273cc00a57e5399d4eeb4ca", "fusion_lon": 0.0}, {"is_reserved": 0, "type": "electric_scooter", "bike_id": "349dc580f4cae0cfc0ffd5e73ae58ef9", "lat": 38.961361833333335, "lon": -77.02814533333333, "rental_uris": {"android": "https://dc.lft.to/lastmile_qr_scan", "ios": "https://dc.lft.to/lastmile_qr_scan"}, "is_disabled": 0, "fusion_lat": 0.0, "name": "349dc580f4cae0cfc0ffd5e73ae58ef9", "fusion_lon": 0.0}, {"is_reserved": 0, "type": "electric_scooter", "bike_id": "f12c83353f9b90908f773fcece6f7e73", "lat": 38.89211516666667, "lon": -77.047517, "rental_uris": {"android": "https://dc.lft.to/lastmile_qr_scan", "ios": "https://dc.lft.to/lastmile_qr_scan"}, "is_disabled": 0, "fusion_lat": 0.0, "name": "f12c83353f9b90908f773fcece6f7e73", "fusion_lon": 0.0}, {"is_reserved": 0, "type": "electric_scooter", "bike_id": "74e656cb15f52ddcebd76f5f343e4fa2", "lat": 38.94180566666667, "lon": -77.03384633333333, "rental_uris": {"android": "https://dc.lft.to/lastmile_qr_scan", "ios": "https://dc.lft.to/lastmile_qr_scan"}, "is_disabled": 0, "fusion_lat": 0.0, "name": "74e656cb15f52ddcebd76f5f343e4fa2", "fusion_lon": 0.0}, {"is_reserved": 0, "type": "electric_scooter", "bike_id": "991548f1887fdbf3fcf53e0ab1499100", "lat": 38.924173333333336, "lon": -77.02012216666667, "rental_uris": {"android": "https://dc.lft.to/lastmile_qr_scan", "ios": "https://dc.lft.to/lastmile_qr_scan"}, "is_disabled": 0, "fusion_lat": 0.0, "name": "991548f1887fdbf3fcf53e0ab1499100", "fusion_lon": 0.0}, {"is_reserved": 0, "type": "electric_scooter", "bike_id": "0f19434c7f7b48687b4c1d7aa20d5db1", "lat": 38.90113316666667, "lon": -77.03345, "rental_uris": {"android": "https://dc.lft.to/lastmile_qr_scan", "ios": "https://dc.lft.to/lastmile_qr_scan"}, "is_disabled": 0, "fusion_lat": 0.0, "name": "0f19434c7f7b48687b4c1d7aa20d5db1", "fusion_lon": 0.0}, {"is_reserved": 0, "type": "electric_scooter", "bike_id": "cb8454824c6fb9ec56eb754f59e28bfc", "lat": 38.8953525, "lon": -76.9833975, "rental_uris": {"android": "https://dc.lft.to/lastmile_qr_scan", "ios": "https://dc.lft.to/lastmile_qr_scan"}, "is_disabled": 0, "fusion_lat": 0.0, "name": "cb8454824c6fb9ec56eb754f59e28bfc", "fusion_lon": 0.0}, {"is_reserved": 0, "type": "electric_scooter", "bike_id": "48ffaad1cdcf812f0ae536b381dbc5e2", "lat": 38.9012765, "lon": -76.991228, "rental_uris": {"android": "https://dc.lft.to/lastmile_qr_scan", "ios": "https://dc.lft.to/lastmile_qr_scan"}, "is_disabled": 0, "fusion_lat": 0.0, "name": "48ffaad1cdcf812f0ae536b381dbc5e2", "fusion_lon": 0.0}, {"is_reserved": 0, "type": "electric_scooter", "bike_id": "2764856c09612eac6e8507f35c2fd23c", "lat": 38.90967533333333, "lon": -77.01106166666666, "rental_uris": {"android": "https://dc.lft.to/lastmile_qr_scan", "ios": "https://dc.lft.to/lastmile_qr_scan"}, "is_disabled": 0, "fusion_lat": 0.0, "name": "2764856c09612eac6e8507f35c2fd23c", "fusion_lon": 0.0}, {"is_reserved": 0, "type": "electric_scooter", "bike_id": "69cefd4816f0fb22a2bddbca8b9f3821", "lat": 38.90572066666667, "lon": -77.00788716666666, "rental_uris": {"android": "https://dc.lft.to/lastmile_qr_scan", "ios": "https://dc.lft.to/lastmile_qr_scan"}, "is_disabled": 0, "fusion_lat": 0.0, "name": "69cefd4816f0fb22a2bddbca8b9f3821", "fusion_lon": 0.0}, {"is_reserved": 0, "type": "electric_scooter", "bike_id": "f844c7728cc7c06d6352a611f6bdd160", "lat": 38.91863383333333, "lon": -77.04173783333333, "rental_uris": {"android": "https://dc.lft.to/lastmile_qr_scan", "ios": "https://dc.lft.to/lastmile_qr_scan"}, "is_disabled": 0, "fusion_lat": 0.0, "name": "f844c7728cc7c06d6352a611f6bdd160", "fusion_lon": 0.0}, {"is_reserved": 0, "type": "electric_scooter", "bike_id": "9c5b8bacd617d1fe03ee797206a3db4a", "lat": 38.916879, "lon": -77.02601633333333, "rental_uris": {"android": "https://dc.lft.to/lastmile_qr_scan", "ios": "https://dc.lft.to/lastmile_qr_scan"}, "is_disabled": 0, "fusion_lat": 0.0, "name": "9c5b8bacd617d1fe03ee797206a3db4a", "fusion_lon": 0.0}, {"is_reserved": 0, "type": "electric_scooter", "bike_id": "c68a8e31ec0af5fb30218fbbcb6f4547", "lat": 38.88968333333333, "lon": -76.99937733333333, "rental_uris": {"android": "https://dc.lft.to/lastmile_qr_scan", "ios": "https://dc.lft.to/lastmile_qr_scan"}, "is_disabled": 0, "fusion_lat": 0.0, "name": "c68a8e31ec0af5fb30218fbbcb6f4547", "fusion_lon": 0.0}, {"is_reserved": 0, "type": "electric_scooter", "bike_id": "41c1ae53fd812672cc5c545d33d4ab06", "lat": 38.915344166666664, "lon": -77.03206316666666, "rental_uris": {"android": "https://dc.lft.to/lastmile_qr_scan", "ios": "https://dc.lft.to/lastmile_qr_scan"}, "is_disabled": 0, "fusion_lat": 0.0, "name": "41c1ae53fd812672cc5c545d33d4ab06", "fusion_lon": 0.0}, {"is_reserved": 0, "type": "electric_scooter", "bike_id": "68fae3f0769bbe6efabff6a19afbf48a", "lat": 38.90362533333333, "lon": -76.9848445, "rental_uris": {"android": "https://dc.lft.to/lastmile_qr_scan", "ios": "https://dc.lft.to/lastmile_qr_scan"}, "is_disabled": 0, "fusion_lat": 0.0, "name": "68fae3f0769bbe6efabff6a19afbf48a", "fusion_lon": 0.0}, {"is_reserved": 0, "type": "electric_scooter", "bike_id": "8890b668d29b9848ee7cf7d53fef4160", "lat": 38.91476216666667, "lon": -76.98441833333334, "rental_uris": {"android": "https://dc.lft.to/lastmile_qr_scan", "ios": "https://dc.lft.to/lastmile_qr_scan"}, "is_disabled": 0, "fusion_lat": 0.0, "name": "8890b668d29b9848ee7cf7d53fef4160", "fusion_lon": 0.0}, {"is_reserved": 0, "type": "electric_scooter", "bike_id": "1e4e2030b0246e8eb73e3a68f0962c49", "lat": 38.93754633333333, "lon": -77.02833983333333, "rental_uris": {"android": "https://dc.lft.to/lastmile_qr_scan", "ios": "https://dc.lft.to/lastmile_qr_scan"}, "is_disabled": 0, "fusion_lat": 0.0, "name": "1e4e2030b0246e8eb73e3a68f0962c49", "fusion_lon": 0.0}, {"is_reserved": 0, "type": "electric_scooter", "bike_id": "f62066af5b4f8e774a9e2e6f297acd6f", "lat": 38.89477633333333, "lon": -77.02155466666666, "rental_uris": {"android": "https://dc.lft.to/lastmile_qr_scan", "ios": "https://dc.lft.to/lastmile_qr_scan"}, "is_disabled": 0, "fusion_lat": 0.0, "name": "f62066af5b4f8e774a9e2e6f297acd6f", "fusion_lon": 0.0}, {"is_reserved": 0, "type": "electric_scooter", "bike_id": "54b6a0de29b4b119b39c5bfc5a2f664e", "lat": 38.877548833333336, "lon": -77.0189175, "rental_uris": {"android": "https://dc.lft.to/lastmile_qr_scan", "ios": "https://dc.lft.to/lastmile_qr_scan"}, "is_disabled": 0, "fusion_lat": 0.0, "name": "54b6a0de29b4b119b39c5bfc5a2f664e", "fusion_lon": 0.0}, {"is_reserved": 0, "type": "electric_scooter", "bike_id": "30b57c427234d9c6bc6eec0083d4acbb", "lat": 38.9204095, "lon": -77.04191833333333, "rental_uris": {"android": "https://dc.lft.to/lastmile_qr_scan", "ios": "https://dc.lft.to/lastmile_qr_scan"}, "is_disabled": 0, "fusion_lat": 0.0, "name": "30b57c427234d9c6bc6eec0083d4acbb", "fusion_lon": 0.0}, {"is_reserved": 0, "type": "electric_scooter", "bike_id": "ce53accb0f8af1c6648e3cdff7a1058f", "lat": 38.87286666666667, "lon": -77.00230383333333, "rental_uris": {"android": "https://dc.lft.to/lastmile_qr_scan", "ios": "https://dc.lft.to/lastmile_qr_scan"}, "is_disabled": 0, "fusion_lat": 0.0, "name": "ce53accb0f8af1c6648e3cdff7a1058f", "fusion_lon": 0.0}, {"is_reserved": 0, "type": "electric_scooter", "bike_id": "7e030785d4cd9739a5509538958cc490", "lat": 38.91973266666667, "lon": -77.04142033333333, "rental_uris": {"android": "https://dc.lft.to/lastmile_qr_scan", "ios": "https://dc.lft.to/lastmile_qr_scan"}, "is_disabled": 0, "fusion_lat": 0.0, "name": "7e030785d4cd9739a5509538958cc490", "fusion_lon": 0.0}, {"is_reserved": 0, "type": "electric_scooter", "bike_id": "5e1ca5f88631b4da6d599842e0a1a92a", "lat": 38.8922, "lon": -77.04748016666667, "rental_uris": {"android": "https://dc.lft.to/lastmile_qr_scan", "ios": "https://dc.lft.to/lastmile_qr_scan"}, "is_disabled": 0, "fusion_lat": 0.0, "name": "5e1ca5f88631b4da6d599842e0a1a92a", "fusion_lon": 0.0}, {"is_reserved": 0, "type": "electric_bike", "bike_id": "ff27eaed166d713ec76f8b0ab3434a57", "lat": 38.905706333333335, "lon": -77.05702683333334, "rental_uris": {"android": "https://dc.lft.to/lastmile_qr_scan", "ios": "https://dc.lft.to/lastmile_qr_scan"}, "is_disabled": 0, "fusion_lat": 0.0, "name": "ff27eaed166d713ec76f8b0ab3434a57", "fusion_lon": 0.0}, {"is_reserved": 0, "type": "electric_scooter", "bike_id": "bdba849ba032235c162aec4d3ad7443c", "lat": 38.92788383333333, "lon": -77.0253575, "rental_uris": {"android": "https://dc.lft.to/lastmile_qr_scan", "ios": "https://dc.lft.to/lastmile_qr_scan"}, "is_disabled": 0, "fusion_lat": 0.0, "name": "bdba849ba032235c162aec4d3ad7443c", "fusion_lon": 0.0}, {"is_reserved": 0, "type": "electric_scooter", "bike_id": "80039601247242f6855a2cc2d2911115", "lat": 38.89601916666667, "lon": -77.0468565, "rental_uris": {"android": "https://dc.lft.to/lastmile_qr_scan", "ios": "https://dc.lft.to/lastmile_qr_scan"}, "is_disabled": 0, "fusion_lat": 0.0, "name": "80039601247242f6855a2cc2d2911115", "fusion_lon": 0.0}, {"is_reserved": 0, "type": "electric_scooter", "bike_id": "704daa460c2287b8866f1cecb5d31dde", "lat": 38.913306166666665, "lon": -77.04797783333333, "rental_uris": {"android": "https://dc.lft.to/lastmile_qr_scan", "ios": "https://dc.lft.to/lastmile_qr_scan"}, "is_disabled": 0, "fusion_lat": 0.0, "name": "704daa460c2287b8866f1cecb5d31dde", "fusion_lon": 0.0}, {"is_reserved": 0, "type": "electric_scooter", "bike_id": "c729fd7167b5521cd1049fe5e962f376", "lat": 38.92071716666667, "lon": -76.98072916666666, "rental_uris": {"android": "https://dc.lft.to/lastmile_qr_scan", "ios": "https://dc.lft.to/lastmile_qr_scan"}, "is_disabled": 0, "fusion_lat": 0.0, "name": "c729fd7167b5521cd1049fe5e962f376", "fusion_lon": 0.0}, {"is_reserved": 0, "type": "electric_scooter", "bike_id": "e90ec82bec918adcb0d3488a517132da", "lat": 38.97494283333333, "lon": -77.01696916666667, "rental_uris": {"android": "https://dc.lft.to/lastmile_qr_scan", "ios": "https://dc.lft.to/lastmile_qr_scan"}, "is_disabled": 0, "fusion_lat": 0.0, "name": "e90ec82bec918adcb0d3488a517132da", "fusion_lon": 0.0}, {"is_reserved": 0, "type": "electric_scooter", "bike_id": "e3f2a03d25cf7f4b11e26a647ebffaa7", "lat": 38.89729333333333, "lon": -77.05476066666667, "rental_uris": {"android": "https://dc.lft.to/lastmile_qr_scan", "ios": "https://dc.lft.to/lastmile_qr_scan"}, "is_disabled": 0, "fusion_lat": 0.0, "name": "e3f2a03d25cf7f4b11e26a647ebffaa7", "fusion_lon": 0.0}, {"is_reserved": 0, "type": "electric_scooter", "bike_id": "ff48d1fbf2adc6b8e1da7f1e2208a73e", "lat": 38.905299666666664, "lon": -77.04192116666667, "rental_uris": {"android": "https://dc.lft.to/lastmile_qr_scan", "ios": "https://dc.lft.to/lastmile_qr_scan"}, "is_disabled": 0, "fusion_lat": 0.0, "name": "ff48d1fbf2adc6b8e1da7f1e2208a73e", "fusion_lon": 0.0}, {"is_reserved": 0, "type": "electric_scooter", "bike_id": "404155d2d2f8d2d761e006a4e618cb2d", "lat": 38.8991695, "lon": -77.03252366666666, "rental_uris": {"android": "https://dc.lft.to/lastmile_qr_scan", "ios": "https://dc.lft.to/lastmile_qr_scan"}, "is_disabled": 0, "fusion_lat": 0.0, "name": "404155d2d2f8d2d761e006a4e618cb2d", "fusion_lon": 0.0}, {"is_reserved": 0, "type": "electric_scooter", "bike_id": "11a9486a47124fa9f9bbd6df048342d4", "lat": 38.899011, "lon": -77.021646, "rental_uris": {"android": "https://dc.lft.to/lastmile_qr_scan", "ios": "https://dc.lft.to/lastmile_qr_scan"}, "is_disabled": 0, "fusion_lat": 0.0, "name": "11a9486a47124fa9f9bbd6df048342d4", "fusion_lon": 0.0}, {"is_reserved": 0, "type": "electric_scooter", "bike_id": "f1c0e01f7ce2d03c22c2d6e67d157984", "lat": 38.92414933333333, "lon": -77.0194315, "rental_uris": {"android": "https://dc.lft.to/lastmile_qr_scan", "ios": "https://dc.lft.to/lastmile_qr_scan"}, "is_disabled": 0, "fusion_lat": 0.0, "name": "f1c0e01f7ce2d03c22c2d6e67d157984", "fusion_lon": 0.0}, {"is_reserved": 0, "type": "electric_scooter", "bike_id": "6416cb0049636d0d712c67ec23f45a3a", "lat": 38.902495333333334, "lon": -77.0293005, "rental_uris": {"android": "https://dc.lft.to/lastmile_qr_scan", "ios": "https://dc.lft.to/lastmile_qr_scan"}, "is_disabled": 0, "fusion_lat": 0.0, "name": "6416cb0049636d0d712c67ec23f45a3a", "fusion_lon": 0.0}, {"is_reserved": 0, "type": "electric_scooter", "bike_id": "dff75ef77fc8a42cbe1ed58c2008ccb6", "lat": 38.9514785, "lon": -77.0186605, "rental_uris": {"android": "https://dc.lft.to/lastmile_qr_scan", "ios": "https://dc.lft.to/lastmile_qr_scan"}, "is_disabled": 0, "fusion_lat": 0.0, "name": "dff75ef77fc8a42cbe1ed58c2008ccb6", "fusion_lon": 0.0}, {"is_reserved": 0, "type": "electric_scooter", "bike_id": "17b23d4bd3a292a35cdb0afc5afd681c", "lat": 38.887558166666665, "lon": -77.03368933333333, "rental_uris": {"android": "https://dc.lft.to/lastmile_qr_scan", "ios": "https://dc.lft.to/lastmile_qr_scan"}, "is_disabled": 0, "fusion_lat": 0.0, "name": "17b23d4bd3a292a35cdb0afc5afd681c", "fusion_lon": 0.0}, {"is_reserved": 0, "type": "electric_scooter", "bike_id": "3dab187a96b1d7e9d2cab545dcbfb2cf", "lat": 38.904282, "lon": -77.018896, "rental_uris": {"android": "https://dc.lft.to/lastmile_qr_scan", "ios": "https://dc.lft.to/lastmile_qr_scan"}, "is_disabled": 0, "fusion_lat": 0.0, "name": "3dab187a96b1d7e9d2cab545dcbfb2cf", "fusion_lon": 0.0}, {"is_reserved": 0, "type": "electric_scooter", "bike_id": "e859fce2e1ecd6bdd87716f2db6fdd20", "lat": 38.915561333333336, "lon": -77.011657, "rental_uris": {"android": "https://dc.lft.to/lastmile_qr_scan", "ios": "https://dc.lft.to/lastmile_qr_scan"}, "is_disabled": 0, "fusion_lat": 0.0, "name": "e859fce2e1ecd6bdd87716f2db6fdd20", "fusion_lon": 0.0}, {"is_reserved": 0, "type": "electric_bike", "bike_id": "ebcf1e34ad864ca946a8f10b57063774", "lat": 38.887866333333335, "lon": -76.9234025, "rental_uris": {"android": "https://dc.lft.to/lastmile_qr_scan", "ios": "https://dc.lft.to/lastmile_qr_scan"}, "is_disabled": 0, "fusion_lat": 0.0, "name": "ebcf1e34ad864ca946a8f10b57063774", "fusion_lon": 0.0}, {"is_reserved": 0, "type": "electric_scooter", "bike_id": "ece6b3f4f8aee553250f89b2577221fa", "lat": 38.917647333333335, "lon": -77.04042383333334, "rental_uris": {"android": "https://dc.lft.to/lastmile_qr_scan", "ios": "https://dc.lft.to/lastmile_qr_scan"}, "is_disabled": 0, "fusion_lat": 0.0, "name": "ece6b3f4f8aee553250f89b2577221fa", "fusion_lon": 0.0}, {"is_reserved": 0, "type": "electric_scooter", "bike_id": "d117cf15a1ee380d4aa24b95cad3f344", "lat": 38.923104333333335, "lon": -77.03899733333333, "rental_uris": {"android": "https://dc.lft.to/lastmile_qr_scan", "ios": "https://dc.lft.to/lastmile_qr_scan"}, "is_disabled": 0, "fusion_lat": 0.0, "name": "d117cf15a1ee380d4aa24b95cad3f344", "fusion_lon": 0.0}, {"is_reserved": 0, "type": "electric_scooter", "bike_id": "6a922d35daab8341f79c12690412ee49", "lat": 38.89561483333333, "lon": -76.9821705, "rental_uris": {"android": "https://dc.lft.to/lastmile_qr_scan", "ios": "https://dc.lft.to/lastmile_qr_scan"}, "is_disabled": 0, "fusion_lat": 0.0, "name": "6a922d35daab8341f79c12690412ee49", "fusion_lon": 0.0}, {"is_reserved": 0, "type": "electric_scooter", "bike_id": "92b280b7ebeefe0b2392697fa5cbf6e4", "lat": 38.905600666666665, "lon": -77.04177183333333, "rental_uris": {"android": "https://dc.lft.to/lastmile_qr_scan", "ios": "https://dc.lft.to/lastmile_qr_scan"}, "is_disabled": 0, "fusion_lat": 0.0, "name": "92b280b7ebeefe0b2392697fa5cbf6e4", "fusion_lon": 0.0}, {"is_reserved": 0, "type": "electric_scooter", "bike_id": "e59886f4e3d7766d731e66cf116212cb", "lat": 38.940388666666664, "lon": -77.02906316666666, "rental_uris": {"android": "https://dc.lft.to/lastmile_qr_scan", "ios": "https://dc.lft.to/lastmile_qr_scan"}, "is_disabled": 0, "fusion_lat": 0.0, "name": "e59886f4e3d7766d731e66cf116212cb", "fusion_lon": 0.0}, {"is_reserved": 0, "type": "electric_scooter", "bike_id": "76afa486878fb02731a91d43d48a7cdf", "lat": 38.922306166666665, "lon": -77.03896983333334, "rental_uris": {"android": "https://dc.lft.to/lastmile_qr_scan", "ios": "https://dc.lft.to/lastmile_qr_scan"}, "is_disabled": 0, "fusion_lat": 0.0, "name": "76afa486878fb02731a91d43d48a7cdf", "fusion_lon": 0.0}, {"is_reserved": 0, "type": "electric_scooter", "bike_id": "11c0fe4f6d7ecda34d54a4e53f472a1a", "lat": 38.916283, "lon": -76.98282483333334, "rental_uris": {"android": "https://dc.lft.to/lastmile_qr_scan", "ios": "https://dc.lft.to/lastmile_qr_scan"}, "is_disabled": 0, "fusion_lat": 0.0, "name": "11c0fe4f6d7ecda34d54a4e53f472a1a", "fusion_lon": 0.0}, {"is_reserved": 0, "type": "electric_scooter", "bike_id": "640551e8495a6a0c6d651c205c6ec636", "lat": 38.915396333333334, "lon": -77.0209055, "rental_uris": {"android": "https://dc.lft.to/lastmile_qr_scan", "ios": "https://dc.lft.to/lastmile_qr_scan"}, "is_disabled": 0, "fusion_lat": 0.0, "name": "640551e8495a6a0c6d651c205c6ec636", "fusion_lon": 0.0}, {"is_reserved": 0, "type": "electric_scooter", "bike_id": "4f8a12dc482f7dd0660bed8e973506c5", "lat": 38.906606333333336, "lon": -77.034797, "rental_uris": {"android": "https://dc.lft.to/lastmile_qr_scan", "ios": "https://dc.lft.to/lastmile_qr_scan"}, "is_disabled": 0, "fusion_lat": 0.0, "name": "4f8a12dc482f7dd0660bed8e973506c5", "fusion_lon": 0.0}, {"is_reserved": 0, "type": "electric_scooter", "bike_id": "47051341884b1f82c8cb581fbf69d350", "lat": 38.90114766666667, "lon": -77.03390716666667, "rental_uris": {"android": "https://dc.lft.to/lastmile_qr_scan", "ios": "https://dc.lft.to/lastmile_qr_scan"}, "is_disabled": 0, "fusion_lat": 0.0, "name": "47051341884b1f82c8cb581fbf69d350", "fusion_lon": 0.0}, {"is_reserved": 0, "type": "electric_scooter", "bike_id": "c698422cd1ab6a685932015845cb1e7a", "lat": 38.92433666666667, "lon": -76.99673383333334, "rental_uris": {"android": "https://dc.lft.to/lastmile_qr_scan", "ios": "https://dc.lft.to/lastmile_qr_scan"}, "is_disabled": 0, "fusion_lat": 0.0, "name": "c698422cd1ab6a685932015845cb1e7a", "fusion_lon": 0.0}, {"is_reserved": 0, "type": "electric_scooter", "bike_id": "70f18b72812b81b30c9e2f920ad3b67a", "lat": 38.9205475, "lon": -77.01775283333333, "rental_uris": {"android": "https://dc.lft.to/lastmile_qr_scan", "ios": "https://dc.lft.to/lastmile_qr_scan"}, "is_disabled": 0, "fusion_lat": 0.0, "name": "70f18b72812b81b30c9e2f920ad3b67a", "fusion_lon": 0.0}, {"is_reserved": 0, "type": "electric_scooter", "bike_id": "ec5a52448cc3f1297c871ea7640a1061", "lat": 38.924457333333336, "lon": -77.02032316666667, "rental_uris": {"android": "https://dc.lft.to/lastmile_qr_scan", "ios": "https://dc.lft.to/lastmile_qr_scan"}, "is_disabled": 0, "fusion_lat": 0.0, "name": "ec5a52448cc3f1297c871ea7640a1061", "fusion_lon": 0.0}, {"is_reserved": 0, "type": "electric_scooter", "bike_id": "21008837f17e6e3203f08dc1f542fd02", "lat": 38.9012115, "lon": -77.03136983333333, "rental_uris": {"android": "https://dc.lft.to/lastmile_qr_scan", "ios": "https://dc.lft.to/lastmile_qr_scan"}, "is_disabled": 0, "fusion_lat": 0.0, "name": "21008837f17e6e3203f08dc1f542fd02", "fusion_lon": 0.0}, {"is_reserved": 0, "type": "electric_scooter", "bike_id": "7cec15c012aa668a204e1d36ff890284", "lat": 38.90856266666667, "lon": -77.00195783333334, "rental_uris": {"android": "https://dc.lft.to/lastmile_qr_scan", "ios": "https://dc.lft.to/lastmile_qr_scan"}, "is_disabled": 0, "fusion_lat": 0.0, "name": "7cec15c012aa668a204e1d36ff890284", "fusion_lon": 0.0}, {"is_reserved": 0, "type": "electric_scooter", "bike_id": "b53f10197061e53c362fd2e62bb2075c", "lat": 38.900871333333335, "lon": -77.0161615, "rental_uris": {"android": "https://dc.lft.to/lastmile_qr_scan", "ios": "https://dc.lft.to/lastmile_qr_scan"}, "is_disabled": 0, "fusion_lat": 0.0, "name": "b53f10197061e53c362fd2e62bb2075c", "fusion_lon": 0.0}, {"is_reserved": 0, "type": "electric_scooter", "bike_id": "cdaba24f28d0444fd07ca6b227a9f3b1", "lat": 38.92421566666667, "lon": -77.04043066666667, "rental_uris": {"android": "https://dc.lft.to/lastmile_qr_scan", "ios": "https://dc.lft.to/lastmile_qr_scan"}, "is_disabled": 0, "fusion_lat": 0.0, "name": "cdaba24f28d0444fd07ca6b227a9f3b1", "fusion_lon": 0.0}, {"is_reserved": 0, "type": "electric_scooter", "bike_id": "77e103978aa2185396c6c9afaae35465", "lat": 38.940015833333334, "lon": -77.02738616666667, "rental_uris": {"android": "https://dc.lft.to/lastmile_qr_scan", "ios": "https://dc.lft.to/lastmile_qr_scan"}, "is_disabled": 0, "fusion_lat": 0.0, "name": "77e103978aa2185396c6c9afaae35465", "fusion_lon": 0.0}, {"is_reserved": 0, "type": "electric_scooter", "bike_id": "0ceec66597ed948aed58c8015bcb0598", "lat": 38.901043333333334, "lon": -77.03818333333334, "rental_uris": {"android": "https://dc.lft.to/lastmile_qr_scan", "ios": "https://dc.lft.to/lastmile_qr_scan"}, "is_disabled": 0, "fusion_lat": 0.0, "name": "0ceec66597ed948aed58c8015bcb0598", "fusion_lon": 0.0}, {"is_reserved": 0, "type": "electric_scooter", "bike_id": "1be42882bfd532b36fb04c5b0a535468", "lat": 38.937752833333334, "lon": -77.07451316666666, "rental_uris": {"android": "https://dc.lft.to/lastmile_qr_scan", "ios": "https://dc.lft.to/lastmile_qr_scan"}, "is_disabled": 0, "fusion_lat": 0.0, "name": "1be42882bfd532b36fb04c5b0a535468", "fusion_lon": 0.0}, {"is_reserved": 0, "type": "electric_scooter", "bike_id": "ff58d664fde6416a47920b106470f539", "lat": 38.89947516666667, "lon": -77.05393933333333, "rental_uris": {"android": "https://dc.lft.to/lastmile_qr_scan", "ios": "https://dc.lft.to/lastmile_qr_scan"}, "is_disabled": 0, "fusion_lat": 0.0, "name": "ff58d664fde6416a47920b106470f539", "fusion_lon": 0.0}, {"is_reserved": 0, "type": "electric_scooter", "bike_id": "9188a4981d83d6aa5259ba1c955f0169", "lat": 38.8992685, "lon": -76.94580033333334, "rental_uris": {"android": "https://dc.lft.to/lastmile_qr_scan", "ios": "https://dc.lft.to/lastmile_qr_scan"}, "is_disabled": 0, "fusion_lat": 0.0, "name": "9188a4981d83d6aa5259ba1c955f0169", "fusion_lon": 0.0}, {"is_reserved": 0, "type": "electric_scooter", "bike_id": "969d2bd85a39e3ac0e653d7d4f6e107c", "lat": 38.926021666666664, "lon": -77.05708983333334, "rental_uris": {"android": "https://dc.lft.to/lastmile_qr_scan", "ios": "https://dc.lft.to/lastmile_qr_scan"}, "is_disabled": 0, "fusion_lat": 0.0, "name": "969d2bd85a39e3ac0e653d7d4f6e107c", "fusion_lon": 0.0}, {"is_reserved": 0, "type": "electric_scooter", "bike_id": "6f8bea35dca2bd7573dacb466d953c6c", "lat": 38.921488833333335, "lon": -77.03351566666667, "rental_uris": {"android": "https://dc.lft.to/lastmile_qr_scan", "ios": "https://dc.lft.to/lastmile_qr_scan"}, "is_disabled": 0, "fusion_lat": 0.0, "name": "6f8bea35dca2bd7573dacb466d953c6c", "fusion_lon": 0.0}, {"is_reserved": 0, "type": "electric_scooter", "bike_id": "55772a9201a30f479e15b1f2c04fa30e", "lat": 38.92890633333333, "lon": -77.03276883333334, "rental_uris": {"android": "https://dc.lft.to/lastmile_qr_scan", "ios": "https://dc.lft.to/lastmile_qr_scan"}, "is_disabled": 0, "fusion_lat": 0.0, "name": "55772a9201a30f479e15b1f2c04fa30e", "fusion_lon": 0.0}, {"is_reserved": 0, "type": "electric_bike", "bike_id": "e6474712d9fd72c5020465e3918d67f5", "lat": 38.80254583333333, "lon": -77.12168583333333, "rental_uris": {"android": "https://dc.lft.to/lastmile_qr_scan", "ios": "https://dc.lft.to/lastmile_qr_scan"}, "is_disabled": 0, "fusion_lat": 0.0, "name": "e6474712d9fd72c5020465e3918d67f5", "fusion_lon": 0.0}, {"is_reserved": 0, "type": "electric_scooter", "bike_id": "e4b7d5f98cbfb9f6ccf74623abaa5cf8", "lat": 38.916361333333334, "lon": -77.0210185, "rental_uris": {"android": "https://dc.lft.to/lastmile_qr_scan", "ios": "https://dc.lft.to/lastmile_qr_scan"}, "is_disabled": 0, "fusion_lat": 0.0, "name": "e4b7d5f98cbfb9f6ccf74623abaa5cf8", "fusion_lon": 0.0}, {"is_reserved": 0, "type": "electric_bike", "bike_id": "1528d104ae2ac23c73f972ee77b42453", "lat": 38.972741, "lon": -77.03643783333334, "rental_uris": {"android": "https://dc.lft.to/lastmile_qr_scan", "ios": "https://dc.lft.to/lastmile_qr_scan"}, "is_disabled": 0, "fusion_lat": 0.0, "name": "1528d104ae2ac23c73f972ee77b42453", "fusion_lon": 0.0}, {"is_reserved": 0, "type": "electric_scooter", "bike_id": "29908150aa83d4fa0953d2fb90e96cd0", "lat": 38.867205, "lon": -76.98074666666666, "rental_uris": {"android": "https://dc.lft.to/lastmile_qr_scan", "ios": "https://dc.lft.to/lastmile_qr_scan"}, "is_disabled": 0, "fusion_lat": 0.0, "name": "29908150aa83d4fa0953d2fb90e96cd0", "fusion_lon": 0.0}, {"is_reserved": 0, "type": "electric_scooter", "bike_id": "fafdbb2095e1937e694a6ec3ef17bceb", "lat": 38.9122865, "lon": -77.03186083333334, "rental_uris": {"android": "https://dc.lft.to/lastmile_qr_scan", "ios": "https://dc.lft.to/lastmile_qr_scan"}, "is_disabled": 0, "fusion_lat": 0.0, "name": "fafdbb2095e1937e694a6ec3ef17bceb", "fusion_lon": 0.0}, {"is_reserved": 0, "type": "electric_scooter", "bike_id": "5cac0a736d3adadefe880c2601dfd13d", "lat": 38.90107666666667, "lon": -77.0317895, "rental_uris": {"android": "https://dc.lft.to/lastmile_qr_scan", "ios": "https://dc.lft.to/lastmile_qr_scan"}, "is_disabled": 0, "fusion_lat": 0.0, "name": "5cac0a736d3adadefe880c2601dfd13d", "fusion_lon": 0.0}, {"is_reserved": 0, "type": "electric_scooter", "bike_id": "6c47aa42312b3efba662ff39a84253ae", "lat": 38.881085666666664, "lon": -76.99502316666667, "rental_uris": {"android": "https://dc.lft.to/lastmile_qr_scan", "ios": "https://dc.lft.to/lastmile_qr_scan"}, "is_disabled": 0, "fusion_lat": 0.0, "name": "6c47aa42312b3efba662ff39a84253ae", "fusion_lon": 0.0}, {"is_reserved": 0, "type": "electric_scooter", "bike_id": "2106b450e9e78164fabd8f9d89c0cb12", "lat": 38.880901, "lon": -76.99501533333333, "rental_uris": {"android": "https://dc.lft.to/lastmile_qr_scan", "ios": "https://dc.lft.to/lastmile_qr_scan"}, "is_disabled": 0, "fusion_lat": 0.0, "name": "2106b450e9e78164fabd8f9d89c0cb12", "fusion_lon": 0.0}, {"is_reserved": 0, "type": "electric_bike", "bike_id": "ae7f7cc6b239176412e8c95bb4075094", "lat": 38.895882666666665, "lon": -76.906915, "rental_uris": {"android": "https://dc.lft.to/lastmile_qr_scan", "ios": "https://dc.lft.to/lastmile_qr_scan"}, "is_disabled": 0, "fusion_lat": 0.0, "name": "ae7f7cc6b239176412e8c95bb4075094", "fusion_lon": 0.0}, {"is_reserved": 0, "type": "electric_scooter", "bike_id": "d9dc63129efbbbc29dbfc9ab2179a340", "lat": 38.91127183333333, "lon": -77.03657783333334, "rental_uris": {"android": "https://dc.lft.to/lastmile_qr_scan", "ios": "https://dc.lft.to/lastmile_qr_scan"}, "is_disabled": 0, "fusion_lat": 0.0, "name": "d9dc63129efbbbc29dbfc9ab2179a340", "fusion_lon": 0.0}, {"is_reserved": 0, "type": "electric_scooter", "bike_id": "9a279ff5c2e8e503e065b18fb06e7a60", "lat": 38.89739633333333, "lon": -77.026943, "rental_uris": {"android": "https://dc.lft.to/lastmile_qr_scan", "ios": "https://dc.lft.to/lastmile_qr_scan"}, "is_disabled": 0, "fusion_lat": 0.0, "name": "9a279ff5c2e8e503e065b18fb06e7a60", "fusion_lon": 0.0}, {"is_reserved": 0, "type": "electric_scooter", "bike_id": "2ba2cf9923e50f4e8673a297f603630e", "lat": 38.892225, "lon": -77.0500195, "rental_uris": {"android": "https://dc.lft.to/lastmile_qr_scan", "ios": "https://dc.lft.to/lastmile_qr_scan"}, "is_disabled": 0, "fusion_lat": 0.0, "name": "2ba2cf9923e50f4e8673a297f603630e", "fusion_lon": 0.0}, {"is_reserved": 0, "type": "electric_scooter", "bike_id": "1a4705046e0e93eb841d0e1dd8593f8c", "lat": 38.919539666666665, "lon": -77.0436255, "rental_uris": {"android": "https://dc.lft.to/lastmile_qr_scan", "ios": "https://dc.lft.to/lastmile_qr_scan"}, "is_disabled": 0, "fusion_lat": 0.0, "name": "1a4705046e0e93eb841d0e1dd8593f8c", "fusion_lon": 0.0}, {"is_reserved": 0, "type": "electric_scooter", "bike_id": "f1f2b347b54ee325651332c3bb3356f4", "lat": 38.8659165, "lon": -76.97454816666666, "rental_uris": {"android": "https://dc.lft.to/lastmile_qr_scan", "ios": "https://dc.lft.to/lastmile_qr_scan"}, "is_disabled": 0, "fusion_lat": 0.0, "name": "f1f2b347b54ee325651332c3bb3356f4", "fusion_lon": 0.0}, {"is_reserved": 0, "type": "electric_scooter", "bike_id": "34440176182ad4cf520446aa38d9ba2d", "lat": 38.930547833333335, "lon": -77.0363455, "rental_uris": {"android": "https://dc.lft.to/lastmile_qr_scan", "ios": "https://dc.lft.to/lastmile_qr_scan"}, "is_disabled": 0, "fusion_lat": 0.0, "name": "34440176182ad4cf520446aa38d9ba2d", "fusion_lon": 0.0}, {"is_reserved": 0, "type": "electric_bike", "bike_id": "4095148bc24aacc85f3f813a71460ae2", "lat": 38.9564075, "lon": -77.03290516666667, "rental_uris": {"android": "https://dc.lft.to/lastmile_qr_scan", "ios": "https://dc.lft.to/lastmile_qr_scan"}, "is_disabled": 0, "fusion_lat": 0.0, "name": "4095148bc24aacc85f3f813a71460ae2", "fusion_lon": 0.0}, {"is_reserved": 0, "type": "electric_scooter", "bike_id": "18555b10951ba252d16e423c6701aabe", "lat": 38.88670616666667, "lon": -77.00192933333334, "rental_uris": {"android": "https://dc.lft.to/lastmile_qr_scan", "ios": "https://dc.lft.to/lastmile_qr_scan"}, "is_disabled": 0, "fusion_lat": 0.0, "name": "18555b10951ba252d16e423c6701aabe", "fusion_lon": 0.0}, {"is_reserved": 0, "type": "electric_bike", "bike_id": "f19018dcc62a4aa65180a2115a8e398f", "lat": 38.86273516666667, "lon": -77.05904266666667, "rental_uris": {"android": "https://dc.lft.to/lastmile_qr_scan", "ios": "https://dc.lft.to/lastmile_qr_scan"}, "is_disabled": 0, "fusion_lat": 0.0, "name": "f19018dcc62a4aa65180a2115a8e398f", "fusion_lon": 0.0}, {"is_reserved": 0, "type": "electric_scooter", "bike_id": "88e2bc70cbc53c0a650e005180a66bff", "lat": 38.90195883333333, "lon": -76.9821375, "rental_uris": {"android": "https://dc.lft.to/lastmile_qr_scan", "ios": "https://dc.lft.to/lastmile_qr_scan"}, "is_disabled": 0, "fusion_lat": 0.0, "name": "88e2bc70cbc53c0a650e005180a66bff", "fusion_lon": 0.0}, {"is_reserved": 0, "type": "electric_scooter", "bike_id": "d0a9b365491e20574e7ae0b70374136d", "lat": 38.91654666666667, "lon": -77.02477283333333, "rental_uris": {"android": "https://dc.lft.to/lastmile_qr_scan", "ios": "https://dc.lft.to/lastmile_qr_scan"}, "is_disabled": 0, "fusion_lat": 0.0, "name": "d0a9b365491e20574e7ae0b70374136d", "fusion_lon": 0.0}, {"is_reserved": 0, "type": "electric_scooter", "bike_id": "f94c5c9b4bcdc9c8002aa8b9d1d5a557", "lat": 38.9255865, "lon": -77.02287466666667, "rental_uris": {"android": "https://dc.lft.to/lastmile_qr_scan", "ios": "https://dc.lft.to/lastmile_qr_scan"}, "is_disabled": 0, "fusion_lat": 0.0, "name": "f94c5c9b4bcdc9c8002aa8b9d1d5a557", "fusion_lon": 0.0}, {"is_reserved": 0, "type": "electric_scooter", "bike_id": "9c4766771c6e96b66725422882dba5a5", "lat": 38.91409183333333, "lon": -77.02249283333333, "rental_uris": {"android": "https://dc.lft.to/lastmile_qr_scan", "ios": "https://dc.lft.to/lastmile_qr_scan"}, "is_disabled": 0, "fusion_lat": 0.0, "name": "9c4766771c6e96b66725422882dba5a5", "fusion_lon": 0.0}, {"is_reserved": 0, "type": "electric_scooter", "bike_id": "2a8f4000cc393a2009b4cc5f803e52c3", "lat": 38.901119666666666, "lon": -77.03366083333333, "rental_uris": {"android": "https://dc.lft.to/lastmile_qr_scan", "ios": "https://dc.lft.to/lastmile_qr_scan"}, "is_disabled": 0, "fusion_lat": 0.0, "name": "2a8f4000cc393a2009b4cc5f803e52c3", "fusion_lon": 0.0}, {"is_reserved": 0, "type": "electric_scooter", "bike_id": "341329a537a2efa1c89dec6351483e69", "lat": 38.91919216666667, "lon": -77.04917816666666, "rental_uris": {"android": "https://dc.lft.to/lastmile_qr_scan", "ios": "https://dc.lft.to/lastmile_qr_scan"}, "is_disabled": 0, "fusion_lat": 0.0, "name": "341329a537a2efa1c89dec6351483e69", "fusion_lon": 0.0}, {"is_reserved": 0, "type": "electric_scooter", "bike_id": "7110c21758b5f89d3de104795577dd98", "lat": 38.8990505, "lon": -76.97996516666667, "rental_uris": {"android": "https://dc.lft.to/lastmile_qr_scan", "ios": "https://dc.lft.to/lastmile_qr_scan"}, "is_disabled": 0, "fusion_lat": 0.0, "name": "7110c21758b5f89d3de104795577dd98", "fusion_lon": 0.0}, {"is_reserved": 0, "type": "electric_scooter", "bike_id": "68528670a1d1fec5a3b55a89619d831c", "lat": 38.9359015, "lon": -77.03370083333333, "rental_uris": {"android": "https://dc.lft.to/lastmile_qr_scan", "ios": "https://dc.lft.to/lastmile_qr_scan"}, "is_disabled": 0, "fusion_lat": 0.0, "name": "68528670a1d1fec5a3b55a89619d831c", "fusion_lon": 0.0}, {"is_reserved": 0, "type": "electric_scooter", "bike_id": "9369c9929631b37a7cadd3700d78ca47", "lat": 38.906807, "lon": -77.03474483333333, "rental_uris": {"android": "https://dc.lft.to/lastmile_qr_scan", "ios": "https://dc.lft.to/lastmile_qr_scan"}, "is_disabled": 0, "fusion_lat": 0.0, "name": "9369c9929631b37a7cadd3700d78ca47", "fusion_lon": 0.0}, {"is_reserved": 0, "type": "electric_scooter", "bike_id": "1515c171dfe77574c21458fee8f998f7", "lat": 38.88748483333333, "lon": -77.0317905, "rental_uris": {"android": "https://dc.lft.to/lastmile_qr_scan", "ios": "https://dc.lft.to/lastmile_qr_scan"}, "is_disabled": 0, "fusion_lat": 0.0, "name": "1515c171dfe77574c21458fee8f998f7", "fusion_lon": 0.0}, {"is_reserved": 0, "type": "electric_bike", "bike_id": "e83a817b4ad60ac32b6dfc3843028ab2", "lat": 38.9731295, "lon": -76.9948025, "rental_uris": {"android": "https://dc.lft.to/lastmile_qr_scan", "ios": "https://dc.lft.to/lastmile_qr_scan"}, "is_disabled": 0, "fusion_lat": 0.0, "name": "e83a817b4ad60ac32b6dfc3843028ab2", "fusion_lon": 0.0}, {"is_reserved": 0, "type": "electric_scooter", "bike_id": "35e31c226125baaf98d5c77148e5dfd6", "lat": 38.896262, "lon": -77.0321535, "rental_uris": {"android": "https://dc.lft.to/lastmile_qr_scan", "ios": "https://dc.lft.to/lastmile_qr_scan"}, "is_disabled": 0, "fusion_lat": 0.0, "name": "35e31c226125baaf98d5c77148e5dfd6", "fusion_lon": 0.0}, {"is_reserved": 0, "type": "electric_scooter", "bike_id": "37c1824d3df617edb910e6459189f76a", "lat": 38.914796333333335, "lon": -77.03182666666666, "rental_uris": {"android": "https://dc.lft.to/lastmile_qr_scan", "ios": "https://dc.lft.to/lastmile_qr_scan"}, "is_disabled": 0, "fusion_lat": 0.0, "name": "37c1824d3df617edb910e6459189f76a", "fusion_lon": 0.0}, {"is_reserved": 0, "type": "electric_scooter", "bike_id": "995cb40e0932de5d47bd74412a2fab73", "lat": 38.9007465, "lon": -77.01905366666666, "rental_uris": {"android": "https://dc.lft.to/lastmile_qr_scan", "ios": "https://dc.lft.to/lastmile_qr_scan"}, "is_disabled": 0, "fusion_lat": 0.0, "name": "995cb40e0932de5d47bd74412a2fab73", "fusion_lon": 0.0}, {"is_reserved": 0, "type": "electric_scooter", "bike_id": "bf1c54b5146989188fa15b288367f4f6", "lat": 38.8963975, "lon": -76.99027933333333, "rental_uris": {"android": "https://dc.lft.to/lastmile_qr_scan", "ios": "https://dc.lft.to/lastmile_qr_scan"}, "is_disabled": 0, "fusion_lat": 0.0, "name": "bf1c54b5146989188fa15b288367f4f6", "fusion_lon": 0.0}, {"is_reserved": 0, "type": "electric_scooter", "bike_id": "536ade1dda9b7b09b330c6860079ddf0", "lat": 38.89610883333334, "lon": -76.976844, "rental_uris": {"android": "https://dc.lft.to/lastmile_qr_scan", "ios": "https://dc.lft.to/lastmile_qr_scan"}, "is_disabled": 0, "fusion_lat": 0.0, "name": "536ade1dda9b7b09b330c6860079ddf0", "fusion_lon": 0.0}, {"is_reserved": 0, "type": "electric_scooter", "bike_id": "57b27d97057a71088beca558731b0252", "lat": 38.8970195, "lon": -77.02152933333333, "rental_uris": {"android": "https://dc.lft.to/lastmile_qr_scan", "ios": "https://dc.lft.to/lastmile_qr_scan"}, "is_disabled": 0, "fusion_lat": 0.0, "name": "57b27d97057a71088beca558731b0252", "fusion_lon": 0.0}, {"is_reserved": 0, "type": "electric_scooter", "bike_id": "e90f360d8959b764030b7006aaa77228", "lat": 38.90546616666666, "lon": -77.0059215, "rental_uris": {"android": "https://dc.lft.to/lastmile_qr_scan", "ios": "https://dc.lft.to/lastmile_qr_scan"}, "is_disabled": 0, "fusion_lat": 0.0, "name": "e90f360d8959b764030b7006aaa77228", "fusion_lon": 0.0}, {"is_reserved": 0, "type": "electric_scooter", "bike_id": "da9eda28e64ba6f9d80c5ed5fcfb8c6b", "lat": 38.907746, "lon": -77.07705, "rental_uris": {"android": "https://dc.lft.to/lastmile_qr_scan", "ios": "https://dc.lft.to/lastmile_qr_scan"}, "is_disabled": 0, "fusion_lat": 0.0, "name": "da9eda28e64ba6f9d80c5ed5fcfb8c6b", "fusion_lon": 0.0}, {"is_reserved": 0, "type": "electric_scooter", "bike_id": "8553dfc8a3a94cf779c98a69ff07c674", "lat": 38.892632, "lon": -76.92997083333333, "rental_uris": {"android": "https://dc.lft.to/lastmile_qr_scan", "ios": "https://dc.lft.to/lastmile_qr_scan"}, "is_disabled": 0, "fusion_lat": 0.0, "name": "8553dfc8a3a94cf779c98a69ff07c674", "fusion_lon": 0.0}, {"is_reserved": 0, "type": "electric_scooter", "bike_id": "3098e3e4a54759bf45ab7e935ef06066", "lat": 38.8974795, "lon": -77.030473, "rental_uris": {"android": "https://dc.lft.to/lastmile_qr_scan", "ios": "https://dc.lft.to/lastmile_qr_scan"}, "is_disabled": 0, "fusion_lat": 0.0, "name": "3098e3e4a54759bf45ab7e935ef06066", "fusion_lon": 0.0}, {"is_reserved": 0, "type": "electric_scooter", "bike_id": "95b75aba1d90b6e199eb3736c0a803c3", "lat": 38.899064833333334, "lon": -77.018837, "rental_uris": {"android": "https://dc.lft.to/lastmile_qr_scan", "ios": "https://dc.lft.to/lastmile_qr_scan"}, "is_disabled": 0, "fusion_lat": 0.0, "name": "95b75aba1d90b6e199eb3736c0a803c3", "fusion_lon": 0.0},