{"data": {"bikes": [{"lat": 38.87857866666667, "is_disabled": 0, "lon": -77.003055, "is_reserved": 0, "fusion_lon": 0.0, "fusion_lat": 0.0, "name": "9c3a8b6110a8aa62e0a8ce4edb52ec60", "type": "electric_scooter", "rental_uris": {"ios": "https://dc.lft.to/lastmile_qr_scan", "android": "https://dc.lft.to/lastmile_qr_scan"}, "bike_id": "9c3a8b6110a8aa62e0a8ce4edb52ec60"}, {"lat": 38.900070166666666, "is_disabled": 0, "lon": -77.02921466666666, "is_reserved": 0, "fusion_lon": 0.0, "fusion_lat": 0.0, "name": "494116918ceea49139e696f11c3f327b", "type": "electric_scooter", "rental_uris": {"ios": "https://dc.lft.to/lastmile_qr_scan", "android": "https://dc.lft.to/lastmile_qr_scan"}, "bike_id": "494116918ceea49139e696f11c3f327b"}, {"lat": 38.929551333333336, "is_disabled": 0, "lon": -77.027822, "is_reserved": 0, "fusion_lon": 0.0, "fusion_lat": 0.0, "name": "8c688e3793cad6095977f90953f7d5a3", "type": "electric_scooter", "rental_uris": {"ios": "https://dc.lft.to/lastmile_qr_scan", "android": "https://dc.lft.to/lastmile_qr_scan"}, "bike_id": "8c688e3793cad6095977f90953f7d5a3"}, {"lat": 38.902756833333335, "is_disabled": 0, "lon": -77.04449083333333, "is_reserved": 0, "fusion_lon": 0.0, "fusion_lat": 0.0, "name": "be97ec15dad9c92f95d48bbfbac31e3a", "type": "electric_scooter", "rental_uris": {"ios": "https://dc.lft.to/lastmile_qr_scan", "android": "https://dc.lft.to/lastmile_qr_scan"}, "bike_id": "be97ec15dad9c92f95d48bbfbac31e3a"}, {"lat": 38.918348333333334, "is_disabled": 0, "lon": -77.03441016666666, "is_reserved": 0, "fusion_lon": 0.0, "fusion_lat": 0.0, "name": "3c529451c0d05b5768ae179674ff914a", "type": "electric_scooter", "rental_uris": {"ios": "https://dc.lft.to/lastmile_qr_scan", "android": "https://dc.lft.to/lastmile_qr_scan"}, "bike_id": "3c529451c0d05b5768ae179674ff914a"}, {"lat": 38.9004305, "is_disabled": 0, "lon": -76.98821983333333, "is_reserved": 0, "fusion_lon": 0.0, "fusion_lat": 0.0, "name": "87d54b558d2e299b61db9408631838c9", "type": "electric_scooter", "rental_uris": {"ios": "https://dc.lft.to/lastmile_qr_scan", "android": "https://dc.lft.to/lastmile_qr_scan"}, "bike_id": "87d54b558d2e299b61db9408631838c9"}, {"lat": 38.902280166666664, "is_disabled": 0, "lon": -77.02137766666667, "is_reserved": 0, "fusion_lon": 0.0, "fusion_lat": 0.0, "name": "4ffb741aa810fef7d340705335f71a49", "type": "electric_scooter", "rental_uris": {"ios": "https://dc.lft.to/lastmile_qr_scan", "android": "https://dc.lft.to/lastmile_qr_scan"}, "bike_id": "4ffb741aa810fef7d340705335f71a49"}, {"lat": 38.8984515, "is_disabled": 0, "lon": -77.027077, "is_reserved": 0, "fusion_lon": 0.0, "fusion_lat": 0.0, "name": "9c764739c834c5c0f3f0da28a46e5436", "type": "electric_scooter", "rental_uris": {"ios": "https://dc.lft.to/lastmile_qr_scan", "android": "https://dc.lft.to/lastmile_qr_scan"}, "bike_id": "9c764739c834c5c0f3f0da28a46e5436"}, {"lat": 38.8659445, "is_disabled": 0, "lon": -77.12927783333333, "is_reserved": 0, "fusion_lon": 0.0, "fusion_lat": 0.0, "name": "a0b5fda71f0e0c112db3162e84a63c66", "type": "electric_bike", "rental_uris": {"ios": "https://dc.lft.to/lastmile_qr_scan", "android": "https://dc.lft.to/lastmile_qr_scan"}, "bike_id": "a0b5fda71f0e0c112db3162e84a63c66"}, {"lat": 38.925667833333335, "is_disabled": 0, "lon": -77.02281116666667, "is_reserved": 0, "fusion_lon": 0.0, "fusion_lat": 0.0, "name": "8bb4b1d9a975484092f8a4457a6682e6", "type": "electric_scooter", "rental_uris": {"ios": "https://dc.lft.to/lastmile_qr_scan", "android": "https://dc.lft.to/lastmile_qr_scan"}, "bike_id": "8bb4b1d9a975484092f8a4457a6682e6"}, {"lat": 38.893629, "is_disabled": 0, "lon": -77.04616533333333, "is_reserved": 0, "fusion_lon": 0.0, "fusion_lat": 0.0, "name": "b54e0ad2ae8df1aa197786734f2b9fa7", "type": "electric_scooter", "rental_uris": {"ios": "https://dc.lft.to/lastmile_qr_scan", "android": "https://dc.lft.to/lastmile_qr_scan"}, "bike_id": "b54e0ad2ae8df1aa197786734f2b9fa7"}, {"lat": 38.896333, "is_disabled": 0, "lon": -76.92966916666667, "is_reserved": 0, "fusion_lon": 0.0, "fusion_lat": 0.0, "name": "c9f8f8fb8ab1cfba158338117af86e53", "type": "electric_scooter", "rental_uris": {"ios": "https://dc.lft.to/lastmile_qr_scan", "android": "https://dc.lft.to/lastmile_qr_scan"}, "bike_id": "c9f8f8fb8ab1cfba158338117af86e53"}, {"lat": 38.862362, "is_disabled": 0, "lon": -76.9948715, "is_reserved": 0, "fusion_lon": 0.0, "fusion_lat": 0.0, "name": "14adb079ca9a4dde857a4a0e86dbda4e", "type": "electric_scooter", "rental_uris": {"ios": "https://dc.lft.to/lastmile_qr_scan", "android": "https://dc.lft.to/lastmile_qr_scan"}, "bike_id": "14adb079ca9a4dde857a4a0e86dbda4e"}, {"lat": 38.9235885, "is_disabled": 0, "lon": -77.019591, "is_reserved": 0, "fusion_lon": 0.0, "fusion_lat": 0.0, "name": "eca2dda5bfdd163f6fb2b2d82fc26935", "type": "electric_scooter", "rental_uris": {"ios": "https://dc.lft.to/lastmile_qr_scan", "android": "https://dc.lft.to/lastmile_qr_scan"}, "bike_id": "eca2dda5bfdd163f6fb2b2d82fc26935"}, {"lat": 38.905425666666666, "is_disabled": 0, "lon": -77.0221455, "is_reserved": 0, "fusion_lon": 0.0, "fusion_lat": 0.0, "name": "4a5d2e95c7dc60a014ade593d83a881c", "type": "electric_scooter", "rental_uris": {"ios": "https://dc.lft.to/lastmile_qr_scan", "android": "https://dc.lft.to/lastmile_qr_scan"}, "bike_id": "4a5d2e95c7dc60a014ade593d83a881c"}, {"lat": 38.92494766666667, "is_disabled": 0, "lon": -77.0392575, "is_reserved": 0, "fusion_lon": 0.0, "fusion_lat": 0.0, "name": "7d30edb1a1b63ab80897e36cbe6c8b4d", "type": "electric_scooter", "rental_uris": {"ios": "https://dc.lft.to/lastmile_qr_scan", "android": "https://dc.lft.to/lastmile_qr_scan"}, "bike_id": "7d30edb1a1b63ab80897e36cbe6c8b4d"}, {"lat": 38.92331266666667, "is_disabled": 0, "lon": -77.01956316666667, "is_reserved": 0, "fusion_lon": 0.0, "fusion_lat": 0.0, "name": "b41312105e685d439ec4da81fec48f88", "type": "electric_scooter", "rental_uris": {"ios": "https://dc.lft.to/lastmile_qr_scan", "android": "https://dc.lft.to/lastmile_qr_scan"}, "bike_id": "b41312105e685d439ec4da81fec48f88"}, {"lat": 38.95244666666667, "is_disabled": 0, "lon": -77.00793966666667, "is_reserved": 0, "fusion_lon": 0.0, "fusion_lat": 0.0, "name": "b5b7340f756aadda7ea7d2bef223bf40", "type": "electric_scooter", "rental_uris": {"ios": "https://dc.lft.to/lastmile_qr_scan", "android": "https://dc.lft.to/lastmile_qr_scan"}, "bike_id": "b5b7340f756aadda7ea7d2bef223bf40"}, {"lat": 38.924750833333334, "is_disabled": 0, "lon": -77.0223025, "is_reserved": 0, "fusion_lon": 0.0, "fusion_lat": 0.0, "name": "d216378f61bdad9db5fc4c89ead874e6", "type": "electric_scooter", "rental_uris": {"ios": "https://dc.lft.to/lastmile_qr_scan", "android": "https://dc.lft.to/lastmile_qr_scan"}, "bike_id": "d216378f61bdad9db5fc4c89ead874e6"}, {"lat": 38.90363883333333, "is_disabled": 0, "lon": -77.04516716666667, "is_reserved": 0, "fusion_lon": 0.0, "fusion_lat": 0.0, "name": "c0bd1b8049394b46699ec7796b437ae2", "type": "electric_scooter", "rental_uris": {"ios": "https://dc.lft.to/lastmile_qr_scan", "android": "https://dc.lft.to/lastmile_qr_scan"}, "bike_id": "c0bd1b8049394b46699ec7796b437ae2"}, {"lat": 38.9126615, "is_disabled": 0, "lon": -77.02248316666666, "is_reserved": 0, "fusion_lon": 0.0, "fusion_lat": 0.0, "name": "6a624ed29e8ee5fc5e69b4f68dc20224", "type": "electric_scooter", "rental_uris": {"ios": "https://dc.lft.to/lastmile_qr_scan", "android": "https://dc.lft.to/lastmile_qr_scan"}, "bike_id": "6a624ed29e8ee5fc5e69b4f68dc20224"}, {"lat": 38.89745, "is_disabled": 0, "lon": -77.0319355, "is_reserved": 0, "fusion_lon": 0.0, "fusion_lat": 0.0, "name": "f2c3faa53eb1ad11baaad25303aeaa16", "type": "electric_scooter", "rental_uris": {"ios": "https://dc.lft.to/lastmile_qr_scan", "android": "https://dc.lft.to/lastmile_qr_scan"}, "bike_id": "f2c3faa53eb1ad11baaad25303aeaa16"}, {"lat": 38.8005285, "is_disabled": 0, "lon": -77.12840533333333, "is_reserved": 0, "fusion_lon": 0.0, "fusion_lat": 0.0, "name": "7487aa5743de1bde84032b09122a689e", "type": "electric_bike", "rental_uris": {"ios": "https://dc.lft.to/lastmile_qr_scan", "android": "https://dc.lft.to/lastmile_qr_scan"}, "bike_id": "7487aa5743de1bde84032b09122a689e"}, {"lat": 38.92494816666667, "is_disabled": 0, "lon": -77.02178783333333, "is_reserved": 0, "fusion_lon": 0.0, "fusion_lat": 0.0, "name": "b321dd6d23007fee6ab882caf87fcb28", "type": "electric_scooter", "rental_uris": {"ios": "https://dc.lft.to/lastmile_qr_scan", "android": "https://dc.lft.to/lastmile_qr_scan"}, "bike_id": "b321dd6d23007fee6ab882caf87fcb28"}, {"lat": 38.90354816666667, "is_disabled": 0, "lon": -77.02586716666667, "is_reserved": 0, "fusion_lon": 0.0, "fusion_lat": 0.0, "name": "1f18cb1dea49dd59e4919247be065a51", "type": "electric_scooter", "rental_uris": {"ios": "https://dc.lft.to/lastmile_qr_scan", "android": "https://dc.lft.to/lastmile_qr_scan"}, "bike_id": "1f18cb1dea49dd59e4919247be065a51"}, {"lat": 38.917126833333334, "is_disabled": 0, "lon": -77.04162366666667, "is_reserved": 0, "fusion_lon": 0.0, "fusion_lat": 0.0, "name": "225fa3ad539ebf1207992ab7fd3ef770", "type": "electric_scooter", "rental_uris": {"ios": "https://dc.lft.to/lastmile_qr_scan", "android": "https://dc.lft.to/lastmile_qr_scan"}, "bike_id": "225fa3ad539ebf1207992ab7fd3ef770"}, {"lat": 38.92480666666667, "is_disabled": 0, "lon": -77.02219916666667, "is_reserved": 0, "fusion_lon": 0.0, "fusion_lat": 0.0, "name": "a4b13d6b1cf4d59b620f50536fddb76f", "type": "electric_scooter", "rental_uris": {"ios": "https://dc.lft.to/lastmile_qr_scan", "android": "https://dc.lft.to/lastmile_qr_scan"}, "bike_id": "a4b13d6b1cf4d59b620f50536fddb76f"}, {"lat": 38.838668, "is_disabled": 0, "lon": -76.99699516666666, "is_reserved": 0, "fusion_lon": 0.0, "fusion_lat": 0.0, "name": "bb59565d314adb066e762566abf140b1", "type": "electric_bike", "rental_uris": {"ios": "https://dc.lft.to/lastmile_qr_scan", "android": "https://dc.lft.to/lastmile_qr_scan"}, "bike_id": "bb59565d314adb066e762566abf140b1"}, {"lat": 38.9199015, "is_disabled": 0, "lon": -77.01781066666666, "is_reserved": 0, "fusion_lon": 0.0, "fusion_lat": 0.0, "name": "7171eeaddd204abd67b5630854530106", "type": "electric_scooter", "rental_uris": {"ios": "https://dc.lft.to/lastmile_qr_scan", "android": "https://dc.lft.to/lastmile_qr_scan"}, "bike_id": "7171eeaddd204abd67b5630854530106"}, {"lat": 38.9134755, "is_disabled": 0, "lon": -77.02882883333334, "is_reserved": 0, "fusion_lon": 0.0, "fusion_lat": 0.0, "name": "1ce115f4be3a4f9540f8710197d51dfc", "type": "electric_scooter", "rental_uris": {"ios": "https://dc.lft.to/lastmile_qr_scan", "android": "https://dc.lft.to/lastmile_qr_scan"}, "bike_id": "1ce115f4be3a4f9540f8710197d51dfc"}, {"lat": 38.9357955, "is_disabled": 0, "lon": -77.03658833333333, "is_reserved": 0, "fusion_lon": 0.0, "fusion_lat": 0.0, "name": "36f2e8ccf91c0a21b559649ba105dd64", "type": "electric_bike", "rental_uris": {"ios": "https://dc.lft.to/lastmile_qr_scan", "android": "https://dc.lft.to/lastmile_qr_scan"}, "bike_id": "36f2e8ccf91c0a21b559649ba105dd64"}, {"lat": 38.92247233333333, "is_disabled": 0, "lon": -77.03031233333333, "is_reserved": 0, "fusion_lon": 0.0, "fusion_lat": 0.0, "name": "327f9246893b405b7c0ff7f1157c2584", "type": "electric_scooter", "rental_uris": {"ios": "https://dc.lft.to/lastmile_qr_scan", "android": "https://dc.lft.to/lastmile_qr_scan"}, "bike_id": "327f9246893b405b7c0ff7f1157c2584"}, {"lat": 38.90956516666667, "is_disabled": 0, "lon": -77.04025933333334, "is_reserved": 0, "fusion_lon": 0.0, "fusion_lat": 0.0, "name": "9e2d5841535820aee27e0a33aaac2a7a", "type": "electric_scooter", "rental_uris": {"ios": "https://dc.lft.to/lastmile_qr_scan", "android": "https://dc.lft.to/lastmile_qr_scan"}, "bike_id": "9e2d5841535820aee27e0a33aaac2a7a"}, {"lat": 38.88049083333333, "is_disabled": 0, "lon": -76.93216566666666, "is_reserved": 0, "fusion_lon": 0.0, "fusion_lat": 0.0, "name": "8665a1cd9d825e6137d49e471ff30d2e", "type": "electric_scooter", "rental_uris": {"ios": "https://dc.lft.to/lastmile_qr_scan", "android": "https://dc.lft.to/lastmile_qr_scan"}, "bike_id": "8665a1cd9d825e6137d49e471ff30d2e"}, {"lat": 38.91414483333333, "is_disabled": 0, "lon": -77.04505283333333, "is_reserved": 0, "fusion_lon": 0.0, "fusion_lat": 0.0, "name": "50b10c2d49001fcc159b7533f0c220f6", "type": "electric_scooter", "rental_uris": {"ios": "https://dc.lft.to/lastmile_qr_scan", "android": "https://dc.lft.to/lastmile_qr_scan"}, "bike_id": "50b10c2d49001fcc159b7533f0c220f6"}, {"lat": 38.88124966666667, "is_disabled": 0, "lon": -77.01650483333333, "is_reserved": 0, "fusion_lon": 0.0, "fusion_lat": 0.0, "name": "485084601295456da200c05d5ce0a501", "type": "electric_bike", "rental_uris": {"ios": "https://dc.lft.to/lastmile_qr_scan", "android": "https://dc.lft.to/lastmile_qr_scan"}, "bike_id": "485084601295456da200c05d5ce0a501"}, {"lat": 38.919706166666664, "is_disabled": 0, "lon": -77.01776233333334, "is_reserved": 0, "fusion_lon": 0.0, "fusion_lat": 0.0, "name": "4f854dd4dc6692f84cc45cc5b701bfa7", "type": "electric_scooter", "rental_uris": {"ios": "https://dc.lft.to/lastmile_qr_scan", "android": "https://dc.lft.to/lastmile_qr_scan"}, "bike_id": "4f854dd4dc6692f84cc45cc5b701bfa7"}, {"lat": 38.917990833333334, "is_disabled": 0, "lon": -77.04009866666667, "is_reserved": 0, "fusion_lon": 0.0, "fusion_lat": 0.0, "name": "2d8809c6e251e8cdf48a3b84690274cc", "type": "electric_scooter", "rental_uris": {"ios": "https://dc.lft.to/lastmile_qr_scan", "android": "https://dc.lft.to/lastmile_qr_scan"}, "bike_id": "2d8809c6e251e8cdf48a3b84690274cc"}, {"lat": 38.90889983333334, "is_disabled": 0, "lon": -76.98238883333333, "is_reserved": 0, "fusion_lon": 0.0, "fusion_lat": 0.0, "name": "20b46c5567230d1705c7cff1a4792841", "type": "electric_scooter", "rental_uris": {"ios": "https://dc.lft.to/lastmile_qr_scan", "android": "https://dc.lft.to/lastmile_qr_scan"}, "bike_id": "20b46c5567230d1705c7cff1a4792841"}, {"lat": 38.892066666666665, "is_disabled": 0, "lon": -76.9901685, "is_reserved": 0, "fusion_lon": 0.0, "fusion_lat": 0.0, "name": "584ad0df619a63964203519ba0df1096", "type": "electric_scooter", "rental_uris": {"ios": "https://dc.lft.to/lastmile_qr_scan", "android": "https://dc.lft.to/lastmile_qr_scan"}, "bike_id": "584ad0df619a63964203519ba0df1096"}, {"lat": 38.892281833333335, "is_disabled": 0, "lon": -77.0280775, "is_reserved": 0, "fusion_lon": 0.0, "fusion_lat": 0.0, "name": "f3310eb7c81585bf726a18ec13030ade", "type": "electric_scooter", "rental_uris": {"ios": "https://dc.lft.to/lastmile_qr_scan", "android": "https://dc.lft.to/lastmile_qr_scan"}, "bike_id": "f3310eb7c81585bf726a18ec13030ade"}, {"lat": 38.86549683333333, "is_disabled": 0, "lon": -76.97350933333334, "is_reserved": 0, "fusion_lon": 0.0, "fusion_lat": 0.0, "name": "a7deba3d275c3145386cc5f064abf68a", "type": "electric_bike", "rental_uris": {"ios": "https://dc.lft.to/lastmile_qr_scan", "android": "https://dc.lft.to/lastmile_qr_scan"}, "bike_id": "a7deba3d275c3145386cc5f064abf68a"}, {"lat": 38.890886, "is_disabled": 0, "lon": -77.18301316666667, "is_reserved": 0, "fusion_lon": 0.0, "fusion_lat": 0.0, "name": "06ea3e9d3b6cbd7d63d28a32fc8b317a", "type": "electric_bike", "rental_uris": {"ios": "https://dc.lft.to/lastmile_qr_scan", "android": "https://dc.lft.to/lastmile_qr_scan"}, "bike_id": "06ea3e9d3b6cbd7d63d28a32fc8b317a"}, {"lat": 38.90428283333333, "is_disabled": 0, "lon": -77.0433905, "is_reserved": 0, "fusion_lon": 0.0, "fusion_lat": 0.0, "name": "020af0fb6eba792b972b9c11da36e3bc", "type": "electric_scooter", "rental_uris": {"ios": "https://dc.lft.to/lastmile_qr_scan", "android": "https://dc.lft.to/lastmile_qr_scan"}, "bike_id": "020af0fb6eba792b972b9c11da36e3bc"}, {"lat": 38.901506833333336, "is_disabled": 0, "lon": -77.034818, "is_reserved": 0, "fusion_lon": 0.0, "fusion_lat": 0.0, "name": "07f184d5b690e07b320210c93ca9d29c", "type": "electric_scooter", "rental_uris": {"ios": "https://dc.lft.to/lastmile_qr_scan", "android": "https://dc.lft.to/lastmile_qr_scan"}, "bike_id": "07f184d5b690e07b320210c93ca9d29c"}, {"lat": 38.904208833333335, "is_disabled": 0, "lon": -77.0344995, "is_reserved": 0, "fusion_lon": 0.0, "fusion_lat": 0.0, "name": "e1547e929ab63090f028f434213983c9", "type": "electric_scooter", "rental_uris": {"ios": "https://dc.lft.to/lastmile_qr_scan", "android": "https://dc.lft.to/lastmile_qr_scan"}, "bike_id": "e1547e929ab63090f028f434213983c9"}, {"lat": 38.935849, "is_disabled": 0, "lon": -77.02443916666667, "is_reserved": 0, "fusion_lon": 0.0, "fusion_lat": 0.0, "name": "d4d6257be25fa064e9df9b92c60251f2", "type": "electric_scooter", "rental_uris": {"ios": "https://dc.lft.to/lastmile_qr_scan", "android": "https://dc.lft.to/lastmile_qr_scan"}, "bike_id": "d4d6257be25fa064e9df9b92c60251f2"}, {"lat": 38.87284566666666, "is_disabled": 0, "lon": -77.23322566666667, "is_reserved": 0, "fusion_lon": 0.0, "fusion_lat": 0.0, "name": "b4838ed05578938956bcbdcd4784be83", "type": "electric_bike", "rental_uris": {"ios": "https://dc.lft.to/lastmile_qr_scan", "android": "https://dc.lft.to/lastmile_qr_scan"}, "bike_id": "b4838ed05578938956bcbdcd4784be83"}, {"lat": 38.89559883333333, "is_disabled": 0, "lon": -77.046772, "is_reserved": 0, "fusion_lon": 0.0, "fusion_lat": 0.0, "name": "ee2e5b71f24d2e6324444b21b242e1cf", "type": "electric_scooter", "rental_uris": {"ios": "https://dc.lft.to/lastmile_qr_scan", "android": "https://dc.lft.to/lastmile_qr_scan"}, "bike_id": "ee2e5b71f24d2e6324444b21b242e1cf"}, {"lat": 38.87633266666667, "is_disabled": 0, "lon": -77.00723166666667, "is_reserved": 0, "fusion_lon": 0.0, "fusion_lat": 0.0, "name": "87309b2f9906fe366cb4a63e6341c3e6", "type": "electric_scooter", "rental_uris": {"ios": "https://dc.lft.to/lastmile_qr_scan", "android": "https://dc.lft.to/lastmile_qr_scan"}, "bike_id": "87309b2f9906fe366cb4a63e6341c3e6"}, {"lat": 38.91661333333333, "is_disabled": 0, "lon": -77.038539, "is_reserved": 0, "fusion_lon": 0.0, "fusion_lat": 0.0, "name": "e26aa01c2bcea0c9268954890c403312", "type": "electric_scooter", "rental_uris": {"ios": "https://dc.lft.to/lastmile_qr_scan", "android": "https://dc.lft.to/lastmile_qr_scan"}, "bike_id": "e26aa01c2bcea0c9268954890c403312"}, {"lat": 38.9245585, "is_disabled": 0, "lon": -77.02023866666667, "is_reserved": 0, "fusion_lon": 0.0, "fusion_lat": 0.0, "name": "900ee17876ef84e32c654c56fee4b0d9", "type": "electric_scooter", "rental_uris": {"ios": "https://dc.lft.to/lastmile_qr_scan", "android": "https://dc.lft.to/lastmile_qr_scan"}, "bike_id": "900ee17876ef84e32c654c56fee4b0d9"}, {"lat": 38.85901366666667, "is_disabled": 0, "lon": -77.09559866666666, "is_reserved": 0, "fusion_lon": 0.0, "fusion_lat": 0.0, "name": "796000cd35a8346e792480a812b21ece", "type": "electric_bike", "rental_uris": {"ios": "https://dc.lft.to/lastmile_qr_scan", "android": "https://dc.lft.to/lastmile_qr_scan"}, "bike_id": "796000cd35a8346e792480a812b21ece"}, {"lat": 38.914101, "is_disabled": 0, "lon": -77.01337916666667, "is_reserved": 0, "fusion_lon": 0.0, "fusion_lat": 0.0, "name": "6f5e3e48961723a3d68f7a7a9aa46aa2", "type": "electric_scooter", "rental_uris": {"ios": "https://dc.lft.to/lastmile_qr_scan", "android": "https://dc.lft.to/lastmile_qr_scan"}, "bike_id": "6f5e3e48961723a3d68f7a7a9aa46aa2"}, {"lat": 38.92363666666667, "is_disabled": 0, "lon": -77.0513155, "is_reserved": 0, "fusion_lon": 0.0, "fusion_lat": 0.0, "name": "6ba849adf3eb16a111d3f511b8cf28b1", "type": "electric_scooter", "rental_uris": {"ios": "https://dc.lft.to/lastmile_qr_scan", "android": "https://dc.lft.to/lastmile_qr_scan"}, "bike_id": "6ba849adf3eb16a111d3f511b8cf28b1"}, {"lat": 38.9233255, "is_disabled": 0, "lon": -77.00918766666666, "is_reserved": 0, "fusion_lon": 0.0, "fusion_lat": 0.0, "name": "aa8b761c1ffc0f2190aa56a9a29f8b96", "type": "electric_scooter", "rental_uris": {"ios": "https://dc.lft.to/lastmile_qr_scan", "android": "https://dc.lft.to/lastmile_qr_scan"}, "bike_id": "aa8b761c1ffc0f2190aa56a9a29f8b96"}, {"lat": 38.9284985, "is_disabled": 0, "lon": -77.01412366666666, "is_reserved": 0, "fusion_lon": 0.0, "fusion_lat": 0.0, "name": "5f52e6dad61676c5c546742859089418", "type": "electric_scooter", "rental_uris": {"ios": "https://dc.lft.to/lastmile_qr_scan", "android": "https://dc.lft.to/lastmile_qr_scan"}, "bike_id": "5f52e6dad61676c5c546742859089418"}, {"lat": 38.83820933333333, "is_disabled": 0, "lon": -76.99673266666667, "is_reserved": 0, "fusion_lon": 0.0, "fusion_lat": 0.0, "name": "a05cdb8d78bb0a30dea05c192198bd45", "type": "electric_bike", "rental_uris": {"ios": "https://dc.lft.to/lastmile_qr_scan", "android": "https://dc.lft.to/lastmile_qr_scan"}, "bike_id": "a05cdb8d78bb0a30dea05c192198bd45"}, {"lat": 38.907421, "is_disabled": 0, "lon": -77.028014, "is_reserved": 0, "fusion_lon": 0.0, "fusion_lat": 0.0, "name": "f478eb008a43d523a58f72637848030c", "type": "electric_scooter", "rental_uris": {"ios": "https://dc.lft.to/lastmile_qr_scan", "android": "https://dc.lft.to/lastmile_qr_scan"}, "bike_id": "f478eb008a43d523a58f72637848030c"}, {"lat": 38.90020333333333, "is_disabled": 0, "lon": -77.0488995, "is_reserved": 0, "fusion_lon": 0.0, "fusion_lat": 0.0, "name": "e763f7ba5c847b2ada67f24205b448c4", "type": "electric_scooter", "rental_uris": {"ios": "https://dc.lft.to/lastmile_qr_scan", "android": "https://dc.lft.to/lastmile_qr_scan"}, "bike_id": "e763f7ba5c847b2ada67f24205b448c4"}, {"lat": 38.89496783333333, "is_disabled": 0, "lon": -76.94873883333334, "is_reserved": 0, "fusion_lon": 0.0, "fusion_lat": 0.0, "name": "1b24fc32e4bbe172417e0e523c3906ce", "type": "electric_scooter", "rental_uris": {"ios": "https://dc.lft.to/lastmile_qr_scan", "android": "https://dc.lft.to/lastmile_qr_scan"}, "bike_id": "1b24fc32e4bbe172417e0e523c3906ce"}, {"lat": 38.87175716666667, "is_disabled": 0, "lon": -77.0063085, "is_reserved": 0, "fusion_lon": 0.0, "fusion_lat": 0.0, "name": "ab156ef313b6ae3c700b502a27b1947c", "type": "electric_scooter", "rental_uris": {"ios": "https://dc.lft.to/lastmile_qr_scan", "android": "https://dc.lft.to/lastmile_qr_scan"}, "bike_id": "ab156ef313b6ae3c700b502a27b1947c"}, {"lat": 38.927482, "is_disabled": 0, "lon": -77.036406, "is_reserved": 0, "fusion_lon": 0.0, "fusion_lat": 0.0, "name": "5711ae81bc68cf77f6bc3682b8209087", "type": "electric_bike", "rental_uris": {"ios": "https://dc.lft.to/lastmile_qr_scan", "android": "https://dc.lft.to/lastmile_qr_scan"}, "bike_id": "5711ae81bc68cf77f6bc3682b8209087"}, {"lat": 38.90285316666667, "is_disabled": 0, "lon": -77.03673766666667, "is_reserved": 0, "fusion_lon": 0.0, "fusion_lat": 0.0, "name": "1e7b8679eac670352f3225cb438a1a87", "type": "electric_scooter", "rental_uris": {"ios": "https://dc.lft.to/lastmile_qr_scan", "android": "https://dc.lft.to/lastmile_qr_scan"}, "bike_id": "1e7b8679eac670352f3225cb438a1a87"}, {"lat": 38.874003, "is_disabled": 0, "lon": -77.00036983333334, "is_reserved": 0, "fusion_lon": 0.0, "fusion_lat": 0.0, "name": "9bfd520a78cf222724c64abf898d8f45", "type": "electric_scooter", "rental_uris": {"ios": "https://dc.lft.to/lastmile_qr_scan", "android": "https://dc.lft.to/lastmile_qr_scan"}, "bike_id": "9bfd520a78cf222724c64abf898d8f45"}, {"lat": 38.900265166666664, "is_disabled": 0, "lon": -76.98798066666667, "is_reserved": 0, "fusion_lon": 0.0, "fusion_lat": 0.0, "name": "2796d66da9dbced7e72fbb37829efb5e", "type": "electric_scooter", "rental_uris": {"ios": "https://dc.lft.to/lastmile_qr_scan", "android": "https://dc.lft.to/lastmile_qr_scan"}, "bike_id": "2796d66da9dbced7e72fbb37829efb5e"}, {"lat": 38.92177366666667, "is_disabled": 0, "lon": -77.01918433333333, "is_reserved": 0, "fusion_lon": 0.0, "fusion_lat": 0.0, "name": "aa49c5e150b495b4320d0e6a1efebb21", "type": "electric_scooter", "rental_uris": {"ios": "https://dc.lft.to/lastmile_qr_scan", "android": "https://dc.lft.to/lastmile_qr_scan"}, "bike_id": "aa49c5e150b495b4320d0e6a1efebb21"}, {"lat": 38.90099083333333, "is_disabled": 0, "lon": -77.027213, "is_reserved": 0, "fusion_lon": 0.0, "fusion_lat": 0.0, "name": "56b5e327808924b0cabb220e48612c5a", "type": "electric_scooter", "rental_uris": {"ios": "https://dc.lft.to/lastmile_qr_scan", "android": "https://dc.lft.to/lastmile_qr_scan"}, "bike_id": "56b5e327808924b0cabb220e48612c5a"}, {"lat": 38.9155485, "is_disabled": 0, "lon": -77.0123445, "is_reserved": 0, "fusion_lon": 0.0, "fusion_lat": 0.0, "name": "03643dd3a5e432520317250da9d1a0ef", "type": "electric_scooter", "rental_uris": {"ios": "https://dc.lft.to/lastmile_qr_scan", "android": "https://dc.lft.to/lastmile_qr_scan"}, "bike_id": "03643dd3a5e432520317250da9d1a0ef"}, {"lat": 38.921653666666664, "is_disabled": 0, "lon": -77.03320716666667, "is_reserved": 0, "fusion_lon": 0.0, "fusion_lat": 0.0, "name": "553e605cfdc0a98776d1e2e5b70ec98b", "type": "electric_scooter", "rental_uris": {"ios": "https://dc.lft.to/lastmile_qr_scan", "android": "https://dc.lft.to/lastmile_qr_scan"}, "bike_id": "553e605cfdc0a98776d1e2e5b70ec98b"}, {"lat": 38.90375266666667, "is_disabled": 0, "lon": -77.03526283333333, "is_reserved": 0, "fusion_lon": 0.0, "fusion_lat": 0.0, "name": "dc80c3fde70361f9cbf9a8a3487f1d28", "type": "electric_scooter", "rental_uris": {"ios": "https://dc.lft.to/lastmile_qr_scan", "android": "https://dc.lft.to/lastmile_qr_scan"}, "bike_id": "dc80c3fde70361f9cbf9a8a3487f1d28"}, {"lat": 38.89265866666667, "is_disabled": 0, "lon": -76.98372183333333, "is_reserved": 0, "fusion_lon": 0.0, "fusion_lat": 0.0, "name": "1db170a330288039bef800e2fe3e81b9", "type": "electric_scooter", "rental_uris": {"ios": "https://dc.lft.to/lastmile_qr_scan", "android": "https://dc.lft.to/lastmile_qr_scan"}, "bike_id": "1db170a330288039bef800e2fe3e81b9"}, {"lat": 38.88450866666667, "is_disabled": 0, "lon": -76.9295205, "is_reserved": 0, "fusion_lon": 0.0, "fusion_lat": 0.0, "name": "05726f50f67c0c38eda5b7f0b302fff8", "type": "electric_scooter", "rental_uris": {"ios": "https://dc.lft.to/lastmile_qr_scan", "android": "https://dc.lft.to/lastmile_qr_scan"}, "bike_id": "05726f50f67c0c38eda5b7f0b302fff8"}, {"lat": 38.9026355, "is_disabled": 0, "lon": -77.0445255, "is_reserved": 0, "fusion_lon": 0.0, "fusion_lat": 0.0, "name": "27c07832d9907078e8f0a725a9beaded", "type": "electric_scooter", "rental_uris": {"ios": "https://dc.lft.to/lastmile_qr_scan", "android": "https://dc.lft.to/lastmile_qr_scan"}, "bike_id": "27c07832d9907078e8f0a725a9beaded"}, {"lat": 38.92662083333333, "is_disabled": 0, "lon": -77.03730333333333, "is_reserved": 0, "fusion_lon": 0.0, "fusion_lat": 0.0, "name": "da52234131ab21596b4e80f7bb208026", "type": "electric_scooter", "rental_uris": {"ios": "https://dc.lft.to/lastmile_qr_scan", "android": "https://dc.lft.to/lastmile_qr_scan"}, "bike_id": "da52234131ab21596b4e80f7bb208026"}, {"lat": 38.8961805, "is_disabled": 0, "lon": -76.98575866666667, "is_reserved": 0, "fusion_lon": 0.0, "fusion_lat": 0.0, "name": "e7cbf53934626776515555fc13ee2031", "type": "electric_scooter", "rental_uris": {"ios": "https://dc.lft.to/lastmile_qr_scan", "android": "https://dc.lft.to/lastmile_qr_scan"}, "bike_id": "e7cbf53934626776515555fc13ee2031"}, {"lat": 38.887505166666664, "is_disabled": 0, "lon": -77.03146933333333, "is_reserved": 0, "fusion_lon": 0.0, "fusion_lat": 0.0, "name": "8d6fb1f3cee196119b37bc72e60c396e", "type": "electric_scooter", "rental_uris": {"ios": "https://dc.lft.to/lastmile_qr_scan", "android": "https://dc.lft.to/lastmile_qr_scan"}, "bike_id": "8d6fb1f3cee196119b37bc72e60c396e"}, {"lat": 38.9529865, "is_disabled": 0, "lon": -77.02909916666667, "is_reserved": 0, "fusion_lon": 0.0, "fusion_lat": 0.0, "name": "4d2040d38089b7a1dd832aaeeea9f540", "type": "electric_scooter", "rental_uris": {"ios": "https://dc.lft.to/lastmile_qr_scan", "android": "https://dc.lft.to/lastmile_qr_scan"}, "bike_id": "4d2040d38089b7a1dd832aaeeea9f540"}, {"lat": 38.926124, "is_disabled": 0, "lon": -77.04325233333333, "is_reserved": 0, "fusion_lon": 0.0, "fusion_lat": 0.0, "name": "160f6475e8a89e7d379b0295d8423b43", "type": "electric_scooter", "rental_uris": {"ios": "https://dc.lft.to/lastmile_qr_scan", "android": "https://dc.lft.to/lastmile_qr_scan"}, "bike_id": "160f6475e8a89e7d379b0295d8423b43"}, {"lat": 38.90119833333333, "is_disabled": 0, "lon": -77.043478, "is_reserved": 0, "fusion_lon": 0.0, "fusion_lat": 0.0, "name": "40e953982c2294fcb92c342e2aafbc2a", "type": "electric_scooter", "rental_uris": {"ios": "https://dc.lft.to/lastmile_qr_scan", "android": "https://dc.lft.to/lastmile_qr_scan"}, "bike_id": "40e953982c2294fcb92c342e2aafbc2a"}, {"lat": 38.89121516666667, "is_disabled": 0, "lon": -76.94383216666667, "is_reserved": 0, "fusion_lon": 0.0, "fusion_lat": 0.0, "name": "4bec847e0d89e2b9756ba7e206ae5d56", "type": "electric_scooter", "rental_uris": {"ios": "https://dc.lft.to/lastmile_qr_scan", "android": "https://dc.lft.to/lastmile_qr_scan"}, "bike_id": "4bec847e0d89e2b9756ba7e206ae5d56"}, {"lat": 38.838117833333335, "is_disabled": 0, "lon": -77.09522916666667, "is_reserved": 0, "fusion_lon": 0.0, "fusion_lat": 0.0, "name": "65dc80788ff67e4225fb5aa7c7930993", "type": "electric_bike", "rental_uris": {"ios": "https://dc.lft.to/lastmile_qr_scan", "android": "https://dc.lft.to/lastmile_qr_scan"}, "bike_id": "65dc80788ff67e4225fb5aa7c7930993"}, {"lat": 38.9071375, "is_disabled": 0, "lon": -76.93008866666666, "is_reserved": 0, "fusion_lon": 0.0, "fusion_lat": 0.0, "name": "af14b60bf023b60e872293f2f230373c", "type": "electric_scooter", "rental_uris": {"ios": "https://dc.lft.to/lastmile_qr_scan", "android": "https://dc.lft.to/lastmile_qr_scan"}, "bike_id": "af14b60bf023b60e872293f2f230373c"}, {"lat": 38.9052525, "is_disabled": 0, "lon": -77.0610565, "is_reserved": 0, "fusion_lon": 0.0, "fusion_lat": 0.0, "name": "012e77219cd5c40f854b80c59c99cb8d", "type": "electric_scooter", "rental_uris": {"ios": "https://dc.lft.to/lastmile_qr_scan", "android": "https://dc.lft.to/lastmile_qr_scan"}, "bike_id": "012e77219cd5c40f854b80c59c99cb8d"}, {"lat": 38.91066, "is_disabled": 0, "lon": -77.0045205, "is_reserved": 0, "fusion_lon": 0.0, "fusion_lat": 0.0, "name": "8be3ceb023d378a8fb58119d2df971ee", "type": "electric_scooter", "rental_uris": {"ios": "https://dc.lft.to/lastmile_qr_scan", "android": "https://dc.lft.to/lastmile_qr_scan"}, "bike_id": "8be3ceb023d378a8fb58119d2df971ee"}, {"lat": 38.87671983333333, "is_disabled": 0, "lon": -77.00357216666667, "is_reserved": 0, "fusion_lon": 0.0, "fusion_lat": 0.0, "name": "a021402e4687ba72fa2c5aa1d09c3255", "type": "electric_scooter", "rental_uris": {"ios": "https://dc.lft.to/lastmile_qr_scan", "android": "https://dc.lft.to/lastmile_qr_scan"}, "bike_id": "a021402e4687ba72fa2c5aa1d09c3255"}, {"lat": 38.9040895, "is_disabled": 0, "lon": -77.04850266666666, "is_reserved": 0, "fusion_lon": 0.0, "fusion_lat": 0.0, "name": "684ffa78aa513f3dd85564b8bc1aad60", "type": "electric_scooter", "rental_uris": {"ios": "https://dc.lft.to/lastmile_qr_scan", "android": "https://dc.lft.to/lastmile_qr_scan"}, "bike_id": "684ffa78aa513f3dd85564b8bc1aad60"}, {"lat": 38.900315166666665, "is_disabled": 0, "lon": -76.98843583333333, "is_reserved": 0, "fusion_lon": 0.0, "fusion_lat": 0.0, "name": "b3e722f20e544f71f3b15f98a87cd563", "type": "electric_scooter", "rental_uris": {"ios": "https://dc.lft.to/lastmile_qr_scan", "android": "https://dc.lft.to/lastmile_qr_scan"}, "bike_id": "b3e722f20e544f71f3b15f98a87cd563"}, {"lat": 38.901084166666664, "is_disabled": 0, "lon": -77.0408215, "is_reserved": 0, "fusion_lon": 0.0, "fusion_lat": 0.0, "name": "ddd4ea8b0da97d02f8e69ed08a1c91fc", "type": "electric_scooter", "rental_uris": {"ios": "https://dc.lft.to/lastmile_qr_scan", "android": "https://dc.lft.to/lastmile_qr_scan"}, "bike_id": "ddd4ea8b0da97d02f8e69ed08a1c91fc"}, {"lat": 38.914116, "is_disabled": 0, "lon": -77.03997316666667, "is_reserved": 0, "fusion_lon": 0.0, "fusion_lat": 0.0, "name": "f0b02c654c1d07909eb3112cd5c012b1", "type": "electric_scooter", "rental_uris": {"ios": "https://dc.lft.to/lastmile_qr_scan", "android": "https://dc.lft.to/lastmile_qr_scan"}, "bike_id": "f0b02c654c1d07909eb3112cd5c012b1"}, {"lat": 38.887808, "is_disabled": 0, "lon": -76.955358, "is_reserved": 0, "fusion_lon": 0.0, "fusion_lat": 0.0, "name": "0c7f6838315cf04892dd8b64791fe063", "type": "electric_scooter", "rental_uris": {"ios": "https://dc.lft.to/lastmile_qr_scan", "android": "https://dc.lft.to/lastmile_qr_scan"}, "bike_id": "0c7f6838315cf04892dd8b64791fe063"}, {"lat": 38.928823, "is_disabled": 0, "lon": -77.03458533333334, "is_reserved": 0, "fusion_lon": 0.0, "fusion_lat": 0.0, "name": "6a2ca8c7497a568d1d781c8be6edaf3b", "type": "electric_scooter", "rental_uris": {"ios": "https://dc.lft.to/lastmile_qr_scan", "android": "https://dc.lft.to/lastmile_qr_scan"}, "bike_id": "6a2ca8c7497a568d1d781c8be6edaf3b"}, {"lat": 38.9420665, "is_disabled": 0, "lon": -77.0165875, "is_reserved": 0, "fusion_lon": 0.0, "fusion_lat": 0.0, "name": "0a79b486def86c1c1702a75de596cc2b", "type": "electric_scooter", "rental_uris": {"ios": "https://dc.lft.to/lastmile_qr_scan", "android": "https://dc.lft.to/lastmile_qr_scan"}, "bike_id": "0a79b486def86c1c1702a75de596cc2b"}, {"lat": 38.93861166666667, "is_disabled": 0, "lon": -77.02654083333333, "is_reserved": 0, "fusion_lon": 0.0, "fusion_lat": 0.0, "name": "d43552f52d2605760540449116ac252e", "type": "electric_scooter", "rental_uris": {"ios": "https://dc.lft.to/lastmile_qr_scan", "android": "https://dc.lft.to/lastmile_qr_scan"}, "bike_id": "d43552f52d2605760540449116ac252e"}, {"lat": 38.89222683333333, "is_disabled": 0, "lon": -77.046438, "is_reserved": 0, "fusion_lon": 0.0, "fusion_lat": 0.0, "name": "b728473c9d2f82a28351d1ff3011703e", "type": "electric_scooter", "rental_uris": {"ios": "https://dc.lft.to/lastmile_qr_scan", "android": "https://dc.lft.to/lastmile_qr_scan"}, "bike_id": "b728473c9d2f82a28351d1ff3011703e"}, {"lat": 38.913130833333334, "is_disabled": 0, "lon": -77.03616283333334, "is_reserved": 0, "fusion_lon": 0.0, "fusion_lat": 0.0, "name": "7ad539706a8d8c5a4f8cc582a26f9a41", "type": "electric_scooter", "rental_uris": {"ios": "https://dc.lft.to/lastmile_qr_scan", "android": "https://dc.lft.to/lastmile_qr_scan"}, "bike_id": "7ad539706a8d8c5a4f8cc582a26f9a41"}, {"lat": 38.926326833333334, "is_disabled": 0, "lon": -77.03704166666667, "is_reserved": 0, "fusion_lon": 0.0, "fusion_lat": 0.0, "name": "16350d88f78c0b09b9a2216dc2b06994", "type": "electric_scooter", "rental_uris": {"ios": "https://dc.lft.to/lastmile_qr_scan", "android": "https://dc.lft.to/lastmile_qr_scan"}, "bike_id": "16350d88f78c0b09b9a2216dc2b06994"}, {"lat": 38.905273, "is_disabled": 0, "lon": -77.07022783333333, "is_reserved": 0, "fusion_lon": 0.0, "fusion_lat": 0.0, "name": "f3da76767edcd6c7b859ca2b163098a5", "type": "electric_bike", "rental_uris": {"ios": "https://dc.lft.to/lastmile_qr_scan", "android": "https://dc.lft.to/lastmile_qr_scan"}, "bike_id": "f3da76767edcd6c7b859ca2b163098a5"}, {"lat": 38.93097866666667, "is_disabled": 0, "lon": -77.02657516666666, "is_reserved": 0, "fusion_lon": 0.0, "fusion_lat": 0.0, "name": "c9d515a116c8b74c9d95409d556e2983", "type": "electric_scooter", "rental_uris": {"ios": "https://dc.lft.to/lastmile_qr_scan", "android": "https://dc.lft.to/lastmile_qr_scan"}, "bike_id": "c9d515a116c8b74c9d95409d556e2983"}, {"lat": 38.90558216666667, "is_disabled": 0, "lon": -77.04357916666666, "is_reserved": 0, "fusion_lon": 0.0, "fusion_lat": 0.0, "name": "70a4cd3f3d5ced19805fd99d2c6599ec", "type": "electric_scooter", "rental_uris": {"ios": "https://dc.lft.to/lastmile_qr_scan", "android": "https://dc.lft.to/lastmile_qr_scan"}, "bike_id": "70a4cd3f3d5ced19805fd99d2c6599ec"}, {"lat": 38.90072416666667, "is_disabled": 0, "lon": -77.01983283333334, "is_reserved": 0, "fusion_lon": 0.0, "fusion_lat": 0.0, "name": "9f6757b8d933539b908111f0ed96819b", "type": "electric_scooter", "rental_uris": {"ios": "https://dc.lft.to/lastmile_qr_scan", "android": "https://dc.lft.to/lastmile_qr_scan"}, "bike_id": "9f6757b8d933539b908111f0ed96819b"}, {"lat": 38.9241845, "is_disabled": 0, "lon": -77.01946133333334, "is_reserved": 0, "fusion_lon": 0.0, "fusion_lat": 0.0, "name": "889a603a30a673a2629978ece5c6c6d9", "type": "electric_scooter", "rental_uris": {"ios": "https://dc.lft.to/lastmile_qr_scan", "android": "https://dc.lft.to/lastmile_qr_scan"}, "bike_id": "889a603a30a673a2629978ece5c6c6d9"}, {"lat": 38.902669833333334, "is_disabled": 0, "lon": -77.01760733333333, "is_reserved": 0, "fusion_lon": 0.0, "fusion_lat": 0.0, "name": "f8854ce1e3ef1693997f53d502e95bd7", "type": "electric_scooter", "rental_uris": {"ios": "https://dc.lft.to/lastmile_qr_scan", "android": "https://dc.lft.to/lastmile_qr_scan"}, "bike_id": "f8854ce1e3ef1693997f53d502e95bd7"}, {"lat": 38.92056916666667, "is_disabled": 0, "lon": -77.01586466666667, "is_reserved": 0, "fusion_lon": 0.0, "fusion_lat": 0.0, "name": "ba39b76a57d4c90abb39aad69e7ecd8f", "type": "electric_scooter", "rental_uris": {"ios": "https://dc.lft.to/lastmile_qr_scan", "android": "https://dc.lft.to/lastmile_qr_scan"}, "bike_id": "ba39b76a57d4c90abb39aad69e7ecd8f"}, {"lat": 38.901275, "is_disabled": 0, "lon": -76.93022383333333, "is_reserved": 0, "fusion_lon": 0.0, "fusion_lat": 0.0, "name": "fcc8c0174b21d91d40031ef66424cd09", "type": "electric_scooter", "rental_uris": {"ios": "https://dc.lft.to/lastmile_qr_scan", "android": "https://dc.lft.to/lastmile_qr_scan"}, "bike_id": "fcc8c0174b21d91d40031ef66424cd09"}, {"lat": 38.911541166666666, "is_disabled": 0, "lon": -77.06237866666666, "is_reserved": 0, "fusion_lon": 0.0, "fusion_lat": 0.0, "name": "628736ad0ef9e373e136321f74089798", "type": "electric_scooter", "rental_uris": {"ios": "https://dc.lft.to/lastmile_qr_scan", "android": "https://dc.lft.to/lastmile_qr_scan"}, "bike_id": "628736ad0ef9e373e136321f74089798"}, {"lat": 38.903111, "is_disabled": 0, "lon": -77.01619166666667, "is_reserved": 0, "fusion_lon": 0.0, "fusion_lat": 0.0, "name": "a943b90bbd5c7f261864cd05e5b5d8ef", "type": "electric_scooter", "rental_uris": {"ios": "https://dc.lft.to/lastmile_qr_scan", "android": "https://dc.lft.to/lastmile_qr_scan"}, "bike_id": "a943b90bbd5c7f261864cd05e5b5d8ef"}, {"lat": 38.9853175, "is_disabled": 0, "lon": -77.004179, "is_reserved": 0, "fusion_lon": 0.0, "fusion_lat": 0.0, "name": "e5d7b6a0b73bc9d86dfac8195af41d83", "type": "electric_bike", "rental_uris": {"ios": "https://dc.lft.to/lastmile_qr_scan", "android": "https://dc.lft.to/lastmile_qr_scan"}, "bike_id": "e5d7b6a0b73bc9d86dfac8195af41d83"}, {"lat": 38.931283, "is_disabled": 0, "lon": -77.02822066666667, "is_reserved": 0, "fusion_lon": 0.0, "fusion_lat": 0.0, "name": "cc3d6cec01c8189fefc650b9f35c4458", "type": "electric_scooter", "rental_uris": {"ios": "https://dc.lft.to/lastmile_qr_scan", "android": "https://dc.lft.to/lastmile_qr_scan"}, "bike_id": "cc3d6cec01c8189fefc650b9f35c4458"}, {"lat": 38.908245666666666, "is_disabled": 0, "lon": -76.991638, "is_reserved": 0, "fusion_lon": 0.0, "fusion_lat": 0.0, "name": "9ac9f68eb80aeec33bcaf9fc29c75a56", "type": "electric_scooter", "rental_uris": {"ios": "https://dc.lft.to/lastmile_qr_scan", "android": "https://dc.lft.to/lastmile_qr_scan"}, "bike_id": "9ac9f68eb80aeec33bcaf9fc29c75a56"}, {"lat": 38.917071666666665, "is_disabled": 0, "lon": -77.02582, "is_reserved": 0, "fusion_lon": 0.0, "fusion_lat": 0.0, "name": "335e5f17fea93b15f240f7e261741881", "type": "electric_scooter", "rental_uris": {"ios": "https://dc.lft.to/lastmile_qr_scan", "android": "https://dc.lft.to/lastmile_qr_scan"}, "bike_id": "335e5f17fea93b15f240f7e261741881"}, {"lat": 38.90022916666667, "is_disabled": 0, "lon": -77.04478483333334, "is_reserved": 0, "fusion_lon": 0.0, "fusion_lat": 0.0, "name": "3c745bcca0bd0cbf1181a69446615a74", "type": "electric_scooter", "rental_uris": {"ios": "https://dc.lft.to/lastmile_qr_scan", "android": "https://dc.lft.to/lastmile_qr_scan"}, "bike_id": "3c745bcca0bd0cbf1181a69446615a74"}, {"lat": 38.92754016666667, "is_disabled": 0, "lon": -77.0330085, "is_reserved": 0, "fusion_lon": 0.0, "fusion_lat": 0.0, "name": "cf441cdf97a1df9d82e04b8c72f3419d", "type": "electric_scooter", "rental_uris": {"ios": "https://dc.lft.to/lastmile_qr_scan", "android": "https://dc.lft.to/lastmile_qr_scan"}, "bike_id": "cf441cdf97a1df9d82e04b8c72f3419d"}, {"lat": 38.899721, "is_disabled": 0, "lon": -77.04676433333333, "is_reserved": 0, "fusion_lon": 0.0, "fusion_lat": 0.0, "name": "0059b0d2e09e7a069b007e6a8ca83fc0", "type": "electric_scooter", "rental_uris": {"ios": "https://dc.lft.to/lastmile_qr_scan", "android": "https://dc.lft.to/lastmile_qr_scan"}, "bike_id": "0059b0d2e09e7a069b007e6a8ca83fc0"}, {"lat": 38.864505666666666, "is_disabled": 0, "lon": -76.99913333333333, "is_reserved": 0, "fusion_lon": 0.0, "fusion_lat": 0.0, "name": "1a412033291dddc9f17ca98a5db8ac80", "type": "electric_bike", "rental_uris": {"ios": "https://dc.lft.to/lastmile_qr_scan", "android": "https://dc.lft.to/lastmile_qr_scan"}, "bike_id": "1a412033291dddc9f17ca98a5db8ac80"}, {"lat": 38.934234833333335, "is_disabled": 0, "lon": -77.01966083333333, "is_reserved": 0, "fusion_lon": 0.0, "fusion_lat": 0.0, "name": "f68abebe3a0c263af638967a25821f16", "type": "electric_scooter", "rental_uris": {"ios": "https://dc.lft.to/lastmile_qr_scan", "android": "https://dc.lft.to/lastmile_qr_scan"}, "bike_id": "f68abebe3a0c263af638967a25821f16"}, {"lat": 38.983783, "is_disabled": 0, "lon": -76.94722766666666, "is_reserved": 0, "fusion_lon": 0.0, "fusion_lat": 0.0, "name": "3cf6209d3bd887cded5de29143bb932c", "type": "electric_bike", "rental_uris": {"ios": "https://dc.lft.to/lastmile_qr_scan", "android": "https://dc.lft.to/lastmile_qr_scan"}, "bike_id": "3cf6209d3bd887cded5de29143bb932c"}, {"lat": 38.9235955, "is_disabled": 0, "lon": -77.050461, "is_reserved": 0, "fusion_lon": 0.0, "fusion_lat": 0.0, "name": "38cafbf2b01e05f972dc8d59dc00b20f", "type": "electric_scooter", "rental_uris": {"ios": "https://dc.lft.to/lastmile_qr_scan", "android": "https://dc.lft.to/lastmile_qr_scan"}, "bike_id": "38cafbf2b01e05f972dc8d59dc00b20f"}, {"lat": 38.92145166666667, "is_disabled": 0, "lon": -77.0451395, "is_reserved": 0, "fusion_lon": 0.0, "fusion_lat": 0.0, "name": "1294387cf73dc7f0380f1edc11a92a20", "type": "electric_scooter", "rental_uris": {"ios": "https://dc.lft.to/lastmile_qr_scan", "android": "https://dc.lft.to/lastmile_qr_scan"}, "bike_id": "1294387cf73dc7f0380f1edc11a92a20"}, {"lat": 38.88739183333333, "is_disabled": 0, "lon": -77.01358466666667, "is_reserved": 0, "fusion_lon": 0.0, "fusion_lat": 0.0, "name": "6a4af06979c9f85624a3a7d9bb3dec8d", "type": "electric_scooter", "rental_uris": {"ios": "https://dc.lft.to/lastmile_qr_scan", "android": "https://dc.lft.to/lastmile_qr_scan"}, "bike_id": "6a4af06979c9f85624a3a7d9bb3dec8d"}, {"lat": 38.90025383333333, "is_disabled": 0, "lon": -76.9884885, "is_reserved": 0, "fusion_lon": 0.0, "fusion_lat": 0.0, "name": "f53dcc21d84a9974acc3a7d9bf69c0f7", "type": "electric_scooter", "rental_uris": {"ios": "https://dc.lft.to/lastmile_qr_scan", "android": "https://dc.lft.to/lastmile_qr_scan"}, "bike_id": "f53dcc21d84a9974acc3a7d9bf69c0f7"}, {"lat": 38.92427516666667, "is_disabled": 0, "lon": -77.05179633333333, "is_reserved": 0, "fusion_lon": 0.0, "fusion_lat": 0.0, "name": "1b22199375a84b0103ceb2610eaf6080", "type": "electric_scooter", "rental_uris": {"ios": "https://dc.lft.to/lastmile_qr_scan", "android": "https://dc.lft.to/lastmile_qr_scan"}, "bike_id": "1b22199375a84b0103ceb2610eaf6080"}, {"lat": 38.920363, "is_disabled": 0, "lon": -77.0258685, "is_reserved": 0, "fusion_lon": 0.0, "fusion_lat": 0.0, "name": "23790e80721a98d045224caeb38a070b", "type": "electric_scooter", "rental_uris": {"ios": "https://dc.lft.to/lastmile_qr_scan", "android": "https://dc.lft.to/lastmile_qr_scan"}, "bike_id": "23790e80721a98d045224caeb38a070b"}, {"lat": 38.91694116666667, "is_disabled": 0, "lon": -77.03846466666667, "is_reserved": 0, "fusion_lon": 0.0, "fusion_lat": 0.0, "name": "4d9ba8385e548a1fe7ae1ffa828bb4ea", "type": "electric_scooter", "rental_uris": {"ios": "https://dc.lft.to/lastmile_qr_scan", "android": "https://dc.lft.to/lastmile_qr_scan"}, "bike_id": "4d9ba8385e548a1fe7ae1ffa828bb4ea"}, {"lat": 38.9101705, "is_disabled": 0, "lon": -77.04443116666667, "is_reserved": 0, "fusion_lon": 0.0, "fusion_lat": 0.0, "name": "28e2312ec9e55afbf95e0b3d98584440", "type": "electric_scooter", "rental_uris": {"ios": "https://dc.lft.to/lastmile_qr_scan", "android": "https://dc.lft.to/lastmile_qr_scan"}, "bike_id": "28e2312ec9e55afbf95e0b3d98584440"}, {"lat": 38.900264, "is_disabled": 0, "lon": -76.98579566666666, "is_reserved": 0, "fusion_lon": 0.0, "fusion_lat": 0.0, "name": "436cadbb118ee2cc969f7a285e8ae010", "type": "electric_scooter", "rental_uris": {"ios": "https://dc.lft.to/lastmile_qr_scan", "android": "https://dc.lft.to/lastmile_qr_scan"}, "bike_id": "436cadbb118ee2cc969f7a285e8ae010"}, {"lat": 38.89847, "is_disabled": 0, "lon": -77.01383383333334, "is_reserved": 0, "fusion_lon": 0.0, "fusion_lat": 0.0, "name": "5e15432fa4ebdb0663b29faa1a18f1b4", "type": "electric_scooter", "rental_uris": {"ios": "https://dc.lft.to/lastmile_qr_scan", "android": "https://dc.lft.to/lastmile_qr_scan"}, "bike_id": "5e15432fa4ebdb0663b29faa1a18f1b4"}, {"lat": 38.91046766666667, "is_disabled": 0, "lon": -76.9974475, "is_reserved": 0, "fusion_lon": 0.0, "fusion_lat": 0.0, "name": "fd9b8a8e274f955bdace46bbf95d4861", "type": "electric_scooter", "rental_uris": {"ios": "https://dc.lft.to/lastmile_qr_scan", "android": "https://dc.lft.to/lastmile_qr_scan"}, "bike_id": "fd9b8a8e274f955bdace46bbf95d4861"}, {"lat": 38.902565333333335, "is_disabled": 0, "lon": -76.99518166666667, "is_reserved": 0, "fusion_lon": 0.0, "fusion_lat": 0.0, "name": "829afbef683359203ccad5a26c0b0218", "type": "electric_scooter", "rental_uris": {"ios": "https://dc.lft.to/lastmile_qr_scan", "android": "https://dc.lft.to/lastmile_qr_scan"}, "bike_id": "829afbef683359203ccad5a26c0b0218"}, {"lat": 38.8812605, "is_disabled": 0, "lon": -77.01338633333333, "is_reserved": 0, "fusion_lon": 0.0, "fusion_lat": 0.0, "name": "6e0c46c8956e2112f133aa8a7ec446fb", "type": "electric_scooter", "rental_uris": {"ios": "https://dc.lft.to/lastmile_qr_scan", "android": "https://dc.lft.to/lastmile_qr_scan"}, "bike_id": "6e0c46c8956e2112f133aa8a7ec446fb"}, {"lat": 38.894248, "is_disabled": 0, "lon": -77.05594866666667, "is_reserved": 0, "fusion_lon": 0.0, "fusion_lat": 0.0, "name": "32f5a619982e5dfabe54e42c2b66fcfc", "type": "electric_scooter", "rental_uris": {"ios": "https://dc.lft.to/lastmile_qr_scan", "android": "https://dc.lft.to/lastmile_qr_scan"}, "bike_id": "32f5a619982e5dfabe54e42c2b66fcfc"}, {"lat": 38.8984355, "is_disabled": 0, "lon": -77.04238333333333, "is_reserved": 0, "fusion_lon": 0.0, "fusion_lat": 0.0, "name": "0a9e0e5b9f017aced07c011869352de7", "type": "electric_scooter", "rental_uris": {"ios": "https://dc.lft.to/lastmile_qr_scan", "android": "https://dc.lft.to/lastmile_qr_scan"}, "bike_id": "0a9e0e5b9f017aced07c011869352de7"}, {"lat": 38.90239233333333, "is_disabled": 0, "lon": -77.04646383333333, "is_reserved": 0, "fusion_lon": 0.0, "fusion_lat": 0.0, "name": "2f4e5b93c0fc5e32f27e7c1bfe802c06", "type": "electric_scooter", "rental_uris": {"ios": "https://dc.lft.to/lastmile_qr_scan", "android": "https://dc.lft.to/lastmile_qr_scan"}, "bike_id": "2f4e5b93c0fc5e32f27e7c1bfe802c06"}, {"lat": 38.8994275, "is_disabled": 0, "lon": -77.04328, "is_reserved": 0, "fusion_lon": 0.0, "fusion_lat": 0.0, "name": "8aaddedc3967428c8b9b8d1f532b7ef3", "type": "electric_scooter", "rental_uris": {"ios": "https://dc.lft.to/lastmile_qr_scan", "android": "https://dc.lft.to/lastmile_qr_scan"}, "bike_id": "8aaddedc3967428c8b9b8d1f532b7ef3"}, {"lat": 38.894113, "is_disabled": 0, "lon": -77.02138916666667, "is_reserved": 0, "fusion_lon": 0.0, "fusion_lat": 0.0, "name": "80b2f6c4404ffbb17dbbde6509f4bb35", "type": "electric_scooter", "rental_uris": {"ios": "https://dc.lft.to/lastmile_qr_scan", "android": "https://dc.lft.to/lastmile_qr_scan"}, "bike_id": "80b2f6c4404ffbb17dbbde6509f4bb35"}, {"lat": 38.93066133333333, "is_disabled": 0, "lon": -77.03820733333333, "is_reserved": 0, "fusion_lon": 0.0, "fusion_lat": 0.0, "name": "382d2873e6f00a2dc8c4fc00cf4a90e1", "type": "electric_scooter", "rental_uris": {"ios": "https://dc.lft.to/lastmile_qr_scan", "android": "https://dc.lft.to/lastmile_qr_scan"}, "bike_id": "382d2873e6f00a2dc8c4fc00cf4a90e1"}, {"lat": 38.9180215, "is_disabled": 0, "lon": -77.0331975, "is_reserved": 0, "fusion_lon": 0.0, "fusion_lat": 0.0, "name": "ffa14f1df5f972358da438f923f5a02f", "type": "electric_scooter", "rental_uris": {"ios": "https://dc.lft.to/lastmile_qr_scan", "android": "https://dc.lft.to/lastmile_qr_scan"}, "bike_id": "ffa14f1df5f972358da438f923f5a02f"}, {"lat": 38.9072665, "is_disabled": 0, "lon": -77.00705083333334, "is_reserved": 0, "fusion_lon": 0.0, "fusion_lat": 0.0, "name": "e723a4f0297d1397c867b1e363e3d168", "type": "electric_scooter", "rental_uris": {"ios": "https://dc.lft.to/lastmile_qr_scan", "android": "https://dc.lft.to/lastmile_qr_scan"}, "bike_id": "e723a4f0297d1397c867b1e363e3d168"}, {"lat": 38.90565683333333, "is_disabled": 0, "lon": -77.0210835, "is_reserved": 0, "fusion_lon": 0.0, "fusion_lat": 0.0, "name": "e432ce784f2fa646a9c70e1169b89eb4", "type": "electric_scooter", "rental_uris": {"ios": "https://dc.lft.to/lastmile_qr_scan", "android": "https://dc.lft.to/lastmile_qr_scan"}, "bike_id": "e432ce784f2fa646a9c70e1169b89eb4"}, {"lat": 38.885983833333334, "is_disabled": 0, "lon": -77.03109916666666, "is_reserved": 0, "fusion_lon": 0.0, "fusion_lat": 0.0, "name": "2ed29cdfaab548352da789cc6277edb9", "type": "electric_scooter", "rental_uris": {"ios": "https://dc.lft.to/lastmile_qr_scan", "android": "https://dc.lft.to/lastmile_qr_scan"}, "bike_id": "2ed29cdfaab548352da789cc6277edb9"}, {"lat": 38.89838316666667, "is_disabled": 0, "lon": -77.019614, "is_reserved": 0, "fusion_lon": 0.0, "fusion_lat": 0.0, "name": "4e6ffc66e5758d0cc56da062eade59ba", "type": "electric_scooter", "rental_uris": {"ios": "https://dc.lft.to/lastmile_qr_scan", "android": "https://dc.lft.to/lastmile_qr_scan"}, "bike_id": "4e6ffc66e5758d0cc56da062eade59ba"}, {"lat": 38.90458316666667, "is_disabled": 0, "lon": -77.0378985, "is_reserved": 0, "fusion_lon": 0.0, "fusion_lat": 0.0, "name": "2ab1013ce38c9ea0f407e022b747fcfe", "type": "electric_scooter", "rental_uris": {"ios": "https://dc.lft.to/lastmile_qr_scan", "android": "https://dc.lft.to/lastmile_qr_scan"}, "bike_id": "2ab1013ce38c9ea0f407e022b747fcfe"}, {"lat": 38.89974266666667, "is_disabled": 0, "lon": -77.03081583333334, "is_reserved": 0, "fusion_lon": 0.0, "fusion_lat": 0.0, "name": "f4c6f1a79b23b1b379bbe0a909137306", "type": "electric_scooter", "rental_uris": {"ios": "https://dc.lft.to/lastmile_qr_scan", "android": "https://dc.lft.to/lastmile_qr_scan"}, "bike_id": "f4c6f1a79b23b1b379bbe0a909137306"}, {"lat": 38.91262016666667, "is_disabled": 0, "lon": -77.0314735, "is_reserved": 0, "fusion_lon": 0.0, "fusion_lat": 0.0, "name": "9946ceff44d6bf4ccf260ff7e57158fb", "type": "electric_scooter", "rental_uris": {"ios": "https://dc.lft.to/lastmile_qr_scan", "android": "https://dc.lft.to/lastmile_qr_scan"}, "bike_id": "9946ceff44d6bf4ccf260ff7e57158fb"}, {"lat": 38.86033183333333, "is_disabled": 0, "lon": -76.983681, "is_reserved": 0, "fusion_lon": 0.0, "fusion_lat": 0.0, "name": "77c825d5343af19b65f510058c5404ab", "type": "electric_scooter", "rental_uris": {"ios": "https://dc.lft.to/lastmile_qr_scan", "android": "https://dc.lft.to/lastmile_qr_scan"}, "bike_id": "77c825d5343af19b65f510058c5404ab"}, {"lat": 38.89708183333333, "is_disabled": 0, "lon": -77.0047795, "is_reserved": 0, "fusion_lon": 0.0, "fusion_lat": 0.0, "name": "d5937744dc327ed1e524d7789f204840", "type": "electric_bike", "rental_uris": {"ios": "https://dc.lft.to/lastmile_qr_scan", "android": "https://dc.lft.to/lastmile_qr_scan"}, "bike_id": "d5937744dc327ed1e524d7789f204840"}, {"lat": 38.90697316666667, "is_disabled": 0, "lon": -76.986993, "is_reserved": 0, "fusion_lon": 0.0, "fusion_lat": 0.0, "name": "0b16115655733d2eca740e4be8f16d1c", "type": "electric_scooter", "rental_uris": {"ios": "https://dc.lft.to/lastmile_qr_scan", "android": "https://dc.lft.to/lastmile_qr_scan"}, "bike_id": "0b16115655733d2eca740e4be8f16d1c"}, {"lat": 38.89220516666666, "is_disabled": 0, "lon": -77.02372516666667, "is_reserved": 0, "fusion_lon": 0.0, "fusion_lat": 0.0, "name": "c7a8f018e94dece2747b0ea9c2b139ca", "type": "electric_scooter", "rental_uris": {"ios": "https://dc.lft.to/lastmile_qr_scan", "android": "https://dc.lft.to/lastmile_qr_scan"}, "bike_id": "c7a8f018e94dece2747b0ea9c2b139ca"}, {"lat": 38.904633833333335, "is_disabled": 0, "lon": -77.02813316666666, "is_reserved": 0, "fusion_lon": 0.0, "fusion_lat": 0.0, "name": "bb467bd3a6a11429ea040e7ddef4aaa2", "type": "electric_scooter", "rental_uris": {"ios": "https://dc.lft.to/lastmile_qr_scan", "android": "https://dc.lft.to/lastmile_qr_scan"}, "bike_id": "bb467bd3a6a11429ea040e7ddef4aaa2"}, {"lat": 38.919233, "is_disabled": 0, "lon": -77.02422016666667, "is_reserved": 0, "fusion_lon": 0.0, "fusion_lat": 0.0, "name": "224bf7107bce48e1b4617f40659408a2", "type": "electric_scooter", "rental_uris": {"ios": "https://dc.lft.to/lastmile_qr_scan", "android": "https://dc.lft.to/lastmile_qr_scan"}, "bike_id": "224bf7107bce48e1b4617f40659408a2"}, {"lat": 38.9162615, "is_disabled": 0, "lon": -77.04816383333333, "is_reserved": 0, "fusion_lon": 0.0, "fusion_lat": 0.0, "name": "404de8f94ab6cb6c668d2942080fdcca", "type": "electric_scooter", "rental_uris": {"ios": "https://dc.lft.to/lastmile_qr_scan", "android": "https://dc.lft.to/lastmile_qr_scan"}, "bike_id": "404de8f94ab6cb6c668d2942080fdcca"}, {"lat": 38.98503933333333, "is_disabled": 0, "lon": -76.98209983333334, "is_reserved": 0, "fusion_lon": 0.0, "fusion_lat": 0.0, "name": "3da1205b045851d2086bd3d3807e6753", "type": "electric_bike", "rental_uris": {"ios": "https://dc.lft.to/lastmile_qr_scan", "android": "https://dc.lft.to/lastmile_qr_scan"}, "bike_id": "3da1205b045851d2086bd3d3807e6753"}, {"lat": 38.924434, "is_disabled": 0, "lon": -77.02029483333334, "is_reserved": 0, "fusion_lon": 0.0, "fusion_lat": 0.0, "name": "4bf7f4745fe358240fb2c092d27e5a37", "type": "electric_scooter", "rental_uris": {"ios": "https://dc.lft.to/lastmile_qr_scan", "android": "https://dc.lft.to/lastmile_qr_scan"}, "bike_id": "4bf7f4745fe358240fb2c092d27e5a37"}, {"lat": 38.92058083333333, "is_disabled": 0, "lon": -77.03210266666666, "is_reserved": 0, "fusion_lon": 0.0, "fusion_lat": 0.0, "name": "d3a1ff3eceb7bb4c827476bb2886c624", "type": "electric_scooter", "rental_uris": {"ios": "https://dc.lft.to/lastmile_qr_scan", "android": "https://dc.lft.to/lastmile_qr_scan"}, "bike_id": "d3a1ff3eceb7bb4c827476bb2886c624"}, {"lat": 38.86248766666667, "is_disabled": 0, "lon": -77.0872315, "is_reserved": 0, "fusion_lon": 0.0, "fusion_lat": 0.0, "name": "94ef62384a7543ce2d728777d893459c", "type": "electric_bike", "rental_uris": {"ios": "https://dc.lft.to/lastmile_qr_scan", "android": "https://dc.lft.to/lastmile_qr_scan"}, "bike_id": "94ef62384a7543ce2d728777d893459c"}, {"lat": 38.91584666666667, "is_disabled": 0, "lon": -76.98393266666666, "is_reserved": 0, "fusion_lon": 0.0, "fusion_lat": 0.0, "name": "32016fce62445473b82b19aae17f36ca", "type": "electric_scooter", "rental_uris": {"ios": "https://dc.lft.to/lastmile_qr_scan", "android": "https://dc.lft.to/lastmile_qr_scan"}, "bike_id": "32016fce62445473b82b19aae17f36ca"}, {"lat": 38.91033983333333, "is_disabled": 0, "lon": -77.04875483333333, "is_reserved": 0, "fusion_lon": 0.0, "fusion_lat": 0.0, "name": "8037c8216d67af46f5a5f57f97319f1f", "type": "electric_scooter", "rental_uris": {"ios": "https://dc.lft.to/lastmile_qr_scan", "android": "https://dc.lft.to/lastmile_qr_scan"}, "bike_id": "8037c8216d67af46f5a5f57f97319f1f"}, {"lat": 38.8961705, "is_disabled": 0, "lon": -77.02586416666666, "is_reserved": 0, "fusion_lon": 0.0, "fusion_lat": 0.0, "name": "8f1f31c2c77ea76ad419a9459ac94cf5", "type": "electric_scooter", "rental_uris": {"ios": "https://dc.lft.to/lastmile_qr_scan", "android": "https://dc.lft.to/lastmile_qr_scan"}, "bike_id": "8f1f31c2c77ea76ad419a9459ac94cf5"}, {"lat": 38.92321366666667, "is_disabled": 0, "lon": -77.0207755, "is_reserved": 0, "fusion_lon": 0.0, "fusion_lat": 0.0, "name": "3c9e1f9ae7d1060cd93d32577b3545ca", "type": "electric_scooter", "rental_uris": {"ios": "https://dc.lft.to/lastmile_qr_scan", "android": "https://dc.lft.to/lastmile_qr_scan"}, "bike_id": "3c9e1f9ae7d1060cd93d32577b3545ca"}, {"lat": 38.924193, "is_disabled": 0, "lon": -77.0195285, "is_reserved": 0, "fusion_lon": 0.0, "fusion_lat": 0.0, "name": "574a9d49d1731e014cde294abd668f22", "type": "electric_scooter", "rental_uris": {"ios": "https://dc.lft.to/lastmile_qr_scan", "android": "https://dc.lft.to/lastmile_qr_scan"}, "bike_id": "574a9d49d1731e014cde294abd668f22"}, {"lat": 38.87544166666667, "is_disabled": 0, "lon": -77.0061175, "is_reserved": 0, "fusion_lon": 0.0, "fusion_lat": 0.0, "name": "19ca6d63d4bcb5fba8d62e723f420b43", "type": "electric_scooter", "rental_uris": {"ios": "https://dc.lft.to/lastmile_qr_scan", "android": "https://dc.lft.to/lastmile_qr_scan"}, "bike_id": "19ca6d63d4bcb5fba8d62e723f420b43"}, {"lat": 38.9383015, "is_disabled": 0, "lon": -76.990484, "is_reserved": 0, "fusion_lon": 0.0, "fusion_lat": 0.0, "name": "e826a0f1e8fbef330a26be7d40f73a7a", "type": "electric_scooter", "rental_uris": {"ios": "https://dc.lft.to/lastmile_qr_scan", "android": "https://dc.lft.to/lastmile_qr_scan"}, "bike_id": "e826a0f1e8fbef330a26be7d40f73a7a"}, {"lat": 38.90390133333333, "is_disabled": 0, "lon": -77.03841533333333, "is_reserved": 0, "fusion_lon": 0.0, "fusion_lat": 0.0, "name": "13d59aed0983a210650f51038f3a4cc1", "type": "electric_scooter", "rental_uris": {"ios": "https://dc.lft.to/lastmile_qr_scan", "android": "https://dc.lft.to/lastmile_qr_scan"}, "bike_id": "13d59aed0983a210650f51038f3a4cc1"}, {"lat": 38.898694, "is_disabled": 0, "lon": -77.02758783333333, "is_reserved": 0, "fusion_lon": 0.0, "fusion_lat": 0.0, "name": "da37bae20ea91662d550b3904e2c09b4", "type": "electric_scooter", "rental_uris": {"ios": "https://dc.lft.to/lastmile_qr_scan", "android": "https://dc.lft.to/lastmile_qr_scan"}, "bike_id": "da37bae20ea91662d550b3904e2c09b4"}, {"lat": 38.908430333333335, "is_disabled": 0, "lon": -77.05493966666667, "is_reserved": 0, "fusion_lon": 0.0, "fusion_lat": 0.0, "name": "938a22d2e389aac8e287d27c7450e097", "type": "electric_scooter", "rental_uris": {"ios": "https://dc.lft.to/lastmile_qr_scan", "android": "https://dc.lft.to/lastmile_qr_scan"}, "bike_id": "938a22d2e389aac8e287d27c7450e097"}, {"lat": 38.967718833333336, "is_disabled": 0, "lon": -76.99656816666666, "is_reserved": 0, "fusion_lon": 0.0, "fusion_lat": 0.0, "name": "978af6c4349961d2be4e73524803ec7c", "type": "electric_bike", "rental_uris": {"ios": "https://dc.lft.to/lastmile_qr_scan", "android": "https://dc.lft.to/lastmile_qr_scan"}, "bike_id": "978af6c4349961d2be4e73524803ec7c"}, {"lat": 38.92139, "is_disabled": 0, "lon": -77.02872216666667, "is_reserved": 0, "fusion_lon": 0.0, "fusion_lat": 0.0, "name": "e2a2354cf50473db5d088c3ba7414c10", "type": "electric_bike", "rental_uris": {"ios": "https://dc.lft.to/lastmile_qr_scan", "android": "https://dc.lft.to/lastmile_qr_scan"}, "bike_id": "e2a2354cf50473db5d088c3ba7414c10"}, {"lat": 38.924742, "is_disabled": 0, "lon": -77.03918316666666, "is_reserved": 0, "fusion_lon": 0.0, "fusion_lat": 0.0, "name": "102b615e57653eabfdc5cc389c311b13", "type": "electric_scooter", "rental_uris": {"ios": "https://dc.lft.to/lastmile_qr_scan", "android": "https://dc.lft.to/lastmile_qr_scan"}, "bike_id": "102b615e57653eabfdc5cc389c311b13"}, {"lat": 38.89876483333333, "is_disabled": 0, "lon": -76.93184583333333, "is_reserved": 0, "fusion_lon": 0.0, "fusion_lat": 0.0, "name": "111bc5e8c8b4f0885ed9bdd1bce02458", "type": "electric_scooter", "rental_uris": {"ios": "https://dc.lft.to/lastmile_qr_scan", "android": "https://dc.lft.to/lastmile_qr_scan"}, "bike_id": "111bc5e8c8b4f0885ed9bdd1bce02458"}, {"lat": 38.90482183333334, "is_disabled": 0, "lon": -77.035587, "is_reserved": 0, "fusion_lon": 0.0, "fusion_lat": 0.0, "name": "823f7ac309715b6df14cbcf3020d0dc6", "type": "electric_scooter", "rental_uris": {"ios": "https://dc.lft.to/lastmile_qr_scan", "android": "https://dc.lft.to/lastmile_qr_scan"}, "bike_id": "823f7ac309715b6df14cbcf3020d0dc6"}, {"lat": 38.86533816666667, "is_disabled": 0, "lon": -76.97333083333334, "is_reserved": 0, "fusion_lon": 0.0, "fusion_lat": 0.0, "name": "ff54892b4d0e413a6433584bc2918fe6", "type": "electric_scooter", "rental_uris": {"ios": "https://dc.lft.to/lastmile_qr_scan", "android": "https://dc.lft.to/lastmile_qr_scan"}, "bike_id": "ff54892b4d0e413a6433584bc2918fe6"}, {"lat": 38.8923445, "is_disabled": 0, "lon": -77.01535683333333, "is_reserved": 0, "fusion_lon": 0.0, "fusion_lat": 0.0, "name": "b69ed3065f20029d1618c21ee68631ea", "type": "electric_scooter", "rental_uris": {"ios": "https://dc.lft.to/lastmile_qr_scan", "android": "https://dc.lft.to/lastmile_qr_scan"}, "bike_id": "b69ed3065f20029d1618c21ee68631ea"}, {"lat": 38.9050925, "is_disabled": 0, "lon": -77.05143366666667, "is_reserved": 0, "fusion_lon": 0.0, "fusion_lat": 0.0, "name": "a8b7a8e709ab256ae94e8e6bb3de675a", "type": "electric_scooter", "rental_uris": {"ios": "https://dc.lft.to/lastmile_qr_scan", "android": "https://dc.lft.to/lastmile_qr_scan"}, "bike_id": "a8b7a8e709ab256ae94e8e6bb3de675a"}, {"lat": 38.902596833333334, "is_disabled": 0, "lon": -77.03749916666666, "is_reserved": 0, "fusion_lon": 0.0, "fusion_lat": 0.0, "name": "15ee935dbb3f7b2ba4a2d08599ba74a2", "type": "electric_scooter", "rental_uris": {"ios": "https://dc.lft.to/lastmile_qr_scan", "android": "https://dc.lft.to/lastmile_qr_scan"}, "bike_id": "15ee935dbb3f7b2ba4a2d08599ba74a2"}, {"lat": 38.9068195, "is_disabled": 0, "lon": -77.03811066666667, "is_reserved": 0, "fusion_lon": 0.0, "fusion_lat": 0.0, "name": "b6c8c3f3ca03f3563f9772b0ae3792d2", "type": "electric_scooter", "rental_uris": {"ios": "https://dc.lft.to/lastmile_qr_scan", "android": "https://dc.lft.to/lastmile_qr_scan"}, "bike_id": "b6c8c3f3ca03f3563f9772b0ae3792d2"}, {"lat": 38.9211005, "is_disabled": 0, "lon": -77.03183216666666, "is_reserved": 0, "fusion_lon": 0.0, "fusion_lat": 0.0, "name": "c3464a40d5705193914c2cde60f1a5a3", "type": "electric_scooter", "rental_uris": {"ios": "https://dc.lft.to/lastmile_qr_scan", "android": "https://dc.lft.to/lastmile_qr_scan"}, "bike_id": "c3464a40d5705193914c2cde60f1a5a3"}, {"lat": 38.89882933333333, "is_disabled": 0, "lon": -77.048771, "is_reserved": 0, "fusion_lon": 0.0, "fusion_lat": 0.0, "name": "0eb1b8f90bcfc7d241cc5d436eaf61e0", "type": "electric_scooter", "rental_uris": {"ios": "https://dc.lft.to/lastmile_qr_scan", "android": "https://dc.lft.to/lastmile_qr_scan"}, "bike_id": "0eb1b8f90bcfc7d241cc5d436eaf61e0"}, {"lat": 38.93529066666667, "is_disabled": 0, "lon": -77.058247, "is_reserved": 0, "fusion_lon": 0.0, "fusion_lat": 0.0, "name": "31d63d938f2189ad554eb8fd56adc22e", "type": "electric_scooter", "rental_uris": {"ios": "https://dc.lft.to/lastmile_qr_scan", "android": "https://dc.lft.to/lastmile_qr_scan"}, "bike_id": "31d63d938f2189ad554eb8fd56adc22e"}, {"lat": 38.90409616666667, "is_disabled": 0, "lon": -76.97331616666666, "is_reserved": 0, "fusion_lon": 0.0, "fusion_lat": 0.0, "name": "2fd64def3f8ffa2c1cc5718ea16d1535", "type": "electric_scooter", "rental_uris": {"ios": "https://dc.lft.to/lastmile_qr_scan", "android": "https://dc.lft.to/lastmile_qr_scan"}, "bike_id": "2fd64def3f8ffa2c1cc5718ea16d1535"}, {"lat": 38.90044366666667, "is_disabled": 0, "lon": -77.0337355, "is_reserved": 0, "fusion_lon": 0.0, "fusion_lat": 0.0, "name": "87c1f16cd3bb24a2966314a3dfaf5a5c", "type": "electric_scooter", "rental_uris": {"ios": "https://dc.lft.to/lastmile_qr_scan", "android": "https://dc.lft.to/lastmile_qr_scan"}, "bike_id": "87c1f16cd3bb24a2966314a3dfaf5a5c"}, {"lat": 38.919790666666664, "is_disabled": 0, "lon": -77.000199, "is_reserved": 0, "fusion_lon": 0.0, "fusion_lat": 0.0, "name": "11406be6233f4a6e17e8cc007c6220dd", "type": "electric_scooter", "rental_uris": {"ios": "https://dc.lft.to/lastmile_qr_scan", "android": "https://dc.lft.to/lastmile_qr_scan"}, "bike_id": "11406be6233f4a6e17e8cc007c6220dd"}, {"lat": 38.9174445, "is_disabled": 0, "lon": -77.0249255, "is_reserved": 0, "fusion_lon": 0.0, "fusion_lat": 0.0, "name": "6cbfde2876ad7c5e1d344d226792b94c", "type": "electric_scooter", "rental_uris": {"ios": "https://dc.lft.to/lastmile_qr_scan", "android": "https://dc.lft.to/lastmile_qr_scan"}, "bike_id": "6cbfde2876ad7c5e1d344d226792b94c"}, {"lat": 38.9113305, "is_disabled": 0, "lon": -77.0318775, "is_reserved": 0, "fusion_lon": 0.0, "fusion_lat": 0.0, "name": "ce24d3a49d467057624fe42d437d6624", "type": "electric_scooter", "rental_uris": {"ios": "https://dc.lft.to/lastmile_qr_scan", "android": "https://dc.lft.to/lastmile_qr_scan"}, "bike_id": "ce24d3a49d467057624fe42d437d6624"}, {"lat": 38.9237275, "is_disabled": 0, "lon": -77.021268, "is_reserved": 0, "fusion_lon": 0.0, "fusion_lat": 0.0, "name": "de425dbcc716e5c13dcd9557b63c4846", "type": "electric_scooter", "rental_uris": {"ios": "https://dc.lft.to/lastmile_qr_scan", "android": "https://dc.lft.to/lastmile_qr_scan"}, "bike_id": "de425dbcc716e5c13dcd9557b63c4846"}, {"lat": 38.928527333333335, "is_disabled": 0, "lon": -77.05425783333334, "is_reserved": 0, "fusion_lon": 0.0, "fusion_lat": 0.0, "name": "da5f958f770b73ef5657b5661251e321", "type": "electric_scooter", "rental_uris": {"ios": "https://dc.lft.to/lastmile_qr_scan", "android": "https://dc.lft.to/lastmile_qr_scan"}, "bike_id": "da5f958f770b73ef5657b5661251e321"}, {"lat": 38.9197905, "is_disabled": 0, "lon": -77.03221866666667, "is_reserved": 0, "fusion_lon": 0.0, "fusion_lat": 0.0, "name": "1026653e0dc413122c4c099797ae82a5", "type": "electric_scooter", "rental_uris": {"ios": "https://dc.lft.to/lastmile_qr_scan", "android": "https://dc.lft.to/lastmile_qr_scan"}, "bike_id": "1026653e0dc413122c4c099797ae82a5"}, {"lat": 38.9067085, "is_disabled": 0, "lon": -76.9863785, "is_reserved": 0, "fusion_lon": 0.0, "fusion_lat": 0.0, "name": "6854a02c81218a6855aa7d424e461340", "type": "electric_scooter", "rental_uris": {"ios": "https://dc.lft.to/lastmile_qr_scan", "android": "https://dc.lft.to/lastmile_qr_scan"}, "bike_id": "6854a02c81218a6855aa7d424e461340"}, {"lat": 38.96493366666667, "is_disabled": 0, "lon": -77.02209633333334, "is_reserved": 0, "fusion_lon": 0.0, "fusion_lat": 0.0, "name": "09b7704d4c1f843f24ce154b7bd6fcf5", "type": "electric_bike", "rental_uris": {"ios": "https://dc.lft.to/lastmile_qr_scan", "android": "https://dc.lft.to/lastmile_qr_scan"}, "bike_id": "09b7704d4c1f843f24ce154b7bd6fcf5"}, {"lat": 38.923679, "is_disabled": 0, "lon": -77.02133466666666, "is_reserved": 0, "fusion_lon": 0.0, "fusion_lat": 0.0, "name": "3b3f5b606b3a7140461cecb374f4ff51", "type": "electric_scooter", "rental_uris": {"ios": "https://dc.lft.to/lastmile_qr_scan", "android": "https://dc.lft.to/lastmile_qr_scan"}, "bike_id": "3b3f5b606b3a7140461cecb374f4ff51"}, {"lat": 38.936074166666664, "is_disabled": 0, "lon": -77.05896016666667, "is_reserved": 0, "fusion_lon": 0.0, "fusion_lat": 0.0, "name": "b9e8926486950589b23f0e2002b63a35", "type": "electric_scooter", "rental_uris": {"ios": "https://dc.lft.to/lastmile_qr_scan", "android": "https://dc.lft.to/lastmile_qr_scan"}, "bike_id": "b9e8926486950589b23f0e2002b63a35"}, {"lat": 38.84277066666667, "is_disabled": 0, "lon": -76.98810316666666, "is_reserved": 0, "fusion_lon": 0.0, "fusion_lat": 0.0, "name": "040a421956f04c9e6bbe651778c2bd79", "type": "electric_bike", "rental_uris": {"ios": "https://dc.lft.to/lastmile_qr_scan", "android": "https://dc.lft.to/lastmile_qr_scan"}, "bike_id": "040a421956f04c9e6bbe651778c2bd79"}, {"lat": 38.916510833333334, "is_disabled": 0, "lon": -77.02890066666667, "is_reserved": 0, "fusion_lon": 0.0, "fusion_lat": 0.0, "name": "0b988b5c0c9c6c705c169f98a67c9d8d", "type": "electric_scooter", "rental_uris": {"ios": "https://dc.lft.to/lastmile_qr_scan", "android": "https://dc.lft.to/lastmile_qr_scan"}, "bike_id": "0b988b5c0c9c6c705c169f98a67c9d8d"}, {"lat": 38.9033415, "is_disabled": 0, "lon": -77.03870033333334, "is_reserved": 0, "fusion_lon": 0.0, "fusion_lat": 0.0, "name": "cf0c11990c9d4b705542b9b75ff21009", "type": "electric_scooter", "rental_uris": {"ios": "https://dc.lft.to/lastmile_qr_scan", "android": "https://dc.lft.to/lastmile_qr_scan"}, "bike_id": "cf0c11990c9d4b705542b9b75ff21009"}, {"lat": 38.9062815, "is_disabled": 0, "lon": -77.03712416666667, "is_reserved": 0, "fusion_lon": 0.0, "fusion_lat": 0.0, "name": "d13c1d6044f2a5b1b7cc0b4e79be4bda", "type": "electric_scooter", "rental_uris": {"ios": "https://dc.lft.to/lastmile_qr_scan", "android": "https://dc.lft.to/lastmile_qr_scan"}, "bike_id": "d13c1d6044f2a5b1b7cc0b4e79be4bda"}, {"lat": 38.9040945, "is_disabled": 0, "lon": -77.06293633333334, "is_reserved": 0, "fusion_lon": 0.0, "fusion_lat": 0.0, "name": "5f09c886587e9b3fd97cb9f747b53692", "type": "electric_scooter", "rental_uris": {"ios": "https://dc.lft.to/lastmile_qr_scan", "android": "https://dc.lft.to/lastmile_qr_scan"}, "bike_id": "5f09c886587e9b3fd97cb9f747b53692"}, {"lat": 38.9064795, "is_disabled": 0, "lon": -77.01138433333334, "is_reserved": 0, "fusion_lon": 0.0, "fusion_lat": 0.0, "name": "eac5a2fd6fb4e4fca5092de43bb3f9a9", "type": "electric_scooter", "rental_uris": {"ios": "https://dc.lft.to/lastmile_qr_scan", "android": "https://dc.lft.to/lastmile_qr_scan"}, "bike_id": "eac5a2fd6fb4e4fca5092de43bb3f9a9"}, {"lat": 38.92490216666667, "is_disabled": 0, "lon": -77.02991666666667, "is_reserved": 0, "fusion_lon": 0.0, "fusion_lat": 0.0, "name": "a8139d1c87f77af143ffa1b7e79c6be5", "type": "electric_scooter", "rental_uris": {"ios": "https://dc.lft.to/lastmile_qr_scan", "android": "https://dc.lft.to/lastmile_qr_scan"}, "bike_id": "a8139d1c87f77af143ffa1b7e79c6be5"}, {"lat": 38.88753466666667, "is_disabled": 0, "lon": -77.0315295, "is_reserved": 0, "fusion_lon": 0.0, "fusion_lat": 0.0, "name": "8f413402149988ea995b0268907e2210", "type": "electric_scooter", "rental_uris": {"ios": "https://dc.lft.to/lastmile_qr_scan", "android": "https://dc.lft.to/lastmile_qr_scan"}, "bike_id": "8f413402149988ea995b0268907e2210"}, {"lat": 38.8442475, "is_disabled": 0, "lon": -76.98854016666667, "is_reserved": 0, "fusion_lon": 0.0, "fusion_lat": 0.0, "name": "07f7adfb46b0e3636b276d9e13a66d8b", "type": "electric_scooter", "rental_uris": {"ios": "https://dc.lft.to/lastmile_qr_scan", "android": "https://dc.lft.to/lastmile_qr_scan"}, "bike_id": "07f7adfb46b0e3636b276d9e13a66d8b"}, {"lat": 38.924413, "is_disabled": 0, "lon": -77.033172, "is_reserved": 0, "fusion_lon": 0.0, "fusion_lat": 0.0, "name": "c8911a63dd9fb9212fbcb009396fdf9a", "type": "electric_scooter", "rental_uris": {"ios": "https://dc.lft.to/lastmile_qr_scan", "android": "https://dc.lft.to/lastmile_qr_scan"}, "bike_id": "c8911a63dd9fb9212fbcb009396fdf9a"}, {"lat": 38.9055255, "is_disabled": 0, "lon": -77.0028375, "is_reserved": 0, "fusion_lon": 0.0, "fusion_lat": 0.0, "name": "5676f47b7868d8ab330111ca3112634c", "type": "electric_scooter", "rental_uris": {"ios": "https://dc.lft.to/lastmile_qr_scan", "android": "https://dc.lft.to/lastmile_qr_scan"}, "bike_id": "5676f47b7868d8ab330111ca3112634c"}, {"lat": 38.9039665, "is_disabled": 0, "lon": -77.0684815, "is_reserved": 0, "fusion_lon": 0.0, "fusion_lat": 0.0, "name": "5649e51ac5a4fdcac46844edfc89453d", "type": "electric_scooter", "rental_uris": {"ios": "https://dc.lft.to/lastmile_qr_scan", "android": "https://dc.lft.to/lastmile_qr_scan"}, "bike_id": "5649e51ac5a4fdcac46844edfc89453d"}, {"lat": 38.89851566666667, "is_disabled": 0, "lon": -77.027135, "is_reserved": 0, "fusion_lon": 0.0, "fusion_lat": 0.0, "name": "8b038d707ff46ab0cb7b6b892563233a", "type": "electric_scooter", "rental_uris": {"ios": "https://dc.lft.to/lastmile_qr_scan", "android": "https://dc.lft.to/lastmile_qr_scan"}, "bike_id": "8b038d707ff46ab0cb7b6b892563233a"}, {"lat": 38.901894666666664, "is_disabled": 0, "lon": -77.02405466666667, "is_reserved": 0, "fusion_lon": 0.0, "fusion_lat": 0.0, "name": "ea2c413c5ec9c6e1b9211ab46cedccb6", "type": "electric_scooter", "rental_uris": {"ios": "https://dc.lft.to/lastmile_qr_scan", "android": "https://dc.lft.to/lastmile_qr_scan"}, "bike_id": "ea2c413c5ec9c6e1b9211ab46cedccb6"}, {"lat": 38.90033, "is_disabled": 0, "lon": -76.9884005, "is_reserved": 0, "fusion_lon": 0.0, "fusion_lat": 0.0, "name": "ec0852f75fe924b2c8958dce56ecf4b7", "type": "electric_scooter", "rental_uris": {"ios": "https://dc.lft.to/lastmile_qr_scan", "android": "https://dc.lft.to/lastmile_qr_scan"}, "bike_id": "ec0852f75fe924b2c8958dce56ecf4b7"}, {"lat": 38.9080955, "is_disabled": 0, "lon": -77.038677, "is_reserved": 0, "fusion_lon": 0.0, "fusion_lat": 0.0, "name": "8b226da51bd7066166c96f3b5186f1ed", "type": "electric_scooter", "rental_uris": {"ios": "https://dc.lft.to/lastmile_qr_scan", "android": "https://dc.lft.to/lastmile_qr_scan"}, "bike_id": "8b226da51bd7066166c96f3b5186f1ed"}, {"lat": 38.8963815, "is_disabled": 0, "lon": -77.02404416666667, "is_reserved": 0, "fusion_lon": 0.0, "fusion_lat": 0.0, "name": "d50b5f71684038c6653d0e843c8dac60", "type": "electric_scooter", "rental_uris": {"ios": "https://dc.lft.to/lastmile_qr_scan", "android": "https://dc.lft.to/lastmile_qr_scan"}, "bike_id": "d50b5f71684038c6653d0e843c8dac60"}, {"lat": 38.99230283333333, "is_disabled": 0, "lon": -77.06533583333334, "is_reserved": 0, "fusion_lon": 0.0, "fusion_lat": 0.0, "name": "0001f1ae63b22213b6c312fc8004cd92", "type": "electric_bike", "rental_uris": {"ios": "https://dc.lft.to/lastmile_qr_scan", "android": "https://dc.lft.to/lastmile_qr_scan"}, "bike_id": "0001f1ae63b22213b6c312fc8004cd92"}, {"lat": 38.92601916666667, "is_disabled": 0, "lon": -77.02494, "is_reserved": 0, "fusion_lon": 0.0, "fusion_lat": 0.0, "name": "bb8d0355880a5bb7d0d867016f827aa5", "type": "electric_scooter", "rental_uris": {"ios": "https://dc.lft.to/lastmile_qr_scan", "android": "https://dc.lft.to/lastmile_qr_scan"}, "bike_id": "bb8d0355880a5bb7d0d867016f827aa5"}, {"lat": 38.908195, "is_disabled": 0, "lon": -77.035724, "is_reserved": 0, "fusion_lon": 0.0, "fusion_lat": 0.0, "name": "d97f949877bbbaf2860db38ad4c1ea90", "type": "electric_scooter", "rental_uris": {"ios": "https://dc.lft.to/lastmile_qr_scan", "android": "https://dc.lft.to/lastmile_qr_scan"}, "bike_id": "d97f949877bbbaf2860db38ad4c1ea90"}, {"lat": 38.961313833333335, "is_disabled": 0, "lon": -77.02787416666666, "is_reserved": 0, "fusion_lon": 0.0, "fusion_lat": 0.0, "name": "b30a8ab842101cf7772078bcefc02de5", "type": "electric_scooter", "rental_uris": {"ios": "https://dc.lft.to/lastmile_qr_scan", "android": "https://dc.lft.to/lastmile_qr_scan"}, "bike_id": "b30a8ab842101cf7772078bcefc02de5"}, {"lat": 38.82203466666667, "is_disabled": 0, "lon": -76.977033, "is_reserved": 0, "fusion_lon": 0.0, "fusion_lat": 0.0, "name": "b8fd97ebddba684a606d39aa948a4bda", "type": "electric_bike", "rental_uris": {"ios": "https://dc.lft.to/lastmile_qr_scan", "android": "https://dc.lft.to/lastmile_qr_scan"}, "bike_id": "b8fd97ebddba684a606d39aa948a4bda"}, {"lat": 38.92105383333333, "is_disabled": 0, "lon": -77.04367466666666, "is_reserved": 0, "fusion_lon": 0.0, "fusion_lat": 0.0, "name": "76a54994a906c8d3334f2d4149a5fa74", "type": "electric_scooter", "rental_uris": {"ios": "https://dc.lft.to/lastmile_qr_scan", "android": "https://dc.lft.to/lastmile_qr_scan"}, "bike_id": "76a54994a906c8d3334f2d4149a5fa74"}, {"lat": 38.915633166666666, "is_disabled": 0, "lon": -77.031913, "is_reserved": 0, "fusion_lon": 0.0, "fusion_lat": 0.0, "name": "3ad3dc6f5ae6014635f8db9147ada5be", "type": "electric_scooter", "rental_uris": {"ios": "https://dc.lft.to/lastmile_qr_scan", "android": "https://dc.lft.to/lastmile_qr_scan"}, "bike_id": "3ad3dc6f5ae6014635f8db9147ada5be"}, {"lat": 38.90327283333333, "is_disabled": 0, "lon": -77.03837966666667, "is_reserved": 0, "fusion_lon": 0.0, "fusion_lat": 0.0, "name": "0dc65f01d946620f5fc2e5f6710c34dc", "type": "electric_scooter", "rental_uris": {"ios": "https://dc.lft.to/lastmile_qr_scan", "android": "https://dc.lft.to/lastmile_qr_scan"}, "bike_id": "0dc65f01d946620f5fc2e5f6710c34dc"}, {"lat": 38.9236325, "is_disabled": 0, "lon": -77.07232533333334, "is_reserved": 0, "fusion_lon": 0.0, "fusion_lat": 0.0, "name": "8a0b6e58d61088f37dae20d6b1834de1", "type": "electric_scooter", "rental_uris": {"ios": "https://dc.lft.to/lastmile_qr_scan", "android": "https://dc.lft.to/lastmile_qr_scan"}, "bike_id": "8a0b6e58d61088f37dae20d6b1834de1"}, {"lat": 38.892217, "is_disabled": 0, "lon": -77.045042, "is_reserved": 0, "fusion_lon": 0.0, "fusion_lat": 0.0, "name": "303db0f3f1480b1727f65bd2afb5196f", "type": "electric_scooter", "rental_uris": {"ios": "https://dc.lft.to/lastmile_qr_scan", "android": "https://dc.lft.to/lastmile_qr_scan"}, "bike_id": "303db0f3f1480b1727f65bd2afb5196f"}, {"lat": 38.92914016666667, "is_disabled": 0, "lon": -77.0348755, "is_reserved": 0, "fusion_lon": 0.0, "fusion_lat": 0.0, "name": "d4d6ecb84a8887694274c1d0cb70a7f2", "type": "electric_scooter", "rental_uris": {"ios": "https://dc.lft.to/lastmile_qr_scan", "android": "https://dc.lft.to/lastmile_qr_scan"}, "bike_id": "d4d6ecb84a8887694274c1d0cb70a7f2"}, {"lat": 38.87899916666667, "is_disabled": 0, "lon": -76.9352715, "is_reserved": 0, "fusion_lon": 0.0, "fusion_lat": 0.0, "name": "384b96ab6a8918f8f5a78f2069d8cb91", "type": "electric_scooter", "rental_uris": {"ios": "https://dc.lft.to/lastmile_qr_scan", "android": "https://dc.lft.to/lastmile_qr_scan"}, "bike_id": "384b96ab6a8918f8f5a78f2069d8cb91"}, {"lat": 38.9171715, "is_disabled": 0, "lon": -77.02960916666666, "is_reserved": 0, "fusion_lon": 0.0, "fusion_lat": 0.0, "name": "1f35738f37d171aed0c254818ea23f8c", "type": "electric_scooter", "rental_uris": {"ios": "https://dc.lft.to/lastmile_qr_scan", "android": "https://dc.lft.to/lastmile_qr_scan"}, "bike_id": "1f35738f37d171aed0c254818ea23f8c"}, {"lat": 38.917034666666666, "is_disabled": 0, "lon": -77.024137, "is_reserved": 0, "fusion_lon": 0.0, "fusion_lat": 0.0, "name": "bdc6108692418018d2939752a39e4c8d", "type": "electric_scooter", "rental_uris": {"ios": "https://dc.lft.to/lastmile_qr_scan", "android": "https://dc.lft.to/lastmile_qr_scan"}, "bike_id": "bdc6108692418018d2939752a39e4c8d"}, {"lat": 38.905890666666664, "is_disabled": 0, "lon": -76.98544533333333, "is_reserved": 0, "fusion_lon": 0.0, "fusion_lat": 0.0, "name": "7445f6375cfc9999aaf36afc925c1bbb", "type": "electric_scooter", "rental_uris": {"ios": "https://dc.lft.to/lastmile_qr_scan", "android": "https://dc.lft.to/lastmile_qr_scan"}, "bike_id": "7445f6375cfc9999aaf36afc925c1bbb"}, {"lat": 38.919531, "is_disabled": 0, "lon": -77.02489483333333, "is_reserved": 0, "fusion_lon": 0.0, "fusion_lat": 0.0, "name": "d5a875c44f95ce18c0399a80fdb34fa4", "type": "electric_scooter", "rental_uris": {"ios": "https://dc.lft.to/lastmile_qr_scan", "android": "https://dc.lft.to/lastmile_qr_scan"}, "bike_id": "d5a875c44f95ce18c0399a80fdb34fa4"}, {"lat": 38.89848083333333, "is_disabled": 0, "lon": -77.0074615, "is_reserved": 0, "fusion_lon": 0.0, "fusion_lat": 0.0, "name": "8a092f1b6c718ed4c9af4479855fcfd5", "type": "electric_scooter", "rental_uris": {"ios": "https://dc.lft.to/lastmile_qr_scan", "android": "https://dc.lft.to/lastmile_qr_scan"}, "bike_id": "8a092f1b6c718ed4c9af4479855fcfd5"}, {"lat": 38.9048595, "is_disabled": 0, "lon": -77.002102, "is_reserved": 0, "fusion_lon": 0.0, "fusion_lat": 0.0, "name": "cfd27c28d93542c4d9bd65e966031361", "type": "electric_bike", "rental_uris": {"ios": "https://dc.lft.to/lastmile_qr_scan", "android": "https://dc.lft.to/lastmile_qr_scan"}, "bike_id": "cfd27c28d93542c4d9bd65e966031361"}, {"lat": 38.900366, "is_disabled": 0, "lon": -77.0507585, "is_reserved": 0, "fusion_lon": 0.0, "fusion_lat": 0.0, "name": "dfdee98d0e1462cddcb577ee1eded1f5", "type": "electric_scooter", "rental_uris": {"ios": "https://dc.lft.to/lastmile_qr_scan", "android": "https://dc.lft.to/lastmile_qr_scan"}, "bike_id": "dfdee98d0e1462cddcb577ee1eded1f5"}, {"lat": 38.894746833333336, "is_disabled": 0, "lon": -77.01681233333333, "is_reserved": 0, "fusion_lon": 0.0, "fusion_lat": 0.0, "name": "2be8d4deeab5f81b28df105c4149c784", "type": "electric_scooter", "rental_uris": {"ios": "https://dc.lft.to/lastmile_qr_scan", "android": "https://dc.lft.to/lastmile_qr_scan"}, "bike_id": "2be8d4deeab5f81b28df105c4149c784"}, {"lat": 38.9561495, "is_disabled": 0, "lon": -77.03296233333333, "is_reserved": 0, "fusion_lon": 0.0, "fusion_lat": 0.0, "name": "7b65e6dd0593273d49dc241857683abe", "type": "electric_scooter", "rental_uris": {"ios": "https://dc.lft.to/lastmile_qr_scan", "android": "https://dc.lft.to/lastmile_qr_scan"}, "bike_id": "7b65e6dd0593273d49dc241857683abe"}, {"lat": 38.923981, "is_disabled": 0, "lon": -77.02483516666666, "is_reserved": 0, "fusion_lon": 0.0, "fusion_lat": 0.0, "name": "13e1ac0b28b1b59e90252fbdb2c6cb5a", "type": "electric_scooter", "rental_uris": {"ios": "https://dc.lft.to/lastmile_qr_scan", "android": "https://dc.lft.to/lastmile_qr_scan"}, "bike_id": "13e1ac0b28b1b59e90252fbdb2c6cb5a"}, {"lat": 38.9222715, "is_disabled": 0, "lon": -76.983715, "is_reserved": 0, "fusion_lon": 0.0, "fusion_lat": 0.0, "name": "cab126dc4b349366de19cd0d24251e5d", "type": "electric_scooter", "rental_uris": {"ios": "https://dc.lft.to/lastmile_qr_scan", "android": "https://dc.lft.to/lastmile_qr_scan"}, "bike_id": "cab126dc4b349366de19cd0d24251e5d"}, {"lat": 38.9251535, "is_disabled": 0, "lon": -77.0410705, "is_reserved": 0, "fusion_lon": 0.0, "fusion_lat": 0.0, "name": "49ec9c30b6ee278fca6bb971901e79dd", "type": "electric_scooter", "rental_uris": {"ios": "https://dc.lft.to/lastmile_qr_scan", "android": "https://dc.lft.to/lastmile_qr_scan"}, "bike_id": "49ec9c30b6ee278fca6bb971901e79dd"}, {"lat": 38.88033166666666, "is_disabled": 0, "lon": -76.91719533333334, "is_reserved": 0, "fusion_lon": 0.0, "fusion_lat": 0.0, "name": "d4ac1ee8611b494ba40747955bf9e6ce", "type": "electric_bike", "rental_uris": {"ios": "https://dc.lft.to/lastmile_qr_scan", "android": "https://dc.lft.to/lastmile_qr_scan"}, "bike_id": "d4ac1ee8611b494ba40747955bf9e6ce"}, {"lat": 38.921725, "is_disabled": 0, "lon": -77.04222216666666, "is_reserved": 0, "fusion_lon": 0.0, "fusion_lat": 0.0, "name": "cbf8ff44b3c1c6ffe02ec9fa1288b6ff", "type": "electric_scooter", "rental_uris": {"ios": "https://dc.lft.to/lastmile_qr_scan", "android": "https://dc.lft.to/lastmile_qr_scan"}, "bike_id": "cbf8ff44b3c1c6ffe02ec9fa1288b6ff"}, {"lat": 38.898473333333335, "is_disabled": 0, "lon": -77.0498125, "is_reserved": 0, "fusion_lon": 0.0, "fusion_lat": 0.0, "name": "a7fe2b9f470622b410771e0673ca6330", "type": "electric_scooter", "rental_uris": {"ios": "https://dc.lft.to/lastmile_qr_scan", "android": "https://dc.lft.to/lastmile_qr_scan"}, "bike_id": "a7fe2b9f470622b410771e0673ca6330"}, {"lat": 38.902425, "is_disabled": 0, "lon": -77.01759616666666, "is_reserved": 0, "fusion_lon": 0.0, "fusion_lat": 0.0, "name": "87712522d26e568444b77f6fef0ede0f", "type": "electric_scooter", "rental_uris": {"ios": "https://dc.lft.to/lastmile_qr_scan", "android": "https://dc.lft.to/lastmile_qr_scan"}, "bike_id": "87712522d26e568444b77f6fef0ede0f"}, {"lat": 38.926897833333335, "is_disabled": 0, "lon": -77.02579016666667, "is_reserved": 0, "fusion_lon": 0.0, "fusion_lat": 0.0, "name": "fdc6cebc28e5c95ec89d2002fffbd120", "type": "electric_scooter", "rental_uris": {"ios": "https://dc.lft.to/lastmile_qr_scan", "android": "https://dc.lft.to/lastmile_qr_scan"}, "bike_id": "fdc6cebc28e5c95ec89d2002fffbd120"}, {"lat": 38.8922395, "is_disabled": 0, "lon": -77.04867516666667, "is_reserved": 0, "fusion_lon": 0.0, "fusion_lat": 0.0, "name": "aba02bcffbc362afc8ebe58444da02c0", "type": "electric_scooter", "rental_uris": {"ios": "https://dc.lft.to/lastmile_qr_scan", "android": "https://dc.lft.to/lastmile_qr_scan"}, "bike_id": "aba02bcffbc362afc8ebe58444da02c0"}, {"lat": 38.87885683333333, "is_disabled": 0, "lon": -77.00057383333333, "is_reserved": 0, "fusion_lon": 0.0, "fusion_lat": 0.0, "name": "34ce6b05c9fe046a7864bd51633cf606", "type": "electric_scooter", "rental_uris": {"ios": "https://dc.lft.to/lastmile_qr_scan", "android": "https://dc.lft.to/lastmile_qr_scan"}, "bike_id": "34ce6b05c9fe046a7864bd51633cf606"}, {"lat": 38.89551433333333, "is_disabled": 0, "lon": -76.93058266666667, "is_reserved": 0, "fusion_lon": 0.0, "fusion_lat": 0.0, "name": "168afbbce3b616c58a11e733e54a6fe3", "type": "electric_scooter", "rental_uris": {"ios": "https://dc.lft.to/lastmile_qr_scan", "android": "https://dc.lft.to/lastmile_qr_scan"}, "bike_id": "168afbbce3b616c58a11e733e54a6fe3"}, {"lat": 38.921697, "is_disabled": 0, "lon": -77.0220035, "is_reserved": 0, "fusion_lon": 0.0, "fusion_lat": 0.0, "name": "2e5f1d45bce0598f1bf3cde8c914884b", "type": "electric_scooter", "rental_uris": {"ios": "https://dc.lft.to/lastmile_qr_scan", "android": "https://dc.lft.to/lastmile_qr_scan"}, "bike_id": "2e5f1d45bce0598f1bf3cde8c914884b"}, {"lat": 38.911173166666664, "is_disabled": 0, "lon": -77.0436985, "is_reserved": 0, "fusion_lon": 0.0, "fusion_lat": 0.0, "name": "064fb6d8bc559daa0ccbd742f1973a02", "type": "electric_scooter", "rental_uris": {"ios": "https://dc.lft.to/lastmile_qr_scan", "android": "https://dc.lft.to/lastmile_qr_scan"}, "bike_id": "064fb6d8bc559daa0ccbd742f1973a02"}, {"lat": 38.90071116666667, "is_disabled": 0, "lon": -77.054103, "is_reserved": 0, "fusion_lon": 0.0, "fusion_lat": 0.0, "name": "d6bcb47d5fa8344cd1840fd376bda145", "type": "electric_scooter", "rental_uris": {"ios": "https://dc.lft.to/lastmile_qr_scan", "android": "https://dc.lft.to/lastmile_qr_scan"}, "bike_id": "d6bcb47d5fa8344cd1840fd376bda145"}, {"lat": 38.9249805, "is_disabled": 0, "lon": -77.03930066666666, "is_reserved": 0, "fusion_lon": 0.0, "fusion_lat": 0.0, "name": "a82115d199cce391a29c17eb29786310", "type": "electric_scooter", "rental_uris": {"ios": "https://dc.lft.to/lastmile_qr_scan", "android": "https://dc.lft.to/lastmile_qr_scan"}, "bike_id": "a82115d199cce391a29c17eb29786310"}, {"lat": 38.89824083333333, "is_disabled": 0, "lon": -77.030496, "is_reserved": 0, "fusion_lon": 0.0, "fusion_lat": 0.0, "name": "8ab35081b18649ba549da2ec5919ef68", "type": "electric_scooter", "rental_uris": {"ios": "https://dc.lft.to/lastmile_qr_scan", "android": "https://dc.lft.to/lastmile_qr_scan"}, "bike_id": "8ab35081b18649ba549da2ec5919ef68"}, {"lat": 39.08442216666667, "is_disabled": 0, "lon": -76.95157083333334, "is_reserved": 0, "fusion_lon": 0.0, "fusion_lat": 0.0, "name": "11c877f54f4f2bb3e3db6c44908d2e79", "type": "electric_bike", "rental_uris": {"ios": "https://dc.lft.to/lastmile_qr_scan", "android": "https://dc.lft.to/lastmile_qr_scan"}, "bike_id": "11c877f54f4f2bb3e3db6c44908d2e79"}, {"lat": 38.9356135, "is_disabled": 0, "lon": -77.06432716666667, "is_reserved": 0, "fusion_lon": 0.0, "fusion_lat": 0.0, "name": "399aaec2e6b7986f8d4173523dc6861f", "type": "electric_scooter", "rental_uris": {"ios": "https://dc.lft.to/lastmile_qr_scan", "android": "https://dc.lft.to/lastmile_qr_scan"}, "bike_id": "399aaec2e6b7986f8d4173523dc6861f"}, {"lat": 38.892274666666665, "is_disabled": 0, "lon": -77.05009233333334, "is_reserved": 0, "fusion_lon": 0.0, "fusion_lat": 0.0, "name": "dab87408c545f84636111489e2e129f1", "type": "electric_scooter", "rental_uris": {"ios": "https://dc.lft.to/lastmile_qr_scan", "android": "https://dc.lft.to/lastmile_qr_scan"}, "bike_id": "dab87408c545f84636111489e2e129f1"}, {"lat": 38.901099, "is_disabled": 0, "lon": -77.02374316666666, "is_reserved": 0, "fusion_lon": 0.0, "fusion_lat": 0.0, "name": "7b341fab3220ee388fdd4f216657d4b3", "type": "electric_scooter", "rental_uris": {"ios": "https://dc.lft.to/lastmile_qr_scan", "android": "https://dc.lft.to/lastmile_qr_scan"}, "bike_id": "7b341fab3220ee388fdd4f216657d4b3"}, {"lat": 38.920969666666664, "is_disabled": 0, "lon": -77.02445616666667, "is_reserved": 0, "fusion_lon": 0.0, "fusion_lat": 0.0, "name": "5f68188ba7a1505c35babc69e1cebcd6", "type": "electric_scooter", "rental_uris": {"ios": "https://dc.lft.to/lastmile_qr_scan", "android": "https://dc.lft.to/lastmile_qr_scan"}, "bike_id": "5f68188ba7a1505c35babc69e1cebcd6"}, {"lat": 38.896461333333335, "is_disabled": 0, "lon": -77.02708533333333, "is_reserved": 0, "fusion_lon": 0.0, "fusion_lat": 0.0, "name": "a37550607eec2ae59ae36b3a57751046", "type": "electric_scooter", "rental_uris": {"ios": "https://dc.lft.to/lastmile_qr_scan", "android": "https://dc.lft.to/lastmile_qr_scan"}, "bike_id": "a37550607eec2ae59ae36b3a57751046"}, {"lat": 38.93097483333333, "is_disabled": 0, "lon": -77.02658383333333, "is_reserved": 0, "fusion_lon": 0.0, "fusion_lat": 0.0, "name": "70fb2578e28edd175c7d3b83d48e5b68", "type": "electric_scooter", "rental_uris": {"ios": "https://dc.lft.to/lastmile_qr_scan", "android": "https://dc.lft.to/lastmile_qr_scan"}, "bike_id": "70fb2578e28edd175c7d3b83d48e5b68"}, {"lat": 38.90286866666667, "is_disabled": 0, "lon": -77.03675366666667, "is_reserved": 0, "fusion_lon": 0.0, "fusion_lat": 0.0, "name": "0055ead084325a8837e421d9a8cf307f", "type": "electric_scooter", "rental_uris": {"ios": "https://dc.lft.to/lastmile_qr_scan", "android": "https://dc.lft.to/lastmile_qr_scan"}, "bike_id": "0055ead084325a8837e421d9a8cf307f"}, {"lat": 38.90946816666667, "is_disabled": 0, "lon": -76.93594416666667, "is_reserved": 0, "fusion_lon": 0.0, "fusion_lat": 0.0, "name": "fecdf9042d369bc8611d53eca63d9037", "type": "electric_scooter", "rental_uris": {"ios": "https://dc.lft.to/lastmile_qr_scan", "android": "https://dc.lft.to/lastmile_qr_scan"}, "bike_id": "fecdf9042d369bc8611d53eca63d9037"}, {"lat": 38.90377066666667, "is_disabled": 0, "lon": -77.0028925, "is_reserved": 0, "fusion_lon": 0.0, "fusion_lat": 0.0, "name": "f03ec3dbc0c9bda24c03ec6a3d7ee7b3", "type": "electric_scooter", "rental_uris": {"ios": "https://dc.lft.to/lastmile_qr_scan", "android": "https://dc.lft.to/lastmile_qr_scan"}, "bike_id": "f03ec3dbc0c9bda24c03ec6a3d7ee7b3"}, {"lat": 38.9211195, "is_disabled": 0, "lon": -77.04019466666666, "is_reserved": 0, "fusion_lon": 0.0, "fusion_lat": 0.0, "name": "bec65da2f61ee60c69375e9b80317e21", "type": "electric_scooter", "rental_uris": {"ios": "https://dc.lft.to/lastmile_qr_scan", "android": "https://dc.lft.to/lastmile_qr_scan"}, "bike_id": "bec65da2f61ee60c69375e9b80317e21"}, {"lat": 38.92080883333333, "is_disabled": 0, "lon": -77.0220925, "is_reserved": 0, "fusion_lon": 0.0, "fusion_lat": 0.0, "name": "ab2e5ac7b766abe118d4b4ce65de8ef2", "type": "electric_scooter", "rental_uris": {"ios": "https://dc.lft.to/lastmile_qr_scan", "android": "https://dc.lft.to/lastmile_qr_scan"}, "bike_id": "ab2e5ac7b766abe118d4b4ce65de8ef2"}, {"lat": 38.8924785, "is_disabled": 0, "lon": -76.92367216666666, "is_reserved": 0, "fusion_lon": 0.0, "fusion_lat": 0.0, "name": "18e1274bc4c420e839b2bd4de3fc99fe", "type": "electric_scooter", "rental_uris": {"ios": "https://dc.lft.to/lastmile_qr_scan", "android": "https://dc.lft.to/lastmile_qr_scan"}, "bike_id": "18e1274bc4c420e839b2bd4de3fc99fe"}, {"lat": 38.91418566666667, "is_disabled": 0, "lon": -77.04599566666667, "is_reserved": 0, "fusion_lon": 0.0, "fusion_lat": 0.0, "name": "70759f4245fad51f5c55f6eb2fde5f97", "type": "electric_scooter", "rental_uris": {"ios": "https://dc.lft.to/lastmile_qr_scan", "android": "https://dc.lft.to/lastmile_qr_scan"}, "bike_id": "70759f4245fad51f5c55f6eb2fde5f97"}, {"lat": 38.91815233333333, "is_disabled": 0, "lon": -77.0247715, "is_reserved": 0, "fusion_lon": 0.0, "fusion_lat": 0.0, "name": "25daf4f09cc67c743843ac3f4ff623df", "type": "electric_scooter", "rental_uris": {"ios": "https://dc.lft.to/lastmile_qr_scan", "android": "https://dc.lft.to/lastmile_qr_scan"}, "bike_id": "25daf4f09cc67c743843ac3f4ff623df"}, {"lat": 38.900287, "is_disabled": 0, "lon": -76.98797783333333, "is_reserved": 0, "fusion_lon": 0.0, "fusion_lat": 0.0, "name": "f35e71073292f7c92a0e39663f3670fa", "type": "electric_scooter", "rental_uris": {"ios": "https://dc.lft.to/lastmile_qr_scan", "android": "https://dc.lft.to/lastmile_qr_scan"}, "bike_id": "f35e71073292f7c92a0e39663f3670fa"}, {"lat": 38.905364, "is_disabled": 0, "lon": -77.04810483333333, "is_reserved": 0, "fusion_lon": 0.0, "fusion_lat": 0.0, "name": "59d0cb9499b4066407cb10b9393c875e", "type": "electric_scooter", "rental_uris": {"ios": "https://dc.lft.to/lastmile_qr_scan", "android": "https://dc.lft.to/lastmile_qr_scan"}, "bike_id": "59d0cb9499b4066407cb10b9393c875e"}, {"lat": 38.922578, "is_disabled": 0, "lon": -77.01951933333333, "is_reserved": 0, "fusion_lon": 0.0, "fusion_lat": 0.0, "name": "81753486b1d045181f1d6c728a71afd3", "type": "electric_scooter", "rental_uris": {"ios": "https://dc.lft.to/lastmile_qr_scan", "android": "https://dc.lft.to/lastmile_qr_scan"}, "bike_id": "81753486b1d045181f1d6c728a71afd3"}, {"lat": 38.91919433333333, "is_disabled": 0, "lon": -77.0318425, "is_reserved": 0, "fusion_lon": 0.0, "fusion_lat": 0.0, "name": "92579a32caf5ea0d8b47a92ee1659f80", "type": "electric_scooter", "rental_uris": {"ios": "https://dc.lft.to/lastmile_qr_scan", "android": "https://dc.lft.to/lastmile_qr_scan"}, "bike_id": "92579a32caf5ea0d8b47a92ee1659f80"}, {"lat": 38.90409416666667, "is_disabled": 0, "lon": -77.04660033333333, "is_reserved": 0, "fusion_lon": 0.0, "fusion_lat": 0.0, "name": "2aea3907499ed441507f91b6b7390ab7", "type": "electric_scooter", "rental_uris": {"ios": "https://dc.lft.to/lastmile_qr_scan", "android": "https://dc.lft.to/lastmile_qr_scan"}, "bike_id": "2aea3907499ed441507f91b6b7390ab7"}, {"lat": 38.850662666666665, "is_disabled": 0, "lon": -76.95828966666667, "is_reserved": 0, "fusion_lon": 0.0, "fusion_lat": 0.0, "name": "ea8c60a11bcb9287b7d4ed0550a22041", "type": "electric_bike", "rental_uris": {"ios": "https://dc.lft.to/lastmile_qr_scan", "android": "https://dc.lft.to/lastmile_qr_scan"}, "bike_id": "ea8c60a11bcb9287b7d4ed0550a22041"}, {"lat": 38.907777833333334, "is_disabled": 0, "lon": -77.04217266666667, "is_reserved": 0, "fusion_lon": 0.0, "fusion_lat": 0.0, "name": "3de7aae8f4a7abbe46a96b681ca1c5b6", "type": "electric_scooter", "rental_uris": {"ios": "https://dc.lft.to/lastmile_qr_scan", "android": "https://dc.lft.to/lastmile_qr_scan"}, "bike_id": "3de7aae8f4a7abbe46a96b681ca1c5b6"}, {"lat": 38.918136, "is_disabled": 0, "lon": -77.0248055, "is_reserved": 0, "fusion_lon": 0.0, "fusion_lat": 0.0, "name": "88a4969ed41eeaeb6986db2f9145ce71", "type": "electric_scooter", "rental_uris": {"ios": "https://dc.lft.to/lastmile_qr_scan", "android": "https://dc.lft.to/lastmile_qr_scan"}, "bike_id": "88a4969ed41eeaeb6986db2f9145ce71"}, {"lat": 38.922114, "is_disabled": 0, "lon": -77.04238633333334, "is_reserved": 0, "fusion_lon": 0.0, "fusion_lat": 0.0, "name": "831a43119b40af0c9f2aff74f6cdd8fe", "type": "electric_scooter", "rental_uris": {"ios": "https://dc.lft.to/lastmile_qr_scan", "android": "https://dc.lft.to/lastmile_qr_scan"}, "bike_id": "831a43119b40af0c9f2aff74f6cdd8fe"}, {"lat": 38.909692, "is_disabled": 0, "lon": -77.04628816666667, "is_reserved": 0, "fusion_lon": 0.0, "fusion_lat": 0.0, "name": "f198ddbffbb81516f3372bddc18bde30", "type": "electric_scooter", "rental_uris": {"ios": "https://dc.lft.to/lastmile_qr_scan", "android": "https://dc.lft.to/lastmile_qr_scan"}, "bike_id": "f198ddbffbb81516f3372bddc18bde30"}, {"lat": 38.8984055, "is_disabled": 0, "lon": -77.01777666666666, "is_reserved": 0, "fusion_lon": 0.0, "fusion_lat": 0.0, "name": "72de2c48187f605b732e8a827c709e0d", "type": "electric_scooter", "rental_uris": {"ios": "https://dc.lft.to/lastmile_qr_scan", "android": "https://dc.lft.to/lastmile_qr_scan"}, "bike_id": "72de2c48187f605b732e8a827c709e0d"}, {"lat": 38.924134, "is_disabled": 0, "lon": -77.02131033333333, "is_reserved": 0, "fusion_lon": 0.0, "fusion_lat": 0.0, "name": "1720dc126be80238cb977ee211b41955", "type": "electric_scooter", "rental_uris": {"ios": "https://dc.lft.to/lastmile_qr_scan", "android": "https://dc.lft.to/lastmile_qr_scan"}, "bike_id": "1720dc126be80238cb977ee211b41955"}, {"lat": 38.89221666666667, "is_disabled": 0, "lon": -77.023707, "is_reserved": 0, "fusion_lon": 0.0, "fusion_lat": 0.0, "name": "10fc8e7a6108e4ddc05093d29a46eb2e", "type": "electric_scooter", "rental_uris": {"ios": "https://dc.lft.to/lastmile_qr_scan", "android": "https://dc.lft.to/lastmile_qr_scan"}, "bike_id": "10fc8e7a6108e4ddc05093d29a46eb2e"}, {"lat": 38.922083, "is_disabled": 0, "lon": -77.0203615, "is_reserved": 0, "fusion_lon": 0.0, "fusion_lat": 0.0, "name": "1e2fd6114f49729b55c0bfd98752ab66", "type": "electric_scooter", "rental_uris": {"ios": "https://dc.lft.to/lastmile_qr_scan", "android": "https://dc.lft.to/lastmile_qr_scan"}, "bike_id": "1e2fd6114f49729b55c0bfd98752ab66"}, {"lat": 38.91413266666667, "is_disabled": 0, "lon": -77.041833, "is_reserved": 0, "fusion_lon": 0.0, "fusion_lat": 0.0, "name": "d2257d118082b62c09f4ae36db960989", "type": "electric_scooter", "rental_uris": {"ios": "https://dc.lft.to/lastmile_qr_scan", "android": "https://dc.lft.to/lastmile_qr_scan"}, "bike_id": "d2257d118082b62c09f4ae36db960989"}, {"lat": 38.95299716666667, "is_disabled": 0, "lon": -77.02772433333334, "is_reserved": 0, "fusion_lon": 0.0, "fusion_lat": 0.0, "name": "6dfd699fe88fd72d7fa5c07348c069a8", "type": "electric_scooter", "rental_uris": {"ios": "https://dc.lft.to/lastmile_qr_scan", "android": "https://dc.lft.to/lastmile_qr_scan"}, "bike_id": "6dfd699fe88fd72d7fa5c07348c069a8"}, {"lat": 38.90974833333333, "is_disabled": 0, "lon": -77.035908, "is_reserved": 0, "fusion_lon": 0.0, "fusion_lat": 0.0, "name": "48efd6b688f6797d4b036eb1fae402cc", "type": "electric_scooter", "rental_uris": {"ios": "https://dc.lft.to/lastmile_qr_scan", "android": "https://dc.lft.to/lastmile_qr_scan"}, "bike_id": "48efd6b688f6797d4b036eb1fae402cc"}, {"lat": 38.94879866666667, "is_disabled": 0, "lon": -77.06447583333333, "is_reserved": 0, "fusion_lon": 0.0, "fusion_lat": 0.0, "name": "f4d646d1ed717d971a89eab7146759e9", "type": "electric_scooter", "rental_uris": {"ios": "https://dc.lft.to/lastmile_qr_scan", "android": "https://dc.lft.to/lastmile_qr_scan"}, "bike_id": "f4d646d1ed717d971a89eab7146759e9"}, {"lat": 38.88597983333333, "is_disabled": 0, "lon": -76.92503133333334, "is_reserved": 0, "fusion_lon": 0.0, "fusion_lat": 0.0, "name": "ab607458a59f4a53375ed9ae83f309b5", "type": "electric_scooter", "rental_uris": {"ios": "https://dc.lft.to/lastmile_qr_scan", "android": "https://dc.lft.to/lastmile_qr_scan"}, "bike_id": "ab607458a59f4a53375ed9ae83f309b5"}, {"lat": 38.892257666666666, "is_disabled": 0, "lon": -77.04500533333334, "is_reserved": 0, "fusion_lon": 0.0, "fusion_lat": 0.0, "name": "d8c5ec254a8d816d8f2c6469ba7451f4", "type": "electric_scooter", "rental_uris": {"ios": "https://dc.lft.to/lastmile_qr_scan", "android": "https://dc.lft.to/lastmile_qr_scan"}, "bike_id": "d8c5ec254a8d816d8f2c6469ba7451f4"}, {"lat": 38.906494, "is_disabled": 0, "lon": -77.01688616666667, "is_reserved": 0, "fusion_lon": 0.0, "fusion_lat": 0.0, "name": "1cc16b5c9afb10c7dba89faf2fd23583", "type": "electric_scooter", "rental_uris": {"ios": "https://dc.lft.to/lastmile_qr_scan", "android": "https://dc.lft.to/lastmile_qr_scan"}, "bike_id": "1cc16b5c9afb10c7dba89faf2fd23583"}, {"lat": 38.90226283333333, "is_disabled": 0, "lon": -77.02815216666667, "is_reserved": 0, "fusion_lon": 0.0, "fusion_lat": 0.0, "name": "f9181729bd8011330d82c045582b6f83", "type": "electric_scooter", "rental_uris": {"ios": "https://dc.lft.to/lastmile_qr_scan", "android": "https://dc.lft.to/lastmile_qr_scan"}, "bike_id": "f9181729bd8011330d82c045582b6f83"}, {"lat": 38.8873765, "is_disabled": 0, "lon": -77.02825466666667, "is_reserved": 0, "fusion_lon": 0.0, "fusion_lat": 0.0, "name": "0d3a194dc8eba96dce68bf35f13f229a", "type": "electric_scooter", "rental_uris": {"ios": "https://dc.lft.to/lastmile_qr_scan", "android": "https://dc.lft.to/lastmile_qr_scan"}, "bike_id": "0d3a194dc8eba96dce68bf35f13f229a"}, {"lat": 38.898129, "is_disabled": 0, "lon": -77.03076466666667, "is_reserved": 0, "fusion_lon": 0.0, "fusion_lat": 0.0, "name": "d52897c26ed11f9ac1cae2ffd35a25c1", "type": "electric_scooter", "rental_uris": {"ios": "https://dc.lft.to/lastmile_qr_scan", "android": "https://dc.lft.to/lastmile_qr_scan"}, "bike_id": "d52897c26ed11f9ac1cae2ffd35a25c1"},