{"data": {"bikes": [{"bike_id": "af6476dd342fea4f3d385f82d0b2a8d8", "is_reserved": 0, "name": "af6476dd342fea4f3d385f82d0b2a8d8", "lat": 38.89468333333333, "fusion_lat": 0.0, "lon": -77.017648, "is_disabled": 0, "fusion_lon": 0.0, "rental_uris": {"android": "https://dc.lft.to/lastmile_qr_scan", "ios": "https://dc.lft.to/lastmile_qr_scan"}, "type": "electric_scooter"}, {"bike_id": "d8e644508f898495ceafb187173a3b65", "is_reserved": 0, "name": "d8e644508f898495ceafb187173a3b65", "lat": 38.90779533333333, "fusion_lat": 0.0, "lon": -76.99390833333334, "is_disabled": 0, "fusion_lon": 0.0, "rental_uris": {"android": "https://dc.lft.to/lastmile_qr_scan", "ios": "https://dc.lft.to/lastmile_qr_scan"}, "type": "electric_scooter"}, {"bike_id": "ebe5890f894b525d95a329d4d786413d", "is_reserved": 0, "name": "ebe5890f894b525d95a329d4d786413d", "lat": 38.89747783333333, "fusion_lat": 0.0, "lon": -77.03002033333334, "is_disabled": 0, "fusion_lon": 0.0, "rental_uris": {"android": "https://dc.lft.to/lastmile_qr_scan", "ios": "https://dc.lft.to/lastmile_qr_scan"}, "type": "electric_scooter"}, {"bike_id": "7031a7465b06e900a85b50b442e579fb", "is_reserved": 0, "name": "7031a7465b06e900a85b50b442e579fb", "lat": 38.894782, "fusion_lat": 0.0, "lon": -77.00312533333333, "is_disabled": 0, "fusion_lon": 0.0, "rental_uris": {"android": "https://dc.lft.to/lastmile_qr_scan", "ios": "https://dc.lft.to/lastmile_qr_scan"}, "type": "electric_scooter"}, {"bike_id": "7813662adad0c6a5f755652788ae7c27", "is_reserved": 0, "name": "7813662adad0c6a5f755652788ae7c27", "lat": 38.9176155, "fusion_lat": 0.0, "lon": -77.06951833333333, "is_disabled": 0, "fusion_lon": 0.0, "rental_uris": {"android": "https://dc.lft.to/lastmile_qr_scan", "ios": "https://dc.lft.to/lastmile_qr_scan"}, "type": "electric_scooter"}, {"bike_id": "0ca00df2b107904c0ab5a6cc6fa96626", "is_reserved": 0, "name": "0ca00df2b107904c0ab5a6cc6fa96626", "lat": 38.8929735, "fusion_lat": 0.0, "lon": -77.03186066666666, "is_disabled": 0, "fusion_lon": 0.0, "rental_uris": {"android": "https://dc.lft.to/lastmile_qr_scan", "ios": "https://dc.lft.to/lastmile_qr_scan"}, "type": "electric_scooter"}, {"bike_id": "c36e0d46a2d604f20b86417fed9bfb11", "is_reserved": 0, "name": "c36e0d46a2d604f20b86417fed9bfb11", "lat": 38.87459833333333, "fusion_lat": 0.0, "lon": -77.0004685, "is_disabled": 0, "fusion_lon": 0.0, "rental_uris": {"android": "https://dc.lft.to/lastmile_qr_scan", "ios": "https://dc.lft.to/lastmile_qr_scan"}, "type": "electric_scooter"}, {"bike_id": "4f357b988f6035b56a1949915c22f707", "is_reserved": 0, "name": "4f357b988f6035b56a1949915c22f707", "lat": 38.915459, "fusion_lat": 0.0, "lon": -77.038607, "is_disabled": 0, "fusion_lon": 0.0, "rental_uris": {"android": "https://dc.lft.to/lastmile_qr_scan", "ios": "https://dc.lft.to/lastmile_qr_scan"}, "type": "electric_scooter"}, {"bike_id": "12248b1cfa3159e2651a89847488d8b7", "is_reserved": 0, "name": "12248b1cfa3159e2651a89847488d8b7", "lat": 38.895556166666665, "fusion_lat": 0.0, "lon": -76.94872916666667, "is_disabled": 0, "fusion_lon": 0.0, "rental_uris": {"android": "https://dc.lft.to/lastmile_qr_scan", "ios": "https://dc.lft.to/lastmile_qr_scan"}, "type": "electric_scooter"}, {"bike_id": "e080ed1480d31dacacdb9fceeb5196a5", "is_reserved": 0, "name": "e080ed1480d31dacacdb9fceeb5196a5", "lat": 38.932362166666664, "fusion_lat": 0.0, "lon": -76.9952395, "is_disabled": 0, "fusion_lon": 0.0, "rental_uris": {"android": "https://dc.lft.to/lastmile_qr_scan", "ios": "https://dc.lft.to/lastmile_qr_scan"}, "type": "electric_scooter"}, {"bike_id": "473946ca33f33faa1b1f939779645b16", "is_reserved": 0, "name": "473946ca33f33faa1b1f939779645b16", "lat": 38.9311405, "fusion_lat": 0.0, "lon": -77.02095533333333, "is_disabled": 0, "fusion_lon": 0.0, "rental_uris": {"android": "https://dc.lft.to/lastmile_qr_scan", "ios": "https://dc.lft.to/lastmile_qr_scan"}, "type": "electric_scooter"}, {"bike_id": "61ab4643fcb4ed4b5e07fa3f7dd71d0c", "is_reserved": 0, "name": "61ab4643fcb4ed4b5e07fa3f7dd71d0c", "lat": 38.926467333333335, "fusion_lat": 0.0, "lon": -77.04142666666667, "is_disabled": 0, "fusion_lon": 0.0, "rental_uris": {"android": "https://dc.lft.to/lastmile_qr_scan", "ios": "https://dc.lft.to/lastmile_qr_scan"}, "type": "electric_scooter"}, {"bike_id": "2c3d85043897fadbfa3216001b9c53f2", "is_reserved": 0, "name": "2c3d85043897fadbfa3216001b9c53f2", "lat": 38.873735333333336, "fusion_lat": 0.0, "lon": -77.00062233333334, "is_disabled": 0, "fusion_lon": 0.0, "rental_uris": {"android": "https://dc.lft.to/lastmile_qr_scan", "ios": "https://dc.lft.to/lastmile_qr_scan"}, "type": "electric_scooter"}, {"bike_id": "37682e32aba2dbaeee124f2489842543", "is_reserved": 0, "name": "37682e32aba2dbaeee124f2489842543", "lat": 38.9235255, "fusion_lat": 0.0, "lon": -77.03315683333334, "is_disabled": 0, "fusion_lon": 0.0, "rental_uris": {"android": "https://dc.lft.to/lastmile_qr_scan", "ios": "https://dc.lft.to/lastmile_qr_scan"}, "type": "electric_scooter"}, {"bike_id": "90e88a7ef011bcf1e03e18720f09bf3d", "is_reserved": 0, "name": "90e88a7ef011bcf1e03e18720f09bf3d", "lat": 38.91024216666667, "fusion_lat": 0.0, "lon": -77.04257416666667, "is_disabled": 0, "fusion_lon": 0.0, "rental_uris": {"android": "https://dc.lft.to/lastmile_qr_scan", "ios": "https://dc.lft.to/lastmile_qr_scan"}, "type": "electric_scooter"}, {"bike_id": "13383d521b7666036c8ec21cf340c9fb", "is_reserved": 0, "name": "13383d521b7666036c8ec21cf340c9fb", "lat": 38.91024483333333, "fusion_lat": 0.0, "lon": -76.99723466666667, "is_disabled": 0, "fusion_lon": 0.0, "rental_uris": {"android": "https://dc.lft.to/lastmile_qr_scan", "ios": "https://dc.lft.to/lastmile_qr_scan"}, "type": "electric_scooter"}, {"bike_id": "94c832612f7b783ce28c7152ca2c6783", "is_reserved": 0, "name": "94c832612f7b783ce28c7152ca2c6783", "lat": 38.91818583333333, "fusion_lat": 0.0, "lon": -77.03178866666667, "is_disabled": 0, "fusion_lon": 0.0, "rental_uris": {"android": "https://dc.lft.to/lastmile_qr_scan", "ios": "https://dc.lft.to/lastmile_qr_scan"}, "type": "electric_scooter"}, {"bike_id": "426424eb5b7e5c47a5b4f1d9e703c280", "is_reserved": 0, "name": "426424eb5b7e5c47a5b4f1d9e703c280", "lat": 38.902196333333336, "fusion_lat": 0.0, "lon": -77.0161505, "is_disabled": 0, "fusion_lon": 0.0, "rental_uris": {"android": "https://dc.lft.to/lastmile_qr_scan", "ios": "https://dc.lft.to/lastmile_qr_scan"}, "type": "electric_scooter"}, {"bike_id": "2cf3077eca78a06a0d929bf29918092e", "is_reserved": 0, "name": "2cf3077eca78a06a0d929bf29918092e", "lat": 38.8964535, "fusion_lat": 0.0, "lon": -77.02596216666667, "is_disabled": 0, "fusion_lon": 0.0, "rental_uris": {"android": "https://dc.lft.to/lastmile_qr_scan", "ios": "https://dc.lft.to/lastmile_qr_scan"}, "type": "electric_scooter"}, {"bike_id": "de63303b9101bd813d36df81ced43ce8", "is_reserved": 0, "name": "de63303b9101bd813d36df81ced43ce8", "lat": 38.876486666666665, "fusion_lat": 0.0, "lon": -77.000705, "is_disabled": 0, "fusion_lon": 0.0, "rental_uris": {"android": "https://dc.lft.to/lastmile_qr_scan", "ios": "https://dc.lft.to/lastmile_qr_scan"}, "type": "electric_scooter"}, {"bike_id": "31e444435fbd536d9bf1a81c4648758c", "is_reserved": 0, "name": "31e444435fbd536d9bf1a81c4648758c", "lat": 38.9017535, "fusion_lat": 0.0, "lon": -77.02473416666666, "is_disabled": 0, "fusion_lon": 0.0, "rental_uris": {"android": "https://dc.lft.to/lastmile_qr_scan", "ios": "https://dc.lft.to/lastmile_qr_scan"}, "type": "electric_scooter"}, {"bike_id": "8e9b2f75f171533ef642528a5c06a220", "is_reserved": 0, "name": "8e9b2f75f171533ef642528a5c06a220", "lat": 38.921518, "fusion_lat": 0.0, "lon": -76.99360133333333, "is_disabled": 0, "fusion_lon": 0.0, "rental_uris": {"android": "https://dc.lft.to/lastmile_qr_scan", "ios": "https://dc.lft.to/lastmile_qr_scan"}, "type": "electric_scooter"}, {"bike_id": "db5eaecdfa46727da574ecd112fec816", "is_reserved": 0, "name": "db5eaecdfa46727da574ecd112fec816", "lat": 38.9238775, "fusion_lat": 0.0, "lon": -77.03530716666667, "is_disabled": 0, "fusion_lon": 0.0, "rental_uris": {"android": "https://dc.lft.to/lastmile_qr_scan", "ios": "https://dc.lft.to/lastmile_qr_scan"}, "type": "electric_scooter"}, {"bike_id": "641f9dd357512eaee447bfcf951f1037", "is_reserved": 0, "name": "641f9dd357512eaee447bfcf951f1037", "lat": 38.917455833333335, "fusion_lat": 0.0, "lon": -77.0415585, "is_disabled": 0, "fusion_lon": 0.0, "rental_uris": {"android": "https://dc.lft.to/lastmile_qr_scan", "ios": "https://dc.lft.to/lastmile_qr_scan"}, "type": "electric_scooter"}, {"bike_id": "5c04c3e56ad1d8ea65ad08a4b4c4adbb", "is_reserved": 0, "name": "5c04c3e56ad1d8ea65ad08a4b4c4adbb", "lat": 38.90741466666667, "fusion_lat": 0.0, "lon": -77.04321283333333, "is_disabled": 0, "fusion_lon": 0.0, "rental_uris": {"android": "https://dc.lft.to/lastmile_qr_scan", "ios": "https://dc.lft.to/lastmile_qr_scan"}, "type": "electric_scooter"}, {"bike_id": "f08c3d42adf1f05233abd26f9bc4c330", "is_reserved": 0, "name": "f08c3d42adf1f05233abd26f9bc4c330", "lat": 38.903740166666665, "fusion_lat": 0.0, "lon": -77.03196833333334, "is_disabled": 0, "fusion_lon": 0.0, "rental_uris": {"android": "https://dc.lft.to/lastmile_qr_scan", "ios": "https://dc.lft.to/lastmile_qr_scan"}, "type": "electric_scooter"}, {"bike_id": "434eaa3d69f05d60bcb8cf322b77a319", "is_reserved": 0, "name": "434eaa3d69f05d60bcb8cf322b77a319", "lat": 38.9006145, "fusion_lat": 0.0, "lon": -76.93387866666667, "is_disabled": 0, "fusion_lon": 0.0, "rental_uris": {"android": "https://dc.lft.to/lastmile_qr_scan", "ios": "https://dc.lft.to/lastmile_qr_scan"}, "type": "electric_scooter"}, {"bike_id": "b277c44867628739095b5ee99aab4fc9", "is_reserved": 0, "name": "b277c44867628739095b5ee99aab4fc9", "lat": 38.9225195, "fusion_lat": 0.0, "lon": -77.01953216666666, "is_disabled": 0, "fusion_lon": 0.0, "rental_uris": {"android": "https://dc.lft.to/lastmile_qr_scan", "ios": "https://dc.lft.to/lastmile_qr_scan"}, "type": "electric_scooter"}, {"bike_id": "96711f0e04f4d734a859693232f7608f", "is_reserved": 0, "name": "96711f0e04f4d734a859693232f7608f", "lat": 38.877355, "fusion_lat": 0.0, "lon": -77.00577033333333, "is_disabled": 0, "fusion_lon": 0.0, "rental_uris": {"android": "https://dc.lft.to/lastmile_qr_scan", "ios": "https://dc.lft.to/lastmile_qr_scan"}, "type": "electric_scooter"}, {"bike_id": "fe5012427d9bb1f4e6186a0a48a27196", "is_reserved": 0, "name": "fe5012427d9bb1f4e6186a0a48a27196", "lat": 38.90511883333333, "fusion_lat": 0.0, "lon": -77.04826783333333, "is_disabled": 0, "fusion_lon": 0.0, "rental_uris": {"android": "https://dc.lft.to/lastmile_qr_scan", "ios": "https://dc.lft.to/lastmile_qr_scan"}, "type": "electric_scooter"}, {"bike_id": "247fb12edf3d1033b8a0a4133299120d", "is_reserved": 0, "name": "247fb12edf3d1033b8a0a4133299120d", "lat": 38.89746266666667, "fusion_lat": 0.0, "lon": -77.0273735, "is_disabled": 0, "fusion_lon": 0.0, "rental_uris": {"android": "https://dc.lft.to/lastmile_qr_scan", "ios": "https://dc.lft.to/lastmile_qr_scan"}, "type": "electric_scooter"}, {"bike_id": "1d2b9b5c6d8dda9f9ab12200cd79a910", "is_reserved": 0, "name": "1d2b9b5c6d8dda9f9ab12200cd79a910", "lat": 38.91876116666667, "fusion_lat": 0.0, "lon": -77.035111, "is_disabled": 0, "fusion_lon": 0.0, "rental_uris": {"android": "https://dc.lft.to/lastmile_qr_scan", "ios": "https://dc.lft.to/lastmile_qr_scan"}, "type": "electric_scooter"}, {"bike_id": "3886e3b6475b890297c5b2045097d0ff", "is_reserved": 0, "name": "3886e3b6475b890297c5b2045097d0ff", "lat": 38.89830583333333, "fusion_lat": 0.0, "lon": -76.946371, "is_disabled": 0, "fusion_lon": 0.0, "rental_uris": {"android": "https://dc.lft.to/lastmile_qr_scan", "ios": "https://dc.lft.to/lastmile_qr_scan"}, "type": "electric_scooter"}, {"bike_id": "818cdd37bdd5e918bd7014c96aec1b4d", "is_reserved": 0, "name": "818cdd37bdd5e918bd7014c96aec1b4d", "lat": 38.917199333333336, "fusion_lat": 0.0, "lon": -77.0304645, "is_disabled": 0, "fusion_lon": 0.0, "rental_uris": {"android": "https://dc.lft.to/lastmile_qr_scan", "ios": "https://dc.lft.to/lastmile_qr_scan"}, "type": "electric_scooter"}, {"bike_id": "00d0c74d887bcdca506dfb7ef778df91", "is_reserved": 0, "name": "00d0c74d887bcdca506dfb7ef778df91", "lat": 38.938972, "fusion_lat": 0.0, "lon": -77.08491933333333, "is_disabled": 0, "fusion_lon": 0.0, "rental_uris": {"android": "https://dc.lft.to/lastmile_qr_scan", "ios": "https://dc.lft.to/lastmile_qr_scan"}, "type": "electric_scooter"}, {"bike_id": "e29d2a272f6395a6aef1838fda42c92e", "is_reserved": 0, "name": "e29d2a272f6395a6aef1838fda42c92e", "lat": 38.847544666666664, "fusion_lat": 0.0, "lon": -76.99500066666667, "is_disabled": 0, "fusion_lon": 0.0, "rental_uris": {"android": "https://dc.lft.to/lastmile_qr_scan", "ios": "https://dc.lft.to/lastmile_qr_scan"}, "type": "electric_scooter"}, {"bike_id": "8ce02abe166956cd5942d76e795060df", "is_reserved": 0, "name": "8ce02abe166956cd5942d76e795060df", "lat": 38.910067, "fusion_lat": 0.0, "lon": -77.04910966666667, "is_disabled": 0, "fusion_lon": 0.0, "rental_uris": {"android": "https://dc.lft.to/lastmile_qr_scan", "ios": "https://dc.lft.to/lastmile_qr_scan"}, "type": "electric_scooter"}, {"bike_id": "140ada1fedb96c72141cf951185f7d29", "is_reserved": 0, "name": "140ada1fedb96c72141cf951185f7d29", "lat": 38.92222816666666, "fusion_lat": 0.0, "lon": -77.0212215, "is_disabled": 0, "fusion_lon": 0.0, "rental_uris": {"android": "https://dc.lft.to/lastmile_qr_scan", "ios": "https://dc.lft.to/lastmile_qr_scan"}, "type": "electric_scooter"}, {"bike_id": "0f9b63bd041e892ecb53620b989b23b2", "is_reserved": 0, "name": "0f9b63bd041e892ecb53620b989b23b2", "lat": 38.920637666666664, "fusion_lat": 0.0, "lon": -77.0419465, "is_disabled": 0, "fusion_lon": 0.0, "rental_uris": {"android": "https://dc.lft.to/lastmile_qr_scan", "ios": "https://dc.lft.to/lastmile_qr_scan"}, "type": "electric_scooter"}, {"bike_id": "d4e999e7444a8018568872123d7ff2fc", "is_reserved": 0, "name": "d4e999e7444a8018568872123d7ff2fc", "lat": 38.895483666666664, "fusion_lat": 0.0, "lon": -76.98098366666666, "is_disabled": 0, "fusion_lon": 0.0, "rental_uris": {"android": "https://dc.lft.to/lastmile_qr_scan", "ios": "https://dc.lft.to/lastmile_qr_scan"}, "type": "electric_scooter"}, {"bike_id": "95ca27cdff3a8032e08a1ef1da2626d3", "is_reserved": 0, "name": "95ca27cdff3a8032e08a1ef1da2626d3", "lat": 38.923440666666664, "fusion_lat": 0.0, "lon": -77.051788, "is_disabled": 0, "fusion_lon": 0.0, "rental_uris": {"android": "https://dc.lft.to/lastmile_qr_scan", "ios": "https://dc.lft.to/lastmile_qr_scan"}, "type": "electric_scooter"}, {"bike_id": "645f525c23a59f449b5ebf6e6ccf3c43", "is_reserved": 0, "name": "645f525c23a59f449b5ebf6e6ccf3c43", "lat": 38.908842166666666, "fusion_lat": 0.0, "lon": -77.0386435, "is_disabled": 0, "fusion_lon": 0.0, "rental_uris": {"android": "https://dc.lft.to/lastmile_qr_scan", "ios": "https://dc.lft.to/lastmile_qr_scan"}, "type": "electric_scooter"}, {"bike_id": "286c722270ce5df3a09a31f310ea69b1", "is_reserved": 0, "name": "286c722270ce5df3a09a31f310ea69b1", "lat": 38.887451666666664, "fusion_lat": 0.0, "lon": -77.02782083333334, "is_disabled": 0, "fusion_lon": 0.0, "rental_uris": {"android": "https://dc.lft.to/lastmile_qr_scan", "ios": "https://dc.lft.to/lastmile_qr_scan"}, "type": "electric_scooter"}, {"bike_id": "63390a4d0e6a4cd0e0e181fff30c3c47", "is_reserved": 0, "name": "63390a4d0e6a4cd0e0e181fff30c3c47", "lat": 38.903435333333334, "fusion_lat": 0.0, "lon": -77.06283583333334, "is_disabled": 0, "fusion_lon": 0.0, "rental_uris": {"android": "https://dc.lft.to/lastmile_qr_scan", "ios": "https://dc.lft.to/lastmile_qr_scan"}, "type": "electric_scooter"}, {"bike_id": "79db35f58ad5247aaede0c267e284c98", "is_reserved": 0, "name": "79db35f58ad5247aaede0c267e284c98", "lat": 38.927581833333335, "fusion_lat": 0.0, "lon": -77.03277833333334, "is_disabled": 0, "fusion_lon": 0.0, "rental_uris": {"android": "https://dc.lft.to/lastmile_qr_scan", "ios": "https://dc.lft.to/lastmile_qr_scan"}, "type": "electric_scooter"}, {"bike_id": "7de1fa6fee7ce120a14905292d1957bd", "is_reserved": 0, "name": "7de1fa6fee7ce120a14905292d1957bd", "lat": 38.864678, "fusion_lat": 0.0, "lon": -77.01268783333333, "is_disabled": 0, "fusion_lon": 0.0, "rental_uris": {"android": "https://dc.lft.to/lastmile_qr_scan", "ios": "https://dc.lft.to/lastmile_qr_scan"}, "type": "electric_bike"}, {"bike_id": "301944a51e959c277b25eadadfccd29d", "is_reserved": 0, "name": "301944a51e959c277b25eadadfccd29d", "lat": 38.901374833333335, "fusion_lat": 0.0, "lon": -77.02614916666667, "is_disabled": 0, "fusion_lon": 0.0, "rental_uris": {"android": "https://dc.lft.to/lastmile_qr_scan", "ios": "https://dc.lft.to/lastmile_qr_scan"}, "type": "electric_scooter"}, {"bike_id": "707ca6c1b976abd2e138429e1306dc53", "is_reserved": 0, "name": "707ca6c1b976abd2e138429e1306dc53", "lat": 39.05252983333333, "fusion_lat": 0.0, "lon": -77.080685, "is_disabled": 0, "fusion_lon": 0.0, "rental_uris": {"android": "https://dc.lft.to/lastmile_qr_scan", "ios": "https://dc.lft.to/lastmile_qr_scan"}, "type": "electric_bike"}, {"bike_id": "cdd195f21dc221f7e5c89fd5685fd587", "is_reserved": 0, "name": "cdd195f21dc221f7e5c89fd5685fd587", "lat": 38.89502983333333, "fusion_lat": 0.0, "lon": -77.03958066666667, "is_disabled": 0, "fusion_lon": 0.0, "rental_uris": {"android": "https://dc.lft.to/lastmile_qr_scan", "ios": "https://dc.lft.to/lastmile_qr_scan"}, "type": "electric_scooter"}, {"bike_id": "e338c82519891e4b4f2ea9ac9772beee", "is_reserved": 0, "name": "e338c82519891e4b4f2ea9ac9772beee", "lat": 38.922455166666666, "fusion_lat": 0.0, "lon": -77.019289, "is_disabled": 0, "fusion_lon": 0.0, "rental_uris": {"android": "https://dc.lft.to/lastmile_qr_scan", "ios": "https://dc.lft.to/lastmile_qr_scan"}, "type": "electric_scooter"}, {"bike_id": "7dcc17795556282d4ef5e359e1b0fe68", "is_reserved": 0, "name": "7dcc17795556282d4ef5e359e1b0fe68", "lat": 38.90030933333333, "fusion_lat": 0.0, "lon": -77.01638366666667, "is_disabled": 0, "fusion_lon": 0.0, "rental_uris": {"android": "https://dc.lft.to/lastmile_qr_scan", "ios": "https://dc.lft.to/lastmile_qr_scan"}, "type": "electric_scooter"}, {"bike_id": "c43e9dee82d57c8bf853af164cf7a4e5", "is_reserved": 0, "name": "c43e9dee82d57c8bf853af164cf7a4e5", "lat": 38.90376166666667, "fusion_lat": 0.0, "lon": -77.03451033333333, "is_disabled": 0, "fusion_lon": 0.0, "rental_uris": {"android": "https://dc.lft.to/lastmile_qr_scan", "ios": "https://dc.lft.to/lastmile_qr_scan"}, "type": "electric_scooter"}, {"bike_id": "3beb35e9d2b6ead1089eea008632e920", "is_reserved": 0, "name": "3beb35e9d2b6ead1089eea008632e920", "lat": 38.923437666666665, "fusion_lat": 0.0, "lon": -77.05175633333333, "is_disabled": 0, "fusion_lon": 0.0, "rental_uris": {"android": "https://dc.lft.to/lastmile_qr_scan", "ios": "https://dc.lft.to/lastmile_qr_scan"}, "type": "electric_scooter"}, {"bike_id": "727528cc53c585ae8412622f228c6f69", "is_reserved": 0, "name": "727528cc53c585ae8412622f228c6f69", "lat": 38.926690666666666, "fusion_lat": 0.0, "lon": -77.03227833333334, "is_disabled": 0, "fusion_lon": 0.0, "rental_uris": {"android": "https://dc.lft.to/lastmile_qr_scan", "ios": "https://dc.lft.to/lastmile_qr_scan"}, "type": "electric_scooter"}, {"bike_id": "1aa288e81941923c24db85307ce2e300", "is_reserved": 0, "name": "1aa288e81941923c24db85307ce2e300", "lat": 38.903655, "fusion_lat": 0.0, "lon": -77.0309275, "is_disabled": 0, "fusion_lon": 0.0, "rental_uris": {"android": "https://dc.lft.to/lastmile_qr_scan", "ios": "https://dc.lft.to/lastmile_qr_scan"}, "type": "electric_scooter"}, {"bike_id": "76c54fca29b3503250a522a1d2c93130", "is_reserved": 0, "name": "76c54fca29b3503250a522a1d2c93130", "lat": 38.9010015, "fusion_lat": 0.0, "lon": -76.99382183333333, "is_disabled": 0, "fusion_lon": 0.0, "rental_uris": {"android": "https://dc.lft.to/lastmile_qr_scan", "ios": "https://dc.lft.to/lastmile_qr_scan"}, "type": "electric_scooter"}, {"bike_id": "be680ba81491666d5c7074401974013d", "is_reserved": 0, "name": "be680ba81491666d5c7074401974013d", "lat": 38.89799583333333, "fusion_lat": 0.0, "lon": -77.00598233333334, "is_disabled": 0, "fusion_lon": 0.0, "rental_uris": {"android": "https://dc.lft.to/lastmile_qr_scan", "ios": "https://dc.lft.to/lastmile_qr_scan"}, "type": "electric_bike"}, {"bike_id": "bed7a707d868a48505f30f04938a6f4c", "is_reserved": 0, "name": "bed7a707d868a48505f30f04938a6f4c", "lat": 38.865156666666664, "fusion_lat": 0.0, "lon": -77.12936866666666, "is_disabled": 0, "fusion_lon": 0.0, "rental_uris": {"android": "https://dc.lft.to/lastmile_qr_scan", "ios": "https://dc.lft.to/lastmile_qr_scan"}, "type": "electric_bike"}, {"bike_id": "0a366c33fad003d0e566a33fba31d58c", "is_reserved": 0, "name": "0a366c33fad003d0e566a33fba31d58c", "lat": 38.907134666666664, "fusion_lat": 0.0, "lon": -77.03215866666666, "is_disabled": 0, "fusion_lon": 0.0, "rental_uris": {"android": "https://dc.lft.to/lastmile_qr_scan", "ios": "https://dc.lft.to/lastmile_qr_scan"}, "type": "electric_scooter"}, {"bike_id": "28409b6718933d2b8fb6cbac1e1a69dd", "is_reserved": 0, "name": "28409b6718933d2b8fb6cbac1e1a69dd", "lat": 38.905682666666664, "fusion_lat": 0.0, "lon": -77.0169825, "is_disabled": 0, "fusion_lon": 0.0, "rental_uris": {"android": "https://dc.lft.to/lastmile_qr_scan", "ios": "https://dc.lft.to/lastmile_qr_scan"}, "type": "electric_scooter"}, {"bike_id": "b99f23ee811c7aba2fd8a5a6285d0def", "is_reserved": 0, "name": "b99f23ee811c7aba2fd8a5a6285d0def", "lat": 38.88727133333333, "fusion_lat": 0.0, "lon": -77.0317885, "is_disabled": 0, "fusion_lon": 0.0, "rental_uris": {"android": "https://dc.lft.to/lastmile_qr_scan", "ios": "https://dc.lft.to/lastmile_qr_scan"}, "type": "electric_scooter"}, {"bike_id": "53cff539c4247fd2dfb9f491940b146a", "is_reserved": 0, "name": "53cff539c4247fd2dfb9f491940b146a", "lat": 38.90264233333333, "fusion_lat": 0.0, "lon": -77.03827933333334, "is_disabled": 0, "fusion_lon": 0.0, "rental_uris": {"android": "https://dc.lft.to/lastmile_qr_scan", "ios": "https://dc.lft.to/lastmile_qr_scan"}, "type": "electric_scooter"}, {"bike_id": "aefceb647a748839d05ec39d1ff1d994", "is_reserved": 0, "name": "aefceb647a748839d05ec39d1ff1d994", "lat": 38.90138116666667, "fusion_lat": 0.0, "lon": -77.04428916666667, "is_disabled": 0, "fusion_lon": 0.0, "rental_uris": {"android": "https://dc.lft.to/lastmile_qr_scan", "ios": "https://dc.lft.to/lastmile_qr_scan"}, "type": "electric_scooter"}, {"bike_id": "1a6d45736d58d41c69465de0e723c3b0", "is_reserved": 0, "name": "1a6d45736d58d41c69465de0e723c3b0", "lat": 38.903637833333335, "fusion_lat": 0.0, "lon": -77.00567733333334, "is_disabled": 0, "fusion_lon": 0.0, "rental_uris": {"android": "https://dc.lft.to/lastmile_qr_scan", "ios": "https://dc.lft.to/lastmile_qr_scan"}, "type": "electric_scooter"}, {"bike_id": "4e3a9224fa5778b30abf574d0cc8fa29", "is_reserved": 0, "name": "4e3a9224fa5778b30abf574d0cc8fa29", "lat": 38.917583, "fusion_lat": 0.0, "lon": -77.02281283333333, "is_disabled": 0, "fusion_lon": 0.0, "rental_uris": {"android": "https://dc.lft.to/lastmile_qr_scan", "ios": "https://dc.lft.to/lastmile_qr_scan"}, "type": "electric_scooter"}, {"bike_id": "0125ef364a9cb7365dad80b0de9fe3c5", "is_reserved": 0, "name": "0125ef364a9cb7365dad80b0de9fe3c5", "lat": 38.91479016666667, "fusion_lat": 0.0, "lon": -77.025814, "is_disabled": 0, "fusion_lon": 0.0, "rental_uris": {"android": "https://dc.lft.to/lastmile_qr_scan", "ios": "https://dc.lft.to/lastmile_qr_scan"}, "type": "electric_scooter"}, {"bike_id": "b2e0929a4046220aa4ab98ae7923ad17", "is_reserved": 0, "name": "b2e0929a4046220aa4ab98ae7923ad17", "lat": 38.92821416666666, "fusion_lat": 0.0, "lon": -77.02258383333333, "is_disabled": 0, "fusion_lon": 0.0, "rental_uris": {"android": "https://dc.lft.to/lastmile_qr_scan", "ios": "https://dc.lft.to/lastmile_qr_scan"}, "type": "electric_scooter"}, {"bike_id": "d1ecd6c4aaa3092721b60ac94ddb88b1", "is_reserved": 0, "name": "d1ecd6c4aaa3092721b60ac94ddb88b1", "lat": 38.902712333333334, "fusion_lat": 0.0, "lon": -76.92903633333333, "is_disabled": 0, "fusion_lon": 0.0, "rental_uris": {"android": "https://dc.lft.to/lastmile_qr_scan", "ios": "https://dc.lft.to/lastmile_qr_scan"}, "type": "electric_scooter"}, {"bike_id": "efc4e740609ad9366e6b89c67acdef24", "is_reserved": 0, "name": "efc4e740609ad9366e6b89c67acdef24", "lat": 38.92598666666667, "fusion_lat": 0.0, "lon": -77.0215555, "is_disabled": 0, "fusion_lon": 0.0, "rental_uris": {"android": "https://dc.lft.to/lastmile_qr_scan", "ios": "https://dc.lft.to/lastmile_qr_scan"}, "type": "electric_scooter"}, {"bike_id": "277b2d826be88d4d47379481f1a7ce23", "is_reserved": 0, "name": "277b2d826be88d4d47379481f1a7ce23", "lat": 38.90390433333334, "fusion_lat": 0.0, "lon": -77.06013866666666, "is_disabled": 0, "fusion_lon": 0.0, "rental_uris": {"android": "https://dc.lft.to/lastmile_qr_scan", "ios": "https://dc.lft.to/lastmile_qr_scan"}, "type": "electric_scooter"}, {"bike_id": "53c4d44bd764d61d8ddd1d4d989dd559", "is_reserved": 0, "name": "53c4d44bd764d61d8ddd1d4d989dd559", "lat": 38.900450666666664, "fusion_lat": 0.0, "lon": -77.00203933333333, "is_disabled": 0, "fusion_lon": 0.0, "rental_uris": {"android": "https://dc.lft.to/lastmile_qr_scan", "ios": "https://dc.lft.to/lastmile_qr_scan"}, "type": "electric_scooter"}, {"bike_id": "9e53c808cf88c1436f13ea216cdec211", "is_reserved": 0, "name": "9e53c808cf88c1436f13ea216cdec211", "lat": 38.93046, "fusion_lat": 0.0, "lon": -77.01862566666667, "is_disabled": 0, "fusion_lon": 0.0, "rental_uris": {"android": "https://dc.lft.to/lastmile_qr_scan", "ios": "https://dc.lft.to/lastmile_qr_scan"}, "type": "electric_scooter"}, {"bike_id": "00c6d048e391541b1cc1819c7a65ab80", "is_reserved": 0, "name": "00c6d048e391541b1cc1819c7a65ab80", "lat": 38.9390665, "fusion_lat": 0.0, "lon": -77.02486416666666, "is_disabled": 0, "fusion_lon": 0.0, "rental_uris": {"android": "https://dc.lft.to/lastmile_qr_scan", "ios": "https://dc.lft.to/lastmile_qr_scan"}, "type": "electric_scooter"}, {"bike_id": "4325167f960b14834846d5bf0a14fd5e", "is_reserved": 0, "name": "4325167f960b14834846d5bf0a14fd5e", "lat": 38.91382183333333, "fusion_lat": 0.0, "lon": -77.04601383333333, "is_disabled": 0, "fusion_lon": 0.0, "rental_uris": {"android": "https://dc.lft.to/lastmile_qr_scan", "ios": "https://dc.lft.to/lastmile_qr_scan"}, "type": "electric_scooter"}, {"bike_id": "f270647bdb7b9886b7c8fe82754c0a63", "is_reserved": 0, "name": "f270647bdb7b9886b7c8fe82754c0a63", "lat": 38.90959433333333, "fusion_lat": 0.0, "lon": -77.046496, "is_disabled": 0, "fusion_lon": 0.0, "rental_uris": {"android": "https://dc.lft.to/lastmile_qr_scan", "ios": "https://dc.lft.to/lastmile_qr_scan"}, "type": "electric_scooter"}, {"bike_id": "ff1ce5a03dbd77a16f957e4267aa089c", "is_reserved": 0, "name": "ff1ce5a03dbd77a16f957e4267aa089c", "lat": 38.903711, "fusion_lat": 0.0, "lon": -77.0399885, "is_disabled": 0, "fusion_lon": 0.0, "rental_uris": {"android": "https://dc.lft.to/lastmile_qr_scan", "ios": "https://dc.lft.to/lastmile_qr_scan"}, "type": "electric_scooter"}, {"bike_id": "5a2ec737c89b7566fa051b28a4c70465", "is_reserved": 0, "name": "5a2ec737c89b7566fa051b28a4c70465", "lat": 38.917139666666664, "fusion_lat": 0.0, "lon": -76.97649666666666, "is_disabled": 0, "fusion_lon": 0.0, "rental_uris": {"android": "https://dc.lft.to/lastmile_qr_scan", "ios": "https://dc.lft.to/lastmile_qr_scan"}, "type": "electric_scooter"}, {"bike_id": "15d1bde0c674fa42aaaee5be9c8885ef", "is_reserved": 0, "name": "15d1bde0c674fa42aaaee5be9c8885ef", "lat": 38.90738066666667, "fusion_lat": 0.0, "lon": -77.029473, "is_disabled": 0, "fusion_lon": 0.0, "rental_uris": {"android": "https://dc.lft.to/lastmile_qr_scan", "ios": "https://dc.lft.to/lastmile_qr_scan"}, "type": "electric_scooter"}, {"bike_id": "0b5b57d9f6805cfcc6392131dcd29c70", "is_reserved": 0, "name": "0b5b57d9f6805cfcc6392131dcd29c70", "lat": 38.915638666666666, "fusion_lat": 0.0, "lon": -77.02176033333333, "is_disabled": 0, "fusion_lon": 0.0, "rental_uris": {"android": "https://dc.lft.to/lastmile_qr_scan", "ios": "https://dc.lft.to/lastmile_qr_scan"}, "type": "electric_scooter"}, {"bike_id": "803c4db6e1f69b34c8d8ef3e38254890", "is_reserved": 0, "name": "803c4db6e1f69b34c8d8ef3e38254890", "lat": 38.9002685, "fusion_lat": 0.0, "lon": -77.04886766666667, "is_disabled": 0, "fusion_lon": 0.0, "rental_uris": {"android": "https://dc.lft.to/lastmile_qr_scan", "ios": "https://dc.lft.to/lastmile_qr_scan"}, "type": "electric_scooter"}, {"bike_id": "88b371987944d66ef62cab45a9d539f7", "is_reserved": 0, "name": "88b371987944d66ef62cab45a9d539f7", "lat": 38.887462, "fusion_lat": 0.0, "lon": -77.02132466666667, "is_disabled": 0, "fusion_lon": 0.0, "rental_uris": {"android": "https://dc.lft.to/lastmile_qr_scan", "ios": "https://dc.lft.to/lastmile_qr_scan"}, "type": "electric_scooter"}, {"bike_id": "4da7b8b970a569310846b573f5bb9e3a", "is_reserved": 0, "name": "4da7b8b970a569310846b573f5bb9e3a", "lat": 38.898439333333336, "fusion_lat": 0.0, "lon": -77.02788283333334, "is_disabled": 0, "fusion_lon": 0.0, "rental_uris": {"android": "https://dc.lft.to/lastmile_qr_scan", "ios": "https://dc.lft.to/lastmile_qr_scan"}, "type": "electric_scooter"}, {"bike_id": "d676e6c5ef91ba79ccc4612ec85a69ed", "is_reserved": 0, "name": "d676e6c5ef91ba79ccc4612ec85a69ed", "lat": 38.9238765, "fusion_lat": 0.0, "lon": -77.02162416666667, "is_disabled": 0, "fusion_lon": 0.0, "rental_uris": {"android": "https://dc.lft.to/lastmile_qr_scan", "ios": "https://dc.lft.to/lastmile_qr_scan"}, "type": "electric_scooter"}, {"bike_id": "04d7b842828182da9845fbba828d6d7d", "is_reserved": 0, "name": "04d7b842828182da9845fbba828d6d7d", "lat": 38.919991, "fusion_lat": 0.0, "lon": -77.03223966666667, "is_disabled": 0, "fusion_lon": 0.0, "rental_uris": {"android": "https://dc.lft.to/lastmile_qr_scan", "ios": "https://dc.lft.to/lastmile_qr_scan"}, "type": "electric_scooter"}, {"bike_id": "03882bd343594b27951b61f76c8d8563", "is_reserved": 0, "name": "03882bd343594b27951b61f76c8d8563", "lat": 38.9038045, "fusion_lat": 0.0, "lon": -77.00878566666667, "is_disabled": 0, "fusion_lon": 0.0, "rental_uris": {"android": "https://dc.lft.to/lastmile_qr_scan", "ios": "https://dc.lft.to/lastmile_qr_scan"}, "type": "electric_scooter"}, {"bike_id": "469ebd6a857f44cde910312ca1e307e7", "is_reserved": 0, "name": "469ebd6a857f44cde910312ca1e307e7", "lat": 38.902309333333335, "fusion_lat": 0.0, "lon": -77.03253916666667, "is_disabled": 0, "fusion_lon": 0.0, "rental_uris": {"android": "https://dc.lft.to/lastmile_qr_scan", "ios": "https://dc.lft.to/lastmile_qr_scan"}, "type": "electric_scooter"}, {"bike_id": "c96414fbce69bf81c128dae52f1dbc55", "is_reserved": 0, "name": "c96414fbce69bf81c128dae52f1dbc55", "lat": 38.91913616666667, "fusion_lat": 0.0, "lon": -77.0273365, "is_disabled": 0, "fusion_lon": 0.0, "rental_uris": {"android": "https://dc.lft.to/lastmile_qr_scan", "ios": "https://dc.lft.to/lastmile_qr_scan"}, "type": "electric_scooter"}, {"bike_id": "c0eb084ee6d82c9d1662012626df1499", "is_reserved": 0, "name": "c0eb084ee6d82c9d1662012626df1499", "lat": 38.91707666666667, "fusion_lat": 0.0, "lon": -77.03041616666667, "is_disabled": 0, "fusion_lon": 0.0, "rental_uris": {"android": "https://dc.lft.to/lastmile_qr_scan", "ios": "https://dc.lft.to/lastmile_qr_scan"}, "type": "electric_scooter"}, {"bike_id": "789450768be249a3833ea59fcdd02c3f", "is_reserved": 0, "name": "789450768be249a3833ea59fcdd02c3f", "lat": 38.8689255, "fusion_lat": 0.0, "lon": -76.9900345, "is_disabled": 0, "fusion_lon": 0.0, "rental_uris": {"android": "https://dc.lft.to/lastmile_qr_scan", "ios": "https://dc.lft.to/lastmile_qr_scan"}, "type": "electric_scooter"}, {"bike_id": "768f6b5f774bc0df5699b767778e99a0", "is_reserved": 0, "name": "768f6b5f774bc0df5699b767778e99a0", "lat": 38.91755666666667, "fusion_lat": 0.0, "lon": -77.0228345, "is_disabled": 0, "fusion_lon": 0.0, "rental_uris": {"android": "https://dc.lft.to/lastmile_qr_scan", "ios": "https://dc.lft.to/lastmile_qr_scan"}, "type": "electric_scooter"}, {"bike_id": "f2de754de3327c9c068a541d3aa01b51", "is_reserved": 0, "name": "f2de754de3327c9c068a541d3aa01b51", "lat": 38.9001525, "fusion_lat": 0.0, "lon": -77.01179433333333, "is_disabled": 0, "fusion_lon": 0.0, "rental_uris": {"android": "https://dc.lft.to/lastmile_qr_scan", "ios": "https://dc.lft.to/lastmile_qr_scan"}, "type": "electric_scooter"}, {"bike_id": "3e57f89b5ea0ab1c8a799246bf3eb08f", "is_reserved": 0, "name": "3e57f89b5ea0ab1c8a799246bf3eb08f", "lat": 38.8536035, "fusion_lat": 0.0, "lon": -77.11494466666667, "is_disabled": 0, "fusion_lon": 0.0, "rental_uris": {"android": "https://dc.lft.to/lastmile_qr_scan", "ios": "https://dc.lft.to/lastmile_qr_scan"}, "type": "electric_bike"}, {"bike_id": "e61417cd0c04d8f563873bc73dfb1cea", "is_reserved": 0, "name": "e61417cd0c04d8f563873bc73dfb1cea", "lat": 38.873603333333335, "fusion_lat": 0.0, "lon": -77.0003885, "is_disabled": 0, "fusion_lon": 0.0, "rental_uris": {"android": "https://dc.lft.to/lastmile_qr_scan", "ios": "https://dc.lft.to/lastmile_qr_scan"}, "type": "electric_scooter"}, {"bike_id": "8f3f4265076c977509078a443c74dc41", "is_reserved": 0, "name": "8f3f4265076c977509078a443c74dc41", "lat": 39.034307, "fusion_lat": 0.0, "lon": -77.04308383333333, "is_disabled": 0, "fusion_lon": 0.0, "rental_uris": {"android": "https://dc.lft.to/lastmile_qr_scan", "ios": "https://dc.lft.to/lastmile_qr_scan"}, "type": "electric_bike"}, {"bike_id": "461b2e5176030416f4b69c8386158700", "is_reserved": 0, "name": "461b2e5176030416f4b69c8386158700", "lat": 38.89183166666667, "fusion_lat": 0.0, "lon": -77.01591966666666, "is_disabled": 0, "fusion_lon": 0.0, "rental_uris": {"android": "https://dc.lft.to/lastmile_qr_scan", "ios": "https://dc.lft.to/lastmile_qr_scan"}, "type": "electric_scooter"}, {"bike_id": "996771e3910b5f1aef30fe947c443216", "is_reserved": 0, "name": "996771e3910b5f1aef30fe947c443216", "lat": 38.91812616666667, "fusion_lat": 0.0, "lon": -77.03183683333333, "is_disabled": 0, "fusion_lon": 0.0, "rental_uris": {"android": "https://dc.lft.to/lastmile_qr_scan", "ios": "https://dc.lft.to/lastmile_qr_scan"}, "type": "electric_scooter"}, {"bike_id": "9b472d5f067336691c3f76281abe9800", "is_reserved": 0, "name": "9b472d5f067336691c3f76281abe9800", "lat": 38.89770933333333, "fusion_lat": 0.0, "lon": -76.98462816666667, "is_disabled": 0, "fusion_lon": 0.0, "rental_uris": {"android": "https://dc.lft.to/lastmile_qr_scan", "ios": "https://dc.lft.to/lastmile_qr_scan"}, "type": "electric_scooter"}, {"bike_id": "0501a0bea843fb1437e29705e112e9ec", "is_reserved": 0, "name": "0501a0bea843fb1437e29705e112e9ec", "lat": 38.887267333333334, "fusion_lat": 0.0, "lon": -77.0258555, "is_disabled": 0, "fusion_lon": 0.0, "rental_uris": {"android": "https://dc.lft.to/lastmile_qr_scan", "ios": "https://dc.lft.to/lastmile_qr_scan"}, "type": "electric_scooter"}, {"bike_id": "da920dee487c150890ffd6f7c58c97d0", "is_reserved": 0, "name": "da920dee487c150890ffd6f7c58c97d0", "lat": 38.876849166666666, "fusion_lat": 0.0, "lon": -76.99682916666667, "is_disabled": 0, "fusion_lon": 0.0, "rental_uris": {"android": "https://dc.lft.to/lastmile_qr_scan", "ios": "https://dc.lft.to/lastmile_qr_scan"}, "type": "electric_scooter"}, {"bike_id": "99c148a4c91a57c8820bc7f3b236d13e", "is_reserved": 0, "name": "99c148a4c91a57c8820bc7f3b236d13e", "lat": 38.9048825, "fusion_lat": 0.0, "lon": -77.03853666666667, "is_disabled": 0, "fusion_lon": 0.0, "rental_uris": {"android": "https://dc.lft.to/lastmile_qr_scan", "ios": "https://dc.lft.to/lastmile_qr_scan"}, "type": "electric_scooter"}, {"bike_id": "ee5046d6438907793c79d07c442928a8", "is_reserved": 0, "name": "ee5046d6438907793c79d07c442928a8", "lat": 38.92319333333333, "fusion_lat": 0.0, "lon": -77.04348483333334, "is_disabled": 0, "fusion_lon": 0.0, "rental_uris": {"android": "https://dc.lft.to/lastmile_qr_scan", "ios": "https://dc.lft.to/lastmile_qr_scan"}, "type": "electric_scooter"}, {"bike_id": "8d5093af414433732a4e54bcea2846f2", "is_reserved": 0, "name": "8d5093af414433732a4e54bcea2846f2", "lat": 38.860595, "fusion_lat": 0.0, "lon": -76.96715233333333, "is_disabled": 0, "fusion_lon": 0.0, "rental_uris": {"android": "https://dc.lft.to/lastmile_qr_scan", "ios": "https://dc.lft.to/lastmile_qr_scan"}, "type": "electric_scooter"}, {"bike_id": "ded7dff55c6a97c2e98e5131c761c0fe", "is_reserved": 0, "name": "ded7dff55c6a97c2e98e5131c761c0fe", "lat": 38.943209333333336, "fusion_lat": 0.0, "lon": -77.06134283333333, "is_disabled": 0, "fusion_lon": 0.0, "rental_uris": {"android": "https://dc.lft.to/lastmile_qr_scan", "ios": "https://dc.lft.to/lastmile_qr_scan"}, "type": "electric_scooter"}, {"bike_id": "2e8e0435a11fe854841d81019b6ee4e4", "is_reserved": 0, "name": "2e8e0435a11fe854841d81019b6ee4e4", "lat": 38.91125133333333, "fusion_lat": 0.0, "lon": -77.021973, "is_disabled": 0, "fusion_lon": 0.0, "rental_uris": {"android": "https://dc.lft.to/lastmile_qr_scan", "ios": "https://dc.lft.to/lastmile_qr_scan"}, "type": "electric_scooter"}, {"bike_id": "2ad65bf085b496f3e20f21fcc9f9b1c9", "is_reserved": 0, "name": "2ad65bf085b496f3e20f21fcc9f9b1c9", "lat": 38.87474816666667, "fusion_lat": 0.0, "lon": -77.00592216666666, "is_disabled": 0, "fusion_lon": 0.0, "rental_uris": {"android": "https://dc.lft.to/lastmile_qr_scan", "ios": "https://dc.lft.to/lastmile_qr_scan"}, "type": "electric_scooter"}, {"bike_id": "071a89c6b52303665a2af55ef10002b0", "is_reserved": 0, "name": "071a89c6b52303665a2af55ef10002b0", "lat": 38.9247565, "fusion_lat": 0.0, "lon": -77.0353495, "is_disabled": 0, "fusion_lon": 0.0, "rental_uris": {"android": "https://dc.lft.to/lastmile_qr_scan", "ios": "https://dc.lft.to/lastmile_qr_scan"}, "type": "electric_scooter"}, {"bike_id": "0de29ef3496f4a5ed4825e65d5cd049e", "is_reserved": 0, "name": "0de29ef3496f4a5ed4825e65d5cd049e", "lat": 38.916733666666666, "fusion_lat": 0.0, "lon": -77.027061, "is_disabled": 0, "fusion_lon": 0.0, "rental_uris": {"android": "https://dc.lft.to/lastmile_qr_scan", "ios": "https://dc.lft.to/lastmile_qr_scan"}, "type": "electric_scooter"}, {"bike_id": "2823555bfc347cb1613959ecfd1345ce", "is_reserved": 0, "name": "2823555bfc347cb1613959ecfd1345ce", "lat": 38.9491845, "fusion_lat": 0.0, "lon": -77.00800483333333, "is_disabled": 0, "fusion_lon": 0.0, "rental_uris": {"android": "https://dc.lft.to/lastmile_qr_scan", "ios": "https://dc.lft.to/lastmile_qr_scan"}, "type": "electric_bike"}, {"bike_id": "7fdf0237c3e606d48dd7994768a08930", "is_reserved": 0, "name": "7fdf0237c3e606d48dd7994768a08930", "lat": 38.9059775, "fusion_lat": 0.0, "lon": -77.0403155, "is_disabled": 0, "fusion_lon": 0.0, "rental_uris": {"android": "https://dc.lft.to/lastmile_qr_scan", "ios": "https://dc.lft.to/lastmile_qr_scan"}, "type": "electric_scooter"}, {"bike_id": "cc59f63cc499d399a89950fa1975c2ac", "is_reserved": 0, "name": "cc59f63cc499d399a89950fa1975c2ac", "lat": 38.91698866666667, "fusion_lat": 0.0, "lon": -77.02647633333333, "is_disabled": 0, "fusion_lon": 0.0, "rental_uris": {"android": "https://dc.lft.to/lastmile_qr_scan", "ios": "https://dc.lft.to/lastmile_qr_scan"}, "type": "electric_scooter"}, {"bike_id": "ccb9d24b3a95aa71cdd7176aa0fe7435", "is_reserved": 0, "name": "ccb9d24b3a95aa71cdd7176aa0fe7435", "lat": 38.927975333333336, "fusion_lat": 0.0, "lon": -77.02296383333334, "is_disabled": 0, "fusion_lon": 0.0, "rental_uris": {"android": "https://dc.lft.to/lastmile_qr_scan", "ios": "https://dc.lft.to/lastmile_qr_scan"}, "type": "electric_scooter"}, {"bike_id": "f6b711edbe6635fd107e740827f3278b", "is_reserved": 0, "name": "f6b711edbe6635fd107e740827f3278b", "lat": 38.9881345, "fusion_lat": 0.0, "lon": -77.026599, "is_disabled": 0, "fusion_lon": 0.0, "rental_uris": {"android": "https://dc.lft.to/lastmile_qr_scan", "ios": "https://dc.lft.to/lastmile_qr_scan"}, "type": "electric_bike"}, {"bike_id": "5e7f0ac5796a1a97644aeee52d22cdc5", "is_reserved": 0, "name": "5e7f0ac5796a1a97644aeee52d22cdc5", "lat": 38.884578, "fusion_lat": 0.0, "lon": -76.95237433333334, "is_disabled": 0, "fusion_lon": 0.0, "rental_uris": {"android": "https://dc.lft.to/lastmile_qr_scan", "ios": "https://dc.lft.to/lastmile_qr_scan"}, "type": "electric_bike"}, {"bike_id": "a8ad8482e17e239387944d3f61d482d7", "is_reserved": 0, "name": "a8ad8482e17e239387944d3f61d482d7", "lat": 38.91405616666667, "fusion_lat": 0.0, "lon": -77.03164416666667, "is_disabled": 0, "fusion_lon": 0.0, "rental_uris": {"android": "https://dc.lft.to/lastmile_qr_scan", "ios": "https://dc.lft.to/lastmile_qr_scan"}, "type": "electric_scooter"}, {"bike_id": "f08bd7a693d1e1e6de9821740f1fbc01", "is_reserved": 0, "name": "f08bd7a693d1e1e6de9821740f1fbc01", "lat": 38.898341, "fusion_lat": 0.0, "lon": -77.02958083333333, "is_disabled": 0, "fusion_lon": 0.0, "rental_uris": {"android": "https://dc.lft.to/lastmile_qr_scan", "ios": "https://dc.lft.to/lastmile_qr_scan"}, "type": "electric_scooter"}, {"bike_id": "4bdab337d0a1006267807319f6ba9f58", "is_reserved": 0, "name": "4bdab337d0a1006267807319f6ba9f58", "lat": 38.9069535, "fusion_lat": 0.0, "lon": -77.04202233333334, "is_disabled": 0, "fusion_lon": 0.0, "rental_uris": {"android": "https://dc.lft.to/lastmile_qr_scan", "ios": "https://dc.lft.to/lastmile_qr_scan"}, "type": "electric_scooter"}, {"bike_id": "3f56aa1019ad676e99a4956bd1ec97dc", "is_reserved": 0, "name": "3f56aa1019ad676e99a4956bd1ec97dc", "lat": 38.99384416666667, "fusion_lat": 0.0, "lon": -76.928803, "is_disabled": 0, "fusion_lon": 0.0, "rental_uris": {"android": "https://dc.lft.to/lastmile_qr_scan", "ios": "https://dc.lft.to/lastmile_qr_scan"}, "type": "electric_bike"}, {"bike_id": "63659d27686a65fafdc8e220344d147d", "is_reserved": 0, "name": "63659d27686a65fafdc8e220344d147d", "lat": 38.91653633333333, "fusion_lat": 0.0, "lon": -77.02275516666667, "is_disabled": 0, "fusion_lon": 0.0, "rental_uris": {"android": "https://dc.lft.to/lastmile_qr_scan", "ios": "https://dc.lft.to/lastmile_qr_scan"}, "type": "electric_scooter"}, {"bike_id": "4a65d60559ebeb02f979ad981a9a3e38", "is_reserved": 0, "name": "4a65d60559ebeb02f979ad981a9a3e38", "lat": 38.88734483333333, "fusion_lat": 0.0, "lon": -77.02383166666667, "is_disabled": 0, "fusion_lon": 0.0, "rental_uris": {"android": "https://dc.lft.to/lastmile_qr_scan", "ios": "https://dc.lft.to/lastmile_qr_scan"}, "type": "electric_scooter"}, {"bike_id": "684390e06621dae4263ea397ecd6c58b", "is_reserved": 0, "name": "684390e06621dae4263ea397ecd6c58b", "lat": 38.91675766666667, "fusion_lat": 0.0, "lon": -77.02408, "is_disabled": 0, "fusion_lon": 0.0, "rental_uris": {"android": "https://dc.lft.to/lastmile_qr_scan", "ios": "https://dc.lft.to/lastmile_qr_scan"}, "type": "electric_scooter"}, {"bike_id": "b170ed7e611a34b35613d66e7c06c84a", "is_reserved": 0, "name": "b170ed7e611a34b35613d66e7c06c84a", "lat": 38.9055045, "fusion_lat": 0.0, "lon": -77.00609683333333, "is_disabled": 0, "fusion_lon": 0.0, "rental_uris": {"android": "https://dc.lft.to/lastmile_qr_scan", "ios": "https://dc.lft.to/lastmile_qr_scan"}, "type": "electric_scooter"}, {"bike_id": "cb14e61b0483550f1a85131db72ea0fd", "is_reserved": 0, "name": "cb14e61b0483550f1a85131db72ea0fd", "lat": 38.89885, "fusion_lat": 0.0, "lon": -77.04076566666667, "is_disabled": 0, "fusion_lon": 0.0, "rental_uris": {"android": "https://dc.lft.to/lastmile_qr_scan", "ios": "https://dc.lft.to/lastmile_qr_scan"}, "type": "electric_scooter"}, {"bike_id": "ac924ca3096b4cf2c49c5dbd65294663", "is_reserved": 0, "name": "ac924ca3096b4cf2c49c5dbd65294663", "lat": 38.932775666666664, "fusion_lat": 0.0, "lon": -77.04082516666666, "is_disabled": 0, "fusion_lon": 0.0, "rental_uris": {"android": "https://dc.lft.to/lastmile_qr_scan", "ios": "https://dc.lft.to/lastmile_qr_scan"}, "type": "electric_scooter"}, {"bike_id": "c846526f73c2a7c93eb384f71b45934e", "is_reserved": 0, "name": "c846526f73c2a7c93eb384f71b45934e", "lat": 38.919246, "fusion_lat": 0.0, "lon": -77.03036366666667, "is_disabled": 0, "fusion_lon": 0.0, "rental_uris": {"android": "https://dc.lft.to/lastmile_qr_scan", "ios": "https://dc.lft.to/lastmile_qr_scan"}, "type": "electric_scooter"}, {"bike_id": "c246b02d2c63dbd781e7b05441b9dec8", "is_reserved": 0, "name": "c246b02d2c63dbd781e7b05441b9dec8", "lat": 38.91796333333333, "fusion_lat": 0.0, "lon": -77.02712016666666, "is_disabled": 0, "fusion_lon": 0.0, "rental_uris": {"android": "https://dc.lft.to/lastmile_qr_scan", "ios": "https://dc.lft.to/lastmile_qr_scan"}, "type": "electric_scooter"}, {"bike_id": "5f98bc9b68a9feb3c3c9d6f88a0482ee", "is_reserved": 0, "name": "5f98bc9b68a9feb3c3c9d6f88a0482ee", "lat": 38.91470133333333, "fusion_lat": 0.0, "lon": -77.03840766666667, "is_disabled": 0, "fusion_lon": 0.0, "rental_uris": {"android": "https://dc.lft.to/lastmile_qr_scan", "ios": "https://dc.lft.to/lastmile_qr_scan"}, "type": "electric_scooter"}, {"bike_id": "d798566dca68f441ca8a1a8db82cf22d", "is_reserved": 0, "name": "d798566dca68f441ca8a1a8db82cf22d", "lat": 38.902624333333335, "fusion_lat": 0.0, "lon": -77.05314483333333, "is_disabled": 0, "fusion_lon": 0.0, "rental_uris": {"android": "https://dc.lft.to/lastmile_qr_scan", "ios": "https://dc.lft.to/lastmile_qr_scan"}, "type": "electric_scooter"}, {"bike_id": "1805324137c1a5bf187f55d233811c79", "is_reserved": 0, "name": "1805324137c1a5bf187f55d233811c79", "lat": 38.9002075, "fusion_lat": 0.0, "lon": -77.03464266666667, "is_disabled": 0, "fusion_lon": 0.0, "rental_uris": {"android": "https://dc.lft.to/lastmile_qr_scan", "ios": "https://dc.lft.to/lastmile_qr_scan"}, "type": "electric_scooter"}, {"bike_id": "dc4e38efb98bc0683376b229feee4ac3", "is_reserved": 0, "name": "dc4e38efb98bc0683376b229feee4ac3", "lat": 38.89452566666667, "fusion_lat": 0.0, "lon": -76.97807816666666, "is_disabled": 0, "fusion_lon": 0.0, "rental_uris": {"android": "https://dc.lft.to/lastmile_qr_scan", "ios": "https://dc.lft.to/lastmile_qr_scan"}, "type": "electric_scooter"}, {"bike_id": "1feeb81981ab0f2ab3e824f1238a169f", "is_reserved": 0, "name": "1feeb81981ab0f2ab3e824f1238a169f", "lat": 38.898696666666666, "fusion_lat": 0.0, "lon": -77.039881, "is_disabled": 0, "fusion_lon": 0.0, "rental_uris": {"android": "https://dc.lft.to/lastmile_qr_scan", "ios": "https://dc.lft.to/lastmile_qr_scan"}, "type": "electric_scooter"}, {"bike_id": "331526109659f233798ab9444e1eaf22", "is_reserved": 0, "name": "331526109659f233798ab9444e1eaf22", "lat": 38.907462333333335, "fusion_lat": 0.0, "lon": -77.0415185, "is_disabled": 0, "fusion_lon": 0.0, "rental_uris": {"android": "https://dc.lft.to/lastmile_qr_scan", "ios": "https://dc.lft.to/lastmile_qr_scan"}, "type": "electric_scooter"}, {"bike_id": "0c9a26629f80e507962c3bc08e161f31", "is_reserved": 0, "name": "0c9a26629f80e507962c3bc08e161f31", "lat": 38.901928166666664, "fusion_lat": 0.0, "lon": -77.05045166666666, "is_disabled": 0, "fusion_lon": 0.0, "rental_uris": {"android": "https://dc.lft.to/lastmile_qr_scan", "ios": "https://dc.lft.to/lastmile_qr_scan"}, "type": "electric_scooter"}, {"bike_id": "fa41e653a58696212180173784e6987b", "is_reserved": 0, "name": "fa41e653a58696212180173784e6987b", "lat": 38.9288035, "fusion_lat": 0.0, "lon": -77.03246183333333, "is_disabled": 0, "fusion_lon": 0.0, "rental_uris": {"android": "https://dc.lft.to/lastmile_qr_scan", "ios": "https://dc.lft.to/lastmile_qr_scan"}, "type": "electric_scooter"}, {"bike_id": "858e94f16af98b87584d75b3a9bc077c", "is_reserved": 0, "name": "858e94f16af98b87584d75b3a9bc077c", "lat": 38.887129, "fusion_lat": 0.0, "lon": -77.02584033333333, "is_disabled": 0, "fusion_lon": 0.0, "rental_uris": {"android": "https://dc.lft.to/lastmile_qr_scan", "ios": "https://dc.lft.to/lastmile_qr_scan"}, "type": "electric_scooter"}, {"bike_id": "632b33bdbb0ed497f5abbbc60adc5a33", "is_reserved": 0, "name": "632b33bdbb0ed497f5abbbc60adc5a33", "lat": 38.93111116666667, "fusion_lat": 0.0, "lon": -77.03030283333334, "is_disabled": 0, "fusion_lon": 0.0, "rental_uris": {"android": "https://dc.lft.to/lastmile_qr_scan", "ios": "https://dc.lft.to/lastmile_qr_scan"}, "type": "electric_scooter"}, {"bike_id": "1bfe652c72e12a63e339bb3a16f495db", "is_reserved": 0, "name": "1bfe652c72e12a63e339bb3a16f495db", "lat": 38.850828666666665, "fusion_lat": 0.0, "lon": -76.956782, "is_disabled": 0, "fusion_lon": 0.0, "rental_uris": {"android": "https://dc.lft.to/lastmile_qr_scan", "ios": "https://dc.lft.to/lastmile_qr_scan"}, "type": "electric_bike"}, {"bike_id": "66c8d794153e8b0d5f0fb4938109da7a", "is_reserved": 0, "name": "66c8d794153e8b0d5f0fb4938109da7a", "lat": 38.8491175, "fusion_lat": 0.0, "lon": -77.0997815, "is_disabled": 0, "fusion_lon": 0.0, "rental_uris": {"android": "https://dc.lft.to/lastmile_qr_scan", "ios": "https://dc.lft.to/lastmile_qr_scan"}, "type": "electric_bike"}, {"bike_id": "70b946ddeb7ed076de0e228a61eb5a0b", "is_reserved": 0, "name": "70b946ddeb7ed076de0e228a61eb5a0b", "lat": 38.86540933333333, "fusion_lat": 0.0, "lon": -76.987091, "is_disabled": 0, "fusion_lon": 0.0, "rental_uris": {"android": "https://dc.lft.to/lastmile_qr_scan", "ios": "https://dc.lft.to/lastmile_qr_scan"}, "type": "electric_scooter"}, {"bike_id": "ff1ae2d80a3e3b8700f35df0835bc337", "is_reserved": 0, "name": "ff1ae2d80a3e3b8700f35df0835bc337", "lat": 38.905121333333334, "fusion_lat": 0.0, "lon": -77.04663166666667, "is_disabled": 0, "fusion_lon": 0.0, "rental_uris": {"android": "https://dc.lft.to/lastmile_qr_scan", "ios": "https://dc.lft.to/lastmile_qr_scan"}, "type": "electric_scooter"}, {"bike_id": "bda7b155e4b04fcbe7aa23f90fe3786e", "is_reserved": 0, "name": "bda7b155e4b04fcbe7aa23f90fe3786e", "lat": 38.916808833333334, "fusion_lat": 0.0, "lon": -77.06949016666667, "is_disabled": 0, "fusion_lon": 0.0, "rental_uris": {"android": "https://dc.lft.to/lastmile_qr_scan", "ios": "https://dc.lft.to/lastmile_qr_scan"}, "type": "electric_bike"}, {"bike_id": "3c2f43b82b829e90a2278039f05bdde7", "is_reserved": 0, "name": "3c2f43b82b829e90a2278039f05bdde7", "lat": 38.93074383333333, "fusion_lat": 0.0, "lon": -77.02161716666667, "is_disabled": 0, "fusion_lon": 0.0, "rental_uris": {"android": "https://dc.lft.to/lastmile_qr_scan", "ios": "https://dc.lft.to/lastmile_qr_scan"}, "type": "electric_scooter"}, {"bike_id": "ef2cceac5752b48fe0ad7249077aae01", "is_reserved": 0, "name": "ef2cceac5752b48fe0ad7249077aae01", "lat": 38.878218, "fusion_lat": 0.0, "lon": -77.00129733333333, "is_disabled": 0, "fusion_lon": 0.0, "rental_uris": {"android": "https://dc.lft.to/lastmile_qr_scan", "ios": "https://dc.lft.to/lastmile_qr_scan"}, "type": "electric_scooter"}, {"bike_id": "d0f4e20cb893446f314c7c564e6b0c1b", "is_reserved": 0, "name": "d0f4e20cb893446f314c7c564e6b0c1b", "lat": 38.892232666666665, "fusion_lat": 0.0, "lon": -77.04643183333333, "is_disabled": 0, "fusion_lon": 0.0, "rental_uris": {"android": "https://dc.lft.to/lastmile_qr_scan", "ios": "https://dc.lft.to/lastmile_qr_scan"}, "type": "electric_scooter"}, {"bike_id": "3abc9dac2ec428f6b426d6fabba8d627", "is_reserved": 0, "name": "3abc9dac2ec428f6b426d6fabba8d627", "lat": 38.873721, "fusion_lat": 0.0, "lon": -77.0016535, "is_disabled": 0, "fusion_lon": 0.0, "rental_uris": {"android": "https://dc.lft.to/lastmile_qr_scan", "ios": "https://dc.lft.to/lastmile_qr_scan"}, "type": "electric_scooter"}, {"bike_id": "315a3730966f4b7559d30edb552ec4b7", "is_reserved": 0, "name": "315a3730966f4b7559d30edb552ec4b7", "lat": 38.9262385, "fusion_lat": 0.0, "lon": -77.04197616666667, "is_disabled": 0, "fusion_lon": 0.0, "rental_uris": {"android": "https://dc.lft.to/lastmile_qr_scan", "ios": "https://dc.lft.to/lastmile_qr_scan"}, "type": "electric_scooter"}, {"bike_id": "285b5644d9bf347fcadebbccaa66e020", "is_reserved": 0, "name": "285b5644d9bf347fcadebbccaa66e020", "lat": 38.916521833333334, "fusion_lat": 0.0, "lon": -77.03187833333334, "is_disabled": 0, "fusion_lon": 0.0, "rental_uris": {"android": "https://dc.lft.to/lastmile_qr_scan", "ios": "https://dc.lft.to/lastmile_qr_scan"}, "type": "electric_scooter"}, {"bike_id": "e5353150e19b8ddff044a188bb4734d0", "is_reserved": 0, "name": "e5353150e19b8ddff044a188bb4734d0", "lat": 38.9788095, "fusion_lat": 0.0, "lon": -77.06033183333334, "is_disabled": 0, "fusion_lon": 0.0, "rental_uris": {"android": "https://dc.lft.to/lastmile_qr_scan", "ios": "https://dc.lft.to/lastmile_qr_scan"}, "type": "electric_bike"}, {"bike_id": "f0aa216a1c7e314af62f80fac898c1b2", "is_reserved": 0, "name": "f0aa216a1c7e314af62f80fac898c1b2", "lat": 38.91550733333333, "fusion_lat": 0.0, "lon": -77.03178883333334, "is_disabled": 0, "fusion_lon": 0.0, "rental_uris": {"android": "https://dc.lft.to/lastmile_qr_scan", "ios": "https://dc.lft.to/lastmile_qr_scan"}, "type": "electric_scooter"}, {"bike_id": "e68442d5e62df137942701f8b214c8f2", "is_reserved": 0, "name": "e68442d5e62df137942701f8b214c8f2", "lat": 38.887707166666665, "fusion_lat": 0.0, "lon": -76.99158383333334, "is_disabled": 0, "fusion_lon": 0.0, "rental_uris": {"android": "https://dc.lft.to/lastmile_qr_scan", "ios": "https://dc.lft.to/lastmile_qr_scan"}, "type": "electric_scooter"}, {"bike_id": "d3ed98dee34e38d8881cba8194b28c09", "is_reserved": 0, "name": "d3ed98dee34e38d8881cba8194b28c09", "lat": 38.91807, "fusion_lat": 0.0, "lon": -77.02494283333333, "is_disabled": 0, "fusion_lon": 0.0, "rental_uris": {"android": "https://dc.lft.to/lastmile_qr_scan", "ios": "https://dc.lft.to/lastmile_qr_scan"}, "type": "electric_scooter"}, {"bike_id": "eab76f94176c492211b8c24435c1b57d", "is_reserved": 0, "name": "eab76f94176c492211b8c24435c1b57d", "lat": 38.92344466666667, "fusion_lat": 0.0, "lon": -77.05169883333333, "is_disabled": 0, "fusion_lon": 0.0, "rental_uris": {"android": "https://dc.lft.to/lastmile_qr_scan", "ios": "https://dc.lft.to/lastmile_qr_scan"}, "type": "electric_scooter"}, {"bike_id": "f082142b826ff5a40c431d34e0a266e6", "is_reserved": 0, "name": "f082142b826ff5a40c431d34e0a266e6", "lat": 38.88731416666667, "fusion_lat": 0.0, "lon": -77.03184833333333, "is_disabled": 0, "fusion_lon": 0.0, "rental_uris": {"android": "https://dc.lft.to/lastmile_qr_scan", "ios": "https://dc.lft.to/lastmile_qr_scan"}, "type": "electric_scooter"}, {"bike_id": "5a4e22d14cebcf3547823d36bfdc3074", "is_reserved": 0, "name": "5a4e22d14cebcf3547823d36bfdc3074", "lat": 38.916971, "fusion_lat": 0.0, "lon": -77.02862016666667, "is_disabled": 0, "fusion_lon": 0.0, "rental_uris": {"android": "https://dc.lft.to/lastmile_qr_scan", "ios": "https://dc.lft.to/lastmile_qr_scan"}, "type": "electric_scooter"}, {"bike_id": "1dc0fa2f2d0ca21744a4d070d7cd7507", "is_reserved": 0, "name": "1dc0fa2f2d0ca21744a4d070d7cd7507", "lat": 38.92351516666667, "fusion_lat": 0.0, "lon": -77.00313433333334, "is_disabled": 0, "fusion_lon": 0.0, "rental_uris": {"android": "https://dc.lft.to/lastmile_qr_scan", "ios": "https://dc.lft.to/lastmile_qr_scan"}, "type": "electric_scooter"}, {"bike_id": "718be6c5157809d2b76b60c4510e8baf", "is_reserved": 0, "name": "718be6c5157809d2b76b60c4510e8baf", "lat": 38.877900833333335, "fusion_lat": 0.0, "lon": -76.99946083333333, "is_disabled": 0, "fusion_lon": 0.0, "rental_uris": {"android": "https://dc.lft.to/lastmile_qr_scan", "ios": "https://dc.lft.to/lastmile_qr_scan"}, "type": "electric_scooter"}, {"bike_id": "a813578a376e2afaa7597942adbf08d3", "is_reserved": 0, "name": "a813578a376e2afaa7597942adbf08d3", "lat": 38.93714583333333, "fusion_lat": 0.0, "lon": -77.02407983333333, "is_disabled": 0, "fusion_lon": 0.0, "rental_uris": {"android": "https://dc.lft.to/lastmile_qr_scan", "ios": "https://dc.lft.to/lastmile_qr_scan"}, "type": "electric_scooter"}, {"bike_id": "0e22b926fafb2005a2bb8f261fd06b2a", "is_reserved": 0, "name": "0e22b926fafb2005a2bb8f261fd06b2a", "lat": 38.90198816666667, "fusion_lat": 0.0, "lon": -77.02219483333333, "is_disabled": 0, "fusion_lon": 0.0, "rental_uris": {"android": "https://dc.lft.to/lastmile_qr_scan", "ios": "https://dc.lft.to/lastmile_qr_scan"}, "type": "electric_scooter"}, {"bike_id": "2bffaf75442b6c404d76b8486ea56f08", "is_reserved": 0, "name": "2bffaf75442b6c404d76b8486ea56f08", "lat": 38.901802833333335, "fusion_lat": 0.0, "lon": -77.0506275, "is_disabled": 0, "fusion_lon": 0.0, "rental_uris": {"android": "https://dc.lft.to/lastmile_qr_scan", "ios": "https://dc.lft.to/lastmile_qr_scan"}, "type": "electric_scooter"}, {"bike_id": "3fe8ceb850bf32d539c41e4a4e0c7765", "is_reserved": 0, "name": "3fe8ceb850bf32d539c41e4a4e0c7765", "lat": 38.922729833333335, "fusion_lat": 0.0, "lon": -77.04292133333334, "is_disabled": 0, "fusion_lon": 0.0, "rental_uris": {"android": "https://dc.lft.to/lastmile_qr_scan", "ios": "https://dc.lft.to/lastmile_qr_scan"}, "type": "electric_scooter"}, {"bike_id": "cb94b9fa4af01ac338781fbba61e1139", "is_reserved": 0, "name": "cb94b9fa4af01ac338781fbba61e1139", "lat": 38.90438816666666, "fusion_lat": 0.0, "lon": -77.0320815, "is_disabled": 0, "fusion_lon": 0.0, "rental_uris": {"android": "https://dc.lft.to/lastmile_qr_scan", "ios": "https://dc.lft.to/lastmile_qr_scan"}, "type": "electric_scooter"}, {"bike_id": "192d97afd5da7a7ccef216be1371bd2b", "is_reserved": 0, "name": "192d97afd5da7a7ccef216be1371bd2b", "lat": 38.9398055, "fusion_lat": 0.0, "lon": -77.0286645, "is_disabled": 0, "fusion_lon": 0.0, "rental_uris": {"android": "https://dc.lft.to/lastmile_qr_scan", "ios": "https://dc.lft.to/lastmile_qr_scan"}, "type": "electric_scooter"}, {"bike_id": "53e50ca1e9aee4967d96d00b3e0f6338", "is_reserved": 0, "name": "53e50ca1e9aee4967d96d00b3e0f6338", "lat": 38.957399833333334, "fusion_lat": 0.0, "lon": -77.02188433333333, "is_disabled": 0, "fusion_lon": 0.0, "rental_uris": {"android": "https://dc.lft.to/lastmile_qr_scan", "ios": "https://dc.lft.to/lastmile_qr_scan"}, "type": "electric_bike"}, {"bike_id": "bb4eb6a4ceee7d8838701eb37cb2b6e1", "is_reserved": 0, "name": "bb4eb6a4ceee7d8838701eb37cb2b6e1", "lat": 38.911156166666665, "fusion_lat": 0.0, "lon": -77.04453583333333, "is_disabled": 0, "fusion_lon": 0.0, "rental_uris": {"android": "https://dc.lft.to/lastmile_qr_scan", "ios": "https://dc.lft.to/lastmile_qr_scan"}, "type": "electric_scooter"}, {"bike_id": "b48ff8437fb6b5642c042798fef5e162", "is_reserved": 0, "name": "b48ff8437fb6b5642c042798fef5e162", "lat": 38.877628666666666, "fusion_lat": 0.0, "lon": -77.01053733333333, "is_disabled": 0, "fusion_lon": 0.0, "rental_uris": {"android": "https://dc.lft.to/lastmile_qr_scan", "ios": "https://dc.lft.to/lastmile_qr_scan"}, "type": "electric_bike"}, {"bike_id": "9b3966ccffeafdd68a7c86b3d97319d5", "is_reserved": 0, "name": "9b3966ccffeafdd68a7c86b3d97319d5", "lat": 38.8717895, "fusion_lat": 0.0, "lon": -77.00609, "is_disabled": 0, "fusion_lon": 0.0, "rental_uris": {"android": "https://dc.lft.to/lastmile_qr_scan", "ios": "https://dc.lft.to/lastmile_qr_scan"}, "type": "electric_scooter"}, {"bike_id": "840c315b3ce1f2c9ba7fae2cb9e6993c", "is_reserved": 0, "name": "840c315b3ce1f2c9ba7fae2cb9e6993c", "lat": 38.92472033333333, "fusion_lat": 0.0, "lon": -77.037691, "is_disabled": 0, "fusion_lon": 0.0, "rental_uris": {"android": "https://dc.lft.to/lastmile_qr_scan", "ios": "https://dc.lft.to/lastmile_qr_scan"}, "type": "electric_scooter"}, {"bike_id": "d7ad27bb5d44208159df3f1f0e5d0d78", "is_reserved": 0, "name": "d7ad27bb5d44208159df3f1f0e5d0d78", "lat": 38.90098066666667, "fusion_lat": 0.0, "lon": -77.04890633333333, "is_disabled": 0, "fusion_lon": 0.0, "rental_uris": {"android": "https://dc.lft.to/lastmile_qr_scan", "ios": "https://dc.lft.to/lastmile_qr_scan"}, "type": "electric_scooter"}, {"bike_id": "2dee51035c34c5fe6eac293ac4e668af", "is_reserved": 0, "name": "2dee51035c34c5fe6eac293ac4e668af", "lat": 38.96590966666667, "fusion_lat": 0.0, "lon": -77.015975, "is_disabled": 0, "fusion_lon": 0.0, "rental_uris": {"android": "https://dc.lft.to/lastmile_qr_scan", "ios": "https://dc.lft.to/lastmile_qr_scan"}, "type": "electric_scooter"}, {"bike_id": "b2255fe67be1152a267db3a0b151bc58", "is_reserved": 0, "name": "b2255fe67be1152a267db3a0b151bc58", "lat": 38.8639345, "fusion_lat": 0.0, "lon": -77.20109416666666, "is_disabled": 0, "fusion_lon": 0.0, "rental_uris": {"android": "https://dc.lft.to/lastmile_qr_scan", "ios": "https://dc.lft.to/lastmile_qr_scan"}, "type": "electric_bike"}, {"bike_id": "7edf2e174fc65bb2b1413cd345315722", "is_reserved": 0, "name": "7edf2e174fc65bb2b1413cd345315722", "lat": 38.90342366666667, "fusion_lat": 0.0, "lon": -77.05292416666667, "is_disabled": 0, "fusion_lon": 0.0, "rental_uris": {"android": "https://dc.lft.to/lastmile_qr_scan", "ios": "https://dc.lft.to/lastmile_qr_scan"}, "type": "electric_scooter"}, {"bike_id": "dc8d55b84ee9460fe55d6fbebeb81948", "is_reserved": 0, "name": "dc8d55b84ee9460fe55d6fbebeb81948", "lat": 38.907175333333335, "fusion_lat": 0.0, "lon": -77.00365833333333, "is_disabled": 0, "fusion_lon": 0.0, "rental_uris": {"android": "https://dc.lft.to/lastmile_qr_scan", "ios": "https://dc.lft.to/lastmile_qr_scan"}, "type": "electric_scooter"}, {"bike_id": "2637ffed09856d88bf94a0659e2c908f", "is_reserved": 0, "name": "2637ffed09856d88bf94a0659e2c908f", "lat": 38.90575166666667, "fusion_lat": 0.0, "lon": -77.0240725, "is_disabled": 0, "fusion_lon": 0.0, "rental_uris": {"android": "https://dc.lft.to/lastmile_qr_scan", "ios": "https://dc.lft.to/lastmile_qr_scan"}, "type": "electric_scooter"}, {"bike_id": "48c37175271cb5f6767a4bea7a96db87", "is_reserved": 0, "name": "48c37175271cb5f6767a4bea7a96db87", "lat": 38.902456666666666, "fusion_lat": 0.0, "lon": -77.02614216666667, "is_disabled": 0, "fusion_lon": 0.0, "rental_uris": {"android": "https://dc.lft.to/lastmile_qr_scan", "ios": "https://dc.lft.to/lastmile_qr_scan"}, "type": "electric_scooter"}, {"bike_id": "b75dab54a0bf2740c2750a84bac7af41", "is_reserved": 0, "name": "b75dab54a0bf2740c2750a84bac7af41", "lat": 38.9215105, "fusion_lat": 0.0, "lon": -76.99351416666667, "is_disabled": 0, "fusion_lon": 0.0, "rental_uris": {"android": "https://dc.lft.to/lastmile_qr_scan", "ios": "https://dc.lft.to/lastmile_qr_scan"}, "type": "electric_bike"}, {"bike_id": "a9976ecf81179b780d5098fa999fa32d", "is_reserved": 0, "name": "a9976ecf81179b780d5098fa999fa32d", "lat": 38.88743816666667, "fusion_lat": 0.0, "lon": -77.02130033333333, "is_disabled": 0, "fusion_lon": 0.0, "rental_uris": {"android": "https://dc.lft.to/lastmile_qr_scan", "ios": "https://dc.lft.to/lastmile_qr_scan"}, "type": "electric_scooter"}, {"bike_id": "32d8ad7f2609452336ffcbb93cdcf9f0", "is_reserved": 0, "name": "32d8ad7f2609452336ffcbb93cdcf9f0", "lat": 38.88769816666667, "fusion_lat": 0.0, "lon": -77.02367666666666, "is_disabled": 0, "fusion_lon": 0.0, "rental_uris": {"android": "https://dc.lft.to/lastmile_qr_scan", "ios": "https://dc.lft.to/lastmile_qr_scan"}, "type": "electric_scooter"}, {"bike_id": "f6425e0357f7630005448c71d60dd028", "is_reserved": 0, "name": "f6425e0357f7630005448c71d60dd028", "lat": 38.92429766666667, "fusion_lat": 0.0, "lon": -76.9971525, "is_disabled": 0, "fusion_lon": 0.0, "rental_uris": {"android": "https://dc.lft.to/lastmile_qr_scan", "ios": "https://dc.lft.to/lastmile_qr_scan"}, "type": "electric_scooter"}, {"bike_id": "34668694edf594c1b7b8b2543101034f", "is_reserved": 0, "name": "34668694edf594c1b7b8b2543101034f", "lat": 38.902555, "fusion_lat": 0.0, "lon": -77.02774283333333, "is_disabled": 0, "fusion_lon": 0.0, "rental_uris": {"android": "https://dc.lft.to/lastmile_qr_scan", "ios": "https://dc.lft.to/lastmile_qr_scan"}, "type": "electric_scooter"}, {"bike_id": "b455d7e1a8492baddfdffa7cd3aa975e", "is_reserved": 0, "name": "b455d7e1a8492baddfdffa7cd3aa975e", "lat": 38.91444766666667, "fusion_lat": 0.0, "lon": -77.04476966666667, "is_disabled": 0, "fusion_lon": 0.0, "rental_uris": {"android": "https://dc.lft.to/lastmile_qr_scan", "ios": "https://dc.lft.to/lastmile_qr_scan"}, "type": "electric_scooter"}, {"bike_id": "2a7365dccaa97214c3d6f981a743bc86", "is_reserved": 0, "name": "2a7365dccaa97214c3d6f981a743bc86", "lat": 38.91734866666667, "fusion_lat": 0.0, "lon": -77.02826, "is_disabled": 0, "fusion_lon": 0.0, "rental_uris": {"android": "https://dc.lft.to/lastmile_qr_scan", "ios": "https://dc.lft.to/lastmile_qr_scan"}, "type": "electric_scooter"}, {"bike_id": "696e22b4aff4daeaaadda3afd70ca9f0", "is_reserved": 0, "name": "696e22b4aff4daeaaadda3afd70ca9f0", "lat": 38.9314085, "fusion_lat": 0.0, "lon": -77.078649, "is_disabled": 0, "fusion_lon": 0.0, "rental_uris": {"android": "https://dc.lft.to/lastmile_qr_scan", "ios": "https://dc.lft.to/lastmile_qr_scan"}, "type": "electric_scooter"}, {"bike_id": "8e5b72442485d98f2378c0549f56c152", "is_reserved": 0, "name": "8e5b72442485d98f2378c0549f56c152", "lat": 38.89957416666667, "fusion_lat": 0.0, "lon": -76.98564233333333, "is_disabled": 0, "fusion_lon": 0.0, "rental_uris": {"android": "https://dc.lft.to/lastmile_qr_scan", "ios": "https://dc.lft.to/lastmile_qr_scan"}, "type": "electric_scooter"}, {"bike_id": "6b17a003718d3925a4e28fc8e6ce1048", "is_reserved": 0, "name": "6b17a003718d3925a4e28fc8e6ce1048", "lat": 38.91625616666666, "fusion_lat": 0.0, "lon": -77.03189666666667, "is_disabled": 0, "fusion_lon": 0.0, "rental_uris": {"android": "https://dc.lft.to/lastmile_qr_scan", "ios": "https://dc.lft.to/lastmile_qr_scan"}, "type": "electric_scooter"}, {"bike_id": "23038f9adcba4c90c5db52d904cbb791", "is_reserved": 0, "name": "23038f9adcba4c90c5db52d904cbb791", "lat": 38.90012766666667, "fusion_lat": 0.0, "lon": -77.00068433333334, "is_disabled": 0, "fusion_lon": 0.0, "rental_uris": {"android": "https://dc.lft.to/lastmile_qr_scan", "ios": "https://dc.lft.to/lastmile_qr_scan"}, "type": "electric_scooter"}, {"bike_id": "06ad5c0e6deff0a712f644b8dceab797", "is_reserved": 0, "name": "06ad5c0e6deff0a712f644b8dceab797", "lat": 38.917783666666665, "fusion_lat": 0.0, "lon": -77.02308416666666, "is_disabled": 0, "fusion_lon": 0.0, "rental_uris": {"android": "https://dc.lft.to/lastmile_qr_scan", "ios": "https://dc.lft.to/lastmile_qr_scan"}, "type": "electric_scooter"}, {"bike_id": "cdedc4a6af51b655c115f17c91657708", "is_reserved": 0, "name": "cdedc4a6af51b655c115f17c91657708", "lat": 38.960621, "fusion_lat": 0.0, "lon": -76.941681, "is_disabled": 0, "fusion_lon": 0.0, "rental_uris": {"android": "https://dc.lft.to/lastmile_qr_scan", "ios": "https://dc.lft.to/lastmile_qr_scan"}, "type": "electric_bike"}, {"bike_id": "b8473be863a69814214351b16e3e2f6c", "is_reserved": 0, "name": "b8473be863a69814214351b16e3e2f6c", "lat": 38.90643516666667, "fusion_lat": 0.0, "lon": -77.00580033333334, "is_disabled": 0, "fusion_lon": 0.0, "rental_uris": {"android": "https://dc.lft.to/lastmile_qr_scan", "ios": "https://dc.lft.to/lastmile_qr_scan"}, "type": "electric_scooter"}, {"bike_id": "43971500c5132868a0fc1142916919d2", "is_reserved": 0, "name": "43971500c5132868a0fc1142916919d2", "lat": 38.905778, "fusion_lat": 0.0, "lon": -77.0088775, "is_disabled": 0, "fusion_lon": 0.0, "rental_uris": {"android": "https://dc.lft.to/lastmile_qr_scan", "ios": "https://dc.lft.to/lastmile_qr_scan"}, "type": "electric_scooter"}, {"bike_id": "ebb65aff60a75c6800380018a8767438", "is_reserved": 0, "name": "ebb65aff60a75c6800380018a8767438", "lat": 38.90563216666666, "fusion_lat": 0.0, "lon": -77.0399355, "is_disabled": 0, "fusion_lon": 0.0, "rental_uris": {"android": "https://dc.lft.to/lastmile_qr_scan", "ios": "https://dc.lft.to/lastmile_qr_scan"}, "type": "electric_scooter"}, {"bike_id": "f6340da9a3d6efac86de1aa69754ed7b", "is_reserved": 0, "name": "f6340da9a3d6efac86de1aa69754ed7b", "lat": 38.955113, "fusion_lat": 0.0, "lon": -77.02915166666666, "is_disabled": 0, "fusion_lon": 0.0, "rental_uris": {"android": "https://dc.lft.to/lastmile_qr_scan", "ios": "https://dc.lft.to/lastmile_qr_scan"}, "type": "electric_bike"}, {"bike_id": "45fefc1744b49099b25762e5a13ab1ce", "is_reserved": 0, "name": "45fefc1744b49099b25762e5a13ab1ce", "lat": 38.8898385, "fusion_lat": 0.0, "lon": -76.91419783333333, "is_disabled": 0, "fusion_lon": 0.0, "rental_uris": {"android": "https://dc.lft.to/lastmile_qr_scan", "ios": "https://dc.lft.to/lastmile_qr_scan"}, "type": "electric_scooter"}, {"bike_id": "af0da94390fe043081f6612d72e05aca", "is_reserved": 0, "name": "af0da94390fe043081f6612d72e05aca", "lat": 38.920955666666664, "fusion_lat": 0.0, "lon": -77.02518633333334, "is_disabled": 0, "fusion_lon": 0.0, "rental_uris": {"android": "https://dc.lft.to/lastmile_qr_scan", "ios": "https://dc.lft.to/lastmile_qr_scan"}, "type": "electric_scooter"}, {"bike_id": "7bb0d5512c011619a10211a9cc1e30c6", "is_reserved": 0, "name": "7bb0d5512c011619a10211a9cc1e30c6", "lat": 38.88341366666667, "fusion_lat": 0.0, "lon": -76.93499933333334, "is_disabled": 0, "fusion_lon": 0.0, "rental_uris": {"android": "https://dc.lft.to/lastmile_qr_scan", "ios": "https://dc.lft.to/lastmile_qr_scan"}, "type": "electric_scooter"}, {"bike_id": "b1ce98d42cb4567ecad53ecf56d885f8", "is_reserved": 0, "name": "b1ce98d42cb4567ecad53ecf56d885f8", "lat": 38.92070533333333, "fusion_lat": 0.0, "lon": -77.0240675, "is_disabled": 0, "fusion_lon": 0.0, "rental_uris": {"android": "https://dc.lft.to/lastmile_qr_scan", "ios": "https://dc.lft.to/lastmile_qr_scan"}, "type": "electric_scooter"}, {"bike_id": "5295f0faa445ca639daeb90498addc73", "is_reserved": 0, "name": "5295f0faa445ca639daeb90498addc73", "lat": 38.90155683333333, "fusion_lat": 0.0, "lon": -77.05044583333333, "is_disabled": 0, "fusion_lon": 0.0, "rental_uris": {"android": "https://dc.lft.to/lastmile_qr_scan", "ios": "https://dc.lft.to/lastmile_qr_scan"}, "type": "electric_scooter"}, {"bike_id": "b28ea08cd2b3938f691d8ab2131f9e43", "is_reserved": 0, "name": "b28ea08cd2b3938f691d8ab2131f9e43", "lat": 38.923299166666666, "fusion_lat": 0.0, "lon": -77.05683883333333, "is_disabled": 0, "fusion_lon": 0.0, "rental_uris": {"android": "https://dc.lft.to/lastmile_qr_scan", "ios": "https://dc.lft.to/lastmile_qr_scan"}, "type": "electric_scooter"}, {"bike_id": "d3d2bf44b85a560048cc4a5e681faabb", "is_reserved": 0, "name": "d3d2bf44b85a560048cc4a5e681faabb", "lat": 38.905579333333336, "fusion_lat": 0.0, "lon": -77.03752983333334, "is_disabled": 0, "fusion_lon": 0.0, "rental_uris": {"android": "https://dc.lft.to/lastmile_qr_scan", "ios": "https://dc.lft.to/lastmile_qr_scan"}, "type": "electric_scooter"}, {"bike_id": "631161a933a9629c552c77697ae6780c", "is_reserved": 0, "name": "631161a933a9629c552c77697ae6780c", "lat": 38.94726433333334, "fusion_lat": 0.0, "lon": -77.0654415, "is_disabled": 0, "fusion_lon": 0.0, "rental_uris": {"android": "https://dc.lft.to/lastmile_qr_scan", "ios": "https://dc.lft.to/lastmile_qr_scan"}, "type": "electric_scooter"}, {"bike_id": "ba0d8f011deff813d718135dcae69dd5", "is_reserved": 0, "name": "ba0d8f011deff813d718135dcae69dd5", "lat": 38.887329666666666, "fusion_lat": 0.0, "lon": -77.031887, "is_disabled": 0, "fusion_lon": 0.0, "rental_uris": {"android": "https://dc.lft.to/lastmile_qr_scan", "ios": "https://dc.lft.to/lastmile_qr_scan"}, "type": "electric_scooter"}, {"bike_id": "e53bcc2af287eb90a38a63bb12dfda33", "is_reserved": 0, "name": "e53bcc2af287eb90a38a63bb12dfda33", "lat": 38.912708333333335, "fusion_lat": 0.0, "lon": -77.02234316666667, "is_disabled": 0, "fusion_lon": 0.0, "rental_uris": {"android": "https://dc.lft.to/lastmile_qr_scan", "ios": "https://dc.lft.to/lastmile_qr_scan"}, "type": "electric_scooter"}, {"bike_id": "0c3d91208523954921828b74e9b5f244", "is_reserved": 0, "name": "0c3d91208523954921828b74e9b5f244", "lat": 38.9048425, "fusion_lat": 0.0, "lon": -77.04862516666667, "is_disabled": 0, "fusion_lon": 0.0, "rental_uris": {"android": "https://dc.lft.to/lastmile_qr_scan", "ios": "https://dc.lft.to/lastmile_qr_scan"}, "type": "electric_scooter"}, {"bike_id": "945a7b32d649a585bedca2ea59655a23", "is_reserved": 0, "name": "945a7b32d649a585bedca2ea59655a23", "lat": 38.9156305, "fusion_lat": 0.0, "lon": -77.02177283333333, "is_disabled": 0, "fusion_lon": 0.0, "rental_uris": {"android": "https://dc.lft.to/lastmile_qr_scan", "ios": "https://dc.lft.to/lastmile_qr_scan"}, "type": "electric_scooter"}, {"bike_id": "057384d189cdbc8004aa283f9273b4a7", "is_reserved": 0, "name": "057384d189cdbc8004aa283f9273b4a7", "lat": 38.898977333333335, "fusion_lat": 0.0, "lon": -77.032314, "is_disabled": 0, "fusion_lon": 0.0, "rental_uris": {"android": "https://dc.lft.to/lastmile_qr_scan", "ios": "https://dc.lft.to/lastmile_qr_scan"}, "type": "electric_bike"}, {"bike_id": "55820f2fa892b0b1af08237bff7da3d6", "is_reserved": 0, "name": "55820f2fa892b0b1af08237bff7da3d6", "lat": 38.89961366666667, "fusion_lat": 0.0, "lon": -76.92631133333333, "is_disabled": 0, "fusion_lon": 0.0, "rental_uris": {"android": "https://dc.lft.to/lastmile_qr_scan", "ios": "https://dc.lft.to/lastmile_qr_scan"}, "type": "electric_scooter"}, {"bike_id": "fd95e77757a7dc8c35490fec0dc270ef", "is_reserved": 0, "name": "fd95e77757a7dc8c35490fec0dc270ef", "lat": 38.90232916666667, "fusion_lat": 0.0, "lon": -77.05331916666667, "is_disabled": 0, "fusion_lon": 0.0, "rental_uris": {"android": "https://dc.lft.to/lastmile_qr_scan", "ios": "https://dc.lft.to/lastmile_qr_scan"}, "type": "electric_scooter"}, {"bike_id": "1488fc89344368d2d7e9da074b9b3481", "is_reserved": 0, "name": "1488fc89344368d2d7e9da074b9b3481", "lat": 38.9353775, "fusion_lat": 0.0, "lon": -77.0574515, "is_disabled": 0, "fusion_lon": 0.0, "rental_uris": {"android": "https://dc.lft.to/lastmile_qr_scan", "ios": "https://dc.lft.to/lastmile_qr_scan"}, "type": "electric_scooter"}, {"bike_id": "dd23f808fbf4e016e7fdfe5c5aee03f3", "is_reserved": 0, "name": "dd23f808fbf4e016e7fdfe5c5aee03f3", "lat": 38.99209166666667, "fusion_lat": 0.0, "lon": -77.03216516666667, "is_disabled": 0, "fusion_lon": 0.0, "rental_uris": {"android": "https://dc.lft.to/lastmile_qr_scan", "ios": "https://dc.lft.to/lastmile_qr_scan"}, "type": "electric_bike"}, {"bike_id": "fae2eec3f19a77f979a0313b575a5d13", "is_reserved": 0, "name": "fae2eec3f19a77f979a0313b575a5d13", "lat": 38.91691083333333, "fusion_lat": 0.0, "lon": -77.03390433333334, "is_disabled": 0, "fusion_lon": 0.0, "rental_uris": {"android": "https://dc.lft.to/lastmile_qr_scan", "ios": "https://dc.lft.to/lastmile_qr_scan"}, "type": "electric_scooter"}, {"bike_id": "0389c5ce5fa92e3dfc65afce743116d7", "is_reserved": 0, "name": "0389c5ce5fa92e3dfc65afce743116d7", "lat": 38.897447166666666, "fusion_lat": 0.0, "lon": -77.02807783333333, "is_disabled": 0, "fusion_lon": 0.0, "rental_uris": {"android": "https://dc.lft.to/lastmile_qr_scan", "ios": "https://dc.lft.to/lastmile_qr_scan"}, "type": "electric_bike"}, {"bike_id": "8f38df7e5e7a96a6b711651f2c90c977", "is_reserved": 0, "name": "8f38df7e5e7a96a6b711651f2c90c977", "lat": 38.90990933333333, "fusion_lat": 0.0, "lon": -77.04658133333334, "is_disabled": 0, "fusion_lon": 0.0, "rental_uris": {"android": "https://dc.lft.to/lastmile_qr_scan", "ios": "https://dc.lft.to/lastmile_qr_scan"}, "type": "electric_scooter"}, {"bike_id": "e004de6b59ba8b11bf500efcc8354654", "is_reserved": 0, "name": "e004de6b59ba8b11bf500efcc8354654", "lat": 38.9183285, "fusion_lat": 0.0, "lon": -77.03186566666666, "is_disabled": 0, "fusion_lon": 0.0, "rental_uris": {"android": "https://dc.lft.to/lastmile_qr_scan", "ios": "https://dc.lft.to/lastmile_qr_scan"}, "type": "electric_scooter"}, {"bike_id": "7bd82b1a715975c36ee9de99d9c13ed7", "is_reserved": 0, "name": "7bd82b1a715975c36ee9de99d9c13ed7", "lat": 38.902457, "fusion_lat": 0.0, "lon": -77.01797516666667, "is_disabled": 0, "fusion_lon": 0.0, "rental_uris": {"android": "https://dc.lft.to/lastmile_qr_scan", "ios": "https://dc.lft.to/lastmile_qr_scan"}, "type": "electric_scooter"}, {"bike_id": "3a6e4d2c7cbf4cab53536be65298ac1e", "is_reserved": 0, "name": "3a6e4d2c7cbf4cab53536be65298ac1e", "lat": 38.89299366666667, "fusion_lat": 0.0, "lon": -77.012311, "is_disabled": 0, "fusion_lon": 0.0, "rental_uris": {"android": "https://dc.lft.to/lastmile_qr_scan", "ios": "https://dc.lft.to/lastmile_qr_scan"}, "type": "electric_scooter"}, {"bike_id": "121bea9aee760773c1b5c7a796f747b8", "is_reserved": 0, "name": "121bea9aee760773c1b5c7a796f747b8", "lat": 38.93246033333333, "fusion_lat": 0.0, "lon": -77.06649383333334, "is_disabled": 0, "fusion_lon": 0.0, "rental_uris": {"android": "https://dc.lft.to/lastmile_qr_scan", "ios": "https://dc.lft.to/lastmile_qr_scan"}, "type": "electric_scooter"}, {"bike_id": "05ca220acbb270f1d8ecca1bbdfdd3c4", "is_reserved": 0, "name": "05ca220acbb270f1d8ecca1bbdfdd3c4", "lat": 38.90744633333333, "fusion_lat": 0.0, "lon": -77.02390483333333, "is_disabled": 0, "fusion_lon": 0.0, "rental_uris": {"android": "https://dc.lft.to/lastmile_qr_scan", "ios": "https://dc.lft.to/lastmile_qr_scan"}, "type": "electric_scooter"}, {"bike_id": "5b8c89aa887077be8796b1aa5013a90c", "is_reserved": 0, "name": "5b8c89aa887077be8796b1aa5013a90c", "lat": 38.89917783333333, "fusion_lat": 0.0, "lon": -77.03371566666667, "is_disabled": 0, "fusion_lon": 0.0, "rental_uris": {"android": "https://dc.lft.to/lastmile_qr_scan", "ios": "https://dc.lft.to/lastmile_qr_scan"}, "type": "electric_scooter"}, {"bike_id": "a23f0ecfd334e0b68901d62b0d4487c0", "is_reserved": 0, "name": "a23f0ecfd334e0b68901d62b0d4487c0", "lat": 38.92056916666667, "fusion_lat": 0.0, "lon": -77.0258025, "is_disabled": 0, "fusion_lon": 0.0, "rental_uris": {"android": "https://dc.lft.to/lastmile_qr_scan", "ios": "https://dc.lft.to/lastmile_qr_scan"}, "type": "electric_scooter"}, {"bike_id": "0853600506c5c5d5e4766ab2d21bb568", "is_reserved": 0, "name": "0853600506c5c5d5e4766ab2d21bb568", "lat": 38.91899166666666, "fusion_lat": 0.0, "lon": -77.02403666666666, "is_disabled": 0, "fusion_lon": 0.0, "rental_uris": {"android": "https://dc.lft.to/lastmile_qr_scan", "ios": "https://dc.lft.to/lastmile_qr_scan"}, "type": "electric_scooter"}, {"bike_id": "fc1782f1bf7f69532cab1e36be6ccb9b", "is_reserved": 0, "name": "fc1782f1bf7f69532cab1e36be6ccb9b", "lat": 38.92458833333333, "fusion_lat": 0.0, "lon": -77.02247666666666, "is_disabled": 0, "fusion_lon": 0.0, "rental_uris": {"android": "https://dc.lft.to/lastmile_qr_scan", "ios": "https://dc.lft.to/lastmile_qr_scan"}, "type": "electric_scooter"}, {"bike_id": "4571ad76c4e16fb4837db40287dcabf4", "is_reserved": 0, "name": "4571ad76c4e16fb4837db40287dcabf4", "lat": 38.90239116666667, "fusion_lat": 0.0, "lon": -77.03883733333333, "is_disabled": 0, "fusion_lon": 0.0, "rental_uris": {"android": "https://dc.lft.to/lastmile_qr_scan", "ios": "https://dc.lft.to/lastmile_qr_scan"}, "type": "electric_scooter"}, {"bike_id": "ed4d3fd790470c0aeecf44dfa766c4f0", "is_reserved": 0, "name": "ed4d3fd790470c0aeecf44dfa766c4f0", "lat": 38.87830783333333, "fusion_lat": 0.0, "lon": -76.96320883333334, "is_disabled": 0, "fusion_lon": 0.0, "rental_uris": {"android": "https://dc.lft.to/lastmile_qr_scan", "ios": "https://dc.lft.to/lastmile_qr_scan"}, "type": "electric_scooter"}, {"bike_id": "143fb0f3e5bebd77e5c988cd443e604a", "is_reserved": 0, "name": "143fb0f3e5bebd77e5c988cd443e604a", "lat": 38.87373633333333, "fusion_lat": 0.0, "lon": -77.000354, "is_disabled": 0, "fusion_lon": 0.0, "rental_uris": {"android": "https://dc.lft.to/lastmile_qr_scan", "ios": "https://dc.lft.to/lastmile_qr_scan"}, "type": "electric_scooter"}, {"bike_id": "327224c47ebf99ddb8a528aa6d0d623a", "is_reserved": 0, "name": "327224c47ebf99ddb8a528aa6d0d623a", "lat": 38.9057675, "fusion_lat": 0.0, "lon": -77.0058875, "is_disabled": 0, "fusion_lon": 0.0, "rental_uris": {"android": "https://dc.lft.to/lastmile_qr_scan", "ios": "https://dc.lft.to/lastmile_qr_scan"}, "type": "electric_scooter"}, {"bike_id": "48f9f00169957e72563071b91eba6984", "is_reserved": 0, "name": "48f9f00169957e72563071b91eba6984", "lat": 38.94082433333333, "fusion_lat": 0.0, "lon": -77.02641383333334, "is_disabled": 0, "fusion_lon": 0.0, "rental_uris": {"android": "https://dc.lft.to/lastmile_qr_scan", "ios": "https://dc.lft.to/lastmile_qr_scan"}, "type": "electric_scooter"}, {"bike_id": "6fa2dcb3f16a4d570ccdb585e1b2459f", "is_reserved": 0, "name": "6fa2dcb3f16a4d570ccdb585e1b2459f", "lat": 38.92051383333333, "fusion_lat": 0.0, "lon": -77.033856, "is_disabled": 0, "fusion_lon": 0.0, "rental_uris": {"android": "https://dc.lft.to/lastmile_qr_scan", "ios": "https://dc.lft.to/lastmile_qr_scan"}, "type": "electric_scooter"}, {"bike_id": "89b37b4f5b39a5fdbfcde90b3dbf7f6c", "is_reserved": 0, "name": "89b37b4f5b39a5fdbfcde90b3dbf7f6c", "lat": 38.917551333333336, "fusion_lat": 0.0, "lon": -77.02673233333333, "is_disabled": 0, "fusion_lon": 0.0, "rental_uris": {"android": "https://dc.lft.to/lastmile_qr_scan", "ios": "https://dc.lft.to/lastmile_qr_scan"}, "type": "electric_scooter"}, {"bike_id": "99b7834d795a434862d7fe1e3f8dab12", "is_reserved": 0, "name": "99b7834d795a434862d7fe1e3f8dab12", "lat": 38.902563666666666, "fusion_lat": 0.0, "lon": -77.01870033333333, "is_disabled": 0, "fusion_lon": 0.0, "rental_uris": {"android": "https://dc.lft.to/lastmile_qr_scan", "ios": "https://dc.lft.to/lastmile_qr_scan"}, "type": "electric_scooter"}, {"bike_id": "4c5fe25872059fc5f5dd73df3506b101", "is_reserved": 0, "name": "4c5fe25872059fc5f5dd73df3506b101", "lat": 38.89223333333333, "fusion_lat": 0.0, "lon": -77.0432465, "is_disabled": 0, "fusion_lon": 0.0, "rental_uris": {"android": "https://dc.lft.to/lastmile_qr_scan", "ios": "https://dc.lft.to/lastmile_qr_scan"}, "type": "electric_scooter"}, {"bike_id": "d88c59c7212641ecc4896a9987734f50", "is_reserved": 0, "name": "d88c59c7212641ecc4896a9987734f50", "lat": 38.8984005, "fusion_lat": 0.0, "lon": -77.02784516666667, "is_disabled": 0, "fusion_lon": 0.0, "rental_uris": {"android": "https://dc.lft.to/lastmile_qr_scan", "ios": "https://dc.lft.to/lastmile_qr_scan"}, "type": "electric_scooter"}, {"bike_id": "4aa3b1690e1ad9c0d78253161c521625", "is_reserved": 0, "name": "4aa3b1690e1ad9c0d78253161c521625", "lat": 38.887442166666666, "fusion_lat": 0.0, "lon": -77.01778916666666, "is_disabled": 0, "fusion_lon": 0.0, "rental_uris": {"android": "https://dc.lft.to/lastmile_qr_scan", "ios": "https://dc.lft.to/lastmile_qr_scan"}, "type": "electric_scooter"}, {"bike_id": "1949a19d8a5bfcfd8794778511c3798f", "is_reserved": 0, "name": "1949a19d8a5bfcfd8794778511c3798f", "lat": 38.89008716666667, "fusion_lat": 0.0, "lon": -76.9370055, "is_disabled": 0, "fusion_lon": 0.0, "rental_uris": {"android": "https://dc.lft.to/lastmile_qr_scan", "ios": "https://dc.lft.to/lastmile_qr_scan"}, "type": "electric_scooter"}, {"bike_id": "a9d7151fecc8fcb9899a4b55f45c035c", "is_reserved": 0, "name": "a9d7151fecc8fcb9899a4b55f45c035c", "lat": 38.903211166666665, "fusion_lat": 0.0, "lon": -77.024524, "is_disabled": 0, "fusion_lon": 0.0, "rental_uris": {"android": "https://dc.lft.to/lastmile_qr_scan", "ios": "https://dc.lft.to/lastmile_qr_scan"}, "type": "electric_scooter"}, {"bike_id": "a631fe74b5fd4ed7ea1eea6671fac67c", "is_reserved": 0, "name": "a631fe74b5fd4ed7ea1eea6671fac67c", "lat": 38.9081795, "fusion_lat": 0.0, "lon": -77.0433955, "is_disabled": 0, "fusion_lon": 0.0, "rental_uris": {"android": "https://dc.lft.to/lastmile_qr_scan", "ios": "https://dc.lft.to/lastmile_qr_scan"}, "type": "electric_scooter"}, {"bike_id": "47bc072c801f3b95d2a0adee3f7da840", "is_reserved": 0, "name": "47bc072c801f3b95d2a0adee3f7da840", "lat": 38.942727166666664, "fusion_lat": 0.0, "lon": -77.03255716666666, "is_disabled": 0, "fusion_lon": 0.0, "rental_uris": {"android": "https://dc.lft.to/lastmile_qr_scan", "ios": "https://dc.lft.to/lastmile_qr_scan"}, "type": "electric_scooter"}, {"bike_id": "55ff84ee2d1fc2a92f7aed6d354a7583", "is_reserved": 0, "name": "55ff84ee2d1fc2a92f7aed6d354a7583", "lat": 38.914064, "fusion_lat": 0.0, "lon": -77.02981866666667, "is_disabled": 0, "fusion_lon": 0.0, "rental_uris": {"android": "https://dc.lft.to/lastmile_qr_scan", "ios": "https://dc.lft.to/lastmile_qr_scan"}, "type": "electric_scooter"}, {"bike_id": "58e4852829c5dad0c40f23629b325c25", "is_reserved": 0, "name": "58e4852829c5dad0c40f23629b325c25", "lat": 38.835149666666666, "fusion_lat": 0.0, "lon": -76.98680916666666, "is_disabled": 0, "fusion_lon": 0.0, "rental_uris": {"android": "https://dc.lft.to/lastmile_qr_scan", "ios": "https://dc.lft.to/lastmile_qr_scan"}, "type": "electric_bike"}, {"bike_id": "2783b108431c75dcd9e2369ba498d231", "is_reserved": 0, "name": "2783b108431c75dcd9e2369ba498d231", "lat": 38.901264, "fusion_lat": 0.0, "lon": -77.0461655, "is_disabled": 0, "fusion_lon": 0.0, "rental_uris": {"android": "https://dc.lft.to/lastmile_qr_scan", "ios": "https://dc.lft.to/lastmile_qr_scan"}, "type": "electric_scooter"}, {"bike_id": "a427274cab7271b7cd1f913e56a8710d", "is_reserved": 0, "name": "a427274cab7271b7cd1f913e56a8710d", "lat": 38.8899865, "fusion_lat": 0.0, "lon": -76.95432733333334, "is_disabled": 0, "fusion_lon": 0.0, "rental_uris": {"android": "https://dc.lft.to/lastmile_qr_scan", "ios": "https://dc.lft.to/lastmile_qr_scan"}, "type": "electric_scooter"}, {"bike_id": "fdda8a1da80af8f97824e8ed9add907b", "is_reserved": 0, "name": "fdda8a1da80af8f97824e8ed9add907b", "lat": 38.87378416666667, "fusion_lat": 0.0, "lon": -77.00115766666667, "is_disabled": 0, "fusion_lon": 0.0, "rental_uris": {"android": "https://dc.lft.to/lastmile_qr_scan", "ios": "https://dc.lft.to/lastmile_qr_scan"}, "type": "electric_scooter"}, {"bike_id": "979fb3903de6ad79100fd41b9cf49597", "is_reserved": 0, "name": "979fb3903de6ad79100fd41b9cf49597", "lat": 38.95558416666667, "fusion_lat": 0.0, "lon": -77.02442083333334, "is_disabled": 0, "fusion_lon": 0.0, "rental_uris": {"android": "https://dc.lft.to/lastmile_qr_scan", "ios": "https://dc.lft.to/lastmile_qr_scan"}, "type": "electric_bike"}, {"bike_id": "635f44f989e567e811fa3e5c9679f3af", "is_reserved": 0, "name": "635f44f989e567e811fa3e5c9679f3af", "lat": 38.8972785, "fusion_lat": 0.0, "lon": -77.01867933333334, "is_disabled": 0, "fusion_lon": 0.0, "rental_uris": {"android": "https://dc.lft.to/lastmile_qr_scan", "ios": "https://dc.lft.to/lastmile_qr_scan"}, "type": "electric_scooter"}, {"bike_id": "ce0cc79501fb2e2a3f8f06b0ff754213", "is_reserved": 0, "name": "ce0cc79501fb2e2a3f8f06b0ff754213", "lat": 38.910932833333334, "fusion_lat": 0.0, "lon": -77.00375516666666, "is_disabled": 0, "fusion_lon": 0.0, "rental_uris": {"android": "https://dc.lft.to/lastmile_qr_scan", "ios": "https://dc.lft.to/lastmile_qr_scan"}, "type": "electric_scooter"}, {"bike_id": "015d181baca0886edf2644ee7588530c", "is_reserved": 0, "name": "015d181baca0886edf2644ee7588530c", "lat": 38.901174833333336, "fusion_lat": 0.0, "lon": -77.03457233333333, "is_disabled": 0, "fusion_lon": 0.0, "rental_uris": {"android": "https://dc.lft.to/lastmile_qr_scan", "ios": "https://dc.lft.to/lastmile_qr_scan"}, "type": "electric_scooter"}, {"bike_id": "15ad79bc248f5621d252f6680ecb735b", "is_reserved": 0, "name": "15ad79bc248f5621d252f6680ecb735b", "lat": 38.912613, "fusion_lat": 0.0, "lon": -77.03058516666667, "is_disabled": 0, "fusion_lon": 0.0, "rental_uris": {"android": "https://dc.lft.to/lastmile_qr_scan", "ios": "https://dc.lft.to/lastmile_qr_scan"}, "type": "electric_scooter"}, {"bike_id": "e6d76cf33062d4b1fb5dee1f0b67191e", "is_reserved": 0, "name": "e6d76cf33062d4b1fb5dee1f0b67191e", "lat": 38.915456666666664, "fusion_lat": 0.0, "lon": -77.03855566666667, "is_disabled": 0, "fusion_lon": 0.0, "rental_uris": {"android": "https://dc.lft.to/lastmile_qr_scan", "ios": "https://dc.lft.to/lastmile_qr_scan"}, "type": "electric_scooter"}, {"bike_id": "fb9ee2d2b1be9ca6a5fa9ef1781cade7", "is_reserved": 0, "name": "fb9ee2d2b1be9ca6a5fa9ef1781cade7", "lat": 38.873741333333335, "fusion_lat": 0.0, "lon": -77.00168783333334, "is_disabled": 0, "fusion_lon": 0.0, "rental_uris": {"android": "https://dc.lft.to/lastmile_qr_scan", "ios": "https://dc.lft.to/lastmile_qr_scan"}, "type": "electric_scooter"}, {"bike_id": "aef9726c3482104e937d3f042dd37727", "is_reserved": 0, "name": "aef9726c3482104e937d3f042dd37727", "lat": 38.90119966666666, "fusion_lat": 0.0, "lon": -77.00323533333334, "is_disabled": 0, "fusion_lon": 0.0, "rental_uris": {"android": "https://dc.lft.to/lastmile_qr_scan", "ios": "https://dc.lft.to/lastmile_qr_scan"}, "type": "electric_scooter"}, {"bike_id": "28011b26567d39e076c2292788304d4d", "is_reserved": 0, "name": "28011b26567d39e076c2292788304d4d", "lat": 38.944044833333336, "fusion_lat": 0.0, "lon": -77.05518416666666, "is_disabled": 0, "fusion_lon": 0.0, "rental_uris": {"android": "https://dc.lft.to/lastmile_qr_scan", "ios": "https://dc.lft.to/lastmile_qr_scan"}, "type": "electric_bike"}, {"bike_id": "5cc6975e629796da25592159adb99615", "is_reserved": 0, "name": "5cc6975e629796da25592159adb99615", "lat": 38.88663316666667, "fusion_lat": 0.0, "lon": -77.16231566666667, "is_disabled": 0, "fusion_lon": 0.0, "rental_uris": {"android": "https://dc.lft.to/lastmile_qr_scan", "ios": "https://dc.lft.to/lastmile_qr_scan"}, "type": "electric_bike"}, {"bike_id": "b9f91aa91bd88a14e25e0e02d56dcbac", "is_reserved": 0, "name": "b9f91aa91bd88a14e25e0e02d56dcbac", "lat": 39.014145166666665, "fusion_lat": 0.0, "lon": -77.04497416666666, "is_disabled": 0, "fusion_lon": 0.0, "rental_uris": {"android": "https://dc.lft.to/lastmile_qr_scan", "ios": "https://dc.lft.to/lastmile_qr_scan"}, "type": "electric_bike"}, {"bike_id": "0e53592e1a7725ae3f4753b6c5dd66ea", "is_reserved": 0, "name": "0e53592e1a7725ae3f4753b6c5dd66ea", "lat": 38.88174166666667, "fusion_lat": 0.0, "lon": -77.02776516666667, "is_disabled": 0, "fusion_lon": 0.0, "rental_uris": {"android": "https://dc.lft.to/lastmile_qr_scan", "ios": "https://dc.lft.to/lastmile_qr_scan"}, "type": "electric_scooter"}, {"bike_id": "30e575aa98ab309686eb1f129e7b60a0", "is_reserved": 0, "name": "30e575aa98ab309686eb1f129e7b60a0", "lat": 38.929931833333335, "fusion_lat": 0.0, "lon": -77.03799366666667, "is_disabled": 0, "fusion_lon": 0.0, "rental_uris": {"android": "https://dc.lft.to/lastmile_qr_scan", "ios": "https://dc.lft.to/lastmile_qr_scan"}, "type": "electric_scooter"}, {"bike_id": "70bfc43d5b481d707b727ca8915668e8", "is_reserved": 0, "name": "70bfc43d5b481d707b727ca8915668e8", "lat": 38.93069833333333, "fusion_lat": 0.0, "lon": -77.03151866666667, "is_disabled": 0, "fusion_lon": 0.0, "rental_uris": {"android": "https://dc.lft.to/lastmile_qr_scan", "ios": "https://dc.lft.to/lastmile_qr_scan"}, "type": "electric_scooter"}, {"bike_id": "528fed786b95b2d3090c8b389b5952b1", "is_reserved": 0, "name": "528fed786b95b2d3090c8b389b5952b1", "lat": 38.887459, "fusion_lat": 0.0, "lon": -76.99846216666667, "is_disabled": 0, "fusion_lon": 0.0, "rental_uris": {"android": "https://dc.lft.to/lastmile_qr_scan", "ios": "https://dc.lft.to/lastmile_qr_scan"}, "type": "electric_scooter"}, {"bike_id": "c5f94a6c9d7f07ac39ef6718fb63a548", "is_reserved": 0, "name": "c5f94a6c9d7f07ac39ef6718fb63a548", "lat": 38.908140333333336, "fusion_lat": 0.0, "lon": -77.04174966666666, "is_disabled": 0, "fusion_lon": 0.0, "rental_uris": {"android": "https://dc.lft.to/lastmile_qr_scan", "ios": "https://dc.lft.to/lastmile_qr_scan"}, "type": "electric_scooter"}, {"bike_id": "a86d288fa5cf70ea698876c44ed03799", "is_reserved": 0, "name": "a86d288fa5cf70ea698876c44ed03799", "lat": 38.90962533333333, "fusion_lat": 0.0, "lon": -77.039369, "is_disabled": 0, "fusion_lon": 0.0, "rental_uris": {"android": "https://dc.lft.to/lastmile_qr_scan", "ios": "https://dc.lft.to/lastmile_qr_scan"}, "type": "electric_scooter"}, {"bike_id": "b674cb53681e506bb7ccc50c91ddf1b2", "is_reserved": 0, "name": "b674cb53681e506bb7ccc50c91ddf1b2", "lat": 38.8620295, "fusion_lat": 0.0, "lon": -76.9953485, "is_disabled": 0, "fusion_lon": 0.0, "rental_uris": {"android": "https://dc.lft.to/lastmile_qr_scan", "ios": "https://dc.lft.to/lastmile_qr_scan"}, "type": "electric_bike"}, {"bike_id": "55771454c0b4ee4ca14e928b3534e1e6", "is_reserved": 0, "name": "55771454c0b4ee4ca14e928b3534e1e6", "lat": 38.88411383333333, "fusion_lat": 0.0, "lon": -77.02988416666666, "is_disabled": 0, "fusion_lon": 0.0, "rental_uris": {"android": "https://dc.lft.to/lastmile_qr_scan", "ios": "https://dc.lft.to/lastmile_qr_scan"}, "type": "electric_scooter"}, {"bike_id": "c029d29e17d2c1db94e64b3fdb298640", "is_reserved": 0, "name": "c029d29e17d2c1db94e64b3fdb298640", "lat": 38.918717666666666, "fusion_lat": 0.0, "lon": -76.96400816666667, "is_disabled": 0, "fusion_lon": 0.0, "rental_uris": {"android": "https://dc.lft.to/lastmile_qr_scan", "ios": "https://dc.lft.to/lastmile_qr_scan"}, "type": "electric_scooter"}, {"bike_id": "15a2ea4616b2e2b6698264302512bab2", "is_reserved": 0, "name": "15a2ea4616b2e2b6698264302512bab2", "lat": 38.91269616666666, "fusion_lat": 0.0, "lon": -77.02231033333334, "is_disabled": 0, "fusion_lon": 0.0, "rental_uris": {"android": "https://dc.lft.to/lastmile_qr_scan", "ios": "https://dc.lft.to/lastmile_qr_scan"}, "type": "electric_scooter"}, {"bike_id": "eae340f57e7ca6374f46bceee825b27a", "is_reserved": 0, "name": "eae340f57e7ca6374f46bceee825b27a", "lat": 38.90591216666667, "fusion_lat": 0.0, "lon": -77.04349866666666, "is_disabled": 0, "fusion_lon": 0.0, "rental_uris": {"android": "https://dc.lft.to/lastmile_qr_scan", "ios": "https://dc.lft.to/lastmile_qr_scan"}, "type": "electric_scooter"}, {"bike_id": "b2dbdb795645b52d896581e17dd4a28d", "is_reserved": 0, "name": "b2dbdb795645b52d896581e17dd4a28d", "lat": 38.9317545, "fusion_lat": 0.0, "lon": -77.0565025, "is_disabled": 0, "fusion_lon": 0.0, "rental_uris": {"android": "https://dc.lft.to/lastmile_qr_scan", "ios": "https://dc.lft.to/lastmile_qr_scan"}, "type": "electric_scooter"}, {"bike_id": "7647a9a7188a4f236886e8177b3e6110", "is_reserved": 0, "name": "7647a9a7188a4f236886e8177b3e6110", "lat": 38.91028216666667, "fusion_lat": 0.0, "lon": -77.0426335, "is_disabled": 0, "fusion_lon": 0.0, "rental_uris": {"android": "https://dc.lft.to/lastmile_qr_scan", "ios": "https://dc.lft.to/lastmile_qr_scan"}, "type": "electric_scooter"}, {"bike_id": "b3d2887a38b2aad5d14f470f705e2687", "is_reserved": 0, "name": "b3d2887a38b2aad5d14f470f705e2687", "lat": 38.910257333333334, "fusion_lat": 0.0, "lon": -77.04262, "is_disabled": 0, "fusion_lon": 0.0, "rental_uris": {"android": "https://dc.lft.to/lastmile_qr_scan", "ios": "https://dc.lft.to/lastmile_qr_scan"}, "type": "electric_scooter"}, {"bike_id": "64ed1cd5b8cba989eb252f8ac4badd84", "is_reserved": 0, "name": "64ed1cd5b8cba989eb252f8ac4badd84", "lat": 38.92496916666666, "fusion_lat": 0.0, "lon": -77.23342666666667, "is_disabled": 0, "fusion_lon": 0.0, "rental_uris": {"android": "https://dc.lft.to/lastmile_qr_scan", "ios": "https://dc.lft.to/lastmile_qr_scan"}, "type": "electric_bike"}, {"bike_id": "fe2b4d0b0fdb20ba5b4cf44694d2d624", "is_reserved": 0, "name": "fe2b4d0b0fdb20ba5b4cf44694d2d624", "lat": 38.90201416666667, "fusion_lat": 0.0, "lon": -77.02378183333333, "is_disabled": 0, "fusion_lon": 0.0, "rental_uris": {"android": "https://dc.lft.to/lastmile_qr_scan", "ios": "https://dc.lft.to/lastmile_qr_scan"}, "type": "electric_scooter"}, {"bike_id": "b17241d119f79d2060aced4f96a4bba4", "is_reserved": 0, "name": "b17241d119f79d2060aced4f96a4bba4", "lat": 38.901135833333335, "fusion_lat": 0.0, "lon": -77.033865, "is_disabled": 0, "fusion_lon": 0.0, "rental_uris": {"android": "https://dc.lft.to/lastmile_qr_scan", "ios": "https://dc.lft.to/lastmile_qr_scan"}, "type": "electric_scooter"}, {"bike_id": "2e0d17107c342485e298f2c25c0aa023", "is_reserved": 0, "name": "2e0d17107c342485e298f2c25c0aa023", "lat": 38.905651, "fusion_lat": 0.0, "lon": -76.981514, "is_disabled": 0, "fusion_lon": 0.0, "rental_uris": {"android": "https://dc.lft.to/lastmile_qr_scan", "ios": "https://dc.lft.to/lastmile_qr_scan"}, "type": "electric_scooter"}, {"bike_id": "f63f0e1dc9941488de4673f0be0723d3", "is_reserved": 0, "name": "f63f0e1dc9941488de4673f0be0723d3", "lat": 38.92020933333333, "fusion_lat": 0.0, "lon": -76.99568283333333, "is_disabled": 0, "fusion_lon": 0.0, "rental_uris": {"android": "https://dc.lft.to/lastmile_qr_scan", "ios": "https://dc.lft.to/lastmile_qr_scan"}, "type": "electric_scooter"}, {"bike_id": "7a900ce114fc8cfdd2617eac2bbf7e58", "is_reserved": 0, "name": "7a900ce114fc8cfdd2617eac2bbf7e58", "lat": 38.907345166666666, "fusion_lat": 0.0, "lon": -77.0295215, "is_disabled": 0, "fusion_lon": 0.0, "rental_uris": {"android": "https://dc.lft.to/lastmile_qr_scan", "ios": "https://dc.lft.to/lastmile_qr_scan"}, "type": "electric_scooter"}, {"bike_id": "7568dc5f2ad78ae68902cf02d2cdd6a8", "is_reserved": 0, "name": "7568dc5f2ad78ae68902cf02d2cdd6a8", "lat": 38.908749666666665, "fusion_lat": 0.0, "lon": -77.07534633333333, "is_disabled": 0, "fusion_lon": 0.0, "rental_uris": {"android": "https://dc.lft.to/lastmile_qr_scan", "ios": "https://dc.lft.to/lastmile_qr_scan"}, "type": "electric_scooter"}, {"bike_id": "cf21bb01fc91b5bc1c515a0522179591", "is_reserved": 0, "name": "cf21bb01fc91b5bc1c515a0522179591", "lat": 38.9110345, "fusion_lat": 0.0, "lon": -77.042041, "is_disabled": 0, "fusion_lon": 0.0, "rental_uris": {"android": "https://dc.lft.to/lastmile_qr_scan", "ios": "https://dc.lft.to/lastmile_qr_scan"}, "type": "electric_scooter"}, {"bike_id": "e6e50f3110dd93109030173828177aa8", "is_reserved": 0, "name": "e6e50f3110dd93109030173828177aa8", "lat": 38.923812833333336, "fusion_lat": 0.0, "lon": -77.027365, "is_disabled": 0, "fusion_lon": 0.0, "rental_uris": {"android": "https://dc.lft.to/lastmile_qr_scan", "ios": "https://dc.lft.to/lastmile_qr_scan"}, "type": "electric_scooter"}, {"bike_id": "c87ea5435613846a90e3524a932a63c1", "is_reserved": 0, "name": "c87ea5435613846a90e3524a932a63c1", "lat": 38.9097035, "fusion_lat": 0.0, "lon": -77.03434733333333, "is_disabled": 0, "fusion_lon": 0.0, "rental_uris": {"android": "https://dc.lft.to/lastmile_qr_scan", "ios": "https://dc.lft.to/lastmile_qr_scan"}, "type": "electric_scooter"}, {"bike_id": "133c370ba2d2e229aa397a903e6cb158", "is_reserved": 0, "name": "133c370ba2d2e229aa397a903e6cb158", "lat": 38.90663716666667, "fusion_lat": 0.0, "lon": -77.02712216666667, "is_disabled": 0, "fusion_lon": 0.0, "rental_uris": {"android": "https://dc.lft.to/lastmile_qr_scan", "ios": "https://dc.lft.to/lastmile_qr_scan"}, "type": "electric_scooter"}, {"bike_id": "8551e9c115f9cbbc0f9aa1d2447389cd", "is_reserved": 0, "name": "8551e9c115f9cbbc0f9aa1d2447389cd", "lat": 38.900950333333334, "fusion_lat": 0.0, "lon": -77.05690266666667, "is_disabled": 0, "fusion_lon": 0.0, "rental_uris": {"android": "https://dc.lft.to/lastmile_qr_scan", "ios": "https://dc.lft.to/lastmile_qr_scan"}, "type": "electric_scooter"}, {"bike_id": "97e289146dfa3cb92fb9b7bba255dfa3", "is_reserved": 0, "name": "97e289146dfa3cb92fb9b7bba255dfa3", "lat": 38.91750366666667, "fusion_lat": 0.0, "lon": -77.02492266666667, "is_disabled": 0, "fusion_lon": 0.0, "rental_uris": {"android": "https://dc.lft.to/lastmile_qr_scan", "ios": "https://dc.lft.to/lastmile_qr_scan"}, "type": "electric_scooter"}, {"bike_id": "b8ec5fed13d3315565c7d19898cb062a", "is_reserved": 0, "name": "b8ec5fed13d3315565c7d19898cb062a", "lat": 38.928084, "fusion_lat": 0.0, "lon": -77.03635733333333, "is_disabled": 0, "fusion_lon": 0.0, "rental_uris": {"android": "https://dc.lft.to/lastmile_qr_scan", "ios": "https://dc.lft.to/lastmile_qr_scan"}, "type": "electric_scooter"}, {"bike_id": "65d64861538c341223040dacf4cdc4b0", "is_reserved": 0, "name": "65d64861538c341223040dacf4cdc4b0", "lat": 38.89586166666667, "fusion_lat": 0.0, "lon": -76.98317166666666, "is_disabled": 0, "fusion_lon": 0.0, "rental_uris": {"android": "https://dc.lft.to/lastmile_qr_scan", "ios": "https://dc.lft.to/lastmile_qr_scan"}, "type": "electric_scooter"}, {"bike_id": "e52e9e62159394fbc3ceac495c666f57", "is_reserved": 0, "name": "e52e9e62159394fbc3ceac495c666f57", "lat": 38.913155333333336, "fusion_lat": 0.0, "lon": -77.0318945, "is_disabled": 0, "fusion_lon": 0.0, "rental_uris": {"android": "https://dc.lft.to/lastmile_qr_scan", "ios": "https://dc.lft.to/lastmile_qr_scan"}, "type": "electric_scooter"}, {"bike_id": "b113cf1601078d96cb977e4dc2a21d86", "is_reserved": 0, "name": "b113cf1601078d96cb977e4dc2a21d86", "lat": 38.900505, "fusion_lat": 0.0, "lon": -77.00066666666666, "is_disabled": 0, "fusion_lon": 0.0, "rental_uris": {"android": "https://dc.lft.to/lastmile_qr_scan", "ios": "https://dc.lft.to/lastmile_qr_scan"}, "type": "electric_scooter"}, {"bike_id": "5d79e0474619ff1018dc8c5fb5e55899", "is_reserved": 0, "name": "5d79e0474619ff1018dc8c5fb5e55899", "lat": 38.8746645, "fusion_lat": 0.0, "lon": -77.008671, "is_disabled": 0, "fusion_lon": 0.0, "rental_uris": {"android": "https://dc.lft.to/lastmile_qr_scan", "ios": "https://dc.lft.to/lastmile_qr_scan"}, "type": "electric_scooter"},