{"data": {"bikes": [{"lat": 38.92410233333333, "is_disabled": 0, "type": "electric_scooter", "lon": -77.04444716666667, "bike_id": "735d84b11f99ad8cab346283778f05f8", "fusion_lat": 0.0, "name": "735d84b11f99ad8cab346283778f05f8", "is_reserved": 0, "rental_uris": {"android": "https://dc.lft.to/lastmile_qr_scan", "ios": "https://dc.lft.to/lastmile_qr_scan"}, "fusion_lon": 0.0}, {"lat": 38.895483166666665, "is_disabled": 0, "type": "electric_scooter", "lon": -77.009209, "bike_id": "e0d3c500f320a1a06435d5abff2dd8a5", "fusion_lat": 0.0, "name": "e0d3c500f320a1a06435d5abff2dd8a5", "is_reserved": 0, "rental_uris": {"android": "https://dc.lft.to/lastmile_qr_scan", "ios": "https://dc.lft.to/lastmile_qr_scan"}, "fusion_lon": 0.0}, {"lat": 38.9353295, "is_disabled": 0, "type": "electric_scooter", "lon": -77.07295716666667, "bike_id": "ed508dbf58b3c2fce3f9218511964945", "fusion_lat": 0.0, "name": "ed508dbf58b3c2fce3f9218511964945", "is_reserved": 0, "rental_uris": {"android": "https://dc.lft.to/lastmile_qr_scan", "ios": "https://dc.lft.to/lastmile_qr_scan"}, "fusion_lon": 0.0}, {"lat": 38.9036985, "is_disabled": 0, "type": "electric_scooter", "lon": -76.99228433333333, "bike_id": "f8594f93193dc1eb45aa62a63399f4c7", "fusion_lat": 0.0, "name": "f8594f93193dc1eb45aa62a63399f4c7", "is_reserved": 0, "rental_uris": {"android": "https://dc.lft.to/lastmile_qr_scan", "ios": "https://dc.lft.to/lastmile_qr_scan"}, "fusion_lon": 0.0}, {"lat": 38.90851333333333, "is_disabled": 0, "type": "electric_scooter", "lon": -77.01970733333333, "bike_id": "38a80b9a8a9faa0b524f3e3830e1a2c4", "fusion_lat": 0.0, "name": "38a80b9a8a9faa0b524f3e3830e1a2c4", "is_reserved": 0, "rental_uris": {"android": "https://dc.lft.to/lastmile_qr_scan", "ios": "https://dc.lft.to/lastmile_qr_scan"}, "fusion_lon": 0.0}, {"lat": 38.897357666666664, "is_disabled": 0, "type": "electric_scooter", "lon": -77.0239735, "bike_id": "744fb0f50da689284b4c4297211a1ea2", "fusion_lat": 0.0, "name": "744fb0f50da689284b4c4297211a1ea2", "is_reserved": 0, "rental_uris": {"android": "https://dc.lft.to/lastmile_qr_scan", "ios": "https://dc.lft.to/lastmile_qr_scan"}, "fusion_lon": 0.0}, {"lat": 38.93473216666667, "is_disabled": 0, "type": "electric_scooter", "lon": -77.041183, "bike_id": "e203642c1a8d773556193357f4c4a580", "fusion_lat": 0.0, "name": "e203642c1a8d773556193357f4c4a580", "is_reserved": 0, "rental_uris": {"android": "https://dc.lft.to/lastmile_qr_scan", "ios": "https://dc.lft.to/lastmile_qr_scan"}, "fusion_lon": 0.0}, {"lat": 38.91569533333333, "is_disabled": 0, "type": "electric_scooter", "lon": -77.02289166666667, "bike_id": "495e6020ff8c18325ed54e64c90c8af0", "fusion_lat": 0.0, "name": "495e6020ff8c18325ed54e64c90c8af0", "is_reserved": 0, "rental_uris": {"android": "https://dc.lft.to/lastmile_qr_scan", "ios": "https://dc.lft.to/lastmile_qr_scan"}, "fusion_lon": 0.0}, {"lat": 38.9159935, "is_disabled": 0, "type": "electric_scooter", "lon": -77.0319055, "bike_id": "29bcdc130eb43f134368f380fb7482e7", "fusion_lat": 0.0, "name": "29bcdc130eb43f134368f380fb7482e7", "is_reserved": 0, "rental_uris": {"android": "https://dc.lft.to/lastmile_qr_scan", "ios": "https://dc.lft.to/lastmile_qr_scan"}, "fusion_lon": 0.0}, {"lat": 38.904975666666665, "is_disabled": 0, "type": "electric_scooter", "lon": -77.04891216666667, "bike_id": "a96a5190fb5bd7a26ae05399719d6307", "fusion_lat": 0.0, "name": "a96a5190fb5bd7a26ae05399719d6307", "is_reserved": 0, "rental_uris": {"android": "https://dc.lft.to/lastmile_qr_scan", "ios": "https://dc.lft.to/lastmile_qr_scan"}, "fusion_lon": 0.0}, {"lat": 38.900205, "is_disabled": 0, "type": "electric_scooter", "lon": -77.00677416666667, "bike_id": "3da90991b3459d8e013f3644accc88c5", "fusion_lat": 0.0, "name": "3da90991b3459d8e013f3644accc88c5", "is_reserved": 0, "rental_uris": {"android": "https://dc.lft.to/lastmile_qr_scan", "ios": "https://dc.lft.to/lastmile_qr_scan"}, "fusion_lon": 0.0}, {"lat": 38.9174615, "is_disabled": 0, "type": "electric_scooter", "lon": -77.03601816666666, "bike_id": "c2530019d84bc929ec2bc8c738ee8503", "fusion_lat": 0.0, "name": "c2530019d84bc929ec2bc8c738ee8503", "is_reserved": 0, "rental_uris": {"android": "https://dc.lft.to/lastmile_qr_scan", "ios": "https://dc.lft.to/lastmile_qr_scan"}, "fusion_lon": 0.0}, {"lat": 38.94172116666667, "is_disabled": 0, "type": "electric_scooter", "lon": -77.02497233333334, "bike_id": "f750fe2298634d3499acabe4c056197a", "fusion_lat": 0.0, "name": "f750fe2298634d3499acabe4c056197a", "is_reserved": 0, "rental_uris": {"android": "https://dc.lft.to/lastmile_qr_scan", "ios": "https://dc.lft.to/lastmile_qr_scan"}, "fusion_lon": 0.0}, {"lat": 38.86506283333333, "is_disabled": 0, "type": "electric_scooter", "lon": -76.99006583333333, "bike_id": "82a0add486a643773855b7d57ffe934a", "fusion_lat": 0.0, "name": "82a0add486a643773855b7d57ffe934a", "is_reserved": 0, "rental_uris": {"android": "https://dc.lft.to/lastmile_qr_scan", "ios": "https://dc.lft.to/lastmile_qr_scan"}, "fusion_lon": 0.0}, {"lat": 38.892213166666664, "is_disabled": 0, "type": "electric_scooter", "lon": -76.9329815, "bike_id": "2bc3dd5939fb3ff06d6449169bc27f39", "fusion_lat": 0.0, "name": "2bc3dd5939fb3ff06d6449169bc27f39", "is_reserved": 0, "rental_uris": {"android": "https://dc.lft.to/lastmile_qr_scan", "ios": "https://dc.lft.to/lastmile_qr_scan"}, "fusion_lon": 0.0}, {"lat": 38.91351, "is_disabled": 0, "type": "electric_scooter", "lon": -77.03363633333333, "bike_id": "1dd029e7bb9adeb035802b7d3c72567a", "fusion_lat": 0.0, "name": "1dd029e7bb9adeb035802b7d3c72567a", "is_reserved": 0, "rental_uris": {"android": "https://dc.lft.to/lastmile_qr_scan", "ios": "https://dc.lft.to/lastmile_qr_scan"}, "fusion_lon": 0.0}, {"lat": 38.90088866666667, "is_disabled": 0, "type": "electric_scooter", "lon": -77.0560175, "bike_id": "4bafca38f08056c295e35b92b40b8dba", "fusion_lat": 0.0, "name": "4bafca38f08056c295e35b92b40b8dba", "is_reserved": 0, "rental_uris": {"android": "https://dc.lft.to/lastmile_qr_scan", "ios": "https://dc.lft.to/lastmile_qr_scan"}, "fusion_lon": 0.0}, {"lat": 38.90221416666667, "is_disabled": 0, "type": "electric_scooter", "lon": -77.05908366666667, "bike_id": "4b336a0f799aad7252a322ae24124dc4", "fusion_lat": 0.0, "name": "4b336a0f799aad7252a322ae24124dc4", "is_reserved": 0, "rental_uris": {"android": "https://dc.lft.to/lastmile_qr_scan", "ios": "https://dc.lft.to/lastmile_qr_scan"}, "fusion_lon": 0.0}, {"lat": 38.89223633333334, "is_disabled": 0, "type": "electric_scooter", "lon": -77.02213216666667, "bike_id": "0b6abf124c875b8c071e298fde183eef", "fusion_lat": 0.0, "name": "0b6abf124c875b8c071e298fde183eef", "is_reserved": 0, "rental_uris": {"android": "https://dc.lft.to/lastmile_qr_scan", "ios": "https://dc.lft.to/lastmile_qr_scan"}, "fusion_lon": 0.0}, {"lat": 38.93351666666667, "is_disabled": 0, "type": "electric_scooter", "lon": -77.0250025, "bike_id": "3c219a39ff1e58c3eb2a4706f028ffcb", "fusion_lat": 0.0, "name": "3c219a39ff1e58c3eb2a4706f028ffcb", "is_reserved": 0, "rental_uris": {"android": "https://dc.lft.to/lastmile_qr_scan", "ios": "https://dc.lft.to/lastmile_qr_scan"}, "fusion_lon": 0.0}, {"lat": 38.8026545, "is_disabled": 0, "type": "electric_bike", "lon": -77.08119683333334, "bike_id": "59902ef43785024a1ee7eb8bca020a98", "fusion_lat": 0.0, "name": "59902ef43785024a1ee7eb8bca020a98", "is_reserved": 0, "rental_uris": {"android": "https://dc.lft.to/lastmile_qr_scan", "ios": "https://dc.lft.to/lastmile_qr_scan"}, "fusion_lon": 0.0}, {"lat": 38.923481833333334, "is_disabled": 0, "type": "electric_scooter", "lon": -77.02446866666666, "bike_id": "260adbcad3bdefc78f5af59d6a299518", "fusion_lat": 0.0, "name": "260adbcad3bdefc78f5af59d6a299518", "is_reserved": 0, "rental_uris": {"android": "https://dc.lft.to/lastmile_qr_scan", "ios": "https://dc.lft.to/lastmile_qr_scan"}, "fusion_lon": 0.0}, {"lat": 39.0038115, "is_disabled": 0, "type": "electric_bike", "lon": -77.01286533333334, "bike_id": "85d10052bb609ad8252ebdd6b36e3cb0", "fusion_lat": 0.0, "name": "85d10052bb609ad8252ebdd6b36e3cb0", "is_reserved": 0, "rental_uris": {"android": "https://dc.lft.to/lastmile_qr_scan", "ios": "https://dc.lft.to/lastmile_qr_scan"}, "fusion_lon": 0.0}, {"lat": 38.90235466666667, "is_disabled": 0, "type": "electric_scooter", "lon": -77.01982516666666, "bike_id": "7744612b93fc7392a68dc6efb78fbae8", "fusion_lat": 0.0, "name": "7744612b93fc7392a68dc6efb78fbae8", "is_reserved": 0, "rental_uris": {"android": "https://dc.lft.to/lastmile_qr_scan", "ios": "https://dc.lft.to/lastmile_qr_scan"}, "fusion_lon": 0.0}, {"lat": 38.901651, "is_disabled": 0, "type": "electric_scooter", "lon": -76.9985485, "bike_id": "67e8f1b2accea06f9ac425cb86bcc7aa", "fusion_lat": 0.0, "name": "67e8f1b2accea06f9ac425cb86bcc7aa", "is_reserved": 0, "rental_uris": {"android": "https://dc.lft.to/lastmile_qr_scan", "ios": "https://dc.lft.to/lastmile_qr_scan"}, "fusion_lon": 0.0}, {"lat": 38.91281466666667, "is_disabled": 0, "type": "electric_scooter", "lon": -77.04513366666667, "bike_id": "a9ee7f01aad10edcd9e7d47e42dbd4de", "fusion_lat": 0.0, "name": "a9ee7f01aad10edcd9e7d47e42dbd4de", "is_reserved": 0, "rental_uris": {"android": "https://dc.lft.to/lastmile_qr_scan", "ios": "https://dc.lft.to/lastmile_qr_scan"}, "fusion_lon": 0.0}, {"lat": 38.859535666666666, "is_disabled": 0, "type": "electric_scooter", "lon": -76.991391, "bike_id": "589cdace9a7e978f8120e201f35ad077", "fusion_lat": 0.0, "name": "589cdace9a7e978f8120e201f35ad077", "is_reserved": 0, "rental_uris": {"android": "https://dc.lft.to/lastmile_qr_scan", "ios": "https://dc.lft.to/lastmile_qr_scan"}, "fusion_lon": 0.0}, {"lat": 38.9187445, "is_disabled": 0, "type": "electric_scooter", "lon": -77.031806, "bike_id": "2cd6bf38063b835bdd464553c3395404", "fusion_lat": 0.0, "name": "2cd6bf38063b835bdd464553c3395404", "is_reserved": 0, "rental_uris": {"android": "https://dc.lft.to/lastmile_qr_scan", "ios": "https://dc.lft.to/lastmile_qr_scan"}, "fusion_lon": 0.0}, {"lat": 38.9320315, "is_disabled": 0, "type": "electric_scooter", "lon": -77.02249933333333, "bike_id": "938db8230c20d7129739080aab9041a4", "fusion_lat": 0.0, "name": "938db8230c20d7129739080aab9041a4", "is_reserved": 0, "rental_uris": {"android": "https://dc.lft.to/lastmile_qr_scan", "ios": "https://dc.lft.to/lastmile_qr_scan"}, "fusion_lon": 0.0}, {"lat": 38.91115166666667, "is_disabled": 0, "type": "electric_scooter", "lon": -77.03794883333333, "bike_id": "371fb06c5be6d9335eea7068efb4f990", "fusion_lat": 0.0, "name": "371fb06c5be6d9335eea7068efb4f990", "is_reserved": 0, "rental_uris": {"android": "https://dc.lft.to/lastmile_qr_scan", "ios": "https://dc.lft.to/lastmile_qr_scan"}, "fusion_lon": 0.0}, {"lat": 38.91188833333333, "is_disabled": 0, "type": "electric_scooter", "lon": -77.0429265, "bike_id": "2a763463f9d60c71d0df4fa41c4c1bfb", "fusion_lat": 0.0, "name": "2a763463f9d60c71d0df4fa41c4c1bfb", "is_reserved": 0, "rental_uris": {"android": "https://dc.lft.to/lastmile_qr_scan", "ios": "https://dc.lft.to/lastmile_qr_scan"}, "fusion_lon": 0.0}, {"lat": 38.898230833333336, "is_disabled": 0, "type": "electric_scooter", "lon": -76.94652683333334, "bike_id": "6563bbdfa0907fc5456cc5b598748435", "fusion_lat": 0.0, "name": "6563bbdfa0907fc5456cc5b598748435", "is_reserved": 0, "rental_uris": {"android": "https://dc.lft.to/lastmile_qr_scan", "ios": "https://dc.lft.to/lastmile_qr_scan"}, "fusion_lon": 0.0}, {"lat": 38.8981405, "is_disabled": 0, "type": "electric_scooter", "lon": -77.031133, "bike_id": "ef665e6422f3a6d6c69e280eedddfb68", "fusion_lat": 0.0, "name": "ef665e6422f3a6d6c69e280eedddfb68", "is_reserved": 0, "rental_uris": {"android": "https://dc.lft.to/lastmile_qr_scan", "ios": "https://dc.lft.to/lastmile_qr_scan"}, "fusion_lon": 0.0}, {"lat": 38.890422666666666, "is_disabled": 0, "type": "electric_scooter", "lon": -76.9524725, "bike_id": "e9fee642fbf95eaf32fe53c7209b9bfd", "fusion_lat": 0.0, "name": "e9fee642fbf95eaf32fe53c7209b9bfd", "is_reserved": 0, "rental_uris": {"android": "https://dc.lft.to/lastmile_qr_scan", "ios": "https://dc.lft.to/lastmile_qr_scan"}, "fusion_lon": 0.0}, {"lat": 38.919647833333336, "is_disabled": 0, "type": "electric_scooter", "lon": -77.01217866666667, "bike_id": "43beee9be098aea9614fd22294671317", "fusion_lat": 0.0, "name": "43beee9be098aea9614fd22294671317", "is_reserved": 0, "rental_uris": {"android": "https://dc.lft.to/lastmile_qr_scan", "ios": "https://dc.lft.to/lastmile_qr_scan"}, "fusion_lon": 0.0}, {"lat": 38.88739233333333, "is_disabled": 0, "type": "electric_scooter", "lon": -77.015342, "bike_id": "94d7741fb0d87b0524d578a728742662", "fusion_lat": 0.0, "name": "94d7741fb0d87b0524d578a728742662", "is_reserved": 0, "rental_uris": {"android": "https://dc.lft.to/lastmile_qr_scan", "ios": "https://dc.lft.to/lastmile_qr_scan"}, "fusion_lon": 0.0}, {"lat": 38.876721333333336, "is_disabled": 0, "type": "electric_scooter", "lon": -77.00408033333333, "bike_id": "9707687f21007abfce822a02a0c4083e", "fusion_lat": 0.0, "name": "9707687f21007abfce822a02a0c4083e", "is_reserved": 0, "rental_uris": {"android": "https://dc.lft.to/lastmile_qr_scan", "ios": "https://dc.lft.to/lastmile_qr_scan"}, "fusion_lon": 0.0}, {"lat": 39.05634716666667, "is_disabled": 0, "type": "electric_bike", "lon": -77.12529283333333, "bike_id": "872c81af189d202ae7bfbe129bf46203", "fusion_lat": 0.0, "name": "872c81af189d202ae7bfbe129bf46203", "is_reserved": 0, "rental_uris": {"android": "https://dc.lft.to/lastmile_qr_scan", "ios": "https://dc.lft.to/lastmile_qr_scan"}, "fusion_lon": 0.0}, {"lat": 38.88404966666667, "is_disabled": 0, "type": "electric_bike", "lon": -76.95425333333333, "bike_id": "2a73a8e4493e6d767d5d1e142c867745", "fusion_lat": 0.0, "name": "2a73a8e4493e6d767d5d1e142c867745", "is_reserved": 0, "rental_uris": {"android": "https://dc.lft.to/lastmile_qr_scan", "ios": "https://dc.lft.to/lastmile_qr_scan"}, "fusion_lon": 0.0}, {"lat": 38.917323833333334, "is_disabled": 0, "type": "electric_scooter", "lon": -77.036441, "bike_id": "533499b323b3ab65c91e1bebbf7cdf40", "fusion_lat": 0.0, "name": "533499b323b3ab65c91e1bebbf7cdf40", "is_reserved": 0, "rental_uris": {"android": "https://dc.lft.to/lastmile_qr_scan", "ios": "https://dc.lft.to/lastmile_qr_scan"}, "fusion_lon": 0.0}, {"lat": 38.902819, "is_disabled": 0, "type": "electric_scooter", "lon": -77.0437295, "bike_id": "c38c4bc0648af09f539b5b813648ea08", "fusion_lat": 0.0, "name": "c38c4bc0648af09f539b5b813648ea08", "is_reserved": 0, "rental_uris": {"android": "https://dc.lft.to/lastmile_qr_scan", "ios": "https://dc.lft.to/lastmile_qr_scan"}, "fusion_lon": 0.0}, {"lat": 38.91192616666667, "is_disabled": 0, "type": "electric_scooter", "lon": -77.03640466666667, "bike_id": "e39f2364fa15f06e9265cc84e2c9adf6", "fusion_lat": 0.0, "name": "e39f2364fa15f06e9265cc84e2c9adf6", "is_reserved": 0, "rental_uris": {"android": "https://dc.lft.to/lastmile_qr_scan", "ios": "https://dc.lft.to/lastmile_qr_scan"}, "fusion_lon": 0.0}, {"lat": 38.844479, "is_disabled": 0, "type": "electric_bike", "lon": -77.06826016666666, "bike_id": "e3f04eb5e05da891dd1c1776b431645d", "fusion_lat": 0.0, "name": "e3f04eb5e05da891dd1c1776b431645d", "is_reserved": 0, "rental_uris": {"android": "https://dc.lft.to/lastmile_qr_scan", "ios": "https://dc.lft.to/lastmile_qr_scan"}, "fusion_lon": 0.0}, {"lat": 38.932958166666666, "is_disabled": 0, "type": "electric_scooter", "lon": -77.02199083333333, "bike_id": "ef52adfe3b33e391c8e3bab85f6b6c36", "fusion_lat": 0.0, "name": "ef52adfe3b33e391c8e3bab85f6b6c36", "is_reserved": 0, "rental_uris": {"android": "https://dc.lft.to/lastmile_qr_scan", "ios": "https://dc.lft.to/lastmile_qr_scan"}, "fusion_lon": 0.0}, {"lat": 38.90409066666667, "is_disabled": 0, "type": "electric_scooter", "lon": -77.0446515, "bike_id": "bb9fccc46c8eba49300110f8833b00d0", "fusion_lat": 0.0, "name": "bb9fccc46c8eba49300110f8833b00d0", "is_reserved": 0, "rental_uris": {"android": "https://dc.lft.to/lastmile_qr_scan", "ios": "https://dc.lft.to/lastmile_qr_scan"}, "fusion_lon": 0.0}, {"lat": 38.909814833333336, "is_disabled": 0, "type": "electric_scooter", "lon": -77.0318235, "bike_id": "9ebcf035a6c3cf217fd357b63e985c45", "fusion_lat": 0.0, "name": "9ebcf035a6c3cf217fd357b63e985c45", "is_reserved": 0, "rental_uris": {"android": "https://dc.lft.to/lastmile_qr_scan", "ios": "https://dc.lft.to/lastmile_qr_scan"}, "fusion_lon": 0.0}, {"lat": 38.93982883333334, "is_disabled": 0, "type": "electric_scooter", "lon": -77.02624183333333, "bike_id": "f9b95921416417e3686708e36fad0178", "fusion_lat": 0.0, "name": "f9b95921416417e3686708e36fad0178", "is_reserved": 0, "rental_uris": {"android": "https://dc.lft.to/lastmile_qr_scan", "ios": "https://dc.lft.to/lastmile_qr_scan"}, "fusion_lon": 0.0}, {"lat": 38.923701666666666, "is_disabled": 0, "type": "electric_scooter", "lon": -77.0254135, "bike_id": "83211241938e89a71721d1933cacca45", "fusion_lat": 0.0, "name": "83211241938e89a71721d1933cacca45", "is_reserved": 0, "rental_uris": {"android": "https://dc.lft.to/lastmile_qr_scan", "ios": "https://dc.lft.to/lastmile_qr_scan"}, "fusion_lon": 0.0}, {"lat": 38.916381333333334, "is_disabled": 0, "type": "electric_scooter", "lon": -77.02303016666667, "bike_id": "e9c5ebe8431e55ca5c4c692951fb4b39", "fusion_lat": 0.0, "name": "e9c5ebe8431e55ca5c4c692951fb4b39", "is_reserved": 0, "rental_uris": {"android": "https://dc.lft.to/lastmile_qr_scan", "ios": "https://dc.lft.to/lastmile_qr_scan"}, "fusion_lon": 0.0}, {"lat": 38.90812283333333, "is_disabled": 0, "type": "electric_scooter", "lon": -77.03434183333333, "bike_id": "1b7ae53a36264a039118ca7539cba73d", "fusion_lat": 0.0, "name": "1b7ae53a36264a039118ca7539cba73d", "is_reserved": 0, "rental_uris": {"android": "https://dc.lft.to/lastmile_qr_scan", "ios": "https://dc.lft.to/lastmile_qr_scan"}, "fusion_lon": 0.0}, {"lat": 38.916803, "is_disabled": 0, "type": "electric_scooter", "lon": -77.02974133333333, "bike_id": "e0cf6df979e2d71b86cc74b809d46076", "fusion_lat": 0.0, "name": "e0cf6df979e2d71b86cc74b809d46076", "is_reserved": 0, "rental_uris": {"android": "https://dc.lft.to/lastmile_qr_scan", "ios": "https://dc.lft.to/lastmile_qr_scan"}, "fusion_lon": 0.0}, {"lat": 38.951914333333335, "is_disabled": 0, "type": "electric_bike", "lon": -77.0239525, "bike_id": "350cb10b042f22bea2ceddf06af31feb", "fusion_lat": 0.0, "name": "350cb10b042f22bea2ceddf06af31feb", "is_reserved": 0, "rental_uris": {"android": "https://dc.lft.to/lastmile_qr_scan", "ios": "https://dc.lft.to/lastmile_qr_scan"}, "fusion_lon": 0.0}, {"lat": 38.9229905, "is_disabled": 0, "type": "electric_scooter", "lon": -77.02328266666666, "bike_id": "71cb1b66ffa2a42efc566ab4ce363f62", "fusion_lat": 0.0, "name": "71cb1b66ffa2a42efc566ab4ce363f62", "is_reserved": 0, "rental_uris": {"android": "https://dc.lft.to/lastmile_qr_scan", "ios": "https://dc.lft.to/lastmile_qr_scan"}, "fusion_lon": 0.0}, {"lat": 38.89880733333333, "is_disabled": 0, "type": "electric_scooter", "lon": -77.07232283333333, "bike_id": "73cd533cae81c9aa3bad676ef7afda0a", "fusion_lat": 0.0, "name": "73cd533cae81c9aa3bad676ef7afda0a", "is_reserved": 0, "rental_uris": {"android": "https://dc.lft.to/lastmile_qr_scan", "ios": "https://dc.lft.to/lastmile_qr_scan"}, "fusion_lon": 0.0}, {"lat": 38.9187005, "is_disabled": 0, "type": "electric_scooter", "lon": -77.0366175, "bike_id": "a6db257569167c2df3eba51002c15531", "fusion_lat": 0.0, "name": "a6db257569167c2df3eba51002c15531", "is_reserved": 0, "rental_uris": {"android": "https://dc.lft.to/lastmile_qr_scan", "ios": "https://dc.lft.to/lastmile_qr_scan"}, "fusion_lon": 0.0}, {"lat": 38.917973833333335, "is_disabled": 0, "type": "electric_scooter", "lon": -77.03447866666667, "bike_id": "75c757ff641a6311f451f73a0d49ce22", "fusion_lat": 0.0, "name": "75c757ff641a6311f451f73a0d49ce22", "is_reserved": 0, "rental_uris": {"android": "https://dc.lft.to/lastmile_qr_scan", "ios": "https://dc.lft.to/lastmile_qr_scan"}, "fusion_lon": 0.0}, {"lat": 38.92395283333333, "is_disabled": 0, "type": "electric_scooter", "lon": -77.03230416666666, "bike_id": "99a6fee5f6add926b42249e195076f4f", "fusion_lat": 0.0, "name": "99a6fee5f6add926b42249e195076f4f", "is_reserved": 0, "rental_uris": {"android": "https://dc.lft.to/lastmile_qr_scan", "ios": "https://dc.lft.to/lastmile_qr_scan"}, "fusion_lon": 0.0}, {"lat": 38.8995265, "is_disabled": 0, "type": "electric_scooter", "lon": -77.05184216666666, "bike_id": "0e974466b5fbcf7c9c890a3d0323dffe", "fusion_lat": 0.0, "name": "0e974466b5fbcf7c9c890a3d0323dffe", "is_reserved": 0, "rental_uris": {"android": "https://dc.lft.to/lastmile_qr_scan", "ios": "https://dc.lft.to/lastmile_qr_scan"}, "fusion_lon": 0.0}, {"lat": 38.900716833333334, "is_disabled": 0, "type": "electric_scooter", "lon": -77.00205966666667, "bike_id": "912564c61f0bf223844240fcb3b0d8a3", "fusion_lat": 0.0, "name": "912564c61f0bf223844240fcb3b0d8a3", "is_reserved": 0, "rental_uris": {"android": "https://dc.lft.to/lastmile_qr_scan", "ios": "https://dc.lft.to/lastmile_qr_scan"}, "fusion_lon": 0.0}, {"lat": 39.00471483333333, "is_disabled": 0, "type": "electric_bike", "lon": -76.90131416666667, "bike_id": "f462bee39d0e07d39a51b3005edabc11", "fusion_lat": 0.0, "name": "f462bee39d0e07d39a51b3005edabc11", "is_reserved": 0, "rental_uris": {"android": "https://dc.lft.to/lastmile_qr_scan", "ios": "https://dc.lft.to/lastmile_qr_scan"}, "fusion_lon": 0.0}, {"lat": 38.93154716666667, "is_disabled": 0, "type": "electric_scooter", "lon": -77.03633316666667, "bike_id": "f24cdd696faa582b3431b4b2bde909bb", "fusion_lat": 0.0, "name": "f24cdd696faa582b3431b4b2bde909bb", "is_reserved": 0, "rental_uris": {"android": "https://dc.lft.to/lastmile_qr_scan", "ios": "https://dc.lft.to/lastmile_qr_scan"}, "fusion_lon": 0.0}, {"lat": 38.892191333333336, "is_disabled": 0, "type": "electric_scooter", "lon": -77.0316225, "bike_id": "95ae4d1192d3b68c80e751c39c9b921b", "fusion_lat": 0.0, "name": "95ae4d1192d3b68c80e751c39c9b921b", "is_reserved": 0, "rental_uris": {"android": "https://dc.lft.to/lastmile_qr_scan", "ios": "https://dc.lft.to/lastmile_qr_scan"}, "fusion_lon": 0.0}, {"lat": 38.93018583333333, "is_disabled": 0, "type": "electric_scooter", "lon": -77.04454916666667, "bike_id": "22cd7b0e017b57be6cc0aab50aaf7316", "fusion_lat": 0.0, "name": "22cd7b0e017b57be6cc0aab50aaf7316", "is_reserved": 0, "rental_uris": {"android": "https://dc.lft.to/lastmile_qr_scan", "ios": "https://dc.lft.to/lastmile_qr_scan"}, "fusion_lon": 0.0}, {"lat": 38.82873466666667, "is_disabled": 0, "type": "electric_bike", "lon": -77.112191, "bike_id": "c6d2c2c950fa382f8a23f75811683130", "fusion_lat": 0.0, "name": "c6d2c2c950fa382f8a23f75811683130", "is_reserved": 0, "rental_uris": {"android": "https://dc.lft.to/lastmile_qr_scan", "ios": "https://dc.lft.to/lastmile_qr_scan"}, "fusion_lon": 0.0}, {"lat": 38.92497566666667, "is_disabled": 0, "type": "electric_scooter", "lon": -77.05220516666667, "bike_id": "c60bd74f52f3f7b80de5f820ecf59c7e", "fusion_lat": 0.0, "name": "c60bd74f52f3f7b80de5f820ecf59c7e", "is_reserved": 0, "rental_uris": {"android": "https://dc.lft.to/lastmile_qr_scan", "ios": "https://dc.lft.to/lastmile_qr_scan"}, "fusion_lon": 0.0}, {"lat": 38.9098765, "is_disabled": 0, "type": "electric_scooter", "lon": -76.9973665, "bike_id": "bc02b9c5e13875d5648860f083fe2969", "fusion_lat": 0.0, "name": "bc02b9c5e13875d5648860f083fe2969", "is_reserved": 0, "rental_uris": {"android": "https://dc.lft.to/lastmile_qr_scan", "ios": "https://dc.lft.to/lastmile_qr_scan"}, "fusion_lon": 0.0}, {"lat": 38.902358166666666, "is_disabled": 0, "type": "electric_scooter", "lon": -77.0178665, "bike_id": "80ecac6739b069119e3ac98cac270496", "fusion_lat": 0.0, "name": "80ecac6739b069119e3ac98cac270496", "is_reserved": 0, "rental_uris": {"android": "https://dc.lft.to/lastmile_qr_scan", "ios": "https://dc.lft.to/lastmile_qr_scan"}, "fusion_lon": 0.0}, {"lat": 38.9173065, "is_disabled": 0, "type": "electric_scooter", "lon": -77.036418, "bike_id": "3d22e2cb6e625da2555cf448adaa0d10", "fusion_lat": 0.0, "name": "3d22e2cb6e625da2555cf448adaa0d10", "is_reserved": 0, "rental_uris": {"android": "https://dc.lft.to/lastmile_qr_scan", "ios": "https://dc.lft.to/lastmile_qr_scan"}, "fusion_lon": 0.0}, {"lat": 38.859085666666665, "is_disabled": 0, "type": "electric_scooter", "lon": -76.99149466666667, "bike_id": "01a3e546f34e236d91cf2a69fe41bd12", "fusion_lat": 0.0, "name": "01a3e546f34e236d91cf2a69fe41bd12", "is_reserved": 0, "rental_uris": {"android": "https://dc.lft.to/lastmile_qr_scan", "ios": "https://dc.lft.to/lastmile_qr_scan"}, "fusion_lon": 0.0}, {"lat": 39.05198433333333, "is_disabled": 0, "type": "electric_bike", "lon": -77.10913566666666, "bike_id": "2d8ac3213a5064842bb48ac7e82ae59b", "fusion_lat": 0.0, "name": "2d8ac3213a5064842bb48ac7e82ae59b", "is_reserved": 0, "rental_uris": {"android": "https://dc.lft.to/lastmile_qr_scan", "ios": "https://dc.lft.to/lastmile_qr_scan"}, "fusion_lon": 0.0}, {"lat": 38.906100333333335, "is_disabled": 0, "type": "electric_scooter", "lon": -77.01882566666667, "bike_id": "cd162279e8c4476f90c3058e369e7cc9", "fusion_lat": 0.0, "name": "cd162279e8c4476f90c3058e369e7cc9", "is_reserved": 0, "rental_uris": {"android": "https://dc.lft.to/lastmile_qr_scan", "ios": "https://dc.lft.to/lastmile_qr_scan"}, "fusion_lon": 0.0}, {"lat": 38.919223, "is_disabled": 0, "type": "electric_scooter", "lon": -77.0239325, "bike_id": "63a16c2f7b8446597922c5f4f409e0bc", "fusion_lat": 0.0, "name": "63a16c2f7b8446597922c5f4f409e0bc", "is_reserved": 0, "rental_uris": {"android": "https://dc.lft.to/lastmile_qr_scan", "ios": "https://dc.lft.to/lastmile_qr_scan"}, "fusion_lon": 0.0}, {"lat": 38.90216366666667, "is_disabled": 0, "type": "electric_scooter", "lon": -77.02375916666666, "bike_id": "1f2357d9245004f291c643b4243f709c", "fusion_lat": 0.0, "name": "1f2357d9245004f291c643b4243f709c", "is_reserved": 0, "rental_uris": {"android": "https://dc.lft.to/lastmile_qr_scan", "ios": "https://dc.lft.to/lastmile_qr_scan"}, "fusion_lon": 0.0}, {"lat": 38.89908116666667, "is_disabled": 0, "type": "electric_scooter", "lon": -76.93356883333334, "bike_id": "8f4fc52f8cf48baf01a4023a3c83de36", "fusion_lat": 0.0, "name": "8f4fc52f8cf48baf01a4023a3c83de36", "is_reserved": 0, "rental_uris": {"android": "https://dc.lft.to/lastmile_qr_scan", "ios": "https://dc.lft.to/lastmile_qr_scan"}, "fusion_lon": 0.0}, {"lat": 38.95289733333333, "is_disabled": 0, "type": "electric_scooter", "lon": -77.06866816666667, "bike_id": "d439b8b9d56e4cbff46b8814975b9ace", "fusion_lat": 0.0, "name": "d439b8b9d56e4cbff46b8814975b9ace", "is_reserved": 0, "rental_uris": {"android": "https://dc.lft.to/lastmile_qr_scan", "ios": "https://dc.lft.to/lastmile_qr_scan"}, "fusion_lon": 0.0}, {"lat": 38.86659616666667, "is_disabled": 0, "type": "electric_scooter", "lon": -76.98882716666667, "bike_id": "ba03024bb1f17b9bdb94eb385a267d6e", "fusion_lat": 0.0, "name": "ba03024bb1f17b9bdb94eb385a267d6e", "is_reserved": 0, "rental_uris": {"android": "https://dc.lft.to/lastmile_qr_scan", "ios": "https://dc.lft.to/lastmile_qr_scan"}, "fusion_lon": 0.0}, {"lat": 38.91554, "is_disabled": 0, "type": "electric_scooter", "lon": -77.05319033333333, "bike_id": "00b79c524dcd82f1a964a7c80fdb9c1c", "fusion_lat": 0.0, "name": "00b79c524dcd82f1a964a7c80fdb9c1c", "is_reserved": 0, "rental_uris": {"android": "https://dc.lft.to/lastmile_qr_scan", "ios": "https://dc.lft.to/lastmile_qr_scan"}, "fusion_lon": 0.0}, {"lat": 38.92363916666667, "is_disabled": 0, "type": "electric_scooter", "lon": -77.05057433333333, "bike_id": "703a885dfaca57d8c7748cf6faeb5936", "fusion_lat": 0.0, "name": "703a885dfaca57d8c7748cf6faeb5936", "is_reserved": 0, "rental_uris": {"android": "https://dc.lft.to/lastmile_qr_scan", "ios": "https://dc.lft.to/lastmile_qr_scan"}, "fusion_lon": 0.0}, {"lat": 38.905427333333336, "is_disabled": 0, "type": "electric_scooter", "lon": -77.03411533333333, "bike_id": "1b30791fef6704547dfe71bcd7dc861b", "fusion_lat": 0.0, "name": "1b30791fef6704547dfe71bcd7dc861b", "is_reserved": 0, "rental_uris": {"android": "https://dc.lft.to/lastmile_qr_scan", "ios": "https://dc.lft.to/lastmile_qr_scan"}, "fusion_lon": 0.0}, {"lat": 38.966102, "is_disabled": 0, "type": "electric_scooter", "lon": -77.02052333333333, "bike_id": "03f3d63f1dae357c0f593ead8cecf055", "fusion_lat": 0.0, "name": "03f3d63f1dae357c0f593ead8cecf055", "is_reserved": 0, "rental_uris": {"android": "https://dc.lft.to/lastmile_qr_scan", "ios": "https://dc.lft.to/lastmile_qr_scan"}, "fusion_lon": 0.0}, {"lat": 38.905019, "is_disabled": 0, "type": "electric_scooter", "lon": -77.02955166666666, "bike_id": "fcf66b685f108a2da1651134f5436dc1", "fusion_lat": 0.0, "name": "fcf66b685f108a2da1651134f5436dc1", "is_reserved": 0, "rental_uris": {"android": "https://dc.lft.to/lastmile_qr_scan", "ios": "https://dc.lft.to/lastmile_qr_scan"}, "fusion_lon": 0.0}, {"lat": 38.92077416666667, "is_disabled": 0, "type": "electric_scooter", "lon": -77.02518133333334, "bike_id": "4048aeec0d98f0288056696048a5a4c8", "fusion_lat": 0.0, "name": "4048aeec0d98f0288056696048a5a4c8", "is_reserved": 0, "rental_uris": {"android": "https://dc.lft.to/lastmile_qr_scan", "ios": "https://dc.lft.to/lastmile_qr_scan"}, "fusion_lon": 0.0}, {"lat": 38.9016035, "is_disabled": 0, "type": "electric_scooter", "lon": -77.0327515, "bike_id": "74c17cfdd32307e652a09ee3af82a8ba", "fusion_lat": 0.0, "name": "74c17cfdd32307e652a09ee3af82a8ba", "is_reserved": 0, "rental_uris": {"android": "https://dc.lft.to/lastmile_qr_scan", "ios": "https://dc.lft.to/lastmile_qr_scan"}, "fusion_lon": 0.0}, {"lat": 38.90729233333333, "is_disabled": 0, "type": "electric_bike", "lon": -77.01068483333333, "bike_id": "7f2768eef9ce6aae62045c39d066c45e", "fusion_lat": 0.0, "name": "7f2768eef9ce6aae62045c39d066c45e", "is_reserved": 0, "rental_uris": {"android": "https://dc.lft.to/lastmile_qr_scan", "ios": "https://dc.lft.to/lastmile_qr_scan"}, "fusion_lon": 0.0}, {"lat": 38.90731566666667, "is_disabled": 0, "type": "electric_scooter", "lon": -77.02971283333333, "bike_id": "e13062be8599bc39efcfbc8c3e6319f3", "fusion_lat": 0.0, "name": "e13062be8599bc39efcfbc8c3e6319f3", "is_reserved": 0, "rental_uris": {"android": "https://dc.lft.to/lastmile_qr_scan", "ios": "https://dc.lft.to/lastmile_qr_scan"}, "fusion_lon": 0.0}, {"lat": 38.90377816666667, "is_disabled": 0, "type": "electric_scooter", "lon": -77.02010983333334, "bike_id": "7dbf431c214e28ec15040acd2156ca32", "fusion_lat": 0.0, "name": "7dbf431c214e28ec15040acd2156ca32", "is_reserved": 0, "rental_uris": {"android": "https://dc.lft.to/lastmile_qr_scan", "ios": "https://dc.lft.to/lastmile_qr_scan"}, "fusion_lon": 0.0}, {"lat": 38.8997875, "is_disabled": 0, "type": "electric_scooter", "lon": -77.03076766666666, "bike_id": "51987c7db01c38dd2bf93960bf1a2c52", "fusion_lat": 0.0, "name": "51987c7db01c38dd2bf93960bf1a2c52", "is_reserved": 0, "rental_uris": {"android": "https://dc.lft.to/lastmile_qr_scan", "ios": "https://dc.lft.to/lastmile_qr_scan"}, "fusion_lon": 0.0}, {"lat": 38.896185833333334, "is_disabled": 0, "type": "electric_scooter", "lon": -77.0316485, "bike_id": "534fd80d3944a3afdbd94327573c270a", "fusion_lat": 0.0, "name": "534fd80d3944a3afdbd94327573c270a", "is_reserved": 0, "rental_uris": {"android": "https://dc.lft.to/lastmile_qr_scan", "ios": "https://dc.lft.to/lastmile_qr_scan"}, "fusion_lon": 0.0}, {"lat": 38.8610135, "is_disabled": 0, "type": "electric_scooter", "lon": -76.98880483333333, "bike_id": "217b78d09bb22611a2987eddd7e19388", "fusion_lat": 0.0, "name": "217b78d09bb22611a2987eddd7e19388", "is_reserved": 0, "rental_uris": {"android": "https://dc.lft.to/lastmile_qr_scan", "ios": "https://dc.lft.to/lastmile_qr_scan"}, "fusion_lon": 0.0}, {"lat": 38.9174835, "is_disabled": 0, "type": "electric_scooter", "lon": -77.02283633333333, "bike_id": "c53e9ca6754fb4e94c04d0d7d86cafce", "fusion_lat": 0.0, "name": "c53e9ca6754fb4e94c04d0d7d86cafce", "is_reserved": 0, "rental_uris": {"android": "https://dc.lft.to/lastmile_qr_scan", "ios": "https://dc.lft.to/lastmile_qr_scan"}, "fusion_lon": 0.0}, {"lat": 38.89757766666666, "is_disabled": 0, "type": "electric_scooter", "lon": -77.0270395, "bike_id": "ddf8b2970338e5eff3ce7b2c07f8b08b", "fusion_lat": 0.0, "name": "ddf8b2970338e5eff3ce7b2c07f8b08b", "is_reserved": 0, "rental_uris": {"android": "https://dc.lft.to/lastmile_qr_scan", "ios": "https://dc.lft.to/lastmile_qr_scan"}, "fusion_lon": 0.0}, {"lat": 38.9169795, "is_disabled": 0, "type": "electric_scooter", "lon": -77.03764716666667, "bike_id": "25eb84b0e75bcab7e8208d96d37ef23c", "fusion_lat": 0.0, "name": "25eb84b0e75bcab7e8208d96d37ef23c", "is_reserved": 0, "rental_uris": {"android": "https://dc.lft.to/lastmile_qr_scan", "ios": "https://dc.lft.to/lastmile_qr_scan"}, "fusion_lon": 0.0}, {"lat": 38.920670666666666, "is_disabled": 0, "type": "electric_scooter", "lon": -77.03176233333333, "bike_id": "40641151fd8016d55fa30fd6d3280ed9", "fusion_lat": 0.0, "name": "40641151fd8016d55fa30fd6d3280ed9", "is_reserved": 0, "rental_uris": {"android": "https://dc.lft.to/lastmile_qr_scan", "ios": "https://dc.lft.to/lastmile_qr_scan"}, "fusion_lon": 0.0}, {"lat": 38.87918633333334, "is_disabled": 0, "type": "electric_scooter", "lon": -76.995106, "bike_id": "4c00e07b82b7c68febdb746a52e64f29", "fusion_lat": 0.0, "name": "4c00e07b82b7c68febdb746a52e64f29", "is_reserved": 0, "rental_uris": {"android": "https://dc.lft.to/lastmile_qr_scan", "ios": "https://dc.lft.to/lastmile_qr_scan"}, "fusion_lon": 0.0}, {"lat": 38.93065033333333, "is_disabled": 0, "type": "electric_scooter", "lon": -77.0402525, "bike_id": "1c20d5f6ccf1562ef854bc13a76716b3", "fusion_lat": 0.0, "name": "1c20d5f6ccf1562ef854bc13a76716b3", "is_reserved": 0, "rental_uris": {"android": "https://dc.lft.to/lastmile_qr_scan", "ios": "https://dc.lft.to/lastmile_qr_scan"}, "fusion_lon": 0.0}, {"lat": 38.928551, "is_disabled": 0, "type": "electric_scooter", "lon": -77.03660233333333, "bike_id": "f5ab229ccd55b6f50261aee62437844b", "fusion_lat": 0.0, "name": "f5ab229ccd55b6f50261aee62437844b", "is_reserved": 0, "rental_uris": {"android": "https://dc.lft.to/lastmile_qr_scan", "ios": "https://dc.lft.to/lastmile_qr_scan"}, "fusion_lon": 0.0}, {"lat": 38.901278, "is_disabled": 0, "type": "electric_scooter", "lon": -77.04186516666667, "bike_id": "bec7c6ed3b8aa290aaf7b9b7a04b6ee0", "fusion_lat": 0.0, "name": "bec7c6ed3b8aa290aaf7b9b7a04b6ee0", "is_reserved": 0, "rental_uris": {"android": "https://dc.lft.to/lastmile_qr_scan", "ios": "https://dc.lft.to/lastmile_qr_scan"}, "fusion_lon": 0.0}, {"lat": 38.90585933333333, "is_disabled": 0, "type": "electric_scooter", "lon": -76.986206, "bike_id": "e938ecfead12a9e3228049dd01c53c5f", "fusion_lat": 0.0, "name": "e938ecfead12a9e3228049dd01c53c5f", "is_reserved": 0, "rental_uris": {"android": "https://dc.lft.to/lastmile_qr_scan", "ios": "https://dc.lft.to/lastmile_qr_scan"}, "fusion_lon": 0.0}, {"lat": 38.91264816666666, "is_disabled": 0, "type": "electric_scooter", "lon": -77.02254833333333, "bike_id": "968602b620c2fa58193f62c158cdafae", "fusion_lat": 0.0, "name": "968602b620c2fa58193f62c158cdafae", "is_reserved": 0, "rental_uris": {"android": "https://dc.lft.to/lastmile_qr_scan", "ios": "https://dc.lft.to/lastmile_qr_scan"}, "fusion_lon": 0.0}, {"lat": 38.90719583333333, "is_disabled": 0, "type": "electric_scooter", "lon": -77.04824133333334, "bike_id": "6da90e325f8d3b4f2a4fc74804f47e56", "fusion_lat": 0.0, "name": "6da90e325f8d3b4f2a4fc74804f47e56", "is_reserved": 0, "rental_uris": {"android": "https://dc.lft.to/lastmile_qr_scan", "ios": "https://dc.lft.to/lastmile_qr_scan"}, "fusion_lon": 0.0}, {"lat": 38.8671135, "is_disabled": 0, "type": "electric_scooter", "lon": -76.98729666666667, "bike_id": "ba7dc382b6b343c063cb66f4e8307249", "fusion_lat": 0.0, "name": "ba7dc382b6b343c063cb66f4e8307249", "is_reserved": 0, "rental_uris": {"android": "https://dc.lft.to/lastmile_qr_scan", "ios": "https://dc.lft.to/lastmile_qr_scan"}, "fusion_lon": 0.0}, {"lat": 38.90131233333334, "is_disabled": 0, "type": "electric_scooter", "lon": -77.04195833333333, "bike_id": "a047973cad2885be48fd9b58a04dd01f", "fusion_lat": 0.0, "name": "a047973cad2885be48fd9b58a04dd01f", "is_reserved": 0, "rental_uris": {"android": "https://dc.lft.to/lastmile_qr_scan", "ios": "https://dc.lft.to/lastmile_qr_scan"}, "fusion_lon": 0.0}, {"lat": 38.90677183333333, "is_disabled": 0, "type": "electric_scooter", "lon": -77.03640766666666, "bike_id": "230ba37a547604e48d2b6f9aab6a6434", "fusion_lat": 0.0, "name": "230ba37a547604e48d2b6f9aab6a6434", "is_reserved": 0, "rental_uris": {"android": "https://dc.lft.to/lastmile_qr_scan", "ios": "https://dc.lft.to/lastmile_qr_scan"}, "fusion_lon": 0.0}, {"lat": 38.9086125, "is_disabled": 0, "type": "electric_bike", "lon": -76.940088, "bike_id": "8c480e4c0f27862c1fea21f60b47f727", "fusion_lat": 0.0, "name": "8c480e4c0f27862c1fea21f60b47f727", "is_reserved": 0, "rental_uris": {"android": "https://dc.lft.to/lastmile_qr_scan", "ios": "https://dc.lft.to/lastmile_qr_scan"}, "fusion_lon": 0.0}, {"lat": 38.90774066666667, "is_disabled": 0, "type": "electric_scooter", "lon": -77.038611, "bike_id": "dcac5358d2c93518b240fa7c544dfe76", "fusion_lat": 0.0, "name": "dcac5358d2c93518b240fa7c544dfe76", "is_reserved": 0, "rental_uris": {"android": "https://dc.lft.to/lastmile_qr_scan", "ios": "https://dc.lft.to/lastmile_qr_scan"}, "fusion_lon": 0.0}, {"lat": 38.91282666666667, "is_disabled": 0, "type": "electric_scooter", "lon": -77.04508566666667, "bike_id": "ddfad8ce6152d45494cbc503e81eba05", "fusion_lat": 0.0, "name": "ddfad8ce6152d45494cbc503e81eba05", "is_reserved": 0, "rental_uris": {"android": "https://dc.lft.to/lastmile_qr_scan", "ios": "https://dc.lft.to/lastmile_qr_scan"}, "fusion_lon": 0.0}, {"lat": 38.845065166666664, "is_disabled": 0, "type": "electric_bike", "lon": -76.9935405, "bike_id": "89448edc52fe5e09e53af0547d3b677f", "fusion_lat": 0.0, "name": "89448edc52fe5e09e53af0547d3b677f", "is_reserved": 0, "rental_uris": {"android": "https://dc.lft.to/lastmile_qr_scan", "ios": "https://dc.lft.to/lastmile_qr_scan"}, "fusion_lon": 0.0}, {"lat": 38.89655483333333, "is_disabled": 0, "type": "electric_scooter", "lon": -77.00521733333333, "bike_id": "7840a183bc857da5461a4860b7fd9cde", "fusion_lat": 0.0, "name": "7840a183bc857da5461a4860b7fd9cde", "is_reserved": 0, "rental_uris": {"android": "https://dc.lft.to/lastmile_qr_scan", "ios": "https://dc.lft.to/lastmile_qr_scan"}, "fusion_lon": 0.0}, {"lat": 38.92827416666667, "is_disabled": 0, "type": "electric_scooter", "lon": -77.05447516666666, "bike_id": "e0d9bcba6f66acdb4a7e0171bd850d92", "fusion_lat": 0.0, "name": "e0d9bcba6f66acdb4a7e0171bd850d92", "is_reserved": 0, "rental_uris": {"android": "https://dc.lft.to/lastmile_qr_scan", "ios": "https://dc.lft.to/lastmile_qr_scan"}, "fusion_lon": 0.0}, {"lat": 38.94406816666667, "is_disabled": 0, "type": "electric_scooter", "lon": -77.026423, "bike_id": "f5ad50c33e8853fdcfee59a28709bef5", "fusion_lat": 0.0, "name": "f5ad50c33e8853fdcfee59a28709bef5", "is_reserved": 0, "rental_uris": {"android": "https://dc.lft.to/lastmile_qr_scan", "ios": "https://dc.lft.to/lastmile_qr_scan"}, "fusion_lon": 0.0}, {"lat": 38.90898116666666, "is_disabled": 0, "type": "electric_scooter", "lon": -77.03211016666667, "bike_id": "e47b57826efe95ca009169a2887e7c0e", "fusion_lat": 0.0, "name": "e47b57826efe95ca009169a2887e7c0e", "is_reserved": 0, "rental_uris": {"android": "https://dc.lft.to/lastmile_qr_scan", "ios": "https://dc.lft.to/lastmile_qr_scan"}, "fusion_lon": 0.0}, {"lat": 38.90851116666666, "is_disabled": 0, "type": "electric_scooter", "lon": -77.0477505, "bike_id": "a2095554a4d0654f0c31af1ccf2fdff1", "fusion_lat": 0.0, "name": "a2095554a4d0654f0c31af1ccf2fdff1", "is_reserved": 0, "rental_uris": {"android": "https://dc.lft.to/lastmile_qr_scan", "ios": "https://dc.lft.to/lastmile_qr_scan"}, "fusion_lon": 0.0}, {"lat": 38.870869166666665, "is_disabled": 0, "type": "electric_scooter", "lon": -76.9687745, "bike_id": "35976af1a6dd698b792bbba98ec446d5", "fusion_lat": 0.0, "name": "35976af1a6dd698b792bbba98ec446d5", "is_reserved": 0, "rental_uris": {"android": "https://dc.lft.to/lastmile_qr_scan", "ios": "https://dc.lft.to/lastmile_qr_scan"}, "fusion_lon": 0.0}, {"lat": 38.900705333333335, "is_disabled": 0, "type": "electric_scooter", "lon": -77.00207716666667, "bike_id": "c49d92427e26316b895a439408864230", "fusion_lat": 0.0, "name": "c49d92427e26316b895a439408864230", "is_reserved": 0, "rental_uris": {"android": "https://dc.lft.to/lastmile_qr_scan", "ios": "https://dc.lft.to/lastmile_qr_scan"}, "fusion_lon": 0.0}, {"lat": 38.90221566666666, "is_disabled": 0, "type": "electric_scooter", "lon": -77.02375133333334, "bike_id": "af270eb9d547fe621da2a35a46b64bf4", "fusion_lat": 0.0, "name": "af270eb9d547fe621da2a35a46b64bf4", "is_reserved": 0, "rental_uris": {"android": "https://dc.lft.to/lastmile_qr_scan", "ios": "https://dc.lft.to/lastmile_qr_scan"}, "fusion_lon": 0.0}, {"lat": 38.91287916666667, "is_disabled": 0, "type": "electric_bike", "lon": -77.04489, "bike_id": "8d33fdb875e10061eadc0df0a6ebc759", "fusion_lat": 0.0, "name": "8d33fdb875e10061eadc0df0a6ebc759", "is_reserved": 0, "rental_uris": {"android": "https://dc.lft.to/lastmile_qr_scan", "ios": "https://dc.lft.to/lastmile_qr_scan"}, "fusion_lon": 0.0}, {"lat": 38.8724825, "is_disabled": 0, "type": "electric_scooter", "lon": -76.977254, "bike_id": "ae210f5f149913ab2db2a28451eb137a", "fusion_lat": 0.0, "name": "ae210f5f149913ab2db2a28451eb137a", "is_reserved": 0, "rental_uris": {"android": "https://dc.lft.to/lastmile_qr_scan", "ios": "https://dc.lft.to/lastmile_qr_scan"}, "fusion_lon": 0.0}, {"lat": 38.939257166666664, "is_disabled": 0, "type": "electric_scooter", "lon": -77.02800833333333, "bike_id": "66b4c793e207c1fe4758556e67be3f7c", "fusion_lat": 0.0, "name": "66b4c793e207c1fe4758556e67be3f7c", "is_reserved": 0, "rental_uris": {"android": "https://dc.lft.to/lastmile_qr_scan", "ios": "https://dc.lft.to/lastmile_qr_scan"}, "fusion_lon": 0.0}, {"lat": 38.8552345, "is_disabled": 0, "type": "electric_bike", "lon": -76.9844275, "bike_id": "3d8819a0ea4806714bb813ae728e3543", "fusion_lat": 0.0, "name": "3d8819a0ea4806714bb813ae728e3543", "is_reserved": 0, "rental_uris": {"android": "https://dc.lft.to/lastmile_qr_scan", "ios": "https://dc.lft.to/lastmile_qr_scan"}, "fusion_lon": 0.0}, {"lat": 38.88925666666667, "is_disabled": 0, "type": "electric_scooter", "lon": -76.97376116666666, "bike_id": "64c890e9bf6cf01d5c649c015d530971", "fusion_lat": 0.0, "name": "64c890e9bf6cf01d5c649c015d530971", "is_reserved": 0, "rental_uris": {"android": "https://dc.lft.to/lastmile_qr_scan", "ios": "https://dc.lft.to/lastmile_qr_scan"}, "fusion_lon": 0.0}, {"lat": 38.898269666666664, "is_disabled": 0, "type": "electric_scooter", "lon": -77.02975816666667, "bike_id": "eddf1c55812fd86e62269a4b602c5be8", "fusion_lat": 0.0, "name": "eddf1c55812fd86e62269a4b602c5be8", "is_reserved": 0, "rental_uris": {"android": "https://dc.lft.to/lastmile_qr_scan", "ios": "https://dc.lft.to/lastmile_qr_scan"}, "fusion_lon": 0.0}, {"lat": 38.91705483333333, "is_disabled": 0, "type": "electric_scooter", "lon": -77.03351266666667, "bike_id": "93915debd3e0e31ab6daaaafc9265859", "fusion_lat": 0.0, "name": "93915debd3e0e31ab6daaaafc9265859", "is_reserved": 0, "rental_uris": {"android": "https://dc.lft.to/lastmile_qr_scan", "ios": "https://dc.lft.to/lastmile_qr_scan"}, "fusion_lon": 0.0}, {"lat": 38.918778333333336, "is_disabled": 0, "type": "electric_scooter", "lon": -77.035128, "bike_id": "edad1cb67f9db20887553f4c7a08131c", "fusion_lat": 0.0, "name": "edad1cb67f9db20887553f4c7a08131c", "is_reserved": 0, "rental_uris": {"android": "https://dc.lft.to/lastmile_qr_scan", "ios": "https://dc.lft.to/lastmile_qr_scan"}, "fusion_lon": 0.0}, {"lat": 38.910018666666666, "is_disabled": 0, "type": "electric_scooter", "lon": -77.03087966666666, "bike_id": "aa7cb05fe3cb86a7ccea239ba580d2b7", "fusion_lat": 0.0, "name": "aa7cb05fe3cb86a7ccea239ba580d2b7", "is_reserved": 0, "rental_uris": {"android": "https://dc.lft.to/lastmile_qr_scan", "ios": "https://dc.lft.to/lastmile_qr_scan"}, "fusion_lon": 0.0}, {"lat": 38.93408, "is_disabled": 0, "type": "electric_bike", "lon": -77.02512233333333, "bike_id": "4b336bbd58b00c62b90ef17fd0335848", "fusion_lat": 0.0, "name": "4b336bbd58b00c62b90ef17fd0335848", "is_reserved": 0, "rental_uris": {"android": "https://dc.lft.to/lastmile_qr_scan", "ios": "https://dc.lft.to/lastmile_qr_scan"}, "fusion_lon": 0.0}, {"lat": 38.9224535, "is_disabled": 0, "type": "electric_scooter", "lon": -77.03007833333334, "bike_id": "072e77f873456351f01a4e0264459071", "fusion_lat": 0.0, "name": "072e77f873456351f01a4e0264459071", "is_reserved": 0, "rental_uris": {"android": "https://dc.lft.to/lastmile_qr_scan", "ios": "https://dc.lft.to/lastmile_qr_scan"}, "fusion_lon": 0.0}, {"lat": 38.90443916666667, "is_disabled": 0, "type": "electric_scooter", "lon": -77.05141566666667, "bike_id": "6efe93e090bf083ba08dd0db5a11387b", "fusion_lat": 0.0, "name": "6efe93e090bf083ba08dd0db5a11387b", "is_reserved": 0, "rental_uris": {"android": "https://dc.lft.to/lastmile_qr_scan", "ios": "https://dc.lft.to/lastmile_qr_scan"}, "fusion_lon": 0.0}, {"lat": 38.871437666666665, "is_disabled": 0, "type": "electric_bike", "lon": -76.9370485, "bike_id": "ff5e88d46baa126f2027d1dfac9f4b4a", "fusion_lat": 0.0, "name": "ff5e88d46baa126f2027d1dfac9f4b4a", "is_reserved": 0, "rental_uris": {"android": "https://dc.lft.to/lastmile_qr_scan", "ios": "https://dc.lft.to/lastmile_qr_scan"}, "fusion_lon": 0.0}, {"lat": 38.92039583333333, "is_disabled": 0, "type": "electric_scooter", "lon": -77.03389883333334, "bike_id": "7e350d578bdfa5ce0b619038ff1bd916", "fusion_lat": 0.0, "name": "7e350d578bdfa5ce0b619038ff1bd916", "is_reserved": 0, "rental_uris": {"android": "https://dc.lft.to/lastmile_qr_scan", "ios": "https://dc.lft.to/lastmile_qr_scan"}, "fusion_lon": 0.0}, {"lat": 38.92974133333333, "is_disabled": 0, "type": "electric_scooter", "lon": -77.01303833333333, "bike_id": "3e965a8b4c626b43fc7e232e0b3b556a", "fusion_lat": 0.0, "name": "3e965a8b4c626b43fc7e232e0b3b556a", "is_reserved": 0, "rental_uris": {"android": "https://dc.lft.to/lastmile_qr_scan", "ios": "https://dc.lft.to/lastmile_qr_scan"}, "fusion_lon": 0.0}, {"lat": 38.884268666666664, "is_disabled": 0, "type": "electric_scooter", "lon": -76.957546, "bike_id": "2d483cb63f368a201b331aa627c59c4d", "fusion_lat": 0.0, "name": "2d483cb63f368a201b331aa627c59c4d", "is_reserved": 0, "rental_uris": {"android": "https://dc.lft.to/lastmile_qr_scan", "ios": "https://dc.lft.to/lastmile_qr_scan"}, "fusion_lon": 0.0}, {"lat": 38.85713166666667, "is_disabled": 0, "type": "electric_bike", "lon": -76.97116533333333, "bike_id": "f873262f4070334e65a36dcbfae5d00a", "fusion_lat": 0.0, "name": "f873262f4070334e65a36dcbfae5d00a", "is_reserved": 0, "rental_uris": {"android": "https://dc.lft.to/lastmile_qr_scan", "ios": "https://dc.lft.to/lastmile_qr_scan"}, "fusion_lon": 0.0}, {"lat": 38.9198795, "is_disabled": 0, "type": "electric_scooter", "lon": -77.02190083333333, "bike_id": "ca12a92d6fdf9966d5d690cd3f099f62", "fusion_lat": 0.0, "name": "ca12a92d6fdf9966d5d690cd3f099f62", "is_reserved": 0, "rental_uris": {"android": "https://dc.lft.to/lastmile_qr_scan", "ios": "https://dc.lft.to/lastmile_qr_scan"}, "fusion_lon": 0.0}, {"lat": 38.906394166666665, "is_disabled": 0, "type": "electric_scooter", "lon": -77.01144933333333, "bike_id": "c172b4a2c04d45d63fc1fff4e7574ed2", "fusion_lat": 0.0, "name": "c172b4a2c04d45d63fc1fff4e7574ed2", "is_reserved": 0, "rental_uris": {"android": "https://dc.lft.to/lastmile_qr_scan", "ios": "https://dc.lft.to/lastmile_qr_scan"}, "fusion_lon": 0.0}, {"lat": 38.9110115, "is_disabled": 0, "type": "electric_scooter", "lon": -77.042109, "bike_id": "7ab4710d694aaec1dc0ac8032e451527", "fusion_lat": 0.0, "name": "7ab4710d694aaec1dc0ac8032e451527", "is_reserved": 0, "rental_uris": {"android": "https://dc.lft.to/lastmile_qr_scan", "ios": "https://dc.lft.to/lastmile_qr_scan"}, "fusion_lon": 0.0}, {"lat": 38.961329666666664, "is_disabled": 0, "type": "electric_scooter", "lon": -77.02237, "bike_id": "48d81d1addb2d0a8b3437e224c1d9b09", "fusion_lat": 0.0, "name": "48d81d1addb2d0a8b3437e224c1d9b09", "is_reserved": 0, "rental_uris": {"android": "https://dc.lft.to/lastmile_qr_scan", "ios": "https://dc.lft.to/lastmile_qr_scan"}, "fusion_lon": 0.0}, {"lat": 38.9228915, "is_disabled": 0, "type": "electric_scooter", "lon": -77.04257516666667, "bike_id": "f451703236bee4001b8b784df212d0d0", "fusion_lat": 0.0, "name": "f451703236bee4001b8b784df212d0d0", "is_reserved": 0, "rental_uris": {"android": "https://dc.lft.to/lastmile_qr_scan", "ios": "https://dc.lft.to/lastmile_qr_scan"}, "fusion_lon": 0.0}, {"lat": 38.912631, "is_disabled": 0, "type": "electric_scooter", "lon": -77.025315, "bike_id": "4e4e57e9e194a4025fd3a85243b357e7", "fusion_lat": 0.0, "name": "4e4e57e9e194a4025fd3a85243b357e7", "is_reserved": 0, "rental_uris": {"android": "https://dc.lft.to/lastmile_qr_scan", "ios": "https://dc.lft.to/lastmile_qr_scan"}, "fusion_lon": 0.0}, {"lat": 38.9035265, "is_disabled": 0, "type": "electric_scooter", "lon": -77.04242966666666, "bike_id": "f01a24eeba842cdeb661d2143d2cca0c", "fusion_lat": 0.0, "name": "f01a24eeba842cdeb661d2143d2cca0c", "is_reserved": 0, "rental_uris": {"android": "https://dc.lft.to/lastmile_qr_scan", "ios": "https://dc.lft.to/lastmile_qr_scan"}, "fusion_lon": 0.0}, {"lat": 38.89400533333333, "is_disabled": 0, "type": "electric_scooter", "lon": -76.9866525, "bike_id": "f54e42b7ebcf798e8cbcfe98bc6d4b81", "fusion_lat": 0.0, "name": "f54e42b7ebcf798e8cbcfe98bc6d4b81", "is_reserved": 0, "rental_uris": {"android": "https://dc.lft.to/lastmile_qr_scan", "ios": "https://dc.lft.to/lastmile_qr_scan"}, "fusion_lon": 0.0}, {"lat": 38.92962816666667, "is_disabled": 0, "type": "electric_scooter", "lon": -77.02786566666667, "bike_id": "8f0d57c0f09477da1bf1a58f0de059b2", "fusion_lat": 0.0, "name": "8f0d57c0f09477da1bf1a58f0de059b2", "is_reserved": 0, "rental_uris": {"android": "https://dc.lft.to/lastmile_qr_scan", "ios": "https://dc.lft.to/lastmile_qr_scan"}, "fusion_lon": 0.0}, {"lat": 38.869964, "is_disabled": 0, "type": "electric_bike", "lon": -77.06568666666666, "bike_id": "c7a981922f28ab8d284bf5d8f09ed685", "fusion_lat": 0.0, "name": "c7a981922f28ab8d284bf5d8f09ed685", "is_reserved": 0, "rental_uris": {"android": "https://dc.lft.to/lastmile_qr_scan", "ios": "https://dc.lft.to/lastmile_qr_scan"}, "fusion_lon": 0.0}, {"lat": 38.9492355, "is_disabled": 0, "type": "electric_bike", "lon": -77.0079605, "bike_id": "93636af355a5fd852f8230f3d29bda1e", "fusion_lat": 0.0, "name": "93636af355a5fd852f8230f3d29bda1e", "is_reserved": 0, "rental_uris": {"android": "https://dc.lft.to/lastmile_qr_scan", "ios": "https://dc.lft.to/lastmile_qr_scan"}, "fusion_lon": 0.0}, {"lat": 38.92406183333333, "is_disabled": 0, "type": "electric_scooter", "lon": -77.02741316666666, "bike_id": "ad8445ab172e06a2db1a281b49f52bc8", "fusion_lat": 0.0, "name": "ad8445ab172e06a2db1a281b49f52bc8", "is_reserved": 0, "rental_uris": {"android": "https://dc.lft.to/lastmile_qr_scan", "ios": "https://dc.lft.to/lastmile_qr_scan"}, "fusion_lon": 0.0}, {"lat": 38.9060865, "is_disabled": 0, "type": "electric_scooter", "lon": -76.98981383333333, "bike_id": "bdf38d2c890ceb9c5cd798d14af528bb", "fusion_lat": 0.0, "name": "bdf38d2c890ceb9c5cd798d14af528bb", "is_reserved": 0, "rental_uris": {"android": "https://dc.lft.to/lastmile_qr_scan", "ios": "https://dc.lft.to/lastmile_qr_scan"}, "fusion_lon": 0.0}, {"lat": 38.90906733333333, "is_disabled": 0, "type": "electric_scooter", "lon": -77.04404183333334, "bike_id": "b7c46ddd37eb7ea32b297750de4bd741", "fusion_lat": 0.0, "name": "b7c46ddd37eb7ea32b297750de4bd741", "is_reserved": 0, "rental_uris": {"android": "https://dc.lft.to/lastmile_qr_scan", "ios": "https://dc.lft.to/lastmile_qr_scan"}, "fusion_lon": 0.0}, {"lat": 38.877197333333335, "is_disabled": 0, "type": "electric_scooter", "lon": -77.0177345, "bike_id": "02bd45dac07efd7459c1ee5a31b61270", "fusion_lat": 0.0, "name": "02bd45dac07efd7459c1ee5a31b61270", "is_reserved": 0, "rental_uris": {"android": "https://dc.lft.to/lastmile_qr_scan", "ios": "https://dc.lft.to/lastmile_qr_scan"}, "fusion_lon": 0.0}, {"lat": 38.917475, "is_disabled": 0, "type": "electric_scooter", "lon": -77.02284783333333, "bike_id": "1e1827c8efd7428eced50f9c013b8ac0", "fusion_lat": 0.0, "name": "1e1827c8efd7428eced50f9c013b8ac0", "is_reserved": 0, "rental_uris": {"android": "https://dc.lft.to/lastmile_qr_scan", "ios": "https://dc.lft.to/lastmile_qr_scan"}, "fusion_lon": 0.0}, {"lat": 38.90525933333333, "is_disabled": 0, "type": "electric_scooter", "lon": -77.06237666666667, "bike_id": "0d9ca9e4d1d3d3317d3a1ae52d812c1c", "fusion_lat": 0.0, "name": "0d9ca9e4d1d3d3317d3a1ae52d812c1c", "is_reserved": 0, "rental_uris": {"android": "https://dc.lft.to/lastmile_qr_scan", "ios": "https://dc.lft.to/lastmile_qr_scan"}, "fusion_lon": 0.0}, {"lat": 38.9256995, "is_disabled": 0, "type": "electric_scooter", "lon": -77.057422, "bike_id": "eb45903d90d5564252fae919d1d1c12c", "fusion_lat": 0.0, "name": "eb45903d90d5564252fae919d1d1c12c", "is_reserved": 0, "rental_uris": {"android": "https://dc.lft.to/lastmile_qr_scan", "ios": "https://dc.lft.to/lastmile_qr_scan"}, "fusion_lon": 0.0}, {"lat": 38.91457716666667, "is_disabled": 0, "type": "electric_scooter", "lon": -77.04169833333333, "bike_id": "5cc80dedaa7da03aa39c623ab4c34f08", "fusion_lat": 0.0, "name": "5cc80dedaa7da03aa39c623ab4c34f08", "is_reserved": 0, "rental_uris": {"android": "https://dc.lft.to/lastmile_qr_scan", "ios": "https://dc.lft.to/lastmile_qr_scan"}, "fusion_lon": 0.0}, {"lat": 38.8867355, "is_disabled": 0, "type": "electric_scooter", "lon": -76.98561866666667, "bike_id": "01b0916c0bf45bdbefb56fbc8088b48d", "fusion_lat": 0.0, "name": "01b0916c0bf45bdbefb56fbc8088b48d", "is_reserved": 0, "rental_uris": {"android": "https://dc.lft.to/lastmile_qr_scan", "ios": "https://dc.lft.to/lastmile_qr_scan"}, "fusion_lon": 0.0}, {"lat": 38.92914733333333, "is_disabled": 0, "type": "electric_scooter", "lon": -77.021932, "bike_id": "d8b304cd06b76fcfcd034ee45b98e25f", "fusion_lat": 0.0, "name": "d8b304cd06b76fcfcd034ee45b98e25f", "is_reserved": 0, "rental_uris": {"android": "https://dc.lft.to/lastmile_qr_scan", "ios": "https://dc.lft.to/lastmile_qr_scan"}, "fusion_lon": 0.0}, {"lat": 38.89787, "is_disabled": 0, "type": "electric_bike", "lon": -76.9043445, "bike_id": "8c8d5533ed80844193d2c69d5e4bab3c", "fusion_lat": 0.0, "name": "8c8d5533ed80844193d2c69d5e4bab3c", "is_reserved": 0, "rental_uris": {"android": "https://dc.lft.to/lastmile_qr_scan", "ios": "https://dc.lft.to/lastmile_qr_scan"}, "fusion_lon": 0.0}, {"lat": 38.922909833333335, "is_disabled": 0, "type": "electric_scooter", "lon": -77.04260916666667, "bike_id": "82023a6862878fcbb15f460b6ea76ecd", "fusion_lat": 0.0, "name": "82023a6862878fcbb15f460b6ea76ecd", "is_reserved": 0, "rental_uris": {"android": "https://dc.lft.to/lastmile_qr_scan", "ios": "https://dc.lft.to/lastmile_qr_scan"}, "fusion_lon": 0.0}, {"lat": 38.90498083333333, "is_disabled": 0, "type": "electric_scooter", "lon": -77.05127233333333, "bike_id": "4e30386cfde28bb7e283f67468a46034", "fusion_lat": 0.0, "name": "4e30386cfde28bb7e283f67468a46034", "is_reserved": 0, "rental_uris": {"android": "https://dc.lft.to/lastmile_qr_scan", "ios": "https://dc.lft.to/lastmile_qr_scan"}, "fusion_lon": 0.0}, {"lat": 38.876725666666665, "is_disabled": 0, "type": "electric_scooter", "lon": -77.0040665, "bike_id": "ceb8eda49e90eee4d63ebfc830c0a030", "fusion_lat": 0.0, "name": "ceb8eda49e90eee4d63ebfc830c0a030", "is_reserved": 0, "rental_uris": {"android": "https://dc.lft.to/lastmile_qr_scan", "ios": "https://dc.lft.to/lastmile_qr_scan"}, "fusion_lon": 0.0}, {"lat": 38.91814183333334, "is_disabled": 0, "type": "electric_scooter", "lon": -77.0451235, "bike_id": "2919c7f7925481e4bce32a8c870e2a84", "fusion_lat": 0.0, "name": "2919c7f7925481e4bce32a8c870e2a84", "is_reserved": 0, "rental_uris": {"android": "https://dc.lft.to/lastmile_qr_scan", "ios": "https://dc.lft.to/lastmile_qr_scan"}, "fusion_lon": 0.0}, {"lat": 38.85206783333334, "is_disabled": 0, "type": "electric_bike", "lon": -76.98554316666667, "bike_id": "fcab86bd095a4d2946fa1e03f8f6ff3e", "fusion_lat": 0.0, "name": "fcab86bd095a4d2946fa1e03f8f6ff3e", "is_reserved": 0, "rental_uris": {"android": "https://dc.lft.to/lastmile_qr_scan", "ios": "https://dc.lft.to/lastmile_qr_scan"}, "fusion_lon": 0.0}, {"lat": 38.970708, "is_disabled": 0, "type": "electric_bike", "lon": -76.93619283333334, "bike_id": "3ffe24a300826cee537f5da906096a1b", "fusion_lat": 0.0, "name": "3ffe24a300826cee537f5da906096a1b", "is_reserved": 0, "rental_uris": {"android": "https://dc.lft.to/lastmile_qr_scan", "ios": "https://dc.lft.to/lastmile_qr_scan"}, "fusion_lon": 0.0}, {"lat": 38.915610666666666, "is_disabled": 0, "type": "electric_scooter", "lon": -77.02171216666666, "bike_id": "31bb5a359d4fdf4a6439cd3312862b7c", "fusion_lat": 0.0, "name": "31bb5a359d4fdf4a6439cd3312862b7c", "is_reserved": 0, "rental_uris": {"android": "https://dc.lft.to/lastmile_qr_scan", "ios": "https://dc.lft.to/lastmile_qr_scan"}, "fusion_lon": 0.0}, {"lat": 38.92665, "is_disabled": 0, "type": "electric_scooter", "lon": -76.99546733333334, "bike_id": "2f99555db42b1b689f84519da8e55e25", "fusion_lat": 0.0, "name": "2f99555db42b1b689f84519da8e55e25", "is_reserved": 0, "rental_uris": {"android": "https://dc.lft.to/lastmile_qr_scan", "ios": "https://dc.lft.to/lastmile_qr_scan"}, "fusion_lon": 0.0}, {"lat": 38.892223, "is_disabled": 0, "type": "electric_scooter", "lon": -77.04198833333334, "bike_id": "48f70850dee7bdfec769fa1aa260966b", "fusion_lat": 0.0, "name": "48f70850dee7bdfec769fa1aa260966b", "is_reserved": 0, "rental_uris": {"android": "https://dc.lft.to/lastmile_qr_scan", "ios": "https://dc.lft.to/lastmile_qr_scan"}, "fusion_lon": 0.0}, {"lat": 38.923114166666664, "is_disabled": 0, "type": "electric_scooter", "lon": -77.04219816666667, "bike_id": "8aa4bc196105ba0725929e7158d33eba", "fusion_lat": 0.0, "name": "8aa4bc196105ba0725929e7158d33eba", "is_reserved": 0, "rental_uris": {"android": "https://dc.lft.to/lastmile_qr_scan", "ios": "https://dc.lft.to/lastmile_qr_scan"}, "fusion_lon": 0.0}, {"lat": 38.86361333333333, "is_disabled": 0, "type": "electric_scooter", "lon": -76.99035466666666, "bike_id": "b123afba0349192e751aefad3c4220f8", "fusion_lat": 0.0, "name": "b123afba0349192e751aefad3c4220f8", "is_reserved": 0, "rental_uris": {"android": "https://dc.lft.to/lastmile_qr_scan", "ios": "https://dc.lft.to/lastmile_qr_scan"}, "fusion_lon": 0.0}, {"lat": 38.92973816666667, "is_disabled": 0, "type": "electric_scooter", "lon": -77.029284, "bike_id": "62d4433bc73fef12e88e17593893697e", "fusion_lat": 0.0, "name": "62d4433bc73fef12e88e17593893697e", "is_reserved": 0, "rental_uris": {"android": "https://dc.lft.to/lastmile_qr_scan", "ios": "https://dc.lft.to/lastmile_qr_scan"}, "fusion_lon": 0.0}, {"lat": 38.93092433333333, "is_disabled": 0, "type": "electric_scooter", "lon": -77.0236475, "bike_id": "406f422d51f03c133feb288cac04e82c", "fusion_lat": 0.0, "name": "406f422d51f03c133feb288cac04e82c", "is_reserved": 0, "rental_uris": {"android": "https://dc.lft.to/lastmile_qr_scan", "ios": "https://dc.lft.to/lastmile_qr_scan"}, "fusion_lon": 0.0}, {"lat": 38.91705116666667, "is_disabled": 0, "type": "electric_scooter", "lon": -77.00962516666667, "bike_id": "27509ab6185911e8d189bc74ba9f8cc3", "fusion_lat": 0.0, "name": "27509ab6185911e8d189bc74ba9f8cc3", "is_reserved": 0, "rental_uris": {"android": "https://dc.lft.to/lastmile_qr_scan", "ios": "https://dc.lft.to/lastmile_qr_scan"}, "fusion_lon": 0.0}, {"lat": 38.89221633333333, "is_disabled": 0, "type": "electric_scooter", "lon": -77.03218733333334, "bike_id": "b0334c221f6a04d5899a4a990860c0ef", "fusion_lat": 0.0, "name": "b0334c221f6a04d5899a4a990860c0ef", "is_reserved": 0, "rental_uris": {"android": "https://dc.lft.to/lastmile_qr_scan", "ios": "https://dc.lft.to/lastmile_qr_scan"}, "fusion_lon": 0.0}, {"lat": 38.89962166666667, "is_disabled": 0, "type": "electric_scooter", "lon": -77.0231545, "bike_id": "52635004f10e073fd0703d86ef01e3b6", "fusion_lat": 0.0, "name": "52635004f10e073fd0703d86ef01e3b6", "is_reserved": 0, "rental_uris": {"android": "https://dc.lft.to/lastmile_qr_scan", "ios": "https://dc.lft.to/lastmile_qr_scan"}, "fusion_lon": 0.0}, {"lat": 38.87144033333333, "is_disabled": 0, "type": "electric_bike", "lon": -76.93668133333334, "bike_id": "5e82f3590392a4231886b004cea52ba8", "fusion_lat": 0.0, "name": "5e82f3590392a4231886b004cea52ba8", "is_reserved": 0, "rental_uris": {"android": "https://dc.lft.to/lastmile_qr_scan", "ios": "https://dc.lft.to/lastmile_qr_scan"}, "fusion_lon": 0.0}, {"lat": 38.89220533333334, "is_disabled": 0, "type": "electric_scooter", "lon": -77.0451395, "bike_id": "18dccfc8cf12f28b7ab3e221d903f657", "fusion_lat": 0.0, "name": "18dccfc8cf12f28b7ab3e221d903f657", "is_reserved": 0, "rental_uris": {"android": "https://dc.lft.to/lastmile_qr_scan", "ios": "https://dc.lft.to/lastmile_qr_scan"}, "fusion_lon": 0.0}, {"lat": 38.89486266666667, "is_disabled": 0, "type": "electric_scooter", "lon": -76.99507166666666, "bike_id": "2f5ebadabb601fa4d8cfc6b90f6af49d", "fusion_lat": 0.0, "name": "2f5ebadabb601fa4d8cfc6b90f6af49d", "is_reserved": 0, "rental_uris": {"android": "https://dc.lft.to/lastmile_qr_scan", "ios": "https://dc.lft.to/lastmile_qr_scan"}, "fusion_lon": 0.0}, {"lat": 38.917416333333335, "is_disabled": 0, "type": "electric_scooter", "lon": -77.03191416666667, "bike_id": "a91ed99887baa29b1c554d6b19df859c", "fusion_lat": 0.0, "name": "a91ed99887baa29b1c554d6b19df859c", "is_reserved": 0, "rental_uris": {"android": "https://dc.lft.to/lastmile_qr_scan", "ios": "https://dc.lft.to/lastmile_qr_scan"}, "fusion_lon": 0.0}, {"lat": 38.90944066666667, "is_disabled": 0, "type": "electric_scooter", "lon": -77.0466795, "bike_id": "b56f2ba729dca957f3052b91cda57c7f", "fusion_lat": 0.0, "name": "b56f2ba729dca957f3052b91cda57c7f", "is_reserved": 0, "rental_uris": {"android": "https://dc.lft.to/lastmile_qr_scan", "ios": "https://dc.lft.to/lastmile_qr_scan"}, "fusion_lon": 0.0}, {"lat": 38.93580683333333, "is_disabled": 0, "type": "electric_bike", "lon": -77.10687833333333, "bike_id": "219d1752dc6ead4f1d14f502e583a4f3", "fusion_lat": 0.0, "name": "219d1752dc6ead4f1d14f502e583a4f3", "is_reserved": 0, "rental_uris": {"android": "https://dc.lft.to/lastmile_qr_scan", "ios": "https://dc.lft.to/lastmile_qr_scan"}, "fusion_lon": 0.0}, {"lat": 38.88109016666667, "is_disabled": 0, "type": "electric_scooter", "lon": -77.0165615, "bike_id": "0d823096bc59fecbdd609aa5961f0da4", "fusion_lat": 0.0, "name": "0d823096bc59fecbdd609aa5961f0da4", "is_reserved": 0, "rental_uris": {"android": "https://dc.lft.to/lastmile_qr_scan", "ios": "https://dc.lft.to/lastmile_qr_scan"}, "fusion_lon": 0.0}, {"lat": 38.90532833333333, "is_disabled": 0, "type": "electric_scooter", "lon": -77.02955283333333, "bike_id": "f180d178141ea099f2a0c5bc32f96964", "fusion_lat": 0.0, "name": "f180d178141ea099f2a0c5bc32f96964", "is_reserved": 0, "rental_uris": {"android": "https://dc.lft.to/lastmile_qr_scan", "ios": "https://dc.lft.to/lastmile_qr_scan"}, "fusion_lon": 0.0}, {"lat": 38.903252333333334, "is_disabled": 0, "type": "electric_scooter", "lon": -77.05168283333333, "bike_id": "257323ade2a6f22a4faff90ed8fccfbf", "fusion_lat": 0.0, "name": "257323ade2a6f22a4faff90ed8fccfbf", "is_reserved": 0, "rental_uris": {"android": "https://dc.lft.to/lastmile_qr_scan", "ios": "https://dc.lft.to/lastmile_qr_scan"}, "fusion_lon": 0.0}, {"lat": 38.911235833333336, "is_disabled": 0, "type": "electric_scooter", "lon": -77.03851416666667, "bike_id": "9691e730502354d3ad709d2f50a3c505", "fusion_lat": 0.0, "name": "9691e730502354d3ad709d2f50a3c505", "is_reserved": 0, "rental_uris": {"android": "https://dc.lft.to/lastmile_qr_scan", "ios": "https://dc.lft.to/lastmile_qr_scan"}, "fusion_lon": 0.0}, {"lat": 38.90948016666667, "is_disabled": 0, "type": "electric_scooter", "lon": -77.03448183333333, "bike_id": "596180a5de3fb4ab075bea849c158a2f", "fusion_lat": 0.0, "name": "596180a5de3fb4ab075bea849c158a2f", "is_reserved": 0, "rental_uris": {"android": "https://dc.lft.to/lastmile_qr_scan", "ios": "https://dc.lft.to/lastmile_qr_scan"}, "fusion_lon": 0.0}, {"lat": 38.892211833333334, "is_disabled": 0, "type": "electric_scooter", "lon": -77.02227633333334, "bike_id": "e725366060169d1e56301471d81d303c", "fusion_lat": 0.0, "name": "e725366060169d1e56301471d81d303c", "is_reserved": 0, "rental_uris": {"android": "https://dc.lft.to/lastmile_qr_scan", "ios": "https://dc.lft.to/lastmile_qr_scan"}, "fusion_lon": 0.0}, {"lat": 38.86508116666667, "is_disabled": 0, "type": "electric_scooter", "lon": -76.99007816666666, "bike_id": "60c1ec1451021e02592ad465f4e19e7b", "fusion_lat": 0.0, "name": "60c1ec1451021e02592ad465f4e19e7b", "is_reserved": 0, "rental_uris": {"android": "https://dc.lft.to/lastmile_qr_scan", "ios": "https://dc.lft.to/lastmile_qr_scan"}, "fusion_lon": 0.0}, {"lat": 38.892180333333336, "is_disabled": 0, "type": "electric_scooter", "lon": -77.02223066666667, "bike_id": "401235fbc259543711517444718da7df", "fusion_lat": 0.0, "name": "401235fbc259543711517444718da7df", "is_reserved": 0, "rental_uris": {"android": "https://dc.lft.to/lastmile_qr_scan", "ios": "https://dc.lft.to/lastmile_qr_scan"}, "fusion_lon": 0.0}, {"lat": 38.8729115, "is_disabled": 0, "type": "electric_scooter", "lon": -77.009837, "bike_id": "aa62a98c77f3de5dcb936f105261996a", "fusion_lat": 0.0, "name": "aa62a98c77f3de5dcb936f105261996a", "is_reserved": 0, "rental_uris": {"android": "https://dc.lft.to/lastmile_qr_scan", "ios": "https://dc.lft.to/lastmile_qr_scan"}, "fusion_lon": 0.0}, {"lat": 38.9056175, "is_disabled": 0, "type": "electric_scooter", "lon": -76.99878933333333, "bike_id": "713c9ca5481070ceac3432db795e0bec", "fusion_lat": 0.0, "name": "713c9ca5481070ceac3432db795e0bec", "is_reserved": 0, "rental_uris": {"android": "https://dc.lft.to/lastmile_qr_scan", "ios": "https://dc.lft.to/lastmile_qr_scan"}, "fusion_lon": 0.0}, {"lat": 38.90361566666667, "is_disabled": 0, "type": "electric_scooter", "lon": -77.04278383333333, "bike_id": "9a4717177b53327819ad74ff30d8cd24", "fusion_lat": 0.0, "name": "9a4717177b53327819ad74ff30d8cd24", "is_reserved": 0, "rental_uris": {"android": "https://dc.lft.to/lastmile_qr_scan", "ios": "https://dc.lft.to/lastmile_qr_scan"}, "fusion_lon": 0.0}, {"lat": 38.8671175, "is_disabled": 0, "type": "electric_scooter", "lon": -76.98727083333333, "bike_id": "f713e8dd05b2bb0c028524bb6722f49d", "fusion_lat": 0.0, "name": "f713e8dd05b2bb0c028524bb6722f49d", "is_reserved": 0, "rental_uris": {"android": "https://dc.lft.to/lastmile_qr_scan", "ios": "https://dc.lft.to/lastmile_qr_scan"}, "fusion_lon": 0.0}, {"lat": 38.89224766666667, "is_disabled": 0, "type": "electric_scooter", "lon": -77.0420355, "bike_id": "bb14c5ae0af2882da1bef830857a6672", "fusion_lat": 0.0, "name": "bb14c5ae0af2882da1bef830857a6672", "is_reserved": 0, "rental_uris": {"android": "https://dc.lft.to/lastmile_qr_scan", "ios": "https://dc.lft.to/lastmile_qr_scan"}, "fusion_lon": 0.0}, {"lat": 38.9177715, "is_disabled": 0, "type": "electric_scooter", "lon": -77.0366115, "bike_id": "285462098262894028841a56f7022f5d", "fusion_lat": 0.0, "name": "285462098262894028841a56f7022f5d", "is_reserved": 0, "rental_uris": {"android": "https://dc.lft.to/lastmile_qr_scan", "ios": "https://dc.lft.to/lastmile_qr_scan"}, "fusion_lon": 0.0}, {"lat": 38.9131875, "is_disabled": 0, "type": "electric_scooter", "lon": -77.014449, "bike_id": "dc058830031138926a21a0b1f743e06a", "fusion_lat": 0.0, "name": "dc058830031138926a21a0b1f743e06a", "is_reserved": 0, "rental_uris": {"android": "https://dc.lft.to/lastmile_qr_scan", "ios": "https://dc.lft.to/lastmile_qr_scan"}, "fusion_lon": 0.0}, {"lat": 38.89759983333333, "is_disabled": 0, "type": "electric_scooter", "lon": -77.0269435, "bike_id": "74af89bd5883855b4f67d555ceb6c65c", "fusion_lat": 0.0, "name": "74af89bd5883855b4f67d555ceb6c65c", "is_reserved": 0, "rental_uris": {"android": "https://dc.lft.to/lastmile_qr_scan", "ios": "https://dc.lft.to/lastmile_qr_scan"}, "fusion_lon": 0.0}, {"lat": 38.877298, "is_disabled": 0, "type": "electric_bike", "lon": -76.98111516666667, "bike_id": "fcb1787784820c3b463d740ab713aaeb", "fusion_lat": 0.0, "name": "fcb1787784820c3b463d740ab713aaeb", "is_reserved": 0, "rental_uris": {"android": "https://dc.lft.to/lastmile_qr_scan", "ios": "https://dc.lft.to/lastmile_qr_scan"}, "fusion_lon": 0.0}, {"lat": 38.90970133333333, "is_disabled": 0, "type": "electric_scooter", "lon": -77.0386755, "bike_id": "011f6694ca4deb216bde72b22a9e9dd9", "fusion_lat": 0.0, "name": "011f6694ca4deb216bde72b22a9e9dd9", "is_reserved": 0, "rental_uris": {"android": "https://dc.lft.to/lastmile_qr_scan", "ios": "https://dc.lft.to/lastmile_qr_scan"}, "fusion_lon": 0.0}, {"lat": 38.898603, "is_disabled": 0, "type": "electric_scooter", "lon": -77.0205135, "bike_id": "9941e3cfe28e2580689b1e391473d462", "fusion_lat": 0.0, "name": "9941e3cfe28e2580689b1e391473d462", "is_reserved": 0, "rental_uris": {"android": "https://dc.lft.to/lastmile_qr_scan", "ios": "https://dc.lft.to/lastmile_qr_scan"}, "fusion_lon": 0.0}, {"lat": 38.905823833333336, "is_disabled": 0, "type": "electric_scooter", "lon": -77.04868666666667, "bike_id": "db3437d41f54dd1582d8ff7953c1ff0f", "fusion_lat": 0.0, "name": "db3437d41f54dd1582d8ff7953c1ff0f", "is_reserved": 0, "rental_uris": {"android": "https://dc.lft.to/lastmile_qr_scan", "ios": "https://dc.lft.to/lastmile_qr_scan"}, "fusion_lon": 0.0}, {"lat": 38.92209116666667, "is_disabled": 0, "type": "electric_scooter", "lon": -77.04035433333334, "bike_id": "f27442cf13844e656815f80fddcb5645", "fusion_lat": 0.0, "name": "f27442cf13844e656815f80fddcb5645", "is_reserved": 0, "rental_uris": {"android": "https://dc.lft.to/lastmile_qr_scan", "ios": "https://dc.lft.to/lastmile_qr_scan"}, "fusion_lon": 0.0}, {"lat": 38.93315483333333, "is_disabled": 0, "type": "electric_scooter", "lon": -77.0451825, "bike_id": "07527c2a666eeed95f8f0ac299396acd", "fusion_lat": 0.0, "name": "07527c2a666eeed95f8f0ac299396acd", "is_reserved": 0, "rental_uris": {"android": "https://dc.lft.to/lastmile_qr_scan", "ios": "https://dc.lft.to/lastmile_qr_scan"}, "fusion_lon": 0.0}, {"lat": 38.897444, "is_disabled": 0, "type": "electric_scooter", "lon": -77.00075783333334, "bike_id": "7336fe1b18bfff265743b041bb5c6a3c", "fusion_lat": 0.0, "name": "7336fe1b18bfff265743b041bb5c6a3c", "is_reserved": 0, "rental_uris": {"android": "https://dc.lft.to/lastmile_qr_scan", "ios": "https://dc.lft.to/lastmile_qr_scan"}, "fusion_lon": 0.0}, {"lat": 38.8667865, "is_disabled": 0, "type": "electric_scooter", "lon": -76.98539833333334, "bike_id": "a19021eda658668781555d772b6c3ffa", "fusion_lat": 0.0, "name": "a19021eda658668781555d772b6c3ffa", "is_reserved": 0, "rental_uris": {"android": "https://dc.lft.to/lastmile_qr_scan", "ios": "https://dc.lft.to/lastmile_qr_scan"}, "fusion_lon": 0.0}, {"lat": 38.91766116666667, "is_disabled": 0, "type": "electric_scooter", "lon": -77.0229765, "bike_id": "07976c35cb17c9d3926e9caa4b17c444", "fusion_lat": 0.0, "name": "07976c35cb17c9d3926e9caa4b17c444", "is_reserved": 0, "rental_uris": {"android": "https://dc.lft.to/lastmile_qr_scan", "ios": "https://dc.lft.to/lastmile_qr_scan"}, "fusion_lon": 0.0}, {"lat": 38.9032825, "is_disabled": 0, "type": "electric_scooter", "lon": -77.063122, "bike_id": "0303752fd4f8752b48f3d6cf4a804a5f", "fusion_lat": 0.0, "name": "0303752fd4f8752b48f3d6cf4a804a5f", "is_reserved": 0, "rental_uris": {"android": "https://dc.lft.to/lastmile_qr_scan", "ios": "https://dc.lft.to/lastmile_qr_scan"}, "fusion_lon": 0.0}, {"lat": 38.927871333333336, "is_disabled": 0, "type": "electric_scooter", "lon": -77.03194916666666, "bike_id": "51a27d4cba0599933468db3518c464ba", "fusion_lat": 0.0, "name": "51a27d4cba0599933468db3518c464ba", "is_reserved": 0, "rental_uris": {"android": "https://dc.lft.to/lastmile_qr_scan", "ios": "https://dc.lft.to/lastmile_qr_scan"}, "fusion_lon": 0.0}, {"lat": 38.91120983333333, "is_disabled": 0, "type": "electric_scooter", "lon": -77.03847533333334, "bike_id": "4362a6c5f02700b36defe2ef26d3877d", "fusion_lat": 0.0, "name": "4362a6c5f02700b36defe2ef26d3877d", "is_reserved": 0, "rental_uris": {"android": "https://dc.lft.to/lastmile_qr_scan", "ios": "https://dc.lft.to/lastmile_qr_scan"}, "fusion_lon": 0.0}, {"lat": 38.934209333333335, "is_disabled": 0, "type": "electric_scooter", "lon": -77.0555125, "bike_id": "051aa2e85bd4130f5cde491a77bb84ec", "fusion_lat": 0.0, "name": "051aa2e85bd4130f5cde491a77bb84ec", "is_reserved": 0, "rental_uris": {"android": "https://dc.lft.to/lastmile_qr_scan", "ios": "https://dc.lft.to/lastmile_qr_scan"}, "fusion_lon": 0.0}, {"lat": 38.85510983333333, "is_disabled": 0, "type": "electric_bike", "lon": -76.98424816666666, "bike_id": "bae4c58c67843e76cbb4152c365be10c", "fusion_lat": 0.0, "name": "bae4c58c67843e76cbb4152c365be10c", "is_reserved": 0, "rental_uris": {"android": "https://dc.lft.to/lastmile_qr_scan", "ios": "https://dc.lft.to/lastmile_qr_scan"}, "fusion_lon": 0.0}, {"lat": 38.91112283333333, "is_disabled": 0, "type": "electric_scooter", "lon": -77.04814033333334, "bike_id": "a7ac174af49b5c8ca3f96074d33ddb24", "fusion_lat": 0.0, "name": "a7ac174af49b5c8ca3f96074d33ddb24", "is_reserved": 0, "rental_uris": {"android": "https://dc.lft.to/lastmile_qr_scan", "ios": "https://dc.lft.to/lastmile_qr_scan"}, "fusion_lon": 0.0}, {"lat": 38.91805816666667, "is_disabled": 0, "type": "electric_scooter", "lon": -77.03679766666667, "bike_id": "2434c28c0f08234fc258f7507bb9fff4", "fusion_lat": 0.0, "name": "2434c28c0f08234fc258f7507bb9fff4", "is_reserved": 0, "rental_uris": {"android": "https://dc.lft.to/lastmile_qr_scan", "ios": "https://dc.lft.to/lastmile_qr_scan"}, "fusion_lon": 0.0}, {"lat": 38.911040166666666, "is_disabled": 0, "type": "electric_scooter", "lon": -77.02016583333334, "bike_id": "f2627820fa1fc042de9ab1feeee7a293", "fusion_lat": 0.0, "name": "f2627820fa1fc042de9ab1feeee7a293", "is_reserved": 0, "rental_uris": {"android": "https://dc.lft.to/lastmile_qr_scan", "ios": "https://dc.lft.to/lastmile_qr_scan"}, "fusion_lon": 0.0}, {"lat": 38.908606, "is_disabled": 0, "type": "electric_scooter", "lon": -77.0425095, "bike_id": "78ed7ebf4b93298e3d46c2e0cc5c30c7", "fusion_lat": 0.0, "name": "78ed7ebf4b93298e3d46c2e0cc5c30c7", "is_reserved": 0, "rental_uris": {"android": "https://dc.lft.to/lastmile_qr_scan", "ios": "https://dc.lft.to/lastmile_qr_scan"}, "fusion_lon": 0.0}, {"lat": 38.9147835, "is_disabled": 0, "type": "electric_scooter", "lon": -77.01378283333334, "bike_id": "f73052af27835b07516945ea843196b7", "fusion_lat": 0.0, "name": "f73052af27835b07516945ea843196b7", "is_reserved": 0, "rental_uris": {"android": "https://dc.lft.to/lastmile_qr_scan", "ios": "https://dc.lft.to/lastmile_qr_scan"}, "fusion_lon": 0.0}, {"lat": 38.90039516666667, "is_disabled": 0, "type": "electric_scooter", "lon": -77.00195616666667, "bike_id": "25a9621a9d08d88dda52472d4e044d50", "fusion_lat": 0.0, "name": "25a9621a9d08d88dda52472d4e044d50", "is_reserved": 0, "rental_uris": {"android": "https://dc.lft.to/lastmile_qr_scan", "ios": "https://dc.lft.to/lastmile_qr_scan"}, "fusion_lon": 0.0}, {"lat": 38.9247645, "is_disabled": 0, "type": "electric_scooter", "lon": -77.0350115, "bike_id": "ab4f4d74bad294dbb6663de5a8a8eb24", "fusion_lat": 0.0, "name": "ab4f4d74bad294dbb6663de5a8a8eb24", "is_reserved": 0, "rental_uris": {"android": "https://dc.lft.to/lastmile_qr_scan", "ios": "https://dc.lft.to/lastmile_qr_scan"}, "fusion_lon": 0.0}, {"lat": 38.813459333333334, "is_disabled": 0, "type": "electric_bike", "lon": -77.04921183333333, "bike_id": "207fea0899a8a8e2fa6cdcc8e28952f8", "fusion_lat": 0.0, "name": "207fea0899a8a8e2fa6cdcc8e28952f8", "is_reserved": 0, "rental_uris": {"android": "https://dc.lft.to/lastmile_qr_scan", "ios": "https://dc.lft.to/lastmile_qr_scan"}, "fusion_lon": 0.0}, {"lat": 38.93361766666666, "is_disabled": 0, "type": "electric_scooter", "lon": -77.05728383333333, "bike_id": "a7e151f5105c399f07075fc6edc183bc", "fusion_lat": 0.0, "name": "a7e151f5105c399f07075fc6edc183bc", "is_reserved": 0, "rental_uris": {"android": "https://dc.lft.to/lastmile_qr_scan", "ios": "https://dc.lft.to/lastmile_qr_scan"}, "fusion_lon": 0.0}, {"lat": 38.89856783333333, "is_disabled": 0, "type": "electric_scooter", "lon": -76.97662933333334, "bike_id": "83642e09e482ab42f4912a3afff09854", "fusion_lat": 0.0, "name": "83642e09e482ab42f4912a3afff09854", "is_reserved": 0, "rental_uris": {"android": "https://dc.lft.to/lastmile_qr_scan", "ios": "https://dc.lft.to/lastmile_qr_scan"}, "fusion_lon": 0.0}, {"lat": 38.88741233333333, "is_disabled": 0, "type": "electric_scooter", "lon": -77.02208983333334, "bike_id": "e4fc487be76dd8519a53a4de4bc20ce7", "fusion_lat": 0.0, "name": "e4fc487be76dd8519a53a4de4bc20ce7", "is_reserved": 0, "rental_uris": {"android": "https://dc.lft.to/lastmile_qr_scan", "ios": "https://dc.lft.to/lastmile_qr_scan"}, "fusion_lon": 0.0}, {"lat": 38.86834483333333, "is_disabled": 0, "type": "electric_scooter", "lon": -76.97743166666666, "bike_id": "8b787f6a1bb69f1c630ecb9be4dfc813", "fusion_lat": 0.0, "name": "8b787f6a1bb69f1c630ecb9be4dfc813", "is_reserved": 0, "rental_uris": {"android": "https://dc.lft.to/lastmile_qr_scan", "ios": "https://dc.lft.to/lastmile_qr_scan"}, "fusion_lon": 0.0}, {"lat": 38.892216833333336, "is_disabled": 0, "type": "electric_scooter", "lon": -77.04368416666667, "bike_id": "a0185cd9d505ed6a37c0fbc2c4d228cb", "fusion_lat": 0.0, "name": "a0185cd9d505ed6a37c0fbc2c4d228cb", "is_reserved": 0, "rental_uris": {"android": "https://dc.lft.to/lastmile_qr_scan", "ios": "https://dc.lft.to/lastmile_qr_scan"}, "fusion_lon": 0.0}, {"lat": 38.916199, "is_disabled": 0, "type": "electric_scooter", "lon": -77.04868083333334, "bike_id": "255bbb2e7ed6e7799e59da2782f739f9", "fusion_lat": 0.0, "name": "255bbb2e7ed6e7799e59da2782f739f9", "is_reserved": 0, "rental_uris": {"android": "https://dc.lft.to/lastmile_qr_scan", "ios": "https://dc.lft.to/lastmile_qr_scan"}, "fusion_lon": 0.0}, {"lat": 38.9005105, "is_disabled": 0, "type": "electric_scooter", "lon": -77.0506935, "bike_id": "950a31a336bd7fe92a007cd491c1a022", "fusion_lat": 0.0, "name": "950a31a336bd7fe92a007cd491c1a022", "is_reserved": 0, "rental_uris": {"android": "https://dc.lft.to/lastmile_qr_scan", "ios": "https://dc.lft.to/lastmile_qr_scan"}, "fusion_lon": 0.0}, {"lat": 38.9063505, "is_disabled": 0, "type": "electric_scooter", "lon": -77.025024, "bike_id": "299d492810d8441d9fbd1794f0733878", "fusion_lat": 0.0, "name": "299d492810d8441d9fbd1794f0733878", "is_reserved": 0, "rental_uris": {"android": "https://dc.lft.to/lastmile_qr_scan", "ios": "https://dc.lft.to/lastmile_qr_scan"}, "fusion_lon": 0.0}, {"lat": 38.92466866666667, "is_disabled": 0, "type": "electric_scooter", "lon": -77.02715033333334, "bike_id": "989f7de50e38bcd22230f1838717102b", "fusion_lat": 0.0, "name": "989f7de50e38bcd22230f1838717102b", "is_reserved": 0, "rental_uris": {"android": "https://dc.lft.to/lastmile_qr_scan", "ios": "https://dc.lft.to/lastmile_qr_scan"}, "fusion_lon": 0.0}, {"lat": 38.91257433333333, "is_disabled": 0, "type": "electric_scooter", "lon": -77.03874633333334, "bike_id": "b83e230ae3949b2e099393b7914304fc", "fusion_lat": 0.0, "name": "b83e230ae3949b2e099393b7914304fc", "is_reserved": 0, "rental_uris": {"android": "https://dc.lft.to/lastmile_qr_scan", "ios": "https://dc.lft.to/lastmile_qr_scan"}, "fusion_lon": 0.0}, {"lat": 38.9284725, "is_disabled": 0, "type": "electric_scooter", "lon": -77.0332405, "bike_id": "11538ac3b7cdc194567202e6ac772077", "fusion_lat": 0.0, "name": "11538ac3b7cdc194567202e6ac772077", "is_reserved": 0, "rental_uris": {"android": "https://dc.lft.to/lastmile_qr_scan", "ios": "https://dc.lft.to/lastmile_qr_scan"}, "fusion_lon": 0.0}, {"lat": 38.916183333333336, "is_disabled": 0, "type": "electric_scooter", "lon": -77.03290483333333, "bike_id": "83beaee619b2838551e0aa2c7681bdb4", "fusion_lat": 0.0, "name": "83beaee619b2838551e0aa2c7681bdb4", "is_reserved": 0, "rental_uris": {"android": "https://dc.lft.to/lastmile_qr_scan", "ios": "https://dc.lft.to/lastmile_qr_scan"}, "fusion_lon": 0.0}, {"lat": 38.9142325, "is_disabled": 0, "type": "electric_scooter", "lon": -77.0464935, "bike_id": "f37f30bf04128f59441816e337fd9ea9", "fusion_lat": 0.0, "name": "f37f30bf04128f59441816e337fd9ea9", "is_reserved": 0, "rental_uris": {"android": "https://dc.lft.to/lastmile_qr_scan", "ios": "https://dc.lft.to/lastmile_qr_scan"}, "fusion_lon": 0.0}, {"lat": 38.91612966666667, "is_disabled": 0, "type": "electric_bike", "lon": -77.00295433333334, "bike_id": "5b29449b5a83494f826a0c3a373d065a", "fusion_lat": 0.0, "name": "5b29449b5a83494f826a0c3a373d065a", "is_reserved": 0, "rental_uris": {"android": "https://dc.lft.to/lastmile_qr_scan", "ios": "https://dc.lft.to/lastmile_qr_scan"}, "fusion_lon": 0.0}, {"lat": 38.87143066666667, "is_disabled": 0, "type": "electric_bike", "lon": -76.93708683333334, "bike_id": "c2b92fcad8ab193cf2d68f4031dc7a8d", "fusion_lat": 0.0, "name": "c2b92fcad8ab193cf2d68f4031dc7a8d", "is_reserved": 0, "rental_uris": {"android": "https://dc.lft.to/lastmile_qr_scan", "ios": "https://dc.lft.to/lastmile_qr_scan"}, "fusion_lon": 0.0}, {"lat": 38.89223483333333, "is_disabled": 0, "type": "electric_scooter", "lon": -77.03166383333334, "bike_id": "30f5e2aef26a8dda97d69b02dbe62bcc", "fusion_lat": 0.0, "name": "30f5e2aef26a8dda97d69b02dbe62bcc", "is_reserved": 0, "rental_uris": {"android": "https://dc.lft.to/lastmile_qr_scan", "ios": "https://dc.lft.to/lastmile_qr_scan"}, "fusion_lon": 0.0}, {"lat": 38.92286683333333, "is_disabled": 0, "type": "electric_scooter", "lon": -77.0296915, "bike_id": "59638b5d7054c6929bdfca0af155b71e", "fusion_lat": 0.0, "name": "59638b5d7054c6929bdfca0af155b71e", "is_reserved": 0, "rental_uris": {"android": "https://dc.lft.to/lastmile_qr_scan", "ios": "https://dc.lft.to/lastmile_qr_scan"}, "fusion_lon": 0.0}, {"lat": 38.9548695, "is_disabled": 0, "type": "electric_scooter", "lon": -77.06559716666666, "bike_id": "c130c7b661faaf41630fd8c1cc1e62e3", "fusion_lat": 0.0, "name": "c130c7b661faaf41630fd8c1cc1e62e3", "is_reserved": 0, "rental_uris": {"android": "https://dc.lft.to/lastmile_qr_scan", "ios": "https://dc.lft.to/lastmile_qr_scan"}, "fusion_lon": 0.0}, {"lat": 38.89250666666667, "is_disabled": 0, "type": "electric_scooter", "lon": -77.03960666666667, "bike_id": "88bbbba06b1e740b92d083a3d4af283d", "fusion_lat": 0.0, "name": "88bbbba06b1e740b92d083a3d4af283d", "is_reserved": 0, "rental_uris": {"android": "https://dc.lft.to/lastmile_qr_scan", "ios": "https://dc.lft.to/lastmile_qr_scan"}, "fusion_lon": 0.0}, {"lat": 38.929637, "is_disabled": 0, "type": "electric_scooter", "lon": -77.03041683333333, "bike_id": "b6135596da8adcf91cee1cb77d140f77", "fusion_lat": 0.0, "name": "b6135596da8adcf91cee1cb77d140f77", "is_reserved": 0, "rental_uris": {"android": "https://dc.lft.to/lastmile_qr_scan", "ios": "https://dc.lft.to/lastmile_qr_scan"}, "fusion_lon": 0.0}, {"lat": 38.90074516666667, "is_disabled": 0, "type": "electric_scooter", "lon": -77.05015516666667, "bike_id": "93b43a77a851c864b87bdf75e8c6da48", "fusion_lat": 0.0, "name": "93b43a77a851c864b87bdf75e8c6da48", "is_reserved": 0, "rental_uris": {"android": "https://dc.lft.to/lastmile_qr_scan", "ios": "https://dc.lft.to/lastmile_qr_scan"}, "fusion_lon": 0.0}, {"lat": 38.91858033333333, "is_disabled": 0, "type": "electric_scooter", "lon": -77.03172, "bike_id": "786490cf410b293be1b7d9d2a0d784f5", "fusion_lat": 0.0, "name": "786490cf410b293be1b7d9d2a0d784f5", "is_reserved": 0, "rental_uris": {"android": "https://dc.lft.to/lastmile_qr_scan", "ios": "https://dc.lft.to/lastmile_qr_scan"}, "fusion_lon": 0.0}, {"lat": 38.93674083333333, "is_disabled": 0, "type": "electric_scooter", "lon": -77.02391983333334, "bike_id": "47c4c6aa7823844e97ffaf4e3341450a", "fusion_lat": 0.0, "name": "47c4c6aa7823844e97ffaf4e3341450a", "is_reserved": 0, "rental_uris": {"android": "https://dc.lft.to/lastmile_qr_scan", "ios": "https://dc.lft.to/lastmile_qr_scan"}, "fusion_lon": 0.0}, {"lat": 38.93083883333333, "is_disabled": 0, "type": "electric_scooter", "lon": -77.03745583333334, "bike_id": "d11b1476672ff9c4f0f295c2af8f866e", "fusion_lat": 0.0, "name": "d11b1476672ff9c4f0f295c2af8f866e", "is_reserved": 0, "rental_uris": {"android": "https://dc.lft.to/lastmile_qr_scan", "ios": "https://dc.lft.to/lastmile_qr_scan"}, "fusion_lon": 0.0}, {"lat": 38.90787, "is_disabled": 0, "type": "electric_scooter", "lon": -77.04484466666666, "bike_id": "0d1733a71019842edb8c005f1097e800", "fusion_lat": 0.0, "name": "0d1733a71019842edb8c005f1097e800", "is_reserved": 0, "rental_uris": {"android": "https://dc.lft.to/lastmile_qr_scan", "ios": "https://dc.lft.to/lastmile_qr_scan"}, "fusion_lon": 0.0}, {"lat": 38.89220533333334, "is_disabled": 0, "type": "electric_scooter", "lon": -77.02320133333333, "bike_id": "3225ee6b98aadf4807567da21a6b6d4e", "fusion_lat": 0.0, "name": "3225ee6b98aadf4807567da21a6b6d4e", "is_reserved": 0, "rental_uris": {"android": "https://dc.lft.to/lastmile_qr_scan", "ios": "https://dc.lft.to/lastmile_qr_scan"}, "fusion_lon": 0.0}, {"lat": 38.908684, "is_disabled": 0, "type": "electric_scooter", "lon": -77.04349383333333, "bike_id": "efb7627d340ce5b08a966ec8e41fd32a", "fusion_lat": 0.0, "name": "efb7627d340ce5b08a966ec8e41fd32a", "is_reserved": 0, "rental_uris": {"android": "https://dc.lft.to/lastmile_qr_scan", "ios": "https://dc.lft.to/lastmile_qr_scan"}, "fusion_lon": 0.0}, {"lat": 38.927435833333334, "is_disabled": 0, "type": "electric_scooter", "lon": -77.03417033333334, "bike_id": "d3a42eb9f5fc782dcc3aa1856476de91", "fusion_lat": 0.0, "name": "d3a42eb9f5fc782dcc3aa1856476de91", "is_reserved": 0, "rental_uris": {"android": "https://dc.lft.to/lastmile_qr_scan", "ios": "https://dc.lft.to/lastmile_qr_scan"}, "fusion_lon": 0.0}, {"lat": 38.91104716666667, "is_disabled": 0, "type": "electric_scooter", "lon": -77.044739, "bike_id": "2365991c53df769f3b7627decfe3c9fd", "fusion_lat": 0.0, "name": "2365991c53df769f3b7627decfe3c9fd", "is_reserved": 0, "rental_uris": {"android": "https://dc.lft.to/lastmile_qr_scan", "ios": "https://dc.lft.to/lastmile_qr_scan"}, "fusion_lon": 0.0}, {"lat": 38.91192266666667, "is_disabled": 0, "type": "electric_scooter", "lon": -77.034246, "bike_id": "40b5bed8a86808f0002e606eb096d8ed", "fusion_lat": 0.0, "name": "40b5bed8a86808f0002e606eb096d8ed", "is_reserved": 0, "rental_uris": {"android": "https://dc.lft.to/lastmile_qr_scan", "ios": "https://dc.lft.to/lastmile_qr_scan"}, "fusion_lon": 0.0}, {"lat": 38.92540866666667, "is_disabled": 0, "type": "electric_scooter", "lon": -77.03450416666666, "bike_id": "ea06e5c628bac16e596f8dbb72360720", "fusion_lat": 0.0, "name": "ea06e5c628bac16e596f8dbb72360720", "is_reserved": 0, "rental_uris": {"android": "https://dc.lft.to/lastmile_qr_scan", "ios": "https://dc.lft.to/lastmile_qr_scan"}, "fusion_lon": 0.0}, {"lat": 38.92235433333333, "is_disabled": 0, "type": "electric_scooter", "lon": -77.0425315, "bike_id": "31068c6329aaa277a25ac09a2b24ec79", "fusion_lat": 0.0, "name": "31068c6329aaa277a25ac09a2b24ec79", "is_reserved": 0, "rental_uris": {"android": "https://dc.lft.to/lastmile_qr_scan", "ios": "https://dc.lft.to/lastmile_qr_scan"}, "fusion_lon": 0.0}, {"lat": 38.866620166666664, "is_disabled": 0, "type": "electric_scooter", "lon": -77.01040083333334, "bike_id": "2fadb564c23cbee7fe7af8ac06ee6666", "fusion_lat": 0.0, "name": "2fadb564c23cbee7fe7af8ac06ee6666", "is_reserved": 0, "rental_uris": {"android": "https://dc.lft.to/lastmile_qr_scan", "ios": "https://dc.lft.to/lastmile_qr_scan"}, "fusion_lon": 0.0}, {"lat": 38.91819133333333, "is_disabled": 0, "type": "electric_scooter", "lon": -77.025272, "bike_id": "20adb9e6851024362a6dba2454e7f428", "fusion_lat": 0.0, "name": "20adb9e6851024362a6dba2454e7f428", "is_reserved": 0, "rental_uris": {"android": "https://dc.lft.to/lastmile_qr_scan", "ios": "https://dc.lft.to/lastmile_qr_scan"}, "fusion_lon": 0.0}, {"lat": 38.9171065, "is_disabled": 0, "type": "electric_scooter", "lon": -77.03736133333334, "bike_id": "8d7df1a3b6a1a1d5f02e5d8f2ab6002f", "fusion_lat": 0.0, "name": "8d7df1a3b6a1a1d5f02e5d8f2ab6002f", "is_reserved": 0, "rental_uris": {"android": "https://dc.lft.to/lastmile_qr_scan", "ios": "https://dc.lft.to/lastmile_qr_scan"}, "fusion_lon": 0.0}, {"lat": 38.845447, "is_disabled": 0, "type": "electric_bike", "lon": -76.99061683333333, "bike_id": "6494fad693c364280c065bad1b4e997e", "fusion_lat": 0.0, "name": "6494fad693c364280c065bad1b4e997e", "is_reserved": 0, "rental_uris": {"android": "https://dc.lft.to/lastmile_qr_scan", "ios": "https://dc.lft.to/lastmile_qr_scan"}, "fusion_lon": 0.0}, {"lat": 38.80502166666667, "is_disabled": 0, "type": "electric_bike", "lon": -77.041387, "bike_id": "6c95ba393998fbb6551c798ee7014d7d", "fusion_lat": 0.0, "name": "6c95ba393998fbb6551c798ee7014d7d", "is_reserved": 0, "rental_uris": {"android": "https://dc.lft.to/lastmile_qr_scan", "ios": "https://dc.lft.to/lastmile_qr_scan"}, "fusion_lon": 0.0}, {"lat": 38.917705166666664, "is_disabled": 0, "type": "electric_scooter", "lon": -77.03191366666667, "bike_id": "e88a53b34433854f50423c67c4774d74", "fusion_lat": 0.0, "name": "e88a53b34433854f50423c67c4774d74", "is_reserved": 0, "rental_uris": {"android": "https://dc.lft.to/lastmile_qr_scan", "ios": "https://dc.lft.to/lastmile_qr_scan"}, "fusion_lon": 0.0}, {"lat": 38.91111816666667, "is_disabled": 0, "type": "electric_scooter", "lon": -76.99710683333333, "bike_id": "0bb9f4236c42e41f8b32a781adffd424", "fusion_lat": 0.0, "name": "0bb9f4236c42e41f8b32a781adffd424", "is_reserved": 0, "rental_uris": {"android": "https://dc.lft.to/lastmile_qr_scan", "ios": "https://dc.lft.to/lastmile_qr_scan"}, "fusion_lon": 0.0}, {"lat": 38.9112235, "is_disabled": 0, "type": "electric_scooter", "lon": -77.02193333333334, "bike_id": "1b0afbc75105cc7ca630900a3e136c80", "fusion_lat": 0.0, "name": "1b0afbc75105cc7ca630900a3e136c80", "is_reserved": 0, "rental_uris": {"android": "https://dc.lft.to/lastmile_qr_scan", "ios": "https://dc.lft.to/lastmile_qr_scan"}, "fusion_lon": 0.0}, {"lat": 38.906128833333334, "is_disabled": 0, "type": "electric_scooter", "lon": -77.025995, "bike_id": "5a7eef37a9f6ae0fd8e4e0fd8fd6bd5a", "fusion_lat": 0.0, "name": "5a7eef37a9f6ae0fd8e4e0fd8fd6bd5a", "is_reserved": 0, "rental_uris": {"android": "https://dc.lft.to/lastmile_qr_scan", "ios": "https://dc.lft.to/lastmile_qr_scan"}, "fusion_lon": 0.0}, {"lat": 38.937458666666664, "is_disabled": 0, "type": "electric_scooter", "lon": -77.034526, "bike_id": "abc3b542032809b0c55ac2fd99a2bfac", "fusion_lat": 0.0, "name": "abc3b542032809b0c55ac2fd99a2bfac", "is_reserved": 0, "rental_uris": {"android": "https://dc.lft.to/lastmile_qr_scan", "ios": "https://dc.lft.to/lastmile_qr_scan"}, "fusion_lon": 0.0}, {"lat": 38.8975915, "is_disabled": 0, "type": "electric_scooter", "lon": -77.05498916666667, "bike_id": "dada2a28fbf9507e08121d05019639e1", "fusion_lat": 0.0, "name": "dada2a28fbf9507e08121d05019639e1", "is_reserved": 0, "rental_uris": {"android": "https://dc.lft.to/lastmile_qr_scan", "ios": "https://dc.lft.to/lastmile_qr_scan"}, "fusion_lon": 0.0}, {"lat": 38.972319666666664, "is_disabled": 0, "type": "electric_bike", "lon": -76.9933995, "bike_id": "ad56f31013038469fa3321f8317d63b2", "fusion_lat": 0.0, "name": "ad56f31013038469fa3321f8317d63b2", "is_reserved": 0, "rental_uris": {"android": "https://dc.lft.to/lastmile_qr_scan", "ios": "https://dc.lft.to/lastmile_qr_scan"}, "fusion_lon": 0.0}, {"lat": 38.9073175, "is_disabled": 0, "type": "electric_scooter", "lon": -77.029695, "bike_id": "7fd0f01de61527a50366c04456a65aa2", "fusion_lat": 0.0, "name": "7fd0f01de61527a50366c04456a65aa2", "is_reserved": 0, "rental_uris": {"android": "https://dc.lft.to/lastmile_qr_scan", "ios": "https://dc.lft.to/lastmile_qr_scan"}, "fusion_lon": 0.0}, {"lat": 38.933164, "is_disabled": 0, "type": "electric_scooter", "lon": -77.045312, "bike_id": "8a4e52340cb3c40f36ba37b45fe43f38", "fusion_lat": 0.0, "name": "8a4e52340cb3c40f36ba37b45fe43f38", "is_reserved": 0, "rental_uris": {"android": "https://dc.lft.to/lastmile_qr_scan", "ios": "https://dc.lft.to/lastmile_qr_scan"}, "fusion_lon": 0.0}, {"lat": 38.923395, "is_disabled": 0, "type": "electric_scooter", "lon": -77.05034366666666, "bike_id": "ec1055ec1596a2ed4485dd0de0907d5c", "fusion_lat": 0.0, "name": "ec1055ec1596a2ed4485dd0de0907d5c", "is_reserved": 0, "rental_uris": {"android": "https://dc.lft.to/lastmile_qr_scan", "ios": "https://dc.lft.to/lastmile_qr_scan"}, "fusion_lon": 0.0}, {"lat": 38.92850983333334, "is_disabled": 0, "type": "electric_scooter", "lon": -77.0333395, "bike_id": "0e0fd9d70aa7499a22f4e30b43f5bd14", "fusion_lat": 0.0, "name": "0e0fd9d70aa7499a22f4e30b43f5bd14", "is_reserved": 0, "rental_uris": {"android": "https://dc.lft.to/lastmile_qr_scan", "ios": "https://dc.lft.to/lastmile_qr_scan"}, "fusion_lon": 0.0}, {"lat": 38.89007433333333, "is_disabled": 0, "type": "electric_scooter", "lon": -76.93748466666666, "bike_id": "40af93c58473974989e21b0f2510200e", "fusion_lat": 0.0, "name": "40af93c58473974989e21b0f2510200e", "is_reserved": 0, "rental_uris": {"android": "https://dc.lft.to/lastmile_qr_scan", "ios": "https://dc.lft.to/lastmile_qr_scan"}, "fusion_lon": 0.0}, {"lat": 38.908393833333335, "is_disabled": 0, "type": "electric_scooter", "lon": -76.9969695, "bike_id": "3b9716be0d81f3437c193b7fb8dcdda5", "fusion_lat": 0.0, "name": "3b9716be0d81f3437c193b7fb8dcdda5", "is_reserved": 0, "rental_uris": {"android": "https://dc.lft.to/lastmile_qr_scan", "ios": "https://dc.lft.to/lastmile_qr_scan"}, "fusion_lon": 0.0}, {"lat": 38.922365, "is_disabled": 0, "type": "electric_scooter", "lon": -77.0457665, "bike_id": "c6a3f55536ab7a7e515a4aa2e4b99f4b", "fusion_lat": 0.0, "name": "c6a3f55536ab7a7e515a4aa2e4b99f4b", "is_reserved": 0, "rental_uris": {"android": "https://dc.lft.to/lastmile_qr_scan", "ios": "https://dc.lft.to/lastmile_qr_scan"}, "fusion_lon": 0.0}, {"lat": 38.9052115, "is_disabled": 0, "type": "electric_scooter", "lon": -77.06451116666666, "bike_id": "bb85325df1617b64b5e412aee4dd2006", "fusion_lat": 0.0, "name": "bb85325df1617b64b5e412aee4dd2006", "is_reserved": 0, "rental_uris": {"android": "https://dc.lft.to/lastmile_qr_scan", "ios": "https://dc.lft.to/lastmile_qr_scan"}, "fusion_lon": 0.0}, {"lat": 38.92196633333333, "is_disabled": 0, "type": "electric_scooter", "lon": -77.0377025, "bike_id": "c3b7936c7f7b0fd50727620dbf5032d0", "fusion_lat": 0.0, "name": "c3b7936c7f7b0fd50727620dbf5032d0", "is_reserved": 0, "rental_uris": {"android": "https://dc.lft.to/lastmile_qr_scan", "ios": "https://dc.lft.to/lastmile_qr_scan"}, "fusion_lon": 0.0}, {"lat": 38.89391366666667, "is_disabled": 0, "type": "electric_scooter", "lon": -76.949993, "bike_id": "cf3dd2f66450b85a425aa3161157c88b", "fusion_lat": 0.0, "name": "cf3dd2f66450b85a425aa3161157c88b", "is_reserved": 0, "rental_uris": {"android": "https://dc.lft.to/lastmile_qr_scan", "ios": "https://dc.lft.to/lastmile_qr_scan"}, "fusion_lon": 0.0}, {"lat": 38.89988866666667, "is_disabled": 0, "type": "electric_scooter", "lon": -77.02155233333333, "bike_id": "ae9fbdd6a6a3f2e405c9833da7899708", "fusion_lat": 0.0, "name": "ae9fbdd6a6a3f2e405c9833da7899708", "is_reserved": 0, "rental_uris": {"android": "https://dc.lft.to/lastmile_qr_scan", "ios": "https://dc.lft.to/lastmile_qr_scan"}, "fusion_lon": 0.0}, {"lat": 38.86699766666667, "is_disabled": 0, "type": "electric_scooter", "lon": -76.98714283333334, "bike_id": "3f796e06e1c87c4d785bf17eafab62ae", "fusion_lat": 0.0, "name": "3f796e06e1c87c4d785bf17eafab62ae", "is_reserved": 0, "rental_uris": {"android": "https://dc.lft.to/lastmile_qr_scan", "ios": "https://dc.lft.to/lastmile_qr_scan"}, "fusion_lon": 0.0}, {"lat": 38.92868983333334, "is_disabled": 0, "type": "electric_scooter", "lon": -76.9902935, "bike_id": "8af019f3c85be80ff93dfecddd8181a0", "fusion_lat": 0.0, "name": "8af019f3c85be80ff93dfecddd8181a0", "is_reserved": 0, "rental_uris": {"android": "https://dc.lft.to/lastmile_qr_scan", "ios": "https://dc.lft.to/lastmile_qr_scan"}, "fusion_lon": 0.0}, {"lat": 38.91553533333333, "is_disabled": 0, "type": "electric_scooter", "lon": -77.041799, "bike_id": "7b14437106d3d02cbc0be425e56ad6c1", "fusion_lat": 0.0, "name": "7b14437106d3d02cbc0be425e56ad6c1", "is_reserved": 0, "rental_uris": {"android": "https://dc.lft.to/lastmile_qr_scan", "ios": "https://dc.lft.to/lastmile_qr_scan"}, "fusion_lon": 0.0}, {"lat": 38.916849666666664, "is_disabled": 0, "type": "electric_scooter", "lon": -77.02953333333333, "bike_id": "aa89eacf7c7141a1d696bf28a73da87e", "fusion_lat": 0.0, "name": "aa89eacf7c7141a1d696bf28a73da87e", "is_reserved": 0, "rental_uris": {"android": "https://dc.lft.to/lastmile_qr_scan", "ios": "https://dc.lft.to/lastmile_qr_scan"}, "fusion_lon": 0.0}, {"lat": 38.8844775, "is_disabled": 0, "type": "electric_scooter", "lon": -77.00054083333333, "bike_id": "cf55a9c85f5591476669e76e1222c9fe", "fusion_lat": 0.0, "name": "cf55a9c85f5591476669e76e1222c9fe", "is_reserved": 0, "rental_uris": {"android": "https://dc.lft.to/lastmile_qr_scan", "ios": "https://dc.lft.to/lastmile_qr_scan"}, "fusion_lon": 0.0}, {"lat": 38.905451666666664, "is_disabled": 0, "type": "electric_scooter", "lon": -77.04181233333334, "bike_id": "f2cba247e157dd67abe3cebb23365766", "fusion_lat": 0.0, "name": "f2cba247e157dd67abe3cebb23365766", "is_reserved": 0, "rental_uris": {"android": "https://dc.lft.to/lastmile_qr_scan", "ios": "https://dc.lft.to/lastmile_qr_scan"}, "fusion_lon": 0.0}, {"lat": 38.9246115, "is_disabled": 0, "type": "electric_bike", "lon": -77.208384, "bike_id": "3b1d84b591c7da9dc1ffdbb6ace8e3d7", "fusion_lat": 0.0, "name": "3b1d84b591c7da9dc1ffdbb6ace8e3d7", "is_reserved": 0, "rental_uris": {"android": "https://dc.lft.to/lastmile_qr_scan", "ios": "https://dc.lft.to/lastmile_qr_scan"}, "fusion_lon": 0.0}, {"lat": 38.916965, "is_disabled": 0, "type": "electric_scooter", "lon": -77.04279233333334, "bike_id": "0346e9ad49d55d638cf8cf56c827fb55", "fusion_lat": 0.0, "name": "0346e9ad49d55d638cf8cf56c827fb55", "is_reserved": 0, "rental_uris": {"android": "https://dc.lft.to/lastmile_qr_scan", "ios": "https://dc.lft.to/lastmile_qr_scan"}, "fusion_lon": 0.0}, {"lat": 38.935998, "is_disabled": 0, "type": "electric_scooter", "lon": -77.03658766666666, "bike_id": "30ef6818185b4c149275ee9cd02c3bee", "fusion_lat": 0.0, "name": "30ef6818185b4c149275ee9cd02c3bee", "is_reserved": 0, "rental_uris": {"android": "https://dc.lft.to/lastmile_qr_scan", "ios": "https://dc.lft.to/lastmile_qr_scan"}, "fusion_lon": 0.0}, {"lat": 38.90687066666667, "is_disabled": 0, "type": "electric_scooter", "lon": -77.01014633333334, "bike_id": "a1c741d2b73c602c852be18b50ca0988", "fusion_lat": 0.0, "name": "a1c741d2b73c602c852be18b50ca0988", "is_reserved": 0, "rental_uris": {"android": "https://dc.lft.to/lastmile_qr_scan", "ios": "https://dc.lft.to/lastmile_qr_scan"}, "fusion_lon": 0.0}, {"lat": 38.91939633333333, "is_disabled": 0, "type": "electric_scooter", "lon": -77.03210283333334, "bike_id": "1d426d2e2851c6994bd488d38d700cd0", "fusion_lat": 0.0, "name": "1d426d2e2851c6994bd488d38d700cd0", "is_reserved": 0, "rental_uris": {"android": "https://dc.lft.to/lastmile_qr_scan", "ios": "https://dc.lft.to/lastmile_qr_scan"}, "fusion_lon": 0.0}, {"lat": 38.91991816666667, "is_disabled": 0, "type": "electric_scooter", "lon": -77.03963433333334, "bike_id": "e659e653d7e988789a44b0ae3bd3e441", "fusion_lat": 0.0, "name": "e659e653d7e988789a44b0ae3bd3e441", "is_reserved": 0, "rental_uris": {"android": "https://dc.lft.to/lastmile_qr_scan", "ios": "https://dc.lft.to/lastmile_qr_scan"}, "fusion_lon": 0.0}, {"lat": 38.892202, "is_disabled": 0, "type": "electric_scooter", "lon": -77.0231665, "bike_id": "3bdd2e66f76ebd60f17a00ac7526608c", "fusion_lat": 0.0, "name": "3bdd2e66f76ebd60f17a00ac7526608c", "is_reserved": 0, "rental_uris": {"android": "https://dc.lft.to/lastmile_qr_scan", "ios": "https://dc.lft.to/lastmile_qr_scan"}, "fusion_lon": 0.0},