{"data": {"bikes": [{"bike_id": "9e85f63fa47e0f3d23eb443b609b5a8a", "lat": 38.887546666666665, "is_disabled": 0, "lon": -76.99230133333333, "fusion_lon": 0.0, "is_reserved": 0, "fusion_lat": 0.0, "rental_uris": {"android": "https://dc.lft.to/lastmile_qr_scan", "ios": "https://dc.lft.to/lastmile_qr_scan"}, "type": "electric_scooter", "name": "9e85f63fa47e0f3d23eb443b609b5a8a"}, {"bike_id": "2ec8f9b1e915cdb618437748dddd9367", "lat": 38.90529183333334, "is_disabled": 0, "lon": -77.05726866666667, "fusion_lon": 0.0, "is_reserved": 0, "fusion_lat": 0.0, "rental_uris": {"android": "https://dc.lft.to/lastmile_qr_scan", "ios": "https://dc.lft.to/lastmile_qr_scan"}, "type": "electric_scooter", "name": "2ec8f9b1e915cdb618437748dddd9367"}, {"bike_id": "97f251e71c20b1e2ce86c7e4acb7b63a", "lat": 38.897578, "is_disabled": 0, "lon": -76.98650483333333, "fusion_lon": 0.0, "is_reserved": 0, "fusion_lat": 0.0, "rental_uris": {"android": "https://dc.lft.to/lastmile_qr_scan", "ios": "https://dc.lft.to/lastmile_qr_scan"}, "type": "electric_scooter", "name": "97f251e71c20b1e2ce86c7e4acb7b63a"}, {"bike_id": "0ee675a5d6ca29786fc113a931a7002a", "lat": 38.896174, "is_disabled": 0, "lon": -76.907356, "fusion_lon": 0.0, "is_reserved": 0, "fusion_lat": 0.0, "rental_uris": {"android": "https://dc.lft.to/lastmile_qr_scan", "ios": "https://dc.lft.to/lastmile_qr_scan"}, "type": "electric_bike", "name": "0ee675a5d6ca29786fc113a931a7002a"}, {"bike_id": "8375720b9bb3a41a24a44d5d99220d2f", "lat": 38.881553, "is_disabled": 0, "lon": -77.02706733333333, "fusion_lon": 0.0, "is_reserved": 0, "fusion_lat": 0.0, "rental_uris": {"android": "https://dc.lft.to/lastmile_qr_scan", "ios": "https://dc.lft.to/lastmile_qr_scan"}, "type": "electric_scooter", "name": "8375720b9bb3a41a24a44d5d99220d2f"}, {"bike_id": "93d800b8004fe654218d8cfbaa96fa12", "lat": 38.898315333333336, "is_disabled": 0, "lon": -77.0286375, "fusion_lon": 0.0, "is_reserved": 0, "fusion_lat": 0.0, "rental_uris": {"android": "https://dc.lft.to/lastmile_qr_scan", "ios": "https://dc.lft.to/lastmile_qr_scan"}, "type": "electric_scooter", "name": "93d800b8004fe654218d8cfbaa96fa12"}, {"bike_id": "badedd5a2adfcf25a6a219429cf87309", "lat": 38.920128166666665, "is_disabled": 0, "lon": -77.02164816666667, "fusion_lon": 0.0, "is_reserved": 0, "fusion_lat": 0.0, "rental_uris": {"android": "https://dc.lft.to/lastmile_qr_scan", "ios": "https://dc.lft.to/lastmile_qr_scan"}, "type": "electric_scooter", "name": "badedd5a2adfcf25a6a219429cf87309"}, {"bike_id": "a14f3874631cbc825965abb5e5a54ea6", "lat": 38.89556416666667, "is_disabled": 0, "lon": -77.02169816666667, "fusion_lon": 0.0, "is_reserved": 0, "fusion_lat": 0.0, "rental_uris": {"android": "https://dc.lft.to/lastmile_qr_scan", "ios": "https://dc.lft.to/lastmile_qr_scan"}, "type": "electric_scooter", "name": "a14f3874631cbc825965abb5e5a54ea6"}, {"bike_id": "7d46257413256b0c823e015b37766e42", "lat": 38.91598966666667, "is_disabled": 0, "lon": -77.0167625, "fusion_lon": 0.0, "is_reserved": 0, "fusion_lat": 0.0, "rental_uris": {"android": "https://dc.lft.to/lastmile_qr_scan", "ios": "https://dc.lft.to/lastmile_qr_scan"}, "type": "electric_scooter", "name": "7d46257413256b0c823e015b37766e42"}, {"bike_id": "f0ca21c9024424db16d654c64f338ae1", "lat": 38.896516166666665, "is_disabled": 0, "lon": -77.0400855, "fusion_lon": 0.0, "is_reserved": 0, "fusion_lat": 0.0, "rental_uris": {"android": "https://dc.lft.to/lastmile_qr_scan", "ios": "https://dc.lft.to/lastmile_qr_scan"}, "type": "electric_scooter", "name": "f0ca21c9024424db16d654c64f338ae1"}, {"bike_id": "19dba51556d9fa9412db36003c06adc2", "lat": 38.8849345, "is_disabled": 0, "lon": -77.00711533333333, "fusion_lon": 0.0, "is_reserved": 0, "fusion_lat": 0.0, "rental_uris": {"android": "https://dc.lft.to/lastmile_qr_scan", "ios": "https://dc.lft.to/lastmile_qr_scan"}, "type": "electric_scooter", "name": "19dba51556d9fa9412db36003c06adc2"}, {"bike_id": "2185454bf933bb9dee99fe6c0569087b", "lat": 38.90968433333333, "is_disabled": 0, "lon": -77.03344383333334, "fusion_lon": 0.0, "is_reserved": 0, "fusion_lat": 0.0, "rental_uris": {"android": "https://dc.lft.to/lastmile_qr_scan", "ios": "https://dc.lft.to/lastmile_qr_scan"}, "type": "electric_scooter", "name": "2185454bf933bb9dee99fe6c0569087b"}, {"bike_id": "515960602dd43497ecd5cd932e840ea5", "lat": 38.926325166666665, "is_disabled": 0, "lon": -76.9962155, "fusion_lon": 0.0, "is_reserved": 0, "fusion_lat": 0.0, "rental_uris": {"android": "https://dc.lft.to/lastmile_qr_scan", "ios": "https://dc.lft.to/lastmile_qr_scan"}, "type": "electric_scooter", "name": "515960602dd43497ecd5cd932e840ea5"}, {"bike_id": "7cbe518bdc0b46f8d8a0d37e4f63aef7", "lat": 38.924564833333335, "is_disabled": 0, "lon": -77.0403395, "fusion_lon": 0.0, "is_reserved": 0, "fusion_lat": 0.0, "rental_uris": {"android": "https://dc.lft.to/lastmile_qr_scan", "ios": "https://dc.lft.to/lastmile_qr_scan"}, "type": "electric_scooter", "name": "7cbe518bdc0b46f8d8a0d37e4f63aef7"}, {"bike_id": "74dcb03d3822f382c63356ed6dad07cf", "lat": 38.906672666666665, "is_disabled": 0, "lon": -77.0269205, "fusion_lon": 0.0, "is_reserved": 0, "fusion_lat": 0.0, "rental_uris": {"android": "https://dc.lft.to/lastmile_qr_scan", "ios": "https://dc.lft.to/lastmile_qr_scan"}, "type": "electric_scooter", "name": "74dcb03d3822f382c63356ed6dad07cf"}, {"bike_id": "b8b27ea25c0c4626f51173a7c154cb76", "lat": 38.898442333333335, "is_disabled": 0, "lon": -77.0218595, "fusion_lon": 0.0, "is_reserved": 0, "fusion_lat": 0.0, "rental_uris": {"android": "https://dc.lft.to/lastmile_qr_scan", "ios": "https://dc.lft.to/lastmile_qr_scan"}, "type": "electric_scooter", "name": "b8b27ea25c0c4626f51173a7c154cb76"}, {"bike_id": "dfb818fb92aab208ea89a4351f84754f", "lat": 38.923495333333335, "is_disabled": 0, "lon": -77.0189805, "fusion_lon": 0.0, "is_reserved": 0, "fusion_lat": 0.0, "rental_uris": {"android": "https://dc.lft.to/lastmile_qr_scan", "ios": "https://dc.lft.to/lastmile_qr_scan"}, "type": "electric_scooter", "name": "dfb818fb92aab208ea89a4351f84754f"}, {"bike_id": "d0b6420c36dd6f871f422a5933b15dc3", "lat": 38.89202516666667, "is_disabled": 0, "lon": -76.95696916666667, "fusion_lon": 0.0, "is_reserved": 0, "fusion_lat": 0.0, "rental_uris": {"android": "https://dc.lft.to/lastmile_qr_scan", "ios": "https://dc.lft.to/lastmile_qr_scan"}, "type": "electric_scooter", "name": "d0b6420c36dd6f871f422a5933b15dc3"}, {"bike_id": "78434115a886a6dc1f5ce7b4f3f0e8c9", "lat": 38.874614333333334, "is_disabled": 0, "lon": -77.00574516666667, "fusion_lon": 0.0, "is_reserved": 0, "fusion_lat": 0.0, "rental_uris": {"android": "https://dc.lft.to/lastmile_qr_scan", "ios": "https://dc.lft.to/lastmile_qr_scan"}, "type": "electric_scooter", "name": "78434115a886a6dc1f5ce7b4f3f0e8c9"}, {"bike_id": "57db8b97a13b90a81017845355103305", "lat": 38.874468666666665, "is_disabled": 0, "lon": -77.00422066666667, "fusion_lon": 0.0, "is_reserved": 0, "fusion_lat": 0.0, "rental_uris": {"android": "https://dc.lft.to/lastmile_qr_scan", "ios": "https://dc.lft.to/lastmile_qr_scan"}, "type": "electric_scooter", "name": "57db8b97a13b90a81017845355103305"}, {"bike_id": "d80e492de7f3daec39eba0aa2cc848df", "lat": 38.9180315, "is_disabled": 0, "lon": -77.03180566666667, "fusion_lon": 0.0, "is_reserved": 0, "fusion_lat": 0.0, "rental_uris": {"android": "https://dc.lft.to/lastmile_qr_scan", "ios": "https://dc.lft.to/lastmile_qr_scan"}, "type": "electric_scooter", "name": "d80e492de7f3daec39eba0aa2cc848df"}, {"bike_id": "28706090c41ca1c0200f72ee7771488a", "lat": 38.90042866666667, "is_disabled": 0, "lon": -76.99757933333333, "fusion_lon": 0.0, "is_reserved": 0, "fusion_lat": 0.0, "rental_uris": {"android": "https://dc.lft.to/lastmile_qr_scan", "ios": "https://dc.lft.to/lastmile_qr_scan"}, "type": "electric_scooter", "name": "28706090c41ca1c0200f72ee7771488a"}, {"bike_id": "704b25b08c93badb8b4b2a25eee8e80a", "lat": 38.9046805, "is_disabled": 0, "lon": -77.0060125, "fusion_lon": 0.0, "is_reserved": 0, "fusion_lat": 0.0, "rental_uris": {"android": "https://dc.lft.to/lastmile_qr_scan", "ios": "https://dc.lft.to/lastmile_qr_scan"}, "type": "electric_scooter", "name": "704b25b08c93badb8b4b2a25eee8e80a"}, {"bike_id": "6d2d61fe78b8606e22ef000bc807f8cb", "lat": 38.875718666666664, "is_disabled": 0, "lon": -77.00604816666667, "fusion_lon": 0.0, "is_reserved": 0, "fusion_lat": 0.0, "rental_uris": {"android": "https://dc.lft.to/lastmile_qr_scan", "ios": "https://dc.lft.to/lastmile_qr_scan"}, "type": "electric_scooter", "name": "6d2d61fe78b8606e22ef000bc807f8cb"}, {"bike_id": "94dffc0375f254c0bf0dd5eb94a3dfad", "lat": 38.93281433333333, "is_disabled": 0, "lon": -77.03265933333333, "fusion_lon": 0.0, "is_reserved": 0, "fusion_lat": 0.0, "rental_uris": {"android": "https://dc.lft.to/lastmile_qr_scan", "ios": "https://dc.lft.to/lastmile_qr_scan"}, "type": "electric_scooter", "name": "94dffc0375f254c0bf0dd5eb94a3dfad"}, {"bike_id": "69e90c5022874854a8fefc315c6a4715", "lat": 38.90117016666667, "is_disabled": 0, "lon": -77.043583, "fusion_lon": 0.0, "is_reserved": 0, "fusion_lat": 0.0, "rental_uris": {"android": "https://dc.lft.to/lastmile_qr_scan", "ios": "https://dc.lft.to/lastmile_qr_scan"}, "type": "electric_scooter", "name": "69e90c5022874854a8fefc315c6a4715"}, {"bike_id": "6ce20cab0aece418fa403dff205c3251", "lat": 38.90375733333333, "is_disabled": 0, "lon": -77.01643516666667, "fusion_lon": 0.0, "is_reserved": 0, "fusion_lat": 0.0, "rental_uris": {"android": "https://dc.lft.to/lastmile_qr_scan", "ios": "https://dc.lft.to/lastmile_qr_scan"}, "type": "electric_scooter", "name": "6ce20cab0aece418fa403dff205c3251"}, {"bike_id": "b75b3e26aa05c10a2b99433545851fb6", "lat": 38.8996905, "is_disabled": 0, "lon": -76.986773, "fusion_lon": 0.0, "is_reserved": 0, "fusion_lat": 0.0, "rental_uris": {"android": "https://dc.lft.to/lastmile_qr_scan", "ios": "https://dc.lft.to/lastmile_qr_scan"}, "type": "electric_bike", "name": "b75b3e26aa05c10a2b99433545851fb6"}, {"bike_id": "4b1d8e79c02d766c4452a61791ef7df8", "lat": 38.91848983333333, "is_disabled": 0, "lon": -77.068869, "fusion_lon": 0.0, "is_reserved": 0, "fusion_lat": 0.0, "rental_uris": {"android": "https://dc.lft.to/lastmile_qr_scan", "ios": "https://dc.lft.to/lastmile_qr_scan"}, "type": "electric_scooter", "name": "4b1d8e79c02d766c4452a61791ef7df8"}, {"bike_id": "436b069a03a095a0f88a661fc1725c4a", "lat": 38.895339, "is_disabled": 0, "lon": -77.01609666666667, "fusion_lon": 0.0, "is_reserved": 0, "fusion_lat": 0.0, "rental_uris": {"android": "https://dc.lft.to/lastmile_qr_scan", "ios": "https://dc.lft.to/lastmile_qr_scan"}, "type": "electric_scooter", "name": "436b069a03a095a0f88a661fc1725c4a"}, {"bike_id": "2ea53959425d46c9fbc01e3ac1789fb9", "lat": 38.911101, "is_disabled": 0, "lon": -77.04539416666667, "fusion_lon": 0.0, "is_reserved": 0, "fusion_lat": 0.0, "rental_uris": {"android": "https://dc.lft.to/lastmile_qr_scan", "ios": "https://dc.lft.to/lastmile_qr_scan"}, "type": "electric_scooter", "name": "2ea53959425d46c9fbc01e3ac1789fb9"}, {"bike_id": "b55a422ab444510bf17fe47b06cfbcd6", "lat": 38.90563233333334, "is_disabled": 0, "lon": -77.01790633333333, "fusion_lon": 0.0, "is_reserved": 0, "fusion_lat": 0.0, "rental_uris": {"android": "https://dc.lft.to/lastmile_qr_scan", "ios": "https://dc.lft.to/lastmile_qr_scan"}, "type": "electric_scooter", "name": "b55a422ab444510bf17fe47b06cfbcd6"}, {"bike_id": "bca092040b81bcdacd9a3a6c138dd2c8", "lat": 38.898432666666665, "is_disabled": 0, "lon": -76.9425585, "fusion_lon": 0.0, "is_reserved": 0, "fusion_lat": 0.0, "rental_uris": {"android": "https://dc.lft.to/lastmile_qr_scan", "ios": "https://dc.lft.to/lastmile_qr_scan"}, "type": "electric_scooter", "name": "bca092040b81bcdacd9a3a6c138dd2c8"}, {"bike_id": "479fb6fbbc7766d3a6b915b1dc51338c", "lat": 38.921413333333334, "is_disabled": 0, "lon": -77.01800666666666, "fusion_lon": 0.0, "is_reserved": 0, "fusion_lat": 0.0, "rental_uris": {"android": "https://dc.lft.to/lastmile_qr_scan", "ios": "https://dc.lft.to/lastmile_qr_scan"}, "type": "electric_scooter", "name": "479fb6fbbc7766d3a6b915b1dc51338c"}, {"bike_id": "0e1dda97e40af95d34fa98b06cdaefb5", "lat": 38.9276985, "is_disabled": 0, "lon": -77.04068433333333, "fusion_lon": 0.0, "is_reserved": 0, "fusion_lat": 0.0, "rental_uris": {"android": "https://dc.lft.to/lastmile_qr_scan", "ios": "https://dc.lft.to/lastmile_qr_scan"}, "type": "electric_scooter", "name": "0e1dda97e40af95d34fa98b06cdaefb5"}, {"bike_id": "1618b393d54c61e37fbbb41e107414b6", "lat": 38.8986465, "is_disabled": 0, "lon": -77.00718283333333, "fusion_lon": 0.0, "is_reserved": 0, "fusion_lat": 0.0, "rental_uris": {"android": "https://dc.lft.to/lastmile_qr_scan", "ios": "https://dc.lft.to/lastmile_qr_scan"}, "type": "electric_scooter", "name": "1618b393d54c61e37fbbb41e107414b6"}, {"bike_id": "bcf5bc2946181102881bafa7fe9ed7e3", "lat": 38.887793333333335, "is_disabled": 0, "lon": -77.03321033333333, "fusion_lon": 0.0, "is_reserved": 0, "fusion_lat": 0.0, "rental_uris": {"android": "https://dc.lft.to/lastmile_qr_scan", "ios": "https://dc.lft.to/lastmile_qr_scan"}, "type": "electric_scooter", "name": "bcf5bc2946181102881bafa7fe9ed7e3"}, {"bike_id": "5fb84e0909be5c3a09316806b57f3a8a", "lat": 38.92319066666667, "is_disabled": 0, "lon": -77.04208116666666, "fusion_lon": 0.0, "is_reserved": 0, "fusion_lat": 0.0, "rental_uris": {"android": "https://dc.lft.to/lastmile_qr_scan", "ios": "https://dc.lft.to/lastmile_qr_scan"}, "type": "electric_scooter", "name": "5fb84e0909be5c3a09316806b57f3a8a"}, {"bike_id": "df0c056bd25c2107d06e3ecf8698e511", "lat": 38.89223033333333, "is_disabled": 0, "lon": -77.04197116666667, "fusion_lon": 0.0, "is_reserved": 0, "fusion_lat": 0.0, "rental_uris": {"android": "https://dc.lft.to/lastmile_qr_scan", "ios": "https://dc.lft.to/lastmile_qr_scan"}, "type": "electric_scooter", "name": "df0c056bd25c2107d06e3ecf8698e511"}, {"bike_id": "7ed3551da69679be2cdf0469c1b66a34", "lat": 38.881806833333336, "is_disabled": 0, "lon": -76.9925995, "fusion_lon": 0.0, "is_reserved": 0, "fusion_lat": 0.0, "rental_uris": {"android": "https://dc.lft.to/lastmile_qr_scan", "ios": "https://dc.lft.to/lastmile_qr_scan"}, "type": "electric_scooter", "name": "7ed3551da69679be2cdf0469c1b66a34"}, {"bike_id": "ba493719649024431a1278de9c100b3a", "lat": 38.93576383333333, "is_disabled": 0, "lon": -76.993041, "fusion_lon": 0.0, "is_reserved": 0, "fusion_lat": 0.0, "rental_uris": {"android": "https://dc.lft.to/lastmile_qr_scan", "ios": "https://dc.lft.to/lastmile_qr_scan"}, "type": "electric_scooter", "name": "ba493719649024431a1278de9c100b3a"}, {"bike_id": "3c5257b59970ccb8e4e76280a3d640af", "lat": 38.908105, "is_disabled": 0, "lon": -77.03941833333333, "fusion_lon": 0.0, "is_reserved": 0, "fusion_lat": 0.0, "rental_uris": {"android": "https://dc.lft.to/lastmile_qr_scan", "ios": "https://dc.lft.to/lastmile_qr_scan"}, "type": "electric_scooter", "name": "3c5257b59970ccb8e4e76280a3d640af"}, {"bike_id": "3e5ccaf401421fb1e45cc08c89b1192e", "lat": 38.89490116666666, "is_disabled": 0, "lon": -77.00291566666667, "fusion_lon": 0.0, "is_reserved": 0, "fusion_lat": 0.0, "rental_uris": {"android": "https://dc.lft.to/lastmile_qr_scan", "ios": "https://dc.lft.to/lastmile_qr_scan"}, "type": "electric_scooter", "name": "3e5ccaf401421fb1e45cc08c89b1192e"}, {"bike_id": "85f1a4c7af03a5ee58875e64e1b52017", "lat": 38.92338933333333, "is_disabled": 0, "lon": -77.03524016666667, "fusion_lon": 0.0, "is_reserved": 0, "fusion_lat": 0.0, "rental_uris": {"android": "https://dc.lft.to/lastmile_qr_scan", "ios": "https://dc.lft.to/lastmile_qr_scan"}, "type": "electric_scooter", "name": "85f1a4c7af03a5ee58875e64e1b52017"}, {"bike_id": "687a41b883a7a12fbfb5498c55565365", "lat": 38.9247455, "is_disabled": 0, "lon": -77.0221455, "fusion_lon": 0.0, "is_reserved": 0, "fusion_lat": 0.0, "rental_uris": {"android": "https://dc.lft.to/lastmile_qr_scan", "ios": "https://dc.lft.to/lastmile_qr_scan"}, "type": "electric_scooter", "name": "687a41b883a7a12fbfb5498c55565365"}, {"bike_id": "a7f0a818c35c6eff4f9d68c356d8d998", "lat": 38.8952885, "is_disabled": 0, "lon": -77.04654666666667, "fusion_lon": 0.0, "is_reserved": 0, "fusion_lat": 0.0, "rental_uris": {"android": "https://dc.lft.to/lastmile_qr_scan", "ios": "https://dc.lft.to/lastmile_qr_scan"}, "type": "electric_scooter", "name": "a7f0a818c35c6eff4f9d68c356d8d998"}, {"bike_id": "90e78c1f4f38943ca471e36cd9501ce4", "lat": 38.914174333333335, "is_disabled": 0, "lon": -77.0450915, "fusion_lon": 0.0, "is_reserved": 0, "fusion_lat": 0.0, "rental_uris": {"android": "https://dc.lft.to/lastmile_qr_scan", "ios": "https://dc.lft.to/lastmile_qr_scan"}, "type": "electric_scooter", "name": "90e78c1f4f38943ca471e36cd9501ce4"}, {"bike_id": "4a5488cb1a0a8dbf27034ecf344bcffc", "lat": 38.912724833333336, "is_disabled": 0, "lon": -77.02253416666667, "fusion_lon": 0.0, "is_reserved": 0, "fusion_lat": 0.0, "rental_uris": {"android": "https://dc.lft.to/lastmile_qr_scan", "ios": "https://dc.lft.to/lastmile_qr_scan"}, "type": "electric_scooter", "name": "4a5488cb1a0a8dbf27034ecf344bcffc"}, {"bike_id": "30e7223c861f0756f794f05353874da1", "lat": 38.87957633333333, "is_disabled": 0, "lon": -77.0049755, "fusion_lon": 0.0, "is_reserved": 0, "fusion_lat": 0.0, "rental_uris": {"android": "https://dc.lft.to/lastmile_qr_scan", "ios": "https://dc.lft.to/lastmile_qr_scan"}, "type": "electric_scooter", "name": "30e7223c861f0756f794f05353874da1"}, {"bike_id": "608115069413381884fe7b51d7c0a22c", "lat": 38.831046, "is_disabled": 0, "lon": -76.994043, "fusion_lon": 0.0, "is_reserved": 0, "fusion_lat": 0.0, "rental_uris": {"android": "https://dc.lft.to/lastmile_qr_scan", "ios": "https://dc.lft.to/lastmile_qr_scan"}, "type": "electric_bike", "name": "608115069413381884fe7b51d7c0a22c"}, {"bike_id": "bd7b2a4b8d5d1155fe4cfe17ae904f0a", "lat": 38.89249916666667, "is_disabled": 0, "lon": -77.03957516666667, "fusion_lon": 0.0, "is_reserved": 0, "fusion_lat": 0.0, "rental_uris": {"android": "https://dc.lft.to/lastmile_qr_scan", "ios": "https://dc.lft.to/lastmile_qr_scan"}, "type": "electric_scooter", "name": "bd7b2a4b8d5d1155fe4cfe17ae904f0a"}, {"bike_id": "633e32c1f1c773ed057a8aa30342773c", "lat": 38.880818166666664, "is_disabled": 0, "lon": -76.98505766666666, "fusion_lon": 0.0, "is_reserved": 0, "fusion_lat": 0.0, "rental_uris": {"android": "https://dc.lft.to/lastmile_qr_scan", "ios": "https://dc.lft.to/lastmile_qr_scan"}, "type": "electric_scooter", "name": "633e32c1f1c773ed057a8aa30342773c"}, {"bike_id": "6ab2d89f2abbe5247bfedc7613bb5e8a", "lat": 38.92414133333333, "is_disabled": 0, "lon": -77.035515, "fusion_lon": 0.0, "is_reserved": 0, "fusion_lat": 0.0, "rental_uris": {"android": "https://dc.lft.to/lastmile_qr_scan", "ios": "https://dc.lft.to/lastmile_qr_scan"}, "type": "electric_scooter", "name": "6ab2d89f2abbe5247bfedc7613bb5e8a"}, {"bike_id": "0a48ee6e1673b8dde63b0278fff05d0f", "lat": 38.90574, "is_disabled": 0, "lon": -77.0241835, "fusion_lon": 0.0, "is_reserved": 0, "fusion_lat": 0.0, "rental_uris": {"android": "https://dc.lft.to/lastmile_qr_scan", "ios": "https://dc.lft.to/lastmile_qr_scan"}, "type": "electric_scooter", "name": "0a48ee6e1673b8dde63b0278fff05d0f"}, {"bike_id": "bcd5811bb2e960dffaec594ccec84be4", "lat": 38.880333, "is_disabled": 0, "lon": -77.02503233333333, "fusion_lon": 0.0, "is_reserved": 0, "fusion_lat": 0.0, "rental_uris": {"android": "https://dc.lft.to/lastmile_qr_scan", "ios": "https://dc.lft.to/lastmile_qr_scan"}, "type": "electric_scooter", "name": "bcd5811bb2e960dffaec594ccec84be4"}, {"bike_id": "73fbd1763072b79187223171153d6f45", "lat": 38.8922425, "is_disabled": 0, "lon": -77.04685933333333, "fusion_lon": 0.0, "is_reserved": 0, "fusion_lat": 0.0, "rental_uris": {"android": "https://dc.lft.to/lastmile_qr_scan", "ios": "https://dc.lft.to/lastmile_qr_scan"}, "type": "electric_scooter", "name": "73fbd1763072b79187223171153d6f45"}, {"bike_id": "d7dbc1d9378f7dad989dc96c55be778c", "lat": 38.91204183333333, "is_disabled": 0, "lon": -76.98767533333333, "fusion_lon": 0.0, "is_reserved": 0, "fusion_lat": 0.0, "rental_uris": {"android": "https://dc.lft.to/lastmile_qr_scan", "ios": "https://dc.lft.to/lastmile_qr_scan"}, "type": "electric_scooter", "name": "d7dbc1d9378f7dad989dc96c55be778c"}, {"bike_id": "23bf77176fc175c97fce31824f94530f", "lat": 38.8950435, "is_disabled": 0, "lon": -77.0110775, "fusion_lon": 0.0, "is_reserved": 0, "fusion_lat": 0.0, "rental_uris": {"android": "https://dc.lft.to/lastmile_qr_scan", "ios": "https://dc.lft.to/lastmile_qr_scan"}, "type": "electric_scooter", "name": "23bf77176fc175c97fce31824f94530f"}, {"bike_id": "6cd37ee2ed9d2a2ec80804ba6d8be887", "lat": 38.8863055, "is_disabled": 0, "lon": -77.02218466666666, "fusion_lon": 0.0, "is_reserved": 0, "fusion_lat": 0.0, "rental_uris": {"android": "https://dc.lft.to/lastmile_qr_scan", "ios": "https://dc.lft.to/lastmile_qr_scan"}, "type": "electric_scooter", "name": "6cd37ee2ed9d2a2ec80804ba6d8be887"}, {"bike_id": "2ac64993f14aa109cb39da54de126231", "lat": 38.88718033333333, "is_disabled": 0, "lon": -77.022046, "fusion_lon": 0.0, "is_reserved": 0, "fusion_lat": 0.0, "rental_uris": {"android": "https://dc.lft.to/lastmile_qr_scan", "ios": "https://dc.lft.to/lastmile_qr_scan"}, "type": "electric_scooter", "name": "2ac64993f14aa109cb39da54de126231"}, {"bike_id": "23c018d457012a1807c157c22873558d", "lat": 38.91854566666667, "is_disabled": 0, "lon": -77.089966, "fusion_lon": 0.0, "is_reserved": 0, "fusion_lat": 0.0, "rental_uris": {"android": "https://dc.lft.to/lastmile_qr_scan", "ios": "https://dc.lft.to/lastmile_qr_scan"}, "type": "electric_scooter", "name": "23c018d457012a1807c157c22873558d"}, {"bike_id": "b6e53e6593febf7798262a86b64db36d", "lat": 38.8921895, "is_disabled": 0, "lon": -77.04512283333334, "fusion_lon": 0.0, "is_reserved": 0, "fusion_lat": 0.0, "rental_uris": {"android": "https://dc.lft.to/lastmile_qr_scan", "ios": "https://dc.lft.to/lastmile_qr_scan"}, "type": "electric_scooter", "name": "b6e53e6593febf7798262a86b64db36d"}, {"bike_id": "605f0b9f9af48ee8039365a06c213745", "lat": 38.87174233333333, "is_disabled": 0, "lon": -77.00578366666667, "fusion_lon": 0.0, "is_reserved": 0, "fusion_lat": 0.0, "rental_uris": {"android": "https://dc.lft.to/lastmile_qr_scan", "ios": "https://dc.lft.to/lastmile_qr_scan"}, "type": "electric_scooter", "name": "605f0b9f9af48ee8039365a06c213745"}, {"bike_id": "dfb6a517cdb869fa3b8981136fad1443", "lat": 38.89233183333333, "is_disabled": 0, "lon": -77.04875633333333, "fusion_lon": 0.0, "is_reserved": 0, "fusion_lat": 0.0, "rental_uris": {"android": "https://dc.lft.to/lastmile_qr_scan", "ios": "https://dc.lft.to/lastmile_qr_scan"}, "type": "electric_scooter", "name": "dfb6a517cdb869fa3b8981136fad1443"}, {"bike_id": "45f2c76e5c59e1cfbff41707fc6bb23c", "lat": 38.919848333333334, "is_disabled": 0, "lon": -77.04087083333333, "fusion_lon": 0.0, "is_reserved": 0, "fusion_lat": 0.0, "rental_uris": {"android": "https://dc.lft.to/lastmile_qr_scan", "ios": "https://dc.lft.to/lastmile_qr_scan"}, "type": "electric_scooter", "name": "45f2c76e5c59e1cfbff41707fc6bb23c"}, {"bike_id": "bb6bd40e917d26250bd74b3abd56f60f", "lat": 38.900281666666665, "is_disabled": 0, "lon": -76.99186566666667, "fusion_lon": 0.0, "is_reserved": 0, "fusion_lat": 0.0, "rental_uris": {"android": "https://dc.lft.to/lastmile_qr_scan", "ios": "https://dc.lft.to/lastmile_qr_scan"}, "type": "electric_scooter", "name": "bb6bd40e917d26250bd74b3abd56f60f"}, {"bike_id": "e2193d8a574e32fb46d3290e3530d363", "lat": 38.81983916666667, "is_disabled": 0, "lon": -76.99814716666667, "fusion_lon": 0.0, "is_reserved": 0, "fusion_lat": 0.0, "rental_uris": {"android": "https://dc.lft.to/lastmile_qr_scan", "ios": "https://dc.lft.to/lastmile_qr_scan"}, "type": "electric_bike", "name": "e2193d8a574e32fb46d3290e3530d363"}, {"bike_id": "0bf170087f83ea3d8bf5156892434ca0", "lat": 38.8959715, "is_disabled": 0, "lon": -77.04756266666666, "fusion_lon": 0.0, "is_reserved": 0, "fusion_lat": 0.0, "rental_uris": {"android": "https://dc.lft.to/lastmile_qr_scan", "ios": "https://dc.lft.to/lastmile_qr_scan"}, "type": "electric_scooter", "name": "0bf170087f83ea3d8bf5156892434ca0"}, {"bike_id": "f0671cf301de3ff23640a03a7e703922", "lat": 38.873037833333335, "is_disabled": 0, "lon": -76.97102733333334, "fusion_lon": 0.0, "is_reserved": 0, "fusion_lat": 0.0, "rental_uris": {"android": "https://dc.lft.to/lastmile_qr_scan", "ios": "https://dc.lft.to/lastmile_qr_scan"}, "type": "electric_bike", "name": "f0671cf301de3ff23640a03a7e703922"}, {"bike_id": "ffb029577b6f28101098429dbc488a7c", "lat": 38.9179595, "is_disabled": 0, "lon": -77.034421, "fusion_lon": 0.0, "is_reserved": 0, "fusion_lat": 0.0, "rental_uris": {"android": "https://dc.lft.to/lastmile_qr_scan", "ios": "https://dc.lft.to/lastmile_qr_scan"}, "type": "electric_scooter", "name": "ffb029577b6f28101098429dbc488a7c"}, {"bike_id": "3c4705b6412188392fe62b47bc1a2a21", "lat": 38.89931383333333, "is_disabled": 0, "lon": -77.00339416666667, "fusion_lon": 0.0, "is_reserved": 0, "fusion_lat": 0.0, "rental_uris": {"android": "https://dc.lft.to/lastmile_qr_scan", "ios": "https://dc.lft.to/lastmile_qr_scan"}, "type": "electric_scooter", "name": "3c4705b6412188392fe62b47bc1a2a21"}, {"bike_id": "786b32b4aaf8900297d323d47df6a102", "lat": 38.880261, "is_disabled": 0, "lon": -76.91721516666667, "fusion_lon": 0.0, "is_reserved": 0, "fusion_lat": 0.0, "rental_uris": {"android": "https://dc.lft.to/lastmile_qr_scan", "ios": "https://dc.lft.to/lastmile_qr_scan"}, "type": "electric_bike", "name": "786b32b4aaf8900297d323d47df6a102"}, {"bike_id": "2001f692ec9e8c1c18624bfbaebeefe8", "lat": 38.9239795, "is_disabled": 0, "lon": -77.02432966666667, "fusion_lon": 0.0, "is_reserved": 0, "fusion_lat": 0.0, "rental_uris": {"android": "https://dc.lft.to/lastmile_qr_scan", "ios": "https://dc.lft.to/lastmile_qr_scan"}, "type": "electric_scooter", "name": "2001f692ec9e8c1c18624bfbaebeefe8"}, {"bike_id": "f42ca58db4efb70d87ec60d4393f4abf", "lat": 38.91769633333333, "is_disabled": 0, "lon": -77.01490666666666, "fusion_lon": 0.0, "is_reserved": 0, "fusion_lat": 0.0, "rental_uris": {"android": "https://dc.lft.to/lastmile_qr_scan", "ios": "https://dc.lft.to/lastmile_qr_scan"}, "type": "electric_scooter", "name": "f42ca58db4efb70d87ec60d4393f4abf"}, {"bike_id": "3db2be1b1c4466308126083c6fcb1fdc", "lat": 38.90512233333333, "is_disabled": 0, "lon": -77.06337166666667, "fusion_lon": 0.0, "is_reserved": 0, "fusion_lat": 0.0, "rental_uris": {"android": "https://dc.lft.to/lastmile_qr_scan", "ios": "https://dc.lft.to/lastmile_qr_scan"}, "type": "electric_scooter", "name": "3db2be1b1c4466308126083c6fcb1fdc"}, {"bike_id": "7a36b2fae024c6380c63bb27abcb0a51", "lat": 38.90242116666667, "is_disabled": 0, "lon": -77.00199083333334, "fusion_lon": 0.0, "is_reserved": 0, "fusion_lat": 0.0, "rental_uris": {"android": "https://dc.lft.to/lastmile_qr_scan", "ios": "https://dc.lft.to/lastmile_qr_scan"}, "type": "electric_scooter", "name": "7a36b2fae024c6380c63bb27abcb0a51"}, {"bike_id": "2263f0a4d5fe6db03b60e86b8502f5b4", "lat": 38.86287566666667, "is_disabled": 0, "lon": -76.992272, "fusion_lon": 0.0, "is_reserved": 0, "fusion_lat": 0.0, "rental_uris": {"android": "https://dc.lft.to/lastmile_qr_scan", "ios": "https://dc.lft.to/lastmile_qr_scan"}, "type": "electric_scooter", "name": "2263f0a4d5fe6db03b60e86b8502f5b4"}, {"bike_id": "8029fed986c16da69ca89d0fe832c301", "lat": 38.900376666666666, "is_disabled": 0, "lon": -77.04330716666666, "fusion_lon": 0.0, "is_reserved": 0, "fusion_lat": 0.0, "rental_uris": {"android": "https://dc.lft.to/lastmile_qr_scan", "ios": "https://dc.lft.to/lastmile_qr_scan"}, "type": "electric_scooter", "name": "8029fed986c16da69ca89d0fe832c301"}, {"bike_id": "48bf1afc3c2ea51d1c8c3919c3ba0bb1", "lat": 38.92331866666667, "is_disabled": 0, "lon": -77.02292883333334, "fusion_lon": 0.0, "is_reserved": 0, "fusion_lat": 0.0, "rental_uris": {"android": "https://dc.lft.to/lastmile_qr_scan", "ios": "https://dc.lft.to/lastmile_qr_scan"}, "type": "electric_scooter", "name": "48bf1afc3c2ea51d1c8c3919c3ba0bb1"}, {"bike_id": "6e9a6b50d199987953226475ff58bd1f", "lat": 38.94893583333333, "is_disabled": 0, "lon": -77.018582, "fusion_lon": 0.0, "is_reserved": 0, "fusion_lat": 0.0, "rental_uris": {"android": "https://dc.lft.to/lastmile_qr_scan", "ios": "https://dc.lft.to/lastmile_qr_scan"}, "type": "electric_scooter", "name": "6e9a6b50d199987953226475ff58bd1f"}, {"bike_id": "611744503ed2d8be3c14241347209b25", "lat": 38.8764225, "is_disabled": 0, "lon": -77.00343833333334, "fusion_lon": 0.0, "is_reserved": 0, "fusion_lat": 0.0, "rental_uris": {"android": "https://dc.lft.to/lastmile_qr_scan", "ios": "https://dc.lft.to/lastmile_qr_scan"}, "type": "electric_scooter", "name": "611744503ed2d8be3c14241347209b25"}, {"bike_id": "47df481f6a58fd65bdba9385d6820711", "lat": 38.89837133333333, "is_disabled": 0, "lon": -77.02879316666667, "fusion_lon": 0.0, "is_reserved": 0, "fusion_lat": 0.0, "rental_uris": {"android": "https://dc.lft.to/lastmile_qr_scan", "ios": "https://dc.lft.to/lastmile_qr_scan"}, "type": "electric_scooter", "name": "47df481f6a58fd65bdba9385d6820711"}, {"bike_id": "3c7ffa9147e5d1af8a7f5682feb95dd3", "lat": 38.91784666666667, "is_disabled": 0, "lon": -77.023393, "fusion_lon": 0.0, "is_reserved": 0, "fusion_lat": 0.0, "rental_uris": {"android": "https://dc.lft.to/lastmile_qr_scan", "ios": "https://dc.lft.to/lastmile_qr_scan"}, "type": "electric_scooter", "name": "3c7ffa9147e5d1af8a7f5682feb95dd3"}, {"bike_id": "10ea5f707cdba4c3abb1451ebcddb818", "lat": 38.9212835, "is_disabled": 0, "lon": -77.04214983333334, "fusion_lon": 0.0, "is_reserved": 0, "fusion_lat": 0.0, "rental_uris": {"android": "https://dc.lft.to/lastmile_qr_scan", "ios": "https://dc.lft.to/lastmile_qr_scan"}, "type": "electric_scooter", "name": "10ea5f707cdba4c3abb1451ebcddb818"}, {"bike_id": "6daffece5bbe8f7be1e4ed55de821e5a", "lat": 38.92745266666667, "is_disabled": 0, "lon": -76.95553, "fusion_lon": 0.0, "is_reserved": 0, "fusion_lat": 0.0, "rental_uris": {"android": "https://dc.lft.to/lastmile_qr_scan", "ios": "https://dc.lft.to/lastmile_qr_scan"}, "type": "electric_scooter", "name": "6daffece5bbe8f7be1e4ed55de821e5a"}, {"bike_id": "cba4c610af7c650ba1a6b9474c27055e", "lat": 38.924813666666665, "is_disabled": 0, "lon": -77.0304725, "fusion_lon": 0.0, "is_reserved": 0, "fusion_lat": 0.0, "rental_uris": {"android": "https://dc.lft.to/lastmile_qr_scan", "ios": "https://dc.lft.to/lastmile_qr_scan"}, "type": "electric_scooter", "name": "cba4c610af7c650ba1a6b9474c27055e"}, {"bike_id": "36ab4552fa36ce7a2597f2946231c1ec", "lat": 38.920019333333336, "is_disabled": 0, "lon": -77.03216733333333, "fusion_lon": 0.0, "is_reserved": 0, "fusion_lat": 0.0, "rental_uris": {"android": "https://dc.lft.to/lastmile_qr_scan", "ios": "https://dc.lft.to/lastmile_qr_scan"}, "type": "electric_scooter", "name": "36ab4552fa36ce7a2597f2946231c1ec"}, {"bike_id": "9f598d6a9068509c3b4621d202e4800e", "lat": 38.917485, "is_disabled": 0, "lon": -77.02814716666667, "fusion_lon": 0.0, "is_reserved": 0, "fusion_lat": 0.0, "rental_uris": {"android": "https://dc.lft.to/lastmile_qr_scan", "ios": "https://dc.lft.to/lastmile_qr_scan"}, "type": "electric_scooter", "name": "9f598d6a9068509c3b4621d202e4800e"}, {"bike_id": "e70584cec6c277b1232015bc5f05b30e", "lat": 38.84278783333333, "is_disabled": 0, "lon": -76.98840116666666, "fusion_lon": 0.0, "is_reserved": 0, "fusion_lat": 0.0, "rental_uris": {"android": "https://dc.lft.to/lastmile_qr_scan", "ios": "https://dc.lft.to/lastmile_qr_scan"}, "type": "electric_bike", "name": "e70584cec6c277b1232015bc5f05b30e"}, {"bike_id": "c32d4eb1bed550f2f7da7b0bbf9bc4b7", "lat": 38.92742066666667, "is_disabled": 0, "lon": -77.05251933333334, "fusion_lon": 0.0, "is_reserved": 0, "fusion_lat": 0.0, "rental_uris": {"android": "https://dc.lft.to/lastmile_qr_scan", "ios": "https://dc.lft.to/lastmile_qr_scan"}, "type": "electric_scooter", "name": "c32d4eb1bed550f2f7da7b0bbf9bc4b7"}, {"bike_id": "330b8dc3b7229047d339d3487c3e9489", "lat": 38.92448183333333, "is_disabled": 0, "lon": -77.02024166666666, "fusion_lon": 0.0, "is_reserved": 0, "fusion_lat": 0.0, "rental_uris": {"android": "https://dc.lft.to/lastmile_qr_scan", "ios": "https://dc.lft.to/lastmile_qr_scan"}, "type": "electric_scooter", "name": "330b8dc3b7229047d339d3487c3e9489"}, {"bike_id": "9ff6bac323284a77998b24a8eba3182a", "lat": 38.905118, "is_disabled": 0, "lon": -77.02588016666667, "fusion_lon": 0.0, "is_reserved": 0, "fusion_lat": 0.0, "rental_uris": {"android": "https://dc.lft.to/lastmile_qr_scan", "ios": "https://dc.lft.to/lastmile_qr_scan"}, "type": "electric_scooter", "name": "9ff6bac323284a77998b24a8eba3182a"}, {"bike_id": "d8e4b5a97b5801ea940429bd363f75ed", "lat": 38.905896166666665, "is_disabled": 0, "lon": -77.04728, "fusion_lon": 0.0, "is_reserved": 0, "fusion_lat": 0.0, "rental_uris": {"android": "https://dc.lft.to/lastmile_qr_scan", "ios": "https://dc.lft.to/lastmile_qr_scan"}, "type": "electric_scooter", "name": "d8e4b5a97b5801ea940429bd363f75ed"}, {"bike_id": "05368ab9387a4dfc53a132703dccb0a7", "lat": 38.937324833333335, "is_disabled": 0, "lon": -77.03269383333334, "fusion_lon": 0.0, "is_reserved": 0, "fusion_lat": 0.0, "rental_uris": {"android": "https://dc.lft.to/lastmile_qr_scan", "ios": "https://dc.lft.to/lastmile_qr_scan"}, "type": "electric_scooter", "name": "05368ab9387a4dfc53a132703dccb0a7"}, {"bike_id": "47547c3857dd6826f11c2440e9ed9fe4", "lat": 38.799829833333334, "is_disabled": 0, "lon": -77.12981616666667, "fusion_lon": 0.0, "is_reserved": 0, "fusion_lat": 0.0, "rental_uris": {"android": "https://dc.lft.to/lastmile_qr_scan", "ios": "https://dc.lft.to/lastmile_qr_scan"}, "type": "electric_bike", "name": "47547c3857dd6826f11c2440e9ed9fe4"}, {"bike_id": "4635617dd93e740d7c52843fd9bf1bee", "lat": 38.87684816666667, "is_disabled": 0, "lon": -77.01787066666667, "fusion_lon": 0.0, "is_reserved": 0, "fusion_lat": 0.0, "rental_uris": {"android": "https://dc.lft.to/lastmile_qr_scan", "ios": "https://dc.lft.to/lastmile_qr_scan"}, "type": "electric_scooter", "name": "4635617dd93e740d7c52843fd9bf1bee"}, {"bike_id": "2c17865e2d694e9d4233f0ed6ac2e177", "lat": 38.885165, "is_disabled": 0, "lon": -77.0281885, "fusion_lon": 0.0, "is_reserved": 0, "fusion_lat": 0.0, "rental_uris": {"android": "https://dc.lft.to/lastmile_qr_scan", "ios": "https://dc.lft.to/lastmile_qr_scan"}, "type": "electric_scooter", "name": "2c17865e2d694e9d4233f0ed6ac2e177"}, {"bike_id": "99b4eb76d37bfc93a13fbe514579bc67", "lat": 38.902494833333336, "is_disabled": 0, "lon": -76.98019483333333, "fusion_lon": 0.0, "is_reserved": 0, "fusion_lat": 0.0, "rental_uris": {"android": "https://dc.lft.to/lastmile_qr_scan", "ios": "https://dc.lft.to/lastmile_qr_scan"}, "type": "electric_scooter", "name": "99b4eb76d37bfc93a13fbe514579bc67"}, {"bike_id": "f69eb320a4f8f8e1032ea9ac092348de", "lat": 38.9207605, "is_disabled": 0, "lon": -76.99742533333334, "fusion_lon": 0.0, "is_reserved": 0, "fusion_lat": 0.0, "rental_uris": {"android": "https://dc.lft.to/lastmile_qr_scan", "ios": "https://dc.lft.to/lastmile_qr_scan"}, "type": "electric_scooter", "name": "f69eb320a4f8f8e1032ea9ac092348de"}, {"bike_id": "7461fdd9bc81eaaf6701ebca58897f76", "lat": 38.892391333333336, "is_disabled": 0, "lon": -77.04675583333334, "fusion_lon": 0.0, "is_reserved": 0, "fusion_lat": 0.0, "rental_uris": {"android": "https://dc.lft.to/lastmile_qr_scan", "ios": "https://dc.lft.to/lastmile_qr_scan"}, "type": "electric_scooter", "name": "7461fdd9bc81eaaf6701ebca58897f76"}, {"bike_id": "df36b2974b3c1ba3c67a0da38f254c41", "lat": 38.92329516666667, "is_disabled": 0, "lon": -77.01955333333333, "fusion_lon": 0.0, "is_reserved": 0, "fusion_lat": 0.0, "rental_uris": {"android": "https://dc.lft.to/lastmile_qr_scan", "ios": "https://dc.lft.to/lastmile_qr_scan"}, "type": "electric_scooter", "name": "df36b2974b3c1ba3c67a0da38f254c41"}, {"bike_id": "5559c67ccb3c8dd15b004aa8dc3557f6", "lat": 38.916811833333334, "is_disabled": 0, "lon": -77.02970116666667, "fusion_lon": 0.0, "is_reserved": 0, "fusion_lat": 0.0, "rental_uris": {"android": "https://dc.lft.to/lastmile_qr_scan", "ios": "https://dc.lft.to/lastmile_qr_scan"}, "type": "electric_scooter", "name": "5559c67ccb3c8dd15b004aa8dc3557f6"}, {"bike_id": "f8566f5d3e8b42f357ac8d0ef0d8af14", "lat": 38.917224833333336, "is_disabled": 0, "lon": -77.0417825, "fusion_lon": 0.0, "is_reserved": 0, "fusion_lat": 0.0, "rental_uris": {"android": "https://dc.lft.to/lastmile_qr_scan", "ios": "https://dc.lft.to/lastmile_qr_scan"}, "type": "electric_scooter", "name": "f8566f5d3e8b42f357ac8d0ef0d8af14"}, {"bike_id": "b8b2c18af4264a52f07e8781bc84212f", "lat": 38.886676333333334, "is_disabled": 0, "lon": -77.16232866666667, "fusion_lon": 0.0, "is_reserved": 0, "fusion_lat": 0.0, "rental_uris": {"android": "https://dc.lft.to/lastmile_qr_scan", "ios": "https://dc.lft.to/lastmile_qr_scan"}, "type": "electric_bike", "name": "b8b2c18af4264a52f07e8781bc84212f"}, {"bike_id": "ce8aa99b284f8f11417e582aabf8fbdd", "lat": 38.912816666666664, "is_disabled": 0, "lon": -77.03861, "fusion_lon": 0.0, "is_reserved": 0, "fusion_lat": 0.0, "rental_uris": {"android": "https://dc.lft.to/lastmile_qr_scan", "ios": "https://dc.lft.to/lastmile_qr_scan"}, "type": "electric_scooter", "name": "ce8aa99b284f8f11417e582aabf8fbdd"}, {"bike_id": "22ff648ecb2accee54230bd39d145a43", "lat": 38.92079733333333, "is_disabled": 0, "lon": -77.0249595, "fusion_lon": 0.0, "is_reserved": 0, "fusion_lat": 0.0, "rental_uris": {"android": "https://dc.lft.to/lastmile_qr_scan", "ios": "https://dc.lft.to/lastmile_qr_scan"}, "type": "electric_scooter", "name": "22ff648ecb2accee54230bd39d145a43"}, {"bike_id": "4da7668d99a146a8f0531953d1ef5f94", "lat": 38.93853383333333, "is_disabled": 0, "lon": -77.03392316666667, "fusion_lon": 0.0, "is_reserved": 0, "fusion_lat": 0.0, "rental_uris": {"android": "https://dc.lft.to/lastmile_qr_scan", "ios": "https://dc.lft.to/lastmile_qr_scan"}, "type": "electric_scooter", "name": "4da7668d99a146a8f0531953d1ef5f94"}, {"bike_id": "533632b0095f8f3334758e271cb2543a", "lat": 38.90035566666667, "is_disabled": 0, "lon": -76.9847415, "fusion_lon": 0.0, "is_reserved": 0, "fusion_lat": 0.0, "rental_uris": {"android": "https://dc.lft.to/lastmile_qr_scan", "ios": "https://dc.lft.to/lastmile_qr_scan"}, "type": "electric_bike", "name": "533632b0095f8f3334758e271cb2543a"}, {"bike_id": "a00a388a2618bd57f476ec00e8636095", "lat": 38.915454, "is_disabled": 0, "lon": -77.0385475, "fusion_lon": 0.0, "is_reserved": 0, "fusion_lat": 0.0, "rental_uris": {"android": "https://dc.lft.to/lastmile_qr_scan", "ios": "https://dc.lft.to/lastmile_qr_scan"}, "type": "electric_scooter", "name": "a00a388a2618bd57f476ec00e8636095"}, {"bike_id": "00c1c24ad1c82fd0da2aef83f4b9e7a5", "lat": 38.907618, "is_disabled": 0, "lon": -77.00926466666667, "fusion_lon": 0.0, "is_reserved": 0, "fusion_lat": 0.0, "rental_uris": {"android": "https://dc.lft.to/lastmile_qr_scan", "ios": "https://dc.lft.to/lastmile_qr_scan"}, "type": "electric_scooter", "name": "00c1c24ad1c82fd0da2aef83f4b9e7a5"}, {"bike_id": "12d19446dad29ce0e7b27e76f9589f72", "lat": 38.879127833333335, "is_disabled": 0, "lon": -77.00537933333334, "fusion_lon": 0.0, "is_reserved": 0, "fusion_lat": 0.0, "rental_uris": {"android": "https://dc.lft.to/lastmile_qr_scan", "ios": "https://dc.lft.to/lastmile_qr_scan"}, "type": "electric_scooter", "name": "12d19446dad29ce0e7b27e76f9589f72"}, {"bike_id": "16b52a4337850831c6a34010cc99be93", "lat": 38.918193, "is_disabled": 0, "lon": -77.0319885, "fusion_lon": 0.0, "is_reserved": 0, "fusion_lat": 0.0, "rental_uris": {"android": "https://dc.lft.to/lastmile_qr_scan", "ios": "https://dc.lft.to/lastmile_qr_scan"}, "type": "electric_scooter", "name": "16b52a4337850831c6a34010cc99be93"}, {"bike_id": "db428e3c33e76b5cee951976f4afe4b6", "lat": 38.908639, "is_disabled": 0, "lon": -77.03198933333333, "fusion_lon": 0.0, "is_reserved": 0, "fusion_lat": 0.0, "rental_uris": {"android": "https://dc.lft.to/lastmile_qr_scan", "ios": "https://dc.lft.to/lastmile_qr_scan"}, "type": "electric_scooter", "name": "db428e3c33e76b5cee951976f4afe4b6"}, {"bike_id": "b47da4e78551b7490619b5002eb87814", "lat": 38.901677666666664, "is_disabled": 0, "lon": -77.03914766666666, "fusion_lon": 0.0, "is_reserved": 0, "fusion_lat": 0.0, "rental_uris": {"android": "https://dc.lft.to/lastmile_qr_scan", "ios": "https://dc.lft.to/lastmile_qr_scan"}, "type": "electric_scooter", "name": "b47da4e78551b7490619b5002eb87814"}, {"bike_id": "4f9709bd28694322982f30720e6ba018", "lat": 38.90002916666667, "is_disabled": 0, "lon": -77.03358083333333, "fusion_lon": 0.0, "is_reserved": 0, "fusion_lat": 0.0, "rental_uris": {"android": "https://dc.lft.to/lastmile_qr_scan", "ios": "https://dc.lft.to/lastmile_qr_scan"}, "type": "electric_scooter", "name": "4f9709bd28694322982f30720e6ba018"}, {"bike_id": "667a840d08830ebb14670cced3eb180e", "lat": 38.916136333333334, "is_disabled": 0, "lon": -77.032157, "fusion_lon": 0.0, "is_reserved": 0, "fusion_lat": 0.0, "rental_uris": {"android": "https://dc.lft.to/lastmile_qr_scan", "ios": "https://dc.lft.to/lastmile_qr_scan"}, "type": "electric_scooter", "name": "667a840d08830ebb14670cced3eb180e"}, {"bike_id": "e532c67d46641c30a63c9847d01df8ca", "lat": 38.917636333333334, "is_disabled": 0, "lon": -77.023856, "fusion_lon": 0.0, "is_reserved": 0, "fusion_lat": 0.0, "rental_uris": {"android": "https://dc.lft.to/lastmile_qr_scan", "ios": "https://dc.lft.to/lastmile_qr_scan"}, "type": "electric_scooter", "name": "e532c67d46641c30a63c9847d01df8ca"}, {"bike_id": "a7eea337eb90e8077dc9b01986d6d28f", "lat": 38.935385333333336, "is_disabled": 0, "lon": -77.02347666666667, "fusion_lon": 0.0, "is_reserved": 0, "fusion_lat": 0.0, "rental_uris": {"android": "https://dc.lft.to/lastmile_qr_scan", "ios": "https://dc.lft.to/lastmile_qr_scan"}, "type": "electric_scooter", "name": "a7eea337eb90e8077dc9b01986d6d28f"}, {"bike_id": "b3db4dd0727ca33f97dc7dce0f989786", "lat": 38.90554766666666, "is_disabled": 0, "lon": -77.04183833333333, "fusion_lon": 0.0, "is_reserved": 0, "fusion_lat": 0.0, "rental_uris": {"android": "https://dc.lft.to/lastmile_qr_scan", "ios": "https://dc.lft.to/lastmile_qr_scan"}, "type": "electric_scooter", "name": "b3db4dd0727ca33f97dc7dce0f989786"}, {"bike_id": "4dc70730a43e2c5cc2f4a02076f3c628", "lat": 38.890314833333335, "is_disabled": 0, "lon": -77.02287516666667, "fusion_lon": 0.0, "is_reserved": 0, "fusion_lat": 0.0, "rental_uris": {"android": "https://dc.lft.to/lastmile_qr_scan", "ios": "https://dc.lft.to/lastmile_qr_scan"}, "type": "electric_scooter", "name": "4dc70730a43e2c5cc2f4a02076f3c628"}, {"bike_id": "e3525266923dfc23ee761fbeba0b0415", "lat": 38.88973083333333, "is_disabled": 0, "lon": -76.98321383333334, "fusion_lon": 0.0, "is_reserved": 0, "fusion_lat": 0.0, "rental_uris": {"android": "https://dc.lft.to/lastmile_qr_scan", "ios": "https://dc.lft.to/lastmile_qr_scan"}, "type": "electric_scooter", "name": "e3525266923dfc23ee761fbeba0b0415"}, {"bike_id": "a4902df8c851e6b1fb336b7ab6526654", "lat": 38.925087, "is_disabled": 0, "lon": -77.00224366666667, "fusion_lon": 0.0, "is_reserved": 0, "fusion_lat": 0.0, "rental_uris": {"android": "https://dc.lft.to/lastmile_qr_scan", "ios": "https://dc.lft.to/lastmile_qr_scan"}, "type": "electric_scooter", "name": "a4902df8c851e6b1fb336b7ab6526654"}, {"bike_id": "a1e02149106b818e48be70c27275b8c4", "lat": 38.8987575, "is_disabled": 0, "lon": -77.01627733333333, "fusion_lon": 0.0, "is_reserved": 0, "fusion_lat": 0.0, "rental_uris": {"android": "https://dc.lft.to/lastmile_qr_scan", "ios": "https://dc.lft.to/lastmile_qr_scan"}, "type": "electric_scooter", "name": "a1e02149106b818e48be70c27275b8c4"}, {"bike_id": "5d94e49a6021de1cb966635f8239674e", "lat": 38.903385666666665, "is_disabled": 0, "lon": -76.9294115, "fusion_lon": 0.0, "is_reserved": 0, "fusion_lat": 0.0, "rental_uris": {"android": "https://dc.lft.to/lastmile_qr_scan", "ios": "https://dc.lft.to/lastmile_qr_scan"}, "type": "electric_scooter", "name": "5d94e49a6021de1cb966635f8239674e"}, {"bike_id": "afe2ace98233e9d18e68c47a7b62d676", "lat": 38.898374833333335, "is_disabled": 0, "lon": -76.9462905, "fusion_lon": 0.0, "is_reserved": 0, "fusion_lat": 0.0, "rental_uris": {"android": "https://dc.lft.to/lastmile_qr_scan", "ios": "https://dc.lft.to/lastmile_qr_scan"}, "type": "electric_scooter", "name": "afe2ace98233e9d18e68c47a7b62d676"}, {"bike_id": "09660c315cfdcf03b0f936a92ec38c64", "lat": 38.9057765, "is_disabled": 0, "lon": -77.04609833333333, "fusion_lon": 0.0, "is_reserved": 0, "fusion_lat": 0.0, "rental_uris": {"android": "https://dc.lft.to/lastmile_qr_scan", "ios": "https://dc.lft.to/lastmile_qr_scan"}, "type": "electric_scooter", "name": "09660c315cfdcf03b0f936a92ec38c64"}, {"bike_id": "3fdb25fa30ebdb3d811382fd4dc8f368", "lat": 38.924443333333336, "is_disabled": 0, "lon": -77.02032916666667, "fusion_lon": 0.0, "is_reserved": 0, "fusion_lat": 0.0, "rental_uris": {"android": "https://dc.lft.to/lastmile_qr_scan", "ios": "https://dc.lft.to/lastmile_qr_scan"}, "type": "electric_scooter", "name": "3fdb25fa30ebdb3d811382fd4dc8f368"}, {"bike_id": "95e791501fe0f557e806bfe889062dac", "lat": 38.917570166666664, "is_disabled": 0, "lon": -77.01224933333333, "fusion_lon": 0.0, "is_reserved": 0, "fusion_lat": 0.0, "rental_uris": {"android": "https://dc.lft.to/lastmile_qr_scan", "ios": "https://dc.lft.to/lastmile_qr_scan"}, "type": "electric_scooter", "name": "95e791501fe0f557e806bfe889062dac"}, {"bike_id": "686d05b629a89bee5927774b016be4af", "lat": 38.897380166666665, "is_disabled": 0, "lon": -77.04860533333333, "fusion_lon": 0.0, "is_reserved": 0, "fusion_lat": 0.0, "rental_uris": {"android": "https://dc.lft.to/lastmile_qr_scan", "ios": "https://dc.lft.to/lastmile_qr_scan"}, "type": "electric_scooter", "name": "686d05b629a89bee5927774b016be4af"}, {"bike_id": "ca258531e3f66921c6febce1992d5eb4", "lat": 38.8870955, "is_disabled": 0, "lon": -77.03217083333334, "fusion_lon": 0.0, "is_reserved": 0, "fusion_lat": 0.0, "rental_uris": {"android": "https://dc.lft.to/lastmile_qr_scan", "ios": "https://dc.lft.to/lastmile_qr_scan"}, "type": "electric_scooter", "name": "ca258531e3f66921c6febce1992d5eb4"}, {"bike_id": "51f8bf7662478a599a573ad54f102c61", "lat": 38.9313125, "is_disabled": 0, "lon": -77.05592516666667, "fusion_lon": 0.0, "is_reserved": 0, "fusion_lat": 0.0, "rental_uris": {"android": "https://dc.lft.to/lastmile_qr_scan", "ios": "https://dc.lft.to/lastmile_qr_scan"}, "type": "electric_scooter", "name": "51f8bf7662478a599a573ad54f102c61"}, {"bike_id": "6b46e6cc10d1aec4ab4e47e8dc14e9cc", "lat": 38.944547666666665, "is_disabled": 0, "lon": -77.02803466666667, "fusion_lon": 0.0, "is_reserved": 0, "fusion_lat": 0.0, "rental_uris": {"android": "https://dc.lft.to/lastmile_qr_scan", "ios": "https://dc.lft.to/lastmile_qr_scan"}, "type": "electric_scooter", "name": "6b46e6cc10d1aec4ab4e47e8dc14e9cc"}, {"bike_id": "6200b45b0b6f2d92db1b8bfdbdc2ef72", "lat": 38.92710616666667, "is_disabled": 0, "lon": -77.05378783333333, "fusion_lon": 0.0, "is_reserved": 0, "fusion_lat": 0.0, "rental_uris": {"android": "https://dc.lft.to/lastmile_qr_scan", "ios": "https://dc.lft.to/lastmile_qr_scan"}, "type": "electric_scooter", "name": "6200b45b0b6f2d92db1b8bfdbdc2ef72"}, {"bike_id": "98b53872b8cd49eaece27c40362d1c00", "lat": 38.9206115, "is_disabled": 0, "lon": -77.02416816666667, "fusion_lon": 0.0, "is_reserved": 0, "fusion_lat": 0.0, "rental_uris": {"android": "https://dc.lft.to/lastmile_qr_scan", "ios": "https://dc.lft.to/lastmile_qr_scan"}, "type": "electric_scooter", "name": "98b53872b8cd49eaece27c40362d1c00"}, {"bike_id": "8ca13617fe39dcd342bf3cef68751520", "lat": 38.879956666666665, "is_disabled": 0, "lon": -77.01285116666666, "fusion_lon": 0.0, "is_reserved": 0, "fusion_lat": 0.0, "rental_uris": {"android": "https://dc.lft.to/lastmile_qr_scan", "ios": "https://dc.lft.to/lastmile_qr_scan"}, "type": "electric_scooter", "name": "8ca13617fe39dcd342bf3cef68751520"}, {"bike_id": "86a5d853ce2e2f20410aa8cd1e3878ff", "lat": 38.89198583333334, "is_disabled": 0, "lon": -77.02383566666667, "fusion_lon": 0.0, "is_reserved": 0, "fusion_lat": 0.0, "rental_uris": {"android": "https://dc.lft.to/lastmile_qr_scan", "ios": "https://dc.lft.to/lastmile_qr_scan"}, "type": "electric_scooter", "name": "86a5d853ce2e2f20410aa8cd1e3878ff"}, {"bike_id": "d84b5a15d9d56663b200840d49101f3c", "lat": 38.91800083333333, "is_disabled": 0, "lon": -77.04443116666667, "fusion_lon": 0.0, "is_reserved": 0, "fusion_lat": 0.0, "rental_uris": {"android": "https://dc.lft.to/lastmile_qr_scan", "ios": "https://dc.lft.to/lastmile_qr_scan"}, "type": "electric_scooter", "name": "d84b5a15d9d56663b200840d49101f3c"}, {"bike_id": "86c3f76355489b87b493916e0f4fe25b", "lat": 38.919802833333335, "is_disabled": 0, "lon": -76.99262066666667, "fusion_lon": 0.0, "is_reserved": 0, "fusion_lat": 0.0, "rental_uris": {"android": "https://dc.lft.to/lastmile_qr_scan", "ios": "https://dc.lft.to/lastmile_qr_scan"}, "type": "electric_scooter", "name": "86c3f76355489b87b493916e0f4fe25b"}, {"bike_id": "e0de3da68ca3b687666768e56c4ca07b", "lat": 38.917561166666665, "is_disabled": 0, "lon": -77.03908, "fusion_lon": 0.0, "is_reserved": 0, "fusion_lat": 0.0, "rental_uris": {"android": "https://dc.lft.to/lastmile_qr_scan", "ios": "https://dc.lft.to/lastmile_qr_scan"}, "type": "electric_scooter", "name": "e0de3da68ca3b687666768e56c4ca07b"}, {"bike_id": "d049e0481dad008c34355ee97501314e", "lat": 38.9339715, "is_disabled": 0, "lon": -77.0454945, "fusion_lon": 0.0, "is_reserved": 0, "fusion_lat": 0.0, "rental_uris": {"android": "https://dc.lft.to/lastmile_qr_scan", "ios": "https://dc.lft.to/lastmile_qr_scan"}, "type": "electric_scooter", "name": "d049e0481dad008c34355ee97501314e"}, {"bike_id": "c71ae837f65cefe5f239a7b5743435fd", "lat": 38.897443333333335, "is_disabled": 0, "lon": -77.00921183333334, "fusion_lon": 0.0, "is_reserved": 0, "fusion_lat": 0.0, "rental_uris": {"android": "https://dc.lft.to/lastmile_qr_scan", "ios": "https://dc.lft.to/lastmile_qr_scan"}, "type": "electric_scooter", "name": "c71ae837f65cefe5f239a7b5743435fd"}, {"bike_id": "dd0ce854dc8a19794df2cbca351619a4", "lat": 38.86360783333333, "is_disabled": 0, "lon": -76.9904315, "fusion_lon": 0.0, "is_reserved": 0, "fusion_lat": 0.0, "rental_uris": {"android": "https://dc.lft.to/lastmile_qr_scan", "ios": "https://dc.lft.to/lastmile_qr_scan"}, "type": "electric_scooter", "name": "dd0ce854dc8a19794df2cbca351619a4"}, {"bike_id": "cdec0ac42992b6c2f6cc25f29fb36de8", "lat": 38.89890483333333, "is_disabled": 0, "lon": -76.93175216666667, "fusion_lon": 0.0, "is_reserved": 0, "fusion_lat": 0.0, "rental_uris": {"android": "https://dc.lft.to/lastmile_qr_scan", "ios": "https://dc.lft.to/lastmile_qr_scan"}, "type": "electric_scooter", "name": "cdec0ac42992b6c2f6cc25f29fb36de8"}, {"bike_id": "bae7d9b18f168f13022e860621447275", "lat": 38.90459966666667, "is_disabled": 0, "lon": -77.0356365, "fusion_lon": 0.0, "is_reserved": 0, "fusion_lat": 0.0, "rental_uris": {"android": "https://dc.lft.to/lastmile_qr_scan", "ios": "https://dc.lft.to/lastmile_qr_scan"}, "type": "electric_scooter", "name": "bae7d9b18f168f13022e860621447275"}, {"bike_id": "0e9edaaf6dd9940a63d833a459131c49", "lat": 38.919465, "is_disabled": 0, "lon": -77.01787733333333, "fusion_lon": 0.0, "is_reserved": 0, "fusion_lat": 0.0, "rental_uris": {"android": "https://dc.lft.to/lastmile_qr_scan", "ios": "https://dc.lft.to/lastmile_qr_scan"}, "type": "electric_scooter", "name": "0e9edaaf6dd9940a63d833a459131c49"}, {"bike_id": "3b44b8fcda02f700c0fd661da56634f2", "lat": 38.88707316666667, "is_disabled": 0, "lon": -77.0282615, "fusion_lon": 0.0, "is_reserved": 0, "fusion_lat": 0.0, "rental_uris": {"android": "https://dc.lft.to/lastmile_qr_scan", "ios": "https://dc.lft.to/lastmile_qr_scan"}, "type": "electric_scooter", "name": "3b44b8fcda02f700c0fd661da56634f2"}, {"bike_id": "e2afb866104fd374c515a348658fc42e", "lat": 38.91040383333333, "is_disabled": 0, "lon": -77.03841933333334, "fusion_lon": 0.0, "is_reserved": 0, "fusion_lat": 0.0, "rental_uris": {"android": "https://dc.lft.to/lastmile_qr_scan", "ios": "https://dc.lft.to/lastmile_qr_scan"}, "type": "electric_scooter", "name": "e2afb866104fd374c515a348658fc42e"}, {"bike_id": "548619cf7dfeae22fcbdd16a54bbad78", "lat": 38.91990083333334, "is_disabled": 0, "lon": -77.02530083333333, "fusion_lon": 0.0, "is_reserved": 0, "fusion_lat": 0.0, "rental_uris": {"android": "https://dc.lft.to/lastmile_qr_scan", "ios": "https://dc.lft.to/lastmile_qr_scan"}, "type": "electric_scooter", "name": "548619cf7dfeae22fcbdd16a54bbad78"}, {"bike_id": "2771be06d5aa62cac24d1262400f2702", "lat": 38.923404833333336, "is_disabled": 0, "lon": -77.0190055, "fusion_lon": 0.0, "is_reserved": 0, "fusion_lat": 0.0, "rental_uris": {"android": "https://dc.lft.to/lastmile_qr_scan", "ios": "https://dc.lft.to/lastmile_qr_scan"}, "type": "electric_scooter", "name": "2771be06d5aa62cac24d1262400f2702"}, {"bike_id": "878edbc14a658a8bf6a55df3d58f4b2a", "lat": 38.90919983333333, "is_disabled": 0, "lon": -77.04882866666667, "fusion_lon": 0.0, "is_reserved": 0, "fusion_lat": 0.0, "rental_uris": {"android": "https://dc.lft.to/lastmile_qr_scan", "ios": "https://dc.lft.to/lastmile_qr_scan"}, "type": "electric_scooter", "name": "878edbc14a658a8bf6a55df3d58f4b2a"}, {"bike_id": "109f48937ef1886fb1d1c1717eb5f6e9", "lat": 38.934472166666666, "is_disabled": 0, "lon": -77.03244866666667, "fusion_lon": 0.0, "is_reserved": 0, "fusion_lat": 0.0, "rental_uris": {"android": "https://dc.lft.to/lastmile_qr_scan", "ios": "https://dc.lft.to/lastmile_qr_scan"}, "type": "electric_scooter", "name": "109f48937ef1886fb1d1c1717eb5f6e9"}, {"bike_id": "75d1bc656ca452864d46eb99695b7ed0", "lat": 38.857806, "is_disabled": 0, "lon": -76.97326183333334, "fusion_lon": 0.0, "is_reserved": 0, "fusion_lat": 0.0, "rental_uris": {"android": "https://dc.lft.to/lastmile_qr_scan", "ios": "https://dc.lft.to/lastmile_qr_scan"}, "type": "electric_bike", "name": "75d1bc656ca452864d46eb99695b7ed0"}, {"bike_id": "a7985c0edb466f7067c6e1ac60b9ca05", "lat": 38.93426933333333, "is_disabled": 0, "lon": -77.044287, "fusion_lon": 0.0, "is_reserved": 0, "fusion_lat": 0.0, "rental_uris": {"android": "https://dc.lft.to/lastmile_qr_scan", "ios": "https://dc.lft.to/lastmile_qr_scan"}, "type": "electric_scooter", "name": "a7985c0edb466f7067c6e1ac60b9ca05"}, {"bike_id": "b127d85e62be5eb164f7c5698714374b", "lat": 38.92165283333333, "is_disabled": 0, "lon": -77.0220215, "fusion_lon": 0.0, "is_reserved": 0, "fusion_lat": 0.0, "rental_uris": {"android": "https://dc.lft.to/lastmile_qr_scan", "ios": "https://dc.lft.to/lastmile_qr_scan"}, "type": "electric_scooter", "name": "b127d85e62be5eb164f7c5698714374b"}, {"bike_id": "60281dd61a086badea2f8355d7b0cb66", "lat": 38.910243333333334, "is_disabled": 0, "lon": -77.0487125, "fusion_lon": 0.0, "is_reserved": 0, "fusion_lat": 0.0, "rental_uris": {"android": "https://dc.lft.to/lastmile_qr_scan", "ios": "https://dc.lft.to/lastmile_qr_scan"}, "type": "electric_scooter", "name": "60281dd61a086badea2f8355d7b0cb66"}, {"bike_id": "a5ac7222ff5029205ebf5aaa63f33c66", "lat": 38.895519666666665, "is_disabled": 0, "lon": -77.0089955, "fusion_lon": 0.0, "is_reserved": 0, "fusion_lat": 0.0, "rental_uris": {"android": "https://dc.lft.to/lastmile_qr_scan", "ios": "https://dc.lft.to/lastmile_qr_scan"}, "type": "electric_scooter", "name": "a5ac7222ff5029205ebf5aaa63f33c66"}, {"bike_id": "25d19d9eadcd9cac15f891de08585527", "lat": 38.930494333333336, "is_disabled": 0, "lon": -77.02500966666666, "fusion_lon": 0.0, "is_reserved": 0, "fusion_lat": 0.0, "rental_uris": {"android": "https://dc.lft.to/lastmile_qr_scan", "ios": "https://dc.lft.to/lastmile_qr_scan"}, "type": "electric_scooter", "name": "25d19d9eadcd9cac15f891de08585527"}, {"bike_id": "50b8a7fdfb33944008023f387c477690", "lat": 38.89268916666666, "is_disabled": 0, "lon": -77.042027, "fusion_lon": 0.0, "is_reserved": 0, "fusion_lat": 0.0, "rental_uris": {"android": "https://dc.lft.to/lastmile_qr_scan", "ios": "https://dc.lft.to/lastmile_qr_scan"}, "type": "electric_scooter", "name": "50b8a7fdfb33944008023f387c477690"}, {"bike_id": "b1e6cc715caa0dd426b74d129e31621d", "lat": 38.880854, "is_disabled": 0, "lon": -76.985079, "fusion_lon": 0.0, "is_reserved": 0, "fusion_lat": 0.0, "rental_uris": {"android": "https://dc.lft.to/lastmile_qr_scan", "ios": "https://dc.lft.to/lastmile_qr_scan"}, "type": "electric_scooter", "name": "b1e6cc715caa0dd426b74d129e31621d"}, {"bike_id": "9dfd83c6ca75f6a7c31bdf5ae0c4e671", "lat": 38.914190833333336, "is_disabled": 0, "lon": -77.04505633333333, "fusion_lon": 0.0, "is_reserved": 0, "fusion_lat": 0.0, "rental_uris": {"android": "https://dc.lft.to/lastmile_qr_scan", "ios": "https://dc.lft.to/lastmile_qr_scan"}, "type": "electric_scooter", "name": "9dfd83c6ca75f6a7c31bdf5ae0c4e671"}, {"bike_id": "55c88bea82f2406a463a29bab088e796", "lat": 38.9025765, "is_disabled": 0, "lon": -76.98003283333334, "fusion_lon": 0.0, "is_reserved": 0, "fusion_lat": 0.0, "rental_uris": {"android": "https://dc.lft.to/lastmile_qr_scan", "ios": "https://dc.lft.to/lastmile_qr_scan"}, "type": "electric_scooter", "name": "55c88bea82f2406a463a29bab088e796"}, {"bike_id": "de2239a4005eea3ac6b6fe5f65050373", "lat": 38.897157666666665, "is_disabled": 0, "lon": -77.0247705, "fusion_lon": 0.0, "is_reserved": 0, "fusion_lat": 0.0, "rental_uris": {"android": "https://dc.lft.to/lastmile_qr_scan", "ios": "https://dc.lft.to/lastmile_qr_scan"}, "type": "electric_scooter", "name": "de2239a4005eea3ac6b6fe5f65050373"}, {"bike_id": "1e149b9eb8131d391e3abce93e5c3bc9", "lat": 38.922416, "is_disabled": 0, "lon": -77.02093483333333, "fusion_lon": 0.0, "is_reserved": 0, "fusion_lat": 0.0, "rental_uris": {"android": "https://dc.lft.to/lastmile_qr_scan", "ios": "https://dc.lft.to/lastmile_qr_scan"}, "type": "electric_scooter", "name": "1e149b9eb8131d391e3abce93e5c3bc9"}, {"bike_id": "dd4e5967cb359fbbdd5cf07ce7f6a1f5", "lat": 38.89225, "is_disabled": 0, "lon": -77.04862983333334, "fusion_lon": 0.0, "is_reserved": 0, "fusion_lat": 0.0, "rental_uris": {"android": "https://dc.lft.to/lastmile_qr_scan", "ios": "https://dc.lft.to/lastmile_qr_scan"}, "type": "electric_scooter", "name": "dd4e5967cb359fbbdd5cf07ce7f6a1f5"}, {"bike_id": "1c704e69bd7e9c66db199c67e2af61d2", "lat": 38.909726166666665, "is_disabled": 0, "lon": -77.04599466666667, "fusion_lon": 0.0, "is_reserved": 0, "fusion_lat": 0.0, "rental_uris": {"android": "https://dc.lft.to/lastmile_qr_scan", "ios": "https://dc.lft.to/lastmile_qr_scan"}, "type": "electric_scooter", "name": "1c704e69bd7e9c66db199c67e2af61d2"}, {"bike_id": "81de2d44815886ff9ed6bd6b0ee75c8c", "lat": 38.914392166666666, "is_disabled": 0, "lon": -77.04180316666667, "fusion_lon": 0.0, "is_reserved": 0, "fusion_lat": 0.0, "rental_uris": {"android": "https://dc.lft.to/lastmile_qr_scan", "ios": "https://dc.lft.to/lastmile_qr_scan"}, "type": "electric_scooter", "name": "81de2d44815886ff9ed6bd6b0ee75c8c"}, {"bike_id": "329486bd83f9831d41b11b469a40b9f0", "lat": 38.919971333333336, "is_disabled": 0, "lon": -77.021369, "fusion_lon": 0.0, "is_reserved": 0, "fusion_lat": 0.0, "rental_uris": {"android": "https://dc.lft.to/lastmile_qr_scan", "ios": "https://dc.lft.to/lastmile_qr_scan"}, "type": "electric_scooter", "name": "329486bd83f9831d41b11b469a40b9f0"}, {"bike_id": "c06cce624ca0a68fefd49416781ccca4", "lat": 38.947774333333335, "is_disabled": 0, "lon": -77.04074633333333, "fusion_lon": 0.0, "is_reserved": 0, "fusion_lat": 0.0, "rental_uris": {"android": "https://dc.lft.to/lastmile_qr_scan", "ios": "https://dc.lft.to/lastmile_qr_scan"}, "type": "electric_scooter", "name": "c06cce624ca0a68fefd49416781ccca4"}, {"bike_id": "cb6b07701370128260f62c0d83e3d58d", "lat": 38.88082716666667, "is_disabled": 0, "lon": -76.98531183333333, "fusion_lon": 0.0, "is_reserved": 0, "fusion_lat": 0.0, "rental_uris": {"android": "https://dc.lft.to/lastmile_qr_scan", "ios": "https://dc.lft.to/lastmile_qr_scan"}, "type": "electric_scooter", "name": "cb6b07701370128260f62c0d83e3d58d"}, {"bike_id": "3e5ee2f70b7ba945eee674974333b550", "lat": 38.9565125, "is_disabled": 0, "lon": -77.01969366666667, "fusion_lon": 0.0, "is_reserved": 0, "fusion_lat": 0.0, "rental_uris": {"android": "https://dc.lft.to/lastmile_qr_scan", "ios": "https://dc.lft.to/lastmile_qr_scan"}, "type": "electric_scooter", "name": "3e5ee2f70b7ba945eee674974333b550"}, {"bike_id": "070831a2123ddf90596710bd1be423c4", "lat": 38.971943333333336, "is_disabled": 0, "lon": -77.02720483333333, "fusion_lon": 0.0, "is_reserved": 0, "fusion_lat": 0.0, "rental_uris": {"android": "https://dc.lft.to/lastmile_qr_scan", "ios": "https://dc.lft.to/lastmile_qr_scan"}, "type": "electric_bike", "name": "070831a2123ddf90596710bd1be423c4"}, {"bike_id": "bcf8df0ac213ad5a33075a934e654d56", "lat": 38.89195433333333, "is_disabled": 0, "lon": -77.02386366666667, "fusion_lon": 0.0, "is_reserved": 0, "fusion_lat": 0.0, "rental_uris": {"android": "https://dc.lft.to/lastmile_qr_scan", "ios": "https://dc.lft.to/lastmile_qr_scan"}, "type": "electric_scooter", "name": "bcf8df0ac213ad5a33075a934e654d56"}, {"bike_id": "263dbe2b91ee3cabee550ca79418411a", "lat": 38.879222666666664, "is_disabled": 0, "lon": -76.99543800000001, "fusion_lon": 0.0, "is_reserved": 0, "fusion_lat": 0.0, "rental_uris": {"android": "https://dc.lft.to/lastmile_qr_scan", "ios": "https://dc.lft.to/lastmile_qr_scan"}, "type": "electric_scooter", "name": "263dbe2b91ee3cabee550ca79418411a"}, {"bike_id": "092ed6db0ddf416a117c3eb087a52eaf", "lat": 38.925519333333334, "is_disabled": 0, "lon": -76.98312366666667, "fusion_lon": 0.0, "is_reserved": 0, "fusion_lat": 0.0, "rental_uris": {"android": "https://dc.lft.to/lastmile_qr_scan", "ios": "https://dc.lft.to/lastmile_qr_scan"}, "type": "electric_scooter", "name": "092ed6db0ddf416a117c3eb087a52eaf"}, {"bike_id": "591b27528d07081b3989719607fd09ea", "lat": 38.90239966666667, "is_disabled": 0, "lon": -77.0019575, "fusion_lon": 0.0, "is_reserved": 0, "fusion_lat": 0.0, "rental_uris": {"android": "https://dc.lft.to/lastmile_qr_scan", "ios": "https://dc.lft.to/lastmile_qr_scan"}, "type": "electric_scooter", "name": "591b27528d07081b3989719607fd09ea"}, {"bike_id": "ceeabcd118fc06a174f7454f46a63d89", "lat": 38.9206805, "is_disabled": 0, "lon": -77.03201633333333, "fusion_lon": 0.0, "is_reserved": 0, "fusion_lat": 0.0, "rental_uris": {"android": "https://dc.lft.to/lastmile_qr_scan", "ios": "https://dc.lft.to/lastmile_qr_scan"}, "type": "electric_scooter", "name": "ceeabcd118fc06a174f7454f46a63d89"}, {"bike_id": "d95f8cde6430bf22d4f8a3e15aaba9e7", "lat": 38.87139, "is_disabled": 0, "lon": -77.006736, "fusion_lon": 0.0, "is_reserved": 0, "fusion_lat": 0.0, "rental_uris": {"android": "https://dc.lft.to/lastmile_qr_scan", "ios": "https://dc.lft.to/lastmile_qr_scan"}, "type": "electric_scooter", "name": "d95f8cde6430bf22d4f8a3e15aaba9e7"}, {"bike_id": "f983e76daf028f2eb9598ad8d65b9ccb", "lat": 38.920196833333335, "is_disabled": 0, "lon": -76.9956795, "fusion_lon": 0.0, "is_reserved": 0, "fusion_lat": 0.0, "rental_uris": {"android": "https://dc.lft.to/lastmile_qr_scan", "ios": "https://dc.lft.to/lastmile_qr_scan"}, "type": "electric_scooter", "name": "f983e76daf028f2eb9598ad8d65b9ccb"}, {"bike_id": "53cc2306916cd1115f21fc574806c8d0", "lat": 38.900250666666665, "is_disabled": 0, "lon": -77.00206916666667, "fusion_lon": 0.0, "is_reserved": 0, "fusion_lat": 0.0, "rental_uris": {"android": "https://dc.lft.to/lastmile_qr_scan", "ios": "https://dc.lft.to/lastmile_qr_scan"}, "type": "electric_scooter", "name": "53cc2306916cd1115f21fc574806c8d0"}, {"bike_id": "e9ff3c51e0e9009d431c4e0ab0768230", "lat": 38.89912116666667, "is_disabled": 0, "lon": -76.9337745, "fusion_lon": 0.0, "is_reserved": 0, "fusion_lat": 0.0, "rental_uris": {"android": "https://dc.lft.to/lastmile_qr_scan", "ios": "https://dc.lft.to/lastmile_qr_scan"}, "type": "electric_scooter", "name": "e9ff3c51e0e9009d431c4e0ab0768230"}, {"bike_id": "823894981e7ac3f632b4fe311f920f0b", "lat": 38.915156333333336, "is_disabled": 0, "lon": -76.980686, "fusion_lon": 0.0, "is_reserved": 0, "fusion_lat": 0.0, "rental_uris": {"android": "https://dc.lft.to/lastmile_qr_scan", "ios": "https://dc.lft.to/lastmile_qr_scan"}, "type": "electric_scooter", "name": "823894981e7ac3f632b4fe311f920f0b"}, {"bike_id": "104385fa8f817c776489673d3577760f", "lat": 38.9056885, "is_disabled": 0, "lon": -77.04243366666667, "fusion_lon": 0.0, "is_reserved": 0, "fusion_lat": 0.0, "rental_uris": {"android": "https://dc.lft.to/lastmile_qr_scan", "ios": "https://dc.lft.to/lastmile_qr_scan"}, "type": "electric_scooter", "name": "104385fa8f817c776489673d3577760f"}, {"bike_id": "ffd15c518da0eb5e46b3b57f9d1fb58d", "lat": 38.937726, "is_disabled": 0, "lon": -77.022996, "fusion_lon": 0.0, "is_reserved": 0, "fusion_lat": 0.0, "rental_uris": {"android": "https://dc.lft.to/lastmile_qr_scan", "ios": "https://dc.lft.to/lastmile_qr_scan"}, "type": "electric_scooter", "name": "ffd15c518da0eb5e46b3b57f9d1fb58d"}, {"bike_id": "d90b8eba305854b750e6a1d36521c3f1", "lat": 38.88062383333333, "is_disabled": 0, "lon": -77.02554583333334, "fusion_lon": 0.0, "is_reserved": 0, "fusion_lat": 0.0, "rental_uris": {"android": "https://dc.lft.to/lastmile_qr_scan", "ios": "https://dc.lft.to/lastmile_qr_scan"}, "type": "electric_bike", "name": "d90b8eba305854b750e6a1d36521c3f1"}, {"bike_id": "42a21e537ff5a0f12e488e97ba46aa35", "lat": 38.8947105, "is_disabled": 0, "lon": -77.0186035, "fusion_lon": 0.0, "is_reserved": 0, "fusion_lat": 0.0, "rental_uris": {"android": "https://dc.lft.to/lastmile_qr_scan", "ios": "https://dc.lft.to/lastmile_qr_scan"}, "type": "electric_scooter", "name": "42a21e537ff5a0f12e488e97ba46aa35"}, {"bike_id": "e199e02cd7bba87ffa8653974fb910c4", "lat": 38.878858666666666, "is_disabled": 0, "lon": -77.00750083333334, "fusion_lon": 0.0, "is_reserved": 0, "fusion_lat": 0.0, "rental_uris": {"android": "https://dc.lft.to/lastmile_qr_scan", "ios": "https://dc.lft.to/lastmile_qr_scan"}, "type": "electric_scooter", "name": "e199e02cd7bba87ffa8653974fb910c4"}, {"bike_id": "64d496366aed4563f727039bf4e77b8b", "lat": 38.997848, "is_disabled": 0, "lon": -77.00752933333334, "fusion_lon": 0.0, "is_reserved": 0, "fusion_lat": 0.0, "rental_uris": {"android": "https://dc.lft.to/lastmile_qr_scan", "ios": "https://dc.lft.to/lastmile_qr_scan"}, "type": "electric_bike", "name": "64d496366aed4563f727039bf4e77b8b"}, {"bike_id": "c1bb0bbdab28e9eb00a1eb71213bd20c", "lat": 38.89290616666667, "is_disabled": 0, "lon": -77.00195566666666, "fusion_lon": 0.0, "is_reserved": 0, "fusion_lat": 0.0, "rental_uris": {"android": "https://dc.lft.to/lastmile_qr_scan", "ios": "https://dc.lft.to/lastmile_qr_scan"}, "type": "electric_scooter", "name": "c1bb0bbdab28e9eb00a1eb71213bd20c"}, {"bike_id": "2eab2228e29dca98aa46c28db437cde9", "lat": 38.92499383333333, "is_disabled": 0, "lon": -77.024476, "fusion_lon": 0.0, "is_reserved": 0, "fusion_lat": 0.0, "rental_uris": {"android": "https://dc.lft.to/lastmile_qr_scan", "ios": "https://dc.lft.to/lastmile_qr_scan"}, "type": "electric_scooter", "name": "2eab2228e29dca98aa46c28db437cde9"}, {"bike_id": "8647694ea48b6713b21ae6ac980beb23", "lat": 38.91817066666667, "is_disabled": 0, "lon": -77.03441766666667, "fusion_lon": 0.0, "is_reserved": 0, "fusion_lat": 0.0, "rental_uris": {"android": "https://dc.lft.to/lastmile_qr_scan", "ios": "https://dc.lft.to/lastmile_qr_scan"}, "type": "electric_scooter", "name": "8647694ea48b6713b21ae6ac980beb23"}, {"bike_id": "6bccc702219c2374668daa79a28ab5af", "lat": 38.91803816666667, "is_disabled": 0, "lon": -77.02706533333334, "fusion_lon": 0.0, "is_reserved": 0, "fusion_lat": 0.0, "rental_uris": {"android": "https://dc.lft.to/lastmile_qr_scan", "ios": "https://dc.lft.to/lastmile_qr_scan"}, "type": "electric_scooter", "name": "6bccc702219c2374668daa79a28ab5af"}, {"bike_id": "00c038b9ebab654ec6d785aeaa22aac7", "lat": 38.916251833333334, "is_disabled": 0, "lon": -77.03642133333334, "fusion_lon": 0.0, "is_reserved": 0, "fusion_lat": 0.0, "rental_uris": {"android": "https://dc.lft.to/lastmile_qr_scan", "ios": "https://dc.lft.to/lastmile_qr_scan"}, "type": "electric_scooter", "name": "00c038b9ebab654ec6d785aeaa22aac7"}, {"bike_id": "94ca1c5982e3f3901a8aea7af345d91b", "lat": 38.909615, "is_disabled": 0, "lon": -77.04631633333334, "fusion_lon": 0.0, "is_reserved": 0, "fusion_lat": 0.0, "rental_uris": {"android": "https://dc.lft.to/lastmile_qr_scan", "ios": "https://dc.lft.to/lastmile_qr_scan"}, "type": "electric_scooter", "name": "94ca1c5982e3f3901a8aea7af345d91b"}, {"bike_id": "ffd95d87f74c0d38c18873383b5d3731", "lat": 38.896435333333336, "is_disabled": 0, "lon": -77.03206066666667, "fusion_lon": 0.0, "is_reserved": 0, "fusion_lat": 0.0, "rental_uris": {"android": "https://dc.lft.to/lastmile_qr_scan", "ios": "https://dc.lft.to/lastmile_qr_scan"}, "type": "electric_scooter", "name": "ffd95d87f74c0d38c18873383b5d3731"}, {"bike_id": "1a1a637ee29acd3f4b4f1b8aa56948cc", "lat": 38.9159015, "is_disabled": 0, "lon": -77.0230135, "fusion_lon": 0.0, "is_reserved": 0, "fusion_lat": 0.0, "rental_uris": {"android": "https://dc.lft.to/lastmile_qr_scan", "ios": "https://dc.lft.to/lastmile_qr_scan"}, "type": "electric_scooter", "name": "1a1a637ee29acd3f4b4f1b8aa56948cc"}, {"bike_id": "0243254e536f98a0c5e1fd3525af757a", "lat": 38.907296333333335, "is_disabled": 0, "lon": -77.04380416666666, "fusion_lon": 0.0, "is_reserved": 0, "fusion_lat": 0.0, "rental_uris": {"android": "https://dc.lft.to/lastmile_qr_scan", "ios": "https://dc.lft.to/lastmile_qr_scan"}, "type": "electric_scooter", "name": "0243254e536f98a0c5e1fd3525af757a"}, {"bike_id": "1d68c8ab922f7300734e6ffa9e5eec71", "lat": 38.906258333333334, "is_disabled": 0, "lon": -77.0417375, "fusion_lon": 0.0, "is_reserved": 0, "fusion_lat": 0.0, "rental_uris": {"android": "https://dc.lft.to/lastmile_qr_scan", "ios": "https://dc.lft.to/lastmile_qr_scan"}, "type": "electric_scooter", "name": "1d68c8ab922f7300734e6ffa9e5eec71"}, {"bike_id": "a1d4ffd95510e436a05cc969d3c16863", "lat": 38.894475, "is_disabled": 0, "lon": -76.98075816666666, "fusion_lon": 0.0, "is_reserved": 0, "fusion_lat": 0.0, "rental_uris": {"android": "https://dc.lft.to/lastmile_qr_scan", "ios": "https://dc.lft.to/lastmile_qr_scan"}, "type": "electric_scooter", "name": "a1d4ffd95510e436a05cc969d3c16863"}, {"bike_id": "dec438e3e7889a08c3383be5d1513295", "lat": 38.86660116666667, "is_disabled": 0, "lon": -76.98886316666666, "fusion_lon": 0.0, "is_reserved": 0, "fusion_lat": 0.0, "rental_uris": {"android": "https://dc.lft.to/lastmile_qr_scan", "ios": "https://dc.lft.to/lastmile_qr_scan"}, "type": "electric_scooter", "name": "dec438e3e7889a08c3383be5d1513295"}, {"bike_id": "ce6b3fee76272347b6a0184f18d0f1d4", "lat": 38.904129166666664, "is_disabled": 0, "lon": -77.01737516666667, "fusion_lon": 0.0, "is_reserved": 0, "fusion_lat": 0.0, "rental_uris": {"android": "https://dc.lft.to/lastmile_qr_scan", "ios": "https://dc.lft.to/lastmile_qr_scan"}, "type": "electric_scooter", "name": "ce6b3fee76272347b6a0184f18d0f1d4"}, {"bike_id": "1ce830e800914172a87eef6ad94d038a", "lat": 38.916335, "is_disabled": 0, "lon": -77.032056, "fusion_lon": 0.0, "is_reserved": 0, "fusion_lat": 0.0, "rental_uris": {"android": "https://dc.lft.to/lastmile_qr_scan", "ios": "https://dc.lft.to/lastmile_qr_scan"}, "type": "electric_scooter", "name": "1ce830e800914172a87eef6ad94d038a"}, {"bike_id": "d0a50908e00e35e9b0b884cfb94ccfb4", "lat": 38.88711516666667, "is_disabled": 0, "lon": -77.03216166666667, "fusion_lon": 0.0, "is_reserved": 0, "fusion_lat": 0.0, "rental_uris": {"android": "https://dc.lft.to/lastmile_qr_scan", "ios": "https://dc.lft.to/lastmile_qr_scan"}, "type": "electric_scooter", "name": "d0a50908e00e35e9b0b884cfb94ccfb4"}, {"bike_id": "7e73cc75f18151fad5e20196c01e9b15", "lat": 38.93319, "is_disabled": 0, "lon": -77.03813033333333, "fusion_lon": 0.0, "is_reserved": 0, "fusion_lat": 0.0, "rental_uris": {"android": "https://dc.lft.to/lastmile_qr_scan", "ios": "https://dc.lft.to/lastmile_qr_scan"}, "type": "electric_scooter", "name": "7e73cc75f18151fad5e20196c01e9b15"}, {"bike_id": "013d3f407ef2e6e9068f6cb9d314bdd1", "lat": 38.923436, "is_disabled": 0, "lon": -77.036485, "fusion_lon": 0.0, "is_reserved": 0, "fusion_lat": 0.0, "rental_uris": {"android": "https://dc.lft.to/lastmile_qr_scan", "ios": "https://dc.lft.to/lastmile_qr_scan"}, "type": "electric_scooter", "name": "013d3f407ef2e6e9068f6cb9d314bdd1"}, {"bike_id": "a190490186d73776b30ac2124a634fff", "lat": 38.859979, "is_disabled": 0, "lon": -76.98555583333334, "fusion_lon": 0.0, "is_reserved": 0, "fusion_lat": 0.0, "rental_uris": {"android": "https://dc.lft.to/lastmile_qr_scan", "ios": "https://dc.lft.to/lastmile_qr_scan"}, "type": "electric_scooter", "name": "a190490186d73776b30ac2124a634fff"}, {"bike_id": "ed372a9dcf0762967f2df51277f8f48a", "lat": 38.927929666666664, "is_disabled": 0, "lon": -77.05417166666666, "fusion_lon": 0.0, "is_reserved": 0, "fusion_lat": 0.0, "rental_uris": {"android": "https://dc.lft.to/lastmile_qr_scan", "ios": "https://dc.lft.to/lastmile_qr_scan"}, "type": "electric_scooter", "name": "ed372a9dcf0762967f2df51277f8f48a"}, {"bike_id": "13533de4d0969c55824dd4efdb11196e", "lat": 38.91368216666667, "is_disabled": 0, "lon": -77.04650466666666, "fusion_lon": 0.0, "is_reserved": 0, "fusion_lat": 0.0, "rental_uris": {"android": "https://dc.lft.to/lastmile_qr_scan", "ios": "https://dc.lft.to/lastmile_qr_scan"}, "type": "electric_scooter", "name": "13533de4d0969c55824dd4efdb11196e"}, {"bike_id": "0307d2b9a311b2b4884432f4638239f7", "lat": 38.89944833333333, "is_disabled": 0, "lon": -77.04192066666667, "fusion_lon": 0.0, "is_reserved": 0, "fusion_lat": 0.0, "rental_uris": {"android": "https://dc.lft.to/lastmile_qr_scan", "ios": "https://dc.lft.to/lastmile_qr_scan"}, "type": "electric_scooter", "name": "0307d2b9a311b2b4884432f4638239f7"}, {"bike_id": "78926efd60d5feb3cbd1eb6e99f7d4f9", "lat": 38.910194833333335, "is_disabled": 0, "lon": -77.04453366666667, "fusion_lon": 0.0, "is_reserved": 0, "fusion_lat": 0.0, "rental_uris": {"android": "https://dc.lft.to/lastmile_qr_scan", "ios": "https://dc.lft.to/lastmile_qr_scan"}, "type": "electric_scooter", "name": "78926efd60d5feb3cbd1eb6e99f7d4f9"}, {"bike_id": "c99f392c0391356f145b9fda46382ce1", "lat": 38.899798833333335, "is_disabled": 0, "lon": -77.02119483333334, "fusion_lon": 0.0, "is_reserved": 0, "fusion_lat": 0.0, "rental_uris": {"android": "https://dc.lft.to/lastmile_qr_scan", "ios": "https://dc.lft.to/lastmile_qr_scan"}, "type": "electric_scooter", "name": "c99f392c0391356f145b9fda46382ce1"}, {"bike_id": "915f4fdb3981fe472419d0ffbd97a2c9", "lat": 38.90833033333333, "is_disabled": 0, "lon": -77.003714, "fusion_lon": 0.0, "is_reserved": 0, "fusion_lat": 0.0, "rental_uris": {"android": "https://dc.lft.to/lastmile_qr_scan", "ios": "https://dc.lft.to/lastmile_qr_scan"}, "type": "electric_scooter", "name": "915f4fdb3981fe472419d0ffbd97a2c9"}, {"bike_id": "2dbd09d63eed21e2e85f777be7378f39", "lat": 38.874002833333336, "is_disabled": 0, "lon": -76.96983066666667, "fusion_lon": 0.0, "is_reserved": 0, "fusion_lat": 0.0, "rental_uris": {"android": "https://dc.lft.to/lastmile_qr_scan", "ios": "https://dc.lft.to/lastmile_qr_scan"}, "type": "electric_scooter", "name": "2dbd09d63eed21e2e85f777be7378f39"}, {"bike_id": "8c9f517bb6210f7c26939a8ecdad2004", "lat": 38.93153866666667, "is_disabled": 0, "lon": -77.031958, "fusion_lon": 0.0, "is_reserved": 0, "fusion_lat": 0.0, "rental_uris": {"android": "https://dc.lft.to/lastmile_qr_scan", "ios": "https://dc.lft.to/lastmile_qr_scan"}, "type": "electric_scooter", "name": "8c9f517bb6210f7c26939a8ecdad2004"}, {"bike_id": "9ee199b571d5a7c06506427db8e13fa6", "lat": 38.8842925, "is_disabled": 0, "lon": -76.95758716666667, "fusion_lon": 0.0, "is_reserved": 0, "fusion_lat": 0.0, "rental_uris": {"android": "https://dc.lft.to/lastmile_qr_scan", "ios": "https://dc.lft.to/lastmile_qr_scan"}, "type": "electric_scooter", "name": "9ee199b571d5a7c06506427db8e13fa6"}, {"bike_id": "1fb984682e68919e7a2d4584ab4eb85f", "lat": 38.89222766666666, "is_disabled": 0, "lon": -77.01395116666667, "fusion_lon": 0.0, "is_reserved": 0, "fusion_lat": 0.0, "rental_uris": {"android": "https://dc.lft.to/lastmile_qr_scan", "ios": "https://dc.lft.to/lastmile_qr_scan"}, "type": "electric_scooter", "name": "1fb984682e68919e7a2d4584ab4eb85f"}, {"bike_id": "0f9a36d6436819f291829a3964152035", "lat": 38.86329833333333, "is_disabled": 0, "lon": -76.987251, "fusion_lon": 0.0, "is_reserved": 0, "fusion_lat": 0.0, "rental_uris": {"android": "https://dc.lft.to/lastmile_qr_scan", "ios": "https://dc.lft.to/lastmile_qr_scan"}, "type": "electric_bike", "name": "0f9a36d6436819f291829a3964152035"}, {"bike_id": "1246d3b8f00ca714f6b629f7aebd0c52", "lat": 38.9068795, "is_disabled": 0, "lon": -77.0269195, "fusion_lon": 0.0, "is_reserved": 0, "fusion_lat": 0.0, "rental_uris": {"android": "https://dc.lft.to/lastmile_qr_scan", "ios": "https://dc.lft.to/lastmile_qr_scan"}, "type": "electric_scooter", "name": "1246d3b8f00ca714f6b629f7aebd0c52"}, {"bike_id": "18e3699340e413dbc02224c23ae56d01", "lat": 38.90309033333333, "is_disabled": 0, "lon": -76.978037, "fusion_lon": 0.0, "is_reserved": 0, "fusion_lat": 0.0, "rental_uris": {"android": "https://dc.lft.to/lastmile_qr_scan", "ios": "https://dc.lft.to/lastmile_qr_scan"}, "type": "electric_scooter", "name": "18e3699340e413dbc02224c23ae56d01"}, {"bike_id": "ef0cc64604e9291f96b8822129a56e03", "lat": 38.907234833333334, "is_disabled": 0, "lon": -77.03996366666667, "fusion_lon": 0.0, "is_reserved": 0, "fusion_lat": 0.0, "rental_uris": {"android": "https://dc.lft.to/lastmile_qr_scan", "ios": "https://dc.lft.to/lastmile_qr_scan"}, "type": "electric_scooter", "name": "ef0cc64604e9291f96b8822129a56e03"}, {"bike_id": "285ff854933edcfec81c992ca6372813", "lat": 38.92333766666667, "is_disabled": 0, "lon": -77.0539365, "fusion_lon": 0.0, "is_reserved": 0, "fusion_lat": 0.0, "rental_uris": {"android": "https://dc.lft.to/lastmile_qr_scan", "ios": "https://dc.lft.to/lastmile_qr_scan"}, "type": "electric_scooter", "name": "285ff854933edcfec81c992ca6372813"}, {"bike_id": "b44bf8fb322aeed728e65763fde1f502", "lat": 38.9161565, "is_disabled": 0, "lon": -77.04643333333334, "fusion_lon": 0.0, "is_reserved": 0, "fusion_lat": 0.0, "rental_uris": {"android": "https://dc.lft.to/lastmile_qr_scan", "ios": "https://dc.lft.to/lastmile_qr_scan"}, "type": "electric_scooter", "name": "b44bf8fb322aeed728e65763fde1f502"}, {"bike_id": "07f1d52bc1641cce5108f415adba8bcf", "lat": 38.892237, "is_disabled": 0, "lon": -77.04333416666667, "fusion_lon": 0.0, "is_reserved": 0, "fusion_lat": 0.0, "rental_uris": {"android": "https://dc.lft.to/lastmile_qr_scan", "ios": "https://dc.lft.to/lastmile_qr_scan"}, "type": "electric_scooter", "name": "07f1d52bc1641cce5108f415adba8bcf"}, {"bike_id": "1838ce353e73beccfdab194e2c80dbe9", "lat": 38.89174633333333, "is_disabled": 0, "lon": -77.0156395, "fusion_lon": 0.0, "is_reserved": 0, "fusion_lat": 0.0, "rental_uris": {"android": "https://dc.lft.to/lastmile_qr_scan", "ios": "https://dc.lft.to/lastmile_qr_scan"}, "type": "electric_scooter", "name": "1838ce353e73beccfdab194e2c80dbe9"}, {"bike_id": "1f9f04d5d4ec777911d5ca4530ba6ade", "lat": 38.92056683333333, "is_disabled": 0, "lon": -77.032698, "fusion_lon": 0.0, "is_reserved": 0, "fusion_lat": 0.0, "rental_uris": {"android": "https://dc.lft.to/lastmile_qr_scan", "ios": "https://dc.lft.to/lastmile_qr_scan"}, "type": "electric_scooter", "name": "1f9f04d5d4ec777911d5ca4530ba6ade"}, {"bike_id": "be61c97998af8413793f2c2e1a9ad39e", "lat": 38.923470333333334, "is_disabled": 0, "lon": -77.01904666666667, "fusion_lon": 0.0, "is_reserved": 0, "fusion_lat": 0.0, "rental_uris": {"android": "https://dc.lft.to/lastmile_qr_scan", "ios": "https://dc.lft.to/lastmile_qr_scan"}, "type": "electric_scooter", "name": "be61c97998af8413793f2c2e1a9ad39e"}, {"bike_id": "c72bd1b0fcee82937f5d4337518810cb", "lat": 38.896194, "is_disabled": 0, "lon": -76.9073955, "fusion_lon": 0.0, "is_reserved": 0, "fusion_lat": 0.0, "rental_uris": {"android": "https://dc.lft.to/lastmile_qr_scan", "ios": "https://dc.lft.to/lastmile_qr_scan"}, "type": "electric_bike", "name": "c72bd1b0fcee82937f5d4337518810cb"}, {"bike_id": "6b608f467ba65356478046ef671fae21", "lat": 38.9195585, "is_disabled": 0, "lon": -77.02501533333333, "fusion_lon": 0.0, "is_reserved": 0, "fusion_lat": 0.0, "rental_uris": {"android": "https://dc.lft.to/lastmile_qr_scan", "ios": "https://dc.lft.to/lastmile_qr_scan"}, "type": "electric_scooter", "name": "6b608f467ba65356478046ef671fae21"}, {"bike_id": "517a5a095830a96b15b9398766f2a3b9", "lat": 38.91651316666667, "is_disabled": 0, "lon": -77.0227225, "fusion_lon": 0.0, "is_reserved": 0, "fusion_lat": 0.0, "rental_uris": {"android": "https://dc.lft.to/lastmile_qr_scan", "ios": "https://dc.lft.to/lastmile_qr_scan"}, "type": "electric_scooter", "name": "517a5a095830a96b15b9398766f2a3b9"}, {"bike_id": "0c7ba74e47b705549e42945b44bbbba4", "lat": 38.92089933333333, "is_disabled": 0, "lon": -77.024213, "fusion_lon": 0.0, "is_reserved": 0, "fusion_lat": 0.0, "rental_uris": {"android": "https://dc.lft.to/lastmile_qr_scan", "ios": "https://dc.lft.to/lastmile_qr_scan"}, "type": "electric_scooter", "name": "0c7ba74e47b705549e42945b44bbbba4"}, {"bike_id": "3490a5cebbe169829e0715ff539fe688", "lat": 38.91415216666667, "is_disabled": 0, "lon": -77.03995766666667, "fusion_lon": 0.0, "is_reserved": 0, "fusion_lat": 0.0, "rental_uris": {"android": "https://dc.lft.to/lastmile_qr_scan", "ios": "https://dc.lft.to/lastmile_qr_scan"}, "type": "electric_scooter", "name": "3490a5cebbe169829e0715ff539fe688"}, {"bike_id": "252b41837f2a9fc365ef7fc593506ce9", "lat": 38.9229625, "is_disabled": 0, "lon": -77.04148483333333, "fusion_lon": 0.0, "is_reserved": 0, "fusion_lat": 0.0, "rental_uris": {"android": "https://dc.lft.to/lastmile_qr_scan", "ios": "https://dc.lft.to/lastmile_qr_scan"}, "type": "electric_scooter", "name": "252b41837f2a9fc365ef7fc593506ce9"}, {"bike_id": "955b3892169c8bb52aeb436fbe082b02", "lat": 38.915687, "is_disabled": 0, "lon": -77.02006583333333, "fusion_lon": 0.0, "is_reserved": 0, "fusion_lat": 0.0, "rental_uris": {"android": "https://dc.lft.to/lastmile_qr_scan", "ios": "https://dc.lft.to/lastmile_qr_scan"}, "type": "electric_scooter", "name": "955b3892169c8bb52aeb436fbe082b02"}, {"bike_id": "eaf75ed5c46acade083c5a357b83ae57", "lat": 38.9005635, "is_disabled": 0, "lon": -76.98522483333333, "fusion_lon": 0.0, "is_reserved": 0, "fusion_lat": 0.0, "rental_uris": {"android": "https://dc.lft.to/lastmile_qr_scan", "ios": "https://dc.lft.to/lastmile_qr_scan"}, "type": "electric_scooter", "name": "eaf75ed5c46acade083c5a357b83ae57"}, {"bike_id": "c123ffb31948d14fbc9d282409c63520", "lat": 38.925120166666666, "is_disabled": 0, "lon": -77.03878883333333, "fusion_lon": 0.0, "is_reserved": 0, "fusion_lat": 0.0, "rental_uris": {"android": "https://dc.lft.to/lastmile_qr_scan", "ios": "https://dc.lft.to/lastmile_qr_scan"}, "type": "electric_scooter", "name": "c123ffb31948d14fbc9d282409c63520"}, {"bike_id": "9ecb1cf3a63ba257531c792b498c2b52", "lat": 38.90245633333333, "is_disabled": 0, "lon": -77.01762816666667, "fusion_lon": 0.0, "is_reserved": 0, "fusion_lat": 0.0, "rental_uris": {"android": "https://dc.lft.to/lastmile_qr_scan", "ios": "https://dc.lft.to/lastmile_qr_scan"}, "type": "electric_scooter", "name": "9ecb1cf3a63ba257531c792b498c2b52"}, {"bike_id": "91a8b08b937f54750992452817c941e4", "lat": 38.94309833333333, "is_disabled": 0, "lon": -77.05927083333333, "fusion_lon": 0.0, "is_reserved": 0, "fusion_lat": 0.0, "rental_uris": {"android": "https://dc.lft.to/lastmile_qr_scan", "ios": "https://dc.lft.to/lastmile_qr_scan"}, "type": "electric_scooter", "name": "91a8b08b937f54750992452817c941e4"}, {"bike_id": "7e7f30817669b50dc47ad091e6a529eb", "lat": 38.926712333333334, "is_disabled": 0, "lon": -76.9951025, "fusion_lon": 0.0, "is_reserved": 0, "fusion_lat": 0.0, "rental_uris": {"android": "https://dc.lft.to/lastmile_qr_scan", "ios": "https://dc.lft.to/lastmile_qr_scan"}, "type": "electric_scooter", "name": "7e7f30817669b50dc47ad091e6a529eb"}, {"bike_id": "db2114bb50b4de2f62f6eba5de2b3ccb", "lat": 38.924150833333336, "is_disabled": 0, "lon": -76.99798266666667, "fusion_lon": 0.0, "is_reserved": 0, "fusion_lat": 0.0, "rental_uris": {"android": "https://dc.lft.to/lastmile_qr_scan", "ios": "https://dc.lft.to/lastmile_qr_scan"}, "type": "electric_scooter", "name": "db2114bb50b4de2f62f6eba5de2b3ccb"}, {"bike_id": "188f725780f14d86a812a6ac9080fa80", "lat": 38.892215, "is_disabled": 0, "lon": -77.02779366666667, "fusion_lon": 0.0, "is_reserved": 0, "fusion_lat": 0.0, "rental_uris": {"android": "https://dc.lft.to/lastmile_qr_scan", "ios": "https://dc.lft.to/lastmile_qr_scan"}, "type": "electric_scooter", "name": "188f725780f14d86a812a6ac9080fa80"}, {"bike_id": "828781b514858c2add9653ff43bc18df", "lat": 38.91137033333333, "is_disabled": 0, "lon": -77.0467, "fusion_lon": 0.0, "is_reserved": 0, "fusion_lat": 0.0, "rental_uris": {"android": "https://dc.lft.to/lastmile_qr_scan", "ios": "https://dc.lft.to/lastmile_qr_scan"}, "type": "electric_scooter", "name": "828781b514858c2add9653ff43bc18df"}, {"bike_id": "3ec0ddef215209f0ae5ad082143bff72", "lat": 38.90581866666667, "is_disabled": 0, "lon": -77.03342683333334, "fusion_lon": 0.0, "is_reserved": 0, "fusion_lat": 0.0, "rental_uris": {"android": "https://dc.lft.to/lastmile_qr_scan", "ios": "https://dc.lft.to/lastmile_qr_scan"}, "type": "electric_scooter", "name": "3ec0ddef215209f0ae5ad082143bff72"}, {"bike_id": "dfbe8f6bed4296c12a1d61f090baff24", "lat": 38.9100215, "is_disabled": 0, "lon": -77.04008166666667, "fusion_lon": 0.0, "is_reserved": 0, "fusion_lat": 0.0, "rental_uris": {"android": "https://dc.lft.to/lastmile_qr_scan", "ios": "https://dc.lft.to/lastmile_qr_scan"}, "type": "electric_scooter", "name": "dfbe8f6bed4296c12a1d61f090baff24"}, {"bike_id": "ae23c5c83dc6e71cb8e567d8704ba98c", "lat": 38.89247183333333, "is_disabled": 0, "lon": -77.04500783333333, "fusion_lon": 0.0, "is_reserved": 0, "fusion_lat": 0.0, "rental_uris": {"android": "https://dc.lft.to/lastmile_qr_scan", "ios": "https://dc.lft.to/lastmile_qr_scan"}, "type": "electric_scooter", "name": "ae23c5c83dc6e71cb8e567d8704ba98c"}, {"bike_id": "d88863ea1fb87ed2e6e73dc1ec988577", "lat": 38.889932, "is_disabled": 0, "lon": -77.00324933333333, "fusion_lon": 0.0, "is_reserved": 0, "fusion_lat": 0.0, "rental_uris": {"android": "https://dc.lft.to/lastmile_qr_scan", "ios": "https://dc.lft.to/lastmile_qr_scan"}, "type": "electric_scooter", "name": "d88863ea1fb87ed2e6e73dc1ec988577"}, {"bike_id": "3a7c5fd9a091cb1b2853aa94e2ad62ff", "lat": 38.910592, "is_disabled": 0, "lon": -77.02211366666667, "fusion_lon": 0.0, "is_reserved": 0, "fusion_lat": 0.0, "rental_uris": {"android": "https://dc.lft.to/lastmile_qr_scan", "ios": "https://dc.lft.to/lastmile_qr_scan"}, "type": "electric_scooter", "name": "3a7c5fd9a091cb1b2853aa94e2ad62ff"}, {"bike_id": "b7f8ef4704ecdf9cad1e1083ea7fcbd6", "lat": 38.90784016666667, "is_disabled": 0, "lon": -77.04509483333334, "fusion_lon": 0.0, "is_reserved": 0, "fusion_lat": 0.0, "rental_uris": {"android": "https://dc.lft.to/lastmile_qr_scan", "ios": "https://dc.lft.to/lastmile_qr_scan"}, "type": "electric_scooter", "name": "b7f8ef4704ecdf9cad1e1083ea7fcbd6"}, {"bike_id": "c98f9a5c6960bcfd3a415f83b90c6150", "lat": 38.937016166666666, "is_disabled": 0, "lon": -77.055999, "fusion_lon": 0.0, "is_reserved": 0, "fusion_lat": 0.0, "rental_uris": {"android": "https://dc.lft.to/lastmile_qr_scan", "ios": "https://dc.lft.to/lastmile_qr_scan"}, "type": "electric_scooter", "name": "c98f9a5c6960bcfd3a415f83b90c6150"}, {"bike_id": "317ec1c8fd6f8dde1ed7a0e9e2f16c98", "lat": 38.8878555, "is_disabled": 0, "lon": -77.03317383333334, "fusion_lon": 0.0, "is_reserved": 0, "fusion_lat": 0.0, "rental_uris": {"android": "https://dc.lft.to/lastmile_qr_scan", "ios": "https://dc.lft.to/lastmile_qr_scan"}, "type": "electric_scooter", "name": "317ec1c8fd6f8dde1ed7a0e9e2f16c98"}, {"bike_id": "75d0ec5b35277379f7f15092c5099a8d", "lat": 38.84684266666667, "is_disabled": 0, "lon": -76.98272233333333, "fusion_lon": 0.0, "is_reserved": 0, "fusion_lat": 0.0, "rental_uris": {"android": "https://dc.lft.to/lastmile_qr_scan", "ios": "https://dc.lft.to/lastmile_qr_scan"}, "type": "electric_bike", "name": "75d0ec5b35277379f7f15092c5099a8d"}, {"bike_id": "8214eca8e2887b4d19e759c8b5c92624", "lat": 38.972149, "is_disabled": 0, "lon": -77.033357, "fusion_lon": 0.0, "is_reserved": 0, "fusion_lat": 0.0, "rental_uris": {"android": "https://dc.lft.to/lastmile_qr_scan", "ios": "https://dc.lft.to/lastmile_qr_scan"}, "type": "electric_scooter", "name": "8214eca8e2887b4d19e759c8b5c92624"}, {"bike_id": "f934393cc7f148b35613b0fb536c5b43", "lat": 38.91811933333334, "is_disabled": 0, "lon": -77.032665, "fusion_lon": 0.0, "is_reserved": 0, "fusion_lat": 0.0, "rental_uris": {"android": "https://dc.lft.to/lastmile_qr_scan", "ios": "https://dc.lft.to/lastmile_qr_scan"}, "type": "electric_scooter", "name": "f934393cc7f148b35613b0fb536c5b43"}, {"bike_id": "0a85bc462cee8482fcf494e640bd84d4", "lat": 38.89347083333333, "is_disabled": 0, "lon": -76.95230666666667, "fusion_lon": 0.0, "is_reserved": 0, "fusion_lat": 0.0, "rental_uris": {"android": "https://dc.lft.to/lastmile_qr_scan", "ios": "https://dc.lft.to/lastmile_qr_scan"}, "type": "electric_scooter", "name": "0a85bc462cee8482fcf494e640bd84d4"}, {"bike_id": "eaf321fdfc2416430eaee60ab627a2ea", "lat": 38.893488833333336, "is_disabled": 0, "lon": -76.99264883333333, "fusion_lon": 0.0, "is_reserved": 0, "fusion_lat": 0.0, "rental_uris": {"android": "https://dc.lft.to/lastmile_qr_scan", "ios": "https://dc.lft.to/lastmile_qr_scan"}, "type": "electric_bike", "name": "eaf321fdfc2416430eaee60ab627a2ea"}, {"bike_id": "18ac8f2576a147c8d93575e504f2512b", "lat": 38.91915233333334, "is_disabled": 0, "lon": -77.02887483333333, "fusion_lon": 0.0, "is_reserved": 0, "fusion_lat": 0.0, "rental_uris": {"android": "https://dc.lft.to/lastmile_qr_scan", "ios": "https://dc.lft.to/lastmile_qr_scan"}, "type": "electric_scooter", "name": "18ac8f2576a147c8d93575e504f2512b"}, {"bike_id": "1e592625184cc77dd9cd769fd251885b", "lat": 38.912677, "is_disabled": 0, "lon": -77.04157333333333, "fusion_lon": 0.0, "is_reserved": 0, "fusion_lat": 0.0, "rental_uris": {"android": "https://dc.lft.to/lastmile_qr_scan", "ios": "https://dc.lft.to/lastmile_qr_scan"}, "type": "electric_scooter", "name": "1e592625184cc77dd9cd769fd251885b"}, {"bike_id": "eb83a1fa4419ac31239448c0bfaa9c70", "lat": 38.9044965, "is_disabled": 0, "lon": -77.05803016666667, "fusion_lon": 0.0, "is_reserved": 0, "fusion_lat": 0.0, "rental_uris": {"android": "https://dc.lft.to/lastmile_qr_scan", "ios": "https://dc.lft.to/lastmile_qr_scan"}, "type": "electric_scooter", "name": "eb83a1fa4419ac31239448c0bfaa9c70"}, {"bike_id": "a28731ea6a9055fa41aa6874f8e1a944", "lat": 38.93571133333333, "is_disabled": 0, "lon": -77.10608966666666, "fusion_lon": 0.0, "is_reserved": 0, "fusion_lat": 0.0, "rental_uris": {"android": "https://dc.lft.to/lastmile_qr_scan", "ios": "https://dc.lft.to/lastmile_qr_scan"}, "type": "electric_bike", "name": "a28731ea6a9055fa41aa6874f8e1a944"}, {"bike_id": "f59cc67e5862de2f1d19f7669dfd2f2d", "lat": 38.87112033333333, "is_disabled": 0, "lon": -77.00748666666667, "fusion_lon": 0.0, "is_reserved": 0, "fusion_lat": 0.0, "rental_uris": {"android": "https://dc.lft.to/lastmile_qr_scan", "ios": "https://dc.lft.to/lastmile_qr_scan"}, "type": "electric_scooter", "name": "f59cc67e5862de2f1d19f7669dfd2f2d"}, {"bike_id": "61606f899564e7854be4670d1afb79a8", "lat": 38.89179033333333, "is_disabled": 0, "lon": -76.99625766666666, "fusion_lon": 0.0, "is_reserved": 0, "fusion_lat": 0.0, "rental_uris": {"android": "https://dc.lft.to/lastmile_qr_scan", "ios": "https://dc.lft.to/lastmile_qr_scan"}, "type": "electric_scooter", "name": "61606f899564e7854be4670d1afb79a8"}, {"bike_id": "db310287c78355a2c717fa26039a0dfc", "lat": 38.89746233333334, "is_disabled": 0, "lon": -77.0078185, "fusion_lon": 0.0, "is_reserved": 0, "fusion_lat": 0.0, "rental_uris": {"android": "https://dc.lft.to/lastmile_qr_scan", "ios": "https://dc.lft.to/lastmile_qr_scan"}, "type": "electric_scooter", "name": "db310287c78355a2c717fa26039a0dfc"}, {"bike_id": "2fb5c0aa3757b876d8de96f7156e9eb4", "lat": 39.01569383333333, "is_disabled": 0, "lon": -77.04422716666667, "fusion_lon": 0.0, "is_reserved": 0, "fusion_lat": 0.0, "rental_uris": {"android": "https://dc.lft.to/lastmile_qr_scan", "ios": "https://dc.lft.to/lastmile_qr_scan"}, "type": "electric_bike", "name": "2fb5c0aa3757b876d8de96f7156e9eb4"}, {"bike_id": "e3b1d3f4c7c02b0b1d34e2a483f9a2f6", "lat": 38.89270233333333, "is_disabled": 0, "lon": -77.042079, "fusion_lon": 0.0, "is_reserved": 0, "fusion_lat": 0.0, "rental_uris": {"android": "https://dc.lft.to/lastmile_qr_scan", "ios": "https://dc.lft.to/lastmile_qr_scan"}, "type": "electric_scooter", "name": "e3b1d3f4c7c02b0b1d34e2a483f9a2f6"}, {"bike_id": "c08a4757a3f4bbbfce56308a010856dc", "lat": 38.91764783333333, "is_disabled": 0, "lon": -77.01230533333333, "fusion_lon": 0.0, "is_reserved": 0, "fusion_lat": 0.0, "rental_uris": {"android": "https://dc.lft.to/lastmile_qr_scan", "ios": "https://dc.lft.to/lastmile_qr_scan"}, "type": "electric_scooter", "name": "c08a4757a3f4bbbfce56308a010856dc"}, {"bike_id": "78f2383373f9ce47cd9d7c479a7e2567", "lat": 38.89219666666666, "is_disabled": 0, "lon": -77.02622733333334, "fusion_lon": 0.0, "is_reserved": 0, "fusion_lat": 0.0, "rental_uris": {"android": "https://dc.lft.to/lastmile_qr_scan", "ios": "https://dc.lft.to/lastmile_qr_scan"}, "type": "electric_scooter", "name": "78f2383373f9ce47cd9d7c479a7e2567"}, {"bike_id": "bb543a9db5f4b4d16a14478108c90f5e", "lat": 38.90823, "is_disabled": 0, "lon": -77.00231083333334, "fusion_lon": 0.0, "is_reserved": 0, "fusion_lat": 0.0, "rental_uris": {"android": "https://dc.lft.to/lastmile_qr_scan", "ios": "https://dc.lft.to/lastmile_qr_scan"}, "type": "electric_scooter", "name": "bb543a9db5f4b4d16a14478108c90f5e"}, {"bike_id": "d704e650c2e0b21a9a013de0c1988c25", "lat": 38.906126, "is_disabled": 0, "lon": -77.04146316666667, "fusion_lon": 0.0, "is_reserved": 0, "fusion_lat": 0.0, "rental_uris": {"android": "https://dc.lft.to/lastmile_qr_scan", "ios": "https://dc.lft.to/lastmile_qr_scan"}, "type": "electric_scooter", "name": "d704e650c2e0b21a9a013de0c1988c25"}, {"bike_id": "dbc6d88565a1974c192504243eec6e18", "lat": 38.87371983333333, "is_disabled": 0, "lon": -77.00141016666667, "fusion_lon": 0.0, "is_reserved": 0, "fusion_lat": 0.0, "rental_uris": {"android": "https://dc.lft.to/lastmile_qr_scan", "ios": "https://dc.lft.to/lastmile_qr_scan"}, "type": "electric_scooter", "name": "dbc6d88565a1974c192504243eec6e18"}, {"bike_id": "919ea7f283a8b27aa290be9b83e0e0ef", "lat": 38.933977666666664, "is_disabled": 0, "lon": -77.05745483333334, "fusion_lon": 0.0, "is_reserved": 0, "fusion_lat": 0.0, "rental_uris": {"android": "https://dc.lft.to/lastmile_qr_scan", "ios": "https://dc.lft.to/lastmile_qr_scan"}, "type": "electric_scooter", "name": "919ea7f283a8b27aa290be9b83e0e0ef"}, {"bike_id": "9b6c03cbf3f32b4de7f4ea053b4c9e4a", "lat": 38.90225733333333, "is_disabled": 0, "lon": -76.99269133333334, "fusion_lon": 0.0, "is_reserved": 0, "fusion_lat": 0.0, "rental_uris": {"android": "https://dc.lft.to/lastmile_qr_scan", "ios": "https://dc.lft.to/lastmile_qr_scan"}, "type": "electric_scooter", "name": "9b6c03cbf3f32b4de7f4ea053b4c9e4a"}, {"bike_id": "2ab9b36748c4805575d34157bd8e7a14", "lat": 38.909602166666666, "is_disabled": 0, "lon": -77.0074685, "fusion_lon": 0.0, "is_reserved": 0, "fusion_lat": 0.0, "rental_uris": {"android": "https://dc.lft.to/lastmile_qr_scan", "ios": "https://dc.lft.to/lastmile_qr_scan"}, "type": "electric_scooter", "name": "2ab9b36748c4805575d34157bd8e7a14"}, {"bike_id": "91d176e9eed4df30747d9e5bd7e41473", "lat": 38.876644666666664, "is_disabled": 0, "lon": -77.0094225, "fusion_lon": 0.0, "is_reserved": 0, "fusion_lat": 0.0, "rental_uris": {"android": "https://dc.lft.to/lastmile_qr_scan", "ios": "https://dc.lft.to/lastmile_qr_scan"}, "type": "electric_scooter", "name": "91d176e9eed4df30747d9e5bd7e41473"}, {"bike_id": "94282acadbcac70fb7f09cc84ff306b4", "lat": 38.904101, "is_disabled": 0, "lon": -77.02950683333333, "fusion_lon": 0.0, "is_reserved": 0, "fusion_lat": 0.0, "rental_uris": {"android": "https://dc.lft.to/lastmile_qr_scan", "ios": "https://dc.lft.to/lastmile_qr_scan"}, "type": "electric_scooter", "name": "94282acadbcac70fb7f09cc84ff306b4"}, {"bike_id": "40e7d7464d451f83339b1c649d052058", "lat": 38.87376, "is_disabled": 0, "lon": -77.0013495, "fusion_lon": 0.0, "is_reserved": 0, "fusion_lat": 0.0, "rental_uris": {"android": "https://dc.lft.to/lastmile_qr_scan", "ios": "https://dc.lft.to/lastmile_qr_scan"}, "type": "electric_scooter", "name": "40e7d7464d451f83339b1c649d052058"}, {"bike_id": "11c185bbce80c9637a9d56f0652f865b", "lat": 38.91735416666667, "is_disabled": 0, "lon": -77.0418055, "fusion_lon": 0.0, "is_reserved": 0, "fusion_lat": 0.0, "rental_uris": {"android": "https://dc.lft.to/lastmile_qr_scan", "ios": "https://dc.lft.to/lastmile_qr_scan"}, "type": "electric_scooter", "name": "11c185bbce80c9637a9d56f0652f865b"}, {"bike_id": "c04de76cbf5d68f4001ca75d3e112189", "lat": 38.9050705, "is_disabled": 0, "lon": -77.0433285, "fusion_lon": 0.0, "is_reserved": 0, "fusion_lat": 0.0, "rental_uris": {"android": "https://dc.lft.to/lastmile_qr_scan", "ios": "https://dc.lft.to/lastmile_qr_scan"}, "type": "electric_scooter", "name": "c04de76cbf5d68f4001ca75d3e112189"}, {"bike_id": "587d406c455866e6511c4dd20ff4cb38", "lat": 38.886833833333334, "is_disabled": 0, "lon": -77.0137175, "fusion_lon": 0.0, "is_reserved": 0, "fusion_lat": 0.0, "rental_uris": {"android": "https://dc.lft.to/lastmile_qr_scan", "ios": "https://dc.lft.to/lastmile_qr_scan"}, "type": "electric_scooter", "name": "587d406c455866e6511c4dd20ff4cb38"}, {"bike_id": "431e8a200e6ded68b8a5983eaa0ad4da", "lat": 38.918187333333336, "is_disabled": 0, "lon": -77.027025, "fusion_lon": 0.0, "is_reserved": 0, "fusion_lat": 0.0, "rental_uris": {"android": "https://dc.lft.to/lastmile_qr_scan", "ios": "https://dc.lft.to/lastmile_qr_scan"}, "type": "electric_scooter", "name": "431e8a200e6ded68b8a5983eaa0ad4da"}, {"bike_id": "7a21a302298d1bb3f6ab86d3519b7797", "lat": 38.91191633333333, "is_disabled": 0, "lon": -77.04222233333333, "fusion_lon": 0.0, "is_reserved": 0, "fusion_lat": 0.0, "rental_uris": {"android": "https://dc.lft.to/lastmile_qr_scan", "ios": "https://dc.lft.to/lastmile_qr_scan"}, "type": "electric_scooter", "name": "7a21a302298d1bb3f6ab86d3519b7797"}, {"bike_id": "d911db9c4ee4b4c71624c9278ff2b027", "lat": 38.857239, "is_disabled": 0, "lon": -76.9777415, "fusion_lon": 0.0, "is_reserved": 0, "fusion_lat": 0.0, "rental_uris": {"android": "https://dc.lft.to/lastmile_qr_scan", "ios": "https://dc.lft.to/lastmile_qr_scan"}, "type": "electric_bike", "name": "d911db9c4ee4b4c71624c9278ff2b027"}, {"bike_id": "ade620d725ef1787a3d4d2b28e4fe39f", "lat": 38.92264316666667, "is_disabled": 0, "lon": -77.02971883333333, "fusion_lon": 0.0, "is_reserved": 0, "fusion_lat": 0.0, "rental_uris": {"android": "https://dc.lft.to/lastmile_qr_scan", "ios": "https://dc.lft.to/lastmile_qr_scan"}, "type": "electric_scooter", "name": "ade620d725ef1787a3d4d2b28e4fe39f"}, {"bike_id": "c2890217eefad6f6177f9e4b9348adef", "lat": 38.91304366666667, "is_disabled": 0, "lon": -77.03648866666667, "fusion_lon": 0.0, "is_reserved": 0, "fusion_lat": 0.0, "rental_uris": {"android": "https://dc.lft.to/lastmile_qr_scan", "ios": "https://dc.lft.to/lastmile_qr_scan"}, "type": "electric_scooter", "name": "c2890217eefad6f6177f9e4b9348adef"}, {"bike_id": "d4fab3606157d9294ef226dc41a5e53a", "lat": 38.91113466666667, "is_disabled": 0, "lon": -77.00694816666666, "fusion_lon": 0.0, "is_reserved": 0, "fusion_lat": 0.0, "rental_uris": {"android": "https://dc.lft.to/lastmile_qr_scan", "ios": "https://dc.lft.to/lastmile_qr_scan"}, "type": "electric_scooter", "name": "d4fab3606157d9294ef226dc41a5e53a"},