{"data": {"bikes": [{"fusion_lon": 0.0, "bike_id": "b3f6adc4f3b011cbe906b240b7107390", "is_disabled": 0, "is_reserved": 0, "lat": 38.894010333333334, "name": "b3f6adc4f3b011cbe906b240b7107390", "rental_uris": {"ios": "https://dc.lft.to/lastmile_qr_scan", "android": "https://dc.lft.to/lastmile_qr_scan"}, "type": "electric_scooter", "fusion_lat": 0.0, "lon": -77.02456083333334}, {"fusion_lon": 0.0, "bike_id": "19229ed3980f6364b1db0165925692fe", "is_disabled": 0, "is_reserved": 0, "lat": 38.8051265, "name": "19229ed3980f6364b1db0165925692fe", "rental_uris": {"ios": "https://dc.lft.to/lastmile_qr_scan", "android": "https://dc.lft.to/lastmile_qr_scan"}, "type": "electric_bike", "fusion_lat": 0.0, "lon": -77.04807466666666}, {"fusion_lon": 0.0, "bike_id": "210e3429ae60ca08d7c464e99adcb565", "is_disabled": 0, "is_reserved": 0, "lat": 38.9214275, "name": "210e3429ae60ca08d7c464e99adcb565", "rental_uris": {"ios": "https://dc.lft.to/lastmile_qr_scan", "android": "https://dc.lft.to/lastmile_qr_scan"}, "type": "electric_scooter", "fusion_lat": 0.0, "lon": -77.02080066666667}, {"fusion_lon": 0.0, "bike_id": "48306fc79c42c573b3538d3e23c5444a", "is_disabled": 0, "is_reserved": 0, "lat": 38.911874, "name": "48306fc79c42c573b3538d3e23c5444a", "rental_uris": {"ios": "https://dc.lft.to/lastmile_qr_scan", "android": "https://dc.lft.to/lastmile_qr_scan"}, "type": "electric_scooter", "fusion_lat": 0.0, "lon": -77.00499116666667}, {"fusion_lon": 0.0, "bike_id": "1118b8448177c287f0bbe78cc9d61ef9", "is_disabled": 0, "is_reserved": 0, "lat": 38.88965833333334, "name": "1118b8448177c287f0bbe78cc9d61ef9", "rental_uris": {"ios": "https://dc.lft.to/lastmile_qr_scan", "android": "https://dc.lft.to/lastmile_qr_scan"}, "type": "electric_scooter", "fusion_lat": 0.0, "lon": -76.98033283333334}, {"fusion_lon": 0.0, "bike_id": "68dd240aecdd97af71ba80def5f88e63", "is_disabled": 0, "is_reserved": 0, "lat": 38.90249383333333, "name": "68dd240aecdd97af71ba80def5f88e63", "rental_uris": {"ios": "https://dc.lft.to/lastmile_qr_scan", "android": "https://dc.lft.to/lastmile_qr_scan"}, "type": "electric_scooter", "fusion_lat": 0.0, "lon": -77.0153225}, {"fusion_lon": 0.0, "bike_id": "025fb392e5563b2bf86f860676db87c2", "is_disabled": 0, "is_reserved": 0, "lat": 38.8942405, "name": "025fb392e5563b2bf86f860676db87c2", "rental_uris": {"ios": "https://dc.lft.to/lastmile_qr_scan", "android": "https://dc.lft.to/lastmile_qr_scan"}, "type": "electric_bike", "fusion_lat": 0.0, "lon": -77.09445783333334}, {"fusion_lon": 0.0, "bike_id": "a7a380d803c77b6013794a52a477e33c", "is_disabled": 0, "is_reserved": 0, "lat": 38.904269666666664, "name": "a7a380d803c77b6013794a52a477e33c", "rental_uris": {"ios": "https://dc.lft.to/lastmile_qr_scan", "android": "https://dc.lft.to/lastmile_qr_scan"}, "type": "electric_scooter", "fusion_lat": 0.0, "lon": -77.02852716666666}, {"fusion_lon": 0.0, "bike_id": "d25098c7f8db543c057beeb43169b429", "is_disabled": 0, "is_reserved": 0, "lat": 38.92795683333333, "name": "d25098c7f8db543c057beeb43169b429", "rental_uris": {"ios": "https://dc.lft.to/lastmile_qr_scan", "android": "https://dc.lft.to/lastmile_qr_scan"}, "type": "electric_scooter", "fusion_lat": 0.0, "lon": -77.0260225}, {"fusion_lon": 0.0, "bike_id": "a63ca26cf7d6a68de48443d9aca664ec", "is_disabled": 0, "is_reserved": 0, "lat": 38.97476566666667, "name": "a63ca26cf7d6a68de48443d9aca664ec", "rental_uris": {"ios": "https://dc.lft.to/lastmile_qr_scan", "android": "https://dc.lft.to/lastmile_qr_scan"}, "type": "electric_bike", "fusion_lat": 0.0, "lon": -76.98675983333334}, {"fusion_lon": 0.0, "bike_id": "b406c6b2654b06c3faae6658c46bb631", "is_disabled": 0, "is_reserved": 0, "lat": 38.9279515, "name": "b406c6b2654b06c3faae6658c46bb631", "rental_uris": {"ios": "https://dc.lft.to/lastmile_qr_scan", "android": "https://dc.lft.to/lastmile_qr_scan"}, "type": "electric_scooter", "fusion_lat": 0.0, "lon": -77.03612966666667}, {"fusion_lon": 0.0, "bike_id": "7872bb25f87f91c3cfa141909380170b", "is_disabled": 0, "is_reserved": 0, "lat": 39.022978333333334, "name": "7872bb25f87f91c3cfa141909380170b", "rental_uris": {"ios": "https://dc.lft.to/lastmile_qr_scan", "android": "https://dc.lft.to/lastmile_qr_scan"}, "type": "electric_bike", "fusion_lat": 0.0, "lon": -77.02105883333333}, {"fusion_lon": 0.0, "bike_id": "a41ed73c8296c0c1ea70276ca2ce80bb", "is_disabled": 0, "is_reserved": 0, "lat": 38.935471166666666, "name": "a41ed73c8296c0c1ea70276ca2ce80bb", "rental_uris": {"ios": "https://dc.lft.to/lastmile_qr_scan", "android": "https://dc.lft.to/lastmile_qr_scan"}, "type": "electric_scooter", "fusion_lat": 0.0, "lon": -77.025059}, {"fusion_lon": 0.0, "bike_id": "26940287df4680ea36d9b800677a2a41", "is_disabled": 0, "is_reserved": 0, "lat": 38.92953816666667, "name": "26940287df4680ea36d9b800677a2a41", "rental_uris": {"ios": "https://dc.lft.to/lastmile_qr_scan", "android": "https://dc.lft.to/lastmile_qr_scan"}, "type": "electric_scooter", "fusion_lat": 0.0, "lon": -77.05507433333334}, {"fusion_lon": 0.0, "bike_id": "d03c917fc5c7dbf993a3385963e7588e", "is_disabled": 0, "is_reserved": 0, "lat": 38.913215666666666, "name": "d03c917fc5c7dbf993a3385963e7588e", "rental_uris": {"ios": "https://dc.lft.to/lastmile_qr_scan", "android": "https://dc.lft.to/lastmile_qr_scan"}, "type": "electric_scooter", "fusion_lat": 0.0, "lon": -77.02199483333334}, {"fusion_lon": 0.0, "bike_id": "f122173893f3411d61996aafb6da0ece", "is_disabled": 0, "is_reserved": 0, "lat": 38.87763433333333, "name": "f122173893f3411d61996aafb6da0ece", "rental_uris": {"ios": "https://dc.lft.to/lastmile_qr_scan", "android": "https://dc.lft.to/lastmile_qr_scan"}, "type": "electric_scooter", "fusion_lat": 0.0, "lon": -77.01873766666667}, {"fusion_lon": 0.0, "bike_id": "322c3384a576303241c73951f2102a57", "is_disabled": 0, "is_reserved": 0, "lat": 38.919137166666665, "name": "322c3384a576303241c73951f2102a57", "rental_uris": {"ios": "https://dc.lft.to/lastmile_qr_scan", "android": "https://dc.lft.to/lastmile_qr_scan"}, "type": "electric_scooter", "fusion_lat": 0.0, "lon": -77.04632266666667}, {"fusion_lon": 0.0, "bike_id": "41477cf043266d4b882cc86c12d0b794", "is_disabled": 0, "is_reserved": 0, "lat": 38.90158783333333, "name": "41477cf043266d4b882cc86c12d0b794", "rental_uris": {"ios": "https://dc.lft.to/lastmile_qr_scan", "android": "https://dc.lft.to/lastmile_qr_scan"}, "type": "electric_scooter", "fusion_lat": 0.0, "lon": -77.05120066666667}, {"fusion_lon": 0.0, "bike_id": "e427b60d4906ecdc594536530c19060c", "is_disabled": 0, "is_reserved": 0, "lat": 38.8817795, "name": "e427b60d4906ecdc594536530c19060c", "rental_uris": {"ios": "https://dc.lft.to/lastmile_qr_scan", "android": "https://dc.lft.to/lastmile_qr_scan"}, "type": "electric_scooter", "fusion_lat": 0.0, "lon": -77.017473}, {"fusion_lon": 0.0, "bike_id": "5556671c226b91e349a40051f1f28101", "is_disabled": 0, "is_reserved": 0, "lat": 38.967788, "name": "5556671c226b91e349a40051f1f28101", "rental_uris": {"ios": "https://dc.lft.to/lastmile_qr_scan", "android": "https://dc.lft.to/lastmile_qr_scan"}, "type": "electric_bike", "fusion_lat": 0.0, "lon": -76.996504}, {"fusion_lon": 0.0, "bike_id": "d44c4093c685883d49238bdc403c02f4", "is_disabled": 0, "is_reserved": 0, "lat": 38.96682716666667, "name": "d44c4093c685883d49238bdc403c02f4", "rental_uris": {"ios": "https://dc.lft.to/lastmile_qr_scan", "android": "https://dc.lft.to/lastmile_qr_scan"}, "type": "electric_scooter", "fusion_lat": 0.0, "lon": -77.033958}, {"fusion_lon": 0.0, "bike_id": "455b5504d28fc50d7717c1a8a8e75c45", "is_disabled": 0, "is_reserved": 0, "lat": 38.91119916666667, "name": "455b5504d28fc50d7717c1a8a8e75c45", "rental_uris": {"ios": "https://dc.lft.to/lastmile_qr_scan", "android": "https://dc.lft.to/lastmile_qr_scan"}, "type": "electric_scooter", "fusion_lat": 0.0, "lon": -77.0115155}, {"fusion_lon": 0.0, "bike_id": "0dc7498542d6719383336b9690b91b39", "is_disabled": 0, "is_reserved": 0, "lat": 38.907487, "name": "0dc7498542d6719383336b9690b91b39", "rental_uris": {"ios": "https://dc.lft.to/lastmile_qr_scan", "android": "https://dc.lft.to/lastmile_qr_scan"}, "type": "electric_bike", "fusion_lat": 0.0, "lon": -77.0030475}, {"fusion_lon": 0.0, "bike_id": "6b399d9f52a73e6a0bac777d76d9c0ad", "is_disabled": 0, "is_reserved": 0, "lat": 38.89975866666666, "name": "6b399d9f52a73e6a0bac777d76d9c0ad", "rental_uris": {"ios": "https://dc.lft.to/lastmile_qr_scan", "android": "https://dc.lft.to/lastmile_qr_scan"}, "type": "electric_scooter", "fusion_lat": 0.0, "lon": -76.99487716666667}, {"fusion_lon": 0.0, "bike_id": "cc3ee3cae4a2beec06bd97024a87cd53", "is_disabled": 0, "is_reserved": 0, "lat": 38.89158316666666, "name": "cc3ee3cae4a2beec06bd97024a87cd53", "rental_uris": {"ios": "https://dc.lft.to/lastmile_qr_scan", "android": "https://dc.lft.to/lastmile_qr_scan"}, "type": "electric_scooter", "fusion_lat": 0.0, "lon": -76.98367466666667}, {"fusion_lon": 0.0, "bike_id": "b3930f24ae1269d5b6b4562161be7ef9", "is_disabled": 0, "is_reserved": 0, "lat": 38.908370166666664, "name": "b3930f24ae1269d5b6b4562161be7ef9", "rental_uris": {"ios": "https://dc.lft.to/lastmile_qr_scan", "android": "https://dc.lft.to/lastmile_qr_scan"}, "type": "electric_scooter", "fusion_lat": 0.0, "lon": -77.0225395}, {"fusion_lon": 0.0, "bike_id": "f1afa585fc8cdf8592310894e7a44e6e", "is_disabled": 0, "is_reserved": 0, "lat": 38.915761333333336, "name": "f1afa585fc8cdf8592310894e7a44e6e", "rental_uris": {"ios": "https://dc.lft.to/lastmile_qr_scan", "android": "https://dc.lft.to/lastmile_qr_scan"}, "type": "electric_scooter", "fusion_lat": 0.0, "lon": -77.03659683333333}, {"fusion_lon": 0.0, "bike_id": "4c59c7eb335bea1612ffb16f0de2379f", "is_disabled": 0, "is_reserved": 0, "lat": 38.89829116666667, "name": "4c59c7eb335bea1612ffb16f0de2379f", "rental_uris": {"ios": "https://dc.lft.to/lastmile_qr_scan", "android": "https://dc.lft.to/lastmile_qr_scan"}, "type": "electric_scooter", "fusion_lat": 0.0, "lon": -76.94649116666666}, {"fusion_lon": 0.0, "bike_id": "c12c02ba29fd675177d088b9e477af0b", "is_disabled": 0, "is_reserved": 0, "lat": 38.949203833333335, "name": "c12c02ba29fd675177d088b9e477af0b", "rental_uris": {"ios": "https://dc.lft.to/lastmile_qr_scan", "android": "https://dc.lft.to/lastmile_qr_scan"}, "type": "electric_scooter", "fusion_lat": 0.0, "lon": -77.0185865}, {"fusion_lon": 0.0, "bike_id": "3dff0f46d3c5379e871094f746cbe579", "is_disabled": 0, "is_reserved": 0, "lat": 38.90441466666667, "name": "3dff0f46d3c5379e871094f746cbe579", "rental_uris": {"ios": "https://dc.lft.to/lastmile_qr_scan", "android": "https://dc.lft.to/lastmile_qr_scan"}, "type": "electric_scooter", "fusion_lat": 0.0, "lon": -77.04821733333333}, {"fusion_lon": 0.0, "bike_id": "fcb27ba593a83cc61540b6cf5559bf68", "is_disabled": 0, "is_reserved": 0, "lat": 38.884892, "name": "fcb27ba593a83cc61540b6cf5559bf68", "rental_uris": {"ios": "https://dc.lft.to/lastmile_qr_scan", "android": "https://dc.lft.to/lastmile_qr_scan"}, "type": "electric_scooter", "fusion_lat": 0.0, "lon": -77.00713266666666}, {"fusion_lon": 0.0, "bike_id": "937a716e671c80ca6438a3a05382621c", "is_disabled": 0, "is_reserved": 0, "lat": 38.9033995, "name": "937a716e671c80ca6438a3a05382621c", "rental_uris": {"ios": "https://dc.lft.to/lastmile_qr_scan", "android": "https://dc.lft.to/lastmile_qr_scan"}, "type": "electric_scooter", "fusion_lat": 0.0, "lon": -77.05013216666667}, {"fusion_lon": 0.0, "bike_id": "9775226bf365e1c6ea368522f1a117c1", "is_disabled": 0, "is_reserved": 0, "lat": 38.922835666666664, "name": "9775226bf365e1c6ea368522f1a117c1", "rental_uris": {"ios": "https://dc.lft.to/lastmile_qr_scan", "android": "https://dc.lft.to/lastmile_qr_scan"}, "type": "electric_scooter", "fusion_lat": 0.0, "lon": -77.03662533333333}, {"fusion_lon": 0.0, "bike_id": "7ba99089286249380e1a39ffa502c30f", "is_disabled": 0, "is_reserved": 0, "lat": 38.9023035, "name": "7ba99089286249380e1a39ffa502c30f", "rental_uris": {"ios": "https://dc.lft.to/lastmile_qr_scan", "android": "https://dc.lft.to/lastmile_qr_scan"}, "type": "electric_scooter", "fusion_lat": 0.0, "lon": -77.0534195}, {"fusion_lon": 0.0, "bike_id": "51a32f4eb203d02d1fc2980108bf0d0a", "is_disabled": 0, "is_reserved": 0, "lat": 38.921166666666664, "name": "51a32f4eb203d02d1fc2980108bf0d0a", "rental_uris": {"ios": "https://dc.lft.to/lastmile_qr_scan", "android": "https://dc.lft.to/lastmile_qr_scan"}, "type": "electric_scooter", "fusion_lat": 0.0, "lon": -77.0367175}, {"fusion_lon": 0.0, "bike_id": "1b17b96ad0c51ca8f0c595145192b5a2", "is_disabled": 0, "is_reserved": 0, "lat": 38.9086195, "name": "1b17b96ad0c51ca8f0c595145192b5a2", "rental_uris": {"ios": "https://dc.lft.to/lastmile_qr_scan", "android": "https://dc.lft.to/lastmile_qr_scan"}, "type": "electric_scooter", "fusion_lat": 0.0, "lon": -77.01839033333333}, {"fusion_lon": 0.0, "bike_id": "00c67a1d43d868c5237a043d3ad650ea", "is_disabled": 0, "is_reserved": 0, "lat": 38.89491266666667, "name": "00c67a1d43d868c5237a043d3ad650ea", "rental_uris": {"ios": "https://dc.lft.to/lastmile_qr_scan", "android": "https://dc.lft.to/lastmile_qr_scan"}, "type": "electric_scooter", "fusion_lat": 0.0, "lon": -77.0551245}, {"fusion_lon": 0.0, "bike_id": "c5f9104c047bf9ecd866f346fb6bcf84", "is_disabled": 0, "is_reserved": 0, "lat": 38.892419, "name": "c5f9104c047bf9ecd866f346fb6bcf84", "rental_uris": {"ios": "https://dc.lft.to/lastmile_qr_scan", "android": "https://dc.lft.to/lastmile_qr_scan"}, "type": "electric_scooter", "fusion_lat": 0.0, "lon": -77.0318895}, {"fusion_lon": 0.0, "bike_id": "6f6be291534b20210f249fafe9c39a72", "is_disabled": 0, "is_reserved": 0, "lat": 38.891642, "name": "6f6be291534b20210f249fafe9c39a72", "rental_uris": {"ios": "https://dc.lft.to/lastmile_qr_scan", "android": "https://dc.lft.to/lastmile_qr_scan"}, "type": "electric_scooter", "fusion_lat": 0.0, "lon": -76.99146916666666}, {"fusion_lon": 0.0, "bike_id": "4be252e030ded077487b01577581e11b", "is_disabled": 0, "is_reserved": 0, "lat": 38.920082666666666, "name": "4be252e030ded077487b01577581e11b", "rental_uris": {"ios": "https://dc.lft.to/lastmile_qr_scan", "android": "https://dc.lft.to/lastmile_qr_scan"}, "type": "electric_scooter", "fusion_lat": 0.0, "lon": -77.02168866666666}, {"fusion_lon": 0.0, "bike_id": "6f30493d7c93236c644a2d01e0a45712", "is_disabled": 0, "is_reserved": 0, "lat": 38.918750333333335, "name": "6f30493d7c93236c644a2d01e0a45712", "rental_uris": {"ios": "https://dc.lft.to/lastmile_qr_scan", "android": "https://dc.lft.to/lastmile_qr_scan"}, "type": "electric_bike", "fusion_lat": 0.0, "lon": -77.01636483333333}, {"fusion_lon": 0.0, "bike_id": "60544245b2ce7e809e01642cca6364cb", "is_disabled": 0, "is_reserved": 0, "lat": 38.90054583333333, "name": "60544245b2ce7e809e01642cca6364cb", "rental_uris": {"ios": "https://dc.lft.to/lastmile_qr_scan", "android": "https://dc.lft.to/lastmile_qr_scan"}, "type": "electric_scooter", "fusion_lat": 0.0, "lon": -77.04600566666667}, {"fusion_lon": 0.0, "bike_id": "a304253110a9ec1d9f517c50347645d7", "is_disabled": 0, "is_reserved": 0, "lat": 38.9170045, "name": "a304253110a9ec1d9f517c50347645d7", "rental_uris": {"ios": "https://dc.lft.to/lastmile_qr_scan", "android": "https://dc.lft.to/lastmile_qr_scan"}, "type": "electric_scooter", "fusion_lat": 0.0, "lon": -77.0922865}, {"fusion_lon": 0.0, "bike_id": "8478607604c384fe64212b6fda4f37d3", "is_disabled": 0, "is_reserved": 0, "lat": 38.881886333333334, "name": "8478607604c384fe64212b6fda4f37d3", "rental_uris": {"ios": "https://dc.lft.to/lastmile_qr_scan", "android": "https://dc.lft.to/lastmile_qr_scan"}, "type": "electric_scooter", "fusion_lat": 0.0, "lon": -77.02091083333333}, {"fusion_lon": 0.0, "bike_id": "13bc6a449770ee56c07f557e99ebbde6", "is_disabled": 0, "is_reserved": 0, "lat": 38.922458166666665, "name": "13bc6a449770ee56c07f557e99ebbde6", "rental_uris": {"ios": "https://dc.lft.to/lastmile_qr_scan", "android": "https://dc.lft.to/lastmile_qr_scan"}, "type": "electric_scooter", "fusion_lat": 0.0, "lon": -77.00832283333334}, {"fusion_lon": 0.0, "bike_id": "741b49f00513af5435c73907ad61f6fc", "is_disabled": 0, "is_reserved": 0, "lat": 38.881474833333336, "name": "741b49f00513af5435c73907ad61f6fc", "rental_uris": {"ios": "https://dc.lft.to/lastmile_qr_scan", "android": "https://dc.lft.to/lastmile_qr_scan"}, "type": "electric_bike", "fusion_lat": 0.0, "lon": -77.01302633333333}, {"fusion_lon": 0.0, "bike_id": "99218ec12481488bb7c4d7de4b05214e", "is_disabled": 0, "is_reserved": 0, "lat": 38.95357116666667, "name": "99218ec12481488bb7c4d7de4b05214e", "rental_uris": {"ios": "https://dc.lft.to/lastmile_qr_scan", "android": "https://dc.lft.to/lastmile_qr_scan"}, "type": "electric_bike", "fusion_lat": 0.0, "lon": -76.98089983333334}, {"fusion_lon": 0.0, "bike_id": "87b22772782fac8042e037ca6944680c", "is_disabled": 0, "is_reserved": 0, "lat": 38.90289816666667, "name": "87b22772782fac8042e037ca6944680c", "rental_uris": {"ios": "https://dc.lft.to/lastmile_qr_scan", "android": "https://dc.lft.to/lastmile_qr_scan"}, "type": "electric_scooter", "fusion_lat": 0.0, "lon": -77.0468805}, {"fusion_lon": 0.0, "bike_id": "a94d7622fbe6a300115c8d7a5caa97eb", "is_disabled": 0, "is_reserved": 0, "lat": 38.912524166666664, "name": "a94d7622fbe6a300115c8d7a5caa97eb", "rental_uris": {"ios": "https://dc.lft.to/lastmile_qr_scan", "android": "https://dc.lft.to/lastmile_qr_scan"}, "type": "electric_scooter", "fusion_lat": 0.0, "lon": -77.02875966666667}, {"fusion_lon": 0.0, "bike_id": "a2f8a6e793797bf5669b747387691383", "is_disabled": 0, "is_reserved": 0, "lat": 38.953591333333335, "name": "a2f8a6e793797bf5669b747387691383", "rental_uris": {"ios": "https://dc.lft.to/lastmile_qr_scan", "android": "https://dc.lft.to/lastmile_qr_scan"}, "type": "electric_scooter", "fusion_lat": 0.0, "lon": -77.02570116666666}, {"fusion_lon": 0.0, "bike_id": "0ff2db1f8c0e7b78cb21bbb9f150fb5e", "is_disabled": 0, "is_reserved": 0, "lat": 38.9205495, "name": "0ff2db1f8c0e7b78cb21bbb9f150fb5e", "rental_uris": {"ios": "https://dc.lft.to/lastmile_qr_scan", "android": "https://dc.lft.to/lastmile_qr_scan"}, "type": "electric_scooter", "fusion_lat": 0.0, "lon": -76.99880533333334}, {"fusion_lon": 0.0, "bike_id": "297f90c437e54117ff54c78212a8fb4d", "is_disabled": 0, "is_reserved": 0, "lat": 38.915752, "name": "297f90c437e54117ff54c78212a8fb4d", "rental_uris": {"ios": "https://dc.lft.to/lastmile_qr_scan", "android": "https://dc.lft.to/lastmile_qr_scan"}, "type": "electric_scooter", "fusion_lat": 0.0, "lon": -77.04615783333334}, {"fusion_lon": 0.0, "bike_id": "16c5c70d7c9763556015b108cc76b603", "is_disabled": 0, "is_reserved": 0, "lat": 38.914139, "name": "16c5c70d7c9763556015b108cc76b603", "rental_uris": {"ios": "https://dc.lft.to/lastmile_qr_scan", "android": "https://dc.lft.to/lastmile_qr_scan"}, "type": "electric_scooter", "fusion_lat": 0.0, "lon": -77.02913966666667}, {"fusion_lon": 0.0, "bike_id": "360724fcfdd81bc54ea7abb678ee58ce", "is_disabled": 0, "is_reserved": 0, "lat": 38.9308215, "name": "360724fcfdd81bc54ea7abb678ee58ce", "rental_uris": {"ios": "https://dc.lft.to/lastmile_qr_scan", "android": "https://dc.lft.to/lastmile_qr_scan"}, "type": "electric_scooter", "fusion_lat": 0.0, "lon": -77.0020145}, {"fusion_lon": 0.0, "bike_id": "1583832a1c0122a2208b0b4c4e7200bf", "is_disabled": 0, "is_reserved": 0, "lat": 38.88458266666667, "name": "1583832a1c0122a2208b0b4c4e7200bf", "rental_uris": {"ios": "https://dc.lft.to/lastmile_qr_scan", "android": "https://dc.lft.to/lastmile_qr_scan"}, "type": "electric_scooter", "fusion_lat": 0.0, "lon": -77.0248895}, {"fusion_lon": 0.0, "bike_id": "2bf08d6582d7315329d04254dc72ce5b", "is_disabled": 0, "is_reserved": 0, "lat": 38.917065666666666, "name": "2bf08d6582d7315329d04254dc72ce5b", "rental_uris": {"ios": "https://dc.lft.to/lastmile_qr_scan", "android": "https://dc.lft.to/lastmile_qr_scan"}, "type": "electric_scooter", "fusion_lat": 0.0, "lon": -77.03866583333334}, {"fusion_lon": 0.0, "bike_id": "603aed5d8c2c79c50115b02000a5b321", "is_disabled": 0, "is_reserved": 0, "lat": 38.91864183333333, "name": "603aed5d8c2c79c50115b02000a5b321", "rental_uris": {"ios": "https://dc.lft.to/lastmile_qr_scan", "android": "https://dc.lft.to/lastmile_qr_scan"}, "type": "electric_scooter", "fusion_lat": 0.0, "lon": -77.03492866666667}, {"fusion_lon": 0.0, "bike_id": "fe571e4ffa326914020379fee1bcc2cf", "is_disabled": 0, "is_reserved": 0, "lat": 38.92048833333333, "name": "fe571e4ffa326914020379fee1bcc2cf", "rental_uris": {"ios": "https://dc.lft.to/lastmile_qr_scan", "android": "https://dc.lft.to/lastmile_qr_scan"}, "type": "electric_scooter", "fusion_lat": 0.0, "lon": -77.01728666666666}, {"fusion_lon": 0.0, "bike_id": "bb17b1fe854370484362349e11587526", "is_disabled": 0, "is_reserved": 0, "lat": 38.893647, "name": "bb17b1fe854370484362349e11587526", "rental_uris": {"ios": "https://dc.lft.to/lastmile_qr_scan", "android": "https://dc.lft.to/lastmile_qr_scan"}, "type": "electric_scooter", "fusion_lat": 0.0, "lon": -77.0207435}, {"fusion_lon": 0.0, "bike_id": "9c4b1fcff91b287e592b62ba28e111de", "is_disabled": 0, "is_reserved": 0, "lat": 38.8983365, "name": "9c4b1fcff91b287e592b62ba28e111de", "rental_uris": {"ios": "https://dc.lft.to/lastmile_qr_scan", "android": "https://dc.lft.to/lastmile_qr_scan"}, "type": "electric_scooter", "fusion_lat": 0.0, "lon": -77.02274733333333}, {"fusion_lon": 0.0, "bike_id": "c89cee07ec75730ebecb104a573bcfc1", "is_disabled": 0, "is_reserved": 0, "lat": 38.93584666666667, "name": "c89cee07ec75730ebecb104a573bcfc1", "rental_uris": {"ios": "https://dc.lft.to/lastmile_qr_scan", "android": "https://dc.lft.to/lastmile_qr_scan"}, "type": "electric_scooter", "fusion_lat": 0.0, "lon": -77.07433566666667}, {"fusion_lon": 0.0, "bike_id": "8a5ab8517306d8b0c280e857b20f4be6", "is_disabled": 0, "is_reserved": 0, "lat": 38.89850933333334, "name": "8a5ab8517306d8b0c280e857b20f4be6", "rental_uris": {"ios": "https://dc.lft.to/lastmile_qr_scan", "android": "https://dc.lft.to/lastmile_qr_scan"}, "type": "electric_scooter", "fusion_lat": 0.0, "lon": -76.9320875}, {"fusion_lon": 0.0, "bike_id": "668f92a85154d2c1be1354b1d078dae3", "is_disabled": 0, "is_reserved": 0, "lat": 38.92851133333333, "name": "668f92a85154d2c1be1354b1d078dae3", "rental_uris": {"ios": "https://dc.lft.to/lastmile_qr_scan", "android": "https://dc.lft.to/lastmile_qr_scan"}, "type": "electric_scooter", "fusion_lat": 0.0, "lon": -77.013905}, {"fusion_lon": 0.0, "bike_id": "a1fd3f0ccdeee003827e55c429aee028", "is_disabled": 0, "is_reserved": 0, "lat": 38.92960083333333, "name": "a1fd3f0ccdeee003827e55c429aee028", "rental_uris": {"ios": "https://dc.lft.to/lastmile_qr_scan", "android": "https://dc.lft.to/lastmile_qr_scan"}, "type": "electric_scooter", "fusion_lat": 0.0, "lon": -77.016381}, {"fusion_lon": 0.0, "bike_id": "299f58f448a3e0300bc0afda67383280", "is_disabled": 0, "is_reserved": 0, "lat": 38.8824465, "name": "299f58f448a3e0300bc0afda67383280", "rental_uris": {"ios": "https://dc.lft.to/lastmile_qr_scan", "android": "https://dc.lft.to/lastmile_qr_scan"}, "type": "electric_scooter", "fusion_lat": 0.0, "lon": -76.93327333333333}, {"fusion_lon": 0.0, "bike_id": "7ee37a9113bd1e919855bcbf47fa4d00", "is_disabled": 0, "is_reserved": 0, "lat": 38.87245216666667, "name": "7ee37a9113bd1e919855bcbf47fa4d00", "rental_uris": {"ios": "https://dc.lft.to/lastmile_qr_scan", "android": "https://dc.lft.to/lastmile_qr_scan"}, "type": "electric_scooter", "fusion_lat": 0.0, "lon": -76.9772545}, {"fusion_lon": 0.0, "bike_id": "5e6e19c41d6de7f775837eedc9d61c17", "is_disabled": 0, "is_reserved": 0, "lat": 38.91868266666667, "name": "5e6e19c41d6de7f775837eedc9d61c17", "rental_uris": {"ios": "https://dc.lft.to/lastmile_qr_scan", "android": "https://dc.lft.to/lastmile_qr_scan"}, "type": "electric_scooter", "fusion_lat": 0.0, "lon": -77.04161983333333}, {"fusion_lon": 0.0, "bike_id": "4a3d1795b3c17f86eb997bdc5b94cc63", "is_disabled": 0, "is_reserved": 0, "lat": 38.89622166666667, "name": "4a3d1795b3c17f86eb997bdc5b94cc63", "rental_uris": {"ios": "https://dc.lft.to/lastmile_qr_scan", "android": "https://dc.lft.to/lastmile_qr_scan"}, "type": "electric_scooter", "fusion_lat": 0.0, "lon": -76.99851316666667}, {"fusion_lon": 0.0, "bike_id": "2242e32b811b1e4f797978d83e7866d4", "is_disabled": 0, "is_reserved": 0, "lat": 38.904300666666664, "name": "2242e32b811b1e4f797978d83e7866d4", "rental_uris": {"ios": "https://dc.lft.to/lastmile_qr_scan", "android": "https://dc.lft.to/lastmile_qr_scan"}, "type": "electric_scooter", "fusion_lat": 0.0, "lon": -77.0529955}, {"fusion_lon": 0.0, "bike_id": "51f25f19ee492df673ff28abe7043be9", "is_disabled": 0, "is_reserved": 0, "lat": 38.92017666666667, "name": "51f25f19ee492df673ff28abe7043be9", "rental_uris": {"ios": "https://dc.lft.to/lastmile_qr_scan", "android": "https://dc.lft.to/lastmile_qr_scan"}, "type": "electric_scooter", "fusion_lat": 0.0, "lon": -76.9730245}, {"fusion_lon": 0.0, "bike_id": "e7f01f6ce57e2a33895e3f3efab539bc", "is_disabled": 0, "is_reserved": 0, "lat": 38.916010166666666, "name": "e7f01f6ce57e2a33895e3f3efab539bc", "rental_uris": {"ios": "https://dc.lft.to/lastmile_qr_scan", "android": "https://dc.lft.to/lastmile_qr_scan"}, "type": "electric_scooter", "fusion_lat": 0.0, "lon": -77.02963833333334}, {"fusion_lon": 0.0, "bike_id": "049e19fe176b0ab1d9a7cbecf6e7ab2f", "is_disabled": 0, "is_reserved": 0, "lat": 38.89228083333333, "name": "049e19fe176b0ab1d9a7cbecf6e7ab2f", "rental_uris": {"ios": "https://dc.lft.to/lastmile_qr_scan", "android": "https://dc.lft.to/lastmile_qr_scan"}, "type": "electric_scooter", "fusion_lat": 0.0, "lon": -77.04988466666667}, {"fusion_lon": 0.0, "bike_id": "13c7a46ad570a6801f293a9ab459c985", "is_disabled": 0, "is_reserved": 0, "lat": 38.9027645, "name": "13c7a46ad570a6801f293a9ab459c985", "rental_uris": {"ios": "https://dc.lft.to/lastmile_qr_scan", "android": "https://dc.lft.to/lastmile_qr_scan"}, "type": "electric_scooter", "fusion_lat": 0.0, "lon": -77.02746}, {"fusion_lon": 0.0, "bike_id": "744d067415aa0bbec048f844c94192d4", "is_disabled": 0, "is_reserved": 0, "lat": 38.937028833333336, "name": "744d067415aa0bbec048f844c94192d4", "rental_uris": {"ios": "https://dc.lft.to/lastmile_qr_scan", "android": "https://dc.lft.to/lastmile_qr_scan"}, "type": "electric_scooter", "fusion_lat": 0.0, "lon": -77.05596516666667}, {"fusion_lon": 0.0, "bike_id": "44134456c3f9f494824f960478bf9b5d", "is_disabled": 0, "is_reserved": 0, "lat": 38.88671816666667, "name": "44134456c3f9f494824f960478bf9b5d", "rental_uris": {"ios": "https://dc.lft.to/lastmile_qr_scan", "android": "https://dc.lft.to/lastmile_qr_scan"}, "type": "electric_scooter", "fusion_lat": 0.0, "lon": -76.9914625}, {"fusion_lon": 0.0, "bike_id": "ec98f1bea73dc8871fb4805bc1458e3e", "is_disabled": 0, "is_reserved": 0, "lat": 38.990997, "name": "ec98f1bea73dc8871fb4805bc1458e3e", "rental_uris": {"ios": "https://dc.lft.to/lastmile_qr_scan", "android": "https://dc.lft.to/lastmile_qr_scan"}, "type": "electric_bike", "fusion_lat": 0.0, "lon": -76.99374766666666}, {"fusion_lon": 0.0, "bike_id": "738fb3cd019c2dc15c01afbfcf7e2f82", "is_disabled": 0, "is_reserved": 0, "lat": 38.898763833333334, "name": "738fb3cd019c2dc15c01afbfcf7e2f82", "rental_uris": {"ios": "https://dc.lft.to/lastmile_qr_scan", "android": "https://dc.lft.to/lastmile_qr_scan"}, "type": "electric_scooter", "fusion_lat": 0.0, "lon": -77.03285783333334}, {"fusion_lon": 0.0, "bike_id": "2f67663d394dc1846dae28d094d4ed49", "is_disabled": 0, "is_reserved": 0, "lat": 38.866234166666665, "name": "2f67663d394dc1846dae28d094d4ed49", "rental_uris": {"ios": "https://dc.lft.to/lastmile_qr_scan", "android": "https://dc.lft.to/lastmile_qr_scan"}, "type": "electric_bike", "fusion_lat": 0.0, "lon": -76.99004083333334}, {"fusion_lon": 0.0, "bike_id": "b89ed8783e87014d869e5ddb1d1c8825", "is_disabled": 0, "is_reserved": 0, "lat": 38.918099166666664, "name": "b89ed8783e87014d869e5ddb1d1c8825", "rental_uris": {"ios": "https://dc.lft.to/lastmile_qr_scan", "android": "https://dc.lft.to/lastmile_qr_scan"}, "type": "electric_scooter", "fusion_lat": 0.0, "lon": -77.0343895}, {"fusion_lon": 0.0, "bike_id": "0d06fa796a412b7701d637ca062876b2", "is_disabled": 0, "is_reserved": 0, "lat": 38.91276633333333, "name": "0d06fa796a412b7701d637ca062876b2", "rental_uris": {"ios": "https://dc.lft.to/lastmile_qr_scan", "android": "https://dc.lft.to/lastmile_qr_scan"}, "type": "electric_scooter", "fusion_lat": 0.0, "lon": -77.045092}, {"fusion_lon": 0.0, "bike_id": "198b71abd9cc978af17c7ef996847b1f", "is_disabled": 0, "is_reserved": 0, "lat": 38.879068333333336, "name": "198b71abd9cc978af17c7ef996847b1f", "rental_uris": {"ios": "https://dc.lft.to/lastmile_qr_scan", "android": "https://dc.lft.to/lastmile_qr_scan"}, "type": "electric_scooter", "fusion_lat": 0.0, "lon": -76.94472916666666}, {"fusion_lon": 0.0, "bike_id": "a74186af8133662ebec7ee54e36bff8e", "is_disabled": 0, "is_reserved": 0, "lat": 38.87734283333333, "name": "a74186af8133662ebec7ee54e36bff8e", "rental_uris": {"ios": "https://dc.lft.to/lastmile_qr_scan", "android": "https://dc.lft.to/lastmile_qr_scan"}, "type": "electric_bike", "fusion_lat": 0.0, "lon": -77.11847883333333}, {"fusion_lon": 0.0, "bike_id": "fc2145df409ccedfe5799a9126fbdb38", "is_disabled": 0, "is_reserved": 0, "lat": 38.908198666666664, "name": "fc2145df409ccedfe5799a9126fbdb38", "rental_uris": {"ios": "https://dc.lft.to/lastmile_qr_scan", "android": "https://dc.lft.to/lastmile_qr_scan"}, "type": "electric_scooter", "fusion_lat": 0.0, "lon": -77.00052683333334}, {"fusion_lon": 0.0, "bike_id": "5096ed79cf0b8ef7ad9aad2406effd73", "is_disabled": 0, "is_reserved": 0, "lat": 38.91001283333333, "name": "5096ed79cf0b8ef7ad9aad2406effd73", "rental_uris": {"ios": "https://dc.lft.to/lastmile_qr_scan", "android": "https://dc.lft.to/lastmile_qr_scan"}, "type": "electric_bike", "fusion_lat": 0.0, "lon": -76.98426066666667}, {"fusion_lon": 0.0, "bike_id": "1a615aa203d8e6d5caf5c92f80448bdc", "is_disabled": 0, "is_reserved": 0, "lat": 38.931864833333336, "name": "1a615aa203d8e6d5caf5c92f80448bdc", "rental_uris": {"ios": "https://dc.lft.to/lastmile_qr_scan", "android": "https://dc.lft.to/lastmile_qr_scan"}, "type": "electric_scooter", "fusion_lat": 0.0, "lon": -77.03448933333334}, {"fusion_lon": 0.0, "bike_id": "7ac0f3403a5cda57af7c8c8064857a28", "is_disabled": 0, "is_reserved": 0, "lat": 38.9115585, "name": "7ac0f3403a5cda57af7c8c8064857a28", "rental_uris": {"ios": "https://dc.lft.to/lastmile_qr_scan", "android": "https://dc.lft.to/lastmile_qr_scan"}, "type": "electric_scooter", "fusion_lat": 0.0, "lon": -77.01061966666667}, {"fusion_lon": 0.0, "bike_id": "1dea4be4c996a5c4cfe083448765fbe8", "is_disabled": 0, "is_reserved": 0, "lat": 38.92045, "name": "1dea4be4c996a5c4cfe083448765fbe8", "rental_uris": {"ios": "https://dc.lft.to/lastmile_qr_scan", "android": "https://dc.lft.to/lastmile_qr_scan"}, "type": "electric_scooter", "fusion_lat": 0.0, "lon": -77.02368183333333}, {"fusion_lon": 0.0, "bike_id": "87ed052a86b4738f16e45673f1409cc5", "is_disabled": 0, "is_reserved": 0, "lat": 38.984997, "name": "87ed052a86b4738f16e45673f1409cc5", "rental_uris": {"ios": "https://dc.lft.to/lastmile_qr_scan", "android": "https://dc.lft.to/lastmile_qr_scan"}, "type": "electric_bike", "fusion_lat": 0.0, "lon": -76.98194516666666}, {"fusion_lon": 0.0, "bike_id": "aff8e4899dad4e70e55c1835b5079c3b", "is_disabled": 0, "is_reserved": 0, "lat": 38.920536, "name": "aff8e4899dad4e70e55c1835b5079c3b", "rental_uris": {"ios": "https://dc.lft.to/lastmile_qr_scan", "android": "https://dc.lft.to/lastmile_qr_scan"}, "type": "electric_scooter", "fusion_lat": 0.0, "lon": -77.01720016666667}, {"fusion_lon": 0.0, "bike_id": "fad581edad1532956589cb16ab33d2a9", "is_disabled": 0, "is_reserved": 0, "lat": 38.91385866666667, "name": "fad581edad1532956589cb16ab33d2a9", "rental_uris": {"ios": "https://dc.lft.to/lastmile_qr_scan", "android": "https://dc.lft.to/lastmile_qr_scan"}, "type": "electric_scooter", "fusion_lat": 0.0, "lon": -77.01703666666667}, {"fusion_lon": 0.0, "bike_id": "6bc97b7593a478e383e40d4ff6f35965", "is_disabled": 0, "is_reserved": 0, "lat": 38.930761833333335, "name": "6bc97b7593a478e383e40d4ff6f35965", "rental_uris": {"ios": "https://dc.lft.to/lastmile_qr_scan", "android": "https://dc.lft.to/lastmile_qr_scan"}, "type": "electric_scooter", "fusion_lat": 0.0, "lon": -77.02158383333334}, {"fusion_lon": 0.0, "bike_id": "458a08a4c74e8c035e44a7cac5a6ab23", "is_disabled": 0, "is_reserved": 0, "lat": 38.922368, "name": "458a08a4c74e8c035e44a7cac5a6ab23", "rental_uris": {"ios": "https://dc.lft.to/lastmile_qr_scan", "android": "https://dc.lft.to/lastmile_qr_scan"}, "type": "electric_scooter", "fusion_lat": 0.0, "lon": -77.02817166666667}, {"fusion_lon": 0.0, "bike_id": "8e3256a49a993e999924b0f2297631aa", "is_disabled": 0, "is_reserved": 0, "lat": 38.921032, "name": "8e3256a49a993e999924b0f2297631aa", "rental_uris": {"ios": "https://dc.lft.to/lastmile_qr_scan", "android": "https://dc.lft.to/lastmile_qr_scan"}, "type": "electric_scooter", "fusion_lat": 0.0, "lon": -77.08197416666667}, {"fusion_lon": 0.0, "bike_id": "bca2e67e63c2d56a7b8e5dd7fda9e3bd", "is_disabled": 0, "is_reserved": 0, "lat": 38.89603233333333, "name": "bca2e67e63c2d56a7b8e5dd7fda9e3bd", "rental_uris": {"ios": "https://dc.lft.to/lastmile_qr_scan", "android": "https://dc.lft.to/lastmile_qr_scan"}, "type": "electric_scooter", "fusion_lat": 0.0, "lon": -77.02210266666667}, {"fusion_lon": 0.0, "bike_id": "127de62fe1fa778b14fbf5e503e25c71", "is_disabled": 0, "is_reserved": 0, "lat": 38.91327616666667, "name": "127de62fe1fa778b14fbf5e503e25c71", "rental_uris": {"ios": "https://dc.lft.to/lastmile_qr_scan", "android": "https://dc.lft.to/lastmile_qr_scan"}, "type": "electric_scooter", "fusion_lat": 0.0, "lon": -77.0147765}, {"fusion_lon": 0.0, "bike_id": "b704629f136d27e08dd9937a7b7b7d52", "is_disabled": 0, "is_reserved": 0, "lat": 38.910134166666666, "name": "b704629f136d27e08dd9937a7b7b7d52", "rental_uris": {"ios": "https://dc.lft.to/lastmile_qr_scan", "android": "https://dc.lft.to/lastmile_qr_scan"}, "type": "electric_scooter", "fusion_lat": 0.0, "lon": -77.052623}, {"fusion_lon": 0.0, "bike_id": "84ac3472c27600aa9dd39461125d5414", "is_disabled": 0, "is_reserved": 0, "lat": 38.905019, "name": "84ac3472c27600aa9dd39461125d5414", "rental_uris": {"ios": "https://dc.lft.to/lastmile_qr_scan", "android": "https://dc.lft.to/lastmile_qr_scan"}, "type": "electric_scooter", "fusion_lat": 0.0, "lon": -77.01994683333334}, {"fusion_lon": 0.0, "bike_id": "8873c63f69b5f3377e0f1650f1e36b62", "is_disabled": 0, "is_reserved": 0, "lat": 38.916908, "name": "8873c63f69b5f3377e0f1650f1e36b62", "rental_uris": {"ios": "https://dc.lft.to/lastmile_qr_scan", "android": "https://dc.lft.to/lastmile_qr_scan"}, "type": "electric_scooter", "fusion_lat": 0.0, "lon": -77.0175465}, {"fusion_lon": 0.0, "bike_id": "48e8a95619758476936b7e5482d45296", "is_disabled": 0, "is_reserved": 0, "lat": 38.904798, "name": "48e8a95619758476936b7e5482d45296", "rental_uris": {"ios": "https://dc.lft.to/lastmile_qr_scan", "android": "https://dc.lft.to/lastmile_qr_scan"}, "type": "electric_scooter", "fusion_lat": 0.0, "lon": -77.06015266666667}, {"fusion_lon": 0.0, "bike_id": "f490db10e48cb7f49112126b796d2366", "is_disabled": 0, "is_reserved": 0, "lat": 38.911887, "name": "f490db10e48cb7f49112126b796d2366", "rental_uris": {"ios": "https://dc.lft.to/lastmile_qr_scan", "android": "https://dc.lft.to/lastmile_qr_scan"}, "type": "electric_scooter", "fusion_lat": 0.0, "lon": -77.007903}, {"fusion_lon": 0.0, "bike_id": "1c119b2c89f7a1401d43847389aa744a", "is_disabled": 0, "is_reserved": 0, "lat": 38.924806, "name": "1c119b2c89f7a1401d43847389aa744a", "rental_uris": {"ios": "https://dc.lft.to/lastmile_qr_scan", "android": "https://dc.lft.to/lastmile_qr_scan"}, "type": "electric_scooter", "fusion_lat": 0.0, "lon": -77.03500783333334}, {"fusion_lon": 0.0, "bike_id": "a4714316746e74c8110aa41fe5fa768b", "is_disabled": 0, "is_reserved": 0, "lat": 38.898702166666666, "name": "a4714316746e74c8110aa41fe5fa768b", "rental_uris": {"ios": "https://dc.lft.to/lastmile_qr_scan", "android": "https://dc.lft.to/lastmile_qr_scan"}, "type": "electric_scooter", "fusion_lat": 0.0, "lon": -77.02607166666667}, {"fusion_lon": 0.0, "bike_id": "df47e86dd2e4f90a0aa9e273c0415ab5", "is_disabled": 0, "is_reserved": 0, "lat": 38.91590733333334, "name": "df47e86dd2e4f90a0aa9e273c0415ab5", "rental_uris": {"ios": "https://dc.lft.to/lastmile_qr_scan", "android": "https://dc.lft.to/lastmile_qr_scan"}, "type": "electric_scooter", "fusion_lat": 0.0, "lon": -77.01129966666667}, {"fusion_lon": 0.0, "bike_id": "108d1f6e67584828024a7516a46c915d", "is_disabled": 0, "is_reserved": 0, "lat": 38.928280666666666, "name": "108d1f6e67584828024a7516a46c915d", "rental_uris": {"ios": "https://dc.lft.to/lastmile_qr_scan", "android": "https://dc.lft.to/lastmile_qr_scan"}, "type": "electric_scooter", "fusion_lat": 0.0, "lon": -77.02150133333333}, {"fusion_lon": 0.0, "bike_id": "98e42016ba59e6c197297d4fa4129f6f", "is_disabled": 0, "is_reserved": 0, "lat": 38.92725033333333, "name": "98e42016ba59e6c197297d4fa4129f6f", "rental_uris": {"ios": "https://dc.lft.to/lastmile_qr_scan", "android": "https://dc.lft.to/lastmile_qr_scan"}, "type": "electric_scooter", "fusion_lat": 0.0, "lon": -77.02280016666667}, {"fusion_lon": 0.0, "bike_id": "8621ec84486978dab5019a20b5689f1d", "is_disabled": 0, "is_reserved": 0, "lat": 38.94202933333333, "name": "8621ec84486978dab5019a20b5689f1d", "rental_uris": {"ios": "https://dc.lft.to/lastmile_qr_scan", "android": "https://dc.lft.to/lastmile_qr_scan"}, "type": "electric_scooter", "fusion_lat": 0.0, "lon": -77.02502183333333}, {"fusion_lon": 0.0, "bike_id": "9a26e86267f286754d652c9d3ee46d62", "is_disabled": 0, "is_reserved": 0, "lat": 38.93973783333333, "name": "9a26e86267f286754d652c9d3ee46d62", "rental_uris": {"ios": "https://dc.lft.to/lastmile_qr_scan", "android": "https://dc.lft.to/lastmile_qr_scan"}, "type": "electric_scooter", "fusion_lat": 0.0, "lon": -77.02942033333333}, {"fusion_lon": 0.0, "bike_id": "3e5965402d2219f1071f919dad8746b2", "is_disabled": 0, "is_reserved": 0, "lat": 38.9097795, "name": "3e5965402d2219f1071f919dad8746b2", "rental_uris": {"ios": "https://dc.lft.to/lastmile_qr_scan", "android": "https://dc.lft.to/lastmile_qr_scan"}, "type": "electric_scooter", "fusion_lat": 0.0, "lon": -77.04872083333333}, {"fusion_lon": 0.0, "bike_id": "2afebd6d02e5b3a3ef3f4fff861730c2", "is_disabled": 0, "is_reserved": 0, "lat": 38.8862005, "name": "2afebd6d02e5b3a3ef3f4fff861730c2", "rental_uris": {"ios": "https://dc.lft.to/lastmile_qr_scan", "android": "https://dc.lft.to/lastmile_qr_scan"}, "type": "electric_scooter", "fusion_lat": 0.0, "lon": -77.02188916666667}, {"fusion_lon": 0.0, "bike_id": "960e356d62e5007d4ad5edde7a4c59f0", "is_disabled": 0, "is_reserved": 0, "lat": 38.8907635, "name": "960e356d62e5007d4ad5edde7a4c59f0", "rental_uris": {"ios": "https://dc.lft.to/lastmile_qr_scan", "android": "https://dc.lft.to/lastmile_qr_scan"}, "type": "electric_scooter", "fusion_lat": 0.0, "lon": -76.98823283333333}, {"fusion_lon": 0.0, "bike_id": "3415f23e49ebd81f8f54f316778197a7", "is_disabled": 0, "is_reserved": 0, "lat": 38.91491633333333, "name": "3415f23e49ebd81f8f54f316778197a7", "rental_uris": {"ios": "https://dc.lft.to/lastmile_qr_scan", "android": "https://dc.lft.to/lastmile_qr_scan"}, "type": "electric_scooter", "fusion_lat": 0.0, "lon": -77.02287716666666}, {"fusion_lon": 0.0, "bike_id": "4f501327ff10b5c073abf430aa3f0665", "is_disabled": 0, "is_reserved": 0, "lat": 38.943135166666664, "name": "4f501327ff10b5c073abf430aa3f0665", "rental_uris": {"ios": "https://dc.lft.to/lastmile_qr_scan", "android": "https://dc.lft.to/lastmile_qr_scan"}, "type": "electric_scooter", "fusion_lat": 0.0, "lon": -77.02520583333333}, {"fusion_lon": 0.0, "bike_id": "a95ba5d344bb2a956b1a986dca8b9b17", "is_disabled": 0, "is_reserved": 0, "lat": 38.9187615, "name": "a95ba5d344bb2a956b1a986dca8b9b17", "rental_uris": {"ios": "https://dc.lft.to/lastmile_qr_scan", "android": "https://dc.lft.to/lastmile_qr_scan"}, "type": "electric_scooter", "fusion_lat": 0.0, "lon": -77.0417545}, {"fusion_lon": 0.0, "bike_id": "02eb9355dac31f145c82b8522edab2c7", "is_disabled": 0, "is_reserved": 0, "lat": 38.9058015, "name": "02eb9355dac31f145c82b8522edab2c7", "rental_uris": {"ios": "https://dc.lft.to/lastmile_qr_scan", "android": "https://dc.lft.to/lastmile_qr_scan"}, "type": "electric_scooter", "fusion_lat": 0.0, "lon": -77.04182616666667}, {"fusion_lon": 0.0, "bike_id": "0f8ca774b90bd09693eb0ed421853d81", "is_disabled": 0, "is_reserved": 0, "lat": 38.905961166666664, "name": "0f8ca774b90bd09693eb0ed421853d81", "rental_uris": {"ios": "https://dc.lft.to/lastmile_qr_scan", "android": "https://dc.lft.to/lastmile_qr_scan"}, "type": "electric_scooter", "fusion_lat": 0.0, "lon": -77.00742483333333}, {"fusion_lon": 0.0, "bike_id": "4850f49e999d07f239beea14df3d996a", "is_disabled": 0, "is_reserved": 0, "lat": 38.87661216666667, "name": "4850f49e999d07f239beea14df3d996a", "rental_uris": {"ios": "https://dc.lft.to/lastmile_qr_scan", "android": "https://dc.lft.to/lastmile_qr_scan"}, "type": "electric_scooter", "fusion_lat": 0.0, "lon": -77.0072155}, {"fusion_lon": 0.0, "bike_id": "8ee3f9300315e6b5af3b8b92112b45a2", "is_disabled": 0, "is_reserved": 0, "lat": 38.926580666666666, "name": "8ee3f9300315e6b5af3b8b92112b45a2", "rental_uris": {"ios": "https://dc.lft.to/lastmile_qr_scan", "android": "https://dc.lft.to/lastmile_qr_scan"}, "type": "electric_scooter", "fusion_lat": 0.0, "lon": -77.02290833333333}, {"fusion_lon": 0.0, "bike_id": "a54a140540b87c8939832e4ebe964ba9", "is_disabled": 0, "is_reserved": 0, "lat": 38.936857333333336, "name": "a54a140540b87c8939832e4ebe964ba9", "rental_uris": {"ios": "https://dc.lft.to/lastmile_qr_scan", "android": "https://dc.lft.to/lastmile_qr_scan"}, "type": "electric_scooter", "fusion_lat": 0.0, "lon": -77.06625016666666}, {"fusion_lon": 0.0, "bike_id": "be5122069c45facdaf638bb8b4571e13", "is_disabled": 0, "is_reserved": 0, "lat": 38.920280166666664, "name": "be5122069c45facdaf638bb8b4571e13", "rental_uris": {"ios": "https://dc.lft.to/lastmile_qr_scan", "android": "https://dc.lft.to/lastmile_qr_scan"}, "type": "electric_scooter", "fusion_lat": 0.0, "lon": -77.04197633333334}, {"fusion_lon": 0.0, "bike_id": "7bba5b7ab6d8f5c7b434a98d6caa913d", "is_disabled": 0, "is_reserved": 0, "lat": 38.88762366666667, "name": "7bba5b7ab6d8f5c7b434a98d6caa913d", "rental_uris": {"ios": "https://dc.lft.to/lastmile_qr_scan", "android": "https://dc.lft.to/lastmile_qr_scan"}, "type": "electric_scooter", "fusion_lat": 0.0, "lon": -77.0005105}, {"fusion_lon": 0.0, "bike_id": "f0d22f1838396b63e9d26877fe415edd", "is_disabled": 0, "is_reserved": 0, "lat": 38.8357405, "name": "f0d22f1838396b63e9d26877fe415edd", "rental_uris": {"ios": "https://dc.lft.to/lastmile_qr_scan", "android": "https://dc.lft.to/lastmile_qr_scan"}, "type": "electric_bike", "fusion_lat": 0.0, "lon": -76.9901735}, {"fusion_lon": 0.0, "bike_id": "5b7c4ed259d4d032f3d14c003ff20ed1", "is_disabled": 0, "is_reserved": 0, "lat": 38.92230633333333, "name": "5b7c4ed259d4d032f3d14c003ff20ed1", "rental_uris": {"ios": "https://dc.lft.to/lastmile_qr_scan", "android": "https://dc.lft.to/lastmile_qr_scan"}, "type": "electric_scooter", "fusion_lat": 0.0, "lon": -77.0282765}, {"fusion_lon": 0.0, "bike_id": "16424a49986a2f8aa866ad35407dd998", "is_disabled": 0, "is_reserved": 0, "lat": 38.89572733333333, "name": "16424a49986a2f8aa866ad35407dd998", "rental_uris": {"ios": "https://dc.lft.to/lastmile_qr_scan", "android": "https://dc.lft.to/lastmile_qr_scan"}, "type": "electric_scooter", "fusion_lat": 0.0, "lon": -77.02963066666666}, {"fusion_lon": 0.0, "bike_id": "7639a0f8244fe635af0fb2cc76e17a41", "is_disabled": 0, "is_reserved": 0, "lat": 38.88247333333333, "name": "7639a0f8244fe635af0fb2cc76e17a41", "rental_uris": {"ios": "https://dc.lft.to/lastmile_qr_scan", "android": "https://dc.lft.to/lastmile_qr_scan"}, "type": "electric_bike", "fusion_lat": 0.0, "lon": -76.962581}, {"fusion_lon": 0.0, "bike_id": "53982def76a2c90c071f80406141899f", "is_disabled": 0, "is_reserved": 0, "lat": 38.914525833333336, "name": "53982def76a2c90c071f80406141899f", "rental_uris": {"ios": "https://dc.lft.to/lastmile_qr_scan", "android": "https://dc.lft.to/lastmile_qr_scan"}, "type": "electric_bike", "fusion_lat": 0.0, "lon": -76.97241516666666}, {"fusion_lon": 0.0, "bike_id": "eeb770d774af935ff7ef0682d4af6acc", "is_disabled": 0, "is_reserved": 0, "lat": 38.932641833333335, "name": "eeb770d774af935ff7ef0682d4af6acc", "rental_uris": {"ios": "https://dc.lft.to/lastmile_qr_scan", "android": "https://dc.lft.to/lastmile_qr_scan"}, "type": "electric_scooter", "fusion_lat": 0.0, "lon": -76.9888115}, {"fusion_lon": 0.0, "bike_id": "3e5ab4b96fc83b1d140fb3af2f3404f0", "is_disabled": 0, "is_reserved": 0, "lat": 38.89714583333333, "name": "3e5ab4b96fc83b1d140fb3af2f3404f0", "rental_uris": {"ios": "https://dc.lft.to/lastmile_qr_scan", "android": "https://dc.lft.to/lastmile_qr_scan"}, "type": "electric_bike", "fusion_lat": 0.0, "lon": -77.00701016666666}, {"fusion_lon": 0.0, "bike_id": "eddffb6e48d68f197eb3dc0744762669", "is_disabled": 0, "is_reserved": 0, "lat": 38.887701666666665, "name": "eddffb6e48d68f197eb3dc0744762669", "rental_uris": {"ios": "https://dc.lft.to/lastmile_qr_scan", "android": "https://dc.lft.to/lastmile_qr_scan"}, "type": "electric_scooter", "fusion_lat": 0.0, "lon": -76.97733566666666}, {"fusion_lon": 0.0, "bike_id": "f9884e1b4f02c1577b038b85a6a42e78", "is_disabled": 0, "is_reserved": 0, "lat": 38.91744683333334, "name": "f9884e1b4f02c1577b038b85a6a42e78", "rental_uris": {"ios": "https://dc.lft.to/lastmile_qr_scan", "android": "https://dc.lft.to/lastmile_qr_scan"}, "type": "electric_scooter", "fusion_lat": 0.0, "lon": -77.02816866666667}, {"fusion_lon": 0.0, "bike_id": "7523240b3b4b85ad66c059dd9f6f5f4d", "is_disabled": 0, "is_reserved": 0, "lat": 38.96734383333333, "name": "7523240b3b4b85ad66c059dd9f6f5f4d", "rental_uris": {"ios": "https://dc.lft.to/lastmile_qr_scan", "android": "https://dc.lft.to/lastmile_qr_scan"}, "type": "electric_bike", "fusion_lat": 0.0, "lon": -77.0891135}, {"fusion_lon": 0.0, "bike_id": "105f761fdd93ad0a839bef71dfac4cbe", "is_disabled": 0, "is_reserved": 0, "lat": 38.91618316666667, "name": "105f761fdd93ad0a839bef71dfac4cbe", "rental_uris": {"ios": "https://dc.lft.to/lastmile_qr_scan", "android": "https://dc.lft.to/lastmile_qr_scan"}, "type": "electric_scooter", "fusion_lat": 0.0, "lon": -77.02806316666667}, {"fusion_lon": 0.0, "bike_id": "19a5269a7291e9c09667365e5273c19d", "is_disabled": 0, "is_reserved": 0, "lat": 38.87792116666667, "name": "19a5269a7291e9c09667365e5273c19d", "rental_uris": {"ios": "https://dc.lft.to/lastmile_qr_scan", "android": "https://dc.lft.to/lastmile_qr_scan"}, "type": "electric_scooter", "fusion_lat": 0.0, "lon": -76.9961085}, {"fusion_lon": 0.0, "bike_id": "4f87ade4bb1d72e0ae2efaaa8b4d1d40", "is_disabled": 0, "is_reserved": 0, "lat": 38.900256666666664, "name": "4f87ade4bb1d72e0ae2efaaa8b4d1d40", "rental_uris": {"ios": "https://dc.lft.to/lastmile_qr_scan", "android": "https://dc.lft.to/lastmile_qr_scan"}, "type": "electric_scooter", "fusion_lat": 0.0, "lon": -77.0417915}, {"fusion_lon": 0.0, "bike_id": "68fb0f058f04e1db08f257446185a4bf", "is_disabled": 0, "is_reserved": 0, "lat": 38.894414166666664, "name": "68fb0f058f04e1db08f257446185a4bf", "rental_uris": {"ios": "https://dc.lft.to/lastmile_qr_scan", "android": "https://dc.lft.to/lastmile_qr_scan"}, "type": "electric_scooter", "fusion_lat": 0.0, "lon": -76.9773275}, {"fusion_lon": 0.0, "bike_id": "2808bdb33e7c7e227d67ed4ab169cb3b", "is_disabled": 0, "is_reserved": 0, "lat": 38.92547166666667, "name": "2808bdb33e7c7e227d67ed4ab169cb3b", "rental_uris": {"ios": "https://dc.lft.to/lastmile_qr_scan", "android": "https://dc.lft.to/lastmile_qr_scan"}, "type": "electric_scooter", "fusion_lat": 0.0, "lon": -77.0333915}, {"fusion_lon": 0.0, "bike_id": "ed8240ae7d3e8b06677a3daa832c15b8", "is_disabled": 0, "is_reserved": 0, "lat": 38.924062, "name": "ed8240ae7d3e8b06677a3daa832c15b8", "rental_uris": {"ios": "https://dc.lft.to/lastmile_qr_scan", "android": "https://dc.lft.to/lastmile_qr_scan"}, "type": "electric_scooter", "fusion_lat": 0.0, "lon": -77.04049083333334}, {"fusion_lon": 0.0, "bike_id": "2807cd992042805f4bf84f2f92606237", "is_disabled": 0, "is_reserved": 0, "lat": 38.91672, "name": "2807cd992042805f4bf84f2f92606237", "rental_uris": {"ios": "https://dc.lft.to/lastmile_qr_scan", "android": "https://dc.lft.to/lastmile_qr_scan"}, "type": "electric_scooter", "fusion_lat": 0.0, "lon": -77.047034}, {"fusion_lon": 0.0, "bike_id": "48427b14b3ae9966826b4e35036b7270", "is_disabled": 0, "is_reserved": 0, "lat": 38.885380833333336, "name": "48427b14b3ae9966826b4e35036b7270", "rental_uris": {"ios": "https://dc.lft.to/lastmile_qr_scan", "android": "https://dc.lft.to/lastmile_qr_scan"}, "type": "electric_scooter", "fusion_lat": 0.0, "lon": -76.95427816666667}, {"fusion_lon": 0.0, "bike_id": "371af47ad8d0d06e75aacbea1a568854", "is_disabled": 0, "is_reserved": 0, "lat": 38.9194535, "name": "371af47ad8d0d06e75aacbea1a568854", "rental_uris": {"ios": "https://dc.lft.to/lastmile_qr_scan", "android": "https://dc.lft.to/lastmile_qr_scan"}, "type": "electric_scooter", "fusion_lat": 0.0, "lon": -77.02471366666667}, {"fusion_lon": 0.0, "bike_id": "d66ed3884a9dcd94a8ac3da84fb2b43a", "is_disabled": 0, "is_reserved": 0, "lat": 38.8784975, "name": "d66ed3884a9dcd94a8ac3da84fb2b43a", "rental_uris": {"ios": "https://dc.lft.to/lastmile_qr_scan", "android": "https://dc.lft.to/lastmile_qr_scan"}, "type": "electric_scooter", "fusion_lat": 0.0, "lon": -77.00766983333334}, {"fusion_lon": 0.0, "bike_id": "98cb1960b3d295b2a8a2028960cd4571", "is_disabled": 0, "is_reserved": 0, "lat": 38.92465833333333, "name": "98cb1960b3d295b2a8a2028960cd4571", "rental_uris": {"ios": "https://dc.lft.to/lastmile_qr_scan", "android": "https://dc.lft.to/lastmile_qr_scan"}, "type": "electric_scooter", "fusion_lat": 0.0, "lon": -77.02241916666667}, {"fusion_lon": 0.0, "bike_id": "96d5d3386123d3c6b1681fec1ff891fb", "is_disabled": 0, "is_reserved": 0, "lat": 38.90819066666667, "name": "96d5d3386123d3c6b1681fec1ff891fb", "rental_uris": {"ios": "https://dc.lft.to/lastmile_qr_scan", "android": "https://dc.lft.to/lastmile_qr_scan"}, "type": "electric_scooter", "fusion_lat": 0.0, "lon": -77.043497}, {"fusion_lon": 0.0, "bike_id": "ae09b33519d04d6737a69173bc71f3c8", "is_disabled": 0, "is_reserved": 0, "lat": 38.92482533333333, "name": "ae09b33519d04d6737a69173bc71f3c8", "rental_uris": {"ios": "https://dc.lft.to/lastmile_qr_scan", "android": "https://dc.lft.to/lastmile_qr_scan"}, "type": "electric_scooter", "fusion_lat": 0.0, "lon": -77.03534966666666}, {"fusion_lon": 0.0, "bike_id": "bd595106f74a9c945741a8fdfdbf6e9f", "is_disabled": 0, "is_reserved": 0, "lat": 38.916218, "name": "bd595106f74a9c945741a8fdfdbf6e9f", "rental_uris": {"ios": "https://dc.lft.to/lastmile_qr_scan", "android": "https://dc.lft.to/lastmile_qr_scan"}, "type": "electric_bike", "fusion_lat": 0.0, "lon": -77.00925083333334}, {"fusion_lon": 0.0, "bike_id": "b2fbc2f458b4110a44c890dd9d055b8a", "is_disabled": 0, "is_reserved": 0, "lat": 38.91843683333333, "name": "b2fbc2f458b4110a44c890dd9d055b8a", "rental_uris": {"ios": "https://dc.lft.to/lastmile_qr_scan", "android": "https://dc.lft.to/lastmile_qr_scan"}, "type": "electric_scooter", "fusion_lat": 0.0, "lon": -77.04520583333333}, {"fusion_lon": 0.0, "bike_id": "64b491e3630bc1ae491f066f549571d1", "is_disabled": 0, "is_reserved": 0, "lat": 38.90240716666667, "name": "64b491e3630bc1ae491f066f549571d1", "rental_uris": {"ios": "https://dc.lft.to/lastmile_qr_scan", "android": "https://dc.lft.to/lastmile_qr_scan"}, "type": "electric_scooter", "fusion_lat": 0.0, "lon": -77.05166983333334}, {"fusion_lon": 0.0, "bike_id": "e35b48c1bb4c3d7bb2c2e1081d79bc91", "is_disabled": 0, "is_reserved": 0, "lat": 38.91415466666667, "name": "e35b48c1bb4c3d7bb2c2e1081d79bc91", "rental_uris": {"ios": "https://dc.lft.to/lastmile_qr_scan", "android": "https://dc.lft.to/lastmile_qr_scan"}, "type": "electric_scooter", "fusion_lat": 0.0, "lon": -77.0221445}, {"fusion_lon": 0.0, "bike_id": "a1586cef0970da8edfacad9073b3d187", "is_disabled": 0, "is_reserved": 0, "lat": 38.915661666666665, "name": "a1586cef0970da8edfacad9073b3d187", "rental_uris": {"ios": "https://dc.lft.to/lastmile_qr_scan", "android": "https://dc.lft.to/lastmile_qr_scan"}, "type": "electric_scooter", "fusion_lat": 0.0, "lon": -77.0380215}, {"fusion_lon": 0.0, "bike_id": "33854165f06db6256b1b7911a0b4b79b", "is_disabled": 0, "is_reserved": 0, "lat": 38.899374, "name": "33854165f06db6256b1b7911a0b4b79b", "rental_uris": {"ios": "https://dc.lft.to/lastmile_qr_scan", "android": "https://dc.lft.to/lastmile_qr_scan"}, "type": "electric_bike", "fusion_lat": 0.0, "lon": -77.001578}, {"fusion_lon": 0.0, "bike_id": "5f18d6348319d52f6d9a4764335fb2c0", "is_disabled": 0, "is_reserved": 0, "lat": 38.9002635, "name": "5f18d6348319d52f6d9a4764335fb2c0", "rental_uris": {"ios": "https://dc.lft.to/lastmile_qr_scan", "android": "https://dc.lft.to/lastmile_qr_scan"}, "type": "electric_scooter", "fusion_lat": 0.0, "lon": -77.0118315}, {"fusion_lon": 0.0, "bike_id": "7cf162dc8663f45a625f376a1f42b820", "is_disabled": 0, "is_reserved": 0, "lat": 38.923550166666665, "name": "7cf162dc8663f45a625f376a1f42b820", "rental_uris": {"ios": "https://dc.lft.to/lastmile_qr_scan", "android": "https://dc.lft.to/lastmile_qr_scan"}, "type": "electric_scooter", "fusion_lat": 0.0, "lon": -77.03548266666667}, {"fusion_lon": 0.0, "bike_id": "2628e8e55eac24941070dd8549238e55", "is_disabled": 0, "is_reserved": 0, "lat": 38.957406666666664, "name": "2628e8e55eac24941070dd8549238e55", "rental_uris": {"ios": "https://dc.lft.to/lastmile_qr_scan", "android": "https://dc.lft.to/lastmile_qr_scan"}, "type": "electric_scooter", "fusion_lat": 0.0, "lon": -77.00223083333333}, {"fusion_lon": 0.0, "bike_id": "afd8132c52e7c4acb50f58ff5f4a247c", "is_disabled": 0, "is_reserved": 0, "lat": 38.883557, "name": "afd8132c52e7c4acb50f58ff5f4a247c", "rental_uris": {"ios": "https://dc.lft.to/lastmile_qr_scan", "android": "https://dc.lft.to/lastmile_qr_scan"}, "type": "electric_scooter", "fusion_lat": 0.0, "lon": -76.95768316666667}, {"fusion_lon": 0.0, "bike_id": "5b699c9f9cec839ef91d3b5d26955478", "is_disabled": 0, "is_reserved": 0, "lat": 38.89983683333333, "name": "5b699c9f9cec839ef91d3b5d26955478", "rental_uris": {"ios": "https://dc.lft.to/lastmile_qr_scan", "android": "https://dc.lft.to/lastmile_qr_scan"}, "type": "electric_scooter", "fusion_lat": 0.0, "lon": -77.055539}, {"fusion_lon": 0.0, "bike_id": "57d84067425fcd30ff73345dbb7bbe83", "is_disabled": 0, "is_reserved": 0, "lat": 38.92462533333333, "name": "57d84067425fcd30ff73345dbb7bbe83", "rental_uris": {"ios": "https://dc.lft.to/lastmile_qr_scan", "android": "https://dc.lft.to/lastmile_qr_scan"}, "type": "electric_scooter", "fusion_lat": 0.0, "lon": -76.99912333333333}, {"fusion_lon": 0.0, "bike_id": "065a26224bb8919d0ab0dda8deeb64d8", "is_disabled": 0, "is_reserved": 0, "lat": 38.922457333333334, "name": "065a26224bb8919d0ab0dda8deeb64d8", "rental_uris": {"ios": "https://dc.lft.to/lastmile_qr_scan", "android": "https://dc.lft.to/lastmile_qr_scan"}, "type": "electric_scooter", "fusion_lat": 0.0, "lon": -77.01950966666666}, {"fusion_lon": 0.0, "bike_id": "6080ba6a54fc5f56e6389763491814d3", "is_disabled": 0, "is_reserved": 0, "lat": 38.92124, "name": "6080ba6a54fc5f56e6389763491814d3", "rental_uris": {"ios": "https://dc.lft.to/lastmile_qr_scan", "android": "https://dc.lft.to/lastmile_qr_scan"}, "type": "electric_scooter", "fusion_lat": 0.0, "lon": -77.04441366666667}, {"fusion_lon": 0.0, "bike_id": "1972141dd8e93da2dfc77da5a07c09fa", "is_disabled": 0, "is_reserved": 0, "lat": 38.89827066666667, "name": "1972141dd8e93da2dfc77da5a07c09fa", "rental_uris": {"ios": "https://dc.lft.to/lastmile_qr_scan", "android": "https://dc.lft.to/lastmile_qr_scan"}, "type": "electric_scooter", "fusion_lat": 0.0, "lon": -76.94653983333333}, {"fusion_lon": 0.0, "bike_id": "aff5db7eb5b8cb117a9806fcb050b9d2", "is_disabled": 0, "is_reserved": 0, "lat": 38.876501166666664, "name": "aff5db7eb5b8cb117a9806fcb050b9d2", "rental_uris": {"ios": "https://dc.lft.to/lastmile_qr_scan", "android": "https://dc.lft.to/lastmile_qr_scan"}, "type": "electric_scooter", "fusion_lat": 0.0, "lon": -77.01943616666667}, {"fusion_lon": 0.0, "bike_id": "bf284f32a8b9a7327a449ae718e10385", "is_disabled": 0, "is_reserved": 0, "lat": 38.88026633333333, "name": "bf284f32a8b9a7327a449ae718e10385", "rental_uris": {"ios": "https://dc.lft.to/lastmile_qr_scan", "android": "https://dc.lft.to/lastmile_qr_scan"}, "type": "electric_bike", "fusion_lat": 0.0, "lon": -76.91722983333334}, {"fusion_lon": 0.0, "bike_id": "a441302ea9c044680185503d62f69ac7", "is_disabled": 0, "is_reserved": 0, "lat": 38.91809516666667, "name": "a441302ea9c044680185503d62f69ac7", "rental_uris": {"ios": "https://dc.lft.to/lastmile_qr_scan", "android": "https://dc.lft.to/lastmile_qr_scan"}, "type": "electric_scooter", "fusion_lat": 0.0, "lon": -77.034383}, {"fusion_lon": 0.0, "bike_id": "d8706704be70d6953ad55466a7491285", "is_disabled": 0, "is_reserved": 0, "lat": 38.897236666666664, "name": "d8706704be70d6953ad55466a7491285", "rental_uris": {"ios": "https://dc.lft.to/lastmile_qr_scan", "android": "https://dc.lft.to/lastmile_qr_scan"}, "type": "electric_scooter", "fusion_lat": 0.0, "lon": -76.994625}, {"fusion_lon": 0.0, "bike_id": "d13addc1abf4c1d0892fce025455899b", "is_disabled": 0, "is_reserved": 0, "lat": 38.90868416666667, "name": "d13addc1abf4c1d0892fce025455899b", "rental_uris": {"ios": "https://dc.lft.to/lastmile_qr_scan", "android": "https://dc.lft.to/lastmile_qr_scan"}, "type": "electric_scooter", "fusion_lat": 0.0, "lon": -77.0716575}, {"fusion_lon": 0.0, "bike_id": "f8b906b321dbb6539028ed1a73a89923", "is_disabled": 0, "is_reserved": 0, "lat": 38.91432966666667, "name": "f8b906b321dbb6539028ed1a73a89923", "rental_uris": {"ios": "https://dc.lft.to/lastmile_qr_scan", "android": "https://dc.lft.to/lastmile_qr_scan"}, "type": "electric_scooter", "fusion_lat": 0.0, "lon": -77.01804866666667}, {"fusion_lon": 0.0, "bike_id": "2e26d5cf471c4823dec2d0ca06211a74", "is_disabled": 0, "is_reserved": 0, "lat": 38.9141615, "name": "2e26d5cf471c4823dec2d0ca06211a74", "rental_uris": {"ios": "https://dc.lft.to/lastmile_qr_scan", "android": "https://dc.lft.to/lastmile_qr_scan"}, "type": "electric_scooter", "fusion_lat": 0.0, "lon": -77.02216166666666}, {"fusion_lon": 0.0, "bike_id": "db028e6c81b8e1715f26ff1ef25dab14", "is_disabled": 0, "is_reserved": 0, "lat": 38.933758, "name": "db028e6c81b8e1715f26ff1ef25dab14", "rental_uris": {"ios": "https://dc.lft.to/lastmile_qr_scan", "android": "https://dc.lft.to/lastmile_qr_scan"}, "type": "electric_scooter", "fusion_lat": 0.0, "lon": -77.0273355}, {"fusion_lon": 0.0, "bike_id": "6170fdb51ca114c4cbcda3b6f615896a", "is_disabled": 0, "is_reserved": 0, "lat": 38.8446005, "name": "6170fdb51ca114c4cbcda3b6f615896a", "rental_uris": {"ios": "https://dc.lft.to/lastmile_qr_scan", "android": "https://dc.lft.to/lastmile_qr_scan"}, "type": "electric_bike", "fusion_lat": 0.0, "lon": -77.0682585}, {"fusion_lon": 0.0, "bike_id": "8a0ee33736a01585015f51143204eef4", "is_disabled": 0, "is_reserved": 0, "lat": 38.9184425, "name": "8a0ee33736a01585015f51143204eef4", "rental_uris": {"ios": "https://dc.lft.to/lastmile_qr_scan", "android": "https://dc.lft.to/lastmile_qr_scan"}, "type": "electric_scooter", "fusion_lat": 0.0, "lon": -77.0318245}, {"fusion_lon": 0.0, "bike_id": "09624046f869a6b20a36467b0d70af3b", "is_disabled": 0, "is_reserved": 0, "lat": 38.8303295, "name": "09624046f869a6b20a36467b0d70af3b", "rental_uris": {"ios": "https://dc.lft.to/lastmile_qr_scan", "android": "https://dc.lft.to/lastmile_qr_scan"}, "type": "electric_bike", "fusion_lat": 0.0, "lon": -77.00824383333334}, {"fusion_lon": 0.0, "bike_id": "3a8ab8cf5d51d01d88a1cc35ffc1c00f", "is_disabled": 0, "is_reserved": 0, "lat": 38.87637016666667, "name": "3a8ab8cf5d51d01d88a1cc35ffc1c00f", "rental_uris": {"ios": "https://dc.lft.to/lastmile_qr_scan", "android": "https://dc.lft.to/lastmile_qr_scan"}, "type": "electric_bike", "fusion_lat": 0.0, "lon": -77.003676}, {"fusion_lon": 0.0, "bike_id": "f5d1ed5f191090406afb22ce37e69461", "is_disabled": 0, "is_reserved": 0, "lat": 38.90972466666667, "name": "f5d1ed5f191090406afb22ce37e69461", "rental_uris": {"ios": "https://dc.lft.to/lastmile_qr_scan", "android": "https://dc.lft.to/lastmile_qr_scan"}, "type": "electric_scooter", "fusion_lat": 0.0, "lon": -77.0088515}, {"fusion_lon": 0.0, "bike_id": "b0a231438aad5ef71b15fda06ac98af6", "is_disabled": 0, "is_reserved": 0, "lat": 38.8982745, "name": "b0a231438aad5ef71b15fda06ac98af6", "rental_uris": {"ios": "https://dc.lft.to/lastmile_qr_scan", "android": "https://dc.lft.to/lastmile_qr_scan"}, "type": "electric_scooter", "fusion_lat": 0.0, "lon": -77.04801966666666}, {"fusion_lon": 0.0, "bike_id": "2bda97f9050e5de14aad54cb4cdf78ff", "is_disabled": 0, "is_reserved": 0, "lat": 38.901174, "name": "2bda97f9050e5de14aad54cb4cdf78ff", "rental_uris": {"ios": "https://dc.lft.to/lastmile_qr_scan", "android": "https://dc.lft.to/lastmile_qr_scan"}, "type": "electric_scooter", "fusion_lat": 0.0, "lon": -77.04985033333334}, {"fusion_lon": 0.0, "bike_id": "ea7387a9e1783e8f2b9c431d31b7937b", "is_disabled": 0, "is_reserved": 0, "lat": 38.896204833333336, "name": "ea7387a9e1783e8f2b9c431d31b7937b", "rental_uris": {"ios": "https://dc.lft.to/lastmile_qr_scan", "android": "https://dc.lft.to/lastmile_qr_scan"}, "type": "electric_scooter", "fusion_lat": 0.0, "lon": -77.003573}, {"fusion_lon": 0.0, "bike_id": "7d73cf6094149622cf9fab5957b6639a", "is_disabled": 0, "is_reserved": 0, "lat": 38.90355016666667, "name": "7d73cf6094149622cf9fab5957b6639a", "rental_uris": {"ios": "https://dc.lft.to/lastmile_qr_scan", "android": "https://dc.lft.to/lastmile_qr_scan"}, "type": "electric_scooter", "fusion_lat": 0.0, "lon": -77.011132}, {"fusion_lon": 0.0, "bike_id": "af4fcb0123d9998eb9044df9ad81dd3d", "is_disabled": 0, "is_reserved": 0, "lat": 38.889674666666664, "name": "af4fcb0123d9998eb9044df9ad81dd3d", "rental_uris": {"ios": "https://dc.lft.to/lastmile_qr_scan", "android": "https://dc.lft.to/lastmile_qr_scan"}, "type": "electric_scooter", "fusion_lat": 0.0, "lon": -76.92740033333334}, {"fusion_lon": 0.0, "bike_id": "63ba27aacd87fc74735261ce63158ba3", "is_disabled": 0, "is_reserved": 0, "lat": 38.95311433333333, "name": "63ba27aacd87fc74735261ce63158ba3", "rental_uris": {"ios": "https://dc.lft.to/lastmile_qr_scan", "android": "https://dc.lft.to/lastmile_qr_scan"}, "type": "electric_bike", "fusion_lat": 0.0, "lon": -77.01915733333334}, {"fusion_lon": 0.0, "bike_id": "af598f0f24d1a97e00bb754fbde98c7d", "is_disabled": 0, "is_reserved": 0, "lat": 38.9257055, "name": "af598f0f24d1a97e00bb754fbde98c7d", "rental_uris": {"ios": "https://dc.lft.to/lastmile_qr_scan", "android": "https://dc.lft.to/lastmile_qr_scan"}, "type": "electric_scooter", "fusion_lat": 0.0, "lon": -77.03777633333333}, {"fusion_lon": 0.0, "bike_id": "d7e115b7e8b82b5a4b9a48d12adfc0c7", "is_disabled": 0, "is_reserved": 0, "lat": 38.92134866666667, "name": "d7e115b7e8b82b5a4b9a48d12adfc0c7", "rental_uris": {"ios": "https://dc.lft.to/lastmile_qr_scan", "android": "https://dc.lft.to/lastmile_qr_scan"}, "type": "electric_scooter", "fusion_lat": 0.0, "lon": -77.01784483333333}, {"fusion_lon": 0.0, "bike_id": "14f6ce69b0d2ea8adaaa946145cb2e10", "is_disabled": 0, "is_reserved": 0, "lat": 38.9170985, "name": "14f6ce69b0d2ea8adaaa946145cb2e10", "rental_uris": {"ios": "https://dc.lft.to/lastmile_qr_scan", "android": "https://dc.lft.to/lastmile_qr_scan"}, "type": "electric_scooter", "fusion_lat": 0.0, "lon": -77.03245333333334}, {"fusion_lon": 0.0, "bike_id": "d19a623fc67402f10bbbb1ffb0d478d0", "is_disabled": 0, "is_reserved": 0, "lat": 38.894999166666665, "name": "d19a623fc67402f10bbbb1ffb0d478d0", "rental_uris": {"ios": "https://dc.lft.to/lastmile_qr_scan", "android": "https://dc.lft.to/lastmile_qr_scan"}, "type": "electric_scooter", "fusion_lat": 0.0, "lon": -76.9236355}, {"fusion_lon": 0.0, "bike_id": "9a7d27b1d488587d67c84e19b6536cf8", "is_disabled": 0, "is_reserved": 0, "lat": 38.89827233333333, "name": "9a7d27b1d488587d67c84e19b6536cf8", "rental_uris": {"ios": "https://dc.lft.to/lastmile_qr_scan", "android": "https://dc.lft.to/lastmile_qr_scan"}, "type": "electric_scooter", "fusion_lat": 0.0, "lon": -77.048221}, {"fusion_lon": 0.0, "bike_id": "73ade298a536243378dcb9a49f130c84", "is_disabled": 0, "is_reserved": 0, "lat": 38.895681, "name": "73ade298a536243378dcb9a49f130c84", "rental_uris": {"ios": "https://dc.lft.to/lastmile_qr_scan", "android": "https://dc.lft.to/lastmile_qr_scan"}, "type": "electric_scooter", "fusion_lat": 0.0, "lon": -77.041507}, {"fusion_lon": 0.0, "bike_id": "a7be05f4d3ec9af69c5701ce0b6e797b", "is_disabled": 0, "is_reserved": 0, "lat": 38.92055966666667, "name": "a7be05f4d3ec9af69c5701ce0b6e797b", "rental_uris": {"ios": "https://dc.lft.to/lastmile_qr_scan", "android": "https://dc.lft.to/lastmile_qr_scan"}, "type": "electric_scooter", "fusion_lat": 0.0, "lon": -76.99883816666667}, {"fusion_lon": 0.0, "bike_id": "8e8888e9f08353dc75052b1d8cbacc7c", "is_disabled": 0, "is_reserved": 0, "lat": 38.92437066666667, "name": "8e8888e9f08353dc75052b1d8cbacc7c", "rental_uris": {"ios": "https://dc.lft.to/lastmile_qr_scan", "android": "https://dc.lft.to/lastmile_qr_scan"}, "type": "electric_scooter", "fusion_lat": 0.0, "lon": -77.0215735}, {"fusion_lon": 0.0, "bike_id": "5cf680f4277f3a663242b461cd264175", "is_disabled": 0, "is_reserved": 0, "lat": 38.89592116666667, "name": "5cf680f4277f3a663242b461cd264175", "rental_uris": {"ios": "https://dc.lft.to/lastmile_qr_scan", "android": "https://dc.lft.to/lastmile_qr_scan"}, "type": "electric_scooter", "fusion_lat": 0.0, "lon": -77.025243}, {"fusion_lon": 0.0, "bike_id": "194e2f14dcc573a01709817272d05132", "is_disabled": 0, "is_reserved": 0, "lat": 38.91268266666667, "name": "194e2f14dcc573a01709817272d05132", "rental_uris": {"ios": "https://dc.lft.to/lastmile_qr_scan", "android": "https://dc.lft.to/lastmile_qr_scan"}, "type": "electric_scooter", "fusion_lat": 0.0, "lon": -77.022296}, {"fusion_lon": 0.0, "bike_id": "4f3466a125234e0fcf9251a566637758", "is_disabled": 0, "is_reserved": 0, "lat": 38.901927666666666, "name": "4f3466a125234e0fcf9251a566637758", "rental_uris": {"ios": "https://dc.lft.to/lastmile_qr_scan", "android": "https://dc.lft.to/lastmile_qr_scan"}, "type": "electric_scooter", "fusion_lat": 0.0, "lon": -77.02183566666666}, {"fusion_lon": 0.0, "bike_id": "1df2f1c9a9b2247f9d3892426a74d000", "is_disabled": 0, "is_reserved": 0, "lat": 38.92407933333333, "name": "1df2f1c9a9b2247f9d3892426a74d000", "rental_uris": {"ios": "https://dc.lft.to/lastmile_qr_scan", "android": "https://dc.lft.to/lastmile_qr_scan"}, "type": "electric_scooter", "fusion_lat": 0.0, "lon": -77.0270875}, {"fusion_lon": 0.0, "bike_id": "36488269289df13f4eb0d3a85121ef70", "is_disabled": 0, "is_reserved": 0, "lat": 38.91402766666667, "name": "36488269289df13f4eb0d3a85121ef70", "rental_uris": {"ios": "https://dc.lft.to/lastmile_qr_scan", "android": "https://dc.lft.to/lastmile_qr_scan"}, "type": "electric_scooter", "fusion_lat": 0.0, "lon": -77.03216166666667}, {"fusion_lon": 0.0, "bike_id": "1f6f89ae8c8f9202178b5167ac78ffe1", "is_disabled": 0, "is_reserved": 0, "lat": 38.900784333333334, "name": "1f6f89ae8c8f9202178b5167ac78ffe1", "rental_uris": {"ios": "https://dc.lft.to/lastmile_qr_scan", "android": "https://dc.lft.to/lastmile_qr_scan"}, "type": "electric_scooter", "fusion_lat": 0.0, "lon": -77.0269285}, {"fusion_lon": 0.0, "bike_id": "e80ac618d3588b75e6b687f314a4ebd8", "is_disabled": 0, "is_reserved": 0, "lat": 38.93136483333333, "name": "e80ac618d3588b75e6b687f314a4ebd8", "rental_uris": {"ios": "https://dc.lft.to/lastmile_qr_scan", "android": "https://dc.lft.to/lastmile_qr_scan"}, "type": "electric_scooter", "fusion_lat": 0.0, "lon": -77.078488}, {"fusion_lon": 0.0, "bike_id": "b82a73e969f543ec4e8985ee00c88e9d", "is_disabled": 0, "is_reserved": 0, "lat": 38.907835166666665, "name": "b82a73e969f543ec4e8985ee00c88e9d", "rental_uris": {"ios": "https://dc.lft.to/lastmile_qr_scan", "android": "https://dc.lft.to/lastmile_qr_scan"}, "type": "electric_scooter", "fusion_lat": 0.0, "lon": -77.00343083333334}, {"fusion_lon": 0.0, "bike_id": "7d89cdcdf2dfc512445238b9eaac400f", "is_disabled": 0, "is_reserved": 0, "lat": 38.92594033333334, "name": "7d89cdcdf2dfc512445238b9eaac400f", "rental_uris": {"ios": "https://dc.lft.to/lastmile_qr_scan", "android": "https://dc.lft.to/lastmile_qr_scan"}, "type": "electric_bike", "fusion_lat": 0.0, "lon": -77.03332233333333}, {"fusion_lon": 0.0, "bike_id": "5a4178d7db41df2342f036713de140e6", "is_disabled": 0, "is_reserved": 0, "lat": 38.917682666666664, "name": "5a4178d7db41df2342f036713de140e6", "rental_uris": {"ios": "https://dc.lft.to/lastmile_qr_scan", "android": "https://dc.lft.to/lastmile_qr_scan"}, "type": "electric_scooter", "fusion_lat": 0.0, "lon": -77.00350233333333}, {"fusion_lon": 0.0, "bike_id": "796fe0d466b2fda666786737991609b5", "is_disabled": 0, "is_reserved": 0, "lat": 38.90064133333333, "name": "796fe0d466b2fda666786737991609b5", "rental_uris": {"ios": "https://dc.lft.to/lastmile_qr_scan", "android": "https://dc.lft.to/lastmile_qr_scan"}, "type": "electric_scooter", "fusion_lat": 0.0, "lon": -77.05053066666666}, {"fusion_lon": 0.0, "bike_id": "47d6d00ae2cb6828528c037cd6916817", "is_disabled": 0, "is_reserved": 0, "lat": 38.8924595, "name": "47d6d00ae2cb6828528c037cd6916817", "rental_uris": {"ios": "https://dc.lft.to/lastmile_qr_scan", "android": "https://dc.lft.to/lastmile_qr_scan"}, "type": "electric_scooter", "fusion_lat": 0.0, "lon": -76.952146}, {"fusion_lon": 0.0, "bike_id": "f67bf4f2095d76e99a223f0c022735f7", "is_disabled": 0, "is_reserved": 0, "lat": 38.9372445, "name": "f67bf4f2095d76e99a223f0c022735f7", "rental_uris": {"ios": "https://dc.lft.to/lastmile_qr_scan", "android": "https://dc.lft.to/lastmile_qr_scan"}, "type": "electric_scooter", "fusion_lat": 0.0, "lon": -77.073475}, {"fusion_lon": 0.0, "bike_id": "15d0d07e8f61e5703d5b439a381667dd", "is_disabled": 0, "is_reserved": 0, "lat": 38.927354666666666, "name": "15d0d07e8f61e5703d5b439a381667dd", "rental_uris": {"ios": "https://dc.lft.to/lastmile_qr_scan", "android": "https://dc.lft.to/lastmile_qr_scan"}, "type": "electric_bike", "fusion_lat": 0.0, "lon": -76.99365366666666}, {"fusion_lon": 0.0, "bike_id": "cb46237b458c904000a74aa0c0f17f9d", "is_disabled": 0, "is_reserved": 0, "lat": 38.888755833333335, "name": "cb46237b458c904000a74aa0c0f17f9d", "rental_uris": {"ios": "https://dc.lft.to/lastmile_qr_scan", "android": "https://dc.lft.to/lastmile_qr_scan"}, "type": "electric_scooter", "fusion_lat": 0.0, "lon": -76.990333}, {"fusion_lon": 0.0, "bike_id": "f1f7ea325645d4d2231c30ce53de7537", "is_disabled": 0, "is_reserved": 0, "lat": 38.90022733333333, "name": "f1f7ea325645d4d2231c30ce53de7537", "rental_uris": {"ios": "https://dc.lft.to/lastmile_qr_scan", "android": "https://dc.lft.to/lastmile_qr_scan"}, "type": "electric_scooter", "fusion_lat": 0.0, "lon": -76.99344466666666}, {"fusion_lon": 0.0, "bike_id": "78d8970196bb7c4cefdf7d8063dcd773", "is_disabled": 0, "is_reserved": 0, "lat": 38.906490166666664, "name": "78d8970196bb7c4cefdf7d8063dcd773", "rental_uris": {"ios": "https://dc.lft.to/lastmile_qr_scan", "android": "https://dc.lft.to/lastmile_qr_scan"}, "type": "electric_scooter", "fusion_lat": 0.0, "lon": -77.05329266666666}, {"fusion_lon": 0.0, "bike_id": "652f4efd249d4495c31b9120814edd19", "is_disabled": 0, "is_reserved": 0, "lat": 38.91487816666667, "name": "652f4efd249d4495c31b9120814edd19", "rental_uris": {"ios": "https://dc.lft.to/lastmile_qr_scan", "android": "https://dc.lft.to/lastmile_qr_scan"}, "type": "electric_scooter", "fusion_lat": 0.0, "lon": -77.021765}, {"fusion_lon": 0.0, "bike_id": "daf73d4f6918be3b5aafd732eaea48d8", "is_disabled": 0, "is_reserved": 0, "lat": 38.8988505, "name": "daf73d4f6918be3b5aafd732eaea48d8", "rental_uris": {"ios": "https://dc.lft.to/lastmile_qr_scan", "android": "https://dc.lft.to/lastmile_qr_scan"}, "type": "electric_scooter", "fusion_lat": 0.0, "lon": -77.02033}, {"fusion_lon": 0.0, "bike_id": "f5fe57cd7a8fb99c16ab0ec63169a5a5", "is_disabled": 0, "is_reserved": 0, "lat": 38.9282525, "name": "f5fe57cd7a8fb99c16ab0ec63169a5a5", "rental_uris": {"ios": "https://dc.lft.to/lastmile_qr_scan", "android": "https://dc.lft.to/lastmile_qr_scan"}, "type": "electric_scooter", "fusion_lat": 0.0, "lon": -77.02256033333333}, {"fusion_lon": 0.0, "bike_id": "ecc7683b0c359bca76309bcaf23f3420", "is_disabled": 0, "is_reserved": 0, "lat": 38.90965683333334, "name": "ecc7683b0c359bca76309bcaf23f3420", "rental_uris": {"ios": "https://dc.lft.to/lastmile_qr_scan", "android": "https://dc.lft.to/lastmile_qr_scan"}, "type": "electric_scooter", "fusion_lat": 0.0, "lon": -77.01183183333333}, {"fusion_lon": 0.0, "bike_id": "a6bb60e9eea977e9863429a94aa0505f", "is_disabled": 0, "is_reserved": 0, "lat": 38.926241166666664, "name": "a6bb60e9eea977e9863429a94aa0505f", "rental_uris": {"ios": "https://dc.lft.to/lastmile_qr_scan", "android": "https://dc.lft.to/lastmile_qr_scan"}, "type": "electric_scooter", "fusion_lat": 0.0, "lon": -77.07721466666666}, {"fusion_lon": 0.0, "bike_id": "de6cce90acab850ce6f8e5ec9cd2177f", "is_disabled": 0, "is_reserved": 0, "lat": 38.90145316666667, "name": "de6cce90acab850ce6f8e5ec9cd2177f", "rental_uris": {"ios": "https://dc.lft.to/lastmile_qr_scan", "android": "https://dc.lft.to/lastmile_qr_scan"}, "type": "electric_scooter", "fusion_lat": 0.0, "lon": -77.05115316666667}, {"fusion_lon": 0.0, "bike_id": "8c5884c74d246c6e9ae18ffe4454afb8", "is_disabled": 0, "is_reserved": 0, "lat": 38.909061, "name": "8c5884c74d246c6e9ae18ffe4454afb8", "rental_uris": {"ios": "https://dc.lft.to/lastmile_qr_scan", "android": "https://dc.lft.to/lastmile_qr_scan"}, "type": "electric_bike", "fusion_lat": 0.0, "lon": -77.089976}, {"fusion_lon": 0.0, "bike_id": "51c4a1b01758bd0c6a669af75dc2ec11", "is_disabled": 0, "is_reserved": 0, "lat": 38.9475315, "name": "51c4a1b01758bd0c6a669af75dc2ec11", "rental_uris": {"ios": "https://dc.lft.to/lastmile_qr_scan", "android": "https://dc.lft.to/lastmile_qr_scan"}, "type": "electric_scooter", "fusion_lat": 0.0, "lon": -77.032849}, {"fusion_lon": 0.0, "bike_id": "22c8a906611f23e8a780ac92852ba3e9", "is_disabled": 0, "is_reserved": 0, "lat": 38.8886635, "name": "22c8a906611f23e8a780ac92852ba3e9", "rental_uris": {"ios": "https://dc.lft.to/lastmile_qr_scan", "android": "https://dc.lft.to/lastmile_qr_scan"}, "type": "electric_scooter", "fusion_lat": 0.0, "lon": -77.00001266666666}, {"fusion_lon": 0.0, "bike_id": "872d051591c6ada9342019b1be94a218", "is_disabled": 0, "is_reserved": 0, "lat": 38.920188333333336, "name": "872d051591c6ada9342019b1be94a218", "rental_uris": {"ios": "https://dc.lft.to/lastmile_qr_scan", "android": "https://dc.lft.to/lastmile_qr_scan"}, "type": "electric_scooter", "fusion_lat": 0.0, "lon": -77.071394}, {"fusion_lon": 0.0, "bike_id": "8a8e45ee0a2ff269ed5b2898ec9048ad", "is_disabled": 0, "is_reserved": 0, "lat": 38.96129416666667, "name": "8a8e45ee0a2ff269ed5b2898ec9048ad", "rental_uris": {"ios": "https://dc.lft.to/lastmile_qr_scan", "android": "https://dc.lft.to/lastmile_qr_scan"}, "type": "electric_bike", "fusion_lat": 0.0, "lon": -77.03275416666666}, {"fusion_lon": 0.0, "bike_id": "d26695640948fa977706f55efc1a4fb8", "is_disabled": 0, "is_reserved": 0, "lat": 38.90018583333333, "name": "d26695640948fa977706f55efc1a4fb8", "rental_uris": {"ios": "https://dc.lft.to/lastmile_qr_scan", "android": "https://dc.lft.to/lastmile_qr_scan"}, "type": "electric_scooter", "fusion_lat": 0.0, "lon": -77.04498166666667}, {"fusion_lon": 0.0, "bike_id": "dc0e8f3103dcaf1bd373810051e8808f", "is_disabled": 0, "is_reserved": 0, "lat": 38.924155, "name": "dc0e8f3103dcaf1bd373810051e8808f", "rental_uris": {"ios": "https://dc.lft.to/lastmile_qr_scan", "android": "https://dc.lft.to/lastmile_qr_scan"}, "type": "electric_scooter", "fusion_lat": 0.0, "lon": -77.035513}, {"fusion_lon": 0.0, "bike_id": "3416a6f80b081b50920237cfc2a91383", "is_disabled": 0, "is_reserved": 0, "lat": 38.9212515, "name": "3416a6f80b081b50920237cfc2a91383", "rental_uris": {"ios": "https://dc.lft.to/lastmile_qr_scan", "android": "https://dc.lft.to/lastmile_qr_scan"}, "type": "electric_scooter", "fusion_lat": 0.0, "lon": -77.01874816666667}, {"fusion_lon": 0.0, "bike_id": "833b8b474ef17aa9dbf86c24c43ae1c2", "is_disabled": 0, "is_reserved": 0, "lat": 38.97413533333334, "name": "833b8b474ef17aa9dbf86c24c43ae1c2", "rental_uris": {"ios": "https://dc.lft.to/lastmile_qr_scan", "android": "https://dc.lft.to/lastmile_qr_scan"}, "type": "electric_bike", "fusion_lat": 0.0, "lon": -76.984153}, {"fusion_lon": 0.0, "bike_id": "429970ec2e6d37fce5d8483a69020f83", "is_disabled": 0, "is_reserved": 0, "lat": 38.92477183333333, "name": "429970ec2e6d37fce5d8483a69020f83", "rental_uris": {"ios": "https://dc.lft.to/lastmile_qr_scan", "android": "https://dc.lft.to/lastmile_qr_scan"}, "type": "electric_scooter", "fusion_lat": 0.0, "lon": -77.02199683333333}, {"fusion_lon": 0.0, "bike_id": "7a4f96c62bd33778a1ddda5e5c3f6ae0", "is_disabled": 0, "is_reserved": 0, "lat": 38.92274166666667, "name": "7a4f96c62bd33778a1ddda5e5c3f6ae0", "rental_uris": {"ios": "https://dc.lft.to/lastmile_qr_scan", "android": "https://dc.lft.to/lastmile_qr_scan"}, "type": "electric_scooter", "fusion_lat": 0.0, "lon": -77.021289}, {"fusion_lon": 0.0, "bike_id": "1512a315d42fab9043917c8cdfdea089", "is_disabled": 0, "is_reserved": 0, "lat": 38.92333716666667, "name": "1512a315d42fab9043917c8cdfdea089", "rental_uris": {"ios": "https://dc.lft.to/lastmile_qr_scan", "android": "https://dc.lft.to/lastmile_qr_scan"}, "type": "electric_scooter", "fusion_lat": 0.0, "lon": -77.02801316666667}, {"fusion_lon": 0.0, "bike_id": "bc1cb8f93eeccc08222836f8f50efc31", "is_disabled": 0, "is_reserved": 0, "lat": 38.926556, "name": "bc1cb8f93eeccc08222836f8f50efc31", "rental_uris": {"ios": "https://dc.lft.to/lastmile_qr_scan", "android": "https://dc.lft.to/lastmile_qr_scan"}, "type": "electric_bike", "fusion_lat": 0.0, "lon": -77.09020166666667}, {"fusion_lon": 0.0, "bike_id": "b13dcfd8483f35a59d72c3af7ce2bed6", "is_disabled": 0, "is_reserved": 0, "lat": 38.94308516666667, "name": "b13dcfd8483f35a59d72c3af7ce2bed6", "rental_uris": {"ios": "https://dc.lft.to/lastmile_qr_scan", "android": "https://dc.lft.to/lastmile_qr_scan"}, "type": "electric_scooter", "fusion_lat": 0.0, "lon": -77.0294875}, {"fusion_lon": 0.0, "bike_id": "1f8b69a0cac732c3c0bd1c80ff3c089a", "is_disabled": 0, "is_reserved": 0, "lat": 38.899198166666665, "name": "1f8b69a0cac732c3c0bd1c80ff3c089a", "rental_uris": {"ios": "https://dc.lft.to/lastmile_qr_scan", "android": "https://dc.lft.to/lastmile_qr_scan"}, "type": "electric_scooter", "fusion_lat": 0.0, "lon": -77.00355583333334}, {"fusion_lon": 0.0, "bike_id": "f699322465e889355336408915e00b08", "is_disabled": 0, "is_reserved": 0, "lat": 38.91630333333333, "name": "f699322465e889355336408915e00b08", "rental_uris": {"ios": "https://dc.lft.to/lastmile_qr_scan", "android": "https://dc.lft.to/lastmile_qr_scan"}, "type": "electric_scooter", "fusion_lat": 0.0, "lon": -77.00498383333333}, {"fusion_lon": 0.0, "bike_id": "fca37ef6a63aa170546e667f0d16b2af", "is_disabled": 0, "is_reserved": 0, "lat": 38.915067, "name": "fca37ef6a63aa170546e667f0d16b2af", "rental_uris": {"ios": "https://dc.lft.to/lastmile_qr_scan", "android": "https://dc.lft.to/lastmile_qr_scan"}, "type": "electric_scooter", "fusion_lat": 0.0, "lon": -77.03826283333333}, {"fusion_lon": 0.0, "bike_id": "67dd1624cfba04bb5253a3eaac5ba52d", "is_disabled": 0, "is_reserved": 0, "lat": 38.899666333333336, "name": "67dd1624cfba04bb5253a3eaac5ba52d", "rental_uris": {"ios": "https://dc.lft.to/lastmile_qr_scan", "android": "https://dc.lft.to/lastmile_qr_scan"}, "type": "electric_scooter", "fusion_lat": 0.0, "lon": -76.9948975}, {"fusion_lon": 0.0, "bike_id": "09879e05e2f73fc6af34e313978e5fa4", "is_disabled": 0, "is_reserved": 0, "lat": 38.947395666666665, "name": "09879e05e2f73fc6af34e313978e5fa4", "rental_uris": {"ios": "https://dc.lft.to/lastmile_qr_scan", "android": "https://dc.lft.to/lastmile_qr_scan"}, "type": "electric_scooter", "fusion_lat": 0.0, "lon": -77.02367233333334}, {"fusion_lon": 0.0, "bike_id": "59bc2f8e079ac56d1ed7adc473c91797", "is_disabled": 0, "is_reserved": 0, "lat": 38.898611, "name": "59bc2f8e079ac56d1ed7adc473c91797", "rental_uris": {"ios": "https://dc.lft.to/lastmile_qr_scan", "android": "https://dc.lft.to/lastmile_qr_scan"}, "type": "electric_scooter", "fusion_lat": 0.0, "lon": -77.0466915}, {"fusion_lon": 0.0, "bike_id": "72271e42d6c0f540b37b78d87efdd0dc", "is_disabled": 0, "is_reserved": 0, "lat": 38.87736783333333, "name": "72271e42d6c0f540b37b78d87efdd0dc", "rental_uris": {"ios": "https://dc.lft.to/lastmile_qr_scan", "android": "https://dc.lft.to/lastmile_qr_scan"}, "type": "electric_scooter", "fusion_lat": 0.0, "lon": -77.010574}, {"fusion_lon": 0.0, "bike_id": "3768857316bc1836d63fb8d23705109c", "is_disabled": 0, "is_reserved": 0, "lat": 38.9203885, "name": "3768857316bc1836d63fb8d23705109c", "rental_uris": {"ios": "https://dc.lft.to/lastmile_qr_scan", "android": "https://dc.lft.to/lastmile_qr_scan"}, "type": "electric_scooter", "fusion_lat": 0.0, "lon": -77.0341015}, {"fusion_lon": 0.0, "bike_id": "313cd0e60703ef8b542c7b36b0ca7465", "is_disabled": 0, "is_reserved": 0, "lat": 38.92742833333333, "name": "313cd0e60703ef8b542c7b36b0ca7465", "rental_uris": {"ios": "https://dc.lft.to/lastmile_qr_scan", "android": "https://dc.lft.to/lastmile_qr_scan"}, "type": "electric_scooter", "fusion_lat": 0.0, "lon": -77.03293383333333}, {"fusion_lon": 0.0, "bike_id": "8888dcc1132a486f1a23a7dbdcb91a32", "is_disabled": 0, "is_reserved": 0, "lat": 38.9017295, "name": "8888dcc1132a486f1a23a7dbdcb91a32", "rental_uris": {"ios": "https://dc.lft.to/lastmile_qr_scan", "android": "https://dc.lft.to/lastmile_qr_scan"}, "type": "electric_scooter", "fusion_lat": 0.0, "lon": -76.92943233333334}, {"fusion_lon": 0.0, "bike_id": "5e52c6e85c995a00a016844bf7daecd3", "is_disabled": 0, "is_reserved": 0, "lat": 38.92120116666667, "name": "5e52c6e85c995a00a016844bf7daecd3", "rental_uris": {"ios": "https://dc.lft.to/lastmile_qr_scan", "android": "https://dc.lft.to/lastmile_qr_scan"}, "type": "electric_scooter", "fusion_lat": 0.0, "lon": -77.01213133333333}, {"fusion_lon": 0.0, "bike_id": "e490125577f6dca1a2d5b14475d24f26", "is_disabled": 0, "is_reserved": 0, "lat": 38.885579666666665, "name": "e490125577f6dca1a2d5b14475d24f26", "rental_uris": {"ios": "https://dc.lft.to/lastmile_qr_scan", "android": "https://dc.lft.to/lastmile_qr_scan"}, "type": "electric_scooter", "fusion_lat": 0.0, "lon": -77.0200375}, {"fusion_lon": 0.0, "bike_id": "cb6d74e7c6933e90a3ee001283958e63", "is_disabled": 0, "is_reserved": 0, "lat": 38.919415, "name": "cb6d74e7c6933e90a3ee001283958e63", "rental_uris": {"ios": "https://dc.lft.to/lastmile_qr_scan", "android": "https://dc.lft.to/lastmile_qr_scan"}, "type": "electric_scooter", "fusion_lat": 0.0, "lon": -77.013563}, {"fusion_lon": 0.0, "bike_id": "d2b3a181ce06566912c514edf8c0eaf2", "is_disabled": 0, "is_reserved": 0, "lat": 38.914138333333334, "name": "d2b3a181ce06566912c514edf8c0eaf2", "rental_uris": {"ios": "https://dc.lft.to/lastmile_qr_scan", "android": "https://dc.lft.to/lastmile_qr_scan"}, "type": "electric_scooter", "fusion_lat": 0.0, "lon": -77.01837116666667}, {"fusion_lon": 0.0, "bike_id": "f998f6fb228698228636b6b5fc7d165f", "is_disabled": 0, "is_reserved": 0, "lat": 38.8972505, "name": "f998f6fb228698228636b6b5fc7d165f", "rental_uris": {"ios": "https://dc.lft.to/lastmile_qr_scan", "android": "https://dc.lft.to/lastmile_qr_scan"}, "type": "electric_scooter", "fusion_lat": 0.0, "lon": -76.97859033333333}, {"fusion_lon": 0.0, "bike_id": "d7cc8db0adaf0ea16b62efa5f9c96b9f", "is_disabled": 0, "is_reserved": 0, "lat": 38.936761833333335, "name": "d7cc8db0adaf0ea16b62efa5f9c96b9f", "rental_uris": {"ios": "https://dc.lft.to/lastmile_qr_scan", "android": "https://dc.lft.to/lastmile_qr_scan"}, "type": "electric_scooter", "fusion_lat": 0.0, "lon": -77.03287216666666}, {"fusion_lon": 0.0, "bike_id": "34f628ee9d32bb739da49d295674b441", "is_disabled": 0, "is_reserved": 0, "lat": 38.92553816666667, "name": "34f628ee9d32bb739da49d295674b441", "rental_uris": {"ios": "https://dc.lft.to/lastmile_qr_scan", "android": "https://dc.lft.to/lastmile_qr_scan"}, "type": "electric_scooter", "fusion_lat": 0.0, "lon": -77.04178433333334}, {"fusion_lon": 0.0, "bike_id": "9e3c50e791f6d4eb4f5c934f878e5b79", "is_disabled": 0, "is_reserved": 0, "lat": 38.91484166666667, "name": "9e3c50e791f6d4eb4f5c934f878e5b79", "rental_uris": {"ios": "https://dc.lft.to/lastmile_qr_scan", "android": "https://dc.lft.to/lastmile_qr_scan"}, "type": "electric_scooter", "fusion_lat": 0.0, "lon": -77.0218615}, {"fusion_lon": 0.0, "bike_id": "e144b11c45a12fb3b40f5aabb6f59ab0", "is_disabled": 0, "is_reserved": 0, "lat": 38.9224125, "name": "e144b11c45a12fb3b40f5aabb6f59ab0", "rental_uris": {"ios": "https://dc.lft.to/lastmile_qr_scan", "android": "https://dc.lft.to/lastmile_qr_scan"}, "type": "electric_scooter", "fusion_lat": 0.0, "lon": -77.0335775}, {"fusion_lon": 0.0, "bike_id": "0635fdcc59a006b1e2998e021c89113d", "is_disabled": 0, "is_reserved": 0, "lat": 38.900769, "name": "0635fdcc59a006b1e2998e021c89113d", "rental_uris": {"ios": "https://dc.lft.to/lastmile_qr_scan", "android": "https://dc.lft.to/lastmile_qr_scan"}, "type": "electric_scooter", "fusion_lat": 0.0, "lon": -77.04777833333333}, {"fusion_lon": 0.0, "bike_id": "396f618549f0ef6c70388b089e6a9841", "is_disabled": 0, "is_reserved": 0, "lat": 38.90654466666667, "name": "396f618549f0ef6c70388b089e6a9841", "rental_uris": {"ios": "https://dc.lft.to/lastmile_qr_scan", "android": "https://dc.lft.to/lastmile_qr_scan"}, "type": "electric_scooter", "fusion_lat": 0.0, "lon": -77.01414433333333}, {"fusion_lon": 0.0, "bike_id": "27ea528f9b25e395558c7d06b5cc2d67", "is_disabled": 0, "is_reserved": 0, "lat": 38.81542783333333, "name": "27ea528f9b25e395558c7d06b5cc2d67", "rental_uris": {"ios": "https://dc.lft.to/lastmile_qr_scan", "android": "https://dc.lft.to/lastmile_qr_scan"}, "type": "electric_bike", "fusion_lat": 0.0, "lon": -77.04648766666666}, {"fusion_lon": 0.0, "bike_id": "945c8440136ac56ed35935769d0f2538", "is_disabled": 0, "is_reserved": 0, "lat": 38.900157166666666, "name": "945c8440136ac56ed35935769d0f2538", "rental_uris": {"ios": "https://dc.lft.to/lastmile_qr_scan", "android": "https://dc.lft.to/lastmile_qr_scan"}, "type": "electric_scooter", "fusion_lat": 0.0, "lon": -77.045055}, {"fusion_lon": 0.0, "bike_id": "1da037fd143ee2dba5420ce1fee7c699", "is_disabled": 0, "is_reserved": 0, "lat": 38.8744305, "name": "1da037fd143ee2dba5420ce1fee7c699", "rental_uris": {"ios": "https://dc.lft.to/lastmile_qr_scan", "android": "https://dc.lft.to/lastmile_qr_scan"}, "type": "electric_scooter", "fusion_lat": 0.0, "lon": -77.00039833333334}, {"fusion_lon": 0.0, "bike_id": "4572c4ab74c59f47a84db7ddd5ea2faf", "is_disabled": 0, "is_reserved": 0, "lat": 38.9426255, "name": "4572c4ab74c59f47a84db7ddd5ea2faf", "rental_uris": {"ios": "https://dc.lft.to/lastmile_qr_scan", "android": "https://dc.lft.to/lastmile_qr_scan"}, "type": "electric_scooter", "fusion_lat": 0.0, "lon": -77.02980216666667}, {"fusion_lon": 0.0, "bike_id": "df12c17f2379ee9265cd11a8c52f38ad", "is_disabled": 0, "is_reserved": 0, "lat": 38.924733, "name": "df12c17f2379ee9265cd11a8c52f38ad", "rental_uris": {"ios": "https://dc.lft.to/lastmile_qr_scan", "android": "https://dc.lft.to/lastmile_qr_scan"}, "type": "electric_scooter", "fusion_lat": 0.0, "lon": -77.0266635}, {"fusion_lon": 0.0, "bike_id": "190ad789c2ccbf56639978f00ad1976b", "is_disabled": 0, "is_reserved": 0, "lat": 38.908290666666666, "name": "190ad789c2ccbf56639978f00ad1976b", "rental_uris": {"ios": "https://dc.lft.to/lastmile_qr_scan", "android": "https://dc.lft.to/lastmile_qr_scan"}, "type": "electric_scooter", "fusion_lat": 0.0, "lon": -77.03203733333334}, {"fusion_lon": 0.0, "bike_id": "d4a4d0a4b79274117772ed0327a85fb7", "is_disabled": 0, "is_reserved": 0, "lat": 38.874687333333334, "name": "d4a4d0a4b79274117772ed0327a85fb7", "rental_uris": {"ios": "https://dc.lft.to/lastmile_qr_scan", "android": "https://dc.lft.to/lastmile_qr_scan"}, "type": "electric_scooter", "fusion_lat": 0.0, "lon": -77.01572983333334}, {"fusion_lon": 0.0, "bike_id": "b22e43fa5b464a14faebbccb1aeb3afb", "is_disabled": 0, "is_reserved": 0, "lat": 38.9288705, "name": "b22e43fa5b464a14faebbccb1aeb3afb", "rental_uris": {"ios": "https://dc.lft.to/lastmile_qr_scan", "android": "https://dc.lft.to/lastmile_qr_scan"}, "type": "electric_scooter", "fusion_lat": 0.0, "lon": -77.033642}, {"fusion_lon": 0.0, "bike_id": "5932fe55dfa79dfb720d04b4219d60d2", "is_disabled": 0, "is_reserved": 0, "lat": 38.93644183333333, "name": "5932fe55dfa79dfb720d04b4219d60d2", "rental_uris": {"ios": "https://dc.lft.to/lastmile_qr_scan", "android": "https://dc.lft.to/lastmile_qr_scan"}, "type": "electric_scooter", "fusion_lat": 0.0, "lon": -77.0200125}, {"fusion_lon": 0.0, "bike_id": "c2951b03863e08cc531b8e397781da17", "is_disabled": 0, "is_reserved": 0, "lat": 38.90691133333333, "name": "c2951b03863e08cc531b8e397781da17", "rental_uris": {"ios": "https://dc.lft.to/lastmile_qr_scan", "android": "https://dc.lft.to/lastmile_qr_scan"}, "type": "electric_bike", "fusion_lat": 0.0, "lon": -76.95249266666667}, {"fusion_lon": 0.0, "bike_id": "427c996d729e0f13c21b2696c00b8bed", "is_disabled": 0, "is_reserved": 0, "lat": 38.92743766666667, "name": "427c996d729e0f13c21b2696c00b8bed", "rental_uris": {"ios": "https://dc.lft.to/lastmile_qr_scan", "android": "https://dc.lft.to/lastmile_qr_scan"}, "type": "electric_scooter", "fusion_lat": 0.0, "lon": -77.0329875}, {"fusion_lon": 0.0, "bike_id": "5a46263be58f8d016f726151cd15a007", "is_disabled": 0, "is_reserved": 0, "lat": 38.908122166666665, "name": "5a46263be58f8d016f726151cd15a007", "rental_uris": {"ios": "https://dc.lft.to/lastmile_qr_scan", "android": "https://dc.lft.to/lastmile_qr_scan"}, "type": "electric_scooter", "fusion_lat": 0.0, "lon": -77.04167033333333}, {"fusion_lon": 0.0, "bike_id": "a89bf2599ef022a391296e62a1482e08", "is_disabled": 0, "is_reserved": 0, "lat": 38.87958533333333, "name": "a89bf2599ef022a391296e62a1482e08", "rental_uris": {"ios": "https://dc.lft.to/lastmile_qr_scan", "android": "https://dc.lft.to/lastmile_qr_scan"}, "type": "electric_bike", "fusion_lat": 0.0, "lon": -76.93189233333334}, {"fusion_lon": 0.0, "bike_id": "817e51b2b764ff15488e379f833166e4", "is_disabled": 0, "is_reserved": 0, "lat": 38.923618, "name": "817e51b2b764ff15488e379f833166e4", "rental_uris": {"ios": "https://dc.lft.to/lastmile_qr_scan", "android": "https://dc.lft.to/lastmile_qr_scan"}, "type": "electric_scooter", "fusion_lat": 0.0, "lon": -77.04318733333334}, {"fusion_lon": 0.0, "bike_id": "ccb845a0723fd3b88ef72302c85b1ee0", "is_disabled": 0, "is_reserved": 0, "lat": 38.888729166666664, "name": "ccb845a0723fd3b88ef72302c85b1ee0", "rental_uris": {"ios": "https://dc.lft.to/lastmile_qr_scan", "android": "https://dc.lft.to/lastmile_qr_scan"}, "type": "electric_bike", "fusion_lat": 0.0, "lon": -76.95701133333333}, {"fusion_lon": 0.0, "bike_id": "7d633464b616ee54b3f5c0084cc8d543", "is_disabled": 0, "is_reserved": 0, "lat": 38.899227, "name": "7d633464b616ee54b3f5c0084cc8d543", "rental_uris": {"ios": "https://dc.lft.to/lastmile_qr_scan", "android": "https://dc.lft.to/lastmile_qr_scan"}, "type": "electric_scooter", "fusion_lat": 0.0, "lon": -76.93381966666666}, {"fusion_lon": 0.0, "bike_id": "4ee6b4932d862ead8ee5c5b37bd2a46a", "is_disabled": 0, "is_reserved": 0, "lat": 38.91029183333333, "name": "4ee6b4932d862ead8ee5c5b37bd2a46a", "rental_uris": {"ios": "https://dc.lft.to/lastmile_qr_scan", "android": "https://dc.lft.to/lastmile_qr_scan"}, "type": "electric_scooter", "fusion_lat": 0.0, "lon": -77.0075505}, {"fusion_lon": 0.0, "bike_id": "57903e88b910ea2c40ccba499ff5affc", "is_disabled": 0, "is_reserved": 0, "lat": 38.9274155, "name": "57903e88b910ea2c40ccba499ff5affc", "rental_uris": {"ios": "https://dc.lft.to/lastmile_qr_scan", "android": "https://dc.lft.to/lastmile_qr_scan"}, "type": "electric_scooter", "fusion_lat": 0.0, "lon": -77.03293933333333}, {"fusion_lon": 0.0, "bike_id": "f2ebcb65d552de6bbb133666ac636876", "is_disabled": 0, "is_reserved": 0, "lat": 38.92482483333333, "name": "f2ebcb65d552de6bbb133666ac636876", "rental_uris": {"ios": "https://dc.lft.to/lastmile_qr_scan", "android": "https://dc.lft.to/lastmile_qr_scan"}, "type": "electric_scooter", "fusion_lat": 0.0, "lon": -77.025451}, {"fusion_lon": 0.0, "bike_id": "b5c4ead3c51502c2b8e12118d5fe0cd3", "is_disabled": 0, "is_reserved": 0, "lat": 38.914435833333336, "name": "b5c4ead3c51502c2b8e12118d5fe0cd3", "rental_uris": {"ios": "https://dc.lft.to/lastmile_qr_scan", "android": "https://dc.lft.to/lastmile_qr_scan"}, "type": "electric_scooter", "fusion_lat": 0.0, "lon": -77.01217416666667}, {"fusion_lon": 0.0, "bike_id": "8ae8cbf546ada7e9fd765d778a901a49", "is_disabled": 0, "is_reserved": 0, "lat": 38.90730583333333, "name": "8ae8cbf546ada7e9fd765d778a901a49", "rental_uris": {"ios": "https://dc.lft.to/lastmile_qr_scan", "android": "https://dc.lft.to/lastmile_qr_scan"}, "type": "electric_scooter", "fusion_lat": 0.0, "lon": -77.068916}, {"fusion_lon": 0.0, "bike_id": "1ffc765f921d9e20aebeb6e677260584", "is_disabled": 0, "is_reserved": 0, "lat": 38.92818533333333, "name": "1ffc765f921d9e20aebeb6e677260584", "rental_uris": {"ios": "https://dc.lft.to/lastmile_qr_scan", "android": "https://dc.lft.to/lastmile_qr_scan"}, "type": "electric_scooter", "fusion_lat": 0.0, "lon": -77.05481583333334}, {"fusion_lon": 0.0, "bike_id": "f456d233e79a45b36e742f80993d1703", "is_disabled": 0, "is_reserved": 0, "lat": 38.90238083333333, "name": "f456d233e79a45b36e742f80993d1703", "rental_uris": {"ios": "https://dc.lft.to/lastmile_qr_scan", "android": "https://dc.lft.to/lastmile_qr_scan"}, "type": "electric_scooter", "fusion_lat": 0.0, "lon": -77.05168733333333}, {"fusion_lon": 0.0, "bike_id": "3429f7e35b27ec917cd126d9e91aa5ab", "is_disabled": 0, "is_reserved": 0, "lat": 38.92100583333333, "name": "3429f7e35b27ec917cd126d9e91aa5ab", "rental_uris": {"ios": "https://dc.lft.to/lastmile_qr_scan", "android": "https://dc.lft.to/lastmile_qr_scan"}, "type": "electric_scooter", "fusion_lat": 0.0, "lon": -77.03178583333333}, {"fusion_lon": 0.0, "bike_id": "120bdda11a9292201b2250d32cf78a94", "is_disabled": 0, "is_reserved": 0, "lat": 38.900806833333334, "name": "120bdda11a9292201b2250d32cf78a94", "rental_uris": {"ios": "https://dc.lft.to/lastmile_qr_scan", "android": "https://dc.lft.to/lastmile_qr_scan"}, "type": "electric_scooter", "fusion_lat": 0.0, "lon": -77.050169}, {"fusion_lon": 0.0, "bike_id": "a4aa42da4a93fa53a7d948ee91d38be7", "is_disabled": 0, "is_reserved": 0, "lat": 38.94059683333333, "name": "a4aa42da4a93fa53a7d948ee91d38be7", "rental_uris": {"ios": "https://dc.lft.to/lastmile_qr_scan", "android": "https://dc.lft.to/lastmile_qr_scan"}, "type": "electric_bike", "fusion_lat": 0.0, "lon": -77.0289235}, {"fusion_lon": 0.0, "bike_id": "d9887095aa6ffa437b7f05f7e265bf81", "is_disabled": 0, "is_reserved": 0, "lat": 38.87176066666667, "name": "d9887095aa6ffa437b7f05f7e265bf81", "rental_uris": {"ios": "https://dc.lft.to/lastmile_qr_scan", "android": "https://dc.lft.to/lastmile_qr_scan"}, "type": "electric_bike", "fusion_lat": 0.0, "lon": -77.2339165}, {"fusion_lon": 0.0, "bike_id": "2695704a2f7a95088cccaba67ccfafc2", "is_disabled": 0, "is_reserved": 0, "lat": 38.872889, "name": "2695704a2f7a95088cccaba67ccfafc2", "rental_uris": {"ios": "https://dc.lft.to/lastmile_qr_scan", "android": "https://dc.lft.to/lastmile_qr_scan"}, "type": "electric_scooter", "fusion_lat": 0.0, "lon": -77.01521066666666}, {"fusion_lon": 0.0, "bike_id": "b24632e9aaaddf04c362b6eeaff85dde", "is_disabled": 0, "is_reserved": 0, "lat": 38.935336166666666, "name": "b24632e9aaaddf04c362b6eeaff85dde", "rental_uris": {"ios": "https://dc.lft.to/lastmile_qr_scan", "android": "https://dc.lft.to/lastmile_qr_scan"}, "type": "electric_bike", "fusion_lat": 0.0, "lon": -77.05690533333333}, {"fusion_lon": 0.0, "bike_id": "e6455adf97138d7d863065da01c68147", "is_disabled": 0, "is_reserved": 0, "lat": 38.91808916666667, "name": "e6455adf97138d7d863065da01c68147", "rental_uris": {"ios": "https://dc.lft.to/lastmile_qr_scan", "android": "https://dc.lft.to/lastmile_qr_scan"}, "type": "electric_scooter", "fusion_lat": 0.0, "lon": -77.046365}, {"fusion_lon": 0.0, "bike_id": "dd311aafa34f00e67ee4575d343089ae", "is_disabled": 0, "is_reserved": 0, "lat": 38.90070166666667, "name": "dd311aafa34f00e67ee4575d343089ae", "rental_uris": {"ios": "https://dc.lft.to/lastmile_qr_scan", "android": "https://dc.lft.to/lastmile_qr_scan"}, "type": "electric_scooter", "fusion_lat": 0.0, "lon": -77.04888666666666}, {"fusion_lon": 0.0, "bike_id": "a0deac1a6a3a7466f26e87beaf390b11", "is_disabled": 0, "is_reserved": 0, "lat": 38.92059066666667, "name": "a0deac1a6a3a7466f26e87beaf390b11", "rental_uris": {"ios": "https://dc.lft.to/lastmile_qr_scan", "android": "https://dc.lft.to/lastmile_qr_scan"}, "type": "electric_scooter", "fusion_lat": 0.0, "lon": -77.04267683333333}, {"fusion_lon": 0.0, "bike_id": "46e7f471fbd4624953205d32f7d606a3", "is_disabled": 0, "is_reserved": 0, "lat": 38.9126745, "name": "46e7f471fbd4624953205d32f7d606a3", "rental_uris": {"ios": "https://dc.lft.to/lastmile_qr_scan", "android": "https://dc.lft.to/lastmile_qr_scan"}, "type": "electric_scooter", "fusion_lat": 0.0, "lon": -77.03872866666667}, {"fusion_lon": 0.0, "bike_id": "fc2f3aecf4520669fb0231cf1320df42", "is_disabled": 0, "is_reserved": 0, "lat": 38.807421833333336, "name": "fc2f3aecf4520669fb0231cf1320df42", "rental_uris": {"ios": "https://dc.lft.to/lastmile_qr_scan", "android": "https://dc.lft.to/lastmile_qr_scan"}, "type": "electric_bike", "fusion_lat": 0.0, "lon": -77.09688233333334}, {"fusion_lon": 0.0, "bike_id": "448904cd2f35b927c9de101e06b3ad25", "is_disabled": 0, "is_reserved": 0, "lat": 38.936865166666664, "name": "448904cd2f35b927c9de101e06b3ad25", "rental_uris": {"ios": "https://dc.lft.to/lastmile_qr_scan", "android": "https://dc.lft.to/lastmile_qr_scan"}, "type": "electric_bike", "fusion_lat": 0.0, "lon": -77.05643416666666}, {"fusion_lon": 0.0, "bike_id": "f00605456a5edb8ffc8f953e1b218608", "is_disabled": 0, "is_reserved": 0, "lat": 38.9242665, "name": "f00605456a5edb8ffc8f953e1b218608", "rental_uris": {"ios": "https://dc.lft.to/lastmile_qr_scan", "android": "https://dc.lft.to/lastmile_qr_scan"}, "type": "electric_scooter", "fusion_lat": 0.0, "lon": -77.0448055}, {"fusion_lon": 0.0, "bike_id": "8f2232a3e1405d24cc338181e77467be", "is_disabled": 0, "is_reserved": 0, "lat": 38.883894833333336, "name": "8f2232a3e1405d24cc338181e77467be", "rental_uris": {"ios": "https://dc.lft.to/lastmile_qr_scan", "android": "https://dc.lft.to/lastmile_qr_scan"}, "type": "electric_scooter", "fusion_lat": 0.0, "lon": -77.04449716666667}, {"fusion_lon": 0.0, "bike_id": "31dd374609b207f7d8409fe090c8aac2", "is_disabled": 0, "is_reserved": 0, "lat": 38.9241175, "name": "31dd374609b207f7d8409fe090c8aac2", "rental_uris": {"ios": "https://dc.lft.to/lastmile_qr_scan", "android": "https://dc.lft.to/lastmile_qr_scan"}, "type": "electric_scooter", "fusion_lat": 0.0, "lon": -77.036353}, {"fusion_lon": 0.0, "bike_id": "742e9201566a2f4fa8bd70300c0af757", "is_disabled": 0, "is_reserved": 0, "lat": 38.9134225, "name": "742e9201566a2f4fa8bd70300c0af757", "rental_uris": {"ios": "https://dc.lft.to/lastmile_qr_scan", "android": "https://dc.lft.to/lastmile_qr_scan"}, "type": "electric_scooter", "fusion_lat": 0.0, "lon": -77.0423415},