{"data": {"bikes": [{"is_disabled": 0, "fusion_lon": 0.0, "fusion_lat": 0.0, "lat": 38.892188, "type": "electric_scooter", "lon": -77.02262516666667, "bike_id": "338903ea34baae176f16d41553197d09", "rental_uris": {"android": "https://dc.lft.to/lastmile_qr_scan", "ios": "https://dc.lft.to/lastmile_qr_scan"}, "name": "338903ea34baae176f16d41553197d09", "is_reserved": 0}, {"is_disabled": 0, "fusion_lon": 0.0, "fusion_lat": 0.0, "lat": 38.910315, "type": "electric_scooter", "lon": -77.01377383333333, "bike_id": "26bf7a9d75d69ab70d9431dd99f5b2ff", "rental_uris": {"android": "https://dc.lft.to/lastmile_qr_scan", "ios": "https://dc.lft.to/lastmile_qr_scan"}, "name": "26bf7a9d75d69ab70d9431dd99f5b2ff", "is_reserved": 0}, {"is_disabled": 0, "fusion_lon": 0.0, "fusion_lat": 0.0, "lat": 38.903618333333334, "type": "electric_scooter", "lon": -77.00224583333333, "bike_id": "d63e7904bdcfa8eb36328e23fbd7623e", "rental_uris": {"android": "https://dc.lft.to/lastmile_qr_scan", "ios": "https://dc.lft.to/lastmile_qr_scan"}, "name": "d63e7904bdcfa8eb36328e23fbd7623e", "is_reserved": 0}, {"is_disabled": 0, "fusion_lon": 0.0, "fusion_lat": 0.0, "lat": 38.916478833333336, "type": "electric_scooter", "lon": -77.02181033333333, "bike_id": "8d2b433cb92aef28c3cb5dda522956c1", "rental_uris": {"android": "https://dc.lft.to/lastmile_qr_scan", "ios": "https://dc.lft.to/lastmile_qr_scan"}, "name": "8d2b433cb92aef28c3cb5dda522956c1", "is_reserved": 0}, {"is_disabled": 0, "fusion_lon": 0.0, "fusion_lat": 0.0, "lat": 38.8949325, "type": "electric_scooter", "lon": -77.01125833333333, "bike_id": "906bbc356a868dcc6dcaff77dc789f94", "rental_uris": {"android": "https://dc.lft.to/lastmile_qr_scan", "ios": "https://dc.lft.to/lastmile_qr_scan"}, "name": "906bbc356a868dcc6dcaff77dc789f94", "is_reserved": 0}, {"is_disabled": 0, "fusion_lon": 0.0, "fusion_lat": 0.0, "lat": 38.919182, "type": "electric_scooter", "lon": -77.0302535, "bike_id": "1270eb37f30d82033fdb2b708b7fa565", "rental_uris": {"android": "https://dc.lft.to/lastmile_qr_scan", "ios": "https://dc.lft.to/lastmile_qr_scan"}, "name": "1270eb37f30d82033fdb2b708b7fa565", "is_reserved": 0}, {"is_disabled": 0, "fusion_lon": 0.0, "fusion_lat": 0.0, "lat": 38.9091835, "type": "electric_scooter", "lon": -77.03197433333334, "bike_id": "bdf259e01bfa1697c3749d5d17e893dc", "rental_uris": {"android": "https://dc.lft.to/lastmile_qr_scan", "ios": "https://dc.lft.to/lastmile_qr_scan"}, "name": "bdf259e01bfa1697c3749d5d17e893dc", "is_reserved": 0}, {"is_disabled": 0, "fusion_lon": 0.0, "fusion_lat": 0.0, "lat": 38.9498265, "type": "electric_scooter", "lon": -77.02699183333333, "bike_id": "bcd418e24c5e1a41ede9a0802dc93284", "rental_uris": {"android": "https://dc.lft.to/lastmile_qr_scan", "ios": "https://dc.lft.to/lastmile_qr_scan"}, "name": "bcd418e24c5e1a41ede9a0802dc93284", "is_reserved": 0}, {"is_disabled": 0, "fusion_lon": 0.0, "fusion_lat": 0.0, "lat": 38.891644666666664, "type": "electric_scooter", "lon": -77.01545283333333, "bike_id": "4f5ed313d549e05bc1e5f42c372d4e7e", "rental_uris": {"android": "https://dc.lft.to/lastmile_qr_scan", "ios": "https://dc.lft.to/lastmile_qr_scan"}, "name": "4f5ed313d549e05bc1e5f42c372d4e7e", "is_reserved": 0}, {"is_disabled": 0, "fusion_lon": 0.0, "fusion_lat": 0.0, "lat": 38.907995666666665, "type": "electric_scooter", "lon": -77.0409405, "bike_id": "ae9da83f4943bf64dc07cb9254c979a3", "rental_uris": {"android": "https://dc.lft.to/lastmile_qr_scan", "ios": "https://dc.lft.to/lastmile_qr_scan"}, "name": "ae9da83f4943bf64dc07cb9254c979a3", "is_reserved": 0}, {"is_disabled": 0, "fusion_lon": 0.0, "fusion_lat": 0.0, "lat": 38.90312, "type": "electric_scooter", "lon": -76.9825715, "bike_id": "282b8ef080024eadf0be390b316e4e50", "rental_uris": {"android": "https://dc.lft.to/lastmile_qr_scan", "ios": "https://dc.lft.to/lastmile_qr_scan"}, "name": "282b8ef080024eadf0be390b316e4e50", "is_reserved": 0}, {"is_disabled": 0, "fusion_lon": 0.0, "fusion_lat": 0.0, "lat": 38.912554, "type": "electric_scooter", "lon": -77.009283, "bike_id": "b92e029502fbf254757050c0e69655dd", "rental_uris": {"android": "https://dc.lft.to/lastmile_qr_scan", "ios": "https://dc.lft.to/lastmile_qr_scan"}, "name": "b92e029502fbf254757050c0e69655dd", "is_reserved": 0}, {"is_disabled": 0, "fusion_lon": 0.0, "fusion_lat": 0.0, "lat": 38.893556333333336, "type": "electric_scooter", "lon": -76.9399105, "bike_id": "897e242354b4f81564b7f69c11cc8736", "rental_uris": {"android": "https://dc.lft.to/lastmile_qr_scan", "ios": "https://dc.lft.to/lastmile_qr_scan"}, "name": "897e242354b4f81564b7f69c11cc8736", "is_reserved": 0}, {"is_disabled": 0, "fusion_lon": 0.0, "fusion_lat": 0.0, "lat": 38.95085783333333, "type": "electric_bike", "lon": -76.965608, "bike_id": "cf760cdbd6c374d38f7f09a29adab202", "rental_uris": {"android": "https://dc.lft.to/lastmile_qr_scan", "ios": "https://dc.lft.to/lastmile_qr_scan"}, "name": "cf760cdbd6c374d38f7f09a29adab202", "is_reserved": 0}, {"is_disabled": 0, "fusion_lon": 0.0, "fusion_lat": 0.0, "lat": 38.90387283333333, "type": "electric_scooter", "lon": -77.0345475, "bike_id": "fa3c8001ba44240e8be1dd70b17653f5", "rental_uris": {"android": "https://dc.lft.to/lastmile_qr_scan", "ios": "https://dc.lft.to/lastmile_qr_scan"}, "name": "fa3c8001ba44240e8be1dd70b17653f5", "is_reserved": 0}, {"is_disabled": 0, "fusion_lon": 0.0, "fusion_lat": 0.0, "lat": 38.96815466666666, "type": "electric_scooter", "lon": -77.00892283333333, "bike_id": "c9aad5517b5d311f6aba6d7995678f0a", "rental_uris": {"android": "https://dc.lft.to/lastmile_qr_scan", "ios": "https://dc.lft.to/lastmile_qr_scan"}, "name": "c9aad5517b5d311f6aba6d7995678f0a", "is_reserved": 0}, {"is_disabled": 0, "fusion_lon": 0.0, "fusion_lat": 0.0, "lat": 38.91656966666667, "type": "electric_scooter", "lon": -77.04649266666667, "bike_id": "492b6a50627b9cf7129accd5715e8a94", "rental_uris": {"android": "https://dc.lft.to/lastmile_qr_scan", "ios": "https://dc.lft.to/lastmile_qr_scan"}, "name": "492b6a50627b9cf7129accd5715e8a94", "is_reserved": 0}, {"is_disabled": 0, "fusion_lon": 0.0, "fusion_lat": 0.0, "lat": 38.903622666666664, "type": "electric_scooter", "lon": -77.03449533333334, "bike_id": "24e41188a47fbd6ea6ca2e821c2ef777", "rental_uris": {"android": "https://dc.lft.to/lastmile_qr_scan", "ios": "https://dc.lft.to/lastmile_qr_scan"}, "name": "24e41188a47fbd6ea6ca2e821c2ef777", "is_reserved": 0}, {"is_disabled": 0, "fusion_lon": 0.0, "fusion_lat": 0.0, "lat": 38.916975666666666, "type": "electric_scooter", "lon": -77.042765, "bike_id": "e22496bc2b27abdbd8c9c92c5ed8a26a", "rental_uris": {"android": "https://dc.lft.to/lastmile_qr_scan", "ios": "https://dc.lft.to/lastmile_qr_scan"}, "name": "e22496bc2b27abdbd8c9c92c5ed8a26a", "is_reserved": 0}, {"is_disabled": 0, "fusion_lon": 0.0, "fusion_lat": 0.0, "lat": 38.91315933333333, "type": "electric_scooter", "lon": -77.02178983333333, "bike_id": "d6bbd3a6ed3cf85158e3674073ece0cb", "rental_uris": {"android": "https://dc.lft.to/lastmile_qr_scan", "ios": "https://dc.lft.to/lastmile_qr_scan"}, "name": "d6bbd3a6ed3cf85158e3674073ece0cb", "is_reserved": 0}, {"is_disabled": 0, "fusion_lon": 0.0, "fusion_lat": 0.0, "lat": 38.930012166666664, "type": "electric_bike", "lon": -77.01432416666667, "bike_id": "f713d09a01c83c9a7070f49f5a871d24", "rental_uris": {"android": "https://dc.lft.to/lastmile_qr_scan", "ios": "https://dc.lft.to/lastmile_qr_scan"}, "name": "f713d09a01c83c9a7070f49f5a871d24", "is_reserved": 0}, {"is_disabled": 0, "fusion_lon": 0.0, "fusion_lat": 0.0, "lat": 38.89728383333333, "type": "electric_bike", "lon": -76.90537816666667, "bike_id": "d1d9db60a6def521cc42f15d669696d5", "rental_uris": {"android": "https://dc.lft.to/lastmile_qr_scan", "ios": "https://dc.lft.to/lastmile_qr_scan"}, "name": "d1d9db60a6def521cc42f15d669696d5", "is_reserved": 0}, {"is_disabled": 0, "fusion_lon": 0.0, "fusion_lat": 0.0, "lat": 38.911223, "type": "electric_scooter", "lon": -77.04082066666666, "bike_id": "e7374f57de95d7984f6dfb105cbe1709", "rental_uris": {"android": "https://dc.lft.to/lastmile_qr_scan", "ios": "https://dc.lft.to/lastmile_qr_scan"}, "name": "e7374f57de95d7984f6dfb105cbe1709", "is_reserved": 0}, {"is_disabled": 0, "fusion_lon": 0.0, "fusion_lat": 0.0, "lat": 38.913553666666665, "type": "electric_scooter", "lon": -77.041619, "bike_id": "79acf51a3662a109dc85d6376c472e0d", "rental_uris": {"android": "https://dc.lft.to/lastmile_qr_scan", "ios": "https://dc.lft.to/lastmile_qr_scan"}, "name": "79acf51a3662a109dc85d6376c472e0d", "is_reserved": 0}, {"is_disabled": 0, "fusion_lon": 0.0, "fusion_lat": 0.0, "lat": 38.886634, "type": "electric_scooter", "lon": -77.003698, "bike_id": "8f0e0fee64a760d486cf41c77eed7009", "rental_uris": {"android": "https://dc.lft.to/lastmile_qr_scan", "ios": "https://dc.lft.to/lastmile_qr_scan"}, "name": "8f0e0fee64a760d486cf41c77eed7009", "is_reserved": 0}, {"is_disabled": 0, "fusion_lon": 0.0, "fusion_lat": 0.0, "lat": 39.0520445, "type": "electric_bike", "lon": -77.0441205, "bike_id": "4cc82978d379f178f334d530b645340a", "rental_uris": {"android": "https://dc.lft.to/lastmile_qr_scan", "ios": "https://dc.lft.to/lastmile_qr_scan"}, "name": "4cc82978d379f178f334d530b645340a", "is_reserved": 0}, {"is_disabled": 0, "fusion_lon": 0.0, "fusion_lat": 0.0, "lat": 38.99088666666667, "type": "electric_bike", "lon": -76.87495233333334, "bike_id": "7ca4b14615b563f1b9196d83b7fcdedb", "rental_uris": {"android": "https://dc.lft.to/lastmile_qr_scan", "ios": "https://dc.lft.to/lastmile_qr_scan"}, "name": "7ca4b14615b563f1b9196d83b7fcdedb", "is_reserved": 0}, {"is_disabled": 0, "fusion_lon": 0.0, "fusion_lat": 0.0, "lat": 38.905734833333334, "type": "electric_scooter", "lon": -77.0057815, "bike_id": "3f18a92049a33117459866faae28ab8e", "rental_uris": {"android": "https://dc.lft.to/lastmile_qr_scan", "ios": "https://dc.lft.to/lastmile_qr_scan"}, "name": "3f18a92049a33117459866faae28ab8e", "is_reserved": 0}, {"is_disabled": 0, "fusion_lon": 0.0, "fusion_lat": 0.0, "lat": 38.945725, "type": "electric_bike", "lon": -76.96029033333333, "bike_id": "fc9a9d5566b6b1cad0ce563af59bc500", "rental_uris": {"android": "https://dc.lft.to/lastmile_qr_scan", "ios": "https://dc.lft.to/lastmile_qr_scan"}, "name": "fc9a9d5566b6b1cad0ce563af59bc500", "is_reserved": 0}, {"is_disabled": 0, "fusion_lon": 0.0, "fusion_lat": 0.0, "lat": 38.99060633333333, "type": "electric_bike", "lon": -77.10027416666667, "bike_id": "ca3e418513a40ec958197b824be24358", "rental_uris": {"android": "https://dc.lft.to/lastmile_qr_scan", "ios": "https://dc.lft.to/lastmile_qr_scan"}, "name": "ca3e418513a40ec958197b824be24358", "is_reserved": 0}, {"is_disabled": 0, "fusion_lon": 0.0, "fusion_lat": 0.0, "lat": 38.9053365, "type": "electric_scooter", "lon": -77.065252, "bike_id": "38bc304c1c7029b041072c059cf86767", "rental_uris": {"android": "https://dc.lft.to/lastmile_qr_scan", "ios": "https://dc.lft.to/lastmile_qr_scan"}, "name": "38bc304c1c7029b041072c059cf86767", "is_reserved": 0}, {"is_disabled": 0, "fusion_lon": 0.0, "fusion_lat": 0.0, "lat": 38.95597933333333, "type": "electric_scooter", "lon": -77.00980016666666, "bike_id": "39838bc2ac7caac860a374b3e4f75759", "rental_uris": {"android": "https://dc.lft.to/lastmile_qr_scan", "ios": "https://dc.lft.to/lastmile_qr_scan"}, "name": "39838bc2ac7caac860a374b3e4f75759", "is_reserved": 0}, {"is_disabled": 0, "fusion_lon": 0.0, "fusion_lat": 0.0, "lat": 38.91112483333333, "type": "electric_scooter", "lon": -77.03749, "bike_id": "091d33d57e73f4e03260bbdf683d8cc1", "rental_uris": {"android": "https://dc.lft.to/lastmile_qr_scan", "ios": "https://dc.lft.to/lastmile_qr_scan"}, "name": "091d33d57e73f4e03260bbdf683d8cc1", "is_reserved": 0}, {"is_disabled": 0, "fusion_lon": 0.0, "fusion_lat": 0.0, "lat": 38.9330625, "type": "electric_scooter", "lon": -77.02135116666666, "bike_id": "14d706facb527223510cc2ee9771f779", "rental_uris": {"android": "https://dc.lft.to/lastmile_qr_scan", "ios": "https://dc.lft.to/lastmile_qr_scan"}, "name": "14d706facb527223510cc2ee9771f779", "is_reserved": 0}, {"is_disabled": 0, "fusion_lon": 0.0, "fusion_lat": 0.0, "lat": 38.962133666666666, "type": "electric_scooter", "lon": -77.02799833333333, "bike_id": "e736304af03b07348b635662666b7671", "rental_uris": {"android": "https://dc.lft.to/lastmile_qr_scan", "ios": "https://dc.lft.to/lastmile_qr_scan"}, "name": "e736304af03b07348b635662666b7671", "is_reserved": 0}, {"is_disabled": 0, "fusion_lon": 0.0, "fusion_lat": 0.0, "lat": 38.874940333333335, "type": "electric_bike", "lon": -77.049001, "bike_id": "0e11ecd5aac6f4c33d6010720c68d08e", "rental_uris": {"android": "https://dc.lft.to/lastmile_qr_scan", "ios": "https://dc.lft.to/lastmile_qr_scan"}, "name": "0e11ecd5aac6f4c33d6010720c68d08e", "is_reserved": 0}, {"is_disabled": 0, "fusion_lon": 0.0, "fusion_lat": 0.0, "lat": 38.928, "type": "electric_scooter", "lon": -77.01412116666667, "bike_id": "9f646a2958c3dde9cbbfc1a46222d6ce", "rental_uris": {"android": "https://dc.lft.to/lastmile_qr_scan", "ios": "https://dc.lft.to/lastmile_qr_scan"}, "name": "9f646a2958c3dde9cbbfc1a46222d6ce", "is_reserved": 0}, {"is_disabled": 0, "fusion_lon": 0.0, "fusion_lat": 0.0, "lat": 38.863565666666666, "type": "electric_scooter", "lon": -76.990671, "bike_id": "0f29db7e47f0869c7952b5a24de2d0b2", "rental_uris": {"android": "https://dc.lft.to/lastmile_qr_scan", "ios": "https://dc.lft.to/lastmile_qr_scan"}, "name": "0f29db7e47f0869c7952b5a24de2d0b2", "is_reserved": 0}, {"is_disabled": 0, "fusion_lon": 0.0, "fusion_lat": 0.0, "lat": 38.896174333333335, "type": "electric_scooter", "lon": -77.02660633333333, "bike_id": "0104e51b172c0ff2838ac6236f2406a7", "rental_uris": {"android": "https://dc.lft.to/lastmile_qr_scan", "ios": "https://dc.lft.to/lastmile_qr_scan"}, "name": "0104e51b172c0ff2838ac6236f2406a7", "is_reserved": 0}, {"is_disabled": 0, "fusion_lon": 0.0, "fusion_lat": 0.0, "lat": 39.00016816666667, "type": "electric_bike", "lon": -76.872869, "bike_id": "c81a7292f6a0b9167f160f6f55f8e7ec", "rental_uris": {"android": "https://dc.lft.to/lastmile_qr_scan", "ios": "https://dc.lft.to/lastmile_qr_scan"}, "name": "c81a7292f6a0b9167f160f6f55f8e7ec", "is_reserved": 0}, {"is_disabled": 0, "fusion_lon": 0.0, "fusion_lat": 0.0, "lat": 38.828723833333335, "type": "electric_bike", "lon": -77.112193, "bike_id": "49203689e6e078679867a04dac8d8866", "rental_uris": {"android": "https://dc.lft.to/lastmile_qr_scan", "ios": "https://dc.lft.to/lastmile_qr_scan"}, "name": "49203689e6e078679867a04dac8d8866", "is_reserved": 0}, {"is_disabled": 0, "fusion_lon": 0.0, "fusion_lat": 0.0, "lat": 38.925532833333335, "type": "electric_scooter", "lon": -77.05299133333334, "bike_id": "b3bcccf36fc57238eb22d8736c0bfb87", "rental_uris": {"android": "https://dc.lft.to/lastmile_qr_scan", "ios": "https://dc.lft.to/lastmile_qr_scan"}, "name": "b3bcccf36fc57238eb22d8736c0bfb87", "is_reserved": 0}, {"is_disabled": 0, "fusion_lon": 0.0, "fusion_lat": 0.0, "lat": 38.91552266666667, "type": "electric_scooter", "lon": -77.046239, "bike_id": "62b91227f5c1357b24ce6cfdfac34a7a", "rental_uris": {"android": "https://dc.lft.to/lastmile_qr_scan", "ios": "https://dc.lft.to/lastmile_qr_scan"}, "name": "62b91227f5c1357b24ce6cfdfac34a7a", "is_reserved": 0}, {"is_disabled": 0, "fusion_lon": 0.0, "fusion_lat": 0.0, "lat": 38.91693383333333, "type": "electric_scooter", "lon": -77.028445, "bike_id": "e2356f1fcd608b63f67655726607d8dd", "rental_uris": {"android": "https://dc.lft.to/lastmile_qr_scan", "ios": "https://dc.lft.to/lastmile_qr_scan"}, "name": "e2356f1fcd608b63f67655726607d8dd", "is_reserved": 0}, {"is_disabled": 0, "fusion_lon": 0.0, "fusion_lat": 0.0, "lat": 38.915642, "type": "electric_scooter", "lon": -77.03237233333333, "bike_id": "f8255cc1e6b5e311b8c844f38a0b51ed", "rental_uris": {"android": "https://dc.lft.to/lastmile_qr_scan", "ios": "https://dc.lft.to/lastmile_qr_scan"}, "name": "f8255cc1e6b5e311b8c844f38a0b51ed", "is_reserved": 0}, {"is_disabled": 0, "fusion_lon": 0.0, "fusion_lat": 0.0, "lat": 38.90243983333333, "type": "electric_scooter", "lon": -77.06098183333333, "bike_id": "1956ddd86a55a7e4688e413115473442", "rental_uris": {"android": "https://dc.lft.to/lastmile_qr_scan", "ios": "https://dc.lft.to/lastmile_qr_scan"}, "name": "1956ddd86a55a7e4688e413115473442", "is_reserved": 0}, {"is_disabled": 0, "fusion_lon": 0.0, "fusion_lat": 0.0, "lat": 38.921407, "type": "electric_scooter", "lon": -77.02180516666667, "bike_id": "d389576d7f40618ff0e1cf9daec52842", "rental_uris": {"android": "https://dc.lft.to/lastmile_qr_scan", "ios": "https://dc.lft.to/lastmile_qr_scan"}, "name": "d389576d7f40618ff0e1cf9daec52842", "is_reserved": 0}, {"is_disabled": 0, "fusion_lon": 0.0, "fusion_lat": 0.0, "lat": 38.9125475, "type": "electric_scooter", "lon": -77.0375145, "bike_id": "5914faad3e5fbaa685cb2811203f99cc", "rental_uris": {"android": "https://dc.lft.to/lastmile_qr_scan", "ios": "https://dc.lft.to/lastmile_qr_scan"}, "name": "5914faad3e5fbaa685cb2811203f99cc", "is_reserved": 0}, {"is_disabled": 0, "fusion_lon": 0.0, "fusion_lat": 0.0, "lat": 38.88482583333333, "type": "electric_scooter", "lon": -77.025086, "bike_id": "16b4c2fbb619d2ad4f31d2ab74623a0c", "rental_uris": {"android": "https://dc.lft.to/lastmile_qr_scan", "ios": "https://dc.lft.to/lastmile_qr_scan"}, "name": "16b4c2fbb619d2ad4f31d2ab74623a0c", "is_reserved": 0}, {"is_disabled": 0, "fusion_lon": 0.0, "fusion_lat": 0.0, "lat": 38.938572, "type": "electric_scooter", "lon": -77.02472566666667, "bike_id": "da4628855a9a2ab3b46dc6d99f0083ea", "rental_uris": {"android": "https://dc.lft.to/lastmile_qr_scan", "ios": "https://dc.lft.to/lastmile_qr_scan"}, "name": "da4628855a9a2ab3b46dc6d99f0083ea", "is_reserved": 0}, {"is_disabled": 0, "fusion_lon": 0.0, "fusion_lat": 0.0, "lat": 38.907082333333335, "type": "electric_scooter", "lon": -77.02409033333333, "bike_id": "6fb2d7931867ddc9314d85df10d4cd3a", "rental_uris": {"android": "https://dc.lft.to/lastmile_qr_scan", "ios": "https://dc.lft.to/lastmile_qr_scan"}, "name": "6fb2d7931867ddc9314d85df10d4cd3a", "is_reserved": 0}, {"is_disabled": 0, "fusion_lon": 0.0, "fusion_lat": 0.0, "lat": 38.931748166666665, "type": "electric_scooter", "lon": -77.02819, "bike_id": "951304157791ec1c5abddaa0457a5c5a", "rental_uris": {"android": "https://dc.lft.to/lastmile_qr_scan", "ios": "https://dc.lft.to/lastmile_qr_scan"}, "name": "951304157791ec1c5abddaa0457a5c5a", "is_reserved": 0}, {"is_disabled": 0, "fusion_lon": 0.0, "fusion_lat": 0.0, "lat": 38.912648, "type": "electric_scooter", "lon": -77.03151083333333, "bike_id": "68464968e4f4e57be57760008af7f9b2", "rental_uris": {"android": "https://dc.lft.to/lastmile_qr_scan", "ios": "https://dc.lft.to/lastmile_qr_scan"}, "name": "68464968e4f4e57be57760008af7f9b2", "is_reserved": 0}, {"is_disabled": 0, "fusion_lon": 0.0, "fusion_lat": 0.0, "lat": 38.911156166666665, "type": "electric_scooter", "lon": -77.03726616666667, "bike_id": "77b4e65c076946daca135d58c363e185", "rental_uris": {"android": "https://dc.lft.to/lastmile_qr_scan", "ios": "https://dc.lft.to/lastmile_qr_scan"}, "name": "77b4e65c076946daca135d58c363e185", "is_reserved": 0}, {"is_disabled": 0, "fusion_lon": 0.0, "fusion_lat": 0.0, "lat": 38.90843183333333, "type": "electric_scooter", "lon": -77.02333033333333, "bike_id": "1e40d4dd5297c33f76ff01ab0e929cc4", "rental_uris": {"android": "https://dc.lft.to/lastmile_qr_scan", "ios": "https://dc.lft.to/lastmile_qr_scan"}, "name": "1e40d4dd5297c33f76ff01ab0e929cc4", "is_reserved": 0}, {"is_disabled": 0, "fusion_lon": 0.0, "fusion_lat": 0.0, "lat": 38.93230416666667, "type": "electric_scooter", "lon": -76.999349, "bike_id": "3f004de29f8314498a52bed0e22d7a77", "rental_uris": {"android": "https://dc.lft.to/lastmile_qr_scan", "ios": "https://dc.lft.to/lastmile_qr_scan"}, "name": "3f004de29f8314498a52bed0e22d7a77", "is_reserved": 0}, {"is_disabled": 0, "fusion_lon": 0.0, "fusion_lat": 0.0, "lat": 38.93236733333333, "type": "electric_scooter", "lon": -77.0285175, "bike_id": "d1b7371db57384840814021741fdba19", "rental_uris": {"android": "https://dc.lft.to/lastmile_qr_scan", "ios": "https://dc.lft.to/lastmile_qr_scan"}, "name": "d1b7371db57384840814021741fdba19", "is_reserved": 0}, {"is_disabled": 0, "fusion_lon": 0.0, "fusion_lat": 0.0, "lat": 38.9066115, "type": "electric_scooter", "lon": -77.04329516666667, "bike_id": "8a9254dc19d425688903fbf3073078f1", "rental_uris": {"android": "https://dc.lft.to/lastmile_qr_scan", "ios": "https://dc.lft.to/lastmile_qr_scan"}, "name": "8a9254dc19d425688903fbf3073078f1", "is_reserved": 0}, {"is_disabled": 0, "fusion_lon": 0.0, "fusion_lat": 0.0, "lat": 38.91733116666666, "type": "electric_scooter", "lon": -77.03456683333333, "bike_id": "fc55689936830f620c75b5f31dbc6748", "rental_uris": {"android": "https://dc.lft.to/lastmile_qr_scan", "ios": "https://dc.lft.to/lastmile_qr_scan"}, "name": "fc55689936830f620c75b5f31dbc6748", "is_reserved": 0}, {"is_disabled": 0, "fusion_lon": 0.0, "fusion_lat": 0.0, "lat": 38.926098333333336, "type": "electric_scooter", "lon": -77.0368755, "bike_id": "db67d7e4c14328f907059c76a22ec0d2", "rental_uris": {"android": "https://dc.lft.to/lastmile_qr_scan", "ios": "https://dc.lft.to/lastmile_qr_scan"}, "name": "db67d7e4c14328f907059c76a22ec0d2", "is_reserved": 0}, {"is_disabled": 0, "fusion_lon": 0.0, "fusion_lat": 0.0, "lat": 38.9127595, "type": "electric_scooter", "lon": -77.038472, "bike_id": "8ffad65c9f03d74c236381bf23d16128", "rental_uris": {"android": "https://dc.lft.to/lastmile_qr_scan", "ios": "https://dc.lft.to/lastmile_qr_scan"}, "name": "8ffad65c9f03d74c236381bf23d16128", "is_reserved": 0}, {"is_disabled": 0, "fusion_lon": 0.0, "fusion_lat": 0.0, "lat": 38.86697216666666, "type": "electric_scooter", "lon": -76.98707966666667, "bike_id": "8a70c4247e209aaaf125077e0007006d", "rental_uris": {"android": "https://dc.lft.to/lastmile_qr_scan", "ios": "https://dc.lft.to/lastmile_qr_scan"}, "name": "8a70c4247e209aaaf125077e0007006d", "is_reserved": 0}, {"is_disabled": 0, "fusion_lon": 0.0, "fusion_lat": 0.0, "lat": 38.898322666666665, "type": "electric_scooter", "lon": -76.946336, "bike_id": "5abb369a74862565ca39b0f3b081cb14", "rental_uris": {"android": "https://dc.lft.to/lastmile_qr_scan", "ios": "https://dc.lft.to/lastmile_qr_scan"}, "name": "5abb369a74862565ca39b0f3b081cb14", "is_reserved": 0}, {"is_disabled": 0, "fusion_lon": 0.0, "fusion_lat": 0.0, "lat": 38.9859175, "type": "electric_bike", "lon": -77.03756466666667, "bike_id": "b43dec689e00c833e05ef4acebafb6f7", "rental_uris": {"android": "https://dc.lft.to/lastmile_qr_scan", "ios": "https://dc.lft.to/lastmile_qr_scan"}, "name": "b43dec689e00c833e05ef4acebafb6f7", "is_reserved": 0}, {"is_disabled": 0, "fusion_lon": 0.0, "fusion_lat": 0.0, "lat": 38.9107345, "type": "electric_scooter", "lon": -77.0208765, "bike_id": "092dc6cc44afbcbee62b768827be65d6", "rental_uris": {"android": "https://dc.lft.to/lastmile_qr_scan", "ios": "https://dc.lft.to/lastmile_qr_scan"}, "name": "092dc6cc44afbcbee62b768827be65d6", "is_reserved": 0}, {"is_disabled": 0, "fusion_lon": 0.0, "fusion_lat": 0.0, "lat": 38.93105083333333, "type": "electric_scooter", "lon": -77.030249, "bike_id": "e06d3f09a434eb5db01e1ba9ef523fcb", "rental_uris": {"android": "https://dc.lft.to/lastmile_qr_scan", "ios": "https://dc.lft.to/lastmile_qr_scan"}, "name": "e06d3f09a434eb5db01e1ba9ef523fcb", "is_reserved": 0}, {"is_disabled": 0, "fusion_lon": 0.0, "fusion_lat": 0.0, "lat": 38.93492716666667, "type": "electric_scooter", "lon": -77.02605583333333, "bike_id": "35c8e5d84d3db84d9ea035760356f3af", "rental_uris": {"android": "https://dc.lft.to/lastmile_qr_scan", "ios": "https://dc.lft.to/lastmile_qr_scan"}, "name": "35c8e5d84d3db84d9ea035760356f3af", "is_reserved": 0}, {"is_disabled": 0, "fusion_lon": 0.0, "fusion_lat": 0.0, "lat": 38.925894666666665, "type": "electric_bike", "lon": -76.88902083333333, "bike_id": "d69e85ae3091dd06dbc3a975572e2c32", "rental_uris": {"android": "https://dc.lft.to/lastmile_qr_scan", "ios": "https://dc.lft.to/lastmile_qr_scan"}, "name": "d69e85ae3091dd06dbc3a975572e2c32", "is_reserved": 0}, {"is_disabled": 0, "fusion_lon": 0.0, "fusion_lat": 0.0, "lat": 38.9541435, "type": "electric_scooter", "lon": -77.02844266666666, "bike_id": "e91989d5d7fee001b2b3849dfa8b3fe1", "rental_uris": {"android": "https://dc.lft.to/lastmile_qr_scan", "ios": "https://dc.lft.to/lastmile_qr_scan"}, "name": "e91989d5d7fee001b2b3849dfa8b3fe1", "is_reserved": 0}, {"is_disabled": 0, "fusion_lon": 0.0, "fusion_lat": 0.0, "lat": 38.976753, "type": "electric_bike", "lon": -76.971696, "bike_id": "d13dca46794d235046f4d0d740084f19", "rental_uris": {"android": "https://dc.lft.to/lastmile_qr_scan", "ios": "https://dc.lft.to/lastmile_qr_scan"}, "name": "d13dca46794d235046f4d0d740084f19", "is_reserved": 0}, {"is_disabled": 0, "fusion_lon": 0.0, "fusion_lat": 0.0, "lat": 38.9186735, "type": "electric_scooter", "lon": -77.023706, "bike_id": "c0fa7162ba2b772b61e1023e84e7bbed", "rental_uris": {"android": "https://dc.lft.to/lastmile_qr_scan", "ios": "https://dc.lft.to/lastmile_qr_scan"}, "name": "c0fa7162ba2b772b61e1023e84e7bbed", "is_reserved": 0}, {"is_disabled": 0, "fusion_lon": 0.0, "fusion_lat": 0.0, "lat": 38.915586166666664, "type": "electric_scooter", "lon": -77.0387305, "bike_id": "06e50ba0220fe37d252d78a10bd1616e", "rental_uris": {"android": "https://dc.lft.to/lastmile_qr_scan", "ios": "https://dc.lft.to/lastmile_qr_scan"}, "name": "06e50ba0220fe37d252d78a10bd1616e", "is_reserved": 0}, {"is_disabled": 0, "fusion_lon": 0.0, "fusion_lat": 0.0, "lat": 38.896043166666665, "type": "electric_scooter", "lon": -77.00918316666667, "bike_id": "88d57df40e6516fa0dfa70b293eccd8c", "rental_uris": {"android": "https://dc.lft.to/lastmile_qr_scan", "ios": "https://dc.lft.to/lastmile_qr_scan"}, "name": "88d57df40e6516fa0dfa70b293eccd8c", "is_reserved": 0}, {"is_disabled": 0, "fusion_lon": 0.0, "fusion_lat": 0.0, "lat": 38.89236533333333, "type": "electric_bike", "lon": -76.9522465, "bike_id": "4182b450350d263a58d2b6bbc4021022", "rental_uris": {"android": "https://dc.lft.to/lastmile_qr_scan", "ios": "https://dc.lft.to/lastmile_qr_scan"}, "name": "4182b450350d263a58d2b6bbc4021022", "is_reserved": 0}, {"is_disabled": 0, "fusion_lon": 0.0, "fusion_lat": 0.0, "lat": 38.914174, "type": "electric_scooter", "lon": -77.0322805, "bike_id": "a0782481305c6fba09e4ef9db6c635e4", "rental_uris": {"android": "https://dc.lft.to/lastmile_qr_scan", "ios": "https://dc.lft.to/lastmile_qr_scan"}, "name": "a0782481305c6fba09e4ef9db6c635e4", "is_reserved": 0}, {"is_disabled": 0, "fusion_lon": 0.0, "fusion_lat": 0.0, "lat": 38.876711666666665, "type": "electric_scooter", "lon": -76.93191966666667, "bike_id": "f52d8b9a6ec01eb309fae30e7b1e28ab", "rental_uris": {"android": "https://dc.lft.to/lastmile_qr_scan", "ios": "https://dc.lft.to/lastmile_qr_scan"}, "name": "f52d8b9a6ec01eb309fae30e7b1e28ab", "is_reserved": 0}, {"is_disabled": 0, "fusion_lon": 0.0, "fusion_lat": 0.0, "lat": 38.878270666666666, "type": "electric_scooter", "lon": -76.9631545, "bike_id": "85da10f4e59be6125df98b064e45a4d9", "rental_uris": {"android": "https://dc.lft.to/lastmile_qr_scan", "ios": "https://dc.lft.to/lastmile_qr_scan"}, "name": "85da10f4e59be6125df98b064e45a4d9", "is_reserved": 0}, {"is_disabled": 0, "fusion_lon": 0.0, "fusion_lat": 0.0, "lat": 38.91119466666667, "type": "electric_scooter", "lon": -77.03733416666667, "bike_id": "9a328a853a513abc63a5e432818010b7", "rental_uris": {"android": "https://dc.lft.to/lastmile_qr_scan", "ios": "https://dc.lft.to/lastmile_qr_scan"}, "name": "9a328a853a513abc63a5e432818010b7", "is_reserved": 0}, {"is_disabled": 0, "fusion_lon": 0.0, "fusion_lat": 0.0, "lat": 38.897420333333336, "type": "electric_scooter", "lon": -77.0480065, "bike_id": "60b18f36d14f4c3d3f82d755b42bc3bd", "rental_uris": {"android": "https://dc.lft.to/lastmile_qr_scan", "ios": "https://dc.lft.to/lastmile_qr_scan"}, "name": "60b18f36d14f4c3d3f82d755b42bc3bd", "is_reserved": 0}, {"is_disabled": 0, "fusion_lon": 0.0, "fusion_lat": 0.0, "lat": 38.94997333333333, "type": "electric_bike", "lon": -77.3530805, "bike_id": "f5558f360aca915255595121b672811e", "rental_uris": {"android": "https://dc.lft.to/lastmile_qr_scan", "ios": "https://dc.lft.to/lastmile_qr_scan"}, "name": "f5558f360aca915255595121b672811e", "is_reserved": 0}, {"is_disabled": 0, "fusion_lon": 0.0, "fusion_lat": 0.0, "lat": 38.901394333333336, "type": "electric_scooter", "lon": -77.04177033333333, "bike_id": "0268a18cd9559c462c72c6952ce1acdf", "rental_uris": {"android": "https://dc.lft.to/lastmile_qr_scan", "ios": "https://dc.lft.to/lastmile_qr_scan"}, "name": "0268a18cd9559c462c72c6952ce1acdf", "is_reserved": 0}, {"is_disabled": 0, "fusion_lon": 0.0, "fusion_lat": 0.0, "lat": 38.905747, "type": "electric_scooter", "lon": -77.03367816666666, "bike_id": "f772d1985331d1f671ab155e626ffe25", "rental_uris": {"android": "https://dc.lft.to/lastmile_qr_scan", "ios": "https://dc.lft.to/lastmile_qr_scan"}, "name": "f772d1985331d1f671ab155e626ffe25", "is_reserved": 0}, {"is_disabled": 0, "fusion_lon": 0.0, "fusion_lat": 0.0, "lat": 38.888609833333334, "type": "electric_scooter", "lon": -76.97733983333333, "bike_id": "f42c370e67416b884f05889c23323048", "rental_uris": {"android": "https://dc.lft.to/lastmile_qr_scan", "ios": "https://dc.lft.to/lastmile_qr_scan"}, "name": "f42c370e67416b884f05889c23323048", "is_reserved": 0}, {"is_disabled": 0, "fusion_lon": 0.0, "fusion_lat": 0.0, "lat": 38.8949805, "type": "electric_scooter", "lon": -77.021944, "bike_id": "cbd2d1c6416d6b13b7be971564ee1e48", "rental_uris": {"android": "https://dc.lft.to/lastmile_qr_scan", "ios": "https://dc.lft.to/lastmile_qr_scan"}, "name": "cbd2d1c6416d6b13b7be971564ee1e48", "is_reserved": 0}, {"is_disabled": 0, "fusion_lon": 0.0, "fusion_lat": 0.0, "lat": 38.82727783333333, "type": "electric_bike", "lon": -77.00862366666667, "bike_id": "d0bd8f9bff412a80bc3a297d32125279", "rental_uris": {"android": "https://dc.lft.to/lastmile_qr_scan", "ios": "https://dc.lft.to/lastmile_qr_scan"}, "name": "d0bd8f9bff412a80bc3a297d32125279", "is_reserved": 0}, {"is_disabled": 0, "fusion_lon": 0.0, "fusion_lat": 0.0, "lat": 38.92866883333333, "type": "electric_scooter", "lon": -77.03337133333333, "bike_id": "86306478840561000217b0b1014f9ea1", "rental_uris": {"android": "https://dc.lft.to/lastmile_qr_scan", "ios": "https://dc.lft.to/lastmile_qr_scan"}, "name": "86306478840561000217b0b1014f9ea1", "is_reserved": 0}, {"is_disabled": 0, "fusion_lon": 0.0, "fusion_lat": 0.0, "lat": 38.893236, "type": "electric_scooter", "lon": -77.01988866666667, "bike_id": "dc35dca08ebe7c8d557b4cce7d8da892", "rental_uris": {"android": "https://dc.lft.to/lastmile_qr_scan", "ios": "https://dc.lft.to/lastmile_qr_scan"}, "name": "dc35dca08ebe7c8d557b4cce7d8da892", "is_reserved": 0}, {"is_disabled": 0, "fusion_lon": 0.0, "fusion_lat": 0.0, "lat": 38.89982333333333, "type": "electric_scooter", "lon": -77.021895, "bike_id": "6277fa84e31e6fecd84e08d78c8f8ac7", "rental_uris": {"android": "https://dc.lft.to/lastmile_qr_scan", "ios": "https://dc.lft.to/lastmile_qr_scan"}, "name": "6277fa84e31e6fecd84e08d78c8f8ac7", "is_reserved": 0}, {"is_disabled": 0, "fusion_lon": 0.0, "fusion_lat": 0.0, "lat": 38.8312035, "type": "electric_bike", "lon": -77.0432285, "bike_id": "abc7bac2bce5eb46a930e253500a7faa", "rental_uris": {"android": "https://dc.lft.to/lastmile_qr_scan", "ios": "https://dc.lft.to/lastmile_qr_scan"}, "name": "abc7bac2bce5eb46a930e253500a7faa", "is_reserved": 0}, {"is_disabled": 0, "fusion_lon": 0.0, "fusion_lat": 0.0, "lat": 38.901418, "type": "electric_scooter", "lon": -77.0415345, "bike_id": "c91b2872270074db20fc6c2a60a00c80", "rental_uris": {"android": "https://dc.lft.to/lastmile_qr_scan", "ios": "https://dc.lft.to/lastmile_qr_scan"}, "name": "c91b2872270074db20fc6c2a60a00c80", "is_reserved": 0}, {"is_disabled": 0, "fusion_lon": 0.0, "fusion_lat": 0.0, "lat": 38.9196865, "type": "electric_scooter", "lon": -77.04184216666667, "bike_id": "34c65ba5543e5dfeb69fc17a20e6f874", "rental_uris": {"android": "https://dc.lft.to/lastmile_qr_scan", "ios": "https://dc.lft.to/lastmile_qr_scan"}, "name": "34c65ba5543e5dfeb69fc17a20e6f874", "is_reserved": 0}, {"is_disabled": 0, "fusion_lon": 0.0, "fusion_lat": 0.0, "lat": 38.89957833333333, "type": "electric_scooter", "lon": -77.0335965, "bike_id": "ed1d3a6b8a41ab69a6c735924015b686", "rental_uris": {"android": "https://dc.lft.to/lastmile_qr_scan", "ios": "https://dc.lft.to/lastmile_qr_scan"}, "name": "ed1d3a6b8a41ab69a6c735924015b686", "is_reserved": 0}, {"is_disabled": 0, "fusion_lon": 0.0, "fusion_lat": 0.0, "lat": 38.920320333333336, "type": "electric_scooter", "lon": -77.02583166666666, "bike_id": "186a8cff5a3e50a71b364ea677fe3616", "rental_uris": {"android": "https://dc.lft.to/lastmile_qr_scan", "ios": "https://dc.lft.to/lastmile_qr_scan"}, "name": "186a8cff5a3e50a71b364ea677fe3616", "is_reserved": 0}, {"is_disabled": 0, "fusion_lon": 0.0, "fusion_lat": 0.0, "lat": 38.895239333333336, "type": "electric_scooter", "lon": -77.0282925, "bike_id": "62cecc2ebfae81af854bed0f808da751", "rental_uris": {"android": "https://dc.lft.to/lastmile_qr_scan", "ios": "https://dc.lft.to/lastmile_qr_scan"}, "name": "62cecc2ebfae81af854bed0f808da751", "is_reserved": 0}, {"is_disabled": 0, "fusion_lon": 0.0, "fusion_lat": 0.0, "lat": 38.88721533333333, "type": "electric_scooter", "lon": -76.99631466666666, "bike_id": "6fe9267d8b58a783f9e1961afea5e156", "rental_uris": {"android": "https://dc.lft.to/lastmile_qr_scan", "ios": "https://dc.lft.to/lastmile_qr_scan"}, "name": "6fe9267d8b58a783f9e1961afea5e156", "is_reserved": 0}, {"is_disabled": 0, "fusion_lon": 0.0, "fusion_lat": 0.0, "lat": 38.88512983333333, "type": "electric_scooter", "lon": -76.99841116666667, "bike_id": "107aabc7de5a82aba45c0c865b0123da", "rental_uris": {"android": "https://dc.lft.to/lastmile_qr_scan", "ios": "https://dc.lft.to/lastmile_qr_scan"}, "name": "107aabc7de5a82aba45c0c865b0123da", "is_reserved": 0}, {"is_disabled": 0, "fusion_lon": 0.0, "fusion_lat": 0.0, "lat": 38.890354, "type": "electric_scooter", "lon": -76.93751516666667, "bike_id": "a1a4e83635154a0750b0a9044b93515e", "rental_uris": {"android": "https://dc.lft.to/lastmile_qr_scan", "ios": "https://dc.lft.to/lastmile_qr_scan"}, "name": "a1a4e83635154a0750b0a9044b93515e", "is_reserved": 0}, {"is_disabled": 0, "fusion_lon": 0.0, "fusion_lat": 0.0, "lat": 38.9882485, "type": "electric_bike", "lon": -76.98754683333334, "bike_id": "6baa7d62817a194954f108a970c774e2", "rental_uris": {"android": "https://dc.lft.to/lastmile_qr_scan", "ios": "https://dc.lft.to/lastmile_qr_scan"}, "name": "6baa7d62817a194954f108a970c774e2", "is_reserved": 0}, {"is_disabled": 0, "fusion_lon": 0.0, "fusion_lat": 0.0, "lat": 38.917064333333336, "type": "electric_scooter", "lon": -77.02613433333333, "bike_id": "bde0d5af981fa9dcd3199277b4898ba2", "rental_uris": {"android": "https://dc.lft.to/lastmile_qr_scan", "ios": "https://dc.lft.to/lastmile_qr_scan"}, "name": "bde0d5af981fa9dcd3199277b4898ba2", "is_reserved": 0}, {"is_disabled": 0, "fusion_lon": 0.0, "fusion_lat": 0.0, "lat": 38.924342333333335, "type": "electric_bike", "lon": -76.90757333333333, "bike_id": "fb536a1f425d5204a6202645cdc7e5a9", "rental_uris": {"android": "https://dc.lft.to/lastmile_qr_scan", "ios": "https://dc.lft.to/lastmile_qr_scan"}, "name": "fb536a1f425d5204a6202645cdc7e5a9", "is_reserved": 0}, {"is_disabled": 0, "fusion_lon": 0.0, "fusion_lat": 0.0, "lat": 38.90219066666667, "type": "electric_scooter", "lon": -77.02370783333333, "bike_id": "67672f2fdd947c0fe2d4e69ee3019586", "rental_uris": {"android": "https://dc.lft.to/lastmile_qr_scan", "ios": "https://dc.lft.to/lastmile_qr_scan"}, "name": "67672f2fdd947c0fe2d4e69ee3019586", "is_reserved": 0}, {"is_disabled": 0, "fusion_lon": 0.0, "fusion_lat": 0.0, "lat": 38.908178666666664, "type": "electric_scooter", "lon": -77.00151383333333, "bike_id": "139828581ba99854f5b9e598b45a3a6c", "rental_uris": {"android": "https://dc.lft.to/lastmile_qr_scan", "ios": "https://dc.lft.to/lastmile_qr_scan"}, "name": "139828581ba99854f5b9e598b45a3a6c", "is_reserved": 0}, {"is_disabled": 0, "fusion_lon": 0.0, "fusion_lat": 0.0, "lat": 38.907082, "type": "electric_scooter", "lon": -77.0630815, "bike_id": "f5531f71c21d2f79fe47565e9454343d", "rental_uris": {"android": "https://dc.lft.to/lastmile_qr_scan", "ios": "https://dc.lft.to/lastmile_qr_scan"}, "name": "f5531f71c21d2f79fe47565e9454343d", "is_reserved": 0}, {"is_disabled": 0, "fusion_lon": 0.0, "fusion_lat": 0.0, "lat": 38.91679883333333, "type": "electric_scooter", "lon": -77.041397, "bike_id": "f18070b4234f407d57ad5e45707c6e1a", "rental_uris": {"android": "https://dc.lft.to/lastmile_qr_scan", "ios": "https://dc.lft.to/lastmile_qr_scan"}, "name": "f18070b4234f407d57ad5e45707c6e1a", "is_reserved": 0}, {"is_disabled": 0, "fusion_lon": 0.0, "fusion_lat": 0.0, "lat": 38.9196775, "type": "electric_scooter", "lon": -77.04155133333333, "bike_id": "600305972fc18b0b4defb79086382bf2", "rental_uris": {"android": "https://dc.lft.to/lastmile_qr_scan", "ios": "https://dc.lft.to/lastmile_qr_scan"}, "name": "600305972fc18b0b4defb79086382bf2", "is_reserved": 0}, {"is_disabled": 0, "fusion_lon": 0.0, "fusion_lat": 0.0, "lat": 38.9197065, "type": "electric_scooter", "lon": -77.04178383333333, "bike_id": "f92564f27c1295cf5836a4edb9df9ed7", "rental_uris": {"android": "https://dc.lft.to/lastmile_qr_scan", "ios": "https://dc.lft.to/lastmile_qr_scan"}, "name": "f92564f27c1295cf5836a4edb9df9ed7", "is_reserved": 0}, {"is_disabled": 0, "fusion_lon": 0.0, "fusion_lat": 0.0, "lat": 38.956161333333334, "type": "electric_scooter", "lon": -77.02760866666667, "bike_id": "8d57dbe821ef600e60fd172a5abe2000", "rental_uris": {"android": "https://dc.lft.to/lastmile_qr_scan", "ios": "https://dc.lft.to/lastmile_qr_scan"}, "name": "8d57dbe821ef600e60fd172a5abe2000", "is_reserved": 0}, {"is_disabled": 0, "fusion_lon": 0.0, "fusion_lat": 0.0, "lat": 38.88913683333333, "type": "electric_scooter", "lon": -76.979984, "bike_id": "76afb018385f1a1ffeedf4335fbbc72f", "rental_uris": {"android": "https://dc.lft.to/lastmile_qr_scan", "ios": "https://dc.lft.to/lastmile_qr_scan"}, "name": "76afb018385f1a1ffeedf4335fbbc72f", "is_reserved": 0}, {"is_disabled": 0, "fusion_lon": 0.0, "fusion_lat": 0.0, "lat": 38.903568, "type": "electric_scooter", "lon": -77.02608866666667, "bike_id": "626be1c81b77e9485904848362970581", "rental_uris": {"android": "https://dc.lft.to/lastmile_qr_scan", "ios": "https://dc.lft.to/lastmile_qr_scan"}, "name": "626be1c81b77e9485904848362970581", "is_reserved": 0}, {"is_disabled": 0, "fusion_lon": 0.0, "fusion_lat": 0.0, "lat": 38.91097, "type": "electric_scooter", "lon": -77.0318605, "bike_id": "3361beb638e6d94a0dd38fce5467dbd3", "rental_uris": {"android": "https://dc.lft.to/lastmile_qr_scan", "ios": "https://dc.lft.to/lastmile_qr_scan"}, "name": "3361beb638e6d94a0dd38fce5467dbd3", "is_reserved": 0}, {"is_disabled": 0, "fusion_lon": 0.0, "fusion_lat": 0.0, "lat": 38.902195666666664, "type": "electric_scooter", "lon": -77.02380733333334, "bike_id": "610471be29277765dfb3a5896692721a", "rental_uris": {"android": "https://dc.lft.to/lastmile_qr_scan", "ios": "https://dc.lft.to/lastmile_qr_scan"}, "name": "610471be29277765dfb3a5896692721a", "is_reserved": 0}, {"is_disabled": 0, "fusion_lon": 0.0, "fusion_lat": 0.0, "lat": 38.92812383333333, "type": "electric_scooter", "lon": -77.02344466666666, "bike_id": "70f3d7fb51d7834492cfb51a3a0c3347", "rental_uris": {"android": "https://dc.lft.to/lastmile_qr_scan", "ios": "https://dc.lft.to/lastmile_qr_scan"}, "name": "70f3d7fb51d7834492cfb51a3a0c3347", "is_reserved": 0}, {"is_disabled": 0, "fusion_lon": 0.0, "fusion_lat": 0.0, "lat": 38.899981, "type": "electric_scooter", "lon": -76.99733316666666, "bike_id": "26a636d89ec77f1601808e40b75fac14", "rental_uris": {"android": "https://dc.lft.to/lastmile_qr_scan", "ios": "https://dc.lft.to/lastmile_qr_scan"}, "name": "26a636d89ec77f1601808e40b75fac14", "is_reserved": 0}, {"is_disabled": 0, "fusion_lon": 0.0, "fusion_lat": 0.0, "lat": 38.89761683333333, "type": "electric_bike", "lon": -77.02932133333333, "bike_id": "bb95901277eae82b177bb7b5e539a91a", "rental_uris": {"android": "https://dc.lft.to/lastmile_qr_scan", "ios": "https://dc.lft.to/lastmile_qr_scan"}, "name": "bb95901277eae82b177bb7b5e539a91a", "is_reserved": 0}, {"is_disabled": 0, "fusion_lon": 0.0, "fusion_lat": 0.0, "lat": 38.876768166666665, "type": "electric_bike", "lon": -77.014594, "bike_id": "3fa7d4fb7bb3d9c34087e5025735a558", "rental_uris": {"android": "https://dc.lft.to/lastmile_qr_scan", "ios": "https://dc.lft.to/lastmile_qr_scan"}, "name": "3fa7d4fb7bb3d9c34087e5025735a558", "is_reserved": 0}, {"is_disabled": 0, "fusion_lon": 0.0, "fusion_lat": 0.0, "lat": 38.9012965, "type": "electric_scooter", "lon": -77.003244, "bike_id": "f4bd8ef6f58ec7652680e92fce9a28f8", "rental_uris": {"android": "https://dc.lft.to/lastmile_qr_scan", "ios": "https://dc.lft.to/lastmile_qr_scan"}, "name": "f4bd8ef6f58ec7652680e92fce9a28f8", "is_reserved": 0}, {"is_disabled": 0, "fusion_lon": 0.0, "fusion_lat": 0.0, "lat": 38.90493566666667, "type": "electric_scooter", "lon": -77.048591, "bike_id": "be131034efe57819cd1b02700820da57", "rental_uris": {"android": "https://dc.lft.to/lastmile_qr_scan", "ios": "https://dc.lft.to/lastmile_qr_scan"}, "name": "be131034efe57819cd1b02700820da57", "is_reserved": 0}, {"is_disabled": 0, "fusion_lon": 0.0, "fusion_lat": 0.0, "lat": 38.89836583333334, "type": "electric_scooter", "lon": -77.02924283333333, "bike_id": "32983e1176a0026dc435284e16802acc", "rental_uris": {"android": "https://dc.lft.to/lastmile_qr_scan", "ios": "https://dc.lft.to/lastmile_qr_scan"}, "name": "32983e1176a0026dc435284e16802acc", "is_reserved": 0}, {"is_disabled": 0, "fusion_lon": 0.0, "fusion_lat": 0.0, "lat": 38.929711, "type": "electric_scooter", "lon": -77.0053625, "bike_id": "15e7cde4e3186cbace0d355320611ba1", "rental_uris": {"android": "https://dc.lft.to/lastmile_qr_scan", "ios": "https://dc.lft.to/lastmile_qr_scan"}, "name": "15e7cde4e3186cbace0d355320611ba1", "is_reserved": 0}, {"is_disabled": 0, "fusion_lon": 0.0, "fusion_lat": 0.0, "lat": 39.058124666666664, "type": "electric_bike", "lon": -77.1262485, "bike_id": "d86cf8f42119e0656a662207e9d6e3a2", "rental_uris": {"android": "https://dc.lft.to/lastmile_qr_scan", "ios": "https://dc.lft.to/lastmile_qr_scan"}, "name": "d86cf8f42119e0656a662207e9d6e3a2", "is_reserved": 0}, {"is_disabled": 0, "fusion_lon": 0.0, "fusion_lat": 0.0, "lat": 38.91217783333333, "type": "electric_scooter", "lon": -77.03841116666666, "bike_id": "9d124cea3bc7c679d841e304b516af9f", "rental_uris": {"android": "https://dc.lft.to/lastmile_qr_scan", "ios": "https://dc.lft.to/lastmile_qr_scan"}, "name": "9d124cea3bc7c679d841e304b516af9f", "is_reserved": 0}, {"is_disabled": 0, "fusion_lon": 0.0, "fusion_lat": 0.0, "lat": 38.941619833333334, "type": "electric_bike", "lon": -77.001922, "bike_id": "f691d41e4bfc75b16a284529f72d2cd0", "rental_uris": {"android": "https://dc.lft.to/lastmile_qr_scan", "ios": "https://dc.lft.to/lastmile_qr_scan"}, "name": "f691d41e4bfc75b16a284529f72d2cd0", "is_reserved": 0}, {"is_disabled": 0, "fusion_lon": 0.0, "fusion_lat": 0.0, "lat": 38.9095895, "type": "electric_scooter", "lon": -77.02304066666666, "bike_id": "411f8053034edb36fc5c580c50c34cf2", "rental_uris": {"android": "https://dc.lft.to/lastmile_qr_scan", "ios": "https://dc.lft.to/lastmile_qr_scan"}, "name": "411f8053034edb36fc5c580c50c34cf2", "is_reserved": 0}, {"is_disabled": 0, "fusion_lon": 0.0, "fusion_lat": 0.0, "lat": 38.900484166666665, "type": "electric_scooter", "lon": -76.92271466666666, "bike_id": "07dddd1b154a4dea795cf9f8df31d9ce", "rental_uris": {"android": "https://dc.lft.to/lastmile_qr_scan", "ios": "https://dc.lft.to/lastmile_qr_scan"}, "name": "07dddd1b154a4dea795cf9f8df31d9ce", "is_reserved": 0}, {"is_disabled": 0, "fusion_lon": 0.0, "fusion_lat": 0.0, "lat": 38.89372633333333, "type": "electric_scooter", "lon": -76.94997816666667, "bike_id": "ef98a1075931768bfa961b56e7d7a712", "rental_uris": {"android": "https://dc.lft.to/lastmile_qr_scan", "ios": "https://dc.lft.to/lastmile_qr_scan"}, "name": "ef98a1075931768bfa961b56e7d7a712", "is_reserved": 0}, {"is_disabled": 0, "fusion_lon": 0.0, "fusion_lat": 0.0, "lat": 38.911881666666666, "type": "electric_scooter", "lon": -77.03508133333334, "bike_id": "f67d65e5b8fe098235c2d834663a9acc", "rental_uris": {"android": "https://dc.lft.to/lastmile_qr_scan", "ios": "https://dc.lft.to/lastmile_qr_scan"}, "name": "f67d65e5b8fe098235c2d834663a9acc", "is_reserved": 0}, {"is_disabled": 0, "fusion_lon": 0.0, "fusion_lat": 0.0, "lat": 38.9001205, "type": "electric_scooter", "lon": -77.01198433333333, "bike_id": "d410406072f4c302de24b99a510b9b65", "rental_uris": {"android": "https://dc.lft.to/lastmile_qr_scan", "ios": "https://dc.lft.to/lastmile_qr_scan"}, "name": "d410406072f4c302de24b99a510b9b65", "is_reserved": 0}, {"is_disabled": 0, "fusion_lon": 0.0, "fusion_lat": 0.0, "lat": 38.887669, "type": "electric_bike", "lon": -76.9007755, "bike_id": "d781e0dc10f1384572c6143e19b125c0", "rental_uris": {"android": "https://dc.lft.to/lastmile_qr_scan", "ios": "https://dc.lft.to/lastmile_qr_scan"}, "name": "d781e0dc10f1384572c6143e19b125c0", "is_reserved": 0}, {"is_disabled": 0, "fusion_lon": 0.0, "fusion_lat": 0.0, "lat": 38.92702033333333, "type": "electric_scooter", "lon": -77.02329083333333, "bike_id": "f79e9a98a0c18762c28b85928fb5de09", "rental_uris": {"android": "https://dc.lft.to/lastmile_qr_scan", "ios": "https://dc.lft.to/lastmile_qr_scan"}, "name": "f79e9a98a0c18762c28b85928fb5de09", "is_reserved": 0}, {"is_disabled": 0, "fusion_lon": 0.0, "fusion_lat": 0.0, "lat": 38.91188283333334, "type": "electric_scooter", "lon": -77.03835016666666, "bike_id": "695fa88d142788825f3f1519d4b55e56", "rental_uris": {"android": "https://dc.lft.to/lastmile_qr_scan", "ios": "https://dc.lft.to/lastmile_qr_scan"}, "name": "695fa88d142788825f3f1519d4b55e56", "is_reserved": 0}, {"is_disabled": 0, "fusion_lon": 0.0, "fusion_lat": 0.0, "lat": 38.861268833333334, "type": "electric_scooter", "lon": -76.98569483333333, "bike_id": "e442f116a0b897548ac219f94267a468", "rental_uris": {"android": "https://dc.lft.to/lastmile_qr_scan", "ios": "https://dc.lft.to/lastmile_qr_scan"}, "name": "e442f116a0b897548ac219f94267a468", "is_reserved": 0}, {"is_disabled": 0, "fusion_lon": 0.0, "fusion_lat": 0.0, "lat": 38.92868633333333, "type": "electric_scooter", "lon": -77.01416216666667, "bike_id": "4e23143cc65d4813cf6df94dcb11d141", "rental_uris": {"android": "https://dc.lft.to/lastmile_qr_scan", "ios": "https://dc.lft.to/lastmile_qr_scan"}, "name": "4e23143cc65d4813cf6df94dcb11d141", "is_reserved": 0}, {"is_disabled": 0, "fusion_lon": 0.0, "fusion_lat": 0.0, "lat": 38.927276, "type": "electric_scooter", "lon": -77.02245616666667, "bike_id": "2956e4307c4b633deb69d8f94107a621", "rental_uris": {"android": "https://dc.lft.to/lastmile_qr_scan", "ios": "https://dc.lft.to/lastmile_qr_scan"}, "name": "2956e4307c4b633deb69d8f94107a621", "is_reserved": 0}, {"is_disabled": 0, "fusion_lon": 0.0, "fusion_lat": 0.0, "lat": 38.926696666666665, "type": "electric_scooter", "lon": -77.1031195, "bike_id": "55f4d0a0f8b4d62ff695f8b88575b4a4", "rental_uris": {"android": "https://dc.lft.to/lastmile_qr_scan", "ios": "https://dc.lft.to/lastmile_qr_scan"}, "name": "55f4d0a0f8b4d62ff695f8b88575b4a4", "is_reserved": 0}, {"is_disabled": 0, "fusion_lon": 0.0, "fusion_lat": 0.0, "lat": 38.913151666666664, "type": "electric_scooter", "lon": -76.98475483333333, "bike_id": "abad6d2caf76ff6e3a52fc619cd5a0e6", "rental_uris": {"android": "https://dc.lft.to/lastmile_qr_scan", "ios": "https://dc.lft.to/lastmile_qr_scan"}, "name": "abad6d2caf76ff6e3a52fc619cd5a0e6", "is_reserved": 0}, {"is_disabled": 0, "fusion_lon": 0.0, "fusion_lat": 0.0, "lat": 38.91820083333333, "type": "electric_scooter", "lon": -77.03456283333334, "bike_id": "c8e19b046c363bd78cc69ae701bb41ae", "rental_uris": {"android": "https://dc.lft.to/lastmile_qr_scan", "ios": "https://dc.lft.to/lastmile_qr_scan"}, "name": "c8e19b046c363bd78cc69ae701bb41ae", "is_reserved": 0}, {"is_disabled": 0, "fusion_lon": 0.0, "fusion_lat": 0.0, "lat": 38.919608833333335, "type": "electric_scooter", "lon": -77.02710566666667, "bike_id": "5cd4308160ce33809e52f4738e513009", "rental_uris": {"android": "https://dc.lft.to/lastmile_qr_scan", "ios": "https://dc.lft.to/lastmile_qr_scan"}, "name": "5cd4308160ce33809e52f4738e513009", "is_reserved": 0}, {"is_disabled": 0, "fusion_lon": 0.0, "fusion_lat": 0.0, "lat": 38.936988166666666, "type": "electric_bike", "lon": -77.02979783333333, "bike_id": "dd30b1984cf97e5c59ce3ddf8219c711", "rental_uris": {"android": "https://dc.lft.to/lastmile_qr_scan", "ios": "https://dc.lft.to/lastmile_qr_scan"}, "name": "dd30b1984cf97e5c59ce3ddf8219c711", "is_reserved": 0}, {"is_disabled": 0, "fusion_lon": 0.0, "fusion_lat": 0.0, "lat": 38.937089666666665, "type": "electric_scooter", "lon": -77.024389, "bike_id": "97103298287ea84516ee6bcee56968b8", "rental_uris": {"android": "https://dc.lft.to/lastmile_qr_scan", "ios": "https://dc.lft.to/lastmile_qr_scan"}, "name": "97103298287ea84516ee6bcee56968b8", "is_reserved": 0}, {"is_disabled": 0, "fusion_lon": 0.0, "fusion_lat": 0.0, "lat": 38.9222835, "type": "electric_scooter", "lon": -76.97532683333333, "bike_id": "6c3fbd96bde0d7c5f2512dbedaa5d50f", "rental_uris": {"android": "https://dc.lft.to/lastmile_qr_scan", "ios": "https://dc.lft.to/lastmile_qr_scan"}, "name": "6c3fbd96bde0d7c5f2512dbedaa5d50f", "is_reserved": 0}, {"is_disabled": 0, "fusion_lon": 0.0, "fusion_lat": 0.0, "lat": 38.897264166666666, "type": "electric_scooter", "lon": -77.02327233333334, "bike_id": "d211f6be5d793ec1f762861080d87ab9", "rental_uris": {"android": "https://dc.lft.to/lastmile_qr_scan", "ios": "https://dc.lft.to/lastmile_qr_scan"}, "name": "d211f6be5d793ec1f762861080d87ab9", "is_reserved": 0}, {"is_disabled": 0, "fusion_lon": 0.0, "fusion_lat": 0.0, "lat": 38.90968133333333, "type": "electric_scooter", "lon": -77.037338, "bike_id": "e8fb67c92b186d0767fa7d63b164321e", "rental_uris": {"android": "https://dc.lft.to/lastmile_qr_scan", "ios": "https://dc.lft.to/lastmile_qr_scan"}, "name": "e8fb67c92b186d0767fa7d63b164321e", "is_reserved": 0}, {"is_disabled": 0, "fusion_lon": 0.0, "fusion_lat": 0.0, "lat": 38.884514333333335, "type": "electric_scooter", "lon": -76.9521775, "bike_id": "d5ff96ad277b9cf976660714db4402b2", "rental_uris": {"android": "https://dc.lft.to/lastmile_qr_scan", "ios": "https://dc.lft.to/lastmile_qr_scan"}, "name": "d5ff96ad277b9cf976660714db4402b2", "is_reserved": 0}, {"is_disabled": 0, "fusion_lon": 0.0, "fusion_lat": 0.0, "lat": 38.910726, "type": "electric_scooter", "lon": -77.01510133333333, "bike_id": "4259ed276a78dd6a7cb3167e57b8abec", "rental_uris": {"android": "https://dc.lft.to/lastmile_qr_scan", "ios": "https://dc.lft.to/lastmile_qr_scan"}, "name": "4259ed276a78dd6a7cb3167e57b8abec", "is_reserved": 0}, {"is_disabled": 0, "fusion_lon": 0.0, "fusion_lat": 0.0, "lat": 38.93357866666667, "type": "electric_scooter", "lon": -77.05740883333333, "bike_id": "0e3de015676f5793e233806b0d57d035", "rental_uris": {"android": "https://dc.lft.to/lastmile_qr_scan", "ios": "https://dc.lft.to/lastmile_qr_scan"}, "name": "0e3de015676f5793e233806b0d57d035", "is_reserved": 0}, {"is_disabled": 0, "fusion_lon": 0.0, "fusion_lat": 0.0, "lat": 38.902912, "type": "electric_scooter", "lon": -77.02025333333333, "bike_id": "1bd22503842b0905c7ec95e3b3806063", "rental_uris": {"android": "https://dc.lft.to/lastmile_qr_scan", "ios": "https://dc.lft.to/lastmile_qr_scan"}, "name": "1bd22503842b0905c7ec95e3b3806063", "is_reserved": 0}, {"is_disabled": 0, "fusion_lon": 0.0, "fusion_lat": 0.0, "lat": 39.05264833333333, "type": "electric_bike", "lon": -77.0438385, "bike_id": "45a6da505d14d9dfc7181e1bb39bac5b", "rental_uris": {"android": "https://dc.lft.to/lastmile_qr_scan", "ios": "https://dc.lft.to/lastmile_qr_scan"}, "name": "45a6da505d14d9dfc7181e1bb39bac5b", "is_reserved": 0}, {"is_disabled": 0, "fusion_lon": 0.0, "fusion_lat": 0.0, "lat": 38.9489055, "type": "electric_bike", "lon": -76.9637035, "bike_id": "fa40c12b5a7d9cf63a79673c2a3f4021", "rental_uris": {"android": "https://dc.lft.to/lastmile_qr_scan", "ios": "https://dc.lft.to/lastmile_qr_scan"}, "name": "fa40c12b5a7d9cf63a79673c2a3f4021", "is_reserved": 0}, {"is_disabled": 0, "fusion_lon": 0.0, "fusion_lat": 0.0, "lat": 38.909604333333334, "type": "electric_scooter", "lon": -77.03950283333333, "bike_id": "287cb674a8b6b90257965525dd694945", "rental_uris": {"android": "https://dc.lft.to/lastmile_qr_scan", "ios": "https://dc.lft.to/lastmile_qr_scan"}, "name": "287cb674a8b6b90257965525dd694945", "is_reserved": 0}, {"is_disabled": 0, "fusion_lon": 0.0, "fusion_lat": 0.0, "lat": 38.91704516666667, "type": "electric_scooter", "lon": -77.00119566666666, "bike_id": "8b08d15fdc6d1129f2b741f52034cbaa", "rental_uris": {"android": "https://dc.lft.to/lastmile_qr_scan", "ios": "https://dc.lft.to/lastmile_qr_scan"}, "name": "8b08d15fdc6d1129f2b741f52034cbaa", "is_reserved": 0}, {"is_disabled": 0, "fusion_lon": 0.0, "fusion_lat": 0.0, "lat": 38.92812633333333, "type": "electric_scooter", "lon": -77.02346216666666, "bike_id": "e73872827a67dbb440a8cc20a82ff7dc", "rental_uris": {"android": "https://dc.lft.to/lastmile_qr_scan", "ios": "https://dc.lft.to/lastmile_qr_scan"}, "name": "e73872827a67dbb440a8cc20a82ff7dc", "is_reserved": 0}, {"is_disabled": 0, "fusion_lon": 0.0, "fusion_lat": 0.0, "lat": 38.922265333333335, "type": "electric_scooter", "lon": -77.04342216666667, "bike_id": "2528c9d8a69a373b7c10b9d9070f3c86", "rental_uris": {"android": "https://dc.lft.to/lastmile_qr_scan", "ios": "https://dc.lft.to/lastmile_qr_scan"}, "name": "2528c9d8a69a373b7c10b9d9070f3c86", "is_reserved": 0}, {"is_disabled": 0, "fusion_lon": 0.0, "fusion_lat": 0.0, "lat": 38.9181545, "type": "electric_scooter", "lon": -77.02585133333334, "bike_id": "09fdcfea7aa669e15a9811a9cc4131f6", "rental_uris": {"android": "https://dc.lft.to/lastmile_qr_scan", "ios": "https://dc.lft.to/lastmile_qr_scan"}, "name": "09fdcfea7aa669e15a9811a9cc4131f6", "is_reserved": 0}, {"is_disabled": 0, "fusion_lon": 0.0, "fusion_lat": 0.0, "lat": 38.93413, "type": "electric_scooter", "lon": -77.01965, "bike_id": "0ef0315ca5516215aad757ff5c8f6a61", "rental_uris": {"android": "https://dc.lft.to/lastmile_qr_scan", "ios": "https://dc.lft.to/lastmile_qr_scan"}, "name": "0ef0315ca5516215aad757ff5c8f6a61", "is_reserved": 0}, {"is_disabled": 0, "fusion_lon": 0.0, "fusion_lat": 0.0, "lat": 38.91703583333334, "type": "electric_bike", "lon": -77.09565016666667, "bike_id": "5d1ba7917a6dead3f7770ba32869bbf0", "rental_uris": {"android": "https://dc.lft.to/lastmile_qr_scan", "ios": "https://dc.lft.to/lastmile_qr_scan"}, "name": "5d1ba7917a6dead3f7770ba32869bbf0", "is_reserved": 0}, {"is_disabled": 0, "fusion_lon": 0.0, "fusion_lat": 0.0, "lat": 38.94445966666667, "type": "electric_scooter", "lon": -77.06035383333334, "bike_id": "f7543fc41f3d8ecffc58a00e3803fced", "rental_uris": {"android": "https://dc.lft.to/lastmile_qr_scan", "ios": "https://dc.lft.to/lastmile_qr_scan"}, "name": "f7543fc41f3d8ecffc58a00e3803fced", "is_reserved": 0}, {"is_disabled": 0, "fusion_lon": 0.0, "fusion_lat": 0.0, "lat": 38.916358833333334, "type": "electric_scooter", "lon": -77.05056033333334, "bike_id": "8707fc8ccd56dea32aa2080c3ec37ec5", "rental_uris": {"android": "https://dc.lft.to/lastmile_qr_scan", "ios": "https://dc.lft.to/lastmile_qr_scan"}, "name": "8707fc8ccd56dea32aa2080c3ec37ec5", "is_reserved": 0}, {"is_disabled": 0, "fusion_lon": 0.0, "fusion_lat": 0.0, "lat": 38.904662333333334, "type": "electric_scooter", "lon": -76.992095, "bike_id": "908afb6d00845e4973f205e8551c2f89", "rental_uris": {"android": "https://dc.lft.to/lastmile_qr_scan", "ios": "https://dc.lft.to/lastmile_qr_scan"}, "name": "908afb6d00845e4973f205e8551c2f89", "is_reserved": 0}, {"is_disabled": 0, "fusion_lon": 0.0, "fusion_lat": 0.0, "lat": 38.91349316666667, "type": "electric_scooter", "lon": -77.03191583333333, "bike_id": "4d1bd29b64133304fab56b3ccafa9c25", "rental_uris": {"android": "https://dc.lft.to/lastmile_qr_scan", "ios": "https://dc.lft.to/lastmile_qr_scan"}, "name": "4d1bd29b64133304fab56b3ccafa9c25", "is_reserved": 0}, {"is_disabled": 0, "fusion_lon": 0.0, "fusion_lat": 0.0, "lat": 38.91148966666667, "type": "electric_scooter", "lon": -76.9850435, "bike_id": "d0edc6bf4a5527a2027f467b10588a50", "rental_uris": {"android": "https://dc.lft.to/lastmile_qr_scan", "ios": "https://dc.lft.to/lastmile_qr_scan"}, "name": "d0edc6bf4a5527a2027f467b10588a50", "is_reserved": 0}, {"is_disabled": 0, "fusion_lon": 0.0, "fusion_lat": 0.0, "lat": 38.8949635, "type": "electric_scooter", "lon": -77.02285916666666, "bike_id": "5dced52a2e23c6afb14a9474c12d70fe", "rental_uris": {"android": "https://dc.lft.to/lastmile_qr_scan", "ios": "https://dc.lft.to/lastmile_qr_scan"}, "name": "5dced52a2e23c6afb14a9474c12d70fe", "is_reserved": 0}, {"is_disabled": 0, "fusion_lon": 0.0, "fusion_lat": 0.0, "lat": 38.90529566666667, "type": "electric_scooter", "lon": -77.02979616666667, "bike_id": "c9ae7d516591a4a361cc4732635ee37f", "rental_uris": {"android": "https://dc.lft.to/lastmile_qr_scan", "ios": "https://dc.lft.to/lastmile_qr_scan"}, "name": "c9ae7d516591a4a361cc4732635ee37f", "is_reserved": 0}, {"is_disabled": 0, "fusion_lon": 0.0, "fusion_lat": 0.0, "lat": 38.89467283333333, "type": "electric_scooter", "lon": -76.97721, "bike_id": "67f2164790f6a7baa7720a3b308798b3", "rental_uris": {"android": "https://dc.lft.to/lastmile_qr_scan", "ios": "https://dc.lft.to/lastmile_qr_scan"}, "name": "67f2164790f6a7baa7720a3b308798b3", "is_reserved": 0}, {"is_disabled": 0, "fusion_lon": 0.0, "fusion_lat": 0.0, "lat": 38.87793383333333, "type": "electric_scooter", "lon": -77.0135595, "bike_id": "55671d567c82d663529ce4ad03946d28", "rental_uris": {"android": "https://dc.lft.to/lastmile_qr_scan", "ios": "https://dc.lft.to/lastmile_qr_scan"}, "name": "55671d567c82d663529ce4ad03946d28", "is_reserved": 0}, {"is_disabled": 0, "fusion_lon": 0.0, "fusion_lat": 0.0, "lat": 38.92407716666666, "type": "electric_scooter", "lon": -77.03540383333333, "bike_id": "bbe203f72a12f931ab47f7c964a446d8", "rental_uris": {"android": "https://dc.lft.to/lastmile_qr_scan", "ios": "https://dc.lft.to/lastmile_qr_scan"}, "name": "bbe203f72a12f931ab47f7c964a446d8", "is_reserved": 0}, {"is_disabled": 0, "fusion_lon": 0.0, "fusion_lat": 0.0, "lat": 38.900438, "type": "electric_scooter", "lon": -77.00193033333333, "bike_id": "a7fe1d15196a5da4a3c23e1b58035684", "rental_uris": {"android": "https://dc.lft.to/lastmile_qr_scan", "ios": "https://dc.lft.to/lastmile_qr_scan"}, "name": "a7fe1d15196a5da4a3c23e1b58035684", "is_reserved": 0}, {"is_disabled": 0, "fusion_lon": 0.0, "fusion_lat": 0.0, "lat": 38.921449333333335, "type": "electric_scooter", "lon": -77.02960433333334, "bike_id": "ee6a59abc749aa94d626e683132e3e74", "rental_uris": {"android": "https://dc.lft.to/lastmile_qr_scan", "ios": "https://dc.lft.to/lastmile_qr_scan"}, "name": "ee6a59abc749aa94d626e683132e3e74", "is_reserved": 0}, {"is_disabled": 0, "fusion_lon": 0.0, "fusion_lat": 0.0, "lat": 38.9333715, "type": "electric_scooter", "lon": -77.04129, "bike_id": "c73bdccdb4d63488ce11ba977d1f0e11", "rental_uris": {"android": "https://dc.lft.to/lastmile_qr_scan", "ios": "https://dc.lft.to/lastmile_qr_scan"}, "name": "c73bdccdb4d63488ce11ba977d1f0e11", "is_reserved": 0}, {"is_disabled": 0, "fusion_lon": 0.0, "fusion_lat": 0.0, "lat": 38.934115166666665, "type": "electric_scooter", "lon": -77.02448516666666, "bike_id": "b4ed6ede4c0ded55ef28fb4d0d5e9524", "rental_uris": {"android": "https://dc.lft.to/lastmile_qr_scan", "ios": "https://dc.lft.to/lastmile_qr_scan"}, "name": "b4ed6ede4c0ded55ef28fb4d0d5e9524", "is_reserved": 0}, {"is_disabled": 0, "fusion_lon": 0.0, "fusion_lat": 0.0, "lat": 38.93413266666667, "type": "electric_bike", "lon": -77.02503033333333, "bike_id": "f11d51bacf7b2b365aba7b747344335a", "rental_uris": {"android": "https://dc.lft.to/lastmile_qr_scan", "ios": "https://dc.lft.to/lastmile_qr_scan"}, "name": "f11d51bacf7b2b365aba7b747344335a", "is_reserved": 0}, {"is_disabled": 0, "fusion_lon": 0.0, "fusion_lat": 0.0, "lat": 38.867308, "type": "electric_scooter", "lon": -76.97939066666666, "bike_id": "525f59ece9ea738728c4ac09321536ad", "rental_uris": {"android": "https://dc.lft.to/lastmile_qr_scan", "ios": "https://dc.lft.to/lastmile_qr_scan"}, "name": "525f59ece9ea738728c4ac09321536ad", "is_reserved": 0}, {"is_disabled": 0, "fusion_lon": 0.0, "fusion_lat": 0.0, "lat": 38.9232005, "type": "electric_scooter", "lon": -77.04623683333334, "bike_id": "e9288b6efddc2d55d8c527b396a38f24", "rental_uris": {"android": "https://dc.lft.to/lastmile_qr_scan", "ios": "https://dc.lft.to/lastmile_qr_scan"}, "name": "e9288b6efddc2d55d8c527b396a38f24", "is_reserved": 0}, {"is_disabled": 0, "fusion_lon": 0.0, "fusion_lat": 0.0, "lat": 38.885274333333335, "type": "electric_scooter", "lon": -76.92690933333333, "bike_id": "6423737d4219226e095adbd574b0a06d", "rental_uris": {"android": "https://dc.lft.to/lastmile_qr_scan", "ios": "https://dc.lft.to/lastmile_qr_scan"}, "name": "6423737d4219226e095adbd574b0a06d", "is_reserved": 0}, {"is_disabled": 0, "fusion_lon": 0.0, "fusion_lat": 0.0, "lat": 38.901783333333334, "type": "electric_scooter", "lon": -76.92825833333333, "bike_id": "52551015f991ca3506539df14dcd1c1a", "rental_uris": {"android": "https://dc.lft.to/lastmile_qr_scan", "ios": "https://dc.lft.to/lastmile_qr_scan"}, "name": "52551015f991ca3506539df14dcd1c1a", "is_reserved": 0}, {"is_disabled": 0, "fusion_lon": 0.0, "fusion_lat": 0.0, "lat": 38.91709916666667, "type": "electric_scooter", "lon": -77.03225616666667, "bike_id": "debaaeedac32833785b1b4eda72f8e3c", "rental_uris": {"android": "https://dc.lft.to/lastmile_qr_scan", "ios": "https://dc.lft.to/lastmile_qr_scan"}, "name": "debaaeedac32833785b1b4eda72f8e3c", "is_reserved": 0}, {"is_disabled": 0, "fusion_lon": 0.0, "fusion_lat": 0.0, "lat": 38.91091566666667, "type": "electric_scooter", "lon": -77.03849066666666, "bike_id": "b8aa756efd55aba0c019ca2092f37776", "rental_uris": {"android": "https://dc.lft.to/lastmile_qr_scan", "ios": "https://dc.lft.to/lastmile_qr_scan"}, "name": "b8aa756efd55aba0c019ca2092f37776", "is_reserved": 0}, {"is_disabled": 0, "fusion_lon": 0.0, "fusion_lat": 0.0, "lat": 38.947878, "type": "electric_scooter", "lon": -77.092791, "bike_id": "c236530c9d45ba9b395f92c4ab148b75", "rental_uris": {"android": "https://dc.lft.to/lastmile_qr_scan", "ios": "https://dc.lft.to/lastmile_qr_scan"}, "name": "c236530c9d45ba9b395f92c4ab148b75", "is_reserved": 0}, {"is_disabled": 0, "fusion_lon": 0.0, "fusion_lat": 0.0, "lat": 38.90535083333333, "type": "electric_scooter", "lon": -77.02980483333333, "bike_id": "a36c6e0a26b2ebdbbd17e2103cbf7576", "rental_uris": {"android": "https://dc.lft.to/lastmile_qr_scan", "ios": "https://dc.lft.to/lastmile_qr_scan"}, "name": "a36c6e0a26b2ebdbbd17e2103cbf7576", "is_reserved": 0}, {"is_disabled": 0, "fusion_lon": 0.0, "fusion_lat": 0.0, "lat": 38.8658245, "type": "electric_scooter", "lon": -76.99046616666666, "bike_id": "12079cf8d7c874fc1e6f85b6b3420afe", "rental_uris": {"android": "https://dc.lft.to/lastmile_qr_scan", "ios": "https://dc.lft.to/lastmile_qr_scan"}, "name": "12079cf8d7c874fc1e6f85b6b3420afe", "is_reserved": 0}, {"is_disabled": 0, "fusion_lon": 0.0, "fusion_lat": 0.0, "lat": 38.918886666666666, "type": "electric_scooter", "lon": -77.04729233333333, "bike_id": "47244af35e959da31dd1b432b176665c", "rental_uris": {"android": "https://dc.lft.to/lastmile_qr_scan", "ios": "https://dc.lft.to/lastmile_qr_scan"}, "name": "47244af35e959da31dd1b432b176665c", "is_reserved": 0}, {"is_disabled": 0, "fusion_lon": 0.0, "fusion_lat": 0.0, "lat": 38.89961533333334, "type": "electric_scooter", "lon": -77.04616216666666, "bike_id": "f93f5e4910450357a53a98c25c0d796e", "rental_uris": {"android": "https://dc.lft.to/lastmile_qr_scan", "ios": "https://dc.lft.to/lastmile_qr_scan"}, "name": "f93f5e4910450357a53a98c25c0d796e", "is_reserved": 0}, {"is_disabled": 0, "fusion_lon": 0.0, "fusion_lat": 0.0, "lat": 38.91563816666667, "type": "electric_scooter", "lon": -77.03269216666666, "bike_id": "3e85c788415c80ab403c6ff4ab008361", "rental_uris": {"android": "https://dc.lft.to/lastmile_qr_scan", "ios": "https://dc.lft.to/lastmile_qr_scan"}, "name": "3e85c788415c80ab403c6ff4ab008361", "is_reserved": 0}, {"is_disabled": 0, "fusion_lon": 0.0, "fusion_lat": 0.0, "lat": 38.896175666666664, "type": "electric_scooter", "lon": -76.99635716666667, "bike_id": "048ed6304650fc86746f6c8723fcd7b1", "rental_uris": {"android": "https://dc.lft.to/lastmile_qr_scan", "ios": "https://dc.lft.to/lastmile_qr_scan"}, "name": "048ed6304650fc86746f6c8723fcd7b1", "is_reserved": 0}, {"is_disabled": 0, "fusion_lon": 0.0, "fusion_lat": 0.0, "lat": 38.918724166666664, "type": "electric_bike", "lon": -76.96123333333334, "bike_id": "7d16ec5eee5eaf8e4402b0a252a3fcbc", "rental_uris": {"android": "https://dc.lft.to/lastmile_qr_scan", "ios": "https://dc.lft.to/lastmile_qr_scan"}, "name": "7d16ec5eee5eaf8e4402b0a252a3fcbc", "is_reserved": 0}, {"is_disabled": 0, "fusion_lon": 0.0, "fusion_lat": 0.0, "lat": 38.91264366666667, "type": "electric_scooter", "lon": -77.032626, "bike_id": "8710647352fc3629c8f19d68914118fb", "rental_uris": {"android": "https://dc.lft.to/lastmile_qr_scan", "ios": "https://dc.lft.to/lastmile_qr_scan"}, "name": "8710647352fc3629c8f19d68914118fb", "is_reserved": 0}, {"is_disabled": 0, "fusion_lon": 0.0, "fusion_lat": 0.0, "lat": 38.93185016666666, "type": "electric_scooter", "lon": -77.02835366666666, "bike_id": "d3a6243dfbb54e95a773e1b612ab9cf2", "rental_uris": {"android": "https://dc.lft.to/lastmile_qr_scan", "ios": "https://dc.lft.to/lastmile_qr_scan"}, "name": "d3a6243dfbb54e95a773e1b612ab9cf2", "is_reserved": 0}, {"is_disabled": 0, "fusion_lon": 0.0, "fusion_lat": 0.0, "lat": 38.92379016666667, "type": "electric_scooter", "lon": -77.04079183333333, "bike_id": "74a48ddb54098877e2bb12751439259f", "rental_uris": {"android": "https://dc.lft.to/lastmile_qr_scan", "ios": "https://dc.lft.to/lastmile_qr_scan"}, "name": "74a48ddb54098877e2bb12751439259f", "is_reserved": 0}, {"is_disabled": 0, "fusion_lon": 0.0, "fusion_lat": 0.0, "lat": 38.86889266666667, "type": "electric_scooter", "lon": -76.98315616666666, "bike_id": "5e5dd4456a3dcc61539314f2a0be8df9", "rental_uris": {"android": "https://dc.lft.to/lastmile_qr_scan", "ios": "https://dc.lft.to/lastmile_qr_scan"}, "name": "5e5dd4456a3dcc61539314f2a0be8df9", "is_reserved": 0}, {"is_disabled": 0, "fusion_lon": 0.0, "fusion_lat": 0.0, "lat": 38.89036266666667, "type": "electric_scooter", "lon": -76.93749866666667, "bike_id": "cc5f09bba51fff53e4014223743de5e3", "rental_uris": {"android": "https://dc.lft.to/lastmile_qr_scan", "ios": "https://dc.lft.to/lastmile_qr_scan"}, "name": "cc5f09bba51fff53e4014223743de5e3", "is_reserved": 0}, {"is_disabled": 0, "fusion_lon": 0.0, "fusion_lat": 0.0, "lat": 38.85988066666667, "type": "electric_bike", "lon": -76.97053366666667, "bike_id": "595ada79c49fa26cdaa0a2ac4009b867", "rental_uris": {"android": "https://dc.lft.to/lastmile_qr_scan", "ios": "https://dc.lft.to/lastmile_qr_scan"}, "name": "595ada79c49fa26cdaa0a2ac4009b867", "is_reserved": 0}, {"is_disabled": 0, "fusion_lon": 0.0, "fusion_lat": 0.0, "lat": 38.88313516666667, "type": "electric_scooter", "lon": -77.01626716666667, "bike_id": "53889fc031be9cf25d8ec660054a6628", "rental_uris": {"android": "https://dc.lft.to/lastmile_qr_scan", "ios": "https://dc.lft.to/lastmile_qr_scan"}, "name": "53889fc031be9cf25d8ec660054a6628", "is_reserved": 0}, {"is_disabled": 0, "fusion_lon": 0.0, "fusion_lat": 0.0, "lat": 38.994535166666665, "type": "electric_bike", "lon": -76.9081665, "bike_id": "ed6cb616a256e8f439631562a6f9144f", "rental_uris": {"android": "https://dc.lft.to/lastmile_qr_scan", "ios": "https://dc.lft.to/lastmile_qr_scan"}, "name": "ed6cb616a256e8f439631562a6f9144f", "is_reserved": 0}, {"is_disabled": 0, "fusion_lon": 0.0, "fusion_lat": 0.0, "lat": 38.8859165, "type": "electric_scooter", "lon": -77.00581083333333, "bike_id": "84528e1c3cf1cf24436ae3fe6d084355", "rental_uris": {"android": "https://dc.lft.to/lastmile_qr_scan", "ios": "https://dc.lft.to/lastmile_qr_scan"}, "name": "84528e1c3cf1cf24436ae3fe6d084355", "is_reserved": 0}, {"is_disabled": 0, "fusion_lon": 0.0, "fusion_lat": 0.0, "lat": 38.9147, "type": "electric_scooter", "lon": -77.02798616666666, "bike_id": "07a923241b92e7b84933b013cae50306", "rental_uris": {"android": "https://dc.lft.to/lastmile_qr_scan", "ios": "https://dc.lft.to/lastmile_qr_scan"}, "name": "07a923241b92e7b84933b013cae50306", "is_reserved": 0}, {"is_disabled": 0, "fusion_lon": 0.0, "fusion_lat": 0.0, "lat": 38.8801035, "type": "electric_bike", "lon": -76.91593666666667, "bike_id": "2d34df32c6ff4786a616c4b46dbab899", "rental_uris": {"android": "https://dc.lft.to/lastmile_qr_scan", "ios": "https://dc.lft.to/lastmile_qr_scan"}, "name": "2d34df32c6ff4786a616c4b46dbab899", "is_reserved": 0}, {"is_disabled": 0, "fusion_lon": 0.0, "fusion_lat": 0.0, "lat": 38.90193433333334, "type": "electric_scooter", "lon": -77.02409766666666, "bike_id": "83645bbc48fa695696fd412bd73b8f67", "rental_uris": {"android": "https://dc.lft.to/lastmile_qr_scan", "ios": "https://dc.lft.to/lastmile_qr_scan"}, "name": "83645bbc48fa695696fd412bd73b8f67", "is_reserved": 0}, {"is_disabled": 0, "fusion_lon": 0.0, "fusion_lat": 0.0, "lat": 38.9370155, "type": "electric_scooter", "lon": -77.06103216666666, "bike_id": "ebebecd94e7606759e672cf1a40f923e", "rental_uris": {"android": "https://dc.lft.to/lastmile_qr_scan", "ios": "https://dc.lft.to/lastmile_qr_scan"}, "name": "ebebecd94e7606759e672cf1a40f923e", "is_reserved": 0}, {"is_disabled": 0, "fusion_lon": 0.0, "fusion_lat": 0.0, "lat": 38.9119095, "type": "electric_scooter", "lon": -77.04167166666667, "bike_id": "bd09f873e94e32d19079a7f94ac10d4c", "rental_uris": {"android": "https://dc.lft.to/lastmile_qr_scan", "ios": "https://dc.lft.to/lastmile_qr_scan"}, "name": "bd09f873e94e32d19079a7f94ac10d4c", "is_reserved": 0}, {"is_disabled": 0, "fusion_lon": 0.0, "fusion_lat": 0.0, "lat": 38.83813966666666, "type": "electric_scooter", "lon": -77.00430466666667, "bike_id": "a1142b27d42b42ecd94ccd9e668f6c33", "rental_uris": {"android": "https://dc.lft.to/lastmile_qr_scan", "ios": "https://dc.lft.to/lastmile_qr_scan"}, "name": "a1142b27d42b42ecd94ccd9e668f6c33", "is_reserved": 0}, {"is_disabled": 0, "fusion_lon": 0.0, "fusion_lat": 0.0, "lat": 38.93717816666667, "type": "electric_scooter", "lon": -77.02355916666667, "bike_id": "41d54cc5e0e8026b15ba47fbd5dafb6d", "rental_uris": {"android": "https://dc.lft.to/lastmile_qr_scan", "ios": "https://dc.lft.to/lastmile_qr_scan"}, "name": "41d54cc5e0e8026b15ba47fbd5dafb6d", "is_reserved": 0}, {"is_disabled": 0, "fusion_lon": 0.0, "fusion_lat": 0.0, "lat": 38.897163666666664, "type": "electric_scooter", "lon": -77.00795733333334, "bike_id": "9f3f40dc1df6a4e9cfa0a13da7083196", "rental_uris": {"android": "https://dc.lft.to/lastmile_qr_scan", "ios": "https://dc.lft.to/lastmile_qr_scan"}, "name": "9f3f40dc1df6a4e9cfa0a13da7083196", "is_reserved": 0}, {"is_disabled": 0, "fusion_lon": 0.0, "fusion_lat": 0.0, "lat": 38.898752333333334, "type": "electric_scooter", "lon": -76.93183183333333, "bike_id": "a8f5d5f55c3ba2e0b068e42b62ee4a6a", "rental_uris": {"android": "https://dc.lft.to/lastmile_qr_scan", "ios": "https://dc.lft.to/lastmile_qr_scan"}, "name": "a8f5d5f55c3ba2e0b068e42b62ee4a6a", "is_reserved": 0}, {"is_disabled": 0, "fusion_lon": 0.0, "fusion_lat": 0.0, "lat": 38.8876935, "type": "electric_scooter", "lon": -77.01546216666667, "bike_id": "f9073049dbf18ff795eced0d850eaa65", "rental_uris": {"android": "https://dc.lft.to/lastmile_qr_scan", "ios": "https://dc.lft.to/lastmile_qr_scan"}, "name": "f9073049dbf18ff795eced0d850eaa65", "is_reserved": 0}, {"is_disabled": 0, "fusion_lon": 0.0, "fusion_lat": 0.0, "lat": 38.869742, "type": "electric_scooter", "lon": -77.01231333333334, "bike_id": "0893ecfd92072d26c350752136d02621", "rental_uris": {"android": "https://dc.lft.to/lastmile_qr_scan", "ios": "https://dc.lft.to/lastmile_qr_scan"}, "name": "0893ecfd92072d26c350752136d02621", "is_reserved": 0}, {"is_disabled": 0, "fusion_lon": 0.0, "fusion_lat": 0.0, "lat": 38.93274683333333, "type": "electric_scooter", "lon": -76.974209, "bike_id": "a44ee619a3ba1fce988873a5658f5777", "rental_uris": {"android": "https://dc.lft.to/lastmile_qr_scan", "ios": "https://dc.lft.to/lastmile_qr_scan"}, "name": "a44ee619a3ba1fce988873a5658f5777", "is_reserved": 0}, {"is_disabled": 0, "fusion_lon": 0.0, "fusion_lat": 0.0, "lat": 38.90541566666667, "type": "electric_scooter", "lon": -77.05000616666666, "bike_id": "b143ce9d24ca73ef0c00e9cd89459fed", "rental_uris": {"android": "https://dc.lft.to/lastmile_qr_scan", "ios": "https://dc.lft.to/lastmile_qr_scan"}, "name": "b143ce9d24ca73ef0c00e9cd89459fed", "is_reserved": 0}, {"is_disabled": 0, "fusion_lon": 0.0, "fusion_lat": 0.0, "lat": 38.932027166666664, "type": "electric_scooter", "lon": -77.02352316666666, "bike_id": "258e520ce23aae882d288b3a5fb43b3f", "rental_uris": {"android": "https://dc.lft.to/lastmile_qr_scan", "ios": "https://dc.lft.to/lastmile_qr_scan"}, "name": "258e520ce23aae882d288b3a5fb43b3f", "is_reserved": 0}, {"is_disabled": 0, "fusion_lon": 0.0, "fusion_lat": 0.0, "lat": 38.908264333333335, "type": "electric_bike", "lon": -76.9969135, "bike_id": "0cf444207a1947ff07d583e381f64e85", "rental_uris": {"android": "https://dc.lft.to/lastmile_qr_scan", "ios": "https://dc.lft.to/lastmile_qr_scan"}, "name": "0cf444207a1947ff07d583e381f64e85", "is_reserved": 0}, {"is_disabled": 0, "fusion_lon": 0.0, "fusion_lat": 0.0, "lat": 38.900144833333336, "type": "electric_scooter", "lon": -77.01189116666667, "bike_id": "8ae8a486f2236c87298a8e4f4d2e43b7", "rental_uris": {"android": "https://dc.lft.to/lastmile_qr_scan", "ios": "https://dc.lft.to/lastmile_qr_scan"}, "name": "8ae8a486f2236c87298a8e4f4d2e43b7", "is_reserved": 0}, {"is_disabled": 0, "fusion_lon": 0.0, "fusion_lat": 0.0, "lat": 38.915623, "type": "electric_scooter", "lon": -77.01016633333333, "bike_id": "52eb92348016f38789a16fe7f28b4024", "rental_uris": {"android": "https://dc.lft.to/lastmile_qr_scan", "ios": "https://dc.lft.to/lastmile_qr_scan"}, "name": "52eb92348016f38789a16fe7f28b4024", "is_reserved": 0}, {"is_disabled": 0, "fusion_lon": 0.0, "fusion_lat": 0.0, "lat": 38.90550483333333, "type": "electric_scooter", "lon": -77.03252416666666, "bike_id": "c70ac19f1067f993b484d4125be598fd", "rental_uris": {"android": "https://dc.lft.to/lastmile_qr_scan", "ios": "https://dc.lft.to/lastmile_qr_scan"}, "name": "c70ac19f1067f993b484d4125be598fd", "is_reserved": 0}, {"is_disabled": 0, "fusion_lon": 0.0, "fusion_lat": 0.0, "lat": 38.985015, "type": "electric_bike", "lon": -76.98211233333333, "bike_id": "571327cb253cc76a4bf78bc9f34de2e1", "rental_uris": {"android": "https://dc.lft.to/lastmile_qr_scan", "ios": "https://dc.lft.to/lastmile_qr_scan"}, "name": "571327cb253cc76a4bf78bc9f34de2e1", "is_reserved": 0}, {"is_disabled": 0, "fusion_lon": 0.0, "fusion_lat": 0.0, "lat": 38.9171025, "type": "electric_scooter", "lon": -77.03170866666666, "bike_id": "4c07ec534563b7806676e6b93a4169f5", "rental_uris": {"android": "https://dc.lft.to/lastmile_qr_scan", "ios": "https://dc.lft.to/lastmile_qr_scan"}, "name": "4c07ec534563b7806676e6b93a4169f5", "is_reserved": 0}, {"is_disabled": 0, "fusion_lon": 0.0, "fusion_lat": 0.0, "lat": 38.90490483333333, "type": "electric_scooter", "lon": -77.02523833333333, "bike_id": "ab832609b3c35a809fd244125609c149", "rental_uris": {"android": "https://dc.lft.to/lastmile_qr_scan", "ios": "https://dc.lft.to/lastmile_qr_scan"}, "name": "ab832609b3c35a809fd244125609c149", "is_reserved": 0}, {"is_disabled": 0, "fusion_lon": 0.0, "fusion_lat": 0.0, "lat": 38.9090865, "type": "electric_scooter", "lon": -77.02295433333333, "bike_id": "b0926ea4c05d90110e40cd2aa460e0dc", "rental_uris": {"android": "https://dc.lft.to/lastmile_qr_scan", "ios": "https://dc.lft.to/lastmile_qr_scan"}, "name": "b0926ea4c05d90110e40cd2aa460e0dc", "is_reserved": 0}, {"is_disabled": 0, "fusion_lon": 0.0, "fusion_lat": 0.0, "lat": 38.85835516666667, "type": "electric_bike", "lon": -76.99283716666666, "bike_id": "2253f92e5185ada9d77d73a4d0f86ba7", "rental_uris": {"android": "https://dc.lft.to/lastmile_qr_scan", "ios": "https://dc.lft.to/lastmile_qr_scan"}, "name": "2253f92e5185ada9d77d73a4d0f86ba7", "is_reserved": 0}, {"is_disabled": 0, "fusion_lon": 0.0, "fusion_lat": 0.0, "lat": 38.9156205, "type": "electric_scooter", "lon": -77.0315205, "bike_id": "5811a87cd142a3902d3291f85572a7d6", "rental_uris": {"android": "https://dc.lft.to/lastmile_qr_scan", "ios": "https://dc.lft.to/lastmile_qr_scan"}, "name": "5811a87cd142a3902d3291f85572a7d6", "is_reserved": 0}, {"is_disabled": 0, "fusion_lon": 0.0, "fusion_lat": 0.0, "lat": 38.938745, "type": "electric_scooter", "lon": -77.03256666666667, "bike_id": "f09eba6a6533dc8929898babb8f08b37", "rental_uris": {"android": "https://dc.lft.to/lastmile_qr_scan", "ios": "https://dc.lft.to/lastmile_qr_scan"}, "name": "f09eba6a6533dc8929898babb8f08b37", "is_reserved": 0}, {"is_disabled": 0, "fusion_lon": 0.0, "fusion_lat": 0.0, "lat": 38.953955, "type": "electric_scooter", "lon": -77.027534, "bike_id": "628a64f4cb33890f58ed65197ccc34fa", "rental_uris": {"android": "https://dc.lft.to/lastmile_qr_scan", "ios": "https://dc.lft.to/lastmile_qr_scan"}, "name": "628a64f4cb33890f58ed65197ccc34fa", "is_reserved": 0}, {"is_disabled": 0, "fusion_lon": 0.0, "fusion_lat": 0.0, "lat": 38.879995, "type": "electric_bike", "lon": -76.91596016666666, "bike_id": "8e5c0c9aaec89ff8727182a3b1626972", "rental_uris": {"android": "https://dc.lft.to/lastmile_qr_scan", "ios": "https://dc.lft.to/lastmile_qr_scan"}, "name": "8e5c0c9aaec89ff8727182a3b1626972", "is_reserved": 0}, {"is_disabled": 0, "fusion_lon": 0.0, "fusion_lat": 0.0, "lat": 38.90803866666667, "type": "electric_scooter", "lon": -77.02949833333334, "bike_id": "69bfa5ae5e68bb1edfec366d66a32934", "rental_uris": {"android": "https://dc.lft.to/lastmile_qr_scan", "ios": "https://dc.lft.to/lastmile_qr_scan"}, "name": "69bfa5ae5e68bb1edfec366d66a32934", "is_reserved": 0}, {"is_disabled": 0, "fusion_lon": 0.0, "fusion_lat": 0.0, "lat": 38.904452666666664, "type": "electric_scooter", "lon": -77.06112633333333, "bike_id": "180ced037a0d8fc1bb6a532f42bc03a8", "rental_uris": {"android": "https://dc.lft.to/lastmile_qr_scan", "ios": "https://dc.lft.to/lastmile_qr_scan"}, "name": "180ced037a0d8fc1bb6a532f42bc03a8", "is_reserved": 0}, {"is_disabled": 0, "fusion_lon": 0.0, "fusion_lat": 0.0, "lat": 38.90737283333333, "type": "electric_scooter", "lon": -77.0414995, "bike_id": "cf92cd433573fca9daf538429b93e600", "rental_uris": {"android": "https://dc.lft.to/lastmile_qr_scan", "ios": "https://dc.lft.to/lastmile_qr_scan"}, "name": "cf92cd433573fca9daf538429b93e600", "is_reserved": 0}, {"is_disabled": 0, "fusion_lon": 0.0, "fusion_lat": 0.0, "lat": 38.92395833333333, "type": "electric_scooter", "lon": -77.04066883333333, "bike_id": "a37ec0ad7a2d037fb5e86cf142bde87c", "rental_uris": {"android": "https://dc.lft.to/lastmile_qr_scan", "ios": "https://dc.lft.to/lastmile_qr_scan"}, "name": "a37ec0ad7a2d037fb5e86cf142bde87c", "is_reserved": 0}, {"is_disabled": 0, "fusion_lon": 0.0, "fusion_lat": 0.0, "lat": 38.95612333333333, "type": "electric_scooter", "lon": -77.03281316666667, "bike_id": "a9970a534277b1cee43943db547de1c7", "rental_uris": {"android": "https://dc.lft.to/lastmile_qr_scan", "ios": "https://dc.lft.to/lastmile_qr_scan"}, "name": "a9970a534277b1cee43943db547de1c7", "is_reserved": 0}, {"is_disabled": 0, "fusion_lon": 0.0, "fusion_lat": 0.0, "lat": 38.91775416666667, "type": "electric_scooter", "lon": -77.034386, "bike_id": "2cd601d7df4e899777d32746a811dc30", "rental_uris": {"android": "https://dc.lft.to/lastmile_qr_scan", "ios": "https://dc.lft.to/lastmile_qr_scan"}, "name": "2cd601d7df4e899777d32746a811dc30", "is_reserved": 0}, {"is_disabled": 0, "fusion_lon": 0.0, "fusion_lat": 0.0, "lat": 38.880823, "type": "electric_scooter", "lon": -77.01667583333334, "bike_id": "cbb17adadf7820c1d6b224328bc0f2cd", "rental_uris": {"android": "https://dc.lft.to/lastmile_qr_scan", "ios": "https://dc.lft.to/lastmile_qr_scan"}, "name": "cbb17adadf7820c1d6b224328bc0f2cd", "is_reserved": 0}, {"is_disabled": 0, "fusion_lon": 0.0, "fusion_lat": 0.0, "lat": 38.92958383333333, "type": "electric_scooter", "lon": -77.05516683333333, "bike_id": "2110834767b2af6e2d705906a562b1be", "rental_uris": {"android": "https://dc.lft.to/lastmile_qr_scan", "ios": "https://dc.lft.to/lastmile_qr_scan"}, "name": "2110834767b2af6e2d705906a562b1be", "is_reserved": 0}, {"is_disabled": 0, "fusion_lon": 0.0, "fusion_lat": 0.0, "lat": 38.89192083333333, "type": "electric_scooter", "lon": -77.022414, "bike_id": "01bcc8246af659c4a6568e4d71e00193", "rental_uris": {"android": "https://dc.lft.to/lastmile_qr_scan", "ios": "https://dc.lft.to/lastmile_qr_scan"}, "name": "01bcc8246af659c4a6568e4d71e00193", "is_reserved": 0}, {"is_disabled": 0, "fusion_lon": 0.0, "fusion_lat": 0.0, "lat": 38.922510833333334, "type": "electric_scooter", "lon": -77.03081033333333, "bike_id": "fb9fb6e650a5d21503c67022f264dcf5", "rental_uris": {"android": "https://dc.lft.to/lastmile_qr_scan", "ios": "https://dc.lft.to/lastmile_qr_scan"}, "name": "fb9fb6e650a5d21503c67022f264dcf5", "is_reserved": 0}, {"is_disabled": 0, "fusion_lon": 0.0, "fusion_lat": 0.0, "lat": 38.89728483333333, "type": "electric_scooter", "lon": -77.04989933333333, "bike_id": "2491515f8638f7fd54f4af19d0de73e1", "rental_uris": {"android": "https://dc.lft.to/lastmile_qr_scan", "ios": "https://dc.lft.to/lastmile_qr_scan"}, "name": "2491515f8638f7fd54f4af19d0de73e1", "is_reserved": 0}, {"is_disabled": 0, "fusion_lon": 0.0, "fusion_lat": 0.0, "lat": 38.96646783333333, "type": "electric_bike", "lon": -76.93024366666667, "bike_id": "5052a78684fb33b577247b8ef3616bc4", "rental_uris": {"android": "https://dc.lft.to/lastmile_qr_scan", "ios": "https://dc.lft.to/lastmile_qr_scan"}, "name": "5052a78684fb33b577247b8ef3616bc4", "is_reserved": 0}, {"is_disabled": 0, "fusion_lon": 0.0, "fusion_lat": 0.0, "lat": 38.90835516666667, "type": "electric_scooter", "lon": -77.04881566666667, "bike_id": "6105a749bff45261db5df0149e1ec07a", "rental_uris": {"android": "https://dc.lft.to/lastmile_qr_scan", "ios": "https://dc.lft.to/lastmile_qr_scan"}, "name": "6105a749bff45261db5df0149e1ec07a", "is_reserved": 0}, {"is_disabled": 0, "fusion_lon": 0.0, "fusion_lat": 0.0, "lat": 38.89260633333333, "type": "electric_scooter", "lon": -76.94157016666666, "bike_id": "bb14c7d15af611a8d4d5195fe2e80dd1", "rental_uris": {"android": "https://dc.lft.to/lastmile_qr_scan", "ios": "https://dc.lft.to/lastmile_qr_scan"}, "name": "bb14c7d15af611a8d4d5195fe2e80dd1", "is_reserved": 0}, {"is_disabled": 0, "fusion_lon": 0.0, "fusion_lat": 0.0, "lat": 38.9186695, "type": "electric_scooter", "lon": -77.0418385, "bike_id": "66fcd8a56b7b210320716169ebe92392", "rental_uris": {"android": "https://dc.lft.to/lastmile_qr_scan", "ios": "https://dc.lft.to/lastmile_qr_scan"}, "name": "66fcd8a56b7b210320716169ebe92392", "is_reserved": 0}, {"is_disabled": 0, "fusion_lon": 0.0, "fusion_lat": 0.0, "lat": 38.90788383333334, "type": "electric_scooter", "lon": -77.04353466666667, "bike_id": "9e3e9c1ea5d80fc17538a20e57f7e820", "rental_uris": {"android": "https://dc.lft.to/lastmile_qr_scan", "ios": "https://dc.lft.to/lastmile_qr_scan"}, "name": "9e3e9c1ea5d80fc17538a20e57f7e820", "is_reserved": 0}, {"is_disabled": 0, "fusion_lon": 0.0, "fusion_lat": 0.0, "lat": 38.91689733333333, "type": "electric_scooter", "lon": -77.0287565, "bike_id": "db1601be34405747b126b8610902faed", "rental_uris": {"android": "https://dc.lft.to/lastmile_qr_scan", "ios": "https://dc.lft.to/lastmile_qr_scan"}, "name": "db1601be34405747b126b8610902faed", "is_reserved": 0}, {"is_disabled": 0, "fusion_lon": 0.0, "fusion_lat": 0.0, "lat": 38.909440000000004, "type": "electric_scooter", "lon": -77.01527466666667, "bike_id": "dc6d9fb95671be24939495644a68c08b", "rental_uris": {"android": "https://dc.lft.to/lastmile_qr_scan", "ios": "https://dc.lft.to/lastmile_qr_scan"}, "name": "dc6d9fb95671be24939495644a68c08b", "is_reserved": 0}, {"is_disabled": 0, "fusion_lon": 0.0, "fusion_lat": 0.0, "lat": 38.892199, "type": "electric_scooter", "lon": -77.01559116666667, "bike_id": "1c3d8f61f3e3418f80fd2df6ce5227fc", "rental_uris": {"android": "https://dc.lft.to/lastmile_qr_scan", "ios": "https://dc.lft.to/lastmile_qr_scan"}, "name": "1c3d8f61f3e3418f80fd2df6ce5227fc", "is_reserved": 0}, {"is_disabled": 0, "fusion_lon": 0.0, "fusion_lat": 0.0, "lat": 38.8864345, "type": "electric_scooter", "lon": -77.0225, "bike_id": "8c59684c9287f21704e53919d7186865", "rental_uris": {"android": "https://dc.lft.to/lastmile_qr_scan", "ios": "https://dc.lft.to/lastmile_qr_scan"}, "name": "8c59684c9287f21704e53919d7186865", "is_reserved": 0}, {"is_disabled": 0, "fusion_lon": 0.0, "fusion_lat": 0.0, "lat": 38.84289733333333, "type": "electric_scooter", "lon": -76.99947516666667, "bike_id": "4403bf6dfbe4bce0f9d93ad957bab288", "rental_uris": {"android": "https://dc.lft.to/lastmile_qr_scan", "ios": "https://dc.lft.to/lastmile_qr_scan"}, "name": "4403bf6dfbe4bce0f9d93ad957bab288", "is_reserved": 0}, {"is_disabled": 0, "fusion_lon": 0.0, "fusion_lat": 0.0, "lat": 38.8973085, "type": "electric_scooter", "lon": -77.00749833333333, "bike_id": "e95e593c4121c70da3c7a6585a6d22cd", "rental_uris": {"android": "https://dc.lft.to/lastmile_qr_scan", "ios": "https://dc.lft.to/lastmile_qr_scan"}, "name": "e95e593c4121c70da3c7a6585a6d22cd", "is_reserved": 0}, {"is_disabled": 0, "fusion_lon": 0.0, "fusion_lat": 0.0, "lat": 38.8870305, "type": "electric_scooter", "lon": -76.95364233333333, "bike_id": "4656e8c0293db5e2cc9cf6a2222a86d8", "rental_uris": {"android": "https://dc.lft.to/lastmile_qr_scan", "ios": "https://dc.lft.to/lastmile_qr_scan"}, "name": "4656e8c0293db5e2cc9cf6a2222a86d8", "is_reserved": 0}, {"is_disabled": 0, "fusion_lon": 0.0, "fusion_lat": 0.0, "lat": 38.91810266666667, "type": "electric_scooter", "lon": -77.04157983333333, "bike_id": "4ed982d47558238e26998334eabf55f4", "rental_uris": {"android": "https://dc.lft.to/lastmile_qr_scan", "ios": "https://dc.lft.to/lastmile_qr_scan"}, "name": "4ed982d47558238e26998334eabf55f4", "is_reserved": 0}, {"is_disabled": 0, "fusion_lon": 0.0, "fusion_lat": 0.0, "lat": 38.910375, "type": "electric_scooter", "lon": -77.04008866666666, "bike_id": "2254f6486341c9efbeb2a38881fcbbba", "rental_uris": {"android": "https://dc.lft.to/lastmile_qr_scan", "ios": "https://dc.lft.to/lastmile_qr_scan"}, "name": "2254f6486341c9efbeb2a38881fcbbba", "is_reserved": 0}, {"is_disabled": 0, "fusion_lon": 0.0, "fusion_lat": 0.0, "lat": 38.9067875, "type": "electric_scooter", "lon": -76.9801105, "bike_id": "942d4c89cbdb3bbcb3227cc224bc47c4", "rental_uris": {"android": "https://dc.lft.to/lastmile_qr_scan", "ios": "https://dc.lft.to/lastmile_qr_scan"}, "name": "942d4c89cbdb3bbcb3227cc224bc47c4", "is_reserved": 0}, {"is_disabled": 0, "fusion_lon": 0.0, "fusion_lat": 0.0, "lat": 38.858043, "type": "electric_scooter", "lon": -76.98652916666667, "bike_id": "ba252b5987c1979bb7059cca0194fcf8", "rental_uris": {"android": "https://dc.lft.to/lastmile_qr_scan", "ios": "https://dc.lft.to/lastmile_qr_scan"}, "name": "ba252b5987c1979bb7059cca0194fcf8", "is_reserved": 0}, {"is_disabled": 0, "fusion_lon": 0.0, "fusion_lat": 0.0, "lat": 38.927471, "type": "electric_scooter", "lon": -77.01616033333333, "bike_id": "8bccd4c72f8eb08c5a93007eda84934e", "rental_uris": {"android": "https://dc.lft.to/lastmile_qr_scan", "ios": "https://dc.lft.to/lastmile_qr_scan"}, "name": "8bccd4c72f8eb08c5a93007eda84934e", "is_reserved": 0}, {"is_disabled": 0, "fusion_lon": 0.0, "fusion_lat": 0.0, "lat": 38.91769433333333, "type": "electric_scooter", "lon": -77.03443266666666, "bike_id": "31202d309847c55ba749dd603890f8e3", "rental_uris": {"android": "https://dc.lft.to/lastmile_qr_scan", "ios": "https://dc.lft.to/lastmile_qr_scan"}, "name": "31202d309847c55ba749dd603890f8e3", "is_reserved": 0}, {"is_disabled": 0, "fusion_lon": 0.0, "fusion_lat": 0.0, "lat": 38.90074033333333, "type": "electric_scooter", "lon": -77.01817516666667, "bike_id": "7d98e10def6730e605580578576061ef", "rental_uris": {"android": "https://dc.lft.to/lastmile_qr_scan", "ios": "https://dc.lft.to/lastmile_qr_scan"}, "name": "7d98e10def6730e605580578576061ef", "is_reserved": 0}, {"is_disabled": 0, "fusion_lon": 0.0, "fusion_lat": 0.0, "lat": 38.90228533333333, "type": "electric_scooter", "lon": -77.06165616666667, "bike_id": "566c43234e1019a32ee16bf668787220", "rental_uris": {"android": "https://dc.lft.to/lastmile_qr_scan", "ios": "https://dc.lft.to/lastmile_qr_scan"}, "name": "566c43234e1019a32ee16bf668787220", "is_reserved": 0}, {"is_disabled": 0, "fusion_lon": 0.0, "fusion_lat": 0.0, "lat": 38.92972233333333, "type": "electric_scooter", "lon": -77.02078416666667, "bike_id": "fcb2f0e3d2d2b7725fe45e32163b46e5", "rental_uris": {"android": "https://dc.lft.to/lastmile_qr_scan", "ios": "https://dc.lft.to/lastmile_qr_scan"}, "name": "fcb2f0e3d2d2b7725fe45e32163b46e5", "is_reserved": 0}, {"is_disabled": 0, "fusion_lon": 0.0, "fusion_lat": 0.0, "lat": 38.942013333333335, "type": "electric_scooter", "lon": -77.025897, "bike_id": "7017bb537dbbd289fad13cf42b113d83", "rental_uris": {"android": "https://dc.lft.to/lastmile_qr_scan", "ios": "https://dc.lft.to/lastmile_qr_scan"}, "name": "7017bb537dbbd289fad13cf42b113d83", "is_reserved": 0}, {"is_disabled": 0, "fusion_lon": 0.0, "fusion_lat": 0.0, "lat": 38.96419366666667, "type": "electric_scooter", "lon": -77.075307, "bike_id": "9be391c9400e330015c68f087ad8dd08", "rental_uris": {"android": "https://dc.lft.to/lastmile_qr_scan", "ios": "https://dc.lft.to/lastmile_qr_scan"}, "name": "9be391c9400e330015c68f087ad8dd08", "is_reserved": 0}, {"is_disabled": 0, "fusion_lon": 0.0, "fusion_lat": 0.0, "lat": 38.92191283333333, "type": "electric_scooter", "lon": -76.997028, "bike_id": "0d96ff2fba484a23719850424aeb9429", "rental_uris": {"android": "https://dc.lft.to/lastmile_qr_scan", "ios": "https://dc.lft.to/lastmile_qr_scan"}, "name": "0d96ff2fba484a23719850424aeb9429", "is_reserved": 0}, {"is_disabled": 0, "fusion_lon": 0.0, "fusion_lat": 0.0, "lat": 38.904023333333335, "type": "electric_scooter", "lon": -77.00567366666667, "bike_id": "46ab95f41655302f6e7b5360d1dfffca", "rental_uris": {"android": "https://dc.lft.to/lastmile_qr_scan", "ios": "https://dc.lft.to/lastmile_qr_scan"}, "name": "46ab95f41655302f6e7b5360d1dfffca", "is_reserved": 0}, {"is_disabled": 0, "fusion_lon": 0.0, "fusion_lat": 0.0, "lat": 38.90059483333334, "type": "electric_scooter", "lon": -76.93385533333333, "bike_id": "26d9e21c2c4737cb8e59fce7ebdb40ec", "rental_uris": {"android": "https://dc.lft.to/lastmile_qr_scan", "ios": "https://dc.lft.to/lastmile_qr_scan"}, "name": "26d9e21c2c4737cb8e59fce7ebdb40ec", "is_reserved": 0}, {"is_disabled": 0, "fusion_lon": 0.0, "fusion_lat": 0.0, "lat": 38.9313385, "type": "electric_scooter", "lon": -77.05726733333333, "bike_id": "b4e878f3ff17129d7f42bf4d3a022b58", "rental_uris": {"android": "https://dc.lft.to/lastmile_qr_scan", "ios": "https://dc.lft.to/lastmile_qr_scan"}, "name": "b4e878f3ff17129d7f42bf4d3a022b58", "is_reserved": 0}, {"is_disabled": 0, "fusion_lon": 0.0, "fusion_lat": 0.0, "lat": 38.89356133333333, "type": "electric_scooter", "lon": -77.0396385, "bike_id": "f8da27ce71b76ca8ea65c7a15853160f", "rental_uris": {"android": "https://dc.lft.to/lastmile_qr_scan", "ios": "https://dc.lft.to/lastmile_qr_scan"}, "name": "f8da27ce71b76ca8ea65c7a15853160f", "is_reserved": 0}, {"is_disabled": 0, "fusion_lon": 0.0, "fusion_lat": 0.0, "lat": 38.878966166666665, "type": "electric_scooter", "lon": -76.93522583333333, "bike_id": "b5c94b3fc3e1fe0d01cc350eb844a6ae", "rental_uris": {"android": "https://dc.lft.to/lastmile_qr_scan", "ios": "https://dc.lft.to/lastmile_qr_scan"}, "name": "b5c94b3fc3e1fe0d01cc350eb844a6ae", "is_reserved": 0}, {"is_disabled": 0, "fusion_lon": 0.0, "fusion_lat": 0.0, "lat": 38.906879, "type": "electric_scooter", "lon": -77.026936, "bike_id": "fe26485fbe9efe36ce0ace15fde7ef1a", "rental_uris": {"android": "https://dc.lft.to/lastmile_qr_scan", "ios": "https://dc.lft.to/lastmile_qr_scan"}, "name": "fe26485fbe9efe36ce0ace15fde7ef1a", "is_reserved": 0}, {"is_disabled": 0, "fusion_lon": 0.0, "fusion_lat": 0.0, "lat": 38.97395916666667, "type": "electric_bike", "lon": -77.02493483333333, "bike_id": "9112a6491df839358996a293252dbabb", "rental_uris": {"android": "https://dc.lft.to/lastmile_qr_scan", "ios": "https://dc.lft.to/lastmile_qr_scan"}, "name": "9112a6491df839358996a293252dbabb", "is_reserved": 0}, {"is_disabled": 0, "fusion_lon": 0.0, "fusion_lat": 0.0, "lat": 38.945198, "type": "electric_scooter", "lon": -77.02980866666667, "bike_id": "0b4a267d177ac1d5b0b58b06e9978093", "rental_uris": {"android": "https://dc.lft.to/lastmile_qr_scan", "ios": "https://dc.lft.to/lastmile_qr_scan"}, "name": "0b4a267d177ac1d5b0b58b06e9978093", "is_reserved": 0}, {"is_disabled": 0, "fusion_lon": 0.0, "fusion_lat": 0.0, "lat": 38.901373, "type": "electric_scooter", "lon": -77.04170566666667, "bike_id": "bbee5c28f6e982d9e64171ed4c981e2b", "rental_uris": {"android": "https://dc.lft.to/lastmile_qr_scan", "ios": "https://dc.lft.to/lastmile_qr_scan"}, "name": "bbee5c28f6e982d9e64171ed4c981e2b", "is_reserved": 0}, {"is_disabled": 0, "fusion_lon": 0.0, "fusion_lat": 0.0, "lat": 38.906797, "type": "electric_scooter", "lon": -77.03116316666667, "bike_id": "b3e8c92a2b6cb5b070f0891f7402beb0", "rental_uris": {"android": "https://dc.lft.to/lastmile_qr_scan", "ios": "https://dc.lft.to/lastmile_qr_scan"}, "name": "b3e8c92a2b6cb5b070f0891f7402beb0", "is_reserved": 0}, {"is_disabled": 0, "fusion_lon": 0.0, "fusion_lat": 0.0, "lat": 38.9019995, "type": "electric_scooter", "lon": -76.98218583333333, "bike_id": "cb5f8da41635ef6570d18275552c3b5b", "rental_uris": {"android": "https://dc.lft.to/lastmile_qr_scan", "ios": "https://dc.lft.to/lastmile_qr_scan"}, "name": "cb5f8da41635ef6570d18275552c3b5b", "is_reserved": 0}, {"is_disabled": 0, "fusion_lon": 0.0, "fusion_lat": 0.0, "lat": 38.927944833333335, "type": "electric_scooter", "lon": -77.0325305, "bike_id": "18669f8c9d9158abbdde2ded3384b8d5", "rental_uris": {"android": "https://dc.lft.to/lastmile_qr_scan", "ios": "https://dc.lft.to/lastmile_qr_scan"}, "name": "18669f8c9d9158abbdde2ded3384b8d5", "is_reserved": 0}, {"is_disabled": 0, "fusion_lon": 0.0, "fusion_lat": 0.0, "lat": 38.901564666666665, "type": "electric_scooter", "lon": -77.03181016666667, "bike_id": "b706970daa7fb3682e091a2af6b0c51c", "rental_uris": {"android": "https://dc.lft.to/lastmile_qr_scan", "ios": "https://dc.lft.to/lastmile_qr_scan"}, "name": "b706970daa7fb3682e091a2af6b0c51c", "is_reserved": 0}, {"is_disabled": 0, "fusion_lon": 0.0, "fusion_lat": 0.0, "lat": 38.89855933333333, "type": "electric_scooter", "lon": -77.03131283333333, "bike_id": "38d74e594abd7f613878678c2c269780", "rental_uris": {"android": "https://dc.lft.to/lastmile_qr_scan", "ios": "https://dc.lft.to/lastmile_qr_scan"}, "name": "38d74e594abd7f613878678c2c269780", "is_reserved": 0}, {"is_disabled": 0, "fusion_lon": 0.0, "fusion_lat": 0.0, "lat": 38.90597916666667, "type": "electric_scooter", "lon": -77.063705, "bike_id": "938ad95dbe0ad59dd403ca68ead69508", "rental_uris": {"android": "https://dc.lft.to/lastmile_qr_scan", "ios": "https://dc.lft.to/lastmile_qr_scan"}, "name": "938ad95dbe0ad59dd403ca68ead69508", "is_reserved": 0}, {"is_disabled": 0, "fusion_lon": 0.0, "fusion_lat": 0.0, "lat": 38.883759833333336, "type": "electric_scooter", "lon": -76.92373733333334, "bike_id": "728c3fe03c44a2105796c8b69fde0667", "rental_uris": {"android": "https://dc.lft.to/lastmile_qr_scan", "ios": "https://dc.lft.to/lastmile_qr_scan"}, "name": "728c3fe03c44a2105796c8b69fde0667", "is_reserved": 0}, {"is_disabled": 0, "fusion_lon": 0.0, "fusion_lat": 0.0, "lat": 38.902797, "type": "electric_scooter", "lon": -77.03644666666666, "bike_id": "e1e6d995e54a398107f689e7e9ba0b49", "rental_uris": {"android": "https://dc.lft.to/lastmile_qr_scan", "ios": "https://dc.lft.to/lastmile_qr_scan"}, "name": "e1e6d995e54a398107f689e7e9ba0b49", "is_reserved": 0}, {"is_disabled": 0, "fusion_lon": 0.0, "fusion_lat": 0.0, "lat": 38.91807683333333, "type": "electric_scooter", "lon": -77.0344305, "bike_id": "108a64040dc16d3d551028ffe054e816", "rental_uris": {"android": "https://dc.lft.to/lastmile_qr_scan", "ios": "https://dc.lft.to/lastmile_qr_scan"}, "name": "108a64040dc16d3d551028ffe054e816", "is_reserved": 0}, {"is_disabled": 0, "fusion_lon": 0.0, "fusion_lat": 0.0, "lat": 38.88367516666667, "type": "electric_scooter", "lon": -77.01952283333334, "bike_id": "ebc395c772a01c1a306280295e15fcd5", "rental_uris": {"android": "https://dc.lft.to/lastmile_qr_scan", "ios": "https://dc.lft.to/lastmile_qr_scan"}, "name": "ebc395c772a01c1a306280295e15fcd5", "is_reserved": 0}, {"is_disabled": 0, "fusion_lon": 0.0, "fusion_lat": 0.0, "lat": 38.94808783333333, "type": "electric_bike", "lon": -76.972078, "bike_id": "00b5f361a2d760fcb1383f10ebc1073c", "rental_uris": {"android": "https://dc.lft.to/lastmile_qr_scan", "ios": "https://dc.lft.to/lastmile_qr_scan"}, "name": "00b5f361a2d760fcb1383f10ebc1073c", "is_reserved": 0}, {"is_disabled": 0, "fusion_lon": 0.0, "fusion_lat": 0.0, "lat": 38.9016065, "type": "electric_scooter", "lon": -76.99381083333333, "bike_id": "e5ae807b3182fdc12736b9b2d71f2fbf", "rental_uris": {"android": "https://dc.lft.to/lastmile_qr_scan", "ios": "https://dc.lft.to/lastmile_qr_scan"}, "name": "e5ae807b3182fdc12736b9b2d71f2fbf", "is_reserved": 0}, {"is_disabled": 0, "fusion_lon": 0.0, "fusion_lat": 0.0, "lat": 38.91199366666667, "type": "electric_scooter", "lon": -76.9848325, "bike_id": "d081194976c66de347a95052a8535306", "rental_uris": {"android": "https://dc.lft.to/lastmile_qr_scan", "ios": "https://dc.lft.to/lastmile_qr_scan"}, "name": "d081194976c66de347a95052a8535306", "is_reserved": 0}, {"is_disabled": 0, "fusion_lon": 0.0, "fusion_lat": 0.0, "lat": 38.8875135, "type": "electric_scooter", "lon": -77.00223433333333, "bike_id": "4df087e492d6fef88e9edd2187152150", "rental_uris": {"android": "https://dc.lft.to/lastmile_qr_scan", "ios": "https://dc.lft.to/lastmile_qr_scan"}, "name": "4df087e492d6fef88e9edd2187152150", "is_reserved": 0}, {"is_disabled": 0, "fusion_lon": 0.0, "fusion_lat": 0.0, "lat": 38.921653, "type": "electric_scooter", "lon": -77.04362566666667, "bike_id": "e40925c258801e6d71aa47a6ed2a416e", "rental_uris": {"android": "https://dc.lft.to/lastmile_qr_scan", "ios": "https://dc.lft.to/lastmile_qr_scan"}, "name": "e40925c258801e6d71aa47a6ed2a416e", "is_reserved": 0}, {"is_disabled": 0, "fusion_lon": 0.0, "fusion_lat": 0.0, "lat": 38.90199883333333, "type": "electric_scooter", "lon": -77.03907583333333, "bike_id": "98ad8463df9b1e700675c1ef868a4827", "rental_uris": {"android": "https://dc.lft.to/lastmile_qr_scan", "ios": "https://dc.lft.to/lastmile_qr_scan"}, "name": "98ad8463df9b1e700675c1ef868a4827", "is_reserved": 0}, {"is_disabled": 0, "fusion_lon": 0.0, "fusion_lat": 0.0, "lat": 38.879954833333336, "type": "electric_scooter", "lon": -77.00581966666667, "bike_id": "c84ead12ab62d6327f90d1d9a62f234c", "rental_uris": {"android": "https://dc.lft.to/lastmile_qr_scan", "ios": "https://dc.lft.to/lastmile_qr_scan"}, "name": "c84ead12ab62d6327f90d1d9a62f234c", "is_reserved": 0}, {"is_disabled": 0, "fusion_lon": 0.0, "fusion_lat": 0.0, "lat": 38.93704816666666, "type": "electric_scooter", "lon": -77.0239905, "bike_id": "4bc2aeeda60c1601bd52addb1314f916", "rental_uris": {"android": "https://dc.lft.to/lastmile_qr_scan", "ios": "https://dc.lft.to/lastmile_qr_scan"}, "name": "4bc2aeeda60c1601bd52addb1314f916", "is_reserved": 0},