{"data": {"bikes": [{"name": "8d9fcd8c139fd9fa14b4e08d97f899f9", "fusion_lat": 0.0, "type": "electric_scooter", "lat": 38.903691333333335, "is_reserved": 0, "is_disabled": 0, "fusion_lon": 0.0, "bike_id": "8d9fcd8c139fd9fa14b4e08d97f899f9", "lon": -77.05051266666666, "rental_uris": {"ios": "https://dc.lft.to/lastmile_qr_scan", "android": "https://dc.lft.to/lastmile_qr_scan"}}, {"name": "b1f51bb64dc9b76ac19338f09fc4af8a", "fusion_lat": 0.0, "type": "electric_scooter", "lat": 38.907505666666665, "is_reserved": 0, "is_disabled": 0, "fusion_lon": 0.0, "bike_id": "b1f51bb64dc9b76ac19338f09fc4af8a", "lon": -76.98332883333333, "rental_uris": {"ios": "https://dc.lft.to/lastmile_qr_scan", "android": "https://dc.lft.to/lastmile_qr_scan"}}, {"name": "d985cafad1422dac595211994eacb59d", "fusion_lat": 0.0, "type": "electric_scooter", "lat": 38.9037505, "is_reserved": 0, "is_disabled": 0, "fusion_lon": 0.0, "bike_id": "d985cafad1422dac595211994eacb59d", "lon": -77.04332916666667, "rental_uris": {"ios": "https://dc.lft.to/lastmile_qr_scan", "android": "https://dc.lft.to/lastmile_qr_scan"}}, {"name": "9a2e33d490358cdf86bd0cf6503af96c", "fusion_lat": 0.0, "type": "electric_scooter", "lat": 38.92341166666667, "is_reserved": 0, "is_disabled": 0, "fusion_lon": 0.0, "bike_id": "9a2e33d490358cdf86bd0cf6503af96c", "lon": -77.03218266666667, "rental_uris": {"ios": "https://dc.lft.to/lastmile_qr_scan", "android": "https://dc.lft.to/lastmile_qr_scan"}}, {"name": "ff7558d147bf72629a7b34deb1c8466b", "fusion_lat": 0.0, "type": "electric_scooter", "lat": 38.8905095, "is_reserved": 0, "is_disabled": 0, "fusion_lon": 0.0, "bike_id": "ff7558d147bf72629a7b34deb1c8466b", "lon": -76.93747483333334, "rental_uris": {"ios": "https://dc.lft.to/lastmile_qr_scan", "android": "https://dc.lft.to/lastmile_qr_scan"}}, {"name": "0f781c1392a1ce6d02f24712dc02fb84", "fusion_lat": 0.0, "type": "electric_bike", "lat": 38.91043466666667, "is_reserved": 0, "is_disabled": 0, "fusion_lon": 0.0, "bike_id": "0f781c1392a1ce6d02f24712dc02fb84", "lon": -77.07547766666667, "rental_uris": {"ios": "https://dc.lft.to/lastmile_qr_scan", "android": "https://dc.lft.to/lastmile_qr_scan"}}, {"name": "6dd63bc57349a96f98f4ba43403b57f5", "fusion_lat": 0.0, "type": "electric_scooter", "lat": 38.89832233333333, "is_reserved": 0, "is_disabled": 0, "fusion_lon": 0.0, "bike_id": "6dd63bc57349a96f98f4ba43403b57f5", "lon": -77.02946383333334, "rental_uris": {"ios": "https://dc.lft.to/lastmile_qr_scan", "android": "https://dc.lft.to/lastmile_qr_scan"}}, {"name": "cfcbbab5a044e449bf457522cc6c66bf", "fusion_lat": 0.0, "type": "electric_bike", "lat": 38.896050333333335, "is_reserved": 0, "is_disabled": 0, "fusion_lon": 0.0, "bike_id": "cfcbbab5a044e449bf457522cc6c66bf", "lon": -76.98840066666666, "rental_uris": {"ios": "https://dc.lft.to/lastmile_qr_scan", "android": "https://dc.lft.to/lastmile_qr_scan"}}, {"name": "ffdd0eee463c125bf4450aad3675d4fe", "fusion_lat": 0.0, "type": "electric_scooter", "lat": 38.923846, "is_reserved": 0, "is_disabled": 0, "fusion_lon": 0.0, "bike_id": "ffdd0eee463c125bf4450aad3675d4fe", "lon": -77.02978016666667, "rental_uris": {"ios": "https://dc.lft.to/lastmile_qr_scan", "android": "https://dc.lft.to/lastmile_qr_scan"}}, {"name": "20101c043387092c8b479091b44e25f9", "fusion_lat": 0.0, "type": "electric_scooter", "lat": 38.86248066666667, "is_reserved": 0, "is_disabled": 0, "fusion_lon": 0.0, "bike_id": "20101c043387092c8b479091b44e25f9", "lon": -76.99533583333333, "rental_uris": {"ios": "https://dc.lft.to/lastmile_qr_scan", "android": "https://dc.lft.to/lastmile_qr_scan"}}, {"name": "6b2f93166d0c257e9088af4c1a0c45db", "fusion_lat": 0.0, "type": "electric_bike", "lat": 38.896339, "is_reserved": 0, "is_disabled": 0, "fusion_lon": 0.0, "bike_id": "6b2f93166d0c257e9088af4c1a0c45db", "lon": -77.104544, "rental_uris": {"ios": "https://dc.lft.to/lastmile_qr_scan", "android": "https://dc.lft.to/lastmile_qr_scan"}}, {"name": "0198b7ef08ca80bc7e31e13d76410cac", "fusion_lat": 0.0, "type": "electric_scooter", "lat": 38.868152, "is_reserved": 0, "is_disabled": 0, "fusion_lon": 0.0, "bike_id": "0198b7ef08ca80bc7e31e13d76410cac", "lon": -76.986145, "rental_uris": {"ios": "https://dc.lft.to/lastmile_qr_scan", "android": "https://dc.lft.to/lastmile_qr_scan"}}, {"name": "a9aa792ce7785525faec07ae50b53be8", "fusion_lat": 0.0, "type": "electric_scooter", "lat": 38.9300215, "is_reserved": 0, "is_disabled": 0, "fusion_lon": 0.0, "bike_id": "a9aa792ce7785525faec07ae50b53be8", "lon": -77.02307716666667, "rental_uris": {"ios": "https://dc.lft.to/lastmile_qr_scan", "android": "https://dc.lft.to/lastmile_qr_scan"}}, {"name": "14f81fd54752c048ccd5bbc5ed21b384", "fusion_lat": 0.0, "type": "electric_scooter", "lat": 38.90039783333334, "is_reserved": 0, "is_disabled": 0, "fusion_lon": 0.0, "bike_id": "14f81fd54752c048ccd5bbc5ed21b384", "lon": -77.0020035, "rental_uris": {"ios": "https://dc.lft.to/lastmile_qr_scan", "android": "https://dc.lft.to/lastmile_qr_scan"}}, {"name": "1e063c1cc52acb678b9cd7aa9714b422", "fusion_lat": 0.0, "type": "electric_scooter", "lat": 38.88514166666667, "is_reserved": 0, "is_disabled": 0, "fusion_lon": 0.0, "bike_id": "1e063c1cc52acb678b9cd7aa9714b422", "lon": -77.00341316666666, "rental_uris": {"ios": "https://dc.lft.to/lastmile_qr_scan", "android": "https://dc.lft.to/lastmile_qr_scan"}}, {"name": "56fb18038023ab1f44f4cbabb420379c", "fusion_lat": 0.0, "type": "electric_scooter", "lat": 38.937172, "is_reserved": 0, "is_disabled": 0, "fusion_lon": 0.0, "bike_id": "56fb18038023ab1f44f4cbabb420379c", "lon": -77.02462566666667, "rental_uris": {"ios": "https://dc.lft.to/lastmile_qr_scan", "android": "https://dc.lft.to/lastmile_qr_scan"}}, {"name": "237938c4ea2727b2ae6f6e897820d70b", "fusion_lat": 0.0, "type": "electric_bike", "lat": 38.902860833333335, "is_reserved": 0, "is_disabled": 0, "fusion_lon": 0.0, "bike_id": "237938c4ea2727b2ae6f6e897820d70b", "lon": -76.980867, "rental_uris": {"ios": "https://dc.lft.to/lastmile_qr_scan", "android": "https://dc.lft.to/lastmile_qr_scan"}}, {"name": "da007d2085896f3e4b9e18ea341a972c", "fusion_lat": 0.0, "type": "electric_bike", "lat": 38.882393, "is_reserved": 0, "is_disabled": 0, "fusion_lon": 0.0, "bike_id": "da007d2085896f3e4b9e18ea341a972c", "lon": -77.17984966666667, "rental_uris": {"ios": "https://dc.lft.to/lastmile_qr_scan", "android": "https://dc.lft.to/lastmile_qr_scan"}}, {"name": "1f7aab2d2da8deacd8bcadccbbcde2c8", "fusion_lat": 0.0, "type": "electric_scooter", "lat": 38.917990833333334, "is_reserved": 0, "is_disabled": 0, "fusion_lon": 0.0, "bike_id": "1f7aab2d2da8deacd8bcadccbbcde2c8", "lon": -77.0281555, "rental_uris": {"ios": "https://dc.lft.to/lastmile_qr_scan", "android": "https://dc.lft.to/lastmile_qr_scan"}}, {"name": "2cca371724fe7e00378cc4ee4227164a", "fusion_lat": 0.0, "type": "electric_bike", "lat": 38.8385995, "is_reserved": 0, "is_disabled": 0, "fusion_lon": 0.0, "bike_id": "2cca371724fe7e00378cc4ee4227164a", "lon": -77.08864366666667, "rental_uris": {"ios": "https://dc.lft.to/lastmile_qr_scan", "android": "https://dc.lft.to/lastmile_qr_scan"}}, {"name": "b3a96358b59c5cbda3d83261f4c73025", "fusion_lat": 0.0, "type": "electric_scooter", "lat": 38.9181825, "is_reserved": 0, "is_disabled": 0, "fusion_lon": 0.0, "bike_id": "b3a96358b59c5cbda3d83261f4c73025", "lon": -77.0401585, "rental_uris": {"ios": "https://dc.lft.to/lastmile_qr_scan", "android": "https://dc.lft.to/lastmile_qr_scan"}}, {"name": "fc4f2363c6896e5c571da00595770abd", "fusion_lat": 0.0, "type": "electric_scooter", "lat": 38.90136966666667, "is_reserved": 0, "is_disabled": 0, "fusion_lon": 0.0, "bike_id": "fc4f2363c6896e5c571da00595770abd", "lon": -76.999668, "rental_uris": {"ios": "https://dc.lft.to/lastmile_qr_scan", "android": "https://dc.lft.to/lastmile_qr_scan"}}, {"name": "35e620dbf9317b887391d84eb0410cde", "fusion_lat": 0.0, "type": "electric_scooter", "lat": 38.93423333333333, "is_reserved": 0, "is_disabled": 0, "fusion_lon": 0.0, "bike_id": "35e620dbf9317b887391d84eb0410cde", "lon": -77.04000316666666, "rental_uris": {"ios": "https://dc.lft.to/lastmile_qr_scan", "android": "https://dc.lft.to/lastmile_qr_scan"}}, {"name": "13b6ef7ff9ceb019d048b73914b41d1b", "fusion_lat": 0.0, "type": "electric_scooter", "lat": 38.899143333333335, "is_reserved": 0, "is_disabled": 0, "fusion_lon": 0.0, "bike_id": "13b6ef7ff9ceb019d048b73914b41d1b", "lon": -76.9338065, "rental_uris": {"ios": "https://dc.lft.to/lastmile_qr_scan", "android": "https://dc.lft.to/lastmile_qr_scan"}}, {"name": "34cf550ae8dfb1a968f5d077575460b0", "fusion_lat": 0.0, "type": "electric_bike", "lat": 38.973205, "is_reserved": 0, "is_disabled": 0, "fusion_lon": 0.0, "bike_id": "34cf550ae8dfb1a968f5d077575460b0", "lon": -77.02149833333333, "rental_uris": {"ios": "https://dc.lft.to/lastmile_qr_scan", "android": "https://dc.lft.to/lastmile_qr_scan"}}, {"name": "b65afb9f13b8034e1b3c17684456aacb", "fusion_lat": 0.0, "type": "electric_scooter", "lat": 38.90324316666667, "is_reserved": 0, "is_disabled": 0, "fusion_lon": 0.0, "bike_id": "b65afb9f13b8034e1b3c17684456aacb", "lon": -77.03861416666666, "rental_uris": {"ios": "https://dc.lft.to/lastmile_qr_scan", "android": "https://dc.lft.to/lastmile_qr_scan"}}, {"name": "fa0e3bca53c0612d46696a7ed4aa2b95", "fusion_lat": 0.0, "type": "electric_scooter", "lat": 38.93090466666666, "is_reserved": 0, "is_disabled": 0, "fusion_lon": 0.0, "bike_id": "fa0e3bca53c0612d46696a7ed4aa2b95", "lon": -77.02398883333333, "rental_uris": {"ios": "https://dc.lft.to/lastmile_qr_scan", "android": "https://dc.lft.to/lastmile_qr_scan"}}, {"name": "42cb5efbf52784e542ffccce04f3f991", "fusion_lat": 0.0, "type": "electric_bike", "lat": 38.96543116666667, "is_reserved": 0, "is_disabled": 0, "fusion_lon": 0.0, "bike_id": "42cb5efbf52784e542ffccce04f3f991", "lon": -77.03510016666667, "rental_uris": {"ios": "https://dc.lft.to/lastmile_qr_scan", "android": "https://dc.lft.to/lastmile_qr_scan"}}, {"name": "cd003deaec258700f222eacfb14c1d88", "fusion_lat": 0.0, "type": "electric_scooter", "lat": 38.891877, "is_reserved": 0, "is_disabled": 0, "fusion_lon": 0.0, "bike_id": "cd003deaec258700f222eacfb14c1d88", "lon": -77.00340166666666, "rental_uris": {"ios": "https://dc.lft.to/lastmile_qr_scan", "android": "https://dc.lft.to/lastmile_qr_scan"}}, {"name": "e2af8469a1c8628555ea27ec8523d37f", "fusion_lat": 0.0, "type": "electric_scooter", "lat": 38.931743833333336, "is_reserved": 0, "is_disabled": 0, "fusion_lon": 0.0, "bike_id": "e2af8469a1c8628555ea27ec8523d37f", "lon": -77.05617016666666, "rental_uris": {"ios": "https://dc.lft.to/lastmile_qr_scan", "android": "https://dc.lft.to/lastmile_qr_scan"}}, {"name": "498ab93d216050d0fe26d98582244c44", "fusion_lat": 0.0, "type": "electric_scooter", "lat": 38.92437783333333, "is_reserved": 0, "is_disabled": 0, "fusion_lon": 0.0, "bike_id": "498ab93d216050d0fe26d98582244c44", "lon": -77.041461, "rental_uris": {"ios": "https://dc.lft.to/lastmile_qr_scan", "android": "https://dc.lft.to/lastmile_qr_scan"}}, {"name": "dfa180473dbb325708bc90aa447fc0d7", "fusion_lat": 0.0, "type": "electric_scooter", "lat": 38.92058216666667, "is_reserved": 0, "is_disabled": 0, "fusion_lon": 0.0, "bike_id": "dfa180473dbb325708bc90aa447fc0d7", "lon": -77.04694483333333, "rental_uris": {"ios": "https://dc.lft.to/lastmile_qr_scan", "android": "https://dc.lft.to/lastmile_qr_scan"}}, {"name": "14caf3e67024522f9d51a25f82608cf1", "fusion_lat": 0.0, "type": "electric_scooter", "lat": 38.92094683333333, "is_reserved": 0, "is_disabled": 0, "fusion_lon": 0.0, "bike_id": "14caf3e67024522f9d51a25f82608cf1", "lon": -77.031601, "rental_uris": {"ios": "https://dc.lft.to/lastmile_qr_scan", "android": "https://dc.lft.to/lastmile_qr_scan"}}, {"name": "106c588c541a7e325da4a101a2fc7d80", "fusion_lat": 0.0, "type": "electric_bike", "lat": 38.92844733333333, "is_reserved": 0, "is_disabled": 0, "fusion_lon": 0.0, "bike_id": "106c588c541a7e325da4a101a2fc7d80", "lon": -77.10505633333334, "rental_uris": {"ios": "https://dc.lft.to/lastmile_qr_scan", "android": "https://dc.lft.to/lastmile_qr_scan"}}, {"name": "86e1a3471859edf4b10e2f91e2d50958", "fusion_lat": 0.0, "type": "electric_scooter", "lat": 38.89088683333333, "is_reserved": 0, "is_disabled": 0, "fusion_lon": 0.0, "bike_id": "86e1a3471859edf4b10e2f91e2d50958", "lon": -76.997876, "rental_uris": {"ios": "https://dc.lft.to/lastmile_qr_scan", "android": "https://dc.lft.to/lastmile_qr_scan"}}, {"name": "69ac2440c7fff7568564485f540c2cb2", "fusion_lat": 0.0, "type": "electric_scooter", "lat": 38.8972745, "is_reserved": 0, "is_disabled": 0, "fusion_lon": 0.0, "bike_id": "69ac2440c7fff7568564485f540c2cb2", "lon": -77.04723533333333, "rental_uris": {"ios": "https://dc.lft.to/lastmile_qr_scan", "android": "https://dc.lft.to/lastmile_qr_scan"}}, {"name": "c7d96c8125b8bb55e717d45d5b8038eb", "fusion_lat": 0.0, "type": "electric_scooter", "lat": 38.9198225, "is_reserved": 0, "is_disabled": 0, "fusion_lon": 0.0, "bike_id": "c7d96c8125b8bb55e717d45d5b8038eb", "lon": -77.03314566666667, "rental_uris": {"ios": "https://dc.lft.to/lastmile_qr_scan", "android": "https://dc.lft.to/lastmile_qr_scan"}}, {"name": "6fd3c692c373fc498759d5a06fc03372", "fusion_lat": 0.0, "type": "electric_scooter", "lat": 38.9275415, "is_reserved": 0, "is_disabled": 0, "fusion_lon": 0.0, "bike_id": "6fd3c692c373fc498759d5a06fc03372", "lon": -77.02431233333333, "rental_uris": {"ios": "https://dc.lft.to/lastmile_qr_scan", "android": "https://dc.lft.to/lastmile_qr_scan"}}, {"name": "b1f9d9a75ffcbf59408a2ed725aedf91", "fusion_lat": 0.0, "type": "electric_bike", "lat": 38.9751175, "is_reserved": 0, "is_disabled": 0, "fusion_lon": 0.0, "bike_id": "b1f9d9a75ffcbf59408a2ed725aedf91", "lon": -77.01686033333333, "rental_uris": {"ios": "https://dc.lft.to/lastmile_qr_scan", "android": "https://dc.lft.to/lastmile_qr_scan"}}, {"name": "7cf63ad96e4616a988dc28589b2e6964", "fusion_lat": 0.0, "type": "electric_scooter", "lat": 38.90541616666667, "is_reserved": 0, "is_disabled": 0, "fusion_lon": 0.0, "bike_id": "7cf63ad96e4616a988dc28589b2e6964", "lon": -77.0473785, "rental_uris": {"ios": "https://dc.lft.to/lastmile_qr_scan", "android": "https://dc.lft.to/lastmile_qr_scan"}}, {"name": "29df2906dcdbba13c7f159e1c2b4dddd", "fusion_lat": 0.0, "type": "electric_scooter", "lat": 38.90261616666667, "is_reserved": 0, "is_disabled": 0, "fusion_lon": 0.0, "bike_id": "29df2906dcdbba13c7f159e1c2b4dddd", "lon": -77.05383316666666, "rental_uris": {"ios": "https://dc.lft.to/lastmile_qr_scan", "android": "https://dc.lft.to/lastmile_qr_scan"}}, {"name": "a28efe7d9fc278183cbc83244b87495e", "fusion_lat": 0.0, "type": "electric_scooter", "lat": 38.8958775, "is_reserved": 0, "is_disabled": 0, "fusion_lon": 0.0, "bike_id": "a28efe7d9fc278183cbc83244b87495e", "lon": -77.042653, "rental_uris": {"ios": "https://dc.lft.to/lastmile_qr_scan", "android": "https://dc.lft.to/lastmile_qr_scan"}}, {"name": "280d68b2e392a03cec49f59b6f6bfd8d", "fusion_lat": 0.0, "type": "electric_scooter", "lat": 38.832307666666665, "is_reserved": 0, "is_disabled": 0, "fusion_lon": 0.0, "bike_id": "280d68b2e392a03cec49f59b6f6bfd8d", "lon": -76.98888216666667, "rental_uris": {"ios": "https://dc.lft.to/lastmile_qr_scan", "android": "https://dc.lft.to/lastmile_qr_scan"}}, {"name": "ce0f669a264a7d0ed41b4a98bc966fb1", "fusion_lat": 0.0, "type": "electric_scooter", "lat": 38.90278583333333, "is_reserved": 0, "is_disabled": 0, "fusion_lon": 0.0, "bike_id": "ce0f669a264a7d0ed41b4a98bc966fb1", "lon": -77.04441816666667, "rental_uris": {"ios": "https://dc.lft.to/lastmile_qr_scan", "android": "https://dc.lft.to/lastmile_qr_scan"}}, {"name": "6474662e8604a3b6d6b9111a7c15940a", "fusion_lat": 0.0, "type": "electric_bike", "lat": 38.84344866666667, "is_reserved": 0, "is_disabled": 0, "fusion_lon": 0.0, "bike_id": "6474662e8604a3b6d6b9111a7c15940a", "lon": -77.064024, "rental_uris": {"ios": "https://dc.lft.to/lastmile_qr_scan", "android": "https://dc.lft.to/lastmile_qr_scan"}}, {"name": "95c9dfc2d17bf5c4a83aa42dd9e7d587", "fusion_lat": 0.0, "type": "electric_scooter", "lat": 38.89227733333333, "is_reserved": 0, "is_disabled": 0, "fusion_lon": 0.0, "bike_id": "95c9dfc2d17bf5c4a83aa42dd9e7d587", "lon": -77.03184466666667, "rental_uris": {"ios": "https://dc.lft.to/lastmile_qr_scan", "android": "https://dc.lft.to/lastmile_qr_scan"}}, {"name": "3a5f0b65cac2e0b9cfc5ede291a43da1", "fusion_lat": 0.0, "type": "electric_scooter", "lat": 38.903754166666666, "is_reserved": 0, "is_disabled": 0, "fusion_lon": 0.0, "bike_id": "3a5f0b65cac2e0b9cfc5ede291a43da1", "lon": -77.03965933333333, "rental_uris": {"ios": "https://dc.lft.to/lastmile_qr_scan", "android": "https://dc.lft.to/lastmile_qr_scan"}}, {"name": "dd2fba818655d5d7387d95a89ca0d54b", "fusion_lat": 0.0, "type": "electric_scooter", "lat": 38.91815666666667, "is_reserved": 0, "is_disabled": 0, "fusion_lon": 0.0, "bike_id": "dd2fba818655d5d7387d95a89ca0d54b", "lon": -77.02794883333334, "rental_uris": {"ios": "https://dc.lft.to/lastmile_qr_scan", "android": "https://dc.lft.to/lastmile_qr_scan"}}, {"name": "3e3b3677254a3cbc2821d8be21c0a270", "fusion_lat": 0.0, "type": "electric_bike", "lat": 39.09457883333334, "is_reserved": 0, "is_disabled": 0, "fusion_lon": 0.0, "bike_id": "3e3b3677254a3cbc2821d8be21c0a270", "lon": -77.14997883333334, "rental_uris": {"ios": "https://dc.lft.to/lastmile_qr_scan", "android": "https://dc.lft.to/lastmile_qr_scan"}}, {"name": "9b665776584bf5fcb7c70d8066c7ba26", "fusion_lat": 0.0, "type": "electric_scooter", "lat": 38.92722083333334, "is_reserved": 0, "is_disabled": 0, "fusion_lon": 0.0, "bike_id": "9b665776584bf5fcb7c70d8066c7ba26", "lon": -77.00559183333333, "rental_uris": {"ios": "https://dc.lft.to/lastmile_qr_scan", "android": "https://dc.lft.to/lastmile_qr_scan"}}, {"name": "5130415558bd6d6127abc7e5ac87cd67", "fusion_lat": 0.0, "type": "electric_bike", "lat": 38.87084566666667, "is_reserved": 0, "is_disabled": 0, "fusion_lon": 0.0, "bike_id": "5130415558bd6d6127abc7e5ac87cd67", "lon": -77.012023, "rental_uris": {"ios": "https://dc.lft.to/lastmile_qr_scan", "android": "https://dc.lft.to/lastmile_qr_scan"}}, {"name": "fe4c89ad6d985902f71936787bba81ce", "fusion_lat": 0.0, "type": "electric_scooter", "lat": 38.920935666666665, "is_reserved": 0, "is_disabled": 0, "fusion_lon": 0.0, "bike_id": "fe4c89ad6d985902f71936787bba81ce", "lon": -77.03181133333334, "rental_uris": {"ios": "https://dc.lft.to/lastmile_qr_scan", "android": "https://dc.lft.to/lastmile_qr_scan"}}, {"name": "71fe8cc96d77d2700c51604e205fd19f", "fusion_lat": 0.0, "type": "electric_scooter", "lat": 38.899076666666666, "is_reserved": 0, "is_disabled": 0, "fusion_lon": 0.0, "bike_id": "71fe8cc96d77d2700c51604e205fd19f", "lon": -76.9337195, "rental_uris": {"ios": "https://dc.lft.to/lastmile_qr_scan", "android": "https://dc.lft.to/lastmile_qr_scan"}}, {"name": "898c3eae7b3752f0761bd79f6801a1e3", "fusion_lat": 0.0, "type": "electric_scooter", "lat": 38.879203833333335, "is_reserved": 0, "is_disabled": 0, "fusion_lon": 0.0, "bike_id": "898c3eae7b3752f0761bd79f6801a1e3", "lon": -77.0210105, "rental_uris": {"ios": "https://dc.lft.to/lastmile_qr_scan", "android": "https://dc.lft.to/lastmile_qr_scan"}}, {"name": "f60e2cb334a53f86ff1a7ef0651ebae4", "fusion_lat": 0.0, "type": "electric_scooter", "lat": 38.87627883333333, "is_reserved": 0, "is_disabled": 0, "fusion_lon": 0.0, "bike_id": "f60e2cb334a53f86ff1a7ef0651ebae4", "lon": -77.00742233333334, "rental_uris": {"ios": "https://dc.lft.to/lastmile_qr_scan", "android": "https://dc.lft.to/lastmile_qr_scan"}}, {"name": "29f82122edd65b70dc83914c1452578e", "fusion_lat": 0.0, "type": "electric_scooter", "lat": 38.902550166666664, "is_reserved": 0, "is_disabled": 0, "fusion_lon": 0.0, "bike_id": "29f82122edd65b70dc83914c1452578e", "lon": -77.0306675, "rental_uris": {"ios": "https://dc.lft.to/lastmile_qr_scan", "android": "https://dc.lft.to/lastmile_qr_scan"}}, {"name": "af1bb16f6b6adc94a6d60dede4a174ca", "fusion_lat": 0.0, "type": "electric_bike", "lat": 38.875273666666665, "is_reserved": 0, "is_disabled": 0, "fusion_lon": 0.0, "bike_id": "af1bb16f6b6adc94a6d60dede4a174ca", "lon": -77.19909266666667, "rental_uris": {"ios": "https://dc.lft.to/lastmile_qr_scan", "android": "https://dc.lft.to/lastmile_qr_scan"}}, {"name": "ce5618078bd011d87e8fb142ef45268c", "fusion_lat": 0.0, "type": "electric_scooter", "lat": 38.88440766666667, "is_reserved": 0, "is_disabled": 0, "fusion_lon": 0.0, "bike_id": "ce5618078bd011d87e8fb142ef45268c", "lon": -76.99627216666667, "rental_uris": {"ios": "https://dc.lft.to/lastmile_qr_scan", "android": "https://dc.lft.to/lastmile_qr_scan"}}, {"name": "b4e69b7e7d7695c258033226044e6eda", "fusion_lat": 0.0, "type": "electric_bike", "lat": 38.8946855, "is_reserved": 0, "is_disabled": 0, "fusion_lon": 0.0, "bike_id": "b4e69b7e7d7695c258033226044e6eda", "lon": -77.04659133333334, "rental_uris": {"ios": "https://dc.lft.to/lastmile_qr_scan", "android": "https://dc.lft.to/lastmile_qr_scan"}}, {"name": "f4135b34feb5cc1a6240cb3c75628ffe", "fusion_lat": 0.0, "type": "electric_bike", "lat": 38.875473166666666, "is_reserved": 0, "is_disabled": 0, "fusion_lon": 0.0, "bike_id": "f4135b34feb5cc1a6240cb3c75628ffe", "lon": -76.967559, "rental_uris": {"ios": "https://dc.lft.to/lastmile_qr_scan", "android": "https://dc.lft.to/lastmile_qr_scan"}}, {"name": "4992e9f5168767325c084f1c1ec8ee5f", "fusion_lat": 0.0, "type": "electric_scooter", "lat": 38.90734416666667, "is_reserved": 0, "is_disabled": 0, "fusion_lon": 0.0, "bike_id": "4992e9f5168767325c084f1c1ec8ee5f", "lon": -77.04666416666667, "rental_uris": {"ios": "https://dc.lft.to/lastmile_qr_scan", "android": "https://dc.lft.to/lastmile_qr_scan"}}, {"name": "825e0342f29bc90e79aaa60adaae8955", "fusion_lat": 0.0, "type": "electric_scooter", "lat": 38.90147316666667, "is_reserved": 0, "is_disabled": 0, "fusion_lon": 0.0, "bike_id": "825e0342f29bc90e79aaa60adaae8955", "lon": -77.0435645, "rental_uris": {"ios": "https://dc.lft.to/lastmile_qr_scan", "android": "https://dc.lft.to/lastmile_qr_scan"}}, {"name": "4d2dc3b98d03f9b1a0ad819d147b6a70", "fusion_lat": 0.0, "type": "electric_scooter", "lat": 38.93250283333333, "is_reserved": 0, "is_disabled": 0, "fusion_lon": 0.0, "bike_id": "4d2dc3b98d03f9b1a0ad819d147b6a70", "lon": -77.0400745, "rental_uris": {"ios": "https://dc.lft.to/lastmile_qr_scan", "android": "https://dc.lft.to/lastmile_qr_scan"}}, {"name": "0ed743e26016720e9489c4b7210e9cff", "fusion_lat": 0.0, "type": "electric_scooter", "lat": 38.900317, "is_reserved": 0, "is_disabled": 0, "fusion_lon": 0.0, "bike_id": "0ed743e26016720e9489c4b7210e9cff", "lon": -77.006306, "rental_uris": {"ios": "https://dc.lft.to/lastmile_qr_scan", "android": "https://dc.lft.to/lastmile_qr_scan"}}, {"name": "f5651041e2f5342150b924e256afa97b", "fusion_lat": 0.0, "type": "electric_bike", "lat": 38.94970216666667, "is_reserved": 0, "is_disabled": 0, "fusion_lon": 0.0, "bike_id": "f5651041e2f5342150b924e256afa97b", "lon": -76.972794, "rental_uris": {"ios": "https://dc.lft.to/lastmile_qr_scan", "android": "https://dc.lft.to/lastmile_qr_scan"}}, {"name": "317356160b2bed3e47ce09e5454624d0", "fusion_lat": 0.0, "type": "electric_scooter", "lat": 38.929728, "is_reserved": 0, "is_disabled": 0, "fusion_lon": 0.0, "bike_id": "317356160b2bed3e47ce09e5454624d0", "lon": -77.01963333333333, "rental_uris": {"ios": "https://dc.lft.to/lastmile_qr_scan", "android": "https://dc.lft.to/lastmile_qr_scan"}}, {"name": "6cb06ecac6f764cdb54a4d56133e05f0", "fusion_lat": 0.0, "type": "electric_scooter", "lat": 38.9181565, "is_reserved": 0, "is_disabled": 0, "fusion_lon": 0.0, "bike_id": "6cb06ecac6f764cdb54a4d56133e05f0", "lon": -77.03182133333334, "rental_uris": {"ios": "https://dc.lft.to/lastmile_qr_scan", "android": "https://dc.lft.to/lastmile_qr_scan"}}, {"name": "101a7b5f585f708362cdf39f1c58cdd6", "fusion_lat": 0.0, "type": "electric_scooter", "lat": 38.913472166666665, "is_reserved": 0, "is_disabled": 0, "fusion_lon": 0.0, "bike_id": "101a7b5f585f708362cdf39f1c58cdd6", "lon": -77.00344083333333, "rental_uris": {"ios": "https://dc.lft.to/lastmile_qr_scan", "android": "https://dc.lft.to/lastmile_qr_scan"}}, {"name": "1e819326e0c567d11687f9385ef93330", "fusion_lat": 0.0, "type": "electric_scooter", "lat": 38.927513, "is_reserved": 0, "is_disabled": 0, "fusion_lon": 0.0, "bike_id": "1e819326e0c567d11687f9385ef93330", "lon": -77.02311533333334, "rental_uris": {"ios": "https://dc.lft.to/lastmile_qr_scan", "android": "https://dc.lft.to/lastmile_qr_scan"}}, {"name": "2310c0baffc97adf09c33f4749c042c3", "fusion_lat": 0.0, "type": "electric_scooter", "lat": 38.916310833333334, "is_reserved": 0, "is_disabled": 0, "fusion_lon": 0.0, "bike_id": "2310c0baffc97adf09c33f4749c042c3", "lon": -77.00096066666667, "rental_uris": {"ios": "https://dc.lft.to/lastmile_qr_scan", "android": "https://dc.lft.to/lastmile_qr_scan"}}, {"name": "24964c59971fd9fc383ea1644d5bfca2", "fusion_lat": 0.0, "type": "electric_scooter", "lat": 38.93056933333333, "is_reserved": 0, "is_disabled": 0, "fusion_lon": 0.0, "bike_id": "24964c59971fd9fc383ea1644d5bfca2", "lon": -77.02976316666667, "rental_uris": {"ios": "https://dc.lft.to/lastmile_qr_scan", "android": "https://dc.lft.to/lastmile_qr_scan"}}, {"name": "6561badff1ae57c9295f3841eec6d5b0", "fusion_lat": 0.0, "type": "electric_bike", "lat": 38.94916683333334, "is_reserved": 0, "is_disabled": 0, "fusion_lon": 0.0, "bike_id": "6561badff1ae57c9295f3841eec6d5b0", "lon": -77.00803016666667, "rental_uris": {"ios": "https://dc.lft.to/lastmile_qr_scan", "android": "https://dc.lft.to/lastmile_qr_scan"}}, {"name": "1cd572fbca759bc807b920c082c632b3", "fusion_lat": 0.0, "type": "electric_bike", "lat": 39.000163, "is_reserved": 0, "is_disabled": 0, "fusion_lon": 0.0, "bike_id": "1cd572fbca759bc807b920c082c632b3", "lon": -77.017387, "rental_uris": {"ios": "https://dc.lft.to/lastmile_qr_scan", "android": "https://dc.lft.to/lastmile_qr_scan"}}, {"name": "e381e8c09a9f50963aaa9c282bae9026", "fusion_lat": 0.0, "type": "electric_scooter", "lat": 38.905790333333336, "is_reserved": 0, "is_disabled": 0, "fusion_lon": 0.0, "bike_id": "e381e8c09a9f50963aaa9c282bae9026", "lon": -77.00595316666667, "rental_uris": {"ios": "https://dc.lft.to/lastmile_qr_scan", "android": "https://dc.lft.to/lastmile_qr_scan"}}, {"name": "501c0b5b645e7721c6d444362308e95d", "fusion_lat": 0.0, "type": "electric_scooter", "lat": 38.939587, "is_reserved": 0, "is_disabled": 0, "fusion_lon": 0.0, "bike_id": "501c0b5b645e7721c6d444362308e95d", "lon": -77.02747783333334, "rental_uris": {"ios": "https://dc.lft.to/lastmile_qr_scan", "android": "https://dc.lft.to/lastmile_qr_scan"}}, {"name": "605411fd8f65b02cb70b1524a38707fd", "fusion_lat": 0.0, "type": "electric_scooter", "lat": 38.918308, "is_reserved": 0, "is_disabled": 0, "fusion_lon": 0.0, "bike_id": "605411fd8f65b02cb70b1524a38707fd", "lon": -77.02293383333334, "rental_uris": {"ios": "https://dc.lft.to/lastmile_qr_scan", "android": "https://dc.lft.to/lastmile_qr_scan"}}, {"name": "79ef520184c8aeaed96567a64cabb778", "fusion_lat": 0.0, "type": "electric_scooter", "lat": 38.885155833333336, "is_reserved": 0, "is_disabled": 0, "fusion_lon": 0.0, "bike_id": "79ef520184c8aeaed96567a64cabb778", "lon": -77.022013, "rental_uris": {"ios": "https://dc.lft.to/lastmile_qr_scan", "android": "https://dc.lft.to/lastmile_qr_scan"}}, {"name": "9bec036386358dd3ffc384081b9d332c", "fusion_lat": 0.0, "type": "electric_bike", "lat": 38.856860833333336, "is_reserved": 0, "is_disabled": 0, "fusion_lon": 0.0, "bike_id": "9bec036386358dd3ffc384081b9d332c", "lon": -77.0854055, "rental_uris": {"ios": "https://dc.lft.to/lastmile_qr_scan", "android": "https://dc.lft.to/lastmile_qr_scan"}}, {"name": "fe00a0c67dbcdb7bbd6f0ed2ea35fb41", "fusion_lat": 0.0, "type": "electric_scooter", "lat": 38.8922805, "is_reserved": 0, "is_disabled": 0, "fusion_lon": 0.0, "bike_id": "fe00a0c67dbcdb7bbd6f0ed2ea35fb41", "lon": -77.01504383333334, "rental_uris": {"ios": "https://dc.lft.to/lastmile_qr_scan", "android": "https://dc.lft.to/lastmile_qr_scan"}}, {"name": "c230023746a5a0303b70260ac4c3d2af", "fusion_lat": 0.0, "type": "electric_scooter", "lat": 38.92422783333333, "is_reserved": 0, "is_disabled": 0, "fusion_lon": 0.0, "bike_id": "c230023746a5a0303b70260ac4c3d2af", "lon": -77.04483016666667, "rental_uris": {"ios": "https://dc.lft.to/lastmile_qr_scan", "android": "https://dc.lft.to/lastmile_qr_scan"}}, {"name": "f31f8477b11d1b7d990ee211b3e096a3", "fusion_lat": 0.0, "type": "electric_scooter", "lat": 38.8849075, "is_reserved": 0, "is_disabled": 0, "fusion_lon": 0.0, "bike_id": "f31f8477b11d1b7d990ee211b3e096a3", "lon": -77.0071125, "rental_uris": {"ios": "https://dc.lft.to/lastmile_qr_scan", "android": "https://dc.lft.to/lastmile_qr_scan"}}, {"name": "0d18c94f2d21bf1cedcca76bd20166c7", "fusion_lat": 0.0, "type": "electric_scooter", "lat": 38.8976915, "is_reserved": 0, "is_disabled": 0, "fusion_lon": 0.0, "bike_id": "0d18c94f2d21bf1cedcca76bd20166c7", "lon": -77.05157766666666, "rental_uris": {"ios": "https://dc.lft.to/lastmile_qr_scan", "android": "https://dc.lft.to/lastmile_qr_scan"}}, {"name": "d24e6328eeb7c3a087c805bf88bec75c", "fusion_lat": 0.0, "type": "electric_scooter", "lat": 38.90959733333333, "is_reserved": 0, "is_disabled": 0, "fusion_lon": 0.0, "bike_id": "d24e6328eeb7c3a087c805bf88bec75c", "lon": -77.03375816666667, "rental_uris": {"ios": "https://dc.lft.to/lastmile_qr_scan", "android": "https://dc.lft.to/lastmile_qr_scan"}}, {"name": "e58d3830af5c400863f8b0c534d2c5d2", "fusion_lat": 0.0, "type": "electric_scooter", "lat": 38.92929016666667, "is_reserved": 0, "is_disabled": 0, "fusion_lon": 0.0, "bike_id": "e58d3830af5c400863f8b0c534d2c5d2", "lon": -77.03657133333333, "rental_uris": {"ios": "https://dc.lft.to/lastmile_qr_scan", "android": "https://dc.lft.to/lastmile_qr_scan"}}, {"name": "f65947a17901e00a67968585ed386239", "fusion_lat": 0.0, "type": "electric_scooter", "lat": 38.921613666666666, "is_reserved": 0, "is_disabled": 0, "fusion_lon": 0.0, "bike_id": "f65947a17901e00a67968585ed386239", "lon": -76.9939945, "rental_uris": {"ios": "https://dc.lft.to/lastmile_qr_scan", "android": "https://dc.lft.to/lastmile_qr_scan"}}, {"name": "287e115cfcac781e4228cda29835111a", "fusion_lat": 0.0, "type": "electric_scooter", "lat": 38.905188333333335, "is_reserved": 0, "is_disabled": 0, "fusion_lon": 0.0, "bike_id": "287e115cfcac781e4228cda29835111a", "lon": -77.06446983333333, "rental_uris": {"ios": "https://dc.lft.to/lastmile_qr_scan", "android": "https://dc.lft.to/lastmile_qr_scan"}}, {"name": "831da54ab86e067b06b565325d441149", "fusion_lat": 0.0, "type": "electric_scooter", "lat": 38.9010795, "is_reserved": 0, "is_disabled": 0, "fusion_lon": 0.0, "bike_id": "831da54ab86e067b06b565325d441149", "lon": -77.03185266666667, "rental_uris": {"ios": "https://dc.lft.to/lastmile_qr_scan", "android": "https://dc.lft.to/lastmile_qr_scan"}}, {"name": "d5bdeff10fe18f7e025fb8baacd17fd5", "fusion_lat": 0.0, "type": "electric_scooter", "lat": 38.9091165, "is_reserved": 0, "is_disabled": 0, "fusion_lon": 0.0, "bike_id": "d5bdeff10fe18f7e025fb8baacd17fd5", "lon": -77.06429233333333, "rental_uris": {"ios": "https://dc.lft.to/lastmile_qr_scan", "android": "https://dc.lft.to/lastmile_qr_scan"}}, {"name": "be68a80c6ae3c8b60102b556528a619e", "fusion_lat": 0.0, "type": "electric_scooter", "lat": 38.91720383333333, "is_reserved": 0, "is_disabled": 0, "fusion_lon": 0.0, "bike_id": "be68a80c6ae3c8b60102b556528a619e", "lon": -77.040872, "rental_uris": {"ios": "https://dc.lft.to/lastmile_qr_scan", "android": "https://dc.lft.to/lastmile_qr_scan"}}, {"name": "0f4f5cf92b522c6de1d429b434a7424f", "fusion_lat": 0.0, "type": "electric_scooter", "lat": 38.9170305, "is_reserved": 0, "is_disabled": 0, "fusion_lon": 0.0, "bike_id": "0f4f5cf92b522c6de1d429b434a7424f", "lon": -77.02885733333333, "rental_uris": {"ios": "https://dc.lft.to/lastmile_qr_scan", "android": "https://dc.lft.to/lastmile_qr_scan"}}, {"name": "ec4c9c562d60d9fb16977c4f716b5471", "fusion_lat": 0.0, "type": "electric_scooter", "lat": 38.89253583333333, "is_reserved": 0, "is_disabled": 0, "fusion_lon": 0.0, "bike_id": "ec4c9c562d60d9fb16977c4f716b5471", "lon": -77.02589083333334, "rental_uris": {"ios": "https://dc.lft.to/lastmile_qr_scan", "android": "https://dc.lft.to/lastmile_qr_scan"}}, {"name": "a91b2c5ccfe42f6cc22c899b937dde37", "fusion_lat": 0.0, "type": "electric_scooter", "lat": 38.90466116666666, "is_reserved": 0, "is_disabled": 0, "fusion_lon": 0.0, "bike_id": "a91b2c5ccfe42f6cc22c899b937dde37", "lon": -77.03545583333333, "rental_uris": {"ios": "https://dc.lft.to/lastmile_qr_scan", "android": "https://dc.lft.to/lastmile_qr_scan"}}, {"name": "d67bdb401aaf43fc6a2291384e122cb4", "fusion_lat": 0.0, "type": "electric_scooter", "lat": 38.88222, "is_reserved": 0, "is_disabled": 0, "fusion_lon": 0.0, "bike_id": "d67bdb401aaf43fc6a2291384e122cb4", "lon": -76.9960975, "rental_uris": {"ios": "https://dc.lft.to/lastmile_qr_scan", "android": "https://dc.lft.to/lastmile_qr_scan"}}, {"name": "6ac5f4aeb20e211b8772914fb6293b35", "fusion_lat": 0.0, "type": "electric_scooter", "lat": 38.8841275, "is_reserved": 0, "is_disabled": 0, "fusion_lon": 0.0, "bike_id": "6ac5f4aeb20e211b8772914fb6293b35", "lon": -77.01778166666666, "rental_uris": {"ios": "https://dc.lft.to/lastmile_qr_scan", "android": "https://dc.lft.to/lastmile_qr_scan"}}, {"name": "f3fc15f199b08232591b4d10524c2b99", "fusion_lat": 0.0, "type": "electric_scooter", "lat": 38.91115283333333, "is_reserved": 0, "is_disabled": 0, "fusion_lon": 0.0, "bike_id": "f3fc15f199b08232591b4d10524c2b99", "lon": -77.0435465, "rental_uris": {"ios": "https://dc.lft.to/lastmile_qr_scan", "android": "https://dc.lft.to/lastmile_qr_scan"}}, {"name": "d9e5b4449a13d2111aff149c8e124f37", "fusion_lat": 0.0, "type": "electric_scooter", "lat": 38.900267, "is_reserved": 0, "is_disabled": 0, "fusion_lon": 0.0, "bike_id": "d9e5b4449a13d2111aff149c8e124f37", "lon": -77.01189433333333, "rental_uris": {"ios": "https://dc.lft.to/lastmile_qr_scan", "android": "https://dc.lft.to/lastmile_qr_scan"}}, {"name": "632e70bc3f5d3bf50c740c27c107e6c9", "fusion_lat": 0.0, "type": "electric_scooter", "lat": 38.91897216666667, "is_reserved": 0, "is_disabled": 0, "fusion_lon": 0.0, "bike_id": "632e70bc3f5d3bf50c740c27c107e6c9", "lon": -77.02396883333333, "rental_uris": {"ios": "https://dc.lft.to/lastmile_qr_scan", "android": "https://dc.lft.to/lastmile_qr_scan"}}, {"name": "b8e3ee8087a7e901de931b831e2abd95", "fusion_lat": 0.0, "type": "electric_scooter", "lat": 38.897293833333336, "is_reserved": 0, "is_disabled": 0, "fusion_lon": 0.0, "bike_id": "b8e3ee8087a7e901de931b831e2abd95", "lon": -77.02324033333333, "rental_uris": {"ios": "https://dc.lft.to/lastmile_qr_scan", "android": "https://dc.lft.to/lastmile_qr_scan"}}, {"name": "94d65f42ac9ee8727044e7a0566f5d7b", "fusion_lat": 0.0, "type": "electric_bike", "lat": 38.8716785, "is_reserved": 0, "is_disabled": 0, "fusion_lon": 0.0, "bike_id": "94d65f42ac9ee8727044e7a0566f5d7b", "lon": -77.0057085, "rental_uris": {"ios": "https://dc.lft.to/lastmile_qr_scan", "android": "https://dc.lft.to/lastmile_qr_scan"}}, {"name": "b6279aa2747aa8b81de75afee1954f46", "fusion_lat": 0.0, "type": "electric_scooter", "lat": 38.911137, "is_reserved": 0, "is_disabled": 0, "fusion_lon": 0.0, "bike_id": "b6279aa2747aa8b81de75afee1954f46", "lon": -77.006039, "rental_uris": {"ios": "https://dc.lft.to/lastmile_qr_scan", "android": "https://dc.lft.to/lastmile_qr_scan"}}, {"name": "369ea93c9a78348170c624ce62cf603b", "fusion_lat": 0.0, "type": "electric_scooter", "lat": 38.91715933333333, "is_reserved": 0, "is_disabled": 0, "fusion_lon": 0.0, "bike_id": "369ea93c9a78348170c624ce62cf603b", "lon": -77.008169, "rental_uris": {"ios": "https://dc.lft.to/lastmile_qr_scan", "android": "https://dc.lft.to/lastmile_qr_scan"}}, {"name": "5dcdd915bc31b03dd319c55fc2a6dbed", "fusion_lat": 0.0, "type": "electric_scooter", "lat": 38.9119465, "is_reserved": 0, "is_disabled": 0, "fusion_lon": 0.0, "bike_id": "5dcdd915bc31b03dd319c55fc2a6dbed", "lon": -77.034442, "rental_uris": {"ios": "https://dc.lft.to/lastmile_qr_scan", "android": "https://dc.lft.to/lastmile_qr_scan"}}, {"name": "c9d89644bfdc941097813f6592610ba4", "fusion_lat": 0.0, "type": "electric_scooter", "lat": 38.92064966666667, "is_reserved": 0, "is_disabled": 0, "fusion_lon": 0.0, "bike_id": "c9d89644bfdc941097813f6592610ba4", "lon": -76.9780355, "rental_uris": {"ios": "https://dc.lft.to/lastmile_qr_scan", "android": "https://dc.lft.to/lastmile_qr_scan"}}, {"name": "024b26019bcf9ca9841d969ff78d9c87", "fusion_lat": 0.0, "type": "electric_scooter", "lat": 38.9027095, "is_reserved": 0, "is_disabled": 0, "fusion_lon": 0.0, "bike_id": "024b26019bcf9ca9841d969ff78d9c87", "lon": -77.0300545, "rental_uris": {"ios": "https://dc.lft.to/lastmile_qr_scan", "android": "https://dc.lft.to/lastmile_qr_scan"}}, {"name": "2638367f7b7f10703ca2885c7eca6e67", "fusion_lat": 0.0, "type": "electric_scooter", "lat": 38.86537666666667, "is_reserved": 0, "is_disabled": 0, "fusion_lon": 0.0, "bike_id": "2638367f7b7f10703ca2885c7eca6e67", "lon": -76.98708166666667, "rental_uris": {"ios": "https://dc.lft.to/lastmile_qr_scan", "android": "https://dc.lft.to/lastmile_qr_scan"}}, {"name": "bde61e52330654e4f12f80cbcd9b6615", "fusion_lat": 0.0, "type": "electric_scooter", "lat": 38.915401833333334, "is_reserved": 0, "is_disabled": 0, "fusion_lon": 0.0, "bike_id": "bde61e52330654e4f12f80cbcd9b6615", "lon": -77.038599, "rental_uris": {"ios": "https://dc.lft.to/lastmile_qr_scan", "android": "https://dc.lft.to/lastmile_qr_scan"}}, {"name": "a8f3ebe18f08577791fb44631f666980", "fusion_lat": 0.0, "type": "electric_scooter", "lat": 38.92612916666667, "is_reserved": 0, "is_disabled": 0, "fusion_lon": 0.0, "bike_id": "a8f3ebe18f08577791fb44631f666980", "lon": -77.03672783333333, "rental_uris": {"ios": "https://dc.lft.to/lastmile_qr_scan", "android": "https://dc.lft.to/lastmile_qr_scan"}}, {"name": "68ba64d1a3a58c4257603a73e8d26452", "fusion_lat": 0.0, "type": "electric_scooter", "lat": 38.90264366666667, "is_reserved": 0, "is_disabled": 0, "fusion_lon": 0.0, "bike_id": "68ba64d1a3a58c4257603a73e8d26452", "lon": -77.04582666666667, "rental_uris": {"ios": "https://dc.lft.to/lastmile_qr_scan", "android": "https://dc.lft.to/lastmile_qr_scan"}}, {"name": "f07bec7b748f73f4c75bd3e361fae878", "fusion_lat": 0.0, "type": "electric_scooter", "lat": 38.902440166666665, "is_reserved": 0, "is_disabled": 0, "fusion_lon": 0.0, "bike_id": "f07bec7b748f73f4c75bd3e361fae878", "lon": -77.043461, "rental_uris": {"ios": "https://dc.lft.to/lastmile_qr_scan", "android": "https://dc.lft.to/lastmile_qr_scan"}}, {"name": "fae519018987f4931b15e4071992dc53", "fusion_lat": 0.0, "type": "electric_scooter", "lat": 38.91565216666667, "is_reserved": 0, "is_disabled": 0, "fusion_lon": 0.0, "bike_id": "fae519018987f4931b15e4071992dc53", "lon": -77.0119775, "rental_uris": {"ios": "https://dc.lft.to/lastmile_qr_scan", "android": "https://dc.lft.to/lastmile_qr_scan"}}, {"name": "dd387a94e3d4bc0a4de6bfddd8a98ba7", "fusion_lat": 0.0, "type": "electric_scooter", "lat": 38.89479516666667, "is_reserved": 0, "is_disabled": 0, "fusion_lon": 0.0, "bike_id": "dd387a94e3d4bc0a4de6bfddd8a98ba7", "lon": -76.948724, "rental_uris": {"ios": "https://dc.lft.to/lastmile_qr_scan", "android": "https://dc.lft.to/lastmile_qr_scan"}}, {"name": "2dfb21731084f1dd9cebe04fda00b1c8", "fusion_lat": 0.0, "type": "electric_scooter", "lat": 38.901463666666665, "is_reserved": 0, "is_disabled": 0, "fusion_lon": 0.0, "bike_id": "2dfb21731084f1dd9cebe04fda00b1c8", "lon": -77.0396975, "rental_uris": {"ios": "https://dc.lft.to/lastmile_qr_scan", "android": "https://dc.lft.to/lastmile_qr_scan"}}, {"name": "4adfb6a1118455e688dd9455bff0ee2c", "fusion_lat": 0.0, "type": "electric_scooter", "lat": 38.899058, "is_reserved": 0, "is_disabled": 0, "fusion_lon": 0.0, "bike_id": "4adfb6a1118455e688dd9455bff0ee2c", "lon": -77.07095416666667, "rental_uris": {"ios": "https://dc.lft.to/lastmile_qr_scan", "android": "https://dc.lft.to/lastmile_qr_scan"}}, {"name": "696fffc817ea55847e6ef8784acc2595", "fusion_lat": 0.0, "type": "electric_scooter", "lat": 38.9118915, "is_reserved": 0, "is_disabled": 0, "fusion_lon": 0.0, "bike_id": "696fffc817ea55847e6ef8784acc2595", "lon": -77.06096266666667, "rental_uris": {"ios": "https://dc.lft.to/lastmile_qr_scan", "android": "https://dc.lft.to/lastmile_qr_scan"}}, {"name": "74f94635344403146d9b312b6be3e387", "fusion_lat": 0.0, "type": "electric_scooter", "lat": 38.896604333333336, "is_reserved": 0, "is_disabled": 0, "fusion_lon": 0.0, "bike_id": "74f94635344403146d9b312b6be3e387", "lon": -77.0260455, "rental_uris": {"ios": "https://dc.lft.to/lastmile_qr_scan", "android": "https://dc.lft.to/lastmile_qr_scan"}}, {"name": "4869b5c24674a3b60050c70b7ca2e28e", "fusion_lat": 0.0, "type": "electric_scooter", "lat": 38.91214316666667, "is_reserved": 0, "is_disabled": 0, "fusion_lon": 0.0, "bike_id": "4869b5c24674a3b60050c70b7ca2e28e", "lon": -77.07592833333334, "rental_uris": {"ios": "https://dc.lft.to/lastmile_qr_scan", "android": "https://dc.lft.to/lastmile_qr_scan"}}, {"name": "d8eaac255e98256c7a48012305acfce1", "fusion_lat": 0.0, "type": "electric_scooter", "lat": 38.89004466666667, "is_reserved": 0, "is_disabled": 0, "fusion_lon": 0.0, "bike_id": "d8eaac255e98256c7a48012305acfce1", "lon": -76.9541985, "rental_uris": {"ios": "https://dc.lft.to/lastmile_qr_scan", "android": "https://dc.lft.to/lastmile_qr_scan"}}, {"name": "0c5ef01795899f7a90ded05eebd928fe", "fusion_lat": 0.0, "type": "electric_scooter", "lat": 38.89045483333334, "is_reserved": 0, "is_disabled": 0, "fusion_lon": 0.0, "bike_id": "0c5ef01795899f7a90ded05eebd928fe", "lon": -76.93755866666666, "rental_uris": {"ios": "https://dc.lft.to/lastmile_qr_scan", "android": "https://dc.lft.to/lastmile_qr_scan"}}, {"name": "caa768210b829166f08642d54ba3fb02", "fusion_lat": 0.0, "type": "electric_scooter", "lat": 38.9251945, "is_reserved": 0, "is_disabled": 0, "fusion_lon": 0.0, "bike_id": "caa768210b829166f08642d54ba3fb02", "lon": -77.055367, "rental_uris": {"ios": "https://dc.lft.to/lastmile_qr_scan", "android": "https://dc.lft.to/lastmile_qr_scan"}}, {"name": "cb6ea2a821a8533128842c7acac78808", "fusion_lat": 0.0, "type": "electric_scooter", "lat": 38.9053295, "is_reserved": 0, "is_disabled": 0, "fusion_lon": 0.0, "bike_id": "cb6ea2a821a8533128842c7acac78808", "lon": -77.04175716666667, "rental_uris": {"ios": "https://dc.lft.to/lastmile_qr_scan", "android": "https://dc.lft.to/lastmile_qr_scan"}}, {"name": "4376ab38db6e59a6d77f9664b1dd4425", "fusion_lat": 0.0, "type": "electric_scooter", "lat": 38.887441, "is_reserved": 0, "is_disabled": 0, "fusion_lon": 0.0, "bike_id": "4376ab38db6e59a6d77f9664b1dd4425", "lon": -77.02132, "rental_uris": {"ios": "https://dc.lft.to/lastmile_qr_scan", "android": "https://dc.lft.to/lastmile_qr_scan"}}, {"name": "b0dc5fb6d9224d5e2bab81c0b114f8d8", "fusion_lat": 0.0, "type": "electric_scooter", "lat": 38.8987755, "is_reserved": 0, "is_disabled": 0, "fusion_lon": 0.0, "bike_id": "b0dc5fb6d9224d5e2bab81c0b114f8d8", "lon": -76.931583, "rental_uris": {"ios": "https://dc.lft.to/lastmile_qr_scan", "android": "https://dc.lft.to/lastmile_qr_scan"}}, {"name": "5c2de07a4dbce02059a4394dfb5643f7", "fusion_lat": 0.0, "type": "electric_scooter", "lat": 38.88426783333333, "is_reserved": 0, "is_disabled": 0, "fusion_lon": 0.0, "bike_id": "5c2de07a4dbce02059a4394dfb5643f7", "lon": -76.95754533333333, "rental_uris": {"ios": "https://dc.lft.to/lastmile_qr_scan", "android": "https://dc.lft.to/lastmile_qr_scan"}}, {"name": "e556ca1f8159f5d92389018245734586", "fusion_lat": 0.0, "type": "electric_scooter", "lat": 38.89723133333333, "is_reserved": 0, "is_disabled": 0, "fusion_lon": 0.0, "bike_id": "e556ca1f8159f5d92389018245734586", "lon": -77.0468175, "rental_uris": {"ios": "https://dc.lft.to/lastmile_qr_scan", "android": "https://dc.lft.to/lastmile_qr_scan"}}, {"name": "26a599e3bd1b5ee830797b220370c9ae", "fusion_lat": 0.0, "type": "electric_scooter", "lat": 38.85709116666666, "is_reserved": 0, "is_disabled": 0, "fusion_lon": 0.0, "bike_id": "26a599e3bd1b5ee830797b220370c9ae", "lon": -76.98127783333334, "rental_uris": {"ios": "https://dc.lft.to/lastmile_qr_scan", "android": "https://dc.lft.to/lastmile_qr_scan"}}, {"name": "3fa747fcfd83fa892f8addfff8e019b8", "fusion_lat": 0.0, "type": "electric_scooter", "lat": 38.9033895, "is_reserved": 0, "is_disabled": 0, "fusion_lon": 0.0, "bike_id": "3fa747fcfd83fa892f8addfff8e019b8", "lon": -77.06557016666666, "rental_uris": {"ios": "https://dc.lft.to/lastmile_qr_scan", "android": "https://dc.lft.to/lastmile_qr_scan"}}, {"name": "18c18fa26b0d70e4e1ba4d2df622df99", "fusion_lat": 0.0, "type": "electric_scooter", "lat": 38.91108083333334, "is_reserved": 0, "is_disabled": 0, "fusion_lon": 0.0, "bike_id": "18c18fa26b0d70e4e1ba4d2df622df99", "lon": -76.99722683333333, "rental_uris": {"ios": "https://dc.lft.to/lastmile_qr_scan", "android": "https://dc.lft.to/lastmile_qr_scan"}}, {"name": "80b1b0a8eab9b40ad4c53b974cf3594b", "fusion_lat": 0.0, "type": "electric_scooter", "lat": 38.90552733333333, "is_reserved": 0, "is_disabled": 0, "fusion_lon": 0.0, "bike_id": "80b1b0a8eab9b40ad4c53b974cf3594b", "lon": -77.03397633333333, "rental_uris": {"ios": "https://dc.lft.to/lastmile_qr_scan", "android": "https://dc.lft.to/lastmile_qr_scan"}}, {"name": "c294ff0424789bdc40293a115acab8a0", "fusion_lat": 0.0, "type": "electric_scooter", "lat": 38.90273033333333, "is_reserved": 0, "is_disabled": 0, "fusion_lon": 0.0, "bike_id": "c294ff0424789bdc40293a115acab8a0", "lon": -77.03445916666666, "rental_uris": {"ios": "https://dc.lft.to/lastmile_qr_scan", "android": "https://dc.lft.to/lastmile_qr_scan"}}, {"name": "9a6428cfada9e37b62bb142194fe6e0e", "fusion_lat": 0.0, "type": "electric_scooter", "lat": 38.9397025, "is_reserved": 0, "is_disabled": 0, "fusion_lon": 0.0, "bike_id": "9a6428cfada9e37b62bb142194fe6e0e", "lon": -77.0355435, "rental_uris": {"ios": "https://dc.lft.to/lastmile_qr_scan", "android": "https://dc.lft.to/lastmile_qr_scan"}}, {"name": "25195a787006972f0d5d315d8feb9adc", "fusion_lat": 0.0, "type": "electric_scooter", "lat": 38.93245983333333, "is_reserved": 0, "is_disabled": 0, "fusion_lon": 0.0, "bike_id": "25195a787006972f0d5d315d8feb9adc", "lon": -77.0384285, "rental_uris": {"ios": "https://dc.lft.to/lastmile_qr_scan", "android": "https://dc.lft.to/lastmile_qr_scan"}}, {"name": "6158f0bc9e3722cf875620d296568c8d", "fusion_lat": 0.0, "type": "electric_scooter", "lat": 38.922102833333334, "is_reserved": 0, "is_disabled": 0, "fusion_lon": 0.0, "bike_id": "6158f0bc9e3722cf875620d296568c8d", "lon": -77.04315716666666, "rental_uris": {"ios": "https://dc.lft.to/lastmile_qr_scan", "android": "https://dc.lft.to/lastmile_qr_scan"}}, {"name": "5959270c9ceaa769bfc1561e334be2b0", "fusion_lat": 0.0, "type": "electric_scooter", "lat": 38.860715166666665, "is_reserved": 0, "is_disabled": 0, "fusion_lon": 0.0, "bike_id": "5959270c9ceaa769bfc1561e334be2b0", "lon": -76.96743883333333, "rental_uris": {"ios": "https://dc.lft.to/lastmile_qr_scan", "android": "https://dc.lft.to/lastmile_qr_scan"}}, {"name": "6b605ae15e9d846416ee498c1e4e9da5", "fusion_lat": 0.0, "type": "electric_scooter", "lat": 38.914659, "is_reserved": 0, "is_disabled": 0, "fusion_lon": 0.0, "bike_id": "6b605ae15e9d846416ee498c1e4e9da5", "lon": -76.98108816666667, "rental_uris": {"ios": "https://dc.lft.to/lastmile_qr_scan", "android": "https://dc.lft.to/lastmile_qr_scan"}}, {"name": "bccffd03ac529bcfec4f353c653bd495", "fusion_lat": 0.0, "type": "electric_bike", "lat": 38.8809995, "is_reserved": 0, "is_disabled": 0, "fusion_lon": 0.0, "bike_id": "bccffd03ac529bcfec4f353c653bd495", "lon": -77.11452183333333, "rental_uris": {"ios": "https://dc.lft.to/lastmile_qr_scan", "android": "https://dc.lft.to/lastmile_qr_scan"}}, {"name": "aef02ed2ea3ffad69c0f2711f4514eed", "fusion_lat": 0.0, "type": "electric_bike", "lat": 38.940718833333335, "is_reserved": 0, "is_disabled": 0, "fusion_lon": 0.0, "bike_id": "aef02ed2ea3ffad69c0f2711f4514eed", "lon": -77.03821783333333, "rental_uris": {"ios": "https://dc.lft.to/lastmile_qr_scan", "android": "https://dc.lft.to/lastmile_qr_scan"}}, {"name": "9870bd2bca043485cae1a4e4674209da", "fusion_lat": 0.0, "type": "electric_scooter", "lat": 38.88596016666666, "is_reserved": 0, "is_disabled": 0, "fusion_lon": 0.0, "bike_id": "9870bd2bca043485cae1a4e4674209da", "lon": -77.02203833333333, "rental_uris": {"ios": "https://dc.lft.to/lastmile_qr_scan", "android": "https://dc.lft.to/lastmile_qr_scan"}}, {"name": "39c5f43272ff1a8ad442e3a55cf3b178", "fusion_lat": 0.0, "type": "electric_scooter", "lat": 38.90116066666667, "is_reserved": 0, "is_disabled": 0, "fusion_lon": 0.0, "bike_id": "39c5f43272ff1a8ad442e3a55cf3b178", "lon": -77.0500125, "rental_uris": {"ios": "https://dc.lft.to/lastmile_qr_scan", "android": "https://dc.lft.to/lastmile_qr_scan"}}, {"name": "f84f0c17f4a50d1218ea0c34c4cd847f", "fusion_lat": 0.0, "type": "electric_scooter", "lat": 38.894775833333334, "is_reserved": 0, "is_disabled": 0, "fusion_lon": 0.0, "bike_id": "f84f0c17f4a50d1218ea0c34c4cd847f", "lon": -77.02776066666667, "rental_uris": {"ios": "https://dc.lft.to/lastmile_qr_scan", "android": "https://dc.lft.to/lastmile_qr_scan"}}, {"name": "b750bd1cc55005a4a626f2acbd0ad79c", "fusion_lat": 0.0, "type": "electric_scooter", "lat": 38.9066275, "is_reserved": 0, "is_disabled": 0, "fusion_lon": 0.0, "bike_id": "b750bd1cc55005a4a626f2acbd0ad79c", "lon": -77.02715983333333, "rental_uris": {"ios": "https://dc.lft.to/lastmile_qr_scan", "android": "https://dc.lft.to/lastmile_qr_scan"}}, {"name": "6f1d0ea452f9567c5fc5aa7a826d8089", "fusion_lat": 0.0, "type": "electric_scooter", "lat": 38.923615, "is_reserved": 0, "is_disabled": 0, "fusion_lon": 0.0, "bike_id": "6f1d0ea452f9567c5fc5aa7a826d8089", "lon": -77.051284, "rental_uris": {"ios": "https://dc.lft.to/lastmile_qr_scan", "android": "https://dc.lft.to/lastmile_qr_scan"}}, {"name": "e3ef1a818bcdcaee69ab4e62fc67bbe6", "fusion_lat": 0.0, "type": "electric_scooter", "lat": 38.901209333333334, "is_reserved": 0, "is_disabled": 0, "fusion_lon": 0.0, "bike_id": "e3ef1a818bcdcaee69ab4e62fc67bbe6", "lon": -77.04347466666667, "rental_uris": {"ios": "https://dc.lft.to/lastmile_qr_scan", "android": "https://dc.lft.to/lastmile_qr_scan"}}, {"name": "64e3daa2104461ec80685c95670c50d5", "fusion_lat": 0.0, "type": "electric_scooter", "lat": 38.920304333333334, "is_reserved": 0, "is_disabled": 0, "fusion_lon": 0.0, "bike_id": "64e3daa2104461ec80685c95670c50d5", "lon": -76.97798616666667, "rental_uris": {"ios": "https://dc.lft.to/lastmile_qr_scan", "android": "https://dc.lft.to/lastmile_qr_scan"}}, {"name": "0d4db5f78e238db2a2e97f3f4cef030a", "fusion_lat": 0.0, "type": "electric_scooter", "lat": 38.93187066666667, "is_reserved": 0, "is_disabled": 0, "fusion_lon": 0.0, "bike_id": "0d4db5f78e238db2a2e97f3f4cef030a", "lon": -77.027764, "rental_uris": {"ios": "https://dc.lft.to/lastmile_qr_scan", "android": "https://dc.lft.to/lastmile_qr_scan"}}, {"name": "6eb1a8c41f4e0ea1a45b2fbebc281022", "fusion_lat": 0.0, "type": "electric_scooter", "lat": 38.90350316666667, "is_reserved": 0, "is_disabled": 0, "fusion_lon": 0.0, "bike_id": "6eb1a8c41f4e0ea1a45b2fbebc281022", "lon": -77.011059, "rental_uris": {"ios": "https://dc.lft.to/lastmile_qr_scan", "android": "https://dc.lft.to/lastmile_qr_scan"}}, {"name": "ef744e4aac2fc4e0ceb54a656fd67bc2", "fusion_lat": 0.0, "type": "electric_scooter", "lat": 38.916999, "is_reserved": 0, "is_disabled": 0, "fusion_lon": 0.0, "bike_id": "ef744e4aac2fc4e0ceb54a656fd67bc2", "lon": -77.0314555, "rental_uris": {"ios": "https://dc.lft.to/lastmile_qr_scan", "android": "https://dc.lft.to/lastmile_qr_scan"}}, {"name": "d1766d944441ba71111307e661533599", "fusion_lat": 0.0, "type": "electric_scooter", "lat": 38.886514166666664, "is_reserved": 0, "is_disabled": 0, "fusion_lon": 0.0, "bike_id": "d1766d944441ba71111307e661533599", "lon": -77.013707, "rental_uris": {"ios": "https://dc.lft.to/lastmile_qr_scan", "android": "https://dc.lft.to/lastmile_qr_scan"}}, {"name": "a434d6d617d51574da426af0fe5d5c67", "fusion_lat": 0.0, "type": "electric_scooter", "lat": 38.895278166666664, "is_reserved": 0, "is_disabled": 0, "fusion_lon": 0.0, "bike_id": "a434d6d617d51574da426af0fe5d5c67", "lon": -77.04285566666667, "rental_uris": {"ios": "https://dc.lft.to/lastmile_qr_scan", "android": "https://dc.lft.to/lastmile_qr_scan"}}, {"name": "0233e7af4b66664028810ac35cac0377", "fusion_lat": 0.0, "type": "electric_scooter", "lat": 38.8768435, "is_reserved": 0, "is_disabled": 0, "fusion_lon": 0.0, "bike_id": "0233e7af4b66664028810ac35cac0377", "lon": -77.0175815, "rental_uris": {"ios": "https://dc.lft.to/lastmile_qr_scan", "android": "https://dc.lft.to/lastmile_qr_scan"}}, {"name": "34a83c71b85341a8118e87c9cf83bdf4", "fusion_lat": 0.0, "type": "electric_scooter", "lat": 38.91252983333333, "is_reserved": 0, "is_disabled": 0, "fusion_lon": 0.0, "bike_id": "34a83c71b85341a8118e87c9cf83bdf4", "lon": -77.03837266666666, "rental_uris": {"ios": "https://dc.lft.to/lastmile_qr_scan", "android": "https://dc.lft.to/lastmile_qr_scan"}}, {"name": "e0374d2f67abd922eaa9c4cdc12236d6", "fusion_lat": 0.0, "type": "electric_scooter", "lat": 38.91869466666667, "is_reserved": 0, "is_disabled": 0, "fusion_lon": 0.0, "bike_id": "e0374d2f67abd922eaa9c4cdc12236d6", "lon": -77.036724, "rental_uris": {"ios": "https://dc.lft.to/lastmile_qr_scan", "android": "https://dc.lft.to/lastmile_qr_scan"}}, {"name": "19f8f1a438c12ed517fd96ae95b1cb95", "fusion_lat": 0.0, "type": "electric_bike", "lat": 38.906816, "is_reserved": 0, "is_disabled": 0, "fusion_lon": 0.0, "bike_id": "19f8f1a438c12ed517fd96ae95b1cb95", "lon": -76.95185316666667, "rental_uris": {"ios": "https://dc.lft.to/lastmile_qr_scan", "android": "https://dc.lft.to/lastmile_qr_scan"}}, {"name": "d0f463ed6995550111e40152c885cf85", "fusion_lat": 0.0, "type": "electric_scooter", "lat": 38.92350116666667, "is_reserved": 0, "is_disabled": 0, "fusion_lon": 0.0, "bike_id": "d0f463ed6995550111e40152c885cf85", "lon": -77.03538816666666, "rental_uris": {"ios": "https://dc.lft.to/lastmile_qr_scan", "android": "https://dc.lft.to/lastmile_qr_scan"}}, {"name": "5fd7901264ed569db6c20cbc488bc209", "fusion_lat": 0.0, "type": "electric_bike", "lat": 38.935633, "is_reserved": 0, "is_disabled": 0, "fusion_lon": 0.0, "bike_id": "5fd7901264ed569db6c20cbc488bc209", "lon": -77.1044285, "rental_uris": {"ios": "https://dc.lft.to/lastmile_qr_scan", "android": "https://dc.lft.to/lastmile_qr_scan"}}, {"name": "f61ce060af48957ce2a5b0dcc42d3949", "fusion_lat": 0.0, "type": "electric_bike", "lat": 38.8022265, "is_reserved": 0, "is_disabled": 0, "fusion_lon": 0.0, "bike_id": "f61ce060af48957ce2a5b0dcc42d3949", "lon": -77.0791485, "rental_uris": {"ios": "https://dc.lft.to/lastmile_qr_scan", "android": "https://dc.lft.to/lastmile_qr_scan"}}, {"name": "0fc4b6242f31ae5437e72b31667d95cf", "fusion_lat": 0.0, "type": "electric_scooter", "lat": 38.8982825, "is_reserved": 0, "is_disabled": 0, "fusion_lon": 0.0, "bike_id": "0fc4b6242f31ae5437e72b31667d95cf", "lon": -76.94567883333333, "rental_uris": {"ios": "https://dc.lft.to/lastmile_qr_scan", "android": "https://dc.lft.to/lastmile_qr_scan"}}, {"name": "59e621af776011678c18c43874a2cb5d", "fusion_lat": 0.0, "type": "electric_scooter", "lat": 38.90613333333334, "is_reserved": 0, "is_disabled": 0, "fusion_lon": 0.0, "bike_id": "59e621af776011678c18c43874a2cb5d", "lon": -77.024137, "rental_uris": {"ios": "https://dc.lft.to/lastmile_qr_scan", "android": "https://dc.lft.to/lastmile_qr_scan"}}, {"name": "5880a656fa9723d1792acd8b8af9b493", "fusion_lat": 0.0, "type": "electric_scooter", "lat": 38.899476, "is_reserved": 0, "is_disabled": 0, "fusion_lon": 0.0, "bike_id": "5880a656fa9723d1792acd8b8af9b493", "lon": -77.05479766666667, "rental_uris": {"ios": "https://dc.lft.to/lastmile_qr_scan", "android": "https://dc.lft.to/lastmile_qr_scan"}}, {"name": "680befbe1a32e7757d126272167dfa2f", "fusion_lat": 0.0, "type": "electric_scooter", "lat": 38.931857666666666, "is_reserved": 0, "is_disabled": 0, "fusion_lon": 0.0, "bike_id": "680befbe1a32e7757d126272167dfa2f", "lon": -77.03448316666666, "rental_uris": {"ios": "https://dc.lft.to/lastmile_qr_scan", "android": "https://dc.lft.to/lastmile_qr_scan"}}, {"name": "6fe492a4c3e6f76dee6728d9bd72a753", "fusion_lat": 0.0, "type": "electric_scooter", "lat": 38.94065833333333, "is_reserved": 0, "is_disabled": 0, "fusion_lon": 0.0, "bike_id": "6fe492a4c3e6f76dee6728d9bd72a753", "lon": -77.02962283333333, "rental_uris": {"ios": "https://dc.lft.to/lastmile_qr_scan", "android": "https://dc.lft.to/lastmile_qr_scan"}}, {"name": "16b43af17b6bd5102ee44293f6357b0b", "fusion_lat": 0.0, "type": "electric_scooter", "lat": 38.9217615, "is_reserved": 0, "is_disabled": 0, "fusion_lon": 0.0, "bike_id": "16b43af17b6bd5102ee44293f6357b0b", "lon": -77.042836, "rental_uris": {"ios": "https://dc.lft.to/lastmile_qr_scan", "android": "https://dc.lft.to/lastmile_qr_scan"}}, {"name": "3b8edbf319bc9e513381ab6585f9db36", "fusion_lat": 0.0, "type": "electric_scooter", "lat": 38.918092333333334, "is_reserved": 0, "is_disabled": 0, "fusion_lon": 0.0, "bike_id": "3b8edbf319bc9e513381ab6585f9db36", "lon": -77.04619533333333, "rental_uris": {"ios": "https://dc.lft.to/lastmile_qr_scan", "android": "https://dc.lft.to/lastmile_qr_scan"}}, {"name": "9eda0f2a32e18b6039f7c65f6c2fb465", "fusion_lat": 0.0, "type": "electric_scooter", "lat": 38.919282833333334, "is_reserved": 0, "is_disabled": 0, "fusion_lon": 0.0, "bike_id": "9eda0f2a32e18b6039f7c65f6c2fb465", "lon": -77.023738, "rental_uris": {"ios": "https://dc.lft.to/lastmile_qr_scan", "android": "https://dc.lft.to/lastmile_qr_scan"}}, {"name": "ea2bd0611519b10c5d803e13bfe46b4a", "fusion_lat": 0.0, "type": "electric_scooter", "lat": 38.90735883333333, "is_reserved": 0, "is_disabled": 0, "fusion_lon": 0.0, "bike_id": "ea2bd0611519b10c5d803e13bfe46b4a", "lon": -77.02692583333334, "rental_uris": {"ios": "https://dc.lft.to/lastmile_qr_scan", "android": "https://dc.lft.to/lastmile_qr_scan"}}, {"name": "267fe00a3b3f40a4ca05213d94940d0b", "fusion_lat": 0.0, "type": "electric_scooter", "lat": 38.8960445, "is_reserved": 0, "is_disabled": 0, "fusion_lon": 0.0, "bike_id": "267fe00a3b3f40a4ca05213d94940d0b", "lon": -77.02162783333333, "rental_uris": {"ios": "https://dc.lft.to/lastmile_qr_scan", "android": "https://dc.lft.to/lastmile_qr_scan"}}, {"name": "3a72fd44f94be0a4b8bda04cdaecf407", "fusion_lat": 0.0, "type": "electric_scooter", "lat": 38.90582033333333, "is_reserved": 0, "is_disabled": 0, "fusion_lon": 0.0, "bike_id": "3a72fd44f94be0a4b8bda04cdaecf407", "lon": -77.04657066666667, "rental_uris": {"ios": "https://dc.lft.to/lastmile_qr_scan", "android": "https://dc.lft.to/lastmile_qr_scan"}}, {"name": "926d73919ebf4a83dafcd29d047532a1", "fusion_lat": 0.0, "type": "electric_scooter", "lat": 38.91276283333333, "is_reserved": 0, "is_disabled": 0, "fusion_lon": 0.0, "bike_id": "926d73919ebf4a83dafcd29d047532a1", "lon": -77.04502016666666, "rental_uris": {"ios": "https://dc.lft.to/lastmile_qr_scan", "android": "https://dc.lft.to/lastmile_qr_scan"}}, {"name": "9c28d0900f4e90cec31393f52817af21", "fusion_lat": 0.0, "type": "electric_scooter", "lat": 38.915348333333334, "is_reserved": 0, "is_disabled": 0, "fusion_lon": 0.0, "bike_id": "9c28d0900f4e90cec31393f52817af21", "lon": -77.03205466666667, "rental_uris": {"ios": "https://dc.lft.to/lastmile_qr_scan", "android": "https://dc.lft.to/lastmile_qr_scan"}}, {"name": "358568b704f53f2dae8a3e094de800d0", "fusion_lat": 0.0, "type": "electric_scooter", "lat": 38.905530166666665, "is_reserved": 0, "is_disabled": 0, "fusion_lon": 0.0, "bike_id": "358568b704f53f2dae8a3e094de800d0", "lon": -77.04567416666667, "rental_uris": {"ios": "https://dc.lft.to/lastmile_qr_scan", "android": "https://dc.lft.to/lastmile_qr_scan"}}, {"name": "959e0e5a10a664bc095a86c6b88aea91", "fusion_lat": 0.0, "type": "electric_scooter", "lat": 38.9229565, "is_reserved": 0, "is_disabled": 0, "fusion_lon": 0.0, "bike_id": "959e0e5a10a664bc095a86c6b88aea91", "lon": -77.0430385, "rental_uris": {"ios": "https://dc.lft.to/lastmile_qr_scan", "android": "https://dc.lft.to/lastmile_qr_scan"}}, {"name": "4831b491a9dc364321694ef2e431557b", "fusion_lat": 0.0, "type": "electric_scooter", "lat": 38.916794, "is_reserved": 0, "is_disabled": 0, "fusion_lon": 0.0, "bike_id": "4831b491a9dc364321694ef2e431557b", "lon": -77.012232, "rental_uris": {"ios": "https://dc.lft.to/lastmile_qr_scan", "android": "https://dc.lft.to/lastmile_qr_scan"}}, {"name": "0b508c086ec6e622270ab7fc3094b91a", "fusion_lat": 0.0, "type": "electric_scooter", "lat": 38.883402333333336, "is_reserved": 0, "is_disabled": 0, "fusion_lon": 0.0, "bike_id": "0b508c086ec6e622270ab7fc3094b91a", "lon": -76.93644983333333, "rental_uris": {"ios": "https://dc.lft.to/lastmile_qr_scan", "android": "https://dc.lft.to/lastmile_qr_scan"}}, {"name": "e50867fbbaf840b9db6c1788d228acf6", "fusion_lat": 0.0, "type": "electric_scooter", "lat": 38.8958655, "is_reserved": 0, "is_disabled": 0, "fusion_lon": 0.0, "bike_id": "e50867fbbaf840b9db6c1788d228acf6", "lon": -77.04327666666667, "rental_uris": {"ios": "https://dc.lft.to/lastmile_qr_scan", "android": "https://dc.lft.to/lastmile_qr_scan"}}, {"name": "69f5cc1531f9a9474a0b41a2d1492056", "fusion_lat": 0.0, "type": "electric_scooter", "lat": 38.92702666666667, "is_reserved": 0, "is_disabled": 0, "fusion_lon": 0.0, "bike_id": "69f5cc1531f9a9474a0b41a2d1492056", "lon": -77.037287, "rental_uris": {"ios": "https://dc.lft.to/lastmile_qr_scan", "android": "https://dc.lft.to/lastmile_qr_scan"}}, {"name": "9786846779eb4f187a7ba2d46a38c6e8", "fusion_lat": 0.0, "type": "electric_bike", "lat": 38.935745833333335, "is_reserved": 0, "is_disabled": 0, "fusion_lon": 0.0, "bike_id": "9786846779eb4f187a7ba2d46a38c6e8", "lon": -77.106842, "rental_uris": {"ios": "https://dc.lft.to/lastmile_qr_scan", "android": "https://dc.lft.to/lastmile_qr_scan"}}, {"name": "4d36fe881bd84ed2cc36d3ed11735482", "fusion_lat": 0.0, "type": "electric_scooter", "lat": 38.8636885, "is_reserved": 0, "is_disabled": 0, "fusion_lon": 0.0, "bike_id": "4d36fe881bd84ed2cc36d3ed11735482", "lon": -77.01368566666666, "rental_uris": {"ios": "https://dc.lft.to/lastmile_qr_scan", "android": "https://dc.lft.to/lastmile_qr_scan"}}, {"name": "12cb9fc3988f131bbb90babd29dc00f1", "fusion_lat": 0.0, "type": "electric_scooter", "lat": 38.8972695, "is_reserved": 0, "is_disabled": 0, "fusion_lon": 0.0, "bike_id": "12cb9fc3988f131bbb90babd29dc00f1", "lon": -77.04726166666667, "rental_uris": {"ios": "https://dc.lft.to/lastmile_qr_scan", "android": "https://dc.lft.to/lastmile_qr_scan"}}, {"name": "bab13660054b3b481097742a6c10d8eb", "fusion_lat": 0.0, "type": "electric_scooter", "lat": 38.93057916666667, "is_reserved": 0, "is_disabled": 0, "fusion_lon": 0.0, "bike_id": "bab13660054b3b481097742a6c10d8eb", "lon": -77.02321816666667, "rental_uris": {"ios": "https://dc.lft.to/lastmile_qr_scan", "android": "https://dc.lft.to/lastmile_qr_scan"}}, {"name": "6a6770f8a8e6e56edfff74d65e2b8253", "fusion_lat": 0.0, "type": "electric_scooter", "lat": 38.93265316666667, "is_reserved": 0, "is_disabled": 0, "fusion_lon": 0.0, "bike_id": "6a6770f8a8e6e56edfff74d65e2b8253", "lon": -77.03270366666666, "rental_uris": {"ios": "https://dc.lft.to/lastmile_qr_scan", "android": "https://dc.lft.to/lastmile_qr_scan"}}, {"name": "04cdefe4cb9df1a40a3cd9523f23bb80", "fusion_lat": 0.0, "type": "electric_scooter", "lat": 38.90151216666667, "is_reserved": 0, "is_disabled": 0, "fusion_lon": 0.0, "bike_id": "04cdefe4cb9df1a40a3cd9523f23bb80", "lon": -77.02542566666666, "rental_uris": {"ios": "https://dc.lft.to/lastmile_qr_scan", "android": "https://dc.lft.to/lastmile_qr_scan"}}, {"name": "10e2d5fe93a4839e341884c4a095966f", "fusion_lat": 0.0, "type": "electric_scooter", "lat": 38.9026715, "is_reserved": 0, "is_disabled": 0, "fusion_lon": 0.0, "bike_id": "10e2d5fe93a4839e341884c4a095966f", "lon": -77.04255733333333, "rental_uris": {"ios": "https://dc.lft.to/lastmile_qr_scan", "android": "https://dc.lft.to/lastmile_qr_scan"}}, {"name": "1e815b3dc54f1dbe55a24476ecf2f28c", "fusion_lat": 0.0, "type": "electric_scooter", "lat": 38.912509166666666, "is_reserved": 0, "is_disabled": 0, "fusion_lon": 0.0, "bike_id": "1e815b3dc54f1dbe55a24476ecf2f28c", "lon": -77.00765583333333, "rental_uris": {"ios": "https://dc.lft.to/lastmile_qr_scan", "android": "https://dc.lft.to/lastmile_qr_scan"}}, {"name": "bade1cae34285430667dc794b61d9f6c", "fusion_lat": 0.0, "type": "electric_scooter", "lat": 38.923673, "is_reserved": 0, "is_disabled": 0, "fusion_lon": 0.0, "bike_id": "bade1cae34285430667dc794b61d9f6c", "lon": -77.01940016666667, "rental_uris": {"ios": "https://dc.lft.to/lastmile_qr_scan", "android": "https://dc.lft.to/lastmile_qr_scan"}}, {"name": "8f5e5757eea380d2e3b5b1fc4ddffccc", "fusion_lat": 0.0, "type": "electric_scooter", "lat": 38.88050416666667, "is_reserved": 0, "is_disabled": 0, "fusion_lon": 0.0, "bike_id": "8f5e5757eea380d2e3b5b1fc4ddffccc", "lon": -77.01330583333333, "rental_uris": {"ios": "https://dc.lft.to/lastmile_qr_scan", "android": "https://dc.lft.to/lastmile_qr_scan"}}, {"name": "daacc85222a075f083761e39e816af5b", "fusion_lat": 0.0, "type": "electric_scooter", "lat": 38.9106775, "is_reserved": 0, "is_disabled": 0, "fusion_lon": 0.0, "bike_id": "daacc85222a075f083761e39e816af5b", "lon": -77.02715933333333, "rental_uris": {"ios": "https://dc.lft.to/lastmile_qr_scan", "android": "https://dc.lft.to/lastmile_qr_scan"}}, {"name": "9f4a43ea6eb9c76d5e2cfc6b6380a670", "fusion_lat": 0.0, "type": "electric_bike", "lat": 38.94620166666667, "is_reserved": 0, "is_disabled": 0, "fusion_lon": 0.0, "bike_id": "9f4a43ea6eb9c76d5e2cfc6b6380a670", "lon": -76.94627566666666, "rental_uris": {"ios": "https://dc.lft.to/lastmile_qr_scan", "android": "https://dc.lft.to/lastmile_qr_scan"}}, {"name": "4e52e4f7c6aea8e95a8865f65f9df6e2", "fusion_lat": 0.0, "type": "electric_bike", "lat": 38.872991166666665, "is_reserved": 0, "is_disabled": 0, "fusion_lon": 0.0, "bike_id": "4e52e4f7c6aea8e95a8865f65f9df6e2", "lon": -77.01093683333333, "rental_uris": {"ios": "https://dc.lft.to/lastmile_qr_scan", "android": "https://dc.lft.to/lastmile_qr_scan"}}, {"name": "61d9d561582a08782af6824ba9e7e5fb", "fusion_lat": 0.0, "type": "electric_scooter", "lat": 38.89898133333333, "is_reserved": 0, "is_disabled": 0, "fusion_lon": 0.0, "bike_id": "61d9d561582a08782af6824ba9e7e5fb", "lon": -77.03927616666667, "rental_uris": {"ios": "https://dc.lft.to/lastmile_qr_scan", "android": "https://dc.lft.to/lastmile_qr_scan"}}, {"name": "49776bc6572aa7d2e51c665a7764c7e7", "fusion_lat": 0.0, "type": "electric_scooter", "lat": 38.93427533333333, "is_reserved": 0, "is_disabled": 0, "fusion_lon": 0.0, "bike_id": "49776bc6572aa7d2e51c665a7764c7e7", "lon": -77.02215283333334, "rental_uris": {"ios": "https://dc.lft.to/lastmile_qr_scan", "android": "https://dc.lft.to/lastmile_qr_scan"}}, {"name": "6cdafdd8d40badcba966b39a855a2eb2", "fusion_lat": 0.0, "type": "electric_scooter", "lat": 38.91707366666667, "is_reserved": 0, "is_disabled": 0, "fusion_lon": 0.0, "bike_id": "6cdafdd8d40badcba966b39a855a2eb2", "lon": -77.0311945, "rental_uris": {"ios": "https://dc.lft.to/lastmile_qr_scan", "android": "https://dc.lft.to/lastmile_qr_scan"}}, {"name": "393a15ffabb0a94d9086d90b266c112a", "fusion_lat": 0.0, "type": "electric_scooter", "lat": 38.905665, "is_reserved": 0, "is_disabled": 0, "fusion_lon": 0.0, "bike_id": "393a15ffabb0a94d9086d90b266c112a", "lon": -77.006035, "rental_uris": {"ios": "https://dc.lft.to/lastmile_qr_scan", "android": "https://dc.lft.to/lastmile_qr_scan"}}, {"name": "f0fda07d83709639ad4ede7e6f6f034e", "fusion_lat": 0.0, "type": "electric_scooter", "lat": 38.898508, "is_reserved": 0, "is_disabled": 0, "fusion_lon": 0.0, "bike_id": "f0fda07d83709639ad4ede7e6f6f034e", "lon": -77.0160895, "rental_uris": {"ios": "https://dc.lft.to/lastmile_qr_scan", "android": "https://dc.lft.to/lastmile_qr_scan"}}, {"name": "21ba82f43537e6de4ec7882bcfbab7af", "fusion_lat": 0.0, "type": "electric_scooter", "lat": 38.895468, "is_reserved": 0, "is_disabled": 0, "fusion_lon": 0.0, "bike_id": "21ba82f43537e6de4ec7882bcfbab7af", "lon": -77.02922383333333, "rental_uris": {"ios": "https://dc.lft.to/lastmile_qr_scan", "android": "https://dc.lft.to/lastmile_qr_scan"}}, {"name": "6355c1d679f8a4bfedc5996dabd84a68", "fusion_lat": 0.0, "type": "electric_scooter", "lat": 38.915459166666665, "is_reserved": 0, "is_disabled": 0, "fusion_lon": 0.0, "bike_id": "6355c1d679f8a4bfedc5996dabd84a68", "lon": -77.03515666666667, "rental_uris": {"ios": "https://dc.lft.to/lastmile_qr_scan", "android": "https://dc.lft.to/lastmile_qr_scan"}}, {"name": "24a2847243f8f2fe92db6f913074d9a7", "fusion_lat": 0.0, "type": "electric_scooter", "lat": 38.932424166666664, "is_reserved": 0, "is_disabled": 0, "fusion_lon": 0.0, "bike_id": "24a2847243f8f2fe92db6f913074d9a7", "lon": -77.0384935, "rental_uris": {"ios": "https://dc.lft.to/lastmile_qr_scan", "android": "https://dc.lft.to/lastmile_qr_scan"}}, {"name": "7419dded75012537c97ff829fc41b2e6", "fusion_lat": 0.0, "type": "electric_scooter", "lat": 38.90025583333333, "is_reserved": 0, "is_disabled": 0, "fusion_lon": 0.0, "bike_id": "7419dded75012537c97ff829fc41b2e6", "lon": -77.04003783333333, "rental_uris": {"ios": "https://dc.lft.to/lastmile_qr_scan", "android": "https://dc.lft.to/lastmile_qr_scan"}}, {"name": "796c769b4817f7bd83f5550383fd5972", "fusion_lat": 0.0, "type": "electric_scooter", "lat": 38.91869466666667, "is_reserved": 0, "is_disabled": 0, "fusion_lon": 0.0, "bike_id": "796c769b4817f7bd83f5550383fd5972", "lon": -77.044828, "rental_uris": {"ios": "https://dc.lft.to/lastmile_qr_scan", "android": "https://dc.lft.to/lastmile_qr_scan"}}, {"name": "a9141d56ade6665ce2fcb4adc74a28cf", "fusion_lat": 0.0, "type": "electric_scooter", "lat": 38.90676216666667, "is_reserved": 0, "is_disabled": 0, "fusion_lon": 0.0, "bike_id": "a9141d56ade6665ce2fcb4adc74a28cf", "lon": -77.03805383333334, "rental_uris": {"ios": "https://dc.lft.to/lastmile_qr_scan", "android": "https://dc.lft.to/lastmile_qr_scan"}}, {"name": "6780623be7c7541065b42682da1c121d", "fusion_lat": 0.0, "type": "electric_scooter", "lat": 38.9205765, "is_reserved": 0, "is_disabled": 0, "fusion_lon": 0.0, "bike_id": "6780623be7c7541065b42682da1c121d", "lon": -76.9984495, "rental_uris": {"ios": "https://dc.lft.to/lastmile_qr_scan", "android": "https://dc.lft.to/lastmile_qr_scan"}}, {"name": "34b4df5830f68cdc2b3d0a33840d042b", "fusion_lat": 0.0, "type": "electric_scooter", "lat": 38.9019535, "is_reserved": 0, "is_disabled": 0, "fusion_lon": 0.0, "bike_id": "34b4df5830f68cdc2b3d0a33840d042b", "lon": -77.021695, "rental_uris": {"ios": "https://dc.lft.to/lastmile_qr_scan", "android": "https://dc.lft.to/lastmile_qr_scan"}}, {"name": "54525887c1a231760e46f03a464b1c06", "fusion_lat": 0.0, "type": "electric_scooter", "lat": 38.90655916666667, "is_reserved": 0, "is_disabled": 0, "fusion_lon": 0.0, "bike_id": "54525887c1a231760e46f03a464b1c06", "lon": -77.05312416666666, "rental_uris": {"ios": "https://dc.lft.to/lastmile_qr_scan", "android": "https://dc.lft.to/lastmile_qr_scan"}}, {"name": "779ac2a569911a9b217780d8d3e025f0", "fusion_lat": 0.0, "type": "electric_scooter", "lat": 38.9215035, "is_reserved": 0, "is_disabled": 0, "fusion_lon": 0.0, "bike_id": "779ac2a569911a9b217780d8d3e025f0", "lon": -77.03426733333333, "rental_uris": {"ios": "https://dc.lft.to/lastmile_qr_scan", "android": "https://dc.lft.to/lastmile_qr_scan"}}, {"name": "13f752b5d12190ee3c90f8cf9d712f72", "fusion_lat": 0.0, "type": "electric_bike", "lat": 38.9295335, "is_reserved": 0, "is_disabled": 0, "fusion_lon": 0.0, "bike_id": "13f752b5d12190ee3c90f8cf9d712f72", "lon": -77.22572733333334, "rental_uris": {"ios": "https://dc.lft.to/lastmile_qr_scan", "android": "https://dc.lft.to/lastmile_qr_scan"}}, {"name": "b37bfdef8d7103acdbe1c90f34433ac5", "fusion_lat": 0.0, "type": "electric_bike", "lat": 38.831883833333336, "is_reserved": 0, "is_disabled": 0, "fusion_lon": 0.0, "bike_id": "b37bfdef8d7103acdbe1c90f34433ac5", "lon": -77.0768145, "rental_uris": {"ios": "https://dc.lft.to/lastmile_qr_scan", "android": "https://dc.lft.to/lastmile_qr_scan"}}, {"name": "81e88372a34eec6ca37ee6b884044d9f", "fusion_lat": 0.0, "type": "electric_scooter", "lat": 38.9170795, "is_reserved": 0, "is_disabled": 0, "fusion_lon": 0.0, "bike_id": "81e88372a34eec6ca37ee6b884044d9f", "lon": -77.02885466666666, "rental_uris": {"ios": "https://dc.lft.to/lastmile_qr_scan", "android": "https://dc.lft.to/lastmile_qr_scan"}}, {"name": "d79b431ae38403e9e723a07cf4151dd4", "fusion_lat": 0.0, "type": "electric_bike", "lat": 38.955520166666666, "is_reserved": 0, "is_disabled": 0, "fusion_lon": 0.0, "bike_id": "d79b431ae38403e9e723a07cf4151dd4", "lon": -76.9354685, "rental_uris": {"ios": "https://dc.lft.to/lastmile_qr_scan", "android": "https://dc.lft.to/lastmile_qr_scan"}}, {"name": "bc8fd48192419e5a0eaf8b8e211aedc2", "fusion_lat": 0.0, "type": "electric_scooter", "lat": 38.90228916666667, "is_reserved": 0, "is_disabled": 0, "fusion_lon": 0.0, "bike_id": "bc8fd48192419e5a0eaf8b8e211aedc2", "lon": -77.05139566666666, "rental_uris": {"ios": "https://dc.lft.to/lastmile_qr_scan", "android": "https://dc.lft.to/lastmile_qr_scan"}}, {"name": "2ac989fb0dddcd831077d6cdb0c3d5a9", "fusion_lat": 0.0, "type": "electric_scooter", "lat": 38.896016333333336, "is_reserved": 0, "is_disabled": 0, "fusion_lon": 0.0, "bike_id": "2ac989fb0dddcd831077d6cdb0c3d5a9", "lon": -77.04688316666666, "rental_uris": {"ios": "https://dc.lft.to/lastmile_qr_scan", "android": "https://dc.lft.to/lastmile_qr_scan"}}, {"name": "ad0c2236f452d7d74958956d4e9dc207", "fusion_lat": 0.0, "type": "electric_scooter", "lat": 38.9066085, "is_reserved": 0, "is_disabled": 0, "fusion_lon": 0.0, "bike_id": "ad0c2236f452d7d74958956d4e9dc207", "lon": -77.02793483333333, "rental_uris": {"ios": "https://dc.lft.to/lastmile_qr_scan", "android": "https://dc.lft.to/lastmile_qr_scan"}}, {"name": "c06daf2cdf6c56da1b30477a339ddec7", "fusion_lat": 0.0, "type": "electric_scooter", "lat": 38.92783433333334, "is_reserved": 0, "is_disabled": 0, "fusion_lon": 0.0, "bike_id": "c06daf2cdf6c56da1b30477a339ddec7", "lon": -77.04325516666667, "rental_uris": {"ios": "https://dc.lft.to/lastmile_qr_scan", "android": "https://dc.lft.to/lastmile_qr_scan"}}, {"name": "854536fc94ae85467b302eb6bacd78c0", "fusion_lat": 0.0, "type": "electric_scooter", "lat": 38.906711666666666, "is_reserved": 0, "is_disabled": 0, "fusion_lon": 0.0, "bike_id": "854536fc94ae85467b302eb6bacd78c0", "lon": -76.97809316666667, "rental_uris": {"ios": "https://dc.lft.to/lastmile_qr_scan", "android": "https://dc.lft.to/lastmile_qr_scan"}}, {"name": "08b178ac733ec08624b4c2c351c78a76", "fusion_lat": 0.0, "type": "electric_scooter", "lat": 38.92256183333333, "is_reserved": 0, "is_disabled": 0, "fusion_lon": 0.0, "bike_id": "08b178ac733ec08624b4c2c351c78a76", "lon": -77.01952316666667, "rental_uris": {"ios": "https://dc.lft.to/lastmile_qr_scan", "android": "https://dc.lft.to/lastmile_qr_scan"}}, {"name": "e85e8eacf5277bfae4cd945bdda210de", "fusion_lat": 0.0, "type": "electric_scooter", "lat": 38.904566, "is_reserved": 0, "is_disabled": 0, "fusion_lon": 0.0, "bike_id": "e85e8eacf5277bfae4cd945bdda210de", "lon": -77.03832733333333, "rental_uris": {"ios": "https://dc.lft.to/lastmile_qr_scan", "android": "https://dc.lft.to/lastmile_qr_scan"}}, {"name": "785fb30c04d2f7aa4e4b884a6dad6bb9", "fusion_lat": 0.0, "type": "electric_scooter", "lat": 38.9106425, "is_reserved": 0, "is_disabled": 0, "fusion_lon": 0.0, "bike_id": "785fb30c04d2f7aa4e4b884a6dad6bb9", "lon": -77.05325533333334, "rental_uris": {"ios": "https://dc.lft.to/lastmile_qr_scan", "android": "https://dc.lft.to/lastmile_qr_scan"}}, {"name": "635a57bdf3635d20e666f7dab3225384", "fusion_lat": 0.0, "type": "electric_bike", "lat": 38.8130375, "is_reserved": 0, "is_disabled": 0, "fusion_lon": 0.0, "bike_id": "635a57bdf3635d20e666f7dab3225384", "lon": -77.11209566666666, "rental_uris": {"ios": "https://dc.lft.to/lastmile_qr_scan", "android": "https://dc.lft.to/lastmile_qr_scan"}}, {"name": "d3bc797c0c00c3e5db61c3ca16727baa", "fusion_lat": 0.0, "type": "electric_scooter", "lat": 38.89226766666667, "is_reserved": 0, "is_disabled": 0, "fusion_lon": 0.0, "bike_id": "d3bc797c0c00c3e5db61c3ca16727baa", "lon": -77.0500545, "rental_uris": {"ios": "https://dc.lft.to/lastmile_qr_scan", "android": "https://dc.lft.to/lastmile_qr_scan"}}, {"name": "098c21aab475ca9aea75267f29aec005", "fusion_lat": 0.0, "type": "electric_scooter", "lat": 38.93361133333333, "is_reserved": 0, "is_disabled": 0, "fusion_lon": 0.0, "bike_id": "098c21aab475ca9aea75267f29aec005", "lon": -77.037253, "rental_uris": {"ios": "https://dc.lft.to/lastmile_qr_scan", "android": "https://dc.lft.to/lastmile_qr_scan"}}, {"name": "26340d1caa2b415b10008b4b665e8238", "fusion_lat": 0.0, "type": "electric_bike", "lat": 38.891860666666666, "is_reserved": 0, "is_disabled": 0, "fusion_lon": 0.0, "bike_id": "26340d1caa2b415b10008b4b665e8238", "lon": -77.1225885, "rental_uris": {"ios": "https://dc.lft.to/lastmile_qr_scan", "android": "https://dc.lft.to/lastmile_qr_scan"}}, {"name": "c71160a333ae3a89220036d72b2d420f", "fusion_lat": 0.0, "type": "electric_scooter", "lat": 38.885016666666665, "is_reserved": 0, "is_disabled": 0, "fusion_lon": 0.0, "bike_id": "c71160a333ae3a89220036d72b2d420f", "lon": -77.00565466666667, "rental_uris": {"ios": "https://dc.lft.to/lastmile_qr_scan", "android": "https://dc.lft.to/lastmile_qr_scan"}}, {"name": "168205c99822a010d6b3a500b819d1d0", "fusion_lat": 0.0, "type": "electric_scooter", "lat": 38.900429833333334, "is_reserved": 0, "is_disabled": 0, "fusion_lon": 0.0, "bike_id": "168205c99822a010d6b3a500b819d1d0", "lon": -76.98820183333333, "rental_uris": {"ios": "https://dc.lft.to/lastmile_qr_scan", "android": "https://dc.lft.to/lastmile_qr_scan"}}, {"name": "a1f98b15606143f93f60351d4f3acdf9", "fusion_lat": 0.0, "type": "electric_bike", "lat": 38.8812955, "is_reserved": 0, "is_disabled": 0, "fusion_lon": 0.0, "bike_id": "a1f98b15606143f93f60351d4f3acdf9", "lon": -76.9809185, "rental_uris": {"ios": "https://dc.lft.to/lastmile_qr_scan", "android": "https://dc.lft.to/lastmile_qr_scan"}}, {"name": "fdb740c733a2896384ca9a66092b4102", "fusion_lat": 0.0, "type": "electric_scooter", "lat": 38.86510083333334, "is_reserved": 0, "is_disabled": 0, "fusion_lon": 0.0, "bike_id": "fdb740c733a2896384ca9a66092b4102", "lon": -76.97341783333333, "rental_uris": {"ios": "https://dc.lft.to/lastmile_qr_scan", "android": "https://dc.lft.to/lastmile_qr_scan"}}, {"name": "ad7ea54c2c785f566720ea794a4ba56c", "fusion_lat": 0.0, "type": "electric_scooter", "lat": 38.93966233333333, "is_reserved": 0, "is_disabled": 0, "fusion_lon": 0.0, "bike_id": "ad7ea54c2c785f566720ea794a4ba56c", "lon": -77.03201333333334, "rental_uris": {"ios": "https://dc.lft.to/lastmile_qr_scan", "android": "https://dc.lft.to/lastmile_qr_scan"}}, {"name": "e18f0e00c0b2f1b25daf6d22497d9dca", "fusion_lat": 0.0, "type": "electric_scooter", "lat": 38.943063333333335, "is_reserved": 0, "is_disabled": 0, "fusion_lon": 0.0, "bike_id": "e18f0e00c0b2f1b25daf6d22497d9dca", "lon": -77.05915733333333, "rental_uris": {"ios": "https://dc.lft.to/lastmile_qr_scan", "android": "https://dc.lft.to/lastmile_qr_scan"}}, {"name": "03d7bf07e28d0c0bd080e9589dfa99dd", "fusion_lat": 0.0, "type": "electric_bike", "lat": 38.93965983333333, "is_reserved": 0, "is_disabled": 0, "fusion_lon": 0.0, "bike_id": "03d7bf07e28d0c0bd080e9589dfa99dd", "lon": -76.98654916666666, "rental_uris": {"ios": "https://dc.lft.to/lastmile_qr_scan", "android": "https://dc.lft.to/lastmile_qr_scan"}}, {"name": "7469572bd1cedcffca015ff21c2b44cd", "fusion_lat": 0.0, "type": "electric_scooter", "lat": 38.89919283333333, "is_reserved": 0, "is_disabled": 0, "fusion_lon": 0.0, "bike_id": "7469572bd1cedcffca015ff21c2b44cd", "lon": -76.93380983333333, "rental_uris": {"ios": "https://dc.lft.to/lastmile_qr_scan", "android": "https://dc.lft.to/lastmile_qr_scan"}}, {"name": "2370b000b35611c9c7bb0c3bcc465a4d", "fusion_lat": 0.0, "type": "electric_scooter", "lat": 38.89994266666667, "is_reserved": 0, "is_disabled": 0, "fusion_lon": 0.0, "bike_id": "2370b000b35611c9c7bb0c3bcc465a4d", "lon": -76.9930485, "rental_uris": {"ios": "https://dc.lft.to/lastmile_qr_scan", "android": "https://dc.lft.to/lastmile_qr_scan"}}, {"name": "3304adad891a5f6e6b962c8b2c98e1e4", "fusion_lat": 0.0, "type": "electric_bike", "lat": 38.872237, "is_reserved": 0, "is_disabled": 0, "fusion_lon": 0.0, "bike_id": "3304adad891a5f6e6b962c8b2c98e1e4", "lon": -77.01180183333334, "rental_uris": {"ios": "https://dc.lft.to/lastmile_qr_scan", "android": "https://dc.lft.to/lastmile_qr_scan"}}, {"name": "d20ddc73f4cdb06d042ecd873a847a77", "fusion_lat": 0.0, "type": "electric_scooter", "lat": 38.907465333333334, "is_reserved": 0, "is_disabled": 0, "fusion_lon": 0.0, "bike_id": "d20ddc73f4cdb06d042ecd873a847a77", "lon": -77.04153, "rental_uris": {"ios": "https://dc.lft.to/lastmile_qr_scan", "android": "https://dc.lft.to/lastmile_qr_scan"}}, {"name": "3395faf71865d89f8d9a27d3a1fdeff0", "fusion_lat": 0.0, "type": "electric_scooter", "lat": 38.87645716666667, "is_reserved": 0, "is_disabled": 0, "fusion_lon": 0.0, "bike_id": "3395faf71865d89f8d9a27d3a1fdeff0", "lon": -77.005835, "rental_uris": {"ios": "https://dc.lft.to/lastmile_qr_scan", "android": "https://dc.lft.to/lastmile_qr_scan"}}, {"name": "c8c7a33f37bd333ccd23796cf0c90056", "fusion_lat": 0.0, "type": "electric_scooter", "lat": 38.883396, "is_reserved": 0, "is_disabled": 0, "fusion_lon": 0.0, "bike_id": "c8c7a33f37bd333ccd23796cf0c90056", "lon": -77.03167766666667, "rental_uris": {"ios": "https://dc.lft.to/lastmile_qr_scan", "android": "https://dc.lft.to/lastmile_qr_scan"}}, {"name": "7ae2035c2f84f643207fe8ad138fed6b", "fusion_lat": 0.0, "type": "electric_bike", "lat": 38.854199, "is_reserved": 0, "is_disabled": 0, "fusion_lon": 0.0, "bike_id": "7ae2035c2f84f643207fe8ad138fed6b", "lon": -76.90954616666667, "rental_uris": {"ios": "https://dc.lft.to/lastmile_qr_scan", "android": "https://dc.lft.to/lastmile_qr_scan"}}, {"name": "0bcb8e2833e66f026bfcd4fce5eecf3f", "fusion_lat": 0.0, "type": "electric_scooter", "lat": 38.8952505, "is_reserved": 0, "is_disabled": 0, "fusion_lon": 0.0, "bike_id": "0bcb8e2833e66f026bfcd4fce5eecf3f", "lon": -76.94892383333334, "rental_uris": {"ios": "https://dc.lft.to/lastmile_qr_scan", "android": "https://dc.lft.to/lastmile_qr_scan"}}, {"name": "eda2a25cb1dfe6b12866b5f2140512a9", "fusion_lat": 0.0, "type": "electric_bike", "lat": 38.81047566666667, "is_reserved": 0, "is_disabled": 0, "fusion_lon": 0.0, "bike_id": "eda2a25cb1dfe6b12866b5f2140512a9", "lon": -77.08511166666666, "rental_uris": {"ios": "https://dc.lft.to/lastmile_qr_scan", "android": "https://dc.lft.to/lastmile_qr_scan"}}, {"name": "8fdc962c4d10ee912fa4bf7e70f05d94", "fusion_lat": 0.0, "type": "electric_scooter", "lat": 38.8968455, "is_reserved": 0, "is_disabled": 0, "fusion_lon": 0.0, "bike_id": "8fdc962c4d10ee912fa4bf7e70f05d94", "lon": -77.00496, "rental_uris": {"ios": "https://dc.lft.to/lastmile_qr_scan", "android": "https://dc.lft.to/lastmile_qr_scan"}}, {"name": "b38f7b137310b5c4648e192fac60afc1", "fusion_lat": 0.0, "type": "electric_scooter", "lat": 38.9105625, "is_reserved": 0, "is_disabled": 0, "fusion_lon": 0.0, "bike_id": "b38f7b137310b5c4648e192fac60afc1", "lon": -77.03171533333334, "rental_uris": {"ios": "https://dc.lft.to/lastmile_qr_scan", "android": "https://dc.lft.to/lastmile_qr_scan"}}, {"name": "29b763604183de7d03e1da32f91f4cf9", "fusion_lat": 0.0, "type": "electric_scooter", "lat": 38.90250916666667, "is_reserved": 0, "is_disabled": 0, "fusion_lon": 0.0, "bike_id": "29b763604183de7d03e1da32f91f4cf9", "lon": -77.04405083333333, "rental_uris": {"ios": "https://dc.lft.to/lastmile_qr_scan", "android": "https://dc.lft.to/lastmile_qr_scan"}}, {"name": "9725b37ce940f53c3161987d6314dc50", "fusion_lat": 0.0, "type": "electric_scooter", "lat": 38.939356833333335, "is_reserved": 0, "is_disabled": 0, "fusion_lon": 0.0, "bike_id": "9725b37ce940f53c3161987d6314dc50", "lon": -77.0367015, "rental_uris": {"ios": "https://dc.lft.to/lastmile_qr_scan", "android": "https://dc.lft.to/lastmile_qr_scan"}}, {"name": "e4611a235eccc21375306743bcedc290", "fusion_lat": 0.0, "type": "electric_scooter", "lat": 38.929909, "is_reserved": 0, "is_disabled": 0, "fusion_lon": 0.0, "bike_id": "e4611a235eccc21375306743bcedc290", "lon": -77.0230625, "rental_uris": {"ios": "https://dc.lft.to/lastmile_qr_scan", "android": "https://dc.lft.to/lastmile_qr_scan"}}, {"name": "899bf9fa502e3c74e04da19550a7ccc2", "fusion_lat": 0.0, "type": "electric_scooter", "lat": 38.92602766666667, "is_reserved": 0, "is_disabled": 0, "fusion_lon": 0.0, "bike_id": "899bf9fa502e3c74e04da19550a7ccc2", "lon": -77.02155216666667, "rental_uris": {"ios": "https://dc.lft.to/lastmile_qr_scan", "android": "https://dc.lft.to/lastmile_qr_scan"}}, {"name": "bd89763b8520aeeca2de48d078b37b70", "fusion_lat": 0.0, "type": "electric_scooter", "lat": 38.906680333333334, "is_reserved": 0, "is_disabled": 0, "fusion_lon": 0.0, "bike_id": "bd89763b8520aeeca2de48d078b37b70", "lon": -77.02702733333334, "rental_uris": {"ios": "https://dc.lft.to/lastmile_qr_scan", "android": "https://dc.lft.to/lastmile_qr_scan"}}, {"name": "6886530562fd4b821d0f2dec2307637e", "fusion_lat": 0.0, "type": "electric_scooter", "lat": 38.935305166666666, "is_reserved": 0, "is_disabled": 0, "fusion_lon": 0.0, "bike_id": "6886530562fd4b821d0f2dec2307637e", "lon": -77.03395866666666, "rental_uris": {"ios": "https://dc.lft.to/lastmile_qr_scan", "android": "https://dc.lft.to/lastmile_qr_scan"}}, {"name": "140677e2377d6b12b03afbc4bb3b3000", "fusion_lat": 0.0, "type": "electric_scooter", "lat": 38.892269, "is_reserved": 0, "is_disabled": 0, "fusion_lon": 0.0, "bike_id": "140677e2377d6b12b03afbc4bb3b3000", "lon": -77.05001516666667, "rental_uris": {"ios": "https://dc.lft.to/lastmile_qr_scan", "android": "https://dc.lft.to/lastmile_qr_scan"}}, {"name": "a896ee9afd777d0d39611ccaa9d39269", "fusion_lat": 0.0, "type": "electric_scooter", "lat": 38.8985495, "is_reserved": 0, "is_disabled": 0, "fusion_lon": 0.0, "bike_id": "a896ee9afd777d0d39611ccaa9d39269", "lon": -77.03950416666666, "rental_uris": {"ios": "https://dc.lft.to/lastmile_qr_scan", "android": "https://dc.lft.to/lastmile_qr_scan"}}, {"name": "381c8023dd5e1d3a4295565b6c57c147", "fusion_lat": 0.0, "type": "electric_scooter", "lat": 38.90967233333333, "is_reserved": 0, "is_disabled": 0, "fusion_lon": 0.0, "bike_id": "381c8023dd5e1d3a4295565b6c57c147", "lon": -77.017122, "rental_uris": {"ios": "https://dc.lft.to/lastmile_qr_scan", "android": "https://dc.lft.to/lastmile_qr_scan"}}, {"name": "3e518da2cca34adf278856b8bb4a6013", "fusion_lat": 0.0, "type": "electric_bike", "lat": 38.928672, "is_reserved": 0, "is_disabled": 0, "fusion_lon": 0.0, "bike_id": "3e518da2cca34adf278856b8bb4a6013", "lon": -76.9610885, "rental_uris": {"ios": "https://dc.lft.to/lastmile_qr_scan", "android": "https://dc.lft.to/lastmile_qr_scan"}}, {"name": "13d6887ad1abc9c31554612770ae5977", "fusion_lat": 0.0, "type": "electric_scooter", "lat": 38.905793333333335, "is_reserved": 0, "is_disabled": 0, "fusion_lon": 0.0, "bike_id": "13d6887ad1abc9c31554612770ae5977", "lon": -77.04877466666667, "rental_uris": {"ios": "https://dc.lft.to/lastmile_qr_scan", "android": "https://dc.lft.to/lastmile_qr_scan"}}, {"name": "3bfc4bfe1a2ca9158654aa1cfd5c2032", "fusion_lat": 0.0, "type": "electric_scooter", "lat": 38.930194166666666, "is_reserved": 0, "is_disabled": 0, "fusion_lon": 0.0, "bike_id": "3bfc4bfe1a2ca9158654aa1cfd5c2032", "lon": -77.0378385, "rental_uris": {"ios": "https://dc.lft.to/lastmile_qr_scan", "android": "https://dc.lft.to/lastmile_qr_scan"}}, {"name": "07e7ec5e6bd739a95e620862fb734c1f", "fusion_lat": 0.0, "type": "electric_scooter", "lat": 38.9387335, "is_reserved": 0, "is_disabled": 0, "fusion_lon": 0.0, "bike_id": "07e7ec5e6bd739a95e620862fb734c1f", "lon": -77.0325685, "rental_uris": {"ios": "https://dc.lft.to/lastmile_qr_scan", "android": "https://dc.lft.to/lastmile_qr_scan"}}, {"name": "cd8e826bda6873bf3d495774fe68484b", "fusion_lat": 0.0, "type": "electric_scooter", "lat": 38.96560183333333, "is_reserved": 0, "is_disabled": 0, "fusion_lon": 0.0, "bike_id": "cd8e826bda6873bf3d495774fe68484b", "lon": -77.01623, "rental_uris": {"ios": "https://dc.lft.to/lastmile_qr_scan", "android": "https://dc.lft.to/lastmile_qr_scan"}}, {"name": "bbaf757b461dfa1f8842b398fe1c43a0", "fusion_lat": 0.0, "type": "electric_scooter", "lat": 38.9042905, "is_reserved": 0, "is_disabled": 0, "fusion_lon": 0.0, "bike_id": "bbaf757b461dfa1f8842b398fe1c43a0", "lon": -77.02592366666667, "rental_uris": {"ios": "https://dc.lft.to/lastmile_qr_scan", "android": "https://dc.lft.to/lastmile_qr_scan"}}, {"name": "dfb951a25c15a47b6fd0af69287392ba", "fusion_lat": 0.0, "type": "electric_scooter", "lat": 38.9062755, "is_reserved": 0, "is_disabled": 0, "fusion_lon": 0.0, "bike_id": "dfb951a25c15a47b6fd0af69287392ba", "lon": -77.03895583333333, "rental_uris": {"ios": "https://dc.lft.to/lastmile_qr_scan", "android": "https://dc.lft.to/lastmile_qr_scan"}}, {"name": "1249c16159f7588bb80caa11e89ff96c", "fusion_lat": 0.0, "type": "electric_scooter", "lat": 38.92679583333334, "is_reserved": 0, "is_disabled": 0, "fusion_lon": 0.0, "bike_id": "1249c16159f7588bb80caa11e89ff96c", "lon": -77.02777283333333, "rental_uris": {"ios": "https://dc.lft.to/lastmile_qr_scan", "android": "https://dc.lft.to/lastmile_qr_scan"}}, {"name": "f236442882c183813b09c97fa05a18c9", "fusion_lat": 0.0, "type": "electric_scooter", "lat": 38.931066666666666, "is_reserved": 0, "is_disabled": 0, "fusion_lon": 0.0, "bike_id": "f236442882c183813b09c97fa05a18c9", "lon": -77.03725616666667, "rental_uris": {"ios": "https://dc.lft.to/lastmile_qr_scan", "android": "https://dc.lft.to/lastmile_qr_scan"}}, {"name": "dd99ae8af2fd47e66486035dfd03f324", "fusion_lat": 0.0, "type": "electric_scooter", "lat": 38.865016833333335, "is_reserved": 0, "is_disabled": 0, "fusion_lon": 0.0, "bike_id": "dd99ae8af2fd47e66486035dfd03f324", "lon": -76.990002, "rental_uris": {"ios": "https://dc.lft.to/lastmile_qr_scan", "android": "https://dc.lft.to/lastmile_qr_scan"}}, {"name": "c8c5dac6777e67fe07ae40c91410e429", "fusion_lat": 0.0, "type": "electric_scooter", "lat": 38.942494833333335, "is_reserved": 0, "is_disabled": 0, "fusion_lon": 0.0, "bike_id": "c8c5dac6777e67fe07ae40c91410e429", "lon": -77.04140066666666, "rental_uris": {"ios": "https://dc.lft.to/lastmile_qr_scan", "android": "https://dc.lft.to/lastmile_qr_scan"}}, {"name": "2aed5c0172baf68e55dddf17f30ece82", "fusion_lat": 0.0, "type": "electric_scooter", "lat": 38.9072575, "is_reserved": 0, "is_disabled": 0, "fusion_lon": 0.0, "bike_id": "2aed5c0172baf68e55dddf17f30ece82", "lon": -77.0106775, "rental_uris": {"ios": "https://dc.lft.to/lastmile_qr_scan", "android": "https://dc.lft.to/lastmile_qr_scan"}}, {"name": "b25190d1e15aa0d5a2f5a13ac3cccfa2", "fusion_lat": 0.0, "type": "electric_scooter", "lat": 38.904894666666664, "is_reserved": 0, "is_disabled": 0, "fusion_lon": 0.0, "bike_id": "b25190d1e15aa0d5a2f5a13ac3cccfa2", "lon": -77.05123333333333, "rental_uris": {"ios": "https://dc.lft.to/lastmile_qr_scan", "android": "https://dc.lft.to/lastmile_qr_scan"}}, {"name": "fbef9b5cf041741a5d8cd18c5a63a1cb", "fusion_lat": 0.0, "type": "electric_scooter", "lat": 38.885269, "is_reserved": 0, "is_disabled": 0, "fusion_lon": 0.0, "bike_id": "fbef9b5cf041741a5d8cd18c5a63a1cb", "lon": -76.98053333333333, "rental_uris": {"ios": "https://dc.lft.to/lastmile_qr_scan", "android": "https://dc.lft.to/lastmile_qr_scan"}}, {"name": "7214e9a08de0b45fedb205c32a538b96", "fusion_lat": 0.0, "type": "electric_scooter", "lat": 38.90137633333333, "is_reserved": 0, "is_disabled": 0, "fusion_lon": 0.0, "bike_id": "7214e9a08de0b45fedb205c32a538b96", "lon": -77.02547866666667, "rental_uris": {"ios": "https://dc.lft.to/lastmile_qr_scan", "android": "https://dc.lft.to/lastmile_qr_scan"}}, {"name": "a38b25d7b89e042c90408078fbeab052", "fusion_lat": 0.0, "type": "electric_scooter", "lat": 38.93735816666667, "is_reserved": 0, "is_disabled": 0, "fusion_lon": 0.0, "bike_id": "a38b25d7b89e042c90408078fbeab052", "lon": -77.03262483333333, "rental_uris": {"ios": "https://dc.lft.to/lastmile_qr_scan", "android": "https://dc.lft.to/lastmile_qr_scan"}}, {"name": "75b0ef596e593cab9fbb705cf09287ff", "fusion_lat": 0.0, "type": "electric_scooter", "lat": 38.90140666666667, "is_reserved": 0, "is_disabled": 0, "fusion_lon": 0.0, "bike_id": "75b0ef596e593cab9fbb705cf09287ff", "lon": -76.974202, "rental_uris": {"ios": "https://dc.lft.to/lastmile_qr_scan", "android": "https://dc.lft.to/lastmile_qr_scan"}}, {"name": "b4cd67520492b284cd25d4cdefbccd17", "fusion_lat": 0.0, "type": "electric_scooter", "lat": 38.86244933333333, "is_reserved": 0, "is_disabled": 0, "fusion_lon": 0.0, "bike_id": "b4cd67520492b284cd25d4cdefbccd17", "lon": -76.99532083333334, "rental_uris": {"ios": "https://dc.lft.to/lastmile_qr_scan", "android": "https://dc.lft.to/lastmile_qr_scan"}}, {"name": "a8e0de23c31adab6ec796d95ab2d23ee", "fusion_lat": 0.0, "type": "electric_scooter", "lat": 38.907667333333336, "is_reserved": 0, "is_disabled": 0, "fusion_lon": 0.0, "bike_id": "a8e0de23c31adab6ec796d95ab2d23ee", "lon": -77.03850583333333, "rental_uris": {"ios": "https://dc.lft.to/lastmile_qr_scan", "android": "https://dc.lft.to/lastmile_qr_scan"}}, {"name": "f9e8ece5c3065ef14b0da1809ba18ef1", "fusion_lat": 0.0, "type": "electric_bike", "lat": 38.920423, "is_reserved": 0, "is_disabled": 0, "fusion_lon": 0.0, "bike_id": "f9e8ece5c3065ef14b0da1809ba18ef1", "lon": -77.033142, "rental_uris": {"ios": "https://dc.lft.to/lastmile_qr_scan", "android": "https://dc.lft.to/lastmile_qr_scan"}}, {"name": "00258bea300a8b60de8e175aefeb9039", "fusion_lat": 0.0, "type": "electric_scooter", "lat": 38.9089845, "is_reserved": 0, "is_disabled": 0, "fusion_lon": 0.0, "bike_id": "00258bea300a8b60de8e175aefeb9039", "lon": -77.048732, "rental_uris": {"ios": "https://dc.lft.to/lastmile_qr_scan", "android": "https://dc.lft.to/lastmile_qr_scan"}}, {"name": "da44d43b5fc938ae9bfb4e97c5262f2e", "fusion_lat": 0.0, "type": "electric_scooter", "lat": 38.962241666666664, "is_reserved": 0, "is_disabled": 0, "fusion_lon": 0.0, "bike_id": "da44d43b5fc938ae9bfb4e97c5262f2e", "lon": -77.02977566666667, "rental_uris": {"ios": "https://dc.lft.to/lastmile_qr_scan", "android": "https://dc.lft.to/lastmile_qr_scan"}}, {"name": "8c9baaba5745faab60f9eca927b0fc9c", "fusion_lat": 0.0, "type": "electric_scooter", "lat": 38.928224166666666, "is_reserved": 0, "is_disabled": 0, "fusion_lon": 0.0, "bike_id": "8c9baaba5745faab60f9eca927b0fc9c", "lon": -77.0225825, "rental_uris": {"ios": "https://dc.lft.to/lastmile_qr_scan", "android": "https://dc.lft.to/lastmile_qr_scan"}}, {"name": "6c97fcb1f8589cbca4e42d8ad2306b48", "fusion_lat": 0.0, "type": "electric_scooter", "lat": 38.925768166666664, "is_reserved": 0, "is_disabled": 0, "fusion_lon": 0.0, "bike_id": "6c97fcb1f8589cbca4e42d8ad2306b48", "lon": -76.99492983333333, "rental_uris": {"ios": "https://dc.lft.to/lastmile_qr_scan", "android": "https://dc.lft.to/lastmile_qr_scan"}}, {"name": "9fa46df4ae0e6979ffaff171d52cc94f", "fusion_lat": 0.0, "type": "electric_scooter", "lat": 38.888380833333336, "is_reserved": 0, "is_disabled": 0, "fusion_lon": 0.0, "bike_id": "9fa46df4ae0e6979ffaff171d52cc94f", "lon": -77.049088, "rental_uris": {"ios": "https://dc.lft.to/lastmile_qr_scan", "android": "https://dc.lft.to/lastmile_qr_scan"}}, {"name": "d4d4e51371623f36b2bc52ec3b03378e", "fusion_lat": 0.0, "type": "electric_scooter", "lat": 38.90578416666666, "is_reserved": 0, "is_disabled": 0, "fusion_lon": 0.0, "bike_id": "d4d4e51371623f36b2bc52ec3b03378e", "lon": -77.04877166666667, "rental_uris": {"ios": "https://dc.lft.to/lastmile_qr_scan", "android": "https://dc.lft.to/lastmile_qr_scan"}}, {"name": "e5cc0c7c2f9f0702b30872c06ddccfb1", "fusion_lat": 0.0, "type": "electric_scooter", "lat": 38.88226266666667, "is_reserved": 0, "is_disabled": 0, "fusion_lon": 0.0, "bike_id": "e5cc0c7c2f9f0702b30872c06ddccfb1", "lon": -77.02581883333333, "rental_uris": {"ios": "https://dc.lft.to/lastmile_qr_scan", "android": "https://dc.lft.to/lastmile_qr_scan"}}, {"name": "16c2ed57b101d11ff69dbc887aae5d54", "fusion_lat": 0.0, "type": "electric_scooter", "lat": 38.92232466666667, "is_reserved": 0, "is_disabled": 0, "fusion_lon": 0.0, "bike_id": "16c2ed57b101d11ff69dbc887aae5d54", "lon": -77.04715183333333, "rental_uris": {"ios": "https://dc.lft.to/lastmile_qr_scan", "android": "https://dc.lft.to/lastmile_qr_scan"}}, {"name": "66a93c3cbbf0084c0e7a026c7cec848e", "fusion_lat": 0.0, "type": "electric_scooter", "lat": 38.90531566666667, "is_reserved": 0, "is_disabled": 0, "fusion_lon": 0.0, "bike_id": "66a93c3cbbf0084c0e7a026c7cec848e", "lon": -77.04775183333334, "rental_uris": {"ios": "https://dc.lft.to/lastmile_qr_scan", "android": "https://dc.lft.to/lastmile_qr_scan"}}, {"name": "75a84668c29e69e600f9de4819c105e7", "fusion_lat": 0.0, "type": "electric_scooter", "lat": 38.861512, "is_reserved": 0, "is_disabled": 0, "fusion_lon": 0.0, "bike_id": "75a84668c29e69e600f9de4819c105e7", "lon": -76.98922033333334, "rental_uris": {"ios": "https://dc.lft.to/lastmile_qr_scan", "android": "https://dc.lft.to/lastmile_qr_scan"}}, {"name": "362336d1a006044165df98e1ef794ccd", "fusion_lat": 0.0, "type": "electric_scooter", "lat": 38.883848, "is_reserved": 0, "is_disabled": 0, "fusion_lon": 0.0, "bike_id": "362336d1a006044165df98e1ef794ccd", "lon": -77.02604516666666, "rental_uris": {"ios": "https://dc.lft.to/lastmile_qr_scan", "android": "https://dc.lft.to/lastmile_qr_scan"}}, {"name": "42c7496a665118666fb9504ac53f0dd4", "fusion_lat": 0.0, "type": "electric_scooter", "lat": 38.92543933333333, "is_reserved": 0, "is_disabled": 0, "fusion_lon": 0.0, "bike_id": "42c7496a665118666fb9504ac53f0dd4", "lon": -77.03222366666667, "rental_uris": {"ios": "https://dc.lft.to/lastmile_qr_scan", "android": "https://dc.lft.to/lastmile_qr_scan"}}, {"name": "aa820413be5abd53a4e938bb1885b817", "fusion_lat": 0.0, "type": "electric_scooter", "lat": 38.938692833333334, "is_reserved": 0, "is_disabled": 0, "fusion_lon": 0.0, "bike_id": "aa820413be5abd53a4e938bb1885b817", "lon": -77.03257816666667, "rental_uris": {"ios": "https://dc.lft.to/lastmile_qr_scan", "android": "https://dc.lft.to/lastmile_qr_scan"}}, {"name": "433bc2608b1d6410d491355df04f25d3", "fusion_lat": 0.0, "type": "electric_bike", "lat": 38.96007616666667, "is_reserved": 0, "is_disabled": 0, "fusion_lon": 0.0, "bike_id": "433bc2608b1d6410d491355df04f25d3", "lon": -76.9987485, "rental_uris": {"ios": "https://dc.lft.to/lastmile_qr_scan", "android": "https://dc.lft.to/lastmile_qr_scan"}}, {"name": "2009aa6b05aa0afb076eee367944123d", "fusion_lat": 0.0, "type": "electric_scooter", "lat": 38.950088666666666, "is_reserved": 0, "is_disabled": 0, "fusion_lon": 0.0, "bike_id": "2009aa6b05aa0afb076eee367944123d", "lon": -77.0672185, "rental_uris": {"ios": "https://dc.lft.to/lastmile_qr_scan", "android": "https://dc.lft.to/lastmile_qr_scan"}}, {"name": "71c48cc4a195b499658747aad297a0af", "fusion_lat": 0.0, "type": "electric_scooter", "lat": 38.892338333333335, "is_reserved": 0, "is_disabled": 0, "fusion_lon": 0.0, "bike_id": "71c48cc4a195b499658747aad297a0af", "lon": -77.02608983333333, "rental_uris": {"ios": "https://dc.lft.to/lastmile_qr_scan", "android": "https://dc.lft.to/lastmile_qr_scan"}}, {"name": "bda1f389ba34195de20a085f0d862ef8", "fusion_lat": 0.0, "type": "electric_scooter", "lat": 38.923724166666666, "is_reserved": 0, "is_disabled": 0, "fusion_lon": 0.0, "bike_id": "bda1f389ba34195de20a085f0d862ef8", "lon": -77.01918933333333, "rental_uris": {"ios": "https://dc.lft.to/lastmile_qr_scan", "android": "https://dc.lft.to/lastmile_qr_scan"}},