{"data": {"bikes": [{"lon": -77.12983566666666, "rental_uris": {"android": "https://dc.lft.to/lastmile_qr_scan", "ios": "https://dc.lft.to/lastmile_qr_scan"}, "fusion_lon": 0.0, "is_reserved": 0, "is_disabled": 0, "fusion_lat": 0.0, "type": "electric_bike", "name": "3c3ae4f9c0f2ee6271ccd0cf8626166a", "lat": 38.80761283333333, "bike_id": "3c3ae4f9c0f2ee6271ccd0cf8626166a"}, {"lon": -77.03630916666667, "rental_uris": {"android": "https://dc.lft.to/lastmile_qr_scan", "ios": "https://dc.lft.to/lastmile_qr_scan"}, "fusion_lon": 0.0, "is_reserved": 0, "is_disabled": 0, "fusion_lat": 0.0, "type": "electric_scooter", "name": "48d56f30158f7eec6854a21b43f660a5", "lat": 38.903838, "bike_id": "48d56f30158f7eec6854a21b43f660a5"}, {"lon": -77.00505416666667, "rental_uris": {"android": "https://dc.lft.to/lastmile_qr_scan", "ios": "https://dc.lft.to/lastmile_qr_scan"}, "fusion_lon": 0.0, "is_reserved": 0, "is_disabled": 0, "fusion_lat": 0.0, "type": "electric_scooter", "name": "9d8fae075841aa72b87d2fbbb5f3e4df", "lat": 38.87531666666667, "bike_id": "9d8fae075841aa72b87d2fbbb5f3e4df"}, {"lon": -77.03818316666667, "rental_uris": {"android": "https://dc.lft.to/lastmile_qr_scan", "ios": "https://dc.lft.to/lastmile_qr_scan"}, "fusion_lon": 0.0, "is_reserved": 0, "is_disabled": 0, "fusion_lat": 0.0, "type": "electric_scooter", "name": "97ea6555e174c4dcab3442fb8e2d77d9", "lat": 38.92706916666667, "bike_id": "97ea6555e174c4dcab3442fb8e2d77d9"}, {"lon": -77.04534733333334, "rental_uris": {"android": "https://dc.lft.to/lastmile_qr_scan", "ios": "https://dc.lft.to/lastmile_qr_scan"}, "fusion_lon": 0.0, "is_reserved": 0, "is_disabled": 0, "fusion_lat": 0.0, "type": "electric_scooter", "name": "17e0c0c7ff856a46a720733713cd425a", "lat": 38.911055833333336, "bike_id": "17e0c0c7ff856a46a720733713cd425a"}, {"lon": -77.034562, "rental_uris": {"android": "https://dc.lft.to/lastmile_qr_scan", "ios": "https://dc.lft.to/lastmile_qr_scan"}, "fusion_lon": 0.0, "is_reserved": 0, "is_disabled": 0, "fusion_lat": 0.0, "type": "electric_scooter", "name": "68735850816c526fddd0dfdda6839964", "lat": 38.904644166666664, "bike_id": "68735850816c526fddd0dfdda6839964"}, {"lon": -77.05161866666667, "rental_uris": {"android": "https://dc.lft.to/lastmile_qr_scan", "ios": "https://dc.lft.to/lastmile_qr_scan"}, "fusion_lon": 0.0, "is_reserved": 0, "is_disabled": 0, "fusion_lat": 0.0, "type": "electric_scooter", "name": "44a08b2296cbb0cd36edf9b63bc57721", "lat": 38.924067, "bike_id": "44a08b2296cbb0cd36edf9b63bc57721"}, {"lon": -77.0937455, "rental_uris": {"android": "https://dc.lft.to/lastmile_qr_scan", "ios": "https://dc.lft.to/lastmile_qr_scan"}, "fusion_lon": 0.0, "is_reserved": 0, "is_disabled": 0, "fusion_lat": 0.0, "type": "electric_bike", "name": "ec824bb0de80bda4c1b9a1d1856d88b5", "lat": 38.860323, "bike_id": "ec824bb0de80bda4c1b9a1d1856d88b5"}, {"lon": -77.03691083333334, "rental_uris": {"android": "https://dc.lft.to/lastmile_qr_scan", "ios": "https://dc.lft.to/lastmile_qr_scan"}, "fusion_lon": 0.0, "is_reserved": 0, "is_disabled": 0, "fusion_lat": 0.0, "type": "electric_scooter", "name": "ce154fbd52bacde68e027a49e0ebf295", "lat": 38.90812283333333, "bike_id": "ce154fbd52bacde68e027a49e0ebf295"}, {"lon": -77.045033, "rental_uris": {"android": "https://dc.lft.to/lastmile_qr_scan", "ios": "https://dc.lft.to/lastmile_qr_scan"}, "fusion_lon": 0.0, "is_reserved": 0, "is_disabled": 0, "fusion_lat": 0.0, "type": "electric_scooter", "name": "e3dfe70033ffe055dffdf44585b30451", "lat": 38.90564083333334, "bike_id": "e3dfe70033ffe055dffdf44585b30451"}, {"lon": -76.9374095, "rental_uris": {"android": "https://dc.lft.to/lastmile_qr_scan", "ios": "https://dc.lft.to/lastmile_qr_scan"}, "fusion_lon": 0.0, "is_reserved": 0, "is_disabled": 0, "fusion_lat": 0.0, "type": "electric_scooter", "name": "95a220cd52e1039ef80ae7bcdb3bd542", "lat": 38.89003066666667, "bike_id": "95a220cd52e1039ef80ae7bcdb3bd542"}, {"lon": -77.03542483333334, "rental_uris": {"android": "https://dc.lft.to/lastmile_qr_scan", "ios": "https://dc.lft.to/lastmile_qr_scan"}, "fusion_lon": 0.0, "is_reserved": 0, "is_disabled": 0, "fusion_lat": 0.0, "type": "electric_scooter", "name": "a32b9935cd7e0d88d0c35912fe14f6f6", "lat": 38.908229166666665, "bike_id": "a32b9935cd7e0d88d0c35912fe14f6f6"}, {"lon": -77.02215483333333, "rental_uris": {"android": "https://dc.lft.to/lastmile_qr_scan", "ios": "https://dc.lft.to/lastmile_qr_scan"}, "fusion_lon": 0.0, "is_reserved": 0, "is_disabled": 0, "fusion_lat": 0.0, "type": "electric_scooter", "name": "3f1631cc17f82bc309f84940e951650d", "lat": 38.92472516666667, "bike_id": "3f1631cc17f82bc309f84940e951650d"}, {"lon": -76.94251033333333, "rental_uris": {"android": "https://dc.lft.to/lastmile_qr_scan", "ios": "https://dc.lft.to/lastmile_qr_scan"}, "fusion_lon": 0.0, "is_reserved": 0, "is_disabled": 0, "fusion_lat": 0.0, "type": "electric_scooter", "name": "9e8ace9796dfce9489ce11ec5625c53f", "lat": 38.8984375, "bike_id": "9e8ace9796dfce9489ce11ec5625c53f"}, {"lon": -76.992566, "rental_uris": {"android": "https://dc.lft.to/lastmile_qr_scan", "ios": "https://dc.lft.to/lastmile_qr_scan"}, "fusion_lon": 0.0, "is_reserved": 0, "is_disabled": 0, "fusion_lat": 0.0, "type": "electric_scooter", "name": "181869e1bd879d41a20a4923c754c9af", "lat": 38.881808666666664, "bike_id": "181869e1bd879d41a20a4923c754c9af"}, {"lon": -77.00396483333333, "rental_uris": {"android": "https://dc.lft.to/lastmile_qr_scan", "ios": "https://dc.lft.to/lastmile_qr_scan"}, "fusion_lon": 0.0, "is_reserved": 0, "is_disabled": 0, "fusion_lat": 0.0, "type": "electric_scooter", "name": "98fca8fe0c39a332fd41f6ca9cce512d", "lat": 38.90771066666667, "bike_id": "98fca8fe0c39a332fd41f6ca9cce512d"}, {"lon": -77.03655333333333, "rental_uris": {"android": "https://dc.lft.to/lastmile_qr_scan", "ios": "https://dc.lft.to/lastmile_qr_scan"}, "fusion_lon": 0.0, "is_reserved": 0, "is_disabled": 0, "fusion_lat": 0.0, "type": "electric_scooter", "name": "5b36611bb3238faf7f5654638750a891", "lat": 38.9298435, "bike_id": "5b36611bb3238faf7f5654638750a891"}, {"lon": -77.02392716666667, "rental_uris": {"android": "https://dc.lft.to/lastmile_qr_scan", "ios": "https://dc.lft.to/lastmile_qr_scan"}, "fusion_lon": 0.0, "is_reserved": 0, "is_disabled": 0, "fusion_lat": 0.0, "type": "electric_scooter", "name": "517589520b21046ebde2981ee08ad738", "lat": 38.9041695, "bike_id": "517589520b21046ebde2981ee08ad738"}, {"lon": -77.04337916666667, "rental_uris": {"android": "https://dc.lft.to/lastmile_qr_scan", "ios": "https://dc.lft.to/lastmile_qr_scan"}, "fusion_lon": 0.0, "is_reserved": 0, "is_disabled": 0, "fusion_lat": 0.0, "type": "electric_scooter", "name": "a9ab28c49f8d619ca093b194e92e8ce6", "lat": 38.910477666666665, "bike_id": "a9ab28c49f8d619ca093b194e92e8ce6"}, {"lon": -77.04191516666667, "rental_uris": {"android": "https://dc.lft.to/lastmile_qr_scan", "ios": "https://dc.lft.to/lastmile_qr_scan"}, "fusion_lon": 0.0, "is_reserved": 0, "is_disabled": 0, "fusion_lat": 0.0, "type": "electric_scooter", "name": "46258cd39b23f10588171e0b00ec659f", "lat": 38.89221833333333, "bike_id": "46258cd39b23f10588171e0b00ec659f"}, {"lon": -77.07670516666667, "rental_uris": {"android": "https://dc.lft.to/lastmile_qr_scan", "ios": "https://dc.lft.to/lastmile_qr_scan"}, "fusion_lon": 0.0, "is_reserved": 0, "is_disabled": 0, "fusion_lat": 0.0, "type": "electric_bike", "name": "68456ca870ae1bd37d990c6639a9942d", "lat": 38.864989, "bike_id": "68456ca870ae1bd37d990c6639a9942d"}, {"lon": -77.01890666666667, "rental_uris": {"android": "https://dc.lft.to/lastmile_qr_scan", "ios": "https://dc.lft.to/lastmile_qr_scan"}, "fusion_lon": 0.0, "is_reserved": 0, "is_disabled": 0, "fusion_lat": 0.0, "type": "electric_scooter", "name": "b4330f20e09e21da4d017fc5d9e43950", "lat": 38.923357833333334, "bike_id": "b4330f20e09e21da4d017fc5d9e43950"}, {"lon": -77.01944583333334, "rental_uris": {"android": "https://dc.lft.to/lastmile_qr_scan", "ios": "https://dc.lft.to/lastmile_qr_scan"}, "fusion_lon": 0.0, "is_reserved": 0, "is_disabled": 0, "fusion_lat": 0.0, "type": "electric_scooter", "name": "141aa1b69d614ac4f258e7bcf5e3678e", "lat": 38.922489166666665, "bike_id": "141aa1b69d614ac4f258e7bcf5e3678e"}, {"lon": -77.02028033333333, "rental_uris": {"android": "https://dc.lft.to/lastmile_qr_scan", "ios": "https://dc.lft.to/lastmile_qr_scan"}, "fusion_lon": 0.0, "is_reserved": 0, "is_disabled": 0, "fusion_lat": 0.0, "type": "electric_scooter", "name": "2822f9fb84c72423ebd9b658a0f4a10b", "lat": 38.92249183333333, "bike_id": "2822f9fb84c72423ebd9b658a0f4a10b"}, {"lon": -77.12650366666666, "rental_uris": {"android": "https://dc.lft.to/lastmile_qr_scan", "ios": "https://dc.lft.to/lastmile_qr_scan"}, "fusion_lon": 0.0, "is_reserved": 0, "is_disabled": 0, "fusion_lat": 0.0, "type": "electric_bike", "name": "117e0b704e920368ad7c0dd7d4e5625f", "lat": 38.8191165, "bike_id": "117e0b704e920368ad7c0dd7d4e5625f"}, {"lon": -76.9961135, "rental_uris": {"android": "https://dc.lft.to/lastmile_qr_scan", "ios": "https://dc.lft.to/lastmile_qr_scan"}, "fusion_lon": 0.0, "is_reserved": 0, "is_disabled": 0, "fusion_lat": 0.0, "type": "electric_scooter", "name": "775aa3a49f77dfead51db32a7145b77c", "lat": 38.88526183333333, "bike_id": "775aa3a49f77dfead51db32a7145b77c"}, {"lon": -77.03518116666666, "rental_uris": {"android": "https://dc.lft.to/lastmile_qr_scan", "ios": "https://dc.lft.to/lastmile_qr_scan"}, "fusion_lon": 0.0, "is_reserved": 0, "is_disabled": 0, "fusion_lat": 0.0, "type": "electric_scooter", "name": "0c142fd44e73c7b8e19669e71d7100ce", "lat": 38.9187375, "bike_id": "0c142fd44e73c7b8e19669e71d7100ce"}, {"lon": -76.99571216666666, "rental_uris": {"android": "https://dc.lft.to/lastmile_qr_scan", "ios": "https://dc.lft.to/lastmile_qr_scan"}, "fusion_lon": 0.0, "is_reserved": 0, "is_disabled": 0, "fusion_lat": 0.0, "type": "electric_scooter", "name": "774c98087684abbc72b4c85d7bd00e31", "lat": 38.86272683333333, "bike_id": "774c98087684abbc72b4c85d7bd00e31"}, {"lon": -77.07271983333334, "rental_uris": {"android": "https://dc.lft.to/lastmile_qr_scan", "ios": "https://dc.lft.to/lastmile_qr_scan"}, "fusion_lon": 0.0, "is_reserved": 0, "is_disabled": 0, "fusion_lat": 0.0, "type": "electric_scooter", "name": "cf61c15d87ff316f0c88ff3c4baece4d", "lat": 38.9347015, "bike_id": "cf61c15d87ff316f0c88ff3c4baece4d"}, {"lon": -77.08968033333333, "rental_uris": {"android": "https://dc.lft.to/lastmile_qr_scan", "ios": "https://dc.lft.to/lastmile_qr_scan"}, "fusion_lon": 0.0, "is_reserved": 0, "is_disabled": 0, "fusion_lat": 0.0, "type": "electric_scooter", "name": "216c196f5672e4f6c62d5011d0de5585", "lat": 38.937043833333334, "bike_id": "216c196f5672e4f6c62d5011d0de5585"}, {"lon": -77.0280565, "rental_uris": {"android": "https://dc.lft.to/lastmile_qr_scan", "ios": "https://dc.lft.to/lastmile_qr_scan"}, "fusion_lon": 0.0, "is_reserved": 0, "is_disabled": 0, "fusion_lat": 0.0, "type": "electric_scooter", "name": "3a61d0df5e0b353424853674cd5fce0f", "lat": 38.9142695, "bike_id": "3a61d0df5e0b353424853674cd5fce0f"}, {"lon": -77.04877716666667, "rental_uris": {"android": "https://dc.lft.to/lastmile_qr_scan", "ios": "https://dc.lft.to/lastmile_qr_scan"}, "fusion_lon": 0.0, "is_reserved": 0, "is_disabled": 0, "fusion_lat": 0.0, "type": "electric_scooter", "name": "77cda91b1a9fc14c1450b27b45a9815a", "lat": 38.898893666666666, "bike_id": "77cda91b1a9fc14c1450b27b45a9815a"}, {"lon": -76.96501616666667, "rental_uris": {"android": "https://dc.lft.to/lastmile_qr_scan", "ios": "https://dc.lft.to/lastmile_qr_scan"}, "fusion_lon": 0.0, "is_reserved": 0, "is_disabled": 0, "fusion_lat": 0.0, "type": "electric_scooter", "name": "aa18a84c886f22f757805e7f21c87921", "lat": 38.876450166666665, "bike_id": "aa18a84c886f22f757805e7f21c87921"}, {"lon": -77.02398633333334, "rental_uris": {"android": "https://dc.lft.to/lastmile_qr_scan", "ios": "https://dc.lft.to/lastmile_qr_scan"}, "fusion_lon": 0.0, "is_reserved": 0, "is_disabled": 0, "fusion_lat": 0.0, "type": "electric_scooter", "name": "63a194ae6962e75005edfbc38011c7af", "lat": 38.95705866666667, "bike_id": "63a194ae6962e75005edfbc38011c7af"}, {"lon": -77.0176225, "rental_uris": {"android": "https://dc.lft.to/lastmile_qr_scan", "ios": "https://dc.lft.to/lastmile_qr_scan"}, "fusion_lon": 0.0, "is_reserved": 0, "is_disabled": 0, "fusion_lat": 0.0, "type": "electric_scooter", "name": "34c3cc513cc9858e65c5d3d4772fcb92", "lat": 38.938958666666664, "bike_id": "34c3cc513cc9858e65c5d3d4772fcb92"}, {"lon": -77.048862, "rental_uris": {"android": "https://dc.lft.to/lastmile_qr_scan", "ios": "https://dc.lft.to/lastmile_qr_scan"}, "fusion_lon": 0.0, "is_reserved": 0, "is_disabled": 0, "fusion_lat": 0.0, "type": "electric_scooter", "name": "083b29ab2d183a6ea691b140661616a0", "lat": 38.9123165, "bike_id": "083b29ab2d183a6ea691b140661616a0"}, {"lon": -77.04332933333333, "rental_uris": {"android": "https://dc.lft.to/lastmile_qr_scan", "ios": "https://dc.lft.to/lastmile_qr_scan"}, "fusion_lon": 0.0, "is_reserved": 0, "is_disabled": 0, "fusion_lat": 0.0, "type": "electric_scooter", "name": "7cb01b9ffc99f75278aaf0534793e366", "lat": 38.8922115, "bike_id": "7cb01b9ffc99f75278aaf0534793e366"}, {"lon": -76.96972483333333, "rental_uris": {"android": "https://dc.lft.to/lastmile_qr_scan", "ios": "https://dc.lft.to/lastmile_qr_scan"}, "fusion_lon": 0.0, "is_reserved": 0, "is_disabled": 0, "fusion_lat": 0.0, "type": "electric_scooter", "name": "5468a8cbb0ef685b118526347098f3b5", "lat": 38.87389266666667, "bike_id": "5468a8cbb0ef685b118526347098f3b5"}, {"lon": -76.97330916666667, "rental_uris": {"android": "https://dc.lft.to/lastmile_qr_scan", "ios": "https://dc.lft.to/lastmile_qr_scan"}, "fusion_lon": 0.0, "is_reserved": 0, "is_disabled": 0, "fusion_lat": 0.0, "type": "electric_scooter", "name": "a85347804ecc17dfa6fc7e6151ca50ff", "lat": 38.90411483333333, "bike_id": "a85347804ecc17dfa6fc7e6151ca50ff"}, {"lon": -77.115263, "rental_uris": {"android": "https://dc.lft.to/lastmile_qr_scan", "ios": "https://dc.lft.to/lastmile_qr_scan"}, "fusion_lon": 0.0, "is_reserved": 0, "is_disabled": 0, "fusion_lat": 0.0, "type": "electric_bike", "name": "a6e85f9d6fed9d5d174731c73eb8faf0", "lat": 39.070585333333334, "bike_id": "a6e85f9d6fed9d5d174731c73eb8faf0"}, {"lon": -77.07010333333334, "rental_uris": {"android": "https://dc.lft.to/lastmile_qr_scan", "ios": "https://dc.lft.to/lastmile_qr_scan"}, "fusion_lon": 0.0, "is_reserved": 0, "is_disabled": 0, "fusion_lat": 0.0, "type": "electric_bike", "name": "590c385401a3838747620052212e7ef1", "lat": 38.84110416666667, "bike_id": "590c385401a3838747620052212e7ef1"}, {"lon": -76.99549683333333, "rental_uris": {"android": "https://dc.lft.to/lastmile_qr_scan", "ios": "https://dc.lft.to/lastmile_qr_scan"}, "fusion_lon": 0.0, "is_reserved": 0, "is_disabled": 0, "fusion_lat": 0.0, "type": "electric_scooter", "name": "d8c8593b8c116d020b1a41e130cc6880", "lat": 38.86229466666666, "bike_id": "d8c8593b8c116d020b1a41e130cc6880"}, {"lon": -77.038319, "rental_uris": {"android": "https://dc.lft.to/lastmile_qr_scan", "ios": "https://dc.lft.to/lastmile_qr_scan"}, "fusion_lon": 0.0, "is_reserved": 0, "is_disabled": 0, "fusion_lat": 0.0, "type": "electric_scooter", "name": "0a64986776df4f1dc10fc606654f840a", "lat": 38.925519666666666, "bike_id": "0a64986776df4f1dc10fc606654f840a"}, {"lon": -77.18303566666667, "rental_uris": {"android": "https://dc.lft.to/lastmile_qr_scan", "ios": "https://dc.lft.to/lastmile_qr_scan"}, "fusion_lon": 0.0, "is_reserved": 0, "is_disabled": 0, "fusion_lat": 0.0, "type": "electric_bike", "name": "55c59bda57556f5d520ff07d922e1f37", "lat": 39.0996675, "bike_id": "55c59bda57556f5d520ff07d922e1f37"}, {"lon": -77.02137933333333, "rental_uris": {"android": "https://dc.lft.to/lastmile_qr_scan", "ios": "https://dc.lft.to/lastmile_qr_scan"}, "fusion_lon": 0.0, "is_reserved": 0, "is_disabled": 0, "fusion_lat": 0.0, "type": "electric_scooter", "name": "595c4434570d40481e6f028c559b22bc", "lat": 38.92504666666667, "bike_id": "595c4434570d40481e6f028c559b22bc"}, {"lon": -77.0365465, "rental_uris": {"android": "https://dc.lft.to/lastmile_qr_scan", "ios": "https://dc.lft.to/lastmile_qr_scan"}, "fusion_lon": 0.0, "is_reserved": 0, "is_disabled": 0, "fusion_lat": 0.0, "type": "electric_scooter", "name": "31e2111c12a0cc05a4a4db4354c418a3", "lat": 38.923078833333335, "bike_id": "31e2111c12a0cc05a4a4db4354c418a3"}, {"lon": -77.02242933333333, "rental_uris": {"android": "https://dc.lft.to/lastmile_qr_scan", "ios": "https://dc.lft.to/lastmile_qr_scan"}, "fusion_lon": 0.0, "is_reserved": 0, "is_disabled": 0, "fusion_lat": 0.0, "type": "electric_scooter", "name": "93618cdded51edf60020af557a1963c4", "lat": 38.91637866666667, "bike_id": "93618cdded51edf60020af557a1963c4"}, {"lon": -77.01939, "rental_uris": {"android": "https://dc.lft.to/lastmile_qr_scan", "ios": "https://dc.lft.to/lastmile_qr_scan"}, "fusion_lon": 0.0, "is_reserved": 0, "is_disabled": 0, "fusion_lat": 0.0, "type": "electric_scooter", "name": "db77ed232c042753f9e30f1d3d408f76", "lat": 38.90862766666667, "bike_id": "db77ed232c042753f9e30f1d3d408f76"}, {"lon": -77.00294966666667, "rental_uris": {"android": "https://dc.lft.to/lastmile_qr_scan", "ios": "https://dc.lft.to/lastmile_qr_scan"}, "fusion_lon": 0.0, "is_reserved": 0, "is_disabled": 0, "fusion_lat": 0.0, "type": "electric_scooter", "name": "5a69ed6db1c1c06bc6acbb7bdbe30b85", "lat": 38.892256833333334, "bike_id": "5a69ed6db1c1c06bc6acbb7bdbe30b85"}, {"lon": -76.93739516666666, "rental_uris": {"android": "https://dc.lft.to/lastmile_qr_scan", "ios": "https://dc.lft.to/lastmile_qr_scan"}, "fusion_lon": 0.0, "is_reserved": 0, "is_disabled": 0, "fusion_lat": 0.0, "type": "electric_scooter", "name": "c3dd38f1cf58a1fc4ebce8131dc3ec22", "lat": 38.89007866666667, "bike_id": "c3dd38f1cf58a1fc4ebce8131dc3ec22"}, {"lon": -77.02909516666666, "rental_uris": {"android": "https://dc.lft.to/lastmile_qr_scan", "ios": "https://dc.lft.to/lastmile_qr_scan"}, "fusion_lon": 0.0, "is_reserved": 0, "is_disabled": 0, "fusion_lat": 0.0, "type": "electric_scooter", "name": "1cddf804080b64343f9624713795e7fb", "lat": 38.8996365, "bike_id": "1cddf804080b64343f9624713795e7fb"}, {"lon": -77.0305195, "rental_uris": {"android": "https://dc.lft.to/lastmile_qr_scan", "ios": "https://dc.lft.to/lastmile_qr_scan"}, "fusion_lon": 0.0, "is_reserved": 0, "is_disabled": 0, "fusion_lat": 0.0, "type": "electric_bike", "name": "65afbe62df3ce611a85898c90efd3cdb", "lat": 38.95955633333333, "bike_id": "65afbe62df3ce611a85898c90efd3cdb"}, {"lon": -76.98338366666667, "rental_uris": {"android": "https://dc.lft.to/lastmile_qr_scan", "ios": "https://dc.lft.to/lastmile_qr_scan"}, "fusion_lon": 0.0, "is_reserved": 0, "is_disabled": 0, "fusion_lat": 0.0, "type": "electric_scooter", "name": "d148dc1d022936c6780c2dc5f7050b0e", "lat": 38.89548766666667, "bike_id": "d148dc1d022936c6780c2dc5f7050b0e"}, {"lon": -76.95755183333333, "rental_uris": {"android": "https://dc.lft.to/lastmile_qr_scan", "ios": "https://dc.lft.to/lastmile_qr_scan"}, "fusion_lon": 0.0, "is_reserved": 0, "is_disabled": 0, "fusion_lat": 0.0, "type": "electric_scooter", "name": "690e5ee760227f308843276ddb9ae066", "lat": 38.88431583333333, "bike_id": "690e5ee760227f308843276ddb9ae066"}, {"lon": -77.0242835, "rental_uris": {"android": "https://dc.lft.to/lastmile_qr_scan", "ios": "https://dc.lft.to/lastmile_qr_scan"}, "fusion_lon": 0.0, "is_reserved": 0, "is_disabled": 0, "fusion_lat": 0.0, "type": "electric_scooter", "name": "4dabec7a74d81e6a60731b34548f624c", "lat": 38.96800616666667, "bike_id": "4dabec7a74d81e6a60731b34548f624c"}, {"lon": -76.99654666666666, "rental_uris": {"android": "https://dc.lft.to/lastmile_qr_scan", "ios": "https://dc.lft.to/lastmile_qr_scan"}, "fusion_lon": 0.0, "is_reserved": 0, "is_disabled": 0, "fusion_lat": 0.0, "type": "electric_bike", "name": "3ce23d119ac3cf4aee0622b3d7f32340", "lat": 38.838375666666664, "bike_id": "3ce23d119ac3cf4aee0622b3d7f32340"}, {"lon": -76.98247483333333, "rental_uris": {"android": "https://dc.lft.to/lastmile_qr_scan", "ios": "https://dc.lft.to/lastmile_qr_scan"}, "fusion_lon": 0.0, "is_reserved": 0, "is_disabled": 0, "fusion_lat": 0.0, "type": "electric_bike", "name": "5202329496106f4dc248f24cd383e7fc", "lat": 38.95328283333333, "bike_id": "5202329496106f4dc248f24cd383e7fc"}, {"lon": -76.93424816666666, "rental_uris": {"android": "https://dc.lft.to/lastmile_qr_scan", "ios": "https://dc.lft.to/lastmile_qr_scan"}, "fusion_lon": 0.0, "is_reserved": 0, "is_disabled": 0, "fusion_lat": 0.0, "type": "electric_scooter", "name": "c8bef6a0e8cbb1ef2475a85b011cea30", "lat": 38.893427333333335, "bike_id": "c8bef6a0e8cbb1ef2475a85b011cea30"}, {"lon": -77.04829933333333, "rental_uris": {"android": "https://dc.lft.to/lastmile_qr_scan", "ios": "https://dc.lft.to/lastmile_qr_scan"}, "fusion_lon": 0.0, "is_reserved": 0, "is_disabled": 0, "fusion_lat": 0.0, "type": "electric_scooter", "name": "34a08a7b8f8b301456ee1bbc15c18b53", "lat": 38.90521233333333, "bike_id": "34a08a7b8f8b301456ee1bbc15c18b53"}, {"lon": -77.02493483333333, "rental_uris": {"android": "https://dc.lft.to/lastmile_qr_scan", "ios": "https://dc.lft.to/lastmile_qr_scan"}, "fusion_lon": 0.0, "is_reserved": 0, "is_disabled": 0, "fusion_lat": 0.0, "type": "electric_scooter", "name": "0231d2e60f4cbbb2dd3069ffb4f09d36", "lat": 38.9304405, "bike_id": "0231d2e60f4cbbb2dd3069ffb4f09d36"}, {"lon": -77.03183616666666, "rental_uris": {"android": "https://dc.lft.to/lastmile_qr_scan", "ios": "https://dc.lft.to/lastmile_qr_scan"}, "fusion_lon": 0.0, "is_reserved": 0, "is_disabled": 0, "fusion_lat": 0.0, "type": "electric_scooter", "name": "52a1df2d6de3efdb4b8c112d5acdea8c", "lat": 38.8840335, "bike_id": "52a1df2d6de3efdb4b8c112d5acdea8c"}, {"lon": -77.043854, "rental_uris": {"android": "https://dc.lft.to/lastmile_qr_scan", "ios": "https://dc.lft.to/lastmile_qr_scan"}, "fusion_lon": 0.0, "is_reserved": 0, "is_disabled": 0, "fusion_lat": 0.0, "type": "electric_scooter", "name": "76c299733902c83f4f81c9553c511e32", "lat": 38.897361333333336, "bike_id": "76c299733902c83f4f81c9553c511e32"}, {"lon": -77.037559, "rental_uris": {"android": "https://dc.lft.to/lastmile_qr_scan", "ios": "https://dc.lft.to/lastmile_qr_scan"}, "fusion_lon": 0.0, "is_reserved": 0, "is_disabled": 0, "fusion_lat": 0.0, "type": "electric_scooter", "name": "6dc9b1a531242866f7c6f730d4f616f7", "lat": 38.935963666666666, "bike_id": "6dc9b1a531242866f7c6f730d4f616f7"}, {"lon": -77.031492, "rental_uris": {"android": "https://dc.lft.to/lastmile_qr_scan", "ios": "https://dc.lft.to/lastmile_qr_scan"}, "fusion_lon": 0.0, "is_reserved": 0, "is_disabled": 0, "fusion_lat": 0.0, "type": "electric_scooter", "name": "ff86ebc9b80234b94097edb0fe1d56ea", "lat": 38.915609333333336, "bike_id": "ff86ebc9b80234b94097edb0fe1d56ea"}, {"lon": -76.99772433333334, "rental_uris": {"android": "https://dc.lft.to/lastmile_qr_scan", "ios": "https://dc.lft.to/lastmile_qr_scan"}, "fusion_lon": 0.0, "is_reserved": 0, "is_disabled": 0, "fusion_lat": 0.0, "type": "electric_scooter", "name": "b8b9818c9d6dbd5aca7dd875f7bdc4b8", "lat": 38.92293, "bike_id": "b8b9818c9d6dbd5aca7dd875f7bdc4b8"}, {"lon": -76.94930183333334, "rental_uris": {"android": "https://dc.lft.to/lastmile_qr_scan", "ios": "https://dc.lft.to/lastmile_qr_scan"}, "fusion_lon": 0.0, "is_reserved": 0, "is_disabled": 0, "fusion_lat": 0.0, "type": "electric_scooter", "name": "db8b2b8e497aec775fa4d0c4c9b8c5a7", "lat": 38.895292833333336, "bike_id": "db8b2b8e497aec775fa4d0c4c9b8c5a7"}, {"lon": -77.02179216666667, "rental_uris": {"android": "https://dc.lft.to/lastmile_qr_scan", "ios": "https://dc.lft.to/lastmile_qr_scan"}, "fusion_lon": 0.0, "is_reserved": 0, "is_disabled": 0, "fusion_lat": 0.0, "type": "electric_scooter", "name": "6dee71d0ed1c45d7de552aa0a6a663b6", "lat": 38.89228133333334, "bike_id": "6dee71d0ed1c45d7de552aa0a6a663b6"}, {"lon": -76.98606216666667, "rental_uris": {"android": "https://dc.lft.to/lastmile_qr_scan", "ios": "https://dc.lft.to/lastmile_qr_scan"}, "fusion_lon": 0.0, "is_reserved": 0, "is_disabled": 0, "fusion_lat": 0.0, "type": "electric_scooter", "name": "ce8a1d765d7da2a53e8fbd80185ee802", "lat": 38.938980666666666, "bike_id": "ce8a1d765d7da2a53e8fbd80185ee802"}, {"lon": -77.05105866666666, "rental_uris": {"android": "https://dc.lft.to/lastmile_qr_scan", "ios": "https://dc.lft.to/lastmile_qr_scan"}, "fusion_lon": 0.0, "is_reserved": 0, "is_disabled": 0, "fusion_lat": 0.0, "type": "electric_scooter", "name": "361589b44558a00c851a27f70d52f258", "lat": 38.9235765, "bike_id": "361589b44558a00c851a27f70d52f258"}, {"lon": -77.0034245, "rental_uris": {"android": "https://dc.lft.to/lastmile_qr_scan", "ios": "https://dc.lft.to/lastmile_qr_scan"}, "fusion_lon": 0.0, "is_reserved": 0, "is_disabled": 0, "fusion_lat": 0.0, "type": "electric_scooter", "name": "14e9dfa3db033e85ba09f6ce15a8aa4c", "lat": 38.891815666666666, "bike_id": "14e9dfa3db033e85ba09f6ce15a8aa4c"}, {"lon": -77.0054335, "rental_uris": {"android": "https://dc.lft.to/lastmile_qr_scan", "ios": "https://dc.lft.to/lastmile_qr_scan"}, "fusion_lon": 0.0, "is_reserved": 0, "is_disabled": 0, "fusion_lat": 0.0, "type": "electric_scooter", "name": "60c2af7ebbe4ec2d1a01c955645f1e03", "lat": 38.874561, "bike_id": "60c2af7ebbe4ec2d1a01c955645f1e03"}, {"lon": -77.032685, "rental_uris": {"android": "https://dc.lft.to/lastmile_qr_scan", "ios": "https://dc.lft.to/lastmile_qr_scan"}, "fusion_lon": 0.0, "is_reserved": 0, "is_disabled": 0, "fusion_lat": 0.0, "type": "electric_scooter", "name": "5ce653e18357cf6b3d4f93ad8438b65b", "lat": 38.91559633333333, "bike_id": "5ce653e18357cf6b3d4f93ad8438b65b"}, {"lon": -76.9914575, "rental_uris": {"android": "https://dc.lft.to/lastmile_qr_scan", "ios": "https://dc.lft.to/lastmile_qr_scan"}, "fusion_lon": 0.0, "is_reserved": 0, "is_disabled": 0, "fusion_lat": 0.0, "type": "electric_scooter", "name": "0f7a649c7cd2a2fa933707840fea5883", "lat": 38.882345666666666, "bike_id": "0f7a649c7cd2a2fa933707840fea5883"}, {"lon": -77.02476333333334, "rental_uris": {"android": "https://dc.lft.to/lastmile_qr_scan", "ios": "https://dc.lft.to/lastmile_qr_scan"}, "fusion_lon": 0.0, "is_reserved": 0, "is_disabled": 0, "fusion_lat": 0.0, "type": "electric_scooter", "name": "72e9f8e0c1c3f8f3c5825e9163601a30", "lat": 38.918139, "bike_id": "72e9f8e0c1c3f8f3c5825e9163601a30"}, {"lon": -77.01219416666666, "rental_uris": {"android": "https://dc.lft.to/lastmile_qr_scan", "ios": "https://dc.lft.to/lastmile_qr_scan"}, "fusion_lon": 0.0, "is_reserved": 0, "is_disabled": 0, "fusion_lat": 0.0, "type": "electric_scooter", "name": "5ddf1d9f00e85a8a1b858fc500cf1701", "lat": 38.900404, "bike_id": "5ddf1d9f00e85a8a1b858fc500cf1701"}, {"lon": -76.98279716666667, "rental_uris": {"android": "https://dc.lft.to/lastmile_qr_scan", "ios": "https://dc.lft.to/lastmile_qr_scan"}, "fusion_lon": 0.0, "is_reserved": 0, "is_disabled": 0, "fusion_lat": 0.0, "type": "electric_bike", "name": "1f891b9cb1153cea5d56375881b98abd", "lat": 38.906314, "bike_id": "1f891b9cb1153cea5d56375881b98abd"}, {"lon": -77.02249483333334, "rental_uris": {"android": "https://dc.lft.to/lastmile_qr_scan", "ios": "https://dc.lft.to/lastmile_qr_scan"}, "fusion_lon": 0.0, "is_reserved": 0, "is_disabled": 0, "fusion_lat": 0.0, "type": "electric_scooter", "name": "0b220481e32928d293209051f885b3c5", "lat": 38.923754, "bike_id": "0b220481e32928d293209051f885b3c5"}, {"lon": -77.04252733333334, "rental_uris": {"android": "https://dc.lft.to/lastmile_qr_scan", "ios": "https://dc.lft.to/lastmile_qr_scan"}, "fusion_lon": 0.0, "is_reserved": 0, "is_disabled": 0, "fusion_lat": 0.0, "type": "electric_scooter", "name": "2c80d3d72a87549c27d31e48af542da0", "lat": 38.9221955, "bike_id": "2c80d3d72a87549c27d31e48af542da0"}, {"lon": -77.007381, "rental_uris": {"android": "https://dc.lft.to/lastmile_qr_scan", "ios": "https://dc.lft.to/lastmile_qr_scan"}, "fusion_lon": 0.0, "is_reserved": 0, "is_disabled": 0, "fusion_lat": 0.0, "type": "electric_scooter", "name": "1785471c1d9195aefa9224cc1a13cf95", "lat": 38.898944666666665, "bike_id": "1785471c1d9195aefa9224cc1a13cf95"}, {"lon": -77.03282016666667, "rental_uris": {"android": "https://dc.lft.to/lastmile_qr_scan", "ios": "https://dc.lft.to/lastmile_qr_scan"}, "fusion_lon": 0.0, "is_reserved": 0, "is_disabled": 0, "fusion_lat": 0.0, "type": "electric_scooter", "name": "228db24aaf6908701f6749dd5c3f5d5f", "lat": 38.932568, "bike_id": "228db24aaf6908701f6749dd5c3f5d5f"}, {"lon": -77.01917866666666, "rental_uris": {"android": "https://dc.lft.to/lastmile_qr_scan", "ios": "https://dc.lft.to/lastmile_qr_scan"}, "fusion_lon": 0.0, "is_reserved": 0, "is_disabled": 0, "fusion_lat": 0.0, "type": "electric_scooter", "name": "3c816cb990c74d4b55f2989c8bc34b91", "lat": 38.9227055, "bike_id": "3c816cb990c74d4b55f2989c8bc34b91"}, {"lon": -77.0511895, "rental_uris": {"android": "https://dc.lft.to/lastmile_qr_scan", "ios": "https://dc.lft.to/lastmile_qr_scan"}, "fusion_lon": 0.0, "is_reserved": 0, "is_disabled": 0, "fusion_lat": 0.0, "type": "electric_scooter", "name": "757f86785628dbfcafef6e4bcfe9cdd2", "lat": 38.906391166666666, "bike_id": "757f86785628dbfcafef6e4bcfe9cdd2"}, {"lon": -77.04738766666667, "rental_uris": {"android": "https://dc.lft.to/lastmile_qr_scan", "ios": "https://dc.lft.to/lastmile_qr_scan"}, "fusion_lon": 0.0, "is_reserved": 0, "is_disabled": 0, "fusion_lat": 0.0, "type": "electric_scooter", "name": "eb9c7d6b504aa957b2ecb5043051b563", "lat": 38.90533166666667, "bike_id": "eb9c7d6b504aa957b2ecb5043051b563"}, {"lon": -77.03211366666666, "rental_uris": {"android": "https://dc.lft.to/lastmile_qr_scan", "ios": "https://dc.lft.to/lastmile_qr_scan"}, "fusion_lon": 0.0, "is_reserved": 0, "is_disabled": 0, "fusion_lat": 0.0, "type": "electric_scooter", "name": "992aba7f312304223a3492e0db4ebbfd", "lat": 38.90899783333333, "bike_id": "992aba7f312304223a3492e0db4ebbfd"}, {"lon": -76.9784875, "rental_uris": {"android": "https://dc.lft.to/lastmile_qr_scan", "ios": "https://dc.lft.to/lastmile_qr_scan"}, "fusion_lon": 0.0, "is_reserved": 0, "is_disabled": 0, "fusion_lat": 0.0, "type": "electric_scooter", "name": "627c3033009c19c174da41a3901d77d5", "lat": 38.86968816666667, "bike_id": "627c3033009c19c174da41a3901d77d5"}, {"lon": -77.00752383333334, "rental_uris": {"android": "https://dc.lft.to/lastmile_qr_scan", "ios": "https://dc.lft.to/lastmile_qr_scan"}, "fusion_lon": 0.0, "is_reserved": 0, "is_disabled": 0, "fusion_lat": 0.0, "type": "electric_scooter", "name": "e69fef5a0ee237e670f1dae2d34c3e86", "lat": 38.871111166666665, "bike_id": "e69fef5a0ee237e670f1dae2d34c3e86"}, {"lon": -77.04995566666666, "rental_uris": {"android": "https://dc.lft.to/lastmile_qr_scan", "ios": "https://dc.lft.to/lastmile_qr_scan"}, "fusion_lon": 0.0, "is_reserved": 0, "is_disabled": 0, "fusion_lat": 0.0, "type": "electric_scooter", "name": "3097f390b5a1fc7f75446fc3980864d4", "lat": 38.89874616666667, "bike_id": "3097f390b5a1fc7f75446fc3980864d4"}, {"lon": -77.01933216666667, "rental_uris": {"android": "https://dc.lft.to/lastmile_qr_scan", "ios": "https://dc.lft.to/lastmile_qr_scan"}, "fusion_lon": 0.0, "is_reserved": 0, "is_disabled": 0, "fusion_lat": 0.0, "type": "electric_scooter", "name": "c8593a044ed3243b35696bac0e600507", "lat": 38.92251, "bike_id": "c8593a044ed3243b35696bac0e600507"}, {"lon": -77.0433565, "rental_uris": {"android": "https://dc.lft.to/lastmile_qr_scan", "ios": "https://dc.lft.to/lastmile_qr_scan"}, "fusion_lon": 0.0, "is_reserved": 0, "is_disabled": 0, "fusion_lat": 0.0, "type": "electric_scooter", "name": "b3630398a79e58219b639e993d3adc9f", "lat": 38.90054666666666, "bike_id": "b3630398a79e58219b639e993d3adc9f"}, {"lon": -77.04149316666667, "rental_uris": {"android": "https://dc.lft.to/lastmile_qr_scan", "ios": "https://dc.lft.to/lastmile_qr_scan"}, "fusion_lon": 0.0, "is_reserved": 0, "is_disabled": 0, "fusion_lat": 0.0, "type": "electric_scooter", "name": "af0d2a13329c2c2d28132a88b32eafca", "lat": 38.903619166666665, "bike_id": "af0d2a13329c2c2d28132a88b32eafca"}, {"lon": -77.04885483333334, "rental_uris": {"android": "https://dc.lft.to/lastmile_qr_scan", "ios": "https://dc.lft.to/lastmile_qr_scan"}, "fusion_lon": 0.0, "is_reserved": 0, "is_disabled": 0, "fusion_lat": 0.0, "type": "electric_scooter", "name": "36f10c06fc6972b55c8d52e2c440c6bb", "lat": 38.89964716666667, "bike_id": "36f10c06fc6972b55c8d52e2c440c6bb"}, {"lon": -77.02155266666666, "rental_uris": {"android": "https://dc.lft.to/lastmile_qr_scan", "ios": "https://dc.lft.to/lastmile_qr_scan"}, "fusion_lon": 0.0, "is_reserved": 0, "is_disabled": 0, "fusion_lat": 0.0, "type": "electric_scooter", "name": "0a0366c4f5cf35cde173c190d1d6d153", "lat": 38.894056666666664, "bike_id": "0a0366c4f5cf35cde173c190d1d6d153"}, {"lon": -77.01360683333333, "rental_uris": {"android": "https://dc.lft.to/lastmile_qr_scan", "ios": "https://dc.lft.to/lastmile_qr_scan"}, "fusion_lon": 0.0, "is_reserved": 0, "is_disabled": 0, "fusion_lat": 0.0, "type": "electric_scooter", "name": "4afc55c7f96bd59d449c36bff6e176ce", "lat": 38.872673, "bike_id": "4afc55c7f96bd59d449c36bff6e176ce"}, {"lon": -77.038475, "rental_uris": {"android": "https://dc.lft.to/lastmile_qr_scan", "ios": "https://dc.lft.to/lastmile_qr_scan"}, "fusion_lon": 0.0, "is_reserved": 0, "is_disabled": 0, "fusion_lat": 0.0, "type": "electric_scooter", "name": "9ebd15c610da3695e7925fd68985efcf", "lat": 38.919656333333336, "bike_id": "9ebd15c610da3695e7925fd68985efcf"}, {"lon": -77.022182, "rental_uris": {"android": "https://dc.lft.to/lastmile_qr_scan", "ios": "https://dc.lft.to/lastmile_qr_scan"}, "fusion_lon": 0.0, "is_reserved": 0, "is_disabled": 0, "fusion_lat": 0.0, "type": "electric_scooter", "name": "90a20c3d0f7dcfc75d13d979d5609c5a", "lat": 38.892197833333334, "bike_id": "90a20c3d0f7dcfc75d13d979d5609c5a"}, {"lon": -77.02754866666666, "rental_uris": {"android": "https://dc.lft.to/lastmile_qr_scan", "ios": "https://dc.lft.to/lastmile_qr_scan"}, "fusion_lon": 0.0, "is_reserved": 0, "is_disabled": 0, "fusion_lat": 0.0, "type": "electric_scooter", "name": "dbd64f4edfe947c7325ff04b1ea7a99f", "lat": 38.927795333333336, "bike_id": "dbd64f4edfe947c7325ff04b1ea7a99f"}, {"lon": -77.038023, "rental_uris": {"android": "https://dc.lft.to/lastmile_qr_scan", "ios": "https://dc.lft.to/lastmile_qr_scan"}, "fusion_lon": 0.0, "is_reserved": 0, "is_disabled": 0, "fusion_lat": 0.0, "type": "electric_scooter", "name": "5d2ea61084c9f1b8fb2cbf6556f2b6e2", "lat": 38.90663166666667, "bike_id": "5d2ea61084c9f1b8fb2cbf6556f2b6e2"}, {"lon": -77.005346, "rental_uris": {"android": "https://dc.lft.to/lastmile_qr_scan", "ios": "https://dc.lft.to/lastmile_qr_scan"}, "fusion_lon": 0.0, "is_reserved": 0, "is_disabled": 0, "fusion_lat": 0.0, "type": "electric_scooter", "name": "4eb02cb4eeca7eee56fb4db1e2dda50d", "lat": 38.88500166666667, "bike_id": "4eb02cb4eeca7eee56fb4db1e2dda50d"}, {"lon": -77.019466, "rental_uris": {"android": "https://dc.lft.to/lastmile_qr_scan", "ios": "https://dc.lft.to/lastmile_qr_scan"}, "fusion_lon": 0.0, "is_reserved": 0, "is_disabled": 0, "fusion_lat": 0.0, "type": "electric_scooter", "name": "c8f7324c3e4326c525d44773c58e89e2", "lat": 38.92248683333333, "bike_id": "c8f7324c3e4326c525d44773c58e89e2"}, {"lon": -76.973269, "rental_uris": {"android": "https://dc.lft.to/lastmile_qr_scan", "ios": "https://dc.lft.to/lastmile_qr_scan"}, "fusion_lon": 0.0, "is_reserved": 0, "is_disabled": 0, "fusion_lat": 0.0, "type": "electric_scooter", "name": "b208c5734c0fa4c97736e191ed05d927", "lat": 38.9041015, "bike_id": "b208c5734c0fa4c97736e191ed05d927"}, {"lon": -76.93496166666667, "rental_uris": {"android": "https://dc.lft.to/lastmile_qr_scan", "ios": "https://dc.lft.to/lastmile_qr_scan"}, "fusion_lon": 0.0, "is_reserved": 0, "is_disabled": 0, "fusion_lat": 0.0, "type": "electric_scooter", "name": "763f98ed5adf9c5072a4cd346986258c", "lat": 38.883390166666665, "bike_id": "763f98ed5adf9c5072a4cd346986258c"}, {"lon": -77.0349995, "rental_uris": {"android": "https://dc.lft.to/lastmile_qr_scan", "ios": "https://dc.lft.to/lastmile_qr_scan"}, "fusion_lon": 0.0, "is_reserved": 0, "is_disabled": 0, "fusion_lat": 0.0, "type": "electric_scooter", "name": "81fa36aa6611091e42bd8df0c3ded369", "lat": 38.923383666666666, "bike_id": "81fa36aa6611091e42bd8df0c3ded369"}, {"lon": -77.03153316666666, "rental_uris": {"android": "https://dc.lft.to/lastmile_qr_scan", "ios": "https://dc.lft.to/lastmile_qr_scan"}, "fusion_lon": 0.0, "is_reserved": 0, "is_disabled": 0, "fusion_lat": 0.0, "type": "electric_scooter", "name": "964ddad1fd895ae866fb5c8ef7e25224", "lat": 38.91691083333333, "bike_id": "964ddad1fd895ae866fb5c8ef7e25224"}, {"lon": -77.02586783333334, "rental_uris": {"android": "https://dc.lft.to/lastmile_qr_scan", "ios": "https://dc.lft.to/lastmile_qr_scan"}, "fusion_lon": 0.0, "is_reserved": 0, "is_disabled": 0, "fusion_lat": 0.0, "type": "electric_scooter", "name": "69f17420785d0e86771bc119f1defbc6", "lat": 38.918183666666664, "bike_id": "69f17420785d0e86771bc119f1defbc6"}, {"lon": -77.02412516666666, "rental_uris": {"android": "https://dc.lft.to/lastmile_qr_scan", "ios": "https://dc.lft.to/lastmile_qr_scan"}, "fusion_lon": 0.0, "is_reserved": 0, "is_disabled": 0, "fusion_lat": 0.0, "type": "electric_scooter", "name": "9f47b1119101f979ce1157b6a2f7df0f", "lat": 38.895152833333334, "bike_id": "9f47b1119101f979ce1157b6a2f7df0f"}, {"lon": -77.0567815, "rental_uris": {"android": "https://dc.lft.to/lastmile_qr_scan", "ios": "https://dc.lft.to/lastmile_qr_scan"}, "fusion_lon": 0.0, "is_reserved": 0, "is_disabled": 0, "fusion_lat": 0.0, "type": "electric_scooter", "name": "2bfecd52cd03398dc348153e4a85e77b", "lat": 38.923303833333335, "bike_id": "2bfecd52cd03398dc348153e4a85e77b"}, {"lon": -77.03281133333333, "rental_uris": {"android": "https://dc.lft.to/lastmile_qr_scan", "ios": "https://dc.lft.to/lastmile_qr_scan"}, "fusion_lon": 0.0, "is_reserved": 0, "is_disabled": 0, "fusion_lat": 0.0, "type": "electric_scooter", "name": "0558346c0352d74a51bea0da9aaa66cd", "lat": 38.929310666666666, "bike_id": "0558346c0352d74a51bea0da9aaa66cd"}, {"lon": -77.021486, "rental_uris": {"android": "https://dc.lft.to/lastmile_qr_scan", "ios": "https://dc.lft.to/lastmile_qr_scan"}, "fusion_lon": 0.0, "is_reserved": 0, "is_disabled": 0, "fusion_lat": 0.0, "type": "electric_scooter", "name": "69e6c712000b96cb890f4349401ce6ed", "lat": 38.90258683333333, "bike_id": "69e6c712000b96cb890f4349401ce6ed"}, {"lon": -77.03402866666667, "rental_uris": {"android": "https://dc.lft.to/lastmile_qr_scan", "ios": "https://dc.lft.to/lastmile_qr_scan"}, "fusion_lon": 0.0, "is_reserved": 0, "is_disabled": 0, "fusion_lat": 0.0, "type": "electric_scooter", "name": "cb41c6db7921bf1a722c056e7e738264", "lat": 38.902684666666666, "bike_id": "cb41c6db7921bf1a722c056e7e738264"}, {"lon": -76.99910066666666, "rental_uris": {"android": "https://dc.lft.to/lastmile_qr_scan", "ios": "https://dc.lft.to/lastmile_qr_scan"}, "fusion_lon": 0.0, "is_reserved": 0, "is_disabled": 0, "fusion_lat": 0.0, "type": "electric_scooter", "name": "8d65637aadc35a3be28a6d5d87823d8e", "lat": 38.84345283333333, "bike_id": "8d65637aadc35a3be28a6d5d87823d8e"}, {"lon": -77.01094466666666, "rental_uris": {"android": "https://dc.lft.to/lastmile_qr_scan", "ios": "https://dc.lft.to/lastmile_qr_scan"}, "fusion_lon": 0.0, "is_reserved": 0, "is_disabled": 0, "fusion_lat": 0.0, "type": "electric_bike", "name": "5d01fd070717c63290295c094330b58e", "lat": 38.873028, "bike_id": "5d01fd070717c63290295c094330b58e"}, {"lon": -77.0400095, "rental_uris": {"android": "https://dc.lft.to/lastmile_qr_scan", "ios": "https://dc.lft.to/lastmile_qr_scan"}, "fusion_lon": 0.0, "is_reserved": 0, "is_disabled": 0, "fusion_lat": 0.0, "type": "electric_scooter", "name": "87a509d9996d7c411d6d993a6acb7a22", "lat": 38.93433366666667, "bike_id": "87a509d9996d7c411d6d993a6acb7a22"}, {"lon": -77.031635, "rental_uris": {"android": "https://dc.lft.to/lastmile_qr_scan", "ios": "https://dc.lft.to/lastmile_qr_scan"}, "fusion_lon": 0.0, "is_reserved": 0, "is_disabled": 0, "fusion_lat": 0.0, "type": "electric_scooter", "name": "b1611ff6f8084f4789e3e55607950e20", "lat": 38.914158666666665, "bike_id": "b1611ff6f8084f4789e3e55607950e20"}, {"lon": -77.022353, "rental_uris": {"android": "https://dc.lft.to/lastmile_qr_scan", "ios": "https://dc.lft.to/lastmile_qr_scan"}, "fusion_lon": 0.0, "is_reserved": 0, "is_disabled": 0, "fusion_lat": 0.0, "type": "electric_bike", "name": "74b1b2ed7c4412660dccb5d508e7573b", "lat": 38.96447, "bike_id": "74b1b2ed7c4412660dccb5d508e7573b"}, {"lon": -77.01943433333334, "rental_uris": {"android": "https://dc.lft.to/lastmile_qr_scan", "ios": "https://dc.lft.to/lastmile_qr_scan"}, "fusion_lon": 0.0, "is_reserved": 0, "is_disabled": 0, "fusion_lat": 0.0, "type": "electric_scooter", "name": "39ec375eb9acd078b6fe0c25171d2072", "lat": 38.92417666666667, "bike_id": "39ec375eb9acd078b6fe0c25171d2072"}, {"lon": -77.04477866666667, "rental_uris": {"android": "https://dc.lft.to/lastmile_qr_scan", "ios": "https://dc.lft.to/lastmile_qr_scan"}, "fusion_lon": 0.0, "is_reserved": 0, "is_disabled": 0, "fusion_lat": 0.0, "type": "electric_scooter", "name": "4cc4e3283fdde701aa007fb329548103", "lat": 38.919282333333335, "bike_id": "4cc4e3283fdde701aa007fb329548103"}, {"lon": -77.00063283333333, "rental_uris": {"android": "https://dc.lft.to/lastmile_qr_scan", "ios": "https://dc.lft.to/lastmile_qr_scan"}, "fusion_lon": 0.0, "is_reserved": 0, "is_disabled": 0, "fusion_lat": 0.0, "type": "electric_scooter", "name": "2fc6ca83be0eb8248c87ad7a9c4e3ce6", "lat": 38.87691866666667, "bike_id": "2fc6ca83be0eb8248c87ad7a9c4e3ce6"}, {"lon": -77.00723133333334, "rental_uris": {"android": "https://dc.lft.to/lastmile_qr_scan", "ios": "https://dc.lft.to/lastmile_qr_scan"}, "fusion_lon": 0.0, "is_reserved": 0, "is_disabled": 0, "fusion_lat": 0.0, "type": "electric_scooter", "name": "d1ea025bc15d818bc559c33e6ef2b3e1", "lat": 38.8782285, "bike_id": "d1ea025bc15d818bc559c33e6ef2b3e1"}, {"lon": -77.01214383333334, "rental_uris": {"android": "https://dc.lft.to/lastmile_qr_scan", "ios": "https://dc.lft.to/lastmile_qr_scan"}, "fusion_lon": 0.0, "is_reserved": 0, "is_disabled": 0, "fusion_lat": 0.0, "type": "electric_scooter", "name": "599b565d83a395bc3b05b7d7e497728f", "lat": 38.92030333333334, "bike_id": "599b565d83a395bc3b05b7d7e497728f"}, {"lon": -77.065198, "rental_uris": {"android": "https://dc.lft.to/lastmile_qr_scan", "ios": "https://dc.lft.to/lastmile_qr_scan"}, "fusion_lon": 0.0, "is_reserved": 0, "is_disabled": 0, "fusion_lat": 0.0, "type": "electric_scooter", "name": "f4a254c60d966326ebbeb8483c82aa33", "lat": 38.9241735, "bike_id": "f4a254c60d966326ebbeb8483c82aa33"}, {"lon": -77.07695633333333, "rental_uris": {"android": "https://dc.lft.to/lastmile_qr_scan", "ios": "https://dc.lft.to/lastmile_qr_scan"}, "fusion_lon": 0.0, "is_reserved": 0, "is_disabled": 0, "fusion_lat": 0.0, "type": "electric_scooter", "name": "98ef282e334126ee7955bce31f2216af", "lat": 38.93153816666667, "bike_id": "98ef282e334126ee7955bce31f2216af"}, {"lon": -77.05169583333333, "rental_uris": {"android": "https://dc.lft.to/lastmile_qr_scan", "ios": "https://dc.lft.to/lastmile_qr_scan"}, "fusion_lon": 0.0, "is_reserved": 0, "is_disabled": 0, "fusion_lat": 0.0, "type": "electric_scooter", "name": "9859cf3225722529c08336defed98d0b", "lat": 38.92344216666667, "bike_id": "9859cf3225722529c08336defed98d0b"}, {"lon": -77.02596566666666, "rental_uris": {"android": "https://dc.lft.to/lastmile_qr_scan", "ios": "https://dc.lft.to/lastmile_qr_scan"}, "fusion_lon": 0.0, "is_reserved": 0, "is_disabled": 0, "fusion_lat": 0.0, "type": "electric_scooter", "name": "bfe14122ffb303f3383ee60f7f760c04", "lat": 38.90890066666667, "bike_id": "bfe14122ffb303f3383ee60f7f760c04"}, {"lon": -77.00188483333334, "rental_uris": {"android": "https://dc.lft.to/lastmile_qr_scan", "ios": "https://dc.lft.to/lastmile_qr_scan"}, "fusion_lon": 0.0, "is_reserved": 0, "is_disabled": 0, "fusion_lat": 0.0, "type": "electric_scooter", "name": "dbdcfa3ba352fd62d08bbb0ee2ad5e36", "lat": 38.873978666666666, "bike_id": "dbdcfa3ba352fd62d08bbb0ee2ad5e36"}, {"lon": -77.01826183333333, "rental_uris": {"android": "https://dc.lft.to/lastmile_qr_scan", "ios": "https://dc.lft.to/lastmile_qr_scan"}, "fusion_lon": 0.0, "is_reserved": 0, "is_disabled": 0, "fusion_lat": 0.0, "type": "electric_scooter", "name": "9055f30d513348e85644a80e78b8683c", "lat": 38.900754666666664, "bike_id": "9055f30d513348e85644a80e78b8683c"}, {"lon": -77.03862083333334, "rental_uris": {"android": "https://dc.lft.to/lastmile_qr_scan", "ios": "https://dc.lft.to/lastmile_qr_scan"}, "fusion_lon": 0.0, "is_reserved": 0, "is_disabled": 0, "fusion_lat": 0.0, "type": "electric_scooter", "name": "3751d79faed276d9464019acd0a19be7", "lat": 38.9170945, "bike_id": "3751d79faed276d9464019acd0a19be7"}, {"lon": -77.00336266666666, "rental_uris": {"android": "https://dc.lft.to/lastmile_qr_scan", "ios": "https://dc.lft.to/lastmile_qr_scan"}, "fusion_lon": 0.0, "is_reserved": 0, "is_disabled": 0, "fusion_lat": 0.0, "type": "electric_scooter", "name": "09eb5c91e1aa2ed350302897445db065", "lat": 38.89725583333333, "bike_id": "09eb5c91e1aa2ed350302897445db065"}, {"lon": -77.041459, "rental_uris": {"android": "https://dc.lft.to/lastmile_qr_scan", "ios": "https://dc.lft.to/lastmile_qr_scan"}, "fusion_lon": 0.0, "is_reserved": 0, "is_disabled": 0, "fusion_lat": 0.0, "type": "electric_scooter", "name": "c60b01c5cf790d59b77032167c8b64fd", "lat": 38.89238733333333, "bike_id": "c60b01c5cf790d59b77032167c8b64fd"}, {"lon": -77.027031, "rental_uris": {"android": "https://dc.lft.to/lastmile_qr_scan", "ios": "https://dc.lft.to/lastmile_qr_scan"}, "fusion_lon": 0.0, "is_reserved": 0, "is_disabled": 0, "fusion_lat": 0.0, "type": "electric_scooter", "name": "07c4cf6f187d08d650cf847772505b07", "lat": 38.89651166666667, "bike_id": "07c4cf6f187d08d650cf847772505b07"}, {"lon": -77.019641, "rental_uris": {"android": "https://dc.lft.to/lastmile_qr_scan", "ios": "https://dc.lft.to/lastmile_qr_scan"}, "fusion_lon": 0.0, "is_reserved": 0, "is_disabled": 0, "fusion_lat": 0.0, "type": "electric_scooter", "name": "f43ed91d1b3d41e4fd463ac4c17e0be2", "lat": 38.921902833333334, "bike_id": "f43ed91d1b3d41e4fd463ac4c17e0be2"}, {"lon": -77.07249366666667, "rental_uris": {"android": "https://dc.lft.to/lastmile_qr_scan", "ios": "https://dc.lft.to/lastmile_qr_scan"}, "fusion_lon": 0.0, "is_reserved": 0, "is_disabled": 0, "fusion_lat": 0.0, "type": "electric_scooter", "name": "a7cb58c6a7af39e762216053b6d56a10", "lat": 38.90778683333333, "bike_id": "a7cb58c6a7af39e762216053b6d56a10"}, {"lon": -77.01949566666667, "rental_uris": {"android": "https://dc.lft.to/lastmile_qr_scan", "ios": "https://dc.lft.to/lastmile_qr_scan"}, "fusion_lon": 0.0, "is_reserved": 0, "is_disabled": 0, "fusion_lat": 0.0, "type": "electric_scooter", "name": "44eab703f01d259a4797a29f2383832a", "lat": 38.92253866666667, "bike_id": "44eab703f01d259a4797a29f2383832a"}, {"lon": -77.02949133333334, "rental_uris": {"android": "https://dc.lft.to/lastmile_qr_scan", "ios": "https://dc.lft.to/lastmile_qr_scan"}, "fusion_lon": 0.0, "is_reserved": 0, "is_disabled": 0, "fusion_lat": 0.0, "type": "electric_scooter", "name": "88ae4427d9f0cccd4d7a30b9b71f9a7f", "lat": 38.90241016666667, "bike_id": "88ae4427d9f0cccd4d7a30b9b71f9a7f"}, {"lon": -77.06697, "rental_uris": {"android": "https://dc.lft.to/lastmile_qr_scan", "ios": "https://dc.lft.to/lastmile_qr_scan"}, "fusion_lon": 0.0, "is_reserved": 0, "is_disabled": 0, "fusion_lat": 0.0, "type": "electric_scooter", "name": "1fd71c53d6d0e1bd30d31301185ada20", "lat": 38.903879333333336, "bike_id": "1fd71c53d6d0e1bd30d31301185ada20"}, {"lon": -76.99803216666666, "rental_uris": {"android": "https://dc.lft.to/lastmile_qr_scan", "ios": "https://dc.lft.to/lastmile_qr_scan"}, "fusion_lon": 0.0, "is_reserved": 0, "is_disabled": 0, "fusion_lat": 0.0, "type": "electric_scooter", "name": "78624910593294db239a86cfe64d5609", "lat": 38.88557, "bike_id": "78624910593294db239a86cfe64d5609"}, {"lon": -77.02168433333334, "rental_uris": {"android": "https://dc.lft.to/lastmile_qr_scan", "ios": "https://dc.lft.to/lastmile_qr_scan"}, "fusion_lon": 0.0, "is_reserved": 0, "is_disabled": 0, "fusion_lat": 0.0, "type": "electric_scooter", "name": "0a08df054d5cd91e25f286f4845bdb62", "lat": 38.88731216666667, "bike_id": "0a08df054d5cd91e25f286f4845bdb62"}, {"lon": -77.046707, "rental_uris": {"android": "https://dc.lft.to/lastmile_qr_scan", "ios": "https://dc.lft.to/lastmile_qr_scan"}, "fusion_lon": 0.0, "is_reserved": 0, "is_disabled": 0, "fusion_lat": 0.0, "type": "electric_scooter", "name": "357974b51148423c8297a60a228971b6", "lat": 38.89562183333334, "bike_id": "357974b51148423c8297a60a228971b6"}, {"lon": -77.04405833333334, "rental_uris": {"android": "https://dc.lft.to/lastmile_qr_scan", "ios": "https://dc.lft.to/lastmile_qr_scan"}, "fusion_lon": 0.0, "is_reserved": 0, "is_disabled": 0, "fusion_lat": 0.0, "type": "electric_scooter", "name": "7d138b6bfc38782758d9b967f0b059f0", "lat": 38.9222455, "bike_id": "7d138b6bfc38782758d9b967f0b059f0"}, {"lon": -77.0536365, "rental_uris": {"android": "https://dc.lft.to/lastmile_qr_scan", "ios": "https://dc.lft.to/lastmile_qr_scan"}, "fusion_lon": 0.0, "is_reserved": 0, "is_disabled": 0, "fusion_lat": 0.0, "type": "electric_scooter", "name": "a06c45bffe0c112c4a23ce6aaf64f005", "lat": 38.92717733333333, "bike_id": "a06c45bffe0c112c4a23ce6aaf64f005"}, {"lon": -76.93184833333333, "rental_uris": {"android": "https://dc.lft.to/lastmile_qr_scan", "ios": "https://dc.lft.to/lastmile_qr_scan"}, "fusion_lon": 0.0, "is_reserved": 0, "is_disabled": 0, "fusion_lat": 0.0, "type": "electric_scooter", "name": "f019cb330a773259014337c4e6883b90", "lat": 38.8987535, "bike_id": "f019cb330a773259014337c4e6883b90"}, {"lon": -77.01020633333333, "rental_uris": {"android": "https://dc.lft.to/lastmile_qr_scan", "ios": "https://dc.lft.to/lastmile_qr_scan"}, "fusion_lon": 0.0, "is_reserved": 0, "is_disabled": 0, "fusion_lat": 0.0, "type": "electric_scooter", "name": "e88ace3cc2b8400f7794707422071eda", "lat": 38.89481633333333, "bike_id": "e88ace3cc2b8400f7794707422071eda"}, {"lon": -77.03796116666666, "rental_uris": {"android": "https://dc.lft.to/lastmile_qr_scan", "ios": "https://dc.lft.to/lastmile_qr_scan"}, "fusion_lon": 0.0, "is_reserved": 0, "is_disabled": 0, "fusion_lat": 0.0, "type": "electric_bike", "name": "749e59bb944bf4d21a39aa152d3eb6ee", "lat": 38.99676516666667, "bike_id": "749e59bb944bf4d21a39aa152d3eb6ee"}, {"lon": -77.04675166666667, "rental_uris": {"android": "https://dc.lft.to/lastmile_qr_scan", "ios": "https://dc.lft.to/lastmile_qr_scan"}, "fusion_lon": 0.0, "is_reserved": 0, "is_disabled": 0, "fusion_lat": 0.0, "type": "electric_scooter", "name": "7c6d7d0b8a361d6b1bf2f037175d2d7b", "lat": 38.892683, "bike_id": "7c6d7d0b8a361d6b1bf2f037175d2d7b"}, {"lon": -77.1264875, "rental_uris": {"android": "https://dc.lft.to/lastmile_qr_scan", "ios": "https://dc.lft.to/lastmile_qr_scan"}, "fusion_lon": 0.0, "is_reserved": 0, "is_disabled": 0, "fusion_lat": 0.0, "type": "electric_bike", "name": "d41898eea335b86fd39bd5d586915998", "lat": 38.819103, "bike_id": "d41898eea335b86fd39bd5d586915998"}, {"lon": -77.04346233333334, "rental_uris": {"android": "https://dc.lft.to/lastmile_qr_scan", "ios": "https://dc.lft.to/lastmile_qr_scan"}, "fusion_lon": 0.0, "is_reserved": 0, "is_disabled": 0, "fusion_lat": 0.0, "type": "electric_scooter", "name": "56fec9752f256c1a4d09e231a2713516", "lat": 38.897331333333334, "bike_id": "56fec9752f256c1a4d09e231a2713516"}, {"lon": -77.02695883333334, "rental_uris": {"android": "https://dc.lft.to/lastmile_qr_scan", "ios": "https://dc.lft.to/lastmile_qr_scan"}, "fusion_lon": 0.0, "is_reserved": 0, "is_disabled": 0, "fusion_lat": 0.0, "type": "electric_scooter", "name": "c307d584b2cd8714fc72be8ee5ad8cf6", "lat": 38.896206166666666, "bike_id": "c307d584b2cd8714fc72be8ee5ad8cf6"}, {"lon": -77.07312683333333, "rental_uris": {"android": "https://dc.lft.to/lastmile_qr_scan", "ios": "https://dc.lft.to/lastmile_qr_scan"}, "fusion_lon": 0.0, "is_reserved": 0, "is_disabled": 0, "fusion_lat": 0.0, "type": "electric_scooter", "name": "5d7065392127c4f4c1f84d1e25c402e4", "lat": 38.93608033333334, "bike_id": "5d7065392127c4f4c1f84d1e25c402e4"}, {"lon": -77.04975733333333, "rental_uris": {"android": "https://dc.lft.to/lastmile_qr_scan", "ios": "https://dc.lft.to/lastmile_qr_scan"}, "fusion_lon": 0.0, "is_reserved": 0, "is_disabled": 0, "fusion_lat": 0.0, "type": "electric_scooter", "name": "c40ed635d10a56d2c5b12e647625b159", "lat": 38.901217333333335, "bike_id": "c40ed635d10a56d2c5b12e647625b159"}, {"lon": -77.013535, "rental_uris": {"android": "https://dc.lft.to/lastmile_qr_scan", "ios": "https://dc.lft.to/lastmile_qr_scan"}, "fusion_lon": 0.0, "is_reserved": 0, "is_disabled": 0, "fusion_lat": 0.0, "type": "electric_scooter", "name": "488ebb65cf2f1dff2e93abe4fb33cd04", "lat": 38.92873766666666, "bike_id": "488ebb65cf2f1dff2e93abe4fb33cd04"}, {"lon": -77.04347166666666, "rental_uris": {"android": "https://dc.lft.to/lastmile_qr_scan", "ios": "https://dc.lft.to/lastmile_qr_scan"}, "fusion_lon": 0.0, "is_reserved": 0, "is_disabled": 0, "fusion_lat": 0.0, "type": "electric_scooter", "name": "92123a350bd553b6f8359d19ed5bc17a", "lat": 38.904307, "bike_id": "92123a350bd553b6f8359d19ed5bc17a"}, {"lon": -76.93726366666667, "rental_uris": {"android": "https://dc.lft.to/lastmile_qr_scan", "ios": "https://dc.lft.to/lastmile_qr_scan"}, "fusion_lon": 0.0, "is_reserved": 0, "is_disabled": 0, "fusion_lat": 0.0, "type": "electric_scooter", "name": "54f515b14d5c46979d3664546ff1640c", "lat": 38.8903205, "bike_id": "54f515b14d5c46979d3664546ff1640c"}, {"lon": -77.0429285, "rental_uris": {"android": "https://dc.lft.to/lastmile_qr_scan", "ios": "https://dc.lft.to/lastmile_qr_scan"}, "fusion_lon": 0.0, "is_reserved": 0, "is_disabled": 0, "fusion_lat": 0.0, "type": "electric_scooter", "name": "6b39debcb67b7fe17e52e2fe23ea32c2", "lat": 38.910293, "bike_id": "6b39debcb67b7fe17e52e2fe23ea32c2"}, {"lon": -77.04153466666666, "rental_uris": {"android": "https://dc.lft.to/lastmile_qr_scan", "ios": "https://dc.lft.to/lastmile_qr_scan"}, "fusion_lon": 0.0, "is_reserved": 0, "is_disabled": 0, "fusion_lat": 0.0, "type": "electric_scooter", "name": "6b7c9a846fe06359c2ec3d6d305a4161", "lat": 38.892339, "bike_id": "6b7c9a846fe06359c2ec3d6d305a4161"}, {"lon": -77.0238095, "rental_uris": {"android": "https://dc.lft.to/lastmile_qr_scan", "ios": "https://dc.lft.to/lastmile_qr_scan"}, "fusion_lon": 0.0, "is_reserved": 0, "is_disabled": 0, "fusion_lat": 0.0, "type": "electric_scooter", "name": "fea5154a1875a08a89c85dfeebf491a2", "lat": 38.89194616666666, "bike_id": "fea5154a1875a08a89c85dfeebf491a2"}, {"lon": -76.97321133333334, "rental_uris": {"android": "https://dc.lft.to/lastmile_qr_scan", "ios": "https://dc.lft.to/lastmile_qr_scan"}, "fusion_lon": 0.0, "is_reserved": 0, "is_disabled": 0, "fusion_lat": 0.0, "type": "electric_scooter", "name": "83f7d634bbb293d21c1899a982d8b4d2", "lat": 38.904813, "bike_id": "83f7d634bbb293d21c1899a982d8b4d2"}, {"lon": -77.038582, "rental_uris": {"android": "https://dc.lft.to/lastmile_qr_scan", "ios": "https://dc.lft.to/lastmile_qr_scan"}, "fusion_lon": 0.0, "is_reserved": 0, "is_disabled": 0, "fusion_lat": 0.0, "type": "electric_scooter", "name": "32a4b6e6be475132a83387eb94355f6a", "lat": 38.9319955, "bike_id": "32a4b6e6be475132a83387eb94355f6a"}, {"lon": -77.02963366666667, "rental_uris": {"android": "https://dc.lft.to/lastmile_qr_scan", "ios": "https://dc.lft.to/lastmile_qr_scan"}, "fusion_lon": 0.0, "is_reserved": 0, "is_disabled": 0, "fusion_lat": 0.0, "type": "electric_scooter", "name": "41784396a88db0e7f4e5a8e491b6c417", "lat": 38.9422295, "bike_id": "41784396a88db0e7f4e5a8e491b6c417"}, {"lon": -77.0247565, "rental_uris": {"android": "https://dc.lft.to/lastmile_qr_scan", "ios": "https://dc.lft.to/lastmile_qr_scan"}, "fusion_lon": 0.0, "is_reserved": 0, "is_disabled": 0, "fusion_lat": 0.0, "type": "electric_scooter", "name": "eb2b8b3df116ac01b9987e6fa596abd6", "lat": 38.941976833333335, "bike_id": "eb2b8b3df116ac01b9987e6fa596abd6"}, {"lon": -77.03206833333333, "rental_uris": {"android": "https://dc.lft.to/lastmile_qr_scan", "ios": "https://dc.lft.to/lastmile_qr_scan"}, "fusion_lon": 0.0, "is_reserved": 0, "is_disabled": 0, "fusion_lat": 0.0, "type": "electric_scooter", "name": "2ecb9f50f0240d9ad2b6346fa657397b", "lat": 38.928673333333336, "bike_id": "2ecb9f50f0240d9ad2b6346fa657397b"}, {"lon": -77.046651, "rental_uris": {"android": "https://dc.lft.to/lastmile_qr_scan", "ios": "https://dc.lft.to/lastmile_qr_scan"}, "fusion_lon": 0.0, "is_reserved": 0, "is_disabled": 0, "fusion_lat": 0.0, "type": "electric_scooter", "name": "0296a34dbac7bcb5cc19cf7318aeb514", "lat": 38.9025305, "bike_id": "0296a34dbac7bcb5cc19cf7318aeb514"}, {"lon": -77.03798116666667, "rental_uris": {"android": "https://dc.lft.to/lastmile_qr_scan", "ios": "https://dc.lft.to/lastmile_qr_scan"}, "fusion_lon": 0.0, "is_reserved": 0, "is_disabled": 0, "fusion_lat": 0.0, "type": "electric_scooter", "name": "9c2f69b3c72e8d7a1b3588e30666a4d1", "lat": 38.90242383333333, "bike_id": "9c2f69b3c72e8d7a1b3588e30666a4d1"}, {"lon": -77.01353016666667, "rental_uris": {"android": "https://dc.lft.to/lastmile_qr_scan", "ios": "https://dc.lft.to/lastmile_qr_scan"}, "fusion_lon": 0.0, "is_reserved": 0, "is_disabled": 0, "fusion_lat": 0.0, "type": "electric_scooter", "name": "dc0a5dc61ec9674764d747c45c469e21", "lat": 38.956736666666664, "bike_id": "dc0a5dc61ec9674764d747c45c469e21"}, {"lon": -77.08855216666667, "rental_uris": {"android": "https://dc.lft.to/lastmile_qr_scan", "ios": "https://dc.lft.to/lastmile_qr_scan"}, "fusion_lon": 0.0, "is_reserved": 0, "is_disabled": 0, "fusion_lat": 0.0, "type": "electric_scooter", "name": "008be1f19e0072dcde2dfddfb9a04f32", "lat": 38.933819, "bike_id": "008be1f19e0072dcde2dfddfb9a04f32"}, {"lon": -77.00289066666667, "rental_uris": {"android": "https://dc.lft.to/lastmile_qr_scan", "ios": "https://dc.lft.to/lastmile_qr_scan"}, "fusion_lon": 0.0, "is_reserved": 0, "is_disabled": 0, "fusion_lat": 0.0, "type": "electric_scooter", "name": "505fbe309bf2f13fc6f52f7c85d03940", "lat": 38.876440333333335, "bike_id": "505fbe309bf2f13fc6f52f7c85d03940"}, {"lon": -77.03171483333334, "rental_uris": {"android": "https://dc.lft.to/lastmile_qr_scan", "ios": "https://dc.lft.to/lastmile_qr_scan"}, "fusion_lon": 0.0, "is_reserved": 0, "is_disabled": 0, "fusion_lat": 0.0, "type": "electric_scooter", "name": "c1d596962a0fd46a38633323c588e744", "lat": 38.899818833333335, "bike_id": "c1d596962a0fd46a38633323c588e744"}, {"lon": -77.06080233333333, "rental_uris": {"android": "https://dc.lft.to/lastmile_qr_scan", "ios": "https://dc.lft.to/lastmile_qr_scan"}, "fusion_lon": 0.0, "is_reserved": 0, "is_disabled": 0, "fusion_lat": 0.0, "type": "electric_scooter", "name": "cfca751d51fd1685ec291be6af3b5789", "lat": 38.90224416666667, "bike_id": "cfca751d51fd1685ec291be6af3b5789"}, {"lon": -76.958194, "rental_uris": {"android": "https://dc.lft.to/lastmile_qr_scan", "ios": "https://dc.lft.to/lastmile_qr_scan"}, "fusion_lon": 0.0, "is_reserved": 0, "is_disabled": 0, "fusion_lat": 0.0, "type": "electric_bike", "name": "bb2533cb624aabb3a5a94ad987fcaa6b", "lat": 38.9200055, "bike_id": "bb2533cb624aabb3a5a94ad987fcaa6b"}, {"lon": -76.99309666666667, "rental_uris": {"android": "https://dc.lft.to/lastmile_qr_scan", "ios": "https://dc.lft.to/lastmile_qr_scan"}, "fusion_lon": 0.0, "is_reserved": 0, "is_disabled": 0, "fusion_lat": 0.0, "type": "electric_bike", "name": "7a3d10476b8b23286b2286635be5537e", "lat": 38.94632283333333, "bike_id": "7a3d10476b8b23286b2286635be5537e"}, {"lon": -77.03246566666667, "rental_uris": {"android": "https://dc.lft.to/lastmile_qr_scan", "ios": "https://dc.lft.to/lastmile_qr_scan"}, "fusion_lon": 0.0, "is_reserved": 0, "is_disabled": 0, "fusion_lat": 0.0, "type": "electric_scooter", "name": "bee7c79a5bbe6496d3d2b7a7c5b31a66", "lat": 38.9052295, "bike_id": "bee7c79a5bbe6496d3d2b7a7c5b31a66"}, {"lon": -77.00304, "rental_uris": {"android": "https://dc.lft.to/lastmile_qr_scan", "ios": "https://dc.lft.to/lastmile_qr_scan"}, "fusion_lon": 0.0, "is_reserved": 0, "is_disabled": 0, "fusion_lat": 0.0, "type": "electric_scooter", "name": "a36fdba66679e7028195f7fab9862037", "lat": 38.8766265, "bike_id": "a36fdba66679e7028195f7fab9862037"}, {"lon": -77.02470433333333, "rental_uris": {"android": "https://dc.lft.to/lastmile_qr_scan", "ios": "https://dc.lft.to/lastmile_qr_scan"}, "fusion_lon": 0.0, "is_reserved": 0, "is_disabled": 0, "fusion_lat": 0.0, "type": "electric_bike", "name": "d2651466da8b8b64bc798c79fcb5e0fe", "lat": 38.89840016666667, "bike_id": "d2651466da8b8b64bc798c79fcb5e0fe"}, {"lon": -76.97972116666666, "rental_uris": {"android": "https://dc.lft.to/lastmile_qr_scan", "ios": "https://dc.lft.to/lastmile_qr_scan"}, "fusion_lon": 0.0, "is_reserved": 0, "is_disabled": 0, "fusion_lat": 0.0, "type": "electric_scooter", "name": "0eabe9c521825a138b13c63d6146d20e", "lat": 38.907281833333336, "bike_id": "0eabe9c521825a138b13c63d6146d20e"}, {"lon": -77.03245233333334, "rental_uris": {"android": "https://dc.lft.to/lastmile_qr_scan", "ios": "https://dc.lft.to/lastmile_qr_scan"}, "fusion_lon": 0.0, "is_reserved": 0, "is_disabled": 0, "fusion_lat": 0.0, "type": "electric_scooter", "name": "4ae6fa5c81f6fad81327ef57472ed0b4", "lat": 38.928732333333336, "bike_id": "4ae6fa5c81f6fad81327ef57472ed0b4"}, {"lon": -77.023039, "rental_uris": {"android": "https://dc.lft.to/lastmile_qr_scan", "ios": "https://dc.lft.to/lastmile_qr_scan"}, "fusion_lon": 0.0, "is_reserved": 0, "is_disabled": 0, "fusion_lat": 0.0, "type": "electric_scooter", "name": "b8e56e7a05059c763bea426218618673", "lat": 38.91778166666667, "bike_id": "b8e56e7a05059c763bea426218618673"}, {"lon": -77.0320825, "rental_uris": {"android": "https://dc.lft.to/lastmile_qr_scan", "ios": "https://dc.lft.to/lastmile_qr_scan"}, "fusion_lon": 0.0, "is_reserved": 0, "is_disabled": 0, "fusion_lat": 0.0, "type": "electric_scooter", "name": "3d66b3b48a98284861b1d59a7485e95e", "lat": 38.892213166666664, "bike_id": "3d66b3b48a98284861b1d59a7485e95e"}, {"lon": -77.023068, "rental_uris": {"android": "https://dc.lft.to/lastmile_qr_scan", "ios": "https://dc.lft.to/lastmile_qr_scan"}, "fusion_lon": 0.0, "is_reserved": 0, "is_disabled": 0, "fusion_lat": 0.0, "type": "electric_scooter", "name": "a562d21ca9a9e73047889f5ee7a40cfe", "lat": 38.91779583333334, "bike_id": "a562d21ca9a9e73047889f5ee7a40cfe"}, {"lon": -77.031389, "rental_uris": {"android": "https://dc.lft.to/lastmile_qr_scan", "ios": "https://dc.lft.to/lastmile_qr_scan"}, "fusion_lon": 0.0, "is_reserved": 0, "is_disabled": 0, "fusion_lat": 0.0, "type": "electric_scooter", "name": "9ab591cdfa6de95c176847d537311679", "lat": 38.899579833333334, "bike_id": "9ab591cdfa6de95c176847d537311679"}, {"lon": -77.03090283333333, "rental_uris": {"android": "https://dc.lft.to/lastmile_qr_scan", "ios": "https://dc.lft.to/lastmile_qr_scan"}, "fusion_lon": 0.0, "is_reserved": 0, "is_disabled": 0, "fusion_lat": 0.0, "type": "electric_scooter", "name": "37db21c5ab8f21e64d564072295f5b3a", "lat": 38.91057133333333, "bike_id": "37db21c5ab8f21e64d564072295f5b3a"}, {"lon": -77.02952283333333, "rental_uris": {"android": "https://dc.lft.to/lastmile_qr_scan", "ios": "https://dc.lft.to/lastmile_qr_scan"}, "fusion_lon": 0.0, "is_reserved": 0, "is_disabled": 0, "fusion_lat": 0.0, "type": "electric_scooter", "name": "225975ddc3f99d575ec9c6444768c31d", "lat": 38.9117505, "bike_id": "225975ddc3f99d575ec9c6444768c31d"}, {"lon": -77.02600566666666, "rental_uris": {"android": "https://dc.lft.to/lastmile_qr_scan", "ios": "https://dc.lft.to/lastmile_qr_scan"}, "fusion_lon": 0.0, "is_reserved": 0, "is_disabled": 0, "fusion_lat": 0.0, "type": "electric_scooter", "name": "76ebcc6c4796a1131f2b0e4b3ec47443", "lat": 38.898588, "bike_id": "76ebcc6c4796a1131f2b0e4b3ec47443"}, {"lon": -77.0218575, "rental_uris": {"android": "https://dc.lft.to/lastmile_qr_scan", "ios": "https://dc.lft.to/lastmile_qr_scan"}, "fusion_lon": 0.0, "is_reserved": 0, "is_disabled": 0, "fusion_lat": 0.0, "type": "electric_scooter", "name": "6c0bc21682a3fcf0828e4ac80f62a437", "lat": 38.919607666666664, "bike_id": "6c0bc21682a3fcf0828e4ac80f62a437"}, {"lon": -77.00191966666667, "rental_uris": {"android": "https://dc.lft.to/lastmile_qr_scan", "ios": "https://dc.lft.to/lastmile_qr_scan"}, "fusion_lon": 0.0, "is_reserved": 0, "is_disabled": 0, "fusion_lat": 0.0, "type": "electric_scooter", "name": "7daa4f35b105aef189b113b8f98bb3f9", "lat": 38.900293833333336, "bike_id": "7daa4f35b105aef189b113b8f98bb3f9"}, {"lon": -77.03427783333333, "rental_uris": {"android": "https://dc.lft.to/lastmile_qr_scan", "ios": "https://dc.lft.to/lastmile_qr_scan"}, "fusion_lon": 0.0, "is_reserved": 0, "is_disabled": 0, "fusion_lat": 0.0, "type": "electric_scooter", "name": "cd7af37648c168183824ce623ea6951c", "lat": 38.909619666666664, "bike_id": "cd7af37648c168183824ce623ea6951c"}, {"lon": -77.05078916666666, "rental_uris": {"android": "https://dc.lft.to/lastmile_qr_scan", "ios": "https://dc.lft.to/lastmile_qr_scan"}, "fusion_lon": 0.0, "is_reserved": 0, "is_disabled": 0, "fusion_lat": 0.0, "type": "electric_scooter", "name": "87d32ebc7723e0b8393a0d5985233cd4", "lat": 38.923442666666666, "bike_id": "87d32ebc7723e0b8393a0d5985233cd4"}, {"lon": -77.00918883333334, "rental_uris": {"android": "https://dc.lft.to/lastmile_qr_scan", "ios": "https://dc.lft.to/lastmile_qr_scan"}, "fusion_lon": 0.0, "is_reserved": 0, "is_disabled": 0, "fusion_lat": 0.0, "type": "electric_scooter", "name": "ed8ddb2bfc140ddb58bae8caf80860ed", "lat": 38.89586333333333, "bike_id": "ed8ddb2bfc140ddb58bae8caf80860ed"}, {"lon": -77.06086516666667, "rental_uris": {"android": "https://dc.lft.to/lastmile_qr_scan", "ios": "https://dc.lft.to/lastmile_qr_scan"}, "fusion_lon": 0.0, "is_reserved": 0, "is_disabled": 0, "fusion_lat": 0.0, "type": "electric_scooter", "name": "c7074d6dea0df4aa3ac969821fb47a64", "lat": 38.902203, "bike_id": "c7074d6dea0df4aa3ac969821fb47a64"}, {"lon": -77.036582, "rental_uris": {"android": "https://dc.lft.to/lastmile_qr_scan", "ios": "https://dc.lft.to/lastmile_qr_scan"}, "fusion_lon": 0.0, "is_reserved": 0, "is_disabled": 0, "fusion_lat": 0.0, "type": "electric_scooter", "name": "04ad8bd48d30ffbe63456e572d8cd150", "lat": 38.923075, "bike_id": "04ad8bd48d30ffbe63456e572d8cd150"}, {"lon": -77.0137835, "rental_uris": {"android": "https://dc.lft.to/lastmile_qr_scan", "ios": "https://dc.lft.to/lastmile_qr_scan"}, "fusion_lon": 0.0, "is_reserved": 0, "is_disabled": 0, "fusion_lat": 0.0, "type": "electric_scooter", "name": "8e1af01af284a3066aa718f33a2632c4", "lat": 38.896299, "bike_id": "8e1af01af284a3066aa718f33a2632c4"}, {"lon": -77.01966733333333, "rental_uris": {"android": "https://dc.lft.to/lastmile_qr_scan", "ios": "https://dc.lft.to/lastmile_qr_scan"}, "fusion_lon": 0.0, "is_reserved": 0, "is_disabled": 0, "fusion_lat": 0.0, "type": "electric_scooter", "name": "a8f8e0b072f285833ac5ff9064a1b5a9", "lat": 38.92249566666667, "bike_id": "a8f8e0b072f285833ac5ff9064a1b5a9"}, {"lon": -77.03219666666666, "rental_uris": {"android": "https://dc.lft.to/lastmile_qr_scan", "ios": "https://dc.lft.to/lastmile_qr_scan"}, "fusion_lon": 0.0, "is_reserved": 0, "is_disabled": 0, "fusion_lat": 0.0, "type": "electric_scooter", "name": "7755d20bed9511ff69752bc222c612b9", "lat": 38.908643, "bike_id": "7755d20bed9511ff69752bc222c612b9"}, {"lon": -77.06365566666666, "rental_uris": {"android": "https://dc.lft.to/lastmile_qr_scan", "ios": "https://dc.lft.to/lastmile_qr_scan"}, "fusion_lon": 0.0, "is_reserved": 0, "is_disabled": 0, "fusion_lat": 0.0, "type": "electric_scooter", "name": "4770502fd82d198372cbff44989b4afd", "lat": 38.908280166666664, "bike_id": "4770502fd82d198372cbff44989b4afd"}, {"lon": -77.04146366666667, "rental_uris": {"android": "https://dc.lft.to/lastmile_qr_scan", "ios": "https://dc.lft.to/lastmile_qr_scan"}, "fusion_lon": 0.0, "is_reserved": 0, "is_disabled": 0, "fusion_lat": 0.0, "type": "electric_scooter", "name": "6f8df463a4290834d9e2e476fc38af90", "lat": 38.899410333333336, "bike_id": "6f8df463a4290834d9e2e476fc38af90"}, {"lon": -77.040759, "rental_uris": {"android": "https://dc.lft.to/lastmile_qr_scan", "ios": "https://dc.lft.to/lastmile_qr_scan"}, "fusion_lon": 0.0, "is_reserved": 0, "is_disabled": 0, "fusion_lat": 0.0, "type": "electric_scooter", "name": "f3601e8dba6b6b09aaf3f5003b0a9e52", "lat": 38.923852, "bike_id": "f3601e8dba6b6b09aaf3f5003b0a9e52"}, {"lon": -77.02407266666667, "rental_uris": {"android": "https://dc.lft.to/lastmile_qr_scan", "ios": "https://dc.lft.to/lastmile_qr_scan"}, "fusion_lon": 0.0, "is_reserved": 0, "is_disabled": 0, "fusion_lat": 0.0, "type": "electric_scooter", "name": "8b637bf956f4643a2f277d06c69e6a49", "lat": 38.89746483333333, "bike_id": "8b637bf956f4643a2f277d06c69e6a49"}, {"lon": -77.04599033333334, "rental_uris": {"android": "https://dc.lft.to/lastmile_qr_scan", "ios": "https://dc.lft.to/lastmile_qr_scan"}, "fusion_lon": 0.0, "is_reserved": 0, "is_disabled": 0, "fusion_lat": 0.0, "type": "electric_scooter", "name": "531709adda2f23a904cb45d666c1aed3", "lat": 38.902468666666664, "bike_id": "531709adda2f23a904cb45d666c1aed3"}, {"lon": -77.01211533333333, "rental_uris": {"android": "https://dc.lft.to/lastmile_qr_scan", "ios": "https://dc.lft.to/lastmile_qr_scan"}, "fusion_lon": 0.0, "is_reserved": 0, "is_disabled": 0, "fusion_lat": 0.0, "type": "electric_scooter", "name": "2872627f20b8d41035a92ba192f22e6e", "lat": 38.9168465, "bike_id": "2872627f20b8d41035a92ba192f22e6e"}, {"lon": -77.032806, "rental_uris": {"android": "https://dc.lft.to/lastmile_qr_scan", "ios": "https://dc.lft.to/lastmile_qr_scan"}, "fusion_lon": 0.0, "is_reserved": 0, "is_disabled": 0, "fusion_lat": 0.0, "type": "electric_scooter", "name": "b3d68025d33c882bbfb034be0fd765e3", "lat": 38.93770683333334, "bike_id": "b3d68025d33c882bbfb034be0fd765e3"}, {"lon": -77.04934783333333, "rental_uris": {"android": "https://dc.lft.to/lastmile_qr_scan", "ios": "https://dc.lft.to/lastmile_qr_scan"}, "fusion_lon": 0.0, "is_reserved": 0, "is_disabled": 0, "fusion_lat": 0.0, "type": "electric_scooter", "name": "e6e196848705e31b7501e5b475e91556", "lat": 38.90065933333333, "bike_id": "e6e196848705e31b7501e5b475e91556"}, {"lon": -77.04356783333333, "rental_uris": {"android": "https://dc.lft.to/lastmile_qr_scan", "ios": "https://dc.lft.to/lastmile_qr_scan"}, "fusion_lon": 0.0, "is_reserved": 0, "is_disabled": 0, "fusion_lat": 0.0, "type": "electric_scooter", "name": "4c44ca78de49fc0d8d26387d4041a2c3", "lat": 38.9022655, "bike_id": "4c44ca78de49fc0d8d26387d4041a2c3"}, {"lon": -77.0272085, "rental_uris": {"android": "https://dc.lft.to/lastmile_qr_scan", "ios": "https://dc.lft.to/lastmile_qr_scan"}, "fusion_lon": 0.0, "is_reserved": 0, "is_disabled": 0, "fusion_lat": 0.0, "type": "electric_scooter", "name": "6b816f078de66186349e79294cb46d7b", "lat": 38.897678166666665, "bike_id": "6b816f078de66186349e79294cb46d7b"}, {"lon": -77.04868783333333, "rental_uris": {"android": "https://dc.lft.to/lastmile_qr_scan", "ios": "https://dc.lft.to/lastmile_qr_scan"}, "fusion_lon": 0.0, "is_reserved": 0, "is_disabled": 0, "fusion_lat": 0.0, "type": "electric_scooter", "name": "d7d26cc537e4730b440ba66aa36a89b8", "lat": 38.892204166666666, "bike_id": "d7d26cc537e4730b440ba66aa36a89b8"}, {"lon": -76.96701916666666, "rental_uris": {"android": "https://dc.lft.to/lastmile_qr_scan", "ios": "https://dc.lft.to/lastmile_qr_scan"}, "fusion_lon": 0.0, "is_reserved": 0, "is_disabled": 0, "fusion_lat": 0.0, "type": "electric_scooter", "name": "57c5cbd13d12a64e058896b4d1c35091", "lat": 38.8601115, "bike_id": "57c5cbd13d12a64e058896b4d1c35091"}, {"lon": -77.04644633333334, "rental_uris": {"android": "https://dc.lft.to/lastmile_qr_scan", "ios": "https://dc.lft.to/lastmile_qr_scan"}, "fusion_lon": 0.0, "is_reserved": 0, "is_disabled": 0, "fusion_lat": 0.0, "type": "electric_scooter", "name": "8bb28528b0588224dad3e52159372fbb", "lat": 38.892292, "bike_id": "8bb28528b0588224dad3e52159372fbb"}, {"lon": -77.04532183333333, "rental_uris": {"android": "https://dc.lft.to/lastmile_qr_scan", "ios": "https://dc.lft.to/lastmile_qr_scan"}, "fusion_lon": 0.0, "is_reserved": 0, "is_disabled": 0, "fusion_lat": 0.0, "type": "electric_scooter", "name": "8a84af1cb611bfabfc2a7e0e0b967afb", "lat": 38.9111055, "bike_id": "8a84af1cb611bfabfc2a7e0e0b967afb"}, {"lon": -77.03183783333333, "rental_uris": {"android": "https://dc.lft.to/lastmile_qr_scan", "ios": "https://dc.lft.to/lastmile_qr_scan"}, "fusion_lon": 0.0, "is_reserved": 0, "is_disabled": 0, "fusion_lat": 0.0, "type": "electric_scooter", "name": "f77f330d5da47c6abb2701346d5bd29b", "lat": 38.9011165, "bike_id": "f77f330d5da47c6abb2701346d5bd29b"}, {"lon": -77.02052216666667, "rental_uris": {"android": "https://dc.lft.to/lastmile_qr_scan", "ios": "https://dc.lft.to/lastmile_qr_scan"}, "fusion_lon": 0.0, "is_reserved": 0, "is_disabled": 0, "fusion_lat": 0.0, "type": "electric_scooter", "name": "5aaa54e2127df6079e903fd6b2bb92f7", "lat": 38.915541, "bike_id": "5aaa54e2127df6079e903fd6b2bb92f7"}, {"lon": -77.03769416666667, "rental_uris": {"android": "https://dc.lft.to/lastmile_qr_scan", "ios": "https://dc.lft.to/lastmile_qr_scan"}, "fusion_lon": 0.0, "is_reserved": 0, "is_disabled": 0, "fusion_lat": 0.0, "type": "electric_scooter", "name": "d40dd8166634aeeb9ee9766af67397e1", "lat": 38.9169415, "bike_id": "d40dd8166634aeeb9ee9766af67397e1"}, {"lon": -77.03192683333333, "rental_uris": {"android": "https://dc.lft.to/lastmile_qr_scan", "ios": "https://dc.lft.to/lastmile_qr_scan"}, "fusion_lon": 0.0, "is_reserved": 0, "is_disabled": 0, "fusion_lat": 0.0, "type": "electric_scooter", "name": "fb423d4f76cfc88bb8a7ecc129105742", "lat": 38.908268666666665, "bike_id": "fb423d4f76cfc88bb8a7ecc129105742"}, {"lon": -77.03278683333333, "rental_uris": {"android": "https://dc.lft.to/lastmile_qr_scan", "ios": "https://dc.lft.to/lastmile_qr_scan"}, "fusion_lon": 0.0, "is_reserved": 0, "is_disabled": 0, "fusion_lat": 0.0, "type": "electric_scooter", "name": "641d4c38a23b9ace6a9ff4480cfe4184", "lat": 38.89903116666667, "bike_id": "641d4c38a23b9ace6a9ff4480cfe4184"}, {"lon": -77.03124, "rental_uris": {"android": "https://dc.lft.to/lastmile_qr_scan", "ios": "https://dc.lft.to/lastmile_qr_scan"}, "fusion_lon": 0.0, "is_reserved": 0, "is_disabled": 0, "fusion_lat": 0.0, "type": "electric_scooter", "name": "81b30e22be2da609cbcc398fe1bbe9eb", "lat": 38.89713033333334, "bike_id": "81b30e22be2da609cbcc398fe1bbe9eb"}, {"lon": -77.045324, "rental_uris": {"android": "https://dc.lft.to/lastmile_qr_scan", "ios": "https://dc.lft.to/lastmile_qr_scan"}, "fusion_lon": 0.0, "is_reserved": 0, "is_disabled": 0, "fusion_lat": 0.0, "type": "electric_scooter", "name": "5ac5cf150c3b8c5b6a740babe14ece67", "lat": 38.91174183333333, "bike_id": "5ac5cf150c3b8c5b6a740babe14ece67"}, {"lon": -77.04350816666667, "rental_uris": {"android": "https://dc.lft.to/lastmile_qr_scan", "ios": "https://dc.lft.to/lastmile_qr_scan"}, "fusion_lon": 0.0, "is_reserved": 0, "is_disabled": 0, "fusion_lat": 0.0, "type": "electric_scooter", "name": "b50fdaf62a98bdff7289bd101fab2f9c", "lat": 38.90555883333333, "bike_id": "b50fdaf62a98bdff7289bd101fab2f9c"}, {"lon": -77.032809, "rental_uris": {"android": "https://dc.lft.to/lastmile_qr_scan", "ios": "https://dc.lft.to/lastmile_qr_scan"}, "fusion_lon": 0.0, "is_reserved": 0, "is_disabled": 0, "fusion_lat": 0.0, "type": "electric_scooter", "name": "e6a663d51b26f366d2b84f836d210451", "lat": 38.93773133333333, "bike_id": "e6a663d51b26f366d2b84f836d210451"}, {"lon": -76.98647616666666, "rental_uris": {"android": "https://dc.lft.to/lastmile_qr_scan", "ios": "https://dc.lft.to/lastmile_qr_scan"}, "fusion_lon": 0.0, "is_reserved": 0, "is_disabled": 0, "fusion_lat": 0.0, "type": "electric_scooter", "name": "06bd869e394d2b9e63b63e529f692a2d", "lat": 38.897612333333335, "bike_id": "06bd869e394d2b9e63b63e529f692a2d"}, {"lon": -77.01449266666667, "rental_uris": {"android": "https://dc.lft.to/lastmile_qr_scan", "ios": "https://dc.lft.to/lastmile_qr_scan"}, "fusion_lon": 0.0, "is_reserved": 0, "is_disabled": 0, "fusion_lat": 0.0, "type": "electric_scooter", "name": "dbc958f173b7a9e7209f849e074d46f1", "lat": 38.902429166666664, "bike_id": "dbc958f173b7a9e7209f849e074d46f1"}, {"lon": -77.03262033333333, "rental_uris": {"android": "https://dc.lft.to/lastmile_qr_scan", "ios": "https://dc.lft.to/lastmile_qr_scan"}, "fusion_lon": 0.0, "is_reserved": 0, "is_disabled": 0, "fusion_lat": 0.0, "type": "electric_scooter", "name": "781e7a7ef253cad1623595657fd401f8", "lat": 38.921674333333335, "bike_id": "781e7a7ef253cad1623595657fd401f8"}, {"lon": -77.02699283333334, "rental_uris": {"android": "https://dc.lft.to/lastmile_qr_scan", "ios": "https://dc.lft.to/lastmile_qr_scan"}, "fusion_lon": 0.0, "is_reserved": 0, "is_disabled": 0, "fusion_lat": 0.0, "type": "electric_scooter", "name": "11517f5ad1e41c19c14d0f321bafb81e", "lat": 38.906676, "bike_id": "11517f5ad1e41c19c14d0f321bafb81e"}, {"lon": -77.02595833333334, "rental_uris": {"android": "https://dc.lft.to/lastmile_qr_scan", "ios": "https://dc.lft.to/lastmile_qr_scan"}, "fusion_lon": 0.0, "is_reserved": 0, "is_disabled": 0, "fusion_lat": 0.0, "type": "electric_scooter", "name": "f9714f8e42b7266a25a042fb535f9028", "lat": 38.905966666666664, "bike_id": "f9714f8e42b7266a25a042fb535f9028"}, {"lon": -77.02822733333333, "rental_uris": {"android": "https://dc.lft.to/lastmile_qr_scan", "ios": "https://dc.lft.to/lastmile_qr_scan"}, "fusion_lon": 0.0, "is_reserved": 0, "is_disabled": 0, "fusion_lat": 0.0, "type": "electric_scooter", "name": "856c3ae71bf99924706780411b6e6cde", "lat": 38.886616333333336, "bike_id": "856c3ae71bf99924706780411b6e6cde"}, {"lon": -77.03223566666666, "rental_uris": {"android": "https://dc.lft.to/lastmile_qr_scan", "ios": "https://dc.lft.to/lastmile_qr_scan"}, "fusion_lon": 0.0, "is_reserved": 0, "is_disabled": 0, "fusion_lat": 0.0, "type": "electric_scooter", "name": "3182efca400f346daf8982cae3904ea8", "lat": 38.9304445, "bike_id": "3182efca400f346daf8982cae3904ea8"}, {"lon": -77.0277835, "rental_uris": {"android": "https://dc.lft.to/lastmile_qr_scan", "ios": "https://dc.lft.to/lastmile_qr_scan"}, "fusion_lon": 0.0, "is_reserved": 0, "is_disabled": 0, "fusion_lat": 0.0, "type": "electric_scooter", "name": "8a0046e6ac161eb10b6586854e16075e", "lat": 38.892206, "bike_id": "8a0046e6ac161eb10b6586854e16075e"}, {"lon": -77.019417, "rental_uris": {"android": "https://dc.lft.to/lastmile_qr_scan", "ios": "https://dc.lft.to/lastmile_qr_scan"}, "fusion_lon": 0.0, "is_reserved": 0, "is_disabled": 0, "fusion_lat": 0.0, "type": "electric_scooter", "name": "5f10e48f9412f4413600c3ccd1645e85", "lat": 38.922583333333336, "bike_id": "5f10e48f9412f4413600c3ccd1645e85"}, {"lon": -77.02805066666667, "rental_uris": {"android": "https://dc.lft.to/lastmile_qr_scan", "ios": "https://dc.lft.to/lastmile_qr_scan"}, "fusion_lon": 0.0, "is_reserved": 0, "is_disabled": 0, "fusion_lat": 0.0, "type": "electric_scooter", "name": "b00ee1ba1d9bc3434f3fe90e7c0998d8", "lat": 38.9024675, "bike_id": "b00ee1ba1d9bc3434f3fe90e7c0998d8"}, {"lon": -77.04476133333333, "rental_uris": {"android": "https://dc.lft.to/lastmile_qr_scan", "ios": "https://dc.lft.to/lastmile_qr_scan"}, "fusion_lon": 0.0, "is_reserved": 0, "is_disabled": 0, "fusion_lat": 0.0, "type": "electric_scooter", "name": "dafad8c00f1736eae585aecdd8fe70bd", "lat": 38.908931, "bike_id": "dafad8c00f1736eae585aecdd8fe70bd"}, {"lon": -77.0107355, "rental_uris": {"android": "https://dc.lft.to/lastmile_qr_scan", "ios": "https://dc.lft.to/lastmile_qr_scan"}, "fusion_lon": 0.0, "is_reserved": 0, "is_disabled": 0, "fusion_lat": 0.0, "type": "electric_scooter", "name": "c35a1f932601df94b92287b4d8dfc2bf", "lat": 38.91418183333333, "bike_id": "c35a1f932601df94b92287b4d8dfc2bf"}, {"lon": -77.0487095, "rental_uris": {"android": "https://dc.lft.to/lastmile_qr_scan", "ios": "https://dc.lft.to/lastmile_qr_scan"}, "fusion_lon": 0.0, "is_reserved": 0, "is_disabled": 0, "fusion_lat": 0.0, "type": "electric_scooter", "name": "ddd21b5689d9709a947f78b117663f23", "lat": 38.903682, "bike_id": "ddd21b5689d9709a947f78b117663f23"}, {"lon": -77.03240233333334, "rental_uris": {"android": "https://dc.lft.to/lastmile_qr_scan", "ios": "https://dc.lft.to/lastmile_qr_scan"}, "fusion_lon": 0.0, "is_reserved": 0, "is_disabled": 0, "fusion_lat": 0.0, "type": "electric_scooter", "name": "362c35385c06b01e027792ebdd22abf9", "lat": 38.905271666666664, "bike_id": "362c35385c06b01e027792ebdd22abf9"}, {"lon": -77.07779566666666, "rental_uris": {"android": "https://dc.lft.to/lastmile_qr_scan", "ios": "https://dc.lft.to/lastmile_qr_scan"}, "fusion_lon": 0.0, "is_reserved": 0, "is_disabled": 0, "fusion_lat": 0.0, "type": "electric_bike", "name": "a6ae6a826366de281421abf0f63d780d", "lat": 38.99598233333333, "bike_id": "a6ae6a826366de281421abf0f63d780d"}, {"lon": -77.00286966666667, "rental_uris": {"android": "https://dc.lft.to/lastmile_qr_scan", "ios": "https://dc.lft.to/lastmile_qr_scan"}, "fusion_lon": 0.0, "is_reserved": 0, "is_disabled": 0, "fusion_lat": 0.0, "type": "electric_scooter", "name": "6434bb5457832288f9fccdd97aa973e4", "lat": 38.87651366666667, "bike_id": "6434bb5457832288f9fccdd97aa973e4"}, {"lon": -77.0318835, "rental_uris": {"android": "https://dc.lft.to/lastmile_qr_scan", "ios": "https://dc.lft.to/lastmile_qr_scan"}, "fusion_lon": 0.0, "is_reserved": 0, "is_disabled": 0, "fusion_lat": 0.0, "type": "electric_scooter", "name": "8e2853dd63688e93b6faefbcdfb73cd9", "lat": 38.900973666666665, "bike_id": "8e2853dd63688e93b6faefbcdfb73cd9"}, {"lon": -77.021983, "rental_uris": {"android": "https://dc.lft.to/lastmile_qr_scan", "ios": "https://dc.lft.to/lastmile_qr_scan"}, "fusion_lon": 0.0, "is_reserved": 0, "is_disabled": 0, "fusion_lat": 0.0, "type": "electric_scooter", "name": "6658ed217aa086066d52fc30f8c3958c", "lat": 38.905435833333335, "bike_id": "6658ed217aa086066d52fc30f8c3958c"}, {"lon": -77.016934, "rental_uris": {"android": "https://dc.lft.to/lastmile_qr_scan", "ios": "https://dc.lft.to/lastmile_qr_scan"}, "fusion_lon": 0.0, "is_reserved": 0, "is_disabled": 0, "fusion_lat": 0.0, "type": "electric_scooter", "name": "a40d6263c93b96da8627c18bd92fca2a", "lat": 38.907611333333335, "bike_id": "a40d6263c93b96da8627c18bd92fca2a"}, {"lon": -77.02776783333333, "rental_uris": {"android": "https://dc.lft.to/lastmile_qr_scan", "ios": "https://dc.lft.to/lastmile_qr_scan"}, "fusion_lon": 0.0, "is_reserved": 0, "is_disabled": 0, "fusion_lat": 0.0, "type": "electric_scooter", "name": "a8ae9aefa29d2a97e17a6acbaed3e1a5", "lat": 38.892211333333336, "bike_id": "a8ae9aefa29d2a97e17a6acbaed3e1a5"}, {"lon": -77.02819316666667, "rental_uris": {"android": "https://dc.lft.to/lastmile_qr_scan", "ios": "https://dc.lft.to/lastmile_qr_scan"}, "fusion_lon": 0.0, "is_reserved": 0, "is_disabled": 0, "fusion_lat": 0.0, "type": "electric_scooter", "name": "05e37e9fafa63c5c5a7937b2b5266839", "lat": 38.88660866666667, "bike_id": "05e37e9fafa63c5c5a7937b2b5266839"}, {"lon": -77.027891, "rental_uris": {"android": "https://dc.lft.to/lastmile_qr_scan", "ios": "https://dc.lft.to/lastmile_qr_scan"}, "fusion_lon": 0.0, "is_reserved": 0, "is_disabled": 0, "fusion_lat": 0.0, "type": "electric_scooter", "name": "ec56cb6c134f958a5024f31bfd9af617", "lat": 38.892419, "bike_id": "ec56cb6c134f958a5024f31bfd9af617"}, {"lon": -77.03861766666667, "rental_uris": {"android": "https://dc.lft.to/lastmile_qr_scan", "ios": "https://dc.lft.to/lastmile_qr_scan"}, "fusion_lon": 0.0, "is_reserved": 0, "is_disabled": 0, "fusion_lat": 0.0, "type": "electric_scooter", "name": "cf9cfcf900f9a358c1b19756d5af400d", "lat": 38.9170695, "bike_id": "cf9cfcf900f9a358c1b19756d5af400d"}, {"lon": -77.0399895, "rental_uris": {"android": "https://dc.lft.to/lastmile_qr_scan", "ios": "https://dc.lft.to/lastmile_qr_scan"}, "fusion_lon": 0.0, "is_reserved": 0, "is_disabled": 0, "fusion_lat": 0.0, "type": "electric_scooter", "name": "457702ab6ef2cb9a121ccc36e6e6c17b", "lat": 38.934279, "bike_id": "457702ab6ef2cb9a121ccc36e6e6c17b"}, {"lon": -76.9867435, "rental_uris": {"android": "https://dc.lft.to/lastmile_qr_scan", "ios": "https://dc.lft.to/lastmile_qr_scan"}, "fusion_lon": 0.0, "is_reserved": 0, "is_disabled": 0, "fusion_lat": 0.0, "type": "electric_bike", "name": "44a4e49c958fafcdb3ee50b239a9cfeb", "lat": 38.83512783333333, "bike_id": "44a4e49c958fafcdb3ee50b239a9cfeb"}, {"lon": -77.0271115, "rental_uris": {"android": "https://dc.lft.to/lastmile_qr_scan", "ios": "https://dc.lft.to/lastmile_qr_scan"}, "fusion_lon": 0.0, "is_reserved": 0, "is_disabled": 0, "fusion_lat": 0.0, "type": "electric_scooter", "name": "d3035f5a377879f67d6cf81da2b6d5d0", "lat": 38.922353, "bike_id": "d3035f5a377879f67d6cf81da2b6d5d0"}, {"lon": -77.00336483333334, "rental_uris": {"android": "https://dc.lft.to/lastmile_qr_scan", "ios": "https://dc.lft.to/lastmile_qr_scan"}, "fusion_lon": 0.0, "is_reserved": 0, "is_disabled": 0, "fusion_lat": 0.0, "type": "electric_scooter", "name": "9f249100c5a3e718dd5b64fb4ce7da90", "lat": 38.902665999999996, "bike_id": "9f249100c5a3e718dd5b64fb4ce7da90"}, {"lon": -77.03280266666667, "rental_uris": {"android": "https://dc.lft.to/lastmile_qr_scan", "ios": "https://dc.lft.to/lastmile_qr_scan"}, "fusion_lon": 0.0, "is_reserved": 0, "is_disabled": 0, "fusion_lat": 0.0, "type": "electric_scooter", "name": "996e434d238c6f7f2459d86a539dbc8c", "lat": 38.89897583333333, "bike_id": "996e434d238c6f7f2459d86a539dbc8c"}, {"lon": -77.0317585, "rental_uris": {"android": "https://dc.lft.to/lastmile_qr_scan", "ios": "https://dc.lft.to/lastmile_qr_scan"}, "fusion_lon": 0.0, "is_reserved": 0, "is_disabled": 0, "fusion_lat": 0.0, "type": "electric_scooter", "name": "58fd81a7743053e86f940ed630c6c5eb", "lat": 38.9036085, "bike_id": "58fd81a7743053e86f940ed630c6c5eb"}, {"lon": -77.01356583333333, "rental_uris": {"android": "https://dc.lft.to/lastmile_qr_scan", "ios": "https://dc.lft.to/lastmile_qr_scan"}, "fusion_lon": 0.0, "is_reserved": 0, "is_disabled": 0, "fusion_lat": 0.0, "type": "electric_scooter", "name": "b27215d88c51b9070d10b4b1fb87c549", "lat": 38.94212816666667, "bike_id": "b27215d88c51b9070d10b4b1fb87c549"}, {"lon": -76.99721133333334, "rental_uris": {"android": "https://dc.lft.to/lastmile_qr_scan", "ios": "https://dc.lft.to/lastmile_qr_scan"}, "fusion_lon": 0.0, "is_reserved": 0, "is_disabled": 0, "fusion_lat": 0.0, "type": "electric_scooter", "name": "7c7f8c5d9250cca73003f138fb00b32c", "lat": 38.89442783333333, "bike_id": "7c7f8c5d9250cca73003f138fb00b32c"}, {"lon": -77.02825583333333, "rental_uris": {"android": "https://dc.lft.to/lastmile_qr_scan", "ios": "https://dc.lft.to/lastmile_qr_scan"}, "fusion_lon": 0.0, "is_reserved": 0, "is_disabled": 0, "fusion_lat": 0.0, "type": "electric_scooter", "name": "94d5dc71ac3f577fe4bf18b4cfcadf76", "lat": 38.89792466666667, "bike_id": "94d5dc71ac3f577fe4bf18b4cfcadf76"}, {"lon": -77.04658416666666, "rental_uris": {"android": "https://dc.lft.to/lastmile_qr_scan", "ios": "https://dc.lft.to/lastmile_qr_scan"}, "fusion_lon": 0.0, "is_reserved": 0, "is_disabled": 0, "fusion_lat": 0.0, "type": "electric_scooter", "name": "a3c3a7a648dd2ffbc846abb381bdf59d", "lat": 38.90323716666666, "bike_id": "a3c3a7a648dd2ffbc846abb381bdf59d"}, {"lon": -76.9544195, "rental_uris": {"android": "https://dc.lft.to/lastmile_qr_scan", "ios": "https://dc.lft.to/lastmile_qr_scan"}, "fusion_lon": 0.0, "is_reserved": 0, "is_disabled": 0, "fusion_lat": 0.0, "type": "electric_scooter", "name": "c610f7664ce7063fd7d86ab174277b49", "lat": 38.889885, "bike_id": "c610f7664ce7063fd7d86ab174277b49"}, {"lon": -77.03295233333333, "rental_uris": {"android": "https://dc.lft.to/lastmile_qr_scan", "ios": "https://dc.lft.to/lastmile_qr_scan"}, "fusion_lon": 0.0, "is_reserved": 0, "is_disabled": 0, "fusion_lat": 0.0, "type": "electric_scooter", "name": "210adca3fdfe930694a0922d79cffd86", "lat": 38.92758366666666, "bike_id": "210adca3fdfe930694a0922d79cffd86"}, {"lon": -77.00831083333334, "rental_uris": {"android": "https://dc.lft.to/lastmile_qr_scan", "ios": "https://dc.lft.to/lastmile_qr_scan"}, "fusion_lon": 0.0, "is_reserved": 0, "is_disabled": 0, "fusion_lat": 0.0, "type": "electric_scooter", "name": "2545c23db85c9571eca70c358cc4f15e", "lat": 38.8791305, "bike_id": "2545c23db85c9571eca70c358cc4f15e"}, {"lon": -77.01938266666667, "rental_uris": {"android": "https://dc.lft.to/lastmile_qr_scan", "ios": "https://dc.lft.to/lastmile_qr_scan"}, "fusion_lon": 0.0, "is_reserved": 0, "is_disabled": 0, "fusion_lat": 0.0, "type": "electric_scooter", "name": "d96d7657d39513a2b0a5782d97eecf1a", "lat": 38.922728166666666, "bike_id": "d96d7657d39513a2b0a5782d97eecf1a"}, {"lon": -77.035502, "rental_uris": {"android": "https://dc.lft.to/lastmile_qr_scan", "ios": "https://dc.lft.to/lastmile_qr_scan"}, "fusion_lon": 0.0, "is_reserved": 0, "is_disabled": 0, "fusion_lat": 0.0, "type": "electric_scooter", "name": "e2f2c03c11eb77afc35df789c62eaff1", "lat": 38.9082375, "bike_id": "e2f2c03c11eb77afc35df789c62eaff1"}, {"lon": -77.00207283333333, "rental_uris": {"android": "https://dc.lft.to/lastmile_qr_scan", "ios": "https://dc.lft.to/lastmile_qr_scan"}, "fusion_lon": 0.0, "is_reserved": 0, "is_disabled": 0, "fusion_lat": 0.0, "type": "electric_scooter", "name": "d01bef23581d0dab0bf2d39f0f79e67a", "lat": 38.90032, "bike_id": "d01bef23581d0dab0bf2d39f0f79e67a"}, {"lon": -77.021787, "rental_uris": {"android": "https://dc.lft.to/lastmile_qr_scan", "ios": "https://dc.lft.to/lastmile_qr_scan"}, "fusion_lon": 0.0, "is_reserved": 0, "is_disabled": 0, "fusion_lat": 0.0, "type": "electric_scooter", "name": "c93ffa4ac9358b8dd07ed9557c2a4261", "lat": 38.89356016666667, "bike_id": "c93ffa4ac9358b8dd07ed9557c2a4261"}, {"lon": -77.045421, "rental_uris": {"android": "https://dc.lft.to/lastmile_qr_scan", "ios": "https://dc.lft.to/lastmile_qr_scan"}, "fusion_lon": 0.0, "is_reserved": 0, "is_disabled": 0, "fusion_lat": 0.0, "type": "electric_scooter", "name": "383d570c542e2204bbbd0c2f0c3f9b2d", "lat": 38.91317083333333, "bike_id": "383d570c542e2204bbbd0c2f0c3f9b2d"}, {"lon": -76.98362866666666, "rental_uris": {"android": "https://dc.lft.to/lastmile_qr_scan", "ios": "https://dc.lft.to/lastmile_qr_scan"}, "fusion_lon": 0.0, "is_reserved": 0, "is_disabled": 0, "fusion_lat": 0.0, "type": "electric_scooter", "name": "5466e330eccf65d6da47e944ffbd8e76", "lat": 38.88992866666667, "bike_id": "5466e330eccf65d6da47e944ffbd8e76"}, {"lon": -77.06486216666667, "rental_uris": {"android": "https://dc.lft.to/lastmile_qr_scan", "ios": "https://dc.lft.to/lastmile_qr_scan"}, "fusion_lon": 0.0, "is_reserved": 0, "is_disabled": 0, "fusion_lat": 0.0, "type": "electric_scooter", "name": "c0724885a1d567f911cd7df9ac7b780f", "lat": 38.946067, "bike_id": "c0724885a1d567f911cd7df9ac7b780f"}, {"lon": -77.025269, "rental_uris": {"android": "https://dc.lft.to/lastmile_qr_scan", "ios": "https://dc.lft.to/lastmile_qr_scan"}, "fusion_lon": 0.0, "is_reserved": 0, "is_disabled": 0, "fusion_lat": 0.0, "type": "electric_scooter", "name": "15f055f77c78ccd345f90581fb1d5378", "lat": 38.92974383333333, "bike_id": "15f055f77c78ccd345f90581fb1d5378"}, {"lon": -77.00584933333333, "rental_uris": {"android": "https://dc.lft.to/lastmile_qr_scan", "ios": "https://dc.lft.to/lastmile_qr_scan"}, "fusion_lon": 0.0, "is_reserved": 0, "is_disabled": 0, "fusion_lat": 0.0, "type": "electric_scooter", "name": "732711296e9c689aa1becb00874f447d", "lat": 38.87574816666667, "bike_id": "732711296e9c689aa1becb00874f447d"}, {"lon": -77.00537533333333, "rental_uris": {"android": "https://dc.lft.to/lastmile_qr_scan", "ios": "https://dc.lft.to/lastmile_qr_scan"}, "fusion_lon": 0.0, "is_reserved": 0, "is_disabled": 0, "fusion_lat": 0.0, "type": "electric_scooter", "name": "79f8d78643786657deb3b951846e40d0", "lat": 38.875446, "bike_id": "79f8d78643786657deb3b951846e40d0"}, {"lon": -77.03232383333334, "rental_uris": {"android": "https://dc.lft.to/lastmile_qr_scan", "ios": "https://dc.lft.to/lastmile_qr_scan"}, "fusion_lon": 0.0, "is_reserved": 0, "is_disabled": 0, "fusion_lat": 0.0, "type": "electric_scooter", "name": "763cbaf3726eb0068c2c27d033deb050", "lat": 38.90145183333333, "bike_id": "763cbaf3726eb0068c2c27d033deb050"}, {"lon": -77.04618133333334, "rental_uris": {"android": "https://dc.lft.to/lastmile_qr_scan", "ios": "https://dc.lft.to/lastmile_qr_scan"}, "fusion_lon": 0.0, "is_reserved": 0, "is_disabled": 0, "fusion_lat": 0.0, "type": "electric_scooter", "name": "b2d0f129824fc28b71678faf041ce6d3", "lat": 38.90390416666666, "bike_id": "b2d0f129824fc28b71678faf041ce6d3"}, {"lon": -77.00391766666667, "rental_uris": {"android": "https://dc.lft.to/lastmile_qr_scan", "ios": "https://dc.lft.to/lastmile_qr_scan"}, "fusion_lon": 0.0, "is_reserved": 0, "is_disabled": 0, "fusion_lat": 0.0, "type": "electric_scooter", "name": "3880b2994b08be50f68d90fb2e821498", "lat": 38.900122833333334, "bike_id": "3880b2994b08be50f68d90fb2e821498"}, {"lon": -77.03423066666667, "rental_uris": {"android": "https://dc.lft.to/lastmile_qr_scan", "ios": "https://dc.lft.to/lastmile_qr_scan"}, "fusion_lon": 0.0, "is_reserved": 0, "is_disabled": 0, "fusion_lat": 0.0, "type": "electric_scooter", "name": "d9cf4b7a467bec566b060d5dcaa1c859", "lat": 38.909587333333334, "bike_id": "d9cf4b7a467bec566b060d5dcaa1c859"}, {"lon": -76.94436366666666, "rental_uris": {"android": "https://dc.lft.to/lastmile_qr_scan", "ios": "https://dc.lft.to/lastmile_qr_scan"}, "fusion_lon": 0.0, "is_reserved": 0, "is_disabled": 0, "fusion_lat": 0.0, "type": "electric_bike", "name": "4e150e80c54f65b46d0bffc1e1d468db", "lat": 38.89333116666667, "bike_id": "4e150e80c54f65b46d0bffc1e1d468db"}, {"lon": -77.046593, "rental_uris": {"android": "https://dc.lft.to/lastmile_qr_scan", "ios": "https://dc.lft.to/lastmile_qr_scan"}, "fusion_lon": 0.0, "is_reserved": 0, "is_disabled": 0, "fusion_lat": 0.0, "type": "electric_scooter", "name": "b93c129b8bcf9a0bad60ff3f0c32d945", "lat": 38.894685833333334, "bike_id": "b93c129b8bcf9a0bad60ff3f0c32d945"}, {"lon": -77.03974283333334, "rental_uris": {"android": "https://dc.lft.to/lastmile_qr_scan", "ios": "https://dc.lft.to/lastmile_qr_scan"}, "fusion_lon": 0.0, "is_reserved": 0, "is_disabled": 0, "fusion_lat": 0.0, "type": "electric_scooter", "name": "e733d07e9742101c8cfd45fbb21e0fe3", "lat": 38.9026095, "bike_id": "e733d07e9742101c8cfd45fbb21e0fe3"}, {"lon": -77.023051, "rental_uris": {"android": "https://dc.lft.to/lastmile_qr_scan", "ios": "https://dc.lft.to/lastmile_qr_scan"}, "fusion_lon": 0.0, "is_reserved": 0, "is_disabled": 0, "fusion_lat": 0.0, "type": "electric_scooter", "name": "8cd34c247f1b0dfbddb0104155fdcfea", "lat": 38.91684883333333, "bike_id": "8cd34c247f1b0dfbddb0104155fdcfea"}, {"lon": -77.03278233333333, "rental_uris": {"android": "https://dc.lft.to/lastmile_qr_scan", "ios": "https://dc.lft.to/lastmile_qr_scan"}, "fusion_lon": 0.0, "is_reserved": 0, "is_disabled": 0, "fusion_lat": 0.0, "type": "electric_scooter", "name": "04db8d362087f7b0cdd7f877ee9cde9d", "lat": 38.93962, "bike_id": "04db8d362087f7b0cdd7f877ee9cde9d"}, {"lon": -77.02434783333334, "rental_uris": {"android": "https://dc.lft.to/lastmile_qr_scan", "ios": "https://dc.lft.to/lastmile_qr_scan"}, "fusion_lon": 0.0, "is_reserved": 0, "is_disabled": 0, "fusion_lat": 0.0, "type": "electric_scooter", "name": "8f113ff94422448c638ae0fdf70a7bb1", "lat": 38.917036333333336, "bike_id": "8f113ff94422448c638ae0fdf70a7bb1"}, {"lon": -76.91059166666666, "rental_uris": {"android": "https://dc.lft.to/lastmile_qr_scan", "ios": "https://dc.lft.to/lastmile_qr_scan"}, "fusion_lon": 0.0, "is_reserved": 0, "is_disabled": 0, "fusion_lat": 0.0, "type": "electric_bike", "name": "8949f94f8436e5bad31f219a2fc9d68e", "lat": 39.01077016666667, "bike_id": "8949f94f8436e5bad31f219a2fc9d68e"}, {"lon": -77.003903, "rental_uris": {"android": "https://dc.lft.to/lastmile_qr_scan", "ios": "https://dc.lft.to/lastmile_qr_scan"}, "fusion_lon": 0.0, "is_reserved": 0, "is_disabled": 0, "fusion_lat": 0.0, "type": "electric_scooter", "name": "ea396381a5a40f8a02cb4792fac1d28a", "lat": 38.876536333333334, "bike_id": "ea396381a5a40f8a02cb4792fac1d28a"}, {"lon": -77.0331875, "rental_uris": {"android": "https://dc.lft.to/lastmile_qr_scan", "ios": "https://dc.lft.to/lastmile_qr_scan"}, "fusion_lon": 0.0, "is_reserved": 0, "is_disabled": 0, "fusion_lat": 0.0, "type": "electric_scooter", "name": "9c0bf4e7c281c249f5742457fe97cc0d", "lat": 38.9215595, "bike_id": "9c0bf4e7c281c249f5742457fe97cc0d"}, {"lon": -77.04435516666666, "rental_uris": {"android": "https://dc.lft.to/lastmile_qr_scan", "ios": "https://dc.lft.to/lastmile_qr_scan"}, "fusion_lon": 0.0, "is_reserved": 0, "is_disabled": 0, "fusion_lat": 0.0, "type": "electric_scooter", "name": "21d9a7a7f13329f0fba75d4d8efa0553", "lat": 38.901390166666665, "bike_id": "21d9a7a7f13329f0fba75d4d8efa0553"}, {"lon": -77.0218505, "rental_uris": {"android": "https://dc.lft.to/lastmile_qr_scan", "ios": "https://dc.lft.to/lastmile_qr_scan"}, "fusion_lon": 0.0, "is_reserved": 0, "is_disabled": 0, "fusion_lat": 0.0, "type": "electric_scooter", "name": "ced86f96b75d4e607b66371bb14c8b88", "lat": 38.903527833333335, "bike_id": "ced86f96b75d4e607b66371bb14c8b88"}, {"lon": -77.03221833333333, "rental_uris": {"android": "https://dc.lft.to/lastmile_qr_scan", "ios": "https://dc.lft.to/lastmile_qr_scan"}, "fusion_lon": 0.0, "is_reserved": 0, "is_disabled": 0, "fusion_lat": 0.0, "type": "electric_scooter", "name": "dc802a5ac91d58546719399a8bd2983c", "lat": 38.9304995, "bike_id": "dc802a5ac91d58546719399a8bd2983c"}, {"lon": -77.01344516666667, "rental_uris": {"android": "https://dc.lft.to/lastmile_qr_scan", "ios": "https://dc.lft.to/lastmile_qr_scan"}, "fusion_lon": 0.0, "is_reserved": 0, "is_disabled": 0, "fusion_lat": 0.0, "type": "electric_scooter", "name": "62c21b7f22c6a876c0bcdfc1b439e113", "lat": 38.918565666666666, "bike_id": "62c21b7f22c6a876c0bcdfc1b439e113"}, {"lon": -77.00924416666666, "rental_uris": {"android": "https://dc.lft.to/lastmile_qr_scan", "ios": "https://dc.lft.to/lastmile_qr_scan"}, "fusion_lon": 0.0, "is_reserved": 0, "is_disabled": 0, "fusion_lat": 0.0, "type": "electric_scooter", "name": "747f391ce46849c711835786bd0bfbab", "lat": 38.89609133333333, "bike_id": "747f391ce46849c711835786bd0bfbab"}, {"lon": -77.04834383333333, "rental_uris": {"android": "https://dc.lft.to/lastmile_qr_scan", "ios": "https://dc.lft.to/lastmile_qr_scan"}, "fusion_lon": 0.0, "is_reserved": 0, "is_disabled": 0, "fusion_lat": 0.0, "type": "electric_scooter", "name": "21782dfa77b56a701ad6873e33f5e386", "lat": 38.911047833333335, "bike_id": "21782dfa77b56a701ad6873e33f5e386"}, {"lon": -76.9983995, "rental_uris": {"android": "https://dc.lft.to/lastmile_qr_scan", "ios": "https://dc.lft.to/lastmile_qr_scan"}, "fusion_lon": 0.0, "is_reserved": 0, "is_disabled": 0, "fusion_lat": 0.0, "type": "electric_scooter", "name": "7f446e952280ca58086106e6aaf09d46", "lat": 38.83955366666667, "bike_id": "7f446e952280ca58086106e6aaf09d46"}, {"lon": -77.02968416666667, "rental_uris": {"android": "https://dc.lft.to/lastmile_qr_scan", "ios": "https://dc.lft.to/lastmile_qr_scan"}, "fusion_lon": 0.0, "is_reserved": 0, "is_disabled": 0, "fusion_lat": 0.0, "type": "electric_scooter", "name": "d9f1aa66ee1f567816be5a3f5b8d0c8f", "lat": 38.904234, "bike_id": "d9f1aa66ee1f567816be5a3f5b8d0c8f"}, {"lon": -77.027113, "rental_uris": {"android": "https://dc.lft.to/lastmile_qr_scan", "ios": "https://dc.lft.to/lastmile_qr_scan"}, "fusion_lon": 0.0, "is_reserved": 0, "is_disabled": 0, "fusion_lat": 0.0, "type": "electric_scooter", "name": "6a822a2aaeece36d68eae219e1ec7417", "lat": 38.89844266666667, "bike_id": "6a822a2aaeece36d68eae219e1ec7417"}, {"lon": -76.9733, "rental_uris": {"android": "https://dc.lft.to/lastmile_qr_scan", "ios": "https://dc.lft.to/lastmile_qr_scan"}, "fusion_lon": 0.0, "is_reserved": 0, "is_disabled": 0, "fusion_lat": 0.0, "type": "electric_scooter", "name": "776d2ec45a75042e55146b2f6801f1c1", "lat": 38.904063666666666, "bike_id": "776d2ec45a75042e55146b2f6801f1c1"},