{"data": {"bikes": [{"rental_uris": {"ios": "https://dc.lft.to/lastmile_qr_scan", "android": "https://dc.lft.to/lastmile_qr_scan"}, "lon": -76.989763, "type": "electric_scooter", "fusion_lat": 0.0, "lat": 38.85922433333333, "name": "b3fc608ba6e75f4646a0e3e932453a7e", "fusion_lon": 0.0, "bike_id": "b3fc608ba6e75f4646a0e3e932453a7e", "is_disabled": 0, "is_reserved": 0}, {"rental_uris": {"ios": "https://dc.lft.to/lastmile_qr_scan", "android": "https://dc.lft.to/lastmile_qr_scan"}, "lon": -77.02005183333333, "type": "electric_scooter", "fusion_lat": 0.0, "lat": 38.919172, "name": "97ea6a663f57c07efcb20f2e40010610", "fusion_lon": 0.0, "bike_id": "97ea6a663f57c07efcb20f2e40010610", "is_disabled": 0, "is_reserved": 0}, {"rental_uris": {"ios": "https://dc.lft.to/lastmile_qr_scan", "android": "https://dc.lft.to/lastmile_qr_scan"}, "lon": -77.02830233333333, "type": "electric_scooter", "fusion_lat": 0.0, "lat": 38.89602883333333, "name": "41141ac2b903b5a7c2197a9d4a81e533", "fusion_lon": 0.0, "bike_id": "41141ac2b903b5a7c2197a9d4a81e533", "is_disabled": 0, "is_reserved": 0}, {"rental_uris": {"ios": "https://dc.lft.to/lastmile_qr_scan", "android": "https://dc.lft.to/lastmile_qr_scan"}, "lon": -77.02791283333333, "type": "electric_scooter", "fusion_lat": 0.0, "lat": 38.917088666666665, "name": "8679b7742468da98787d9df8f43d122d", "fusion_lon": 0.0, "bike_id": "8679b7742468da98787d9df8f43d122d", "is_disabled": 0, "is_reserved": 0}, {"rental_uris": {"ios": "https://dc.lft.to/lastmile_qr_scan", "android": "https://dc.lft.to/lastmile_qr_scan"}, "lon": -77.02532316666667, "type": "electric_scooter", "fusion_lat": 0.0, "lat": 38.943012, "name": "6a92f933aa6cf7d411c9058b7b97b666", "fusion_lon": 0.0, "bike_id": "6a92f933aa6cf7d411c9058b7b97b666", "is_disabled": 0, "is_reserved": 0}, {"rental_uris": {"ios": "https://dc.lft.to/lastmile_qr_scan", "android": "https://dc.lft.to/lastmile_qr_scan"}, "lon": -76.94999433333334, "type": "electric_scooter", "fusion_lat": 0.0, "lat": 38.89372133333333, "name": "d6651368e0594920d48e865b40be5959", "fusion_lon": 0.0, "bike_id": "d6651368e0594920d48e865b40be5959", "is_disabled": 0, "is_reserved": 0}, {"rental_uris": {"ios": "https://dc.lft.to/lastmile_qr_scan", "android": "https://dc.lft.to/lastmile_qr_scan"}, "lon": -77.03658933333334, "type": "electric_scooter", "fusion_lat": 0.0, "lat": 38.90275166666667, "name": "7bbba0902a2d8fc707ddf65a80026144", "fusion_lon": 0.0, "bike_id": "7bbba0902a2d8fc707ddf65a80026144", "is_disabled": 0, "is_reserved": 0}, {"rental_uris": {"ios": "https://dc.lft.to/lastmile_qr_scan", "android": "https://dc.lft.to/lastmile_qr_scan"}, "lon": -77.00804583333333, "type": "electric_scooter", "fusion_lat": 0.0, "lat": 38.905623, "name": "cd14ee6b7c0307888fd19289bc9fe3bb", "fusion_lon": 0.0, "bike_id": "cd14ee6b7c0307888fd19289bc9fe3bb", "is_disabled": 0, "is_reserved": 0}, {"rental_uris": {"ios": "https://dc.lft.to/lastmile_qr_scan", "android": "https://dc.lft.to/lastmile_qr_scan"}, "lon": -76.94891183333333, "type": "electric_scooter", "fusion_lat": 0.0, "lat": 38.89534366666667, "name": "1c64b06c8a6dacc0df3599c5d9d449c3", "fusion_lon": 0.0, "bike_id": "1c64b06c8a6dacc0df3599c5d9d449c3", "is_disabled": 0, "is_reserved": 0}, {"rental_uris": {"ios": "https://dc.lft.to/lastmile_qr_scan", "android": "https://dc.lft.to/lastmile_qr_scan"}, "lon": -77.0380645, "type": "electric_scooter", "fusion_lat": 0.0, "lat": 38.933986833333336, "name": "99a22d30df7a4036535453c99c195133", "fusion_lon": 0.0, "bike_id": "99a22d30df7a4036535453c99c195133", "is_disabled": 0, "is_reserved": 0}, {"rental_uris": {"ios": "https://dc.lft.to/lastmile_qr_scan", "android": "https://dc.lft.to/lastmile_qr_scan"}, "lon": -77.01638616666666, "type": "electric_scooter", "fusion_lat": 0.0, "lat": 38.90383416666667, "name": "4a2afd2c5df85b2ee033e7a7af109264", "fusion_lon": 0.0, "bike_id": "4a2afd2c5df85b2ee033e7a7af109264", "is_disabled": 0, "is_reserved": 0}, {"rental_uris": {"ios": "https://dc.lft.to/lastmile_qr_scan", "android": "https://dc.lft.to/lastmile_qr_scan"}, "lon": -76.91599033333334, "type": "electric_bike", "fusion_lat": 0.0, "lat": 38.87982683333333, "name": "a03c65fc484c5ca9f32abf1f02e307f8", "fusion_lon": 0.0, "bike_id": "a03c65fc484c5ca9f32abf1f02e307f8", "is_disabled": 0, "is_reserved": 0}, {"rental_uris": {"ios": "https://dc.lft.to/lastmile_qr_scan", "android": "https://dc.lft.to/lastmile_qr_scan"}, "lon": -77.04061433333334, "type": "electric_scooter", "fusion_lat": 0.0, "lat": 38.9266085, "name": "4f52987b5dac303b40b4b14416166bf0", "fusion_lon": 0.0, "bike_id": "4f52987b5dac303b40b4b14416166bf0", "is_disabled": 0, "is_reserved": 0}, {"rental_uris": {"ios": "https://dc.lft.to/lastmile_qr_scan", "android": "https://dc.lft.to/lastmile_qr_scan"}, "lon": -77.009329, "type": "electric_scooter", "fusion_lat": 0.0, "lat": 38.872032833333336, "name": "d3760a1fdd7d4a57b51bf7b455ea2689", "fusion_lon": 0.0, "bike_id": "d3760a1fdd7d4a57b51bf7b455ea2689", "is_disabled": 0, "is_reserved": 0}, {"rental_uris": {"ios": "https://dc.lft.to/lastmile_qr_scan", "android": "https://dc.lft.to/lastmile_qr_scan"}, "lon": -77.03959583333334, "type": "electric_scooter", "fusion_lat": 0.0, "lat": 38.902828666666665, "name": "b122f4614cbb99d78dc6441c8e26433e", "fusion_lon": 0.0, "bike_id": "b122f4614cbb99d78dc6441c8e26433e", "is_disabled": 0, "is_reserved": 0}, {"rental_uris": {"ios": "https://dc.lft.to/lastmile_qr_scan", "android": "https://dc.lft.to/lastmile_qr_scan"}, "lon": -77.024181, "type": "electric_bike", "fusion_lat": 0.0, "lat": 38.99410133333333, "name": "2e479bf54a80f884d0ed7de3394a0d4d", "fusion_lon": 0.0, "bike_id": "2e479bf54a80f884d0ed7de3394a0d4d", "is_disabled": 0, "is_reserved": 0}, {"rental_uris": {"ios": "https://dc.lft.to/lastmile_qr_scan", "android": "https://dc.lft.to/lastmile_qr_scan"}, "lon": -77.0689065, "type": "electric_scooter", "fusion_lat": 0.0, "lat": 38.94031533333333, "name": "41a6b3392b10130c4936a6f060eca805", "fusion_lon": 0.0, "bike_id": "41a6b3392b10130c4936a6f060eca805", "is_disabled": 0, "is_reserved": 0}, {"rental_uris": {"ios": "https://dc.lft.to/lastmile_qr_scan", "android": "https://dc.lft.to/lastmile_qr_scan"}, "lon": -77.0223755, "type": "electric_scooter", "fusion_lat": 0.0, "lat": 38.916499, "name": "cd228cb30ef8ea4dd2f4c2fe3c8a32dc", "fusion_lon": 0.0, "bike_id": "cd228cb30ef8ea4dd2f4c2fe3c8a32dc", "is_disabled": 0, "is_reserved": 0}, {"rental_uris": {"ios": "https://dc.lft.to/lastmile_qr_scan", "android": "https://dc.lft.to/lastmile_qr_scan"}, "lon": -77.06366166666666, "type": "electric_scooter", "fusion_lat": 0.0, "lat": 38.90929633333333, "name": "4f8f7967c8f0ea083c6f039c0589376f", "fusion_lon": 0.0, "bike_id": "4f8f7967c8f0ea083c6f039c0589376f", "is_disabled": 0, "is_reserved": 0}, {"rental_uris": {"ios": "https://dc.lft.to/lastmile_qr_scan", "android": "https://dc.lft.to/lastmile_qr_scan"}, "lon": -77.04116933333333, "type": "electric_scooter", "fusion_lat": 0.0, "lat": 38.9220635, "name": "fe33bb66e1365a2f9b3ee7ec1d301214", "fusion_lon": 0.0, "bike_id": "fe33bb66e1365a2f9b3ee7ec1d301214", "is_disabled": 0, "is_reserved": 0}, {"rental_uris": {"ios": "https://dc.lft.to/lastmile_qr_scan", "android": "https://dc.lft.to/lastmile_qr_scan"}, "lon": -77.07041316666667, "type": "electric_bike", "fusion_lat": 0.0, "lat": 38.82443333333333, "name": "fd5b5874a37eec6027c1848dccfb8b7f", "fusion_lon": 0.0, "bike_id": "fd5b5874a37eec6027c1848dccfb8b7f", "is_disabled": 0, "is_reserved": 0}, {"rental_uris": {"ios": "https://dc.lft.to/lastmile_qr_scan", "android": "https://dc.lft.to/lastmile_qr_scan"}, "lon": -76.99002966666667, "type": "electric_scooter", "fusion_lat": 0.0, "lat": 38.8650575, "name": "c5184b3800e11dbcfe58d3da243ee769", "fusion_lon": 0.0, "bike_id": "c5184b3800e11dbcfe58d3da243ee769", "is_disabled": 0, "is_reserved": 0}, {"rental_uris": {"ios": "https://dc.lft.to/lastmile_qr_scan", "android": "https://dc.lft.to/lastmile_qr_scan"}, "lon": -77.06113716666667, "type": "electric_scooter", "fusion_lat": 0.0, "lat": 38.912972333333336, "name": "6c10e39f60b75c6cf005b14886c617e9", "fusion_lon": 0.0, "bike_id": "6c10e39f60b75c6cf005b14886c617e9", "is_disabled": 0, "is_reserved": 0}, {"rental_uris": {"ios": "https://dc.lft.to/lastmile_qr_scan", "android": "https://dc.lft.to/lastmile_qr_scan"}, "lon": -77.03462016666667, "type": "electric_scooter", "fusion_lat": 0.0, "lat": 38.90770766666667, "name": "44f306a828fcbe781b3eb21f703817db", "fusion_lon": 0.0, "bike_id": "44f306a828fcbe781b3eb21f703817db", "is_disabled": 0, "is_reserved": 0}, {"rental_uris": {"ios": "https://dc.lft.to/lastmile_qr_scan", "android": "https://dc.lft.to/lastmile_qr_scan"}, "lon": -77.04240816666666, "type": "electric_scooter", "fusion_lat": 0.0, "lat": 38.921515, "name": "3bbfaa8688177a378ce21233edf49bb3", "fusion_lon": 0.0, "bike_id": "3bbfaa8688177a378ce21233edf49bb3", "is_disabled": 0, "is_reserved": 0}, {"rental_uris": {"ios": "https://dc.lft.to/lastmile_qr_scan", "android": "https://dc.lft.to/lastmile_qr_scan"}, "lon": -77.00215316666667, "type": "electric_scooter", "fusion_lat": 0.0, "lat": 38.90062283333334, "name": "55d520e65868f0a7e7ae3f2d9ab78769", "fusion_lon": 0.0, "bike_id": "55d520e65868f0a7e7ae3f2d9ab78769", "is_disabled": 0, "is_reserved": 0}, {"rental_uris": {"ios": "https://dc.lft.to/lastmile_qr_scan", "android": "https://dc.lft.to/lastmile_qr_scan"}, "lon": -77.03239716666667, "type": "electric_scooter", "fusion_lat": 0.0, "lat": 38.912698666666664, "name": "17823a32e4d53698259f271f3f423345", "fusion_lon": 0.0, "bike_id": "17823a32e4d53698259f271f3f423345", "is_disabled": 0, "is_reserved": 0}, {"rental_uris": {"ios": "https://dc.lft.to/lastmile_qr_scan", "android": "https://dc.lft.to/lastmile_qr_scan"}, "lon": -77.02721, "type": "electric_scooter", "fusion_lat": 0.0, "lat": 38.9097005, "name": "410f5b83c82064e87c88aae436ebe71d", "fusion_lon": 0.0, "bike_id": "410f5b83c82064e87c88aae436ebe71d", "is_disabled": 0, "is_reserved": 0}, {"rental_uris": {"ios": "https://dc.lft.to/lastmile_qr_scan", "android": "https://dc.lft.to/lastmile_qr_scan"}, "lon": -77.00406066666666, "type": "electric_scooter", "fusion_lat": 0.0, "lat": 38.879386333333336, "name": "f3a02fb0c862699a2aec45f710c98209", "fusion_lon": 0.0, "bike_id": "f3a02fb0c862699a2aec45f710c98209", "is_disabled": 0, "is_reserved": 0}, {"rental_uris": {"ios": "https://dc.lft.to/lastmile_qr_scan", "android": "https://dc.lft.to/lastmile_qr_scan"}, "lon": -77.1412015, "type": "electric_bike", "fusion_lat": 0.0, "lat": 38.81603033333333, "name": "6c70e7aa33671ce8c1307ce6b7d457e9", "fusion_lon": 0.0, "bike_id": "6c70e7aa33671ce8c1307ce6b7d457e9", "is_disabled": 0, "is_reserved": 0}, {"rental_uris": {"ios": "https://dc.lft.to/lastmile_qr_scan", "android": "https://dc.lft.to/lastmile_qr_scan"}, "lon": -76.99519133333334, "type": "electric_scooter", "fusion_lat": 0.0, "lat": 38.862630333333335, "name": "555cf49629492710e549ec4e0157ea4e", "fusion_lon": 0.0, "bike_id": "555cf49629492710e549ec4e0157ea4e", "is_disabled": 0, "is_reserved": 0}, {"rental_uris": {"ios": "https://dc.lft.to/lastmile_qr_scan", "android": "https://dc.lft.to/lastmile_qr_scan"}, "lon": -77.01085716666667, "type": "electric_scooter", "fusion_lat": 0.0, "lat": 38.91623116666667, "name": "2d5dec03f8272951afb584c6da3e7d41", "fusion_lon": 0.0, "bike_id": "2d5dec03f8272951afb584c6da3e7d41", "is_disabled": 0, "is_reserved": 0}, {"rental_uris": {"ios": "https://dc.lft.to/lastmile_qr_scan", "android": "https://dc.lft.to/lastmile_qr_scan"}, "lon": -77.03274716666667, "type": "electric_scooter", "fusion_lat": 0.0, "lat": 38.9380695, "name": "90431c2e4961e34e3bb13024c89524e6", "fusion_lon": 0.0, "bike_id": "90431c2e4961e34e3bb13024c89524e6", "is_disabled": 0, "is_reserved": 0}, {"rental_uris": {"ios": "https://dc.lft.to/lastmile_qr_scan", "android": "https://dc.lft.to/lastmile_qr_scan"}, "lon": -77.00847783333333, "type": "electric_bike", "fusion_lat": 0.0, "lat": 38.94912133333333, "name": "31bd4ea9d76f35c5f4cc6bf27e9bab2f", "fusion_lon": 0.0, "bike_id": "31bd4ea9d76f35c5f4cc6bf27e9bab2f", "is_disabled": 0, "is_reserved": 0}, {"rental_uris": {"ios": "https://dc.lft.to/lastmile_qr_scan", "android": "https://dc.lft.to/lastmile_qr_scan"}, "lon": -77.01361116666666, "type": "electric_scooter", "fusion_lat": 0.0, "lat": 38.87117216666667, "name": "e4fc77cd2d9827af2582b60cba17efd0", "fusion_lon": 0.0, "bike_id": "e4fc77cd2d9827af2582b60cba17efd0", "is_disabled": 0, "is_reserved": 0}, {"rental_uris": {"ios": "https://dc.lft.to/lastmile_qr_scan", "android": "https://dc.lft.to/lastmile_qr_scan"}, "lon": -77.0314875, "type": "electric_scooter", "fusion_lat": 0.0, "lat": 38.88302633333333, "name": "e055132d399a91393137cc4989000f4f", "fusion_lon": 0.0, "bike_id": "e055132d399a91393137cc4989000f4f", "is_disabled": 0, "is_reserved": 0}, {"rental_uris": {"ios": "https://dc.lft.to/lastmile_qr_scan", "android": "https://dc.lft.to/lastmile_qr_scan"}, "lon": -77.02850783333334, "type": "electric_scooter", "fusion_lat": 0.0, "lat": 38.93475216666667, "name": "9abd955925d31f9a09bff1487e3a0fde", "fusion_lon": 0.0, "bike_id": "9abd955925d31f9a09bff1487e3a0fde", "is_disabled": 0, "is_reserved": 0}, {"rental_uris": {"ios": "https://dc.lft.to/lastmile_qr_scan", "android": "https://dc.lft.to/lastmile_qr_scan"}, "lon": -76.93801883333333, "type": "electric_scooter", "fusion_lat": 0.0, "lat": 38.882341833333335, "name": "bc23413d8eb651b09684f733782011a8", "fusion_lon": 0.0, "bike_id": "bc23413d8eb651b09684f733782011a8", "is_disabled": 0, "is_reserved": 0}, {"rental_uris": {"ios": "https://dc.lft.to/lastmile_qr_scan", "android": "https://dc.lft.to/lastmile_qr_scan"}, "lon": -77.010534, "type": "electric_scooter", "fusion_lat": 0.0, "lat": 38.879360166666665, "name": "1e929342aab7672e579daa95b807b824", "fusion_lon": 0.0, "bike_id": "1e929342aab7672e579daa95b807b824", "is_disabled": 0, "is_reserved": 0}, {"rental_uris": {"ios": "https://dc.lft.to/lastmile_qr_scan", "android": "https://dc.lft.to/lastmile_qr_scan"}, "lon": -77.009853, "type": "electric_scooter", "fusion_lat": 0.0, "lat": 38.9148825, "name": "df9bcf78b6c13f2efe6f339b53670e76", "fusion_lon": 0.0, "bike_id": "df9bcf78b6c13f2efe6f339b53670e76", "is_disabled": 0, "is_reserved": 0}, {"rental_uris": {"ios": "https://dc.lft.to/lastmile_qr_scan", "android": "https://dc.lft.to/lastmile_qr_scan"}, "lon": -77.02699633333333, "type": "electric_scooter", "fusion_lat": 0.0, "lat": 38.949793166666666, "name": "92a66234aee58dafe43f4879282fbf96", "fusion_lon": 0.0, "bike_id": "92a66234aee58dafe43f4879282fbf96", "is_disabled": 0, "is_reserved": 0}, {"rental_uris": {"ios": "https://dc.lft.to/lastmile_qr_scan", "android": "https://dc.lft.to/lastmile_qr_scan"}, "lon": -76.96628333333334, "type": "electric_bike", "fusion_lat": 0.0, "lat": 38.941982, "name": "5a6fe9a41f4885fe78f41a7779a5308b", "fusion_lon": 0.0, "bike_id": "5a6fe9a41f4885fe78f41a7779a5308b", "is_disabled": 0, "is_reserved": 0}, {"rental_uris": {"ios": "https://dc.lft.to/lastmile_qr_scan", "android": "https://dc.lft.to/lastmile_qr_scan"}, "lon": -77.02112533333333, "type": "electric_scooter", "fusion_lat": 0.0, "lat": 38.913094666666666, "name": "cb37f44121c49302816137dff54e4d19", "fusion_lon": 0.0, "bike_id": "cb37f44121c49302816137dff54e4d19", "is_disabled": 0, "is_reserved": 0}, {"rental_uris": {"ios": "https://dc.lft.to/lastmile_qr_scan", "android": "https://dc.lft.to/lastmile_qr_scan"}, "lon": -77.04170066666667, "type": "electric_scooter", "fusion_lat": 0.0, "lat": 38.91982866666667, "name": "53981da4cbddf96512c0c3e6ae295b82", "fusion_lon": 0.0, "bike_id": "53981da4cbddf96512c0c3e6ae295b82", "is_disabled": 0, "is_reserved": 0}, {"rental_uris": {"ios": "https://dc.lft.to/lastmile_qr_scan", "android": "https://dc.lft.to/lastmile_qr_scan"}, "lon": -77.020449, "type": "electric_scooter", "fusion_lat": 0.0, "lat": 38.915593, "name": "4dbe277c919d5a7672a35ba2293f7f3b", "fusion_lon": 0.0, "bike_id": "4dbe277c919d5a7672a35ba2293f7f3b", "is_disabled": 0, "is_reserved": 0}, {"rental_uris": {"ios": "https://dc.lft.to/lastmile_qr_scan", "android": "https://dc.lft.to/lastmile_qr_scan"}, "lon": -76.98349333333333, "type": "electric_scooter", "fusion_lat": 0.0, "lat": 38.914934, "name": "8cdc60ac5974a6c6647c32e041295241", "fusion_lon": 0.0, "bike_id": "8cdc60ac5974a6c6647c32e041295241", "is_disabled": 0, "is_reserved": 0}, {"rental_uris": {"ios": "https://dc.lft.to/lastmile_qr_scan", "android": "https://dc.lft.to/lastmile_qr_scan"}, "lon": -77.01757716666667, "type": "electric_scooter", "fusion_lat": 0.0, "lat": 38.87686333333333, "name": "15e7cbf424e70610a7fdf69d7a526a53", "fusion_lon": 0.0, "bike_id": "15e7cbf424e70610a7fdf69d7a526a53", "is_disabled": 0, "is_reserved": 0}, {"rental_uris": {"ios": "https://dc.lft.to/lastmile_qr_scan", "android": "https://dc.lft.to/lastmile_qr_scan"}, "lon": -77.02711833333333, "type": "electric_scooter", "fusion_lat": 0.0, "lat": 38.916815666666665, "name": "d0e7fe3ba03386ecdc590a0d1dc02c2d", "fusion_lon": 0.0, "bike_id": "d0e7fe3ba03386ecdc590a0d1dc02c2d", "is_disabled": 0, "is_reserved": 0}, {"rental_uris": {"ios": "https://dc.lft.to/lastmile_qr_scan", "android": "https://dc.lft.to/lastmile_qr_scan"}, "lon": -76.98818933333334, "type": "electric_scooter", "fusion_lat": 0.0, "lat": 38.9033615, "name": "2bc755327c9884ed23b3180b53089b68", "fusion_lon": 0.0, "bike_id": "2bc755327c9884ed23b3180b53089b68", "is_disabled": 0, "is_reserved": 0}, {"rental_uris": {"ios": "https://dc.lft.to/lastmile_qr_scan", "android": "https://dc.lft.to/lastmile_qr_scan"}, "lon": -77.01186683333333, "type": "electric_scooter", "fusion_lat": 0.0, "lat": 38.90657816666667, "name": "f7735a694fdb73a2ec04e30f775062f7", "fusion_lon": 0.0, "bike_id": "f7735a694fdb73a2ec04e30f775062f7", "is_disabled": 0, "is_reserved": 0}, {"rental_uris": {"ios": "https://dc.lft.to/lastmile_qr_scan", "android": "https://dc.lft.to/lastmile_qr_scan"}, "lon": -77.0532515, "type": "electric_scooter", "fusion_lat": 0.0, "lat": 38.939644666666666, "name": "f587e11101fc963c000eb505eedf9221", "fusion_lon": 0.0, "bike_id": "f587e11101fc963c000eb505eedf9221", "is_disabled": 0, "is_reserved": 0}, {"rental_uris": {"ios": "https://dc.lft.to/lastmile_qr_scan", "android": "https://dc.lft.to/lastmile_qr_scan"}, "lon": -77.09558516666667, "type": "electric_scooter", "fusion_lat": 0.0, "lat": 38.9165705, "name": "129d8cbd9e0daf9bdab02bb3fdff16db", "fusion_lon": 0.0, "bike_id": "129d8cbd9e0daf9bdab02bb3fdff16db", "is_disabled": 0, "is_reserved": 0}, {"rental_uris": {"ios": "https://dc.lft.to/lastmile_qr_scan", "android": "https://dc.lft.to/lastmile_qr_scan"}, "lon": -76.93306083333333, "type": "electric_scooter", "fusion_lat": 0.0, "lat": 38.898959166666664, "name": "6e2226aee4e5921268b2e8a65eb149f1", "fusion_lon": 0.0, "bike_id": "6e2226aee4e5921268b2e8a65eb149f1", "is_disabled": 0, "is_reserved": 0}, {"rental_uris": {"ios": "https://dc.lft.to/lastmile_qr_scan", "android": "https://dc.lft.to/lastmile_qr_scan"}, "lon": -77.0122525, "type": "electric_scooter", "fusion_lat": 0.0, "lat": 38.909777166666665, "name": "92122bbbb21c8499c47ed762598d3647", "fusion_lon": 0.0, "bike_id": "92122bbbb21c8499c47ed762598d3647", "is_disabled": 0, "is_reserved": 0}, {"rental_uris": {"ios": "https://dc.lft.to/lastmile_qr_scan", "android": "https://dc.lft.to/lastmile_qr_scan"}, "lon": -77.05291583333333, "type": "electric_scooter", "fusion_lat": 0.0, "lat": 38.91893266666666, "name": "befab9b73342ed5ea8f6eae2314292da", "fusion_lon": 0.0, "bike_id": "befab9b73342ed5ea8f6eae2314292da", "is_disabled": 0, "is_reserved": 0}, {"rental_uris": {"ios": "https://dc.lft.to/lastmile_qr_scan", "android": "https://dc.lft.to/lastmile_qr_scan"}, "lon": -77.0706325, "type": "electric_scooter", "fusion_lat": 0.0, "lat": 38.95216166666667, "name": "c4a6a27207f3ba0be521fcd41be49181", "fusion_lon": 0.0, "bike_id": "c4a6a27207f3ba0be521fcd41be49181", "is_disabled": 0, "is_reserved": 0}, {"rental_uris": {"ios": "https://dc.lft.to/lastmile_qr_scan", "android": "https://dc.lft.to/lastmile_qr_scan"}, "lon": -76.98563866666667, "type": "electric_scooter", "fusion_lat": 0.0, "lat": 38.85585433333333, "name": "e716b54ab08adfd6bc314d160abb9e8f", "fusion_lon": 0.0, "bike_id": "e716b54ab08adfd6bc314d160abb9e8f", "is_disabled": 0, "is_reserved": 0}, {"rental_uris": {"ios": "https://dc.lft.to/lastmile_qr_scan", "android": "https://dc.lft.to/lastmile_qr_scan"}, "lon": -77.055077, "type": "electric_scooter", "fusion_lat": 0.0, "lat": 38.92977616666667, "name": "539b0ad0abf5b3d7c0c3883968aa7b92", "fusion_lon": 0.0, "bike_id": "539b0ad0abf5b3d7c0c3883968aa7b92", "is_disabled": 0, "is_reserved": 0}, {"rental_uris": {"ios": "https://dc.lft.to/lastmile_qr_scan", "android": "https://dc.lft.to/lastmile_qr_scan"}, "lon": -76.94894, "type": "electric_scooter", "fusion_lat": 0.0, "lat": 38.895334, "name": "b9d265b21843d3c6aab20c117dfa5b8e", "fusion_lon": 0.0, "bike_id": "b9d265b21843d3c6aab20c117dfa5b8e", "is_disabled": 0, "is_reserved": 0}, {"rental_uris": {"ios": "https://dc.lft.to/lastmile_qr_scan", "android": "https://dc.lft.to/lastmile_qr_scan"}, "lon": -77.04202066666667, "type": "electric_scooter", "fusion_lat": 0.0, "lat": 38.90336816666667, "name": "ae3f448bd06475706a85e65735f905f1", "fusion_lon": 0.0, "bike_id": "ae3f448bd06475706a85e65735f905f1", "is_disabled": 0, "is_reserved": 0}, {"rental_uris": {"ios": "https://dc.lft.to/lastmile_qr_scan", "android": "https://dc.lft.to/lastmile_qr_scan"}, "lon": -77.00860816666666, "type": "electric_bike", "fusion_lat": 0.0, "lat": 38.82728566666667, "name": "ff625f7464f25b43ff6e7d2e726dff17", "fusion_lon": 0.0, "bike_id": "ff625f7464f25b43ff6e7d2e726dff17", "is_disabled": 0, "is_reserved": 0}, {"rental_uris": {"ios": "https://dc.lft.to/lastmile_qr_scan", "android": "https://dc.lft.to/lastmile_qr_scan"}, "lon": -76.99805783333333, "type": "electric_scooter", "fusion_lat": 0.0, "lat": 38.900326166666666, "name": "dda2670fb661c73cf48722096096010f", "fusion_lon": 0.0, "bike_id": "dda2670fb661c73cf48722096096010f", "is_disabled": 0, "is_reserved": 0}, {"rental_uris": {"ios": "https://dc.lft.to/lastmile_qr_scan", "android": "https://dc.lft.to/lastmile_qr_scan"}, "lon": -76.9900365, "type": "electric_scooter", "fusion_lat": 0.0, "lat": 38.86504816666667, "name": "9fadbc0677eb999e356c53496b1e1061", "fusion_lon": 0.0, "bike_id": "9fadbc0677eb999e356c53496b1e1061", "is_disabled": 0, "is_reserved": 0}, {"rental_uris": {"ios": "https://dc.lft.to/lastmile_qr_scan", "android": "https://dc.lft.to/lastmile_qr_scan"}, "lon": -77.01946766666667, "type": "electric_scooter", "fusion_lat": 0.0, "lat": 38.9241545, "name": "9f5ebce2ab4845f5d1126306034723c5", "fusion_lon": 0.0, "bike_id": "9f5ebce2ab4845f5d1126306034723c5", "is_disabled": 0, "is_reserved": 0}, {"rental_uris": {"ios": "https://dc.lft.to/lastmile_qr_scan", "android": "https://dc.lft.to/lastmile_qr_scan"}, "lon": -77.03147333333334, "type": "electric_scooter", "fusion_lat": 0.0, "lat": 38.914176499999996, "name": "a129a56e89930f55a3e8a025f34c5dd6", "fusion_lon": 0.0, "bike_id": "a129a56e89930f55a3e8a025f34c5dd6", "is_disabled": 0, "is_reserved": 0}, {"rental_uris": {"ios": "https://dc.lft.to/lastmile_qr_scan", "android": "https://dc.lft.to/lastmile_qr_scan"}, "lon": -77.04719266666666, "type": "electric_scooter", "fusion_lat": 0.0, "lat": 38.92236066666667, "name": "4804b9ecd67267db15e76ad0884de65b", "fusion_lon": 0.0, "bike_id": "4804b9ecd67267db15e76ad0884de65b", "is_disabled": 0, "is_reserved": 0}, {"rental_uris": {"ios": "https://dc.lft.to/lastmile_qr_scan", "android": "https://dc.lft.to/lastmile_qr_scan"}, "lon": -77.033007, "type": "electric_scooter", "fusion_lat": 0.0, "lat": 38.89225066666667, "name": "8a6d2a9cabe8b2466b01f13208dc344e", "fusion_lon": 0.0, "bike_id": "8a6d2a9cabe8b2466b01f13208dc344e", "is_disabled": 0, "is_reserved": 0}, {"rental_uris": {"ios": "https://dc.lft.to/lastmile_qr_scan", "android": "https://dc.lft.to/lastmile_qr_scan"}, "lon": -77.05415733333334, "type": "electric_scooter", "fusion_lat": 0.0, "lat": 38.9025335, "name": "aad44fa44437f51752c57182a1b3c9ce", "fusion_lon": 0.0, "bike_id": "aad44fa44437f51752c57182a1b3c9ce", "is_disabled": 0, "is_reserved": 0}, {"rental_uris": {"ios": "https://dc.lft.to/lastmile_qr_scan", "android": "https://dc.lft.to/lastmile_qr_scan"}, "lon": -77.017748, "type": "electric_scooter", "fusion_lat": 0.0, "lat": 38.9210795, "name": "f740cf85212f34f6ce09706877b33543", "fusion_lon": 0.0, "bike_id": "f740cf85212f34f6ce09706877b33543", "is_disabled": 0, "is_reserved": 0}, {"rental_uris": {"ios": "https://dc.lft.to/lastmile_qr_scan", "android": "https://dc.lft.to/lastmile_qr_scan"}, "lon": -77.03496566666666, "type": "electric_scooter", "fusion_lat": 0.0, "lat": 38.9215095, "name": "8ca9f0dc317c8f6489ba0a33719ff78d", "fusion_lon": 0.0, "bike_id": "8ca9f0dc317c8f6489ba0a33719ff78d", "is_disabled": 0, "is_reserved": 0}, {"rental_uris": {"ios": "https://dc.lft.to/lastmile_qr_scan", "android": "https://dc.lft.to/lastmile_qr_scan"}, "lon": -77.02190133333333, "type": "electric_scooter", "fusion_lat": 0.0, "lat": 38.905432833333336, "name": "1a8047b022a4390db433fbe276da07de", "fusion_lon": 0.0, "bike_id": "1a8047b022a4390db433fbe276da07de", "is_disabled": 0, "is_reserved": 0}, {"rental_uris": {"ios": "https://dc.lft.to/lastmile_qr_scan", "android": "https://dc.lft.to/lastmile_qr_scan"}, "lon": -77.0329945, "type": "electric_scooter", "fusion_lat": 0.0, "lat": 38.90837116666667, "name": "03351e565a1984daac41d8bd69f35297", "fusion_lon": 0.0, "bike_id": "03351e565a1984daac41d8bd69f35297", "is_disabled": 0, "is_reserved": 0}, {"rental_uris": {"ios": "https://dc.lft.to/lastmile_qr_scan", "android": "https://dc.lft.to/lastmile_qr_scan"}, "lon": -76.9995735, "type": "electric_scooter", "fusion_lat": 0.0, "lat": 38.90913366666667, "name": "3687e7d4d68675bee380e04a61fe4c5b", "fusion_lon": 0.0, "bike_id": "3687e7d4d68675bee380e04a61fe4c5b", "is_disabled": 0, "is_reserved": 0}, {"rental_uris": {"ios": "https://dc.lft.to/lastmile_qr_scan", "android": "https://dc.lft.to/lastmile_qr_scan"}, "lon": -77.0386805, "type": "electric_scooter", "fusion_lat": 0.0, "lat": 38.92024466666667, "name": "bc02a7d7bdc6c437f425595d4ce54643", "fusion_lon": 0.0, "bike_id": "bc02a7d7bdc6c437f425595d4ce54643", "is_disabled": 0, "is_reserved": 0}, {"rental_uris": {"ios": "https://dc.lft.to/lastmile_qr_scan", "android": "https://dc.lft.to/lastmile_qr_scan"}, "lon": -76.9788165, "type": "electric_scooter", "fusion_lat": 0.0, "lat": 38.885086333333334, "name": "6e83f80b9874d3975ad25a094b91e784", "fusion_lon": 0.0, "bike_id": "6e83f80b9874d3975ad25a094b91e784", "is_disabled": 0, "is_reserved": 0}, {"rental_uris": {"ios": "https://dc.lft.to/lastmile_qr_scan", "android": "https://dc.lft.to/lastmile_qr_scan"}, "lon": -77.0361435, "type": "electric_scooter", "fusion_lat": 0.0, "lat": 38.923292000000004, "name": "bdcdb8537e27901ad4ee111ad9969227", "fusion_lon": 0.0, "bike_id": "bdcdb8537e27901ad4ee111ad9969227", "is_disabled": 0, "is_reserved": 0}, {"rental_uris": {"ios": "https://dc.lft.to/lastmile_qr_scan", "android": "https://dc.lft.to/lastmile_qr_scan"}, "lon": -77.04177533333333, "type": "electric_scooter", "fusion_lat": 0.0, "lat": 38.919363, "name": "68facfd63ad407746ebdc6543d36cc97", "fusion_lon": 0.0, "bike_id": "68facfd63ad407746ebdc6543d36cc97", "is_disabled": 0, "is_reserved": 0}, {"rental_uris": {"ios": "https://dc.lft.to/lastmile_qr_scan", "android": "https://dc.lft.to/lastmile_qr_scan"}, "lon": -76.98697716666666, "type": "electric_scooter", "fusion_lat": 0.0, "lat": 38.907056, "name": "d1ddd8c7eda9fe208d071ddc3a5d62a1", "fusion_lon": 0.0, "bike_id": "d1ddd8c7eda9fe208d071ddc3a5d62a1", "is_disabled": 0, "is_reserved": 0}, {"rental_uris": {"ios": "https://dc.lft.to/lastmile_qr_scan", "android": "https://dc.lft.to/lastmile_qr_scan"}, "lon": -77.010928, "type": "electric_scooter", "fusion_lat": 0.0, "lat": 38.894849666666666, "name": "8b1730af006ecd1de0aaef2755ecc0fc", "fusion_lon": 0.0, "bike_id": "8b1730af006ecd1de0aaef2755ecc0fc", "is_disabled": 0, "is_reserved": 0}, {"rental_uris": {"ios": "https://dc.lft.to/lastmile_qr_scan", "android": "https://dc.lft.to/lastmile_qr_scan"}, "lon": -77.01482933333334, "type": "electric_scooter", "fusion_lat": 0.0, "lat": 38.881249333333336, "name": "89e511c315fb879f90872d3bb4d38dba", "fusion_lon": 0.0, "bike_id": "89e511c315fb879f90872d3bb4d38dba", "is_disabled": 0, "is_reserved": 0}, {"rental_uris": {"ios": "https://dc.lft.to/lastmile_qr_scan", "android": "https://dc.lft.to/lastmile_qr_scan"}, "lon": -77.0406405, "type": "electric_scooter", "fusion_lat": 0.0, "lat": 38.9027475, "name": "6f24346fe241d40075afdf0b9e6b0828", "fusion_lon": 0.0, "bike_id": "6f24346fe241d40075afdf0b9e6b0828", "is_disabled": 0, "is_reserved": 0}, {"rental_uris": {"ios": "https://dc.lft.to/lastmile_qr_scan", "android": "https://dc.lft.to/lastmile_qr_scan"}, "lon": -77.035147, "type": "electric_bike", "fusion_lat": 0.0, "lat": 38.9652275, "name": "7cf2bfa5f966d470e8d20020cff4ea81", "fusion_lon": 0.0, "bike_id": "7cf2bfa5f966d470e8d20020cff4ea81", "is_disabled": 0, "is_reserved": 0}, {"rental_uris": {"ios": "https://dc.lft.to/lastmile_qr_scan", "android": "https://dc.lft.to/lastmile_qr_scan"}, "lon": -77.04278, "type": "electric_scooter", "fusion_lat": 0.0, "lat": 38.90653833333333, "name": "a1c667f8577a83479e49a99394d5083e", "fusion_lon": 0.0, "bike_id": "a1c667f8577a83479e49a99394d5083e", "is_disabled": 0, "is_reserved": 0}, {"rental_uris": {"ios": "https://dc.lft.to/lastmile_qr_scan", "android": "https://dc.lft.to/lastmile_qr_scan"}, "lon": -76.98995833333333, "type": "electric_scooter", "fusion_lat": 0.0, "lat": 38.903916333333335, "name": "d9f8123a2c41c5945dc9fe09f1db9c90", "fusion_lon": 0.0, "bike_id": "d9f8123a2c41c5945dc9fe09f1db9c90", "is_disabled": 0, "is_reserved": 0}, {"rental_uris": {"ios": "https://dc.lft.to/lastmile_qr_scan", "android": "https://dc.lft.to/lastmile_qr_scan"}, "lon": -76.99550366666666, "type": "electric_scooter", "fusion_lat": 0.0, "lat": 38.86234283333334, "name": "f931df5c0ed9bddd6dd790c60919c331", "fusion_lon": 0.0, "bike_id": "f931df5c0ed9bddd6dd790c60919c331", "is_disabled": 0, "is_reserved": 0}, {"rental_uris": {"ios": "https://dc.lft.to/lastmile_qr_scan", "android": "https://dc.lft.to/lastmile_qr_scan"}, "lon": -77.05940516666666, "type": "electric_scooter", "fusion_lat": 0.0, "lat": 38.909525, "name": "c446f776e828d586db027a9db4b741ba", "fusion_lon": 0.0, "bike_id": "c446f776e828d586db027a9db4b741ba", "is_disabled": 0, "is_reserved": 0}, {"rental_uris": {"ios": "https://dc.lft.to/lastmile_qr_scan", "android": "https://dc.lft.to/lastmile_qr_scan"}, "lon": -77.06469, "type": "electric_scooter", "fusion_lat": 0.0, "lat": 38.905144166666666, "name": "525c87a3bc731b490b91ba31e0996d95", "fusion_lon": 0.0, "bike_id": "525c87a3bc731b490b91ba31e0996d95", "is_disabled": 0, "is_reserved": 0}, {"rental_uris": {"ios": "https://dc.lft.to/lastmile_qr_scan", "android": "https://dc.lft.to/lastmile_qr_scan"}, "lon": -77.01988683333333, "type": "electric_scooter", "fusion_lat": 0.0, "lat": 38.937804166666666, "name": "2566892ff892ac219986bf311faf3fb6", "fusion_lon": 0.0, "bike_id": "2566892ff892ac219986bf311faf3fb6", "is_disabled": 0, "is_reserved": 0}, {"rental_uris": {"ios": "https://dc.lft.to/lastmile_qr_scan", "android": "https://dc.lft.to/lastmile_qr_scan"}, "lon": -77.031431, "type": "electric_scooter", "fusion_lat": 0.0, "lat": 38.912670166666665, "name": "1cc4a469fe726d7d863568fdbb719d8f", "fusion_lon": 0.0, "bike_id": "1cc4a469fe726d7d863568fdbb719d8f", "is_disabled": 0, "is_reserved": 0}, {"rental_uris": {"ios": "https://dc.lft.to/lastmile_qr_scan", "android": "https://dc.lft.to/lastmile_qr_scan"}, "lon": -77.01017166666666, "type": "electric_scooter", "fusion_lat": 0.0, "lat": 38.91815, "name": "5d27c8f2b5e15341a051938fc2234376", "fusion_lon": 0.0, "bike_id": "5d27c8f2b5e15341a051938fc2234376", "is_disabled": 0, "is_reserved": 0}, {"rental_uris": {"ios": "https://dc.lft.to/lastmile_qr_scan", "android": "https://dc.lft.to/lastmile_qr_scan"}, "lon": -77.04212166666667, "type": "electric_scooter", "fusion_lat": 0.0, "lat": 38.90653416666667, "name": "b1d6574a2abed0deffb11f953e53ea26", "fusion_lon": 0.0, "bike_id": "b1d6574a2abed0deffb11f953e53ea26", "is_disabled": 0, "is_reserved": 0}, {"rental_uris": {"ios": "https://dc.lft.to/lastmile_qr_scan", "android": "https://dc.lft.to/lastmile_qr_scan"}, "lon": -77.00574983333334, "type": "electric_scooter", "fusion_lat": 0.0, "lat": 38.905577666666666, "name": "52ef4e4bf100b8e0e21992089c35b2cc", "fusion_lon": 0.0, "bike_id": "52ef4e4bf100b8e0e21992089c35b2cc", "is_disabled": 0, "is_reserved": 0}, {"rental_uris": {"ios": "https://dc.lft.to/lastmile_qr_scan", "android": "https://dc.lft.to/lastmile_qr_scan"}, "lon": -77.040093, "type": "electric_scooter", "fusion_lat": 0.0, "lat": 38.93255116666667, "name": "b3bc745f67d4acccdac6e12dce6995de", "fusion_lon": 0.0, "bike_id": "b3bc745f67d4acccdac6e12dce6995de", "is_disabled": 0, "is_reserved": 0}, {"rental_uris": {"ios": "https://dc.lft.to/lastmile_qr_scan", "android": "https://dc.lft.to/lastmile_qr_scan"}, "lon": -77.00069866666666, "type": "electric_scooter", "fusion_lat": 0.0, "lat": 38.92551433333333, "name": "243fe2140d1cfc54ed3dc645fb17d06b", "fusion_lon": 0.0, "bike_id": "243fe2140d1cfc54ed3dc645fb17d06b", "is_disabled": 0, "is_reserved": 0}, {"rental_uris": {"ios": "https://dc.lft.to/lastmile_qr_scan", "android": "https://dc.lft.to/lastmile_qr_scan"}, "lon": -77.03207583333334, "type": "electric_scooter", "fusion_lat": 0.0, "lat": 38.915233, "name": "5ad3c4aa790e3cd32af909d6646e0e7f", "fusion_lon": 0.0, "bike_id": "5ad3c4aa790e3cd32af909d6646e0e7f", "is_disabled": 0, "is_reserved": 0}, {"rental_uris": {"ios": "https://dc.lft.to/lastmile_qr_scan", "android": "https://dc.lft.to/lastmile_qr_scan"}, "lon": -77.048162, "type": "electric_scooter", "fusion_lat": 0.0, "lat": 38.92042933333333, "name": "8f8ff5e1a0eee4f9db757e2ab4bcecc6", "fusion_lon": 0.0, "bike_id": "8f8ff5e1a0eee4f9db757e2ab4bcecc6", "is_disabled": 0, "is_reserved": 0}, {"rental_uris": {"ios": "https://dc.lft.to/lastmile_qr_scan", "android": "https://dc.lft.to/lastmile_qr_scan"}, "lon": -76.99814083333334, "type": "electric_bike", "fusion_lat": 0.0, "lat": 38.8443375, "name": "2f09ba34a1212ec3dc85744ad06ee013", "fusion_lon": 0.0, "bike_id": "2f09ba34a1212ec3dc85744ad06ee013", "is_disabled": 0, "is_reserved": 0}, {"rental_uris": {"ios": "https://dc.lft.to/lastmile_qr_scan", "android": "https://dc.lft.to/lastmile_qr_scan"}, "lon": -77.019908, "type": "electric_scooter", "fusion_lat": 0.0, "lat": 38.8996855, "name": "4600b7fda4ae517d8e2928aa8fe891e5", "fusion_lon": 0.0, "bike_id": "4600b7fda4ae517d8e2928aa8fe891e5", "is_disabled": 0, "is_reserved": 0}, {"rental_uris": {"ios": "https://dc.lft.to/lastmile_qr_scan", "android": "https://dc.lft.to/lastmile_qr_scan"}, "lon": -76.99672616666666, "type": "electric_scooter", "fusion_lat": 0.0, "lat": 38.900350833333334, "name": "433873876f8335dbf3e148ed89c8e43f", "fusion_lon": 0.0, "bike_id": "433873876f8335dbf3e148ed89c8e43f", "is_disabled": 0, "is_reserved": 0}, {"rental_uris": {"ios": "https://dc.lft.to/lastmile_qr_scan", "android": "https://dc.lft.to/lastmile_qr_scan"}, "lon": -76.9860015, "type": "electric_scooter", "fusion_lat": 0.0, "lat": 38.89928916666667, "name": "4f638eb230520e8113db4c7d9bc49b66", "fusion_lon": 0.0, "bike_id": "4f638eb230520e8113db4c7d9bc49b66", "is_disabled": 0, "is_reserved": 0}, {"rental_uris": {"ios": "https://dc.lft.to/lastmile_qr_scan", "android": "https://dc.lft.to/lastmile_qr_scan"}, "lon": -77.04254633333333, "type": "electric_scooter", "fusion_lat": 0.0, "lat": 38.9028405, "name": "927f3061b369b13d80767de8af64d6a9", "fusion_lon": 0.0, "bike_id": "927f3061b369b13d80767de8af64d6a9", "is_disabled": 0, "is_reserved": 0}, {"rental_uris": {"ios": "https://dc.lft.to/lastmile_qr_scan", "android": "https://dc.lft.to/lastmile_qr_scan"}, "lon": -77.00655533333334, "type": "electric_scooter", "fusion_lat": 0.0, "lat": 38.9446305, "name": "feae4ceee6e5a732d5db941ae4651965", "fusion_lon": 0.0, "bike_id": "feae4ceee6e5a732d5db941ae4651965", "is_disabled": 0, "is_reserved": 0}, {"rental_uris": {"ios": "https://dc.lft.to/lastmile_qr_scan", "android": "https://dc.lft.to/lastmile_qr_scan"}, "lon": -77.04331816666667, "type": "electric_scooter", "fusion_lat": 0.0, "lat": 38.8958505, "name": "c4ca84275177a9f0a04b5c9c2182b05a", "fusion_lon": 0.0, "bike_id": "c4ca84275177a9f0a04b5c9c2182b05a", "is_disabled": 0, "is_reserved": 0}, {"rental_uris": {"ios": "https://dc.lft.to/lastmile_qr_scan", "android": "https://dc.lft.to/lastmile_qr_scan"}, "lon": -77.1068715, "type": "electric_bike", "fusion_lat": 0.0, "lat": 38.93583266666667, "name": "6abff023c614e501356095dbfd8cca3d", "fusion_lon": 0.0, "bike_id": "6abff023c614e501356095dbfd8cca3d", "is_disabled": 0, "is_reserved": 0}, {"rental_uris": {"ios": "https://dc.lft.to/lastmile_qr_scan", "android": "https://dc.lft.to/lastmile_qr_scan"}, "lon": -77.03264216666666, "type": "electric_scooter", "fusion_lat": 0.0, "lat": 38.925466666666665, "name": "f8f68c8b1f0f96f34d18a53734919609", "fusion_lon": 0.0, "bike_id": "f8f68c8b1f0f96f34d18a53734919609", "is_disabled": 0, "is_reserved": 0}, {"rental_uris": {"ios": "https://dc.lft.to/lastmile_qr_scan", "android": "https://dc.lft.to/lastmile_qr_scan"}, "lon": -77.034654, "type": "electric_scooter", "fusion_lat": 0.0, "lat": 38.91688833333333, "name": "4c333078d3f9c8556bb7b7a723f4fcd4", "fusion_lon": 0.0, "bike_id": "4c333078d3f9c8556bb7b7a723f4fcd4", "is_disabled": 0, "is_reserved": 0}, {"rental_uris": {"ios": "https://dc.lft.to/lastmile_qr_scan", "android": "https://dc.lft.to/lastmile_qr_scan"}, "lon": -77.04665066666666, "type": "electric_scooter", "fusion_lat": 0.0, "lat": 38.914843833333336, "name": "253f234821af831bb0baac4952371666", "fusion_lon": 0.0, "bike_id": "253f234821af831bb0baac4952371666", "is_disabled": 0, "is_reserved": 0}, {"rental_uris": {"ios": "https://dc.lft.to/lastmile_qr_scan", "android": "https://dc.lft.to/lastmile_qr_scan"}, "lon": -77.04655366666667, "type": "electric_scooter", "fusion_lat": 0.0, "lat": 38.89337033333334, "name": "c69e756922b3636bde761c5a2e057504", "fusion_lon": 0.0, "bike_id": "c69e756922b3636bde761c5a2e057504", "is_disabled": 0, "is_reserved": 0}, {"rental_uris": {"ios": "https://dc.lft.to/lastmile_qr_scan", "android": "https://dc.lft.to/lastmile_qr_scan"}, "lon": -77.09191216666666, "type": "electric_scooter", "fusion_lat": 0.0, "lat": 38.913645, "name": "4442935e772ccfa4adcefa42bd803ba0", "fusion_lon": 0.0, "bike_id": "4442935e772ccfa4adcefa42bd803ba0", "is_disabled": 0, "is_reserved": 0}, {"rental_uris": {"ios": "https://dc.lft.to/lastmile_qr_scan", "android": "https://dc.lft.to/lastmile_qr_scan"}, "lon": -76.94878433333334, "type": "electric_scooter", "fusion_lat": 0.0, "lat": 38.89504483333333, "name": "1f52ca2496f9c3a968d67299c9f19332", "fusion_lon": 0.0, "bike_id": "1f52ca2496f9c3a968d67299c9f19332", "is_disabled": 0, "is_reserved": 0}, {"rental_uris": {"ios": "https://dc.lft.to/lastmile_qr_scan", "android": "https://dc.lft.to/lastmile_qr_scan"}, "lon": -76.997753, "type": "electric_scooter", "fusion_lat": 0.0, "lat": 38.844278833333334, "name": "a10ce9b9e352d52bdd406c458e7722c1", "fusion_lon": 0.0, "bike_id": "a10ce9b9e352d52bdd406c458e7722c1", "is_disabled": 0, "is_reserved": 0}, {"rental_uris": {"ios": "https://dc.lft.to/lastmile_qr_scan", "android": "https://dc.lft.to/lastmile_qr_scan"}, "lon": -77.06604566666667, "type": "electric_scooter", "fusion_lat": 0.0, "lat": 38.90534483333333, "name": "e7f0250dc0b3b925304ffd52114ebf70", "fusion_lon": 0.0, "bike_id": "e7f0250dc0b3b925304ffd52114ebf70", "is_disabled": 0, "is_reserved": 0}, {"rental_uris": {"ios": "https://dc.lft.to/lastmile_qr_scan", "android": "https://dc.lft.to/lastmile_qr_scan"}, "lon": -77.02796533333333, "type": "electric_scooter", "fusion_lat": 0.0, "lat": 38.930819166666666, "name": "bef381299d5c238ac846afd32232cd9d", "fusion_lon": 0.0, "bike_id": "bef381299d5c238ac846afd32232cd9d", "is_disabled": 0, "is_reserved": 0}, {"rental_uris": {"ios": "https://dc.lft.to/lastmile_qr_scan", "android": "https://dc.lft.to/lastmile_qr_scan"}, "lon": -77.04818216666666, "type": "electric_scooter", "fusion_lat": 0.0, "lat": 38.916356, "name": "8d1286548fd9119e924478e4e96dc31f", "fusion_lon": 0.0, "bike_id": "8d1286548fd9119e924478e4e96dc31f", "is_disabled": 0, "is_reserved": 0}, {"rental_uris": {"ios": "https://dc.lft.to/lastmile_qr_scan", "android": "https://dc.lft.to/lastmile_qr_scan"}, "lon": -76.99951283333333, "type": "electric_bike", "fusion_lat": 0.0, "lat": 38.92342466666667, "name": "43c1cf7a5b0a14caf0fe7f189dc155bc", "fusion_lon": 0.0, "bike_id": "43c1cf7a5b0a14caf0fe7f189dc155bc", "is_disabled": 0, "is_reserved": 0}, {"rental_uris": {"ios": "https://dc.lft.to/lastmile_qr_scan", "android": "https://dc.lft.to/lastmile_qr_scan"}, "lon": -77.03330783333334, "type": "electric_scooter", "fusion_lat": 0.0, "lat": 38.898071333333334, "name": "bc4894bba8e1aa201a685dbdf181bf45", "fusion_lon": 0.0, "bike_id": "bc4894bba8e1aa201a685dbdf181bf45", "is_disabled": 0, "is_reserved": 0}, {"rental_uris": {"ios": "https://dc.lft.to/lastmile_qr_scan", "android": "https://dc.lft.to/lastmile_qr_scan"}, "lon": -77.01530433333333, "type": "electric_scooter", "fusion_lat": 0.0, "lat": 38.872672, "name": "affcc9e2830afd41f7ea16c8b671f5f9", "fusion_lon": 0.0, "bike_id": "affcc9e2830afd41f7ea16c8b671f5f9", "is_disabled": 0, "is_reserved": 0}, {"rental_uris": {"ios": "https://dc.lft.to/lastmile_qr_scan", "android": "https://dc.lft.to/lastmile_qr_scan"}, "lon": -77.0303755, "type": "electric_scooter", "fusion_lat": 0.0, "lat": 38.922486, "name": "463138b51cdfaaf53aaa62de00e03aec", "fusion_lon": 0.0, "bike_id": "463138b51cdfaaf53aaa62de00e03aec", "is_disabled": 0, "is_reserved": 0}, {"rental_uris": {"ios": "https://dc.lft.to/lastmile_qr_scan", "android": "https://dc.lft.to/lastmile_qr_scan"}, "lon": -77.075618, "type": "electric_scooter", "fusion_lat": 0.0, "lat": 38.91424033333333, "name": "7cd15c5700984592fdb7752f9f3e9e37", "fusion_lon": 0.0, "bike_id": "7cd15c5700984592fdb7752f9f3e9e37", "is_disabled": 0, "is_reserved": 0}, {"rental_uris": {"ios": "https://dc.lft.to/lastmile_qr_scan", "android": "https://dc.lft.to/lastmile_qr_scan"}, "lon": -77.00925216666667, "type": "electric_scooter", "fusion_lat": 0.0, "lat": 38.916430166666665, "name": "0ecca3ff03967a5824e8bcf562c4be0e", "fusion_lon": 0.0, "bike_id": "0ecca3ff03967a5824e8bcf562c4be0e", "is_disabled": 0, "is_reserved": 0}, {"rental_uris": {"ios": "https://dc.lft.to/lastmile_qr_scan", "android": "https://dc.lft.to/lastmile_qr_scan"}, "lon": -77.04488466666666, "type": "electric_scooter", "fusion_lat": 0.0, "lat": 38.911022833333334, "name": "be8ae138ab5c36b62eaa42e6cce62380", "fusion_lon": 0.0, "bike_id": "be8ae138ab5c36b62eaa42e6cce62380", "is_disabled": 0, "is_reserved": 0}, {"rental_uris": {"ios": "https://dc.lft.to/lastmile_qr_scan", "android": "https://dc.lft.to/lastmile_qr_scan"}, "lon": -77.03671283333334, "type": "electric_scooter", "fusion_lat": 0.0, "lat": 38.92937466666667, "name": "bdc29f434e7e9935311ba5774bd6d69e", "fusion_lon": 0.0, "bike_id": "bdc29f434e7e9935311ba5774bd6d69e", "is_disabled": 0, "is_reserved": 0}, {"rental_uris": {"ios": "https://dc.lft.to/lastmile_qr_scan", "android": "https://dc.lft.to/lastmile_qr_scan"}, "lon": -77.02777333333333, "type": "electric_scooter", "fusion_lat": 0.0, "lat": 38.896203666666665, "name": "a80eb72286acaae71c1dfe8076f8c9e5", "fusion_lon": 0.0, "bike_id": "a80eb72286acaae71c1dfe8076f8c9e5", "is_disabled": 0, "is_reserved": 0}, {"rental_uris": {"ios": "https://dc.lft.to/lastmile_qr_scan", "android": "https://dc.lft.to/lastmile_qr_scan"}, "lon": -77.0732705, "type": "electric_scooter", "fusion_lat": 0.0, "lat": 38.92493616666667, "name": "3d7faceff7058c8eac0e7c78bb70c635", "fusion_lon": 0.0, "bike_id": "3d7faceff7058c8eac0e7c78bb70c635", "is_disabled": 0, "is_reserved": 0}, {"rental_uris": {"ios": "https://dc.lft.to/lastmile_qr_scan", "android": "https://dc.lft.to/lastmile_qr_scan"}, "lon": -77.01934283333334, "type": "electric_scooter", "fusion_lat": 0.0, "lat": 38.949297666666666, "name": "76c431942df6340f782b0f0a41310473", "fusion_lon": 0.0, "bike_id": "76c431942df6340f782b0f0a41310473", "is_disabled": 0, "is_reserved": 0}, {"rental_uris": {"ios": "https://dc.lft.to/lastmile_qr_scan", "android": "https://dc.lft.to/lastmile_qr_scan"}, "lon": -77.03123966666666, "type": "electric_scooter", "fusion_lat": 0.0, "lat": 38.914056333333335, "name": "c5b339dacdcc91ef48ef1cdd2bfac44a", "fusion_lon": 0.0, "bike_id": "c5b339dacdcc91ef48ef1cdd2bfac44a", "is_disabled": 0, "is_reserved": 0}, {"rental_uris": {"ios": "https://dc.lft.to/lastmile_qr_scan", "android": "https://dc.lft.to/lastmile_qr_scan"}, "lon": -76.94180483333334, "type": "electric_scooter", "fusion_lat": 0.0, "lat": 38.88219566666667, "name": "c92a432efdb231434ce404cebb3f530c", "fusion_lon": 0.0, "bike_id": "c92a432efdb231434ce404cebb3f530c", "is_disabled": 0, "is_reserved": 0}, {"rental_uris": {"ios": "https://dc.lft.to/lastmile_qr_scan", "android": "https://dc.lft.to/lastmile_qr_scan"}, "lon": -77.04652116666666, "type": "electric_scooter", "fusion_lat": 0.0, "lat": 38.905603166666666, "name": "38a0444850a4f231783ccb558e2fdc6c", "fusion_lon": 0.0, "bike_id": "38a0444850a4f231783ccb558e2fdc6c", "is_disabled": 0, "is_reserved": 0}, {"rental_uris": {"ios": "https://dc.lft.to/lastmile_qr_scan", "android": "https://dc.lft.to/lastmile_qr_scan"}, "lon": -77.0361995, "type": "electric_scooter", "fusion_lat": 0.0, "lat": 38.93258566666667, "name": "f972287509fe3353f4172507a780920b", "fusion_lon": 0.0, "bike_id": "f972287509fe3353f4172507a780920b", "is_disabled": 0, "is_reserved": 0}, {"rental_uris": {"ios": "https://dc.lft.to/lastmile_qr_scan", "android": "https://dc.lft.to/lastmile_qr_scan"}, "lon": -76.95529816666667, "type": "electric_scooter", "fusion_lat": 0.0, "lat": 38.8878265, "name": "9f9c86bc381e984ba2eea338e05c87e8", "fusion_lon": 0.0, "bike_id": "9f9c86bc381e984ba2eea338e05c87e8", "is_disabled": 0, "is_reserved": 0}, {"rental_uris": {"ios": "https://dc.lft.to/lastmile_qr_scan", "android": "https://dc.lft.to/lastmile_qr_scan"}, "lon": -77.0675545, "type": "electric_scooter", "fusion_lat": 0.0, "lat": 38.915809833333334, "name": "d2f995a4d12008456d875cbca24ba970", "fusion_lon": 0.0, "bike_id": "d2f995a4d12008456d875cbca24ba970", "is_disabled": 0, "is_reserved": 0}, {"rental_uris": {"ios": "https://dc.lft.to/lastmile_qr_scan", "android": "https://dc.lft.to/lastmile_qr_scan"}, "lon": -77.037457, "type": "electric_scooter", "fusion_lat": 0.0, "lat": 38.92902266666667, "name": "93fe4f484d8bcc2e3ddd63d32b72a1cb", "fusion_lon": 0.0, "bike_id": "93fe4f484d8bcc2e3ddd63d32b72a1cb", "is_disabled": 0, "is_reserved": 0}, {"rental_uris": {"ios": "https://dc.lft.to/lastmile_qr_scan", "android": "https://dc.lft.to/lastmile_qr_scan"}, "lon": -77.05474333333333, "type": "electric_scooter", "fusion_lat": 0.0, "lat": 38.92104616666667, "name": "daa729d544f3b6545b08d142f56dceb5", "fusion_lon": 0.0, "bike_id": "daa729d544f3b6545b08d142f56dceb5", "is_disabled": 0, "is_reserved": 0}, {"rental_uris": {"ios": "https://dc.lft.to/lastmile_qr_scan", "android": "https://dc.lft.to/lastmile_qr_scan"}, "lon": -76.98715233333333, "type": "electric_scooter", "fusion_lat": 0.0, "lat": 38.862548333333336, "name": "b88a00449af826296fbdac0ac9e1d471", "fusion_lon": 0.0, "bike_id": "b88a00449af826296fbdac0ac9e1d471", "is_disabled": 0, "is_reserved": 0}, {"rental_uris": {"ios": "https://dc.lft.to/lastmile_qr_scan", "android": "https://dc.lft.to/lastmile_qr_scan"}, "lon": -77.01773566666667, "type": "electric_scooter", "fusion_lat": 0.0, "lat": 38.887169166666666, "name": "3e968e6481bee8a2574b58f693b51073", "fusion_lon": 0.0, "bike_id": "3e968e6481bee8a2574b58f693b51073", "is_disabled": 0, "is_reserved": 0}, {"rental_uris": {"ios": "https://dc.lft.to/lastmile_qr_scan", "android": "https://dc.lft.to/lastmile_qr_scan"}, "lon": -77.06629416666667, "type": "electric_scooter", "fusion_lat": 0.0, "lat": 38.92802416666667, "name": "b7fcb439ca411e4d2394ba16d8792618", "fusion_lon": 0.0, "bike_id": "b7fcb439ca411e4d2394ba16d8792618", "is_disabled": 0, "is_reserved": 0}, {"rental_uris": {"ios": "https://dc.lft.to/lastmile_qr_scan", "android": "https://dc.lft.to/lastmile_qr_scan"}, "lon": -77.02304316666667, "type": "electric_scooter", "fusion_lat": 0.0, "lat": 38.916899666666666, "name": "d252716aac6d89b57859d4b06186f1fc", "fusion_lon": 0.0, "bike_id": "d252716aac6d89b57859d4b06186f1fc", "is_disabled": 0, "is_reserved": 0}, {"rental_uris": {"ios": "https://dc.lft.to/lastmile_qr_scan", "android": "https://dc.lft.to/lastmile_qr_scan"}, "lon": -76.92711583333333, "type": "electric_scooter", "fusion_lat": 0.0, "lat": 38.887697833333334, "name": "b426037272263596dc6abde2129b8cd7", "fusion_lon": 0.0, "bike_id": "b426037272263596dc6abde2129b8cd7", "is_disabled": 0, "is_reserved": 0}, {"rental_uris": {"ios": "https://dc.lft.to/lastmile_qr_scan", "android": "https://dc.lft.to/lastmile_qr_scan"}, "lon": -76.98905216666667, "type": "electric_scooter", "fusion_lat": 0.0, "lat": 38.866915666666664, "name": "f02891ae5e24a2ceca69d3948b18fca9", "fusion_lon": 0.0, "bike_id": "f02891ae5e24a2ceca69d3948b18fca9", "is_disabled": 0, "is_reserved": 0}, {"rental_uris": {"ios": "https://dc.lft.to/lastmile_qr_scan", "android": "https://dc.lft.to/lastmile_qr_scan"}, "lon": -77.06999283333333, "type": "electric_bike", "fusion_lat": 0.0, "lat": 38.9550055, "name": "23ea33db35b4e41aa683dbc5a89b112e", "fusion_lon": 0.0, "bike_id": "23ea33db35b4e41aa683dbc5a89b112e", "is_disabled": 0, "is_reserved": 0}, {"rental_uris": {"ios": "https://dc.lft.to/lastmile_qr_scan", "android": "https://dc.lft.to/lastmile_qr_scan"}, "lon": -77.10782633333334, "type": "electric_bike", "fusion_lat": 0.0, "lat": 38.8921785, "name": "f57d1e90e0ed0cdcfb857441e7fee809", "fusion_lon": 0.0, "bike_id": "f57d1e90e0ed0cdcfb857441e7fee809", "is_disabled": 0, "is_reserved": 0}, {"rental_uris": {"ios": "https://dc.lft.to/lastmile_qr_scan", "android": "https://dc.lft.to/lastmile_qr_scan"}, "lon": -77.04100316666667, "type": "electric_scooter", "fusion_lat": 0.0, "lat": 38.91773533333333, "name": "b5bc73c76336a99de21aeaa10e8e9e49", "fusion_lon": 0.0, "bike_id": "b5bc73c76336a99de21aeaa10e8e9e49", "is_disabled": 0, "is_reserved": 0}, {"rental_uris": {"ios": "https://dc.lft.to/lastmile_qr_scan", "android": "https://dc.lft.to/lastmile_qr_scan"}, "lon": -77.03286266666667, "type": "electric_scooter", "fusion_lat": 0.0, "lat": 38.92215733333333, "name": "62419874697af93a31f67a346d33cc36", "fusion_lon": 0.0, "bike_id": "62419874697af93a31f67a346d33cc36", "is_disabled": 0, "is_reserved": 0}, {"rental_uris": {"ios": "https://dc.lft.to/lastmile_qr_scan", "android": "https://dc.lft.to/lastmile_qr_scan"}, "lon": -77.02096733333333, "type": "electric_scooter", "fusion_lat": 0.0, "lat": 38.91008183333334, "name": "aaa5a0816fd3b6c3a012cda8a52d9469", "fusion_lon": 0.0, "bike_id": "aaa5a0816fd3b6c3a012cda8a52d9469", "is_disabled": 0, "is_reserved": 0}, {"rental_uris": {"ios": "https://dc.lft.to/lastmile_qr_scan", "android": "https://dc.lft.to/lastmile_qr_scan"}, "lon": -77.053284, "type": "electric_scooter", "fusion_lat": 0.0, "lat": 38.90022916666667, "name": "5d2b13a9509cc0c14d026300ab2c326b", "fusion_lon": 0.0, "bike_id": "5d2b13a9509cc0c14d026300ab2c326b", "is_disabled": 0, "is_reserved": 0}, {"rental_uris": {"ios": "https://dc.lft.to/lastmile_qr_scan", "android": "https://dc.lft.to/lastmile_qr_scan"}, "lon": -76.97981683333333, "type": "electric_bike", "fusion_lat": 0.0, "lat": 38.87751983333333, "name": "9b6090f366d946a69da18a49ca426b5f", "fusion_lon": 0.0, "bike_id": "9b6090f366d946a69da18a49ca426b5f", "is_disabled": 0, "is_reserved": 0}, {"rental_uris": {"ios": "https://dc.lft.to/lastmile_qr_scan", "android": "https://dc.lft.to/lastmile_qr_scan"}, "lon": -77.03385433333334, "type": "electric_scooter", "fusion_lat": 0.0, "lat": 38.899487, "name": "7c727d6d9c745c300324362baf6bc991", "fusion_lon": 0.0, "bike_id": "7c727d6d9c745c300324362baf6bc991", "is_disabled": 0, "is_reserved": 0}, {"rental_uris": {"ios": "https://dc.lft.to/lastmile_qr_scan", "android": "https://dc.lft.to/lastmile_qr_scan"}, "lon": -77.360885, "type": "electric_bike", "fusion_lat": 0.0, "lat": 38.9396, "name": "8a2d8270fca7d357ebf7a2f677278e83", "fusion_lon": 0.0, "bike_id": "8a2d8270fca7d357ebf7a2f677278e83", "is_disabled": 0, "is_reserved": 0}, {"rental_uris": {"ios": "https://dc.lft.to/lastmile_qr_scan", "android": "https://dc.lft.to/lastmile_qr_scan"}, "lon": -77.00199016666667, "type": "electric_bike", "fusion_lat": 0.0, "lat": 38.941568833333335, "name": "89da53c14dce7e0f7b56777867bd0614", "fusion_lon": 0.0, "bike_id": "89da53c14dce7e0f7b56777867bd0614", "is_disabled": 0, "is_reserved": 0}, {"rental_uris": {"ios": "https://dc.lft.to/lastmile_qr_scan", "android": "https://dc.lft.to/lastmile_qr_scan"}, "lon": -77.01508316666667, "type": "electric_scooter", "fusion_lat": 0.0, "lat": 38.90192016666666, "name": "a5029b79489e4854ed4fe4fc3e52e83a", "fusion_lon": 0.0, "bike_id": "a5029b79489e4854ed4fe4fc3e52e83a", "is_disabled": 0, "is_reserved": 0}, {"rental_uris": {"ios": "https://dc.lft.to/lastmile_qr_scan", "android": "https://dc.lft.to/lastmile_qr_scan"}, "lon": -77.02721216666667, "type": "electric_scooter", "fusion_lat": 0.0, "lat": 38.909728, "name": "9d27e39d1c945cdf75b64115a6799ba9", "fusion_lon": 0.0, "bike_id": "9d27e39d1c945cdf75b64115a6799ba9", "is_disabled": 0, "is_reserved": 0}, {"rental_uris": {"ios": "https://dc.lft.to/lastmile_qr_scan", "android": "https://dc.lft.to/lastmile_qr_scan"}, "lon": -77.032173, "type": "electric_scooter", "fusion_lat": 0.0, "lat": 38.914668, "name": "a3b018bae5b9f058d02f46d31f5963b4", "fusion_lon": 0.0, "bike_id": "a3b018bae5b9f058d02f46d31f5963b4", "is_disabled": 0, "is_reserved": 0}, {"rental_uris": {"ios": "https://dc.lft.to/lastmile_qr_scan", "android": "https://dc.lft.to/lastmile_qr_scan"}, "lon": -76.9414285, "type": "electric_scooter", "fusion_lat": 0.0, "lat": 38.89681733333333, "name": "b39287cb7161c824ecf6d6bc48578570", "fusion_lon": 0.0, "bike_id": "b39287cb7161c824ecf6d6bc48578570", "is_disabled": 0, "is_reserved": 0}, {"rental_uris": {"ios": "https://dc.lft.to/lastmile_qr_scan", "android": "https://dc.lft.to/lastmile_qr_scan"}, "lon": -77.05329466666667, "type": "electric_scooter", "fusion_lat": 0.0, "lat": 38.904618666666664, "name": "a23f834302b3ef4e38e39ae65c7e1f75", "fusion_lon": 0.0, "bike_id": "a23f834302b3ef4e38e39ae65c7e1f75", "is_disabled": 0, "is_reserved": 0}, {"rental_uris": {"ios": "https://dc.lft.to/lastmile_qr_scan", "android": "https://dc.lft.to/lastmile_qr_scan"}, "lon": -76.97010033333333, "type": "electric_bike", "fusion_lat": 0.0, "lat": 38.8636995, "name": "3eb1d9dddb1c0dcad16bdf5b100d2d10", "fusion_lon": 0.0, "bike_id": "3eb1d9dddb1c0dcad16bdf5b100d2d10", "is_disabled": 0, "is_reserved": 0}, {"rental_uris": {"ios": "https://dc.lft.to/lastmile_qr_scan", "android": "https://dc.lft.to/lastmile_qr_scan"}, "lon": -77.09548566666666, "type": "electric_bike", "fusion_lat": 0.0, "lat": 38.837316, "name": "98e6316100e2ecb5f6bed1e108a7e27e", "fusion_lon": 0.0, "bike_id": "98e6316100e2ecb5f6bed1e108a7e27e", "is_disabled": 0, "is_reserved": 0}, {"rental_uris": {"ios": "https://dc.lft.to/lastmile_qr_scan", "android": "https://dc.lft.to/lastmile_qr_scan"}, "lon": -77.03221583333334, "type": "electric_scooter", "fusion_lat": 0.0, "lat": 38.9176185, "name": "ff9fb094f8b4a2dc4dc836a07b42d6e9", "fusion_lon": 0.0, "bike_id": "ff9fb094f8b4a2dc4dc836a07b42d6e9", "is_disabled": 0, "is_reserved": 0}, {"rental_uris": {"ios": "https://dc.lft.to/lastmile_qr_scan", "android": "https://dc.lft.to/lastmile_qr_scan"}, "lon": -77.027593, "type": "electric_scooter", "fusion_lat": 0.0, "lat": 38.95615, "name": "a0e28c86ded968858cb0ee14b7181938", "fusion_lon": 0.0, "bike_id": "a0e28c86ded968858cb0ee14b7181938", "is_disabled": 0, "is_reserved": 0}, {"rental_uris": {"ios": "https://dc.lft.to/lastmile_qr_scan", "android": "https://dc.lft.to/lastmile_qr_scan"}, "lon": -77.00384566666666, "type": "electric_bike", "fusion_lat": 0.0, "lat": 38.83597316666667, "name": "0cb5468ecc59a4e9c715cd08b848de62", "fusion_lon": 0.0, "bike_id": "0cb5468ecc59a4e9c715cd08b848de62", "is_disabled": 0, "is_reserved": 0}, {"rental_uris": {"ios": "https://dc.lft.to/lastmile_qr_scan", "android": "https://dc.lft.to/lastmile_qr_scan"}, "lon": -77.0271645, "type": "electric_scooter", "fusion_lat": 0.0, "lat": 38.9090665, "name": "e00cba9ef8e5184defbfc9c43fb981ca", "fusion_lon": 0.0, "bike_id": "e00cba9ef8e5184defbfc9c43fb981ca", "is_disabled": 0, "is_reserved": 0}, {"rental_uris": {"ios": "https://dc.lft.to/lastmile_qr_scan", "android": "https://dc.lft.to/lastmile_qr_scan"}, "lon": -77.02257283333333, "type": "electric_scooter", "fusion_lat": 0.0, "lat": 38.923099, "name": "fcbad26510ac28c3c493ccf41039c0d2", "fusion_lon": 0.0, "bike_id": "fcbad26510ac28c3c493ccf41039c0d2", "is_disabled": 0, "is_reserved": 0}, {"rental_uris": {"ios": "https://dc.lft.to/lastmile_qr_scan", "android": "https://dc.lft.to/lastmile_qr_scan"}, "lon": -77.00366083333333, "type": "electric_scooter", "fusion_lat": 0.0, "lat": 38.83803533333333, "name": "9bc1f5867ea3d57e536e2ffd16b876fd", "fusion_lon": 0.0, "bike_id": "9bc1f5867ea3d57e536e2ffd16b876fd", "is_disabled": 0, "is_reserved": 0}, {"rental_uris": {"ios": "https://dc.lft.to/lastmile_qr_scan", "android": "https://dc.lft.to/lastmile_qr_scan"}, "lon": -76.9316175, "type": "electric_bike", "fusion_lat": 0.0, "lat": 38.908613333333335, "name": "a78794bfc246c9c21edeea58052fe24a", "fusion_lon": 0.0, "bike_id": "a78794bfc246c9c21edeea58052fe24a", "is_disabled": 0, "is_reserved": 0}, {"rental_uris": {"ios": "https://dc.lft.to/lastmile_qr_scan", "android": "https://dc.lft.to/lastmile_qr_scan"}, "lon": -77.0288355, "type": "electric_scooter", "fusion_lat": 0.0, "lat": 38.907121833333335, "name": "0cf5c383f163fa6f891e589bd43935fe", "fusion_lon": 0.0, "bike_id": "0cf5c383f163fa6f891e589bd43935fe", "is_disabled": 0, "is_reserved": 0}, {"rental_uris": {"ios": "https://dc.lft.to/lastmile_qr_scan", "android": "https://dc.lft.to/lastmile_qr_scan"}, "lon": -76.99060283333333, "type": "electric_scooter", "fusion_lat": 0.0, "lat": 38.86358716666667, "name": "9527888bd125adeb2372ec13bee309e1", "fusion_lon": 0.0, "bike_id": "9527888bd125adeb2372ec13bee309e1", "is_disabled": 0, "is_reserved": 0}, {"rental_uris": {"ios": "https://dc.lft.to/lastmile_qr_scan", "android": "https://dc.lft.to/lastmile_qr_scan"}, "lon": -77.038891, "type": "electric_scooter", "fusion_lat": 0.0, "lat": 38.921838, "name": "e83c55da2416d1ddbfbfc9f0e3a51dfc", "fusion_lon": 0.0, "bike_id": "e83c55da2416d1ddbfbfc9f0e3a51dfc", "is_disabled": 0, "is_reserved": 0}, {"rental_uris": {"ios": "https://dc.lft.to/lastmile_qr_scan", "android": "https://dc.lft.to/lastmile_qr_scan"}, "lon": -77.01341583333334, "type": "electric_bike", "fusion_lat": 0.0, "lat": 38.9999745, "name": "b97746cab97a7c207e0ecaf3e67be821", "fusion_lon": 0.0, "bike_id": "b97746cab97a7c207e0ecaf3e67be821", "is_disabled": 0, "is_reserved": 0}, {"rental_uris": {"ios": "https://dc.lft.to/lastmile_qr_scan", "android": "https://dc.lft.to/lastmile_qr_scan"}, "lon": -77.03457616666667, "type": "electric_scooter", "fusion_lat": 0.0, "lat": 38.92152866666667, "name": "e75961f09bfbf9e7911ca2ed507f285f", "fusion_lon": 0.0, "bike_id": "e75961f09bfbf9e7911ca2ed507f285f", "is_disabled": 0, "is_reserved": 0}, {"rental_uris": {"ios": "https://dc.lft.to/lastmile_qr_scan", "android": "https://dc.lft.to/lastmile_qr_scan"}, "lon": -77.04164733333333, "type": "electric_scooter", "fusion_lat": 0.0, "lat": 38.914647333333335, "name": "2c5da3df34c72a78108e064918e6cf5f", "fusion_lon": 0.0, "bike_id": "2c5da3df34c72a78108e064918e6cf5f", "is_disabled": 0, "is_reserved": 0}, {"rental_uris": {"ios": "https://dc.lft.to/lastmile_qr_scan", "android": "https://dc.lft.to/lastmile_qr_scan"}, "lon": -77.01898933333334, "type": "electric_scooter", "fusion_lat": 0.0, "lat": 38.8766435, "name": "0a6c8474f4e6749012c802263eecbd77", "fusion_lon": 0.0, "bike_id": "0a6c8474f4e6749012c802263eecbd77", "is_disabled": 0, "is_reserved": 0}, {"rental_uris": {"ios": "https://dc.lft.to/lastmile_qr_scan", "android": "https://dc.lft.to/lastmile_qr_scan"}, "lon": -77.02865216666666, "type": "electric_scooter", "fusion_lat": 0.0, "lat": 38.9043975, "name": "e7675cbd343cca6831c4a45ac4048e7a", "fusion_lon": 0.0, "bike_id": "e7675cbd343cca6831c4a45ac4048e7a", "is_disabled": 0, "is_reserved": 0}, {"rental_uris": {"ios": "https://dc.lft.to/lastmile_qr_scan", "android": "https://dc.lft.to/lastmile_qr_scan"}, "lon": -77.01119133333333, "type": "electric_scooter", "fusion_lat": 0.0, "lat": 38.90360483333333, "name": "590aa09cdf57aa4b720f893747b62ae3", "fusion_lon": 0.0, "bike_id": "590aa09cdf57aa4b720f893747b62ae3", "is_disabled": 0, "is_reserved": 0}, {"rental_uris": {"ios": "https://dc.lft.to/lastmile_qr_scan", "android": "https://dc.lft.to/lastmile_qr_scan"}, "lon": -77.04226116666666, "type": "electric_scooter", "fusion_lat": 0.0, "lat": 38.92110683333333, "name": "47678b15aa0feadd50be98d8b0722f85", "fusion_lon": 0.0, "bike_id": "47678b15aa0feadd50be98d8b0722f85", "is_disabled": 0, "is_reserved": 0}, {"rental_uris": {"ios": "https://dc.lft.to/lastmile_qr_scan", "android": "https://dc.lft.to/lastmile_qr_scan"}, "lon": -77.00246133333333, "type": "electric_scooter", "fusion_lat": 0.0, "lat": 38.91924233333334, "name": "bbb0085d4e0be2c6318c7391a8e3352d", "fusion_lon": 0.0, "bike_id": "bbb0085d4e0be2c6318c7391a8e3352d", "is_disabled": 0, "is_reserved": 0}, {"rental_uris": {"ios": "https://dc.lft.to/lastmile_qr_scan", "android": "https://dc.lft.to/lastmile_qr_scan"}, "lon": -77.023945, "type": "electric_scooter", "fusion_lat": 0.0, "lat": 38.93766883333333, "name": "e61291a5ee0b8fedbf8982ac0d3d9f2f", "fusion_lon": 0.0, "bike_id": "e61291a5ee0b8fedbf8982ac0d3d9f2f", "is_disabled": 0, "is_reserved": 0}, {"rental_uris": {"ios": "https://dc.lft.to/lastmile_qr_scan", "android": "https://dc.lft.to/lastmile_qr_scan"}, "lon": -76.94419666666667, "type": "electric_scooter", "fusion_lat": 0.0, "lat": 38.89794166666667, "name": "2ec6093e366d796327bf53fbf150e8cc", "fusion_lon": 0.0, "bike_id": "2ec6093e366d796327bf53fbf150e8cc", "is_disabled": 0, "is_reserved": 0}, {"rental_uris": {"ios": "https://dc.lft.to/lastmile_qr_scan", "android": "https://dc.lft.to/lastmile_qr_scan"}, "lon": -76.993815, "type": "electric_scooter", "fusion_lat": 0.0, "lat": 38.887477, "name": "84a7cd8d5129734f2ecfd2513f5b585e", "fusion_lon": 0.0, "bike_id": "84a7cd8d5129734f2ecfd2513f5b585e", "is_disabled": 0, "is_reserved": 0}, {"rental_uris": {"ios": "https://dc.lft.to/lastmile_qr_scan", "android": "https://dc.lft.to/lastmile_qr_scan"}, "lon": -76.98344666666667, "type": "electric_scooter", "fusion_lat": 0.0, "lat": 38.915371, "name": "13bd33271e1513679620601ebee02706", "fusion_lon": 0.0, "bike_id": "13bd33271e1513679620601ebee02706", "is_disabled": 0, "is_reserved": 0}, {"rental_uris": {"ios": "https://dc.lft.to/lastmile_qr_scan", "android": "https://dc.lft.to/lastmile_qr_scan"}, "lon": -77.0158135, "type": "electric_scooter", "fusion_lat": 0.0, "lat": 38.913583833333334, "name": "04f3636bfe3ee734b518408208ac88bd", "fusion_lon": 0.0, "bike_id": "04f3636bfe3ee734b518408208ac88bd", "is_disabled": 0, "is_reserved": 0}, {"rental_uris": {"ios": "https://dc.lft.to/lastmile_qr_scan", "android": "https://dc.lft.to/lastmile_qr_scan"}, "lon": -77.04174183333333, "type": "electric_scooter", "fusion_lat": 0.0, "lat": 38.91987783333333, "name": "47dcaa2a570630ebad7387514c113cb2", "fusion_lon": 0.0, "bike_id": "47dcaa2a570630ebad7387514c113cb2", "is_disabled": 0, "is_reserved": 0}, {"rental_uris": {"ios": "https://dc.lft.to/lastmile_qr_scan", "android": "https://dc.lft.to/lastmile_qr_scan"}, "lon": -77.03446266666667, "type": "electric_scooter", "fusion_lat": 0.0, "lat": 38.918788, "name": "25df94240ddb3ecca963c618a69850f7", "fusion_lon": 0.0, "bike_id": "25df94240ddb3ecca963c618a69850f7", "is_disabled": 0, "is_reserved": 0}, {"rental_uris": {"ios": "https://dc.lft.to/lastmile_qr_scan", "android": "https://dc.lft.to/lastmile_qr_scan"}, "lon": -77.06492233333333, "type": "electric_bike", "fusion_lat": 0.0, "lat": 38.964942, "name": "edd5e52122ef54de54a18f8e2a6411dc", "fusion_lon": 0.0, "bike_id": "edd5e52122ef54de54a18f8e2a6411dc", "is_disabled": 0, "is_reserved": 0}, {"rental_uris": {"ios": "https://dc.lft.to/lastmile_qr_scan", "android": "https://dc.lft.to/lastmile_qr_scan"}, "lon": -77.031296, "type": "electric_scooter", "fusion_lat": 0.0, "lat": 38.923781, "name": "5e39d27ac531dbad6c63dc689a7a3d86", "fusion_lon": 0.0, "bike_id": "5e39d27ac531dbad6c63dc689a7a3d86", "is_disabled": 0, "is_reserved": 0}, {"rental_uris": {"ios": "https://dc.lft.to/lastmile_qr_scan", "android": "https://dc.lft.to/lastmile_qr_scan"}, "lon": -77.0138515, "type": "electric_scooter", "fusion_lat": 0.0, "lat": 38.91951516666666, "name": "f7dbc685218702bbf5b1487cad687785", "fusion_lon": 0.0, "bike_id": "f7dbc685218702bbf5b1487cad687785", "is_disabled": 0, "is_reserved": 0}, {"rental_uris": {"ios": "https://dc.lft.to/lastmile_qr_scan", "android": "https://dc.lft.to/lastmile_qr_scan"}, "lon": -77.0242695, "type": "electric_scooter", "fusion_lat": 0.0, "lat": 38.90716066666667, "name": "b55396752478d38492d45b98a0e6a13c", "fusion_lon": 0.0, "bike_id": "b55396752478d38492d45b98a0e6a13c", "is_disabled": 0, "is_reserved": 0}, {"rental_uris": {"ios": "https://dc.lft.to/lastmile_qr_scan", "android": "https://dc.lft.to/lastmile_qr_scan"}, "lon": -77.02224066666666, "type": "electric_scooter", "fusion_lat": 0.0, "lat": 38.912769833333336, "name": "5ef8e09a6d8b5df1718830976f890f27", "fusion_lon": 0.0, "bike_id": "5ef8e09a6d8b5df1718830976f890f27", "is_disabled": 0, "is_reserved": 0}, {"rental_uris": {"ios": "https://dc.lft.to/lastmile_qr_scan", "android": "https://dc.lft.to/lastmile_qr_scan"}, "lon": -76.977037, "type": "electric_scooter", "fusion_lat": 0.0, "lat": 38.89711333333333, "name": "4983ee153d90b8cc5bf09dbf877a0441", "fusion_lon": 0.0, "bike_id": "4983ee153d90b8cc5bf09dbf877a0441", "is_disabled": 0, "is_reserved": 0}, {"rental_uris": {"ios": "https://dc.lft.to/lastmile_qr_scan", "android": "https://dc.lft.to/lastmile_qr_scan"}, "lon": -77.04014283333333, "type": "electric_scooter", "fusion_lat": 0.0, "lat": 38.90020366666667, "name": "da47350818d45907927ed4249d36be6e", "fusion_lon": 0.0, "bike_id": "da47350818d45907927ed4249d36be6e", "is_disabled": 0, "is_reserved": 0}, {"rental_uris": {"ios": "https://dc.lft.to/lastmile_qr_scan", "android": "https://dc.lft.to/lastmile_qr_scan"}, "lon": -77.04889833333333, "type": "electric_scooter", "fusion_lat": 0.0, "lat": 38.89667333333333, "name": "2831c190e41e2a3e7802ead407eb934c", "fusion_lon": 0.0, "bike_id": "2831c190e41e2a3e7802ead407eb934c", "is_disabled": 0, "is_reserved": 0}, {"rental_uris": {"ios": "https://dc.lft.to/lastmile_qr_scan", "android": "https://dc.lft.to/lastmile_qr_scan"}, "lon": -76.94781316666666, "type": "electric_scooter", "fusion_lat": 0.0, "lat": 38.90078483333333, "name": "0d4844519c6a591a1ff51cbc2030ded9", "fusion_lon": 0.0, "bike_id": "0d4844519c6a591a1ff51cbc2030ded9", "is_disabled": 0, "is_reserved": 0}, {"rental_uris": {"ios": "https://dc.lft.to/lastmile_qr_scan", "android": "https://dc.lft.to/lastmile_qr_scan"}, "lon": -77.03506266666666, "type": "electric_scooter", "fusion_lat": 0.0, "lat": 38.900366, "name": "dfb1a69aca2d4249fce8455f67425ac5", "fusion_lon": 0.0, "bike_id": "dfb1a69aca2d4249fce8455f67425ac5", "is_disabled": 0, "is_reserved": 0}, {"rental_uris": {"ios": "https://dc.lft.to/lastmile_qr_scan", "android": "https://dc.lft.to/lastmile_qr_scan"}, "lon": -77.035297, "type": "electric_scooter", "fusion_lat": 0.0, "lat": 38.928584666666666, "name": "ea9430e3ceaeb54ae9f9945adaa4ca64", "fusion_lon": 0.0, "bike_id": "ea9430e3ceaeb54ae9f9945adaa4ca64", "is_disabled": 0, "is_reserved": 0}, {"rental_uris": {"ios": "https://dc.lft.to/lastmile_qr_scan", "android": "https://dc.lft.to/lastmile_qr_scan"}, "lon": -77.03470466666667, "type": "electric_scooter", "fusion_lat": 0.0, "lat": 38.917072166666664, "name": "eecaa86ac09187f9c76f02fc6ab1a7e3", "fusion_lon": 0.0, "bike_id": "eecaa86ac09187f9c76f02fc6ab1a7e3", "is_disabled": 0, "is_reserved": 0}, {"rental_uris": {"ios": "https://dc.lft.to/lastmile_qr_scan", "android": "https://dc.lft.to/lastmile_qr_scan"}, "lon": -77.023786, "type": "electric_scooter", "fusion_lat": 0.0, "lat": 38.95247166666667, "name": "9b2d59997579ebbb8ffa2317a2c2b870", "fusion_lon": 0.0, "bike_id": "9b2d59997579ebbb8ffa2317a2c2b870", "is_disabled": 0, "is_reserved": 0}, {"rental_uris": {"ios": "https://dc.lft.to/lastmile_qr_scan", "android": "https://dc.lft.to/lastmile_qr_scan"}, "lon": -77.02436566666667, "type": "electric_scooter", "fusion_lat": 0.0, "lat": 38.91695983333334, "name": "65cb732d6fe26be3cb9d5d63d369242e", "fusion_lon": 0.0, "bike_id": "65cb732d6fe26be3cb9d5d63d369242e", "is_disabled": 0, "is_reserved": 0}, {"rental_uris": {"ios": "https://dc.lft.to/lastmile_qr_scan", "android": "https://dc.lft.to/lastmile_qr_scan"}, "lon": -77.096194, "type": "electric_bike", "fusion_lat": 0.0, "lat": 38.84571183333333, "name": "ad3e6915c4429ec9cb3fd2068c4b373f", "fusion_lon": 0.0, "bike_id": "ad3e6915c4429ec9cb3fd2068c4b373f", "is_disabled": 0, "is_reserved": 0}, {"rental_uris": {"ios": "https://dc.lft.to/lastmile_qr_scan", "android": "https://dc.lft.to/lastmile_qr_scan"}, "lon": -77.064191, "type": "electric_bike", "fusion_lat": 0.0, "lat": 38.9051885, "name": "952c307ac2771dd58f65a8b556df94dd", "fusion_lon": 0.0, "bike_id": "952c307ac2771dd58f65a8b556df94dd", "is_disabled": 0, "is_reserved": 0}, {"rental_uris": {"ios": "https://dc.lft.to/lastmile_qr_scan", "android": "https://dc.lft.to/lastmile_qr_scan"}, "lon": -77.03372583333334, "type": "electric_scooter", "fusion_lat": 0.0, "lat": 38.9103775, "name": "2d55d1cad22ba90361be299da8d01bba", "fusion_lon": 0.0, "bike_id": "2d55d1cad22ba90361be299da8d01bba", "is_disabled": 0, "is_reserved": 0}, {"rental_uris": {"ios": "https://dc.lft.to/lastmile_qr_scan", "android": "https://dc.lft.to/lastmile_qr_scan"}, "lon": -77.04617783333333, "type": "electric_bike", "fusion_lat": 0.0, "lat": 38.99907566666667, "name": "0bae463e85240ca3b4eae939dcac27f9", "fusion_lon": 0.0, "bike_id": "0bae463e85240ca3b4eae939dcac27f9", "is_disabled": 0, "is_reserved": 0}, {"rental_uris": {"ios": "https://dc.lft.to/lastmile_qr_scan", "android": "https://dc.lft.to/lastmile_qr_scan"}, "lon": -77.00116283333334, "type": "electric_scooter", "fusion_lat": 0.0, "lat": 38.92450433333333, "name": "e52c296763a69cc24c5adef8318c1c30", "fusion_lon": 0.0, "bike_id": "e52c296763a69cc24c5adef8318c1c30", "is_disabled": 0, "is_reserved": 0}, {"rental_uris": {"ios": "https://dc.lft.to/lastmile_qr_scan", "android": "https://dc.lft.to/lastmile_qr_scan"}, "lon": -77.06472066666667, "type": "electric_bike", "fusion_lat": 0.0, "lat": 38.973827666666665, "name": "0b3c1b228bf5adfd70ace20cbb9fd5d5", "fusion_lon": 0.0, "bike_id": "0b3c1b228bf5adfd70ace20cbb9fd5d5", "is_disabled": 0, "is_reserved": 0}, {"rental_uris": {"ios": "https://dc.lft.to/lastmile_qr_scan", "android": "https://dc.lft.to/lastmile_qr_scan"}, "lon": -77.0381595, "type": "electric_scooter", "fusion_lat": 0.0, "lat": 38.931083666666666, "name": "fb6f10f2a6e9ffa1917ae88ba32caca1", "fusion_lon": 0.0, "bike_id": "fb6f10f2a6e9ffa1917ae88ba32caca1", "is_disabled": 0, "is_reserved": 0}, {"rental_uris": {"ios": "https://dc.lft.to/lastmile_qr_scan", "android": "https://dc.lft.to/lastmile_qr_scan"}, "lon": -76.94439566666667, "type": "electric_bike", "fusion_lat": 0.0, "lat": 38.90297916666667, "name": "9c7639133dae382a6425ac8ec317a223", "fusion_lon": 0.0, "bike_id": "9c7639133dae382a6425ac8ec317a223", "is_disabled": 0, "is_reserved": 0}, {"rental_uris": {"ios": "https://dc.lft.to/lastmile_qr_scan", "android": "https://dc.lft.to/lastmile_qr_scan"}, "lon": -77.06385733333333, "type": "electric_bike", "fusion_lat": 0.0, "lat": 38.905123333333336, "name": "724fe20664ee89c1458b0009b931c5c8", "fusion_lon": 0.0, "bike_id": "724fe20664ee89c1458b0009b931c5c8", "is_disabled": 0, "is_reserved": 0}, {"rental_uris": {"ios": "https://dc.lft.to/lastmile_qr_scan", "android": "https://dc.lft.to/lastmile_qr_scan"}, "lon": -76.97222783333333, "type": "electric_bike", "fusion_lat": 0.0, "lat": 38.84489083333333, "name": "822dfdbfac08c7059bdc8b8d66650fcb", "fusion_lon": 0.0, "bike_id": "822dfdbfac08c7059bdc8b8d66650fcb", "is_disabled": 0, "is_reserved": 0}, {"rental_uris": {"ios": "https://dc.lft.to/lastmile_qr_scan", "android": "https://dc.lft.to/lastmile_qr_scan"}, "lon": -77.03331466666667, "type": "electric_scooter", "fusion_lat": 0.0, "lat": 38.90180466666666, "name": "627cf1f65a3c0de11919f20237a80faa", "fusion_lon": 0.0, "bike_id": "627cf1f65a3c0de11919f20237a80faa", "is_disabled": 0, "is_reserved": 0}, {"rental_uris": {"ios": "https://dc.lft.to/lastmile_qr_scan", "android": "https://dc.lft.to/lastmile_qr_scan"}, "lon": -77.01128683333333, "type": "electric_scooter", "fusion_lat": 0.0, "lat": 38.912655, "name": "d57635db759f82732d939ce593fe3c86", "fusion_lon": 0.0, "bike_id": "d57635db759f82732d939ce593fe3c86", "is_disabled": 0, "is_reserved": 0}, {"rental_uris": {"ios": "https://dc.lft.to/lastmile_qr_scan", "android": "https://dc.lft.to/lastmile_qr_scan"}, "lon": -77.01770933333333, "type": "electric_scooter", "fusion_lat": 0.0, "lat": 38.9184365, "name": "a5c24a691274de357d4b9f5d5a619b13", "fusion_lon": 0.0, "bike_id": "a5c24a691274de357d4b9f5d5a619b13", "is_disabled": 0, "is_reserved": 0}, {"rental_uris": {"ios": "https://dc.lft.to/lastmile_qr_scan", "android": "https://dc.lft.to/lastmile_qr_scan"}, "lon": -77.0131695, "type": "electric_scooter", "fusion_lat": 0.0, "lat": 38.89740466666667, "name": "dba67d7a4c52520c172b63d0677b422d", "fusion_lon": 0.0, "bike_id": "dba67d7a4c52520c172b63d0677b422d", "is_disabled": 0, "is_reserved": 0}, {"rental_uris": {"ios": "https://dc.lft.to/lastmile_qr_scan", "android": "https://dc.lft.to/lastmile_qr_scan"}, "lon": -77.02464833333333, "type": "electric_scooter", "fusion_lat": 0.0, "lat": 38.936335166666666, "name": "8b9ebc43ba5230e75e3d58ad479d16b5", "fusion_lon": 0.0, "bike_id": "8b9ebc43ba5230e75e3d58ad479d16b5", "is_disabled": 0, "is_reserved": 0}, {"rental_uris": {"ios": "https://dc.lft.to/lastmile_qr_scan", "android": "https://dc.lft.to/lastmile_qr_scan"}, "lon": -76.980083, "type": "electric_bike", "fusion_lat": 0.0, "lat": 38.900143666666665, "name": "f847d77ac56480da89c5f4aba9ec6cae", "fusion_lon": 0.0, "bike_id": "f847d77ac56480da89c5f4aba9ec6cae", "is_disabled": 0, "is_reserved": 0}, {"rental_uris": {"ios": "https://dc.lft.to/lastmile_qr_scan", "android": "https://dc.lft.to/lastmile_qr_scan"}, "lon": -76.95906816666667, "type": "electric_scooter", "fusion_lat": 0.0, "lat": 38.926905, "name": "a51095957c4bfb9071aea0155a38ccc5", "fusion_lon": 0.0, "bike_id": "a51095957c4bfb9071aea0155a38ccc5", "is_disabled": 0, "is_reserved": 0}, {"rental_uris": {"ios": "https://dc.lft.to/lastmile_qr_scan", "android": "https://dc.lft.to/lastmile_qr_scan"}, "lon": -77.0137515, "type": "electric_scooter", "fusion_lat": 0.0, "lat": 38.886523833333335, "name": "fa8ad7b0ad4569782a9c6fa93a636650", "fusion_lon": 0.0, "bike_id": "fa8ad7b0ad4569782a9c6fa93a636650", "is_disabled": 0, "is_reserved": 0}, {"rental_uris": {"ios": "https://dc.lft.to/lastmile_qr_scan", "android": "https://dc.lft.to/lastmile_qr_scan"}, "lon": -77.03316033333333, "type": "electric_scooter", "fusion_lat": 0.0, "lat": 38.90855966666667, "name": "f0401175e2aba7d1fa92a514c8654131", "fusion_lon": 0.0, "bike_id": "f0401175e2aba7d1fa92a514c8654131", "is_disabled": 0, "is_reserved": 0}, {"rental_uris": {"ios": "https://dc.lft.to/lastmile_qr_scan", "android": "https://dc.lft.to/lastmile_qr_scan"}, "lon": -76.95185666666667, "type": "electric_bike", "fusion_lat": 0.0, "lat": 38.90688983333333, "name": "a6123d72faa1f35796254852e7fe2836", "fusion_lon": 0.0, "bike_id": "a6123d72faa1f35796254852e7fe2836", "is_disabled": 0, "is_reserved": 0}, {"rental_uris": {"ios": "https://dc.lft.to/lastmile_qr_scan", "android": "https://dc.lft.to/lastmile_qr_scan"}, "lon": -77.03605116666667, "type": "electric_scooter", "fusion_lat": 0.0, "lat": 38.905602333333334, "name": "3e018845d93e591db949049d32fe91ce", "fusion_lon": 0.0, "bike_id": "3e018845d93e591db949049d32fe91ce", "is_disabled": 0, "is_reserved": 0}, {"rental_uris": {"ios": "https://dc.lft.to/lastmile_qr_scan", "android": "https://dc.lft.to/lastmile_qr_scan"}, "lon": -76.93179066666667, "type": "electric_scooter", "fusion_lat": 0.0, "lat": 38.898837666666665, "name": "1edec38faaa8cdd5b7f44b9231a09ef8", "fusion_lon": 0.0, "bike_id": "1edec38faaa8cdd5b7f44b9231a09ef8", "is_disabled": 0, "is_reserved": 0}, {"rental_uris": {"ios": "https://dc.lft.to/lastmile_qr_scan", "android": "https://dc.lft.to/lastmile_qr_scan"}, "lon": -77.00561533333334, "type": "electric_scooter", "fusion_lat": 0.0, "lat": 38.90342016666666, "name": "a1a4a296c8aeb5c6b407f3e5205b894a", "fusion_lon": 0.0, "bike_id": "a1a4a296c8aeb5c6b407f3e5205b894a", "is_disabled": 0, "is_reserved": 0}, {"rental_uris": {"ios": "https://dc.lft.to/lastmile_qr_scan", "android": "https://dc.lft.to/lastmile_qr_scan"}, "lon": -77.04288533333333, "type": "electric_scooter", "fusion_lat": 0.0, "lat": 38.89536283333333, "name": "da47b457a9a418620c0546c1dee74577", "fusion_lon": 0.0, "bike_id": "da47b457a9a418620c0546c1dee74577", "is_disabled": 0, "is_reserved": 0}, {"rental_uris": {"ios": "https://dc.lft.to/lastmile_qr_scan", "android": "https://dc.lft.to/lastmile_qr_scan"}, "lon": -77.03101316666667, "type": "electric_scooter", "fusion_lat": 0.0, "lat": 38.91932466666667, "name": "19aab2efddf864e227a84378f4684408", "fusion_lon": 0.0, "bike_id": "19aab2efddf864e227a84378f4684408", "is_disabled": 0, "is_reserved": 0}, {"rental_uris": {"ios": "https://dc.lft.to/lastmile_qr_scan", "android": "https://dc.lft.to/lastmile_qr_scan"}, "lon": -77.03283316666666, "type": "electric_scooter", "fusion_lat": 0.0, "lat": 38.938812166666665, "name": "4fb7d8f3824751a5d758934d44ba6800", "fusion_lon": 0.0, "bike_id": "4fb7d8f3824751a5d758934d44ba6800", "is_disabled": 0, "is_reserved": 0}, {"rental_uris": {"ios": "https://dc.lft.to/lastmile_qr_scan", "android": "https://dc.lft.to/lastmile_qr_scan"}, "lon": -77.05265333333334, "type": "electric_scooter", "fusion_lat": 0.0, "lat": 38.934353, "name": "c344f9b005bcb8d62fcd2a43bfcc85e5", "fusion_lon": 0.0, "bike_id": "c344f9b005bcb8d62fcd2a43bfcc85e5", "is_disabled": 0, "is_reserved": 0}, {"rental_uris": {"ios": "https://dc.lft.to/lastmile_qr_scan", "android": "https://dc.lft.to/lastmile_qr_scan"}, "lon": -77.036733, "type": "electric_scooter", "fusion_lat": 0.0, "lat": 38.918705, "name": "0b96ebf610d130376cb2dc8229b63875", "fusion_lon": 0.0, "bike_id": "0b96ebf610d130376cb2dc8229b63875", "is_disabled": 0, "is_reserved": 0}, {"rental_uris": {"ios": "https://dc.lft.to/lastmile_qr_scan", "android": "https://dc.lft.to/lastmile_qr_scan"}, "lon": -77.0441075, "type": "electric_scooter", "fusion_lat": 0.0, "lat": 38.91304683333333, "name": "73fd38846b32bdb70120debadda5d887", "fusion_lon": 0.0, "bike_id": "73fd38846b32bdb70120debadda5d887", "is_disabled": 0, "is_reserved": 0}, {"rental_uris": {"ios": "https://dc.lft.to/lastmile_qr_scan", "android": "https://dc.lft.to/lastmile_qr_scan"}, "lon": -77.0297075, "type": "electric_scooter", "fusion_lat": 0.0, "lat": 38.92316066666667, "name": "6fa96669390a05873dcb67fd0e14c199", "fusion_lon": 0.0, "bike_id": "6fa96669390a05873dcb67fd0e14c199", "is_disabled": 0, "is_reserved": 0}, {"rental_uris": {"ios": "https://dc.lft.to/lastmile_qr_scan", "android": "https://dc.lft.to/lastmile_qr_scan"}, "lon": -77.11217866666667, "type": "electric_bike", "fusion_lat": 0.0, "lat": 38.8287515, "name": "35988e583080779a735b62963c5c984f", "fusion_lon": 0.0, "bike_id": "35988e583080779a735b62963c5c984f", "is_disabled": 0, "is_reserved": 0}, {"rental_uris": {"ios": "https://dc.lft.to/lastmile_qr_scan", "android": "https://dc.lft.to/lastmile_qr_scan"}, "lon": -77.02741816666666, "type": "electric_scooter", "fusion_lat": 0.0, "lat": 38.881522833333335, "name": "43ab5855b127efc9e10bd48fc9f976cb", "fusion_lon": 0.0, "bike_id": "43ab5855b127efc9e10bd48fc9f976cb", "is_disabled": 0, "is_reserved": 0}, {"rental_uris": {"ios": "https://dc.lft.to/lastmile_qr_scan", "android": "https://dc.lft.to/lastmile_qr_scan"}, "lon": -77.04648916666666, "type": "electric_scooter", "fusion_lat": 0.0, "lat": 38.905515333333334, "name": "2ef5d5b85a8994e4ace61523af751313", "fusion_lon": 0.0, "bike_id": "2ef5d5b85a8994e4ace61523af751313", "is_disabled": 0, "is_reserved": 0}, {"rental_uris": {"ios": "https://dc.lft.to/lastmile_qr_scan", "android": "https://dc.lft.to/lastmile_qr_scan"}, "lon": -76.99947683333333, "type": "electric_scooter", "fusion_lat": 0.0, "lat": 38.8429305, "name": "5657947afc7c7d115b90976865468298", "fusion_lon": 0.0, "bike_id": "5657947afc7c7d115b90976865468298", "is_disabled": 0, "is_reserved": 0}, {"rental_uris": {"ios": "https://dc.lft.to/lastmile_qr_scan", "android": "https://dc.lft.to/lastmile_qr_scan"}, "lon": -77.03930666666666, "type": "electric_scooter", "fusion_lat": 0.0, "lat": 38.921200166666665, "name": "cf67f7b60be2b0442619b7206272368f", "fusion_lon": 0.0, "bike_id": "cf67f7b60be2b0442619b7206272368f", "is_disabled": 0, "is_reserved": 0}, {"rental_uris": {"ios": "https://dc.lft.to/lastmile_qr_scan", "android": "https://dc.lft.to/lastmile_qr_scan"}, "lon": -76.99179183333334, "type": "electric_scooter", "fusion_lat": 0.0, "lat": 38.9045255, "name": "d0fac871a681e0c8096894c212e24657", "fusion_lon": 0.0, "bike_id": "d0fac871a681e0c8096894c212e24657", "is_disabled": 0, "is_reserved": 0}, {"rental_uris": {"ios": "https://dc.lft.to/lastmile_qr_scan", "android": "https://dc.lft.to/lastmile_qr_scan"}, "lon": -77.0420165, "type": "electric_scooter", "fusion_lat": 0.0, "lat": 38.92044766666667, "name": "78f53dbd45cf0cfa62ab9e318f24de95", "fusion_lon": 0.0, "bike_id": "78f53dbd45cf0cfa62ab9e318f24de95", "is_disabled": 0, "is_reserved": 0}, {"rental_uris": {"ios": "https://dc.lft.to/lastmile_qr_scan", "android": "https://dc.lft.to/lastmile_qr_scan"}, "lon": -76.90824916666666, "type": "electric_bike", "fusion_lat": 0.0, "lat": 39.0025865, "name": "1a613e69c495c4843fd4603a83c08cae", "fusion_lon": 0.0, "bike_id": "1a613e69c495c4843fd4603a83c08cae", "is_disabled": 0, "is_reserved": 0}, {"rental_uris": {"ios": "https://dc.lft.to/lastmile_qr_scan", "android": "https://dc.lft.to/lastmile_qr_scan"}, "lon": -77.0216935, "type": "electric_scooter", "fusion_lat": 0.0, "lat": 38.91980266666667, "name": "a641a8fb7d25aa6fa19d76f2f5b5d09f", "fusion_lon": 0.0, "bike_id": "a641a8fb7d25aa6fa19d76f2f5b5d09f", "is_disabled": 0, "is_reserved": 0}, {"rental_uris": {"ios": "https://dc.lft.to/lastmile_qr_scan", "android": "https://dc.lft.to/lastmile_qr_scan"}, "lon": -77.030981, "type": "electric_bike", "fusion_lat": 0.0, "lat": 38.90437133333333, "name": "9ad376a968011936ee0174bbb053df4b", "fusion_lon": 0.0, "bike_id": "9ad376a968011936ee0174bbb053df4b", "is_disabled": 0, "is_reserved": 0}, {"rental_uris": {"ios": "https://dc.lft.to/lastmile_qr_scan", "android": "https://dc.lft.to/lastmile_qr_scan"}, "lon": -77.010683, "type": "electric_scooter", "fusion_lat": 0.0, "lat": 38.90357433333333, "name": "b600fa516bcd86cecf6db5b4c7954ce8", "fusion_lon": 0.0, "bike_id": "b600fa516bcd86cecf6db5b4c7954ce8", "is_disabled": 0, "is_reserved": 0}, {"rental_uris": {"ios": "https://dc.lft.to/lastmile_qr_scan", "android": "https://dc.lft.to/lastmile_qr_scan"}, "lon": -77.024197, "type": "electric_scooter", "fusion_lat": 0.0, "lat": 38.91108416666667, "name": "d283a8a0d67b2fc8fdc6ddf9fe0ae8a3", "fusion_lon": 0.0, "bike_id": "d283a8a0d67b2fc8fdc6ddf9fe0ae8a3", "is_disabled": 0, "is_reserved": 0}, {"rental_uris": {"ios": "https://dc.lft.to/lastmile_qr_scan", "android": "https://dc.lft.to/lastmile_qr_scan"}, "lon": -76.96528833333333, "type": "electric_scooter", "fusion_lat": 0.0, "lat": 38.87628616666667, "name": "51437eca206348e413e0eb063477944e", "fusion_lon": 0.0, "bike_id": "51437eca206348e413e0eb063477944e", "is_disabled": 0, "is_reserved": 0}, {"rental_uris": {"ios": "https://dc.lft.to/lastmile_qr_scan", "android": "https://dc.lft.to/lastmile_qr_scan"}, "lon": -76.94767266666666, "type": "electric_scooter", "fusion_lat": 0.0, "lat": 38.900659166666664, "name": "39969c761d2b0f0e99b5312631577010", "fusion_lon": 0.0, "bike_id": "39969c761d2b0f0e99b5312631577010", "is_disabled": 0, "is_reserved": 0}, {"rental_uris": {"ios": "https://dc.lft.to/lastmile_qr_scan", "android": "https://dc.lft.to/lastmile_qr_scan"}, "lon": -77.04479483333333, "type": "electric_bike", "fusion_lat": 0.0, "lat": 38.912912166666665, "name": "165d6a0da90c251444aaae0386a42087", "fusion_lon": 0.0, "bike_id": "165d6a0da90c251444aaae0386a42087", "is_disabled": 0, "is_reserved": 0}, {"rental_uris": {"ios": "https://dc.lft.to/lastmile_qr_scan", "android": "https://dc.lft.to/lastmile_qr_scan"}, "lon": -77.0278775, "type": "electric_scooter", "fusion_lat": 0.0, "lat": 38.91800966666667, "name": "44783d16edb3dc040420f06a4e46392f", "fusion_lon": 0.0, "bike_id": "44783d16edb3dc040420f06a4e46392f", "is_disabled": 0, "is_reserved": 0}, {"rental_uris": {"ios": "https://dc.lft.to/lastmile_qr_scan", "android": "https://dc.lft.to/lastmile_qr_scan"}, "lon": -76.9890435, "type": "electric_scooter", "fusion_lat": 0.0, "lat": 38.8669385, "name": "84f8fce10cf7499f6bfd3db518d3c98e", "fusion_lon": 0.0, "bike_id": "84f8fce10cf7499f6bfd3db518d3c98e", "is_disabled": 0, "is_reserved": 0}, {"rental_uris": {"ios": "https://dc.lft.to/lastmile_qr_scan", "android": "https://dc.lft.to/lastmile_qr_scan"}, "lon": -77.03306983333333, "type": "electric_scooter", "fusion_lat": 0.0, "lat": 38.902661333333334, "name": "a64ef5e05469df7c197487fab6a95622", "fusion_lon": 0.0, "bike_id": "a64ef5e05469df7c197487fab6a95622", "is_disabled": 0, "is_reserved": 0}, {"rental_uris": {"ios": "https://dc.lft.to/lastmile_qr_scan", "android": "https://dc.lft.to/lastmile_qr_scan"}, "lon": -76.9536075, "type": "electric_bike", "fusion_lat": 0.0, "lat": 38.939528333333335, "name": "1214bac706d1f91d9805646493153950", "fusion_lon": 0.0, "bike_id": "1214bac706d1f91d9805646493153950", "is_disabled": 0, "is_reserved": 0}, {"rental_uris": {"ios": "https://dc.lft.to/lastmile_qr_scan", "android": "https://dc.lft.to/lastmile_qr_scan"}, "lon": -77.05698616666666, "type": "electric_scooter", "fusion_lat": 0.0, "lat": 38.905576833333335, "name": "766cb5892787b9eb99af5c522b8f23df", "fusion_lon": 0.0, "bike_id": "766cb5892787b9eb99af5c522b8f23df", "is_disabled": 0, "is_reserved": 0}, {"rental_uris": {"ios": "https://dc.lft.to/lastmile_qr_scan", "android": "https://dc.lft.to/lastmile_qr_scan"}, "lon": -77.17839766666667, "type": "electric_bike", "fusion_lat": 0.0, "lat": 39.0885625, "name": "36ebfc7a71a9d503e236ccf92f653ed4", "fusion_lon": 0.0, "bike_id": "36ebfc7a71a9d503e236ccf92f653ed4", "is_disabled": 0, "is_reserved": 0}, {"rental_uris": {"ios": "https://dc.lft.to/lastmile_qr_scan", "android": "https://dc.lft.to/lastmile_qr_scan"}, "lon": -77.00591883333334, "type": "electric_scooter", "fusion_lat": 0.0, "lat": 38.877552666666666, "name": "8e43b380b3bf23ce8f6e00137fef0ddd", "fusion_lon": 0.0, "bike_id": "8e43b380b3bf23ce8f6e00137fef0ddd", "is_disabled": 0, "is_reserved": 0}, {"rental_uris": {"ios": "https://dc.lft.to/lastmile_qr_scan", "android": "https://dc.lft.to/lastmile_qr_scan"}, "lon": -76.98714016666666, "type": "electric_scooter", "fusion_lat": 0.0, "lat": 38.86702916666667, "name": "d8d88fa6178ad9700322cfc04f640e11", "fusion_lon": 0.0, "bike_id": "d8d88fa6178ad9700322cfc04f640e11", "is_disabled": 0, "is_reserved": 0}, {"rental_uris": {"ios": "https://dc.lft.to/lastmile_qr_scan", "android": "https://dc.lft.to/lastmile_qr_scan"}, "lon": -77.04129883333333, "type": "electric_scooter", "fusion_lat": 0.0, "lat": 38.923451, "name": "87f4929c1e053d0b070a82befc6c45aa", "fusion_lon": 0.0, "bike_id": "87f4929c1e053d0b070a82befc6c45aa", "is_disabled": 0, "is_reserved": 0}, {"rental_uris": {"ios": "https://dc.lft.to/lastmile_qr_scan", "android": "https://dc.lft.to/lastmile_qr_scan"}, "lon": -77.04301666666667, "type": "electric_bike", "fusion_lat": 0.0, "lat": 39.054458333333336, "name": "82043c927e3bccdcc836007212e027c8", "fusion_lon": 0.0, "bike_id": "82043c927e3bccdcc836007212e027c8", "is_disabled": 0, "is_reserved": 0}, {"rental_uris": {"ios": "https://dc.lft.to/lastmile_qr_scan", "android": "https://dc.lft.to/lastmile_qr_scan"}, "lon": -77.00054083333333, "type": "electric_scooter", "fusion_lat": 0.0, "lat": 38.90584316666666, "name": "f4625ed0b8ed39cef635dec547726aeb", "fusion_lon": 0.0, "bike_id": "f4625ed0b8ed39cef635dec547726aeb", "is_disabled": 0, "is_reserved": 0}, {"rental_uris": {"ios": "https://dc.lft.to/lastmile_qr_scan", "android": "https://dc.lft.to/lastmile_qr_scan"}, "lon": -77.03447383333334, "type": "electric_scooter", "fusion_lat": 0.0, "lat": 38.91824366666667, "name": "1d7aa63e43915a3cdfd3943e05d2b777", "fusion_lon": 0.0, "bike_id": "1d7aa63e43915a3cdfd3943e05d2b777", "is_disabled": 0, "is_reserved": 0}, {"rental_uris": {"ios": "https://dc.lft.to/lastmile_qr_scan", "android": "https://dc.lft.to/lastmile_qr_scan"}, "lon": -77.03443616666667, "type": "electric_scooter", "fusion_lat": 0.0, "lat": 38.9089635, "name": "3fadad70775b8be582d9320e9ea3da6e", "fusion_lon": 0.0, "bike_id": "3fadad70775b8be582d9320e9ea3da6e", "is_disabled": 0, "is_reserved": 0}, {"rental_uris": {"ios": "https://dc.lft.to/lastmile_qr_scan", "android": "https://dc.lft.to/lastmile_qr_scan"}, "lon": -76.93177466666667, "type": "electric_scooter", "fusion_lat": 0.0, "lat": 38.898848, "name": "00929ba254e0777d31e8ee61b118d5bd", "fusion_lon": 0.0, "bike_id": "00929ba254e0777d31e8ee61b118d5bd", "is_disabled": 0, "is_reserved": 0}, {"rental_uris": {"ios": "https://dc.lft.to/lastmile_qr_scan", "android": "https://dc.lft.to/lastmile_qr_scan"}, "lon": -76.99494033333333, "type": "electric_scooter", "fusion_lat": 0.0, "lat": 38.8624425, "name": "50fbe51d120f8a4a03167177cf0bd619", "fusion_lon": 0.0, "bike_id": "50fbe51d120f8a4a03167177cf0bd619", "is_disabled": 0, "is_reserved": 0}, {"rental_uris": {"ios": "https://dc.lft.to/lastmile_qr_scan", "android": "https://dc.lft.to/lastmile_qr_scan"}, "lon": -77.0261105, "type": "electric_scooter", "fusion_lat": 0.0, "lat": 38.917085666666665, "name": "380784efa3bd9c95c5a383406dc84a77", "fusion_lon": 0.0, "bike_id": "380784efa3bd9c95c5a383406dc84a77", "is_disabled": 0, "is_reserved": 0}, {"rental_uris": {"ios": "https://dc.lft.to/lastmile_qr_scan", "android": "https://dc.lft.to/lastmile_qr_scan"}, "lon": -77.1201215, "type": "electric_bike", "fusion_lat": 0.0, "lat": 38.85514383333334, "name": "e1beb4cc5ac7ca9db3f05d5117a155ae", "fusion_lon": 0.0, "bike_id": "e1beb4cc5ac7ca9db3f05d5117a155ae", "is_disabled": 0, "is_reserved": 0}, {"rental_uris": {"ios": "https://dc.lft.to/lastmile_qr_scan", "android": "https://dc.lft.to/lastmile_qr_scan"}, "lon": -77.0481905, "type": "electric_scooter", "fusion_lat": 0.0, "lat": 38.91335766666667, "name": "71787fa44a7c960c674b21364af8f317", "fusion_lon": 0.0, "bike_id": "71787fa44a7c960c674b21364af8f317", "is_disabled": 0, "is_reserved": 0}, {"rental_uris": {"ios": "https://dc.lft.to/lastmile_qr_scan", "android": "https://dc.lft.to/lastmile_qr_scan"}, "lon": -77.06295066666667, "type": "electric_scooter", "fusion_lat": 0.0, "lat": 38.9039725, "name": "6d3d3e88b31df70d255792e2214b708f", "fusion_lon": 0.0, "bike_id": "6d3d3e88b31df70d255792e2214b708f", "is_disabled": 0, "is_reserved": 0}, {"rental_uris": {"ios": "https://dc.lft.to/lastmile_qr_scan", "android": "https://dc.lft.to/lastmile_qr_scan"}, "lon": -76.96051383333334, "type": "electric_bike", "fusion_lat": 0.0, "lat": 38.88397416666667, "name": "c2600d5033a252a996a37050cc08c601", "fusion_lon": 0.0, "bike_id": "c2600d5033a252a996a37050cc08c601", "is_disabled": 0, "is_reserved": 0}, {"rental_uris": {"ios": "https://dc.lft.to/lastmile_qr_scan", "android": "https://dc.lft.to/lastmile_qr_scan"}, "lon": -77.03473583333333, "type": "electric_scooter", "fusion_lat": 0.0, "lat": 38.93042116666667, "name": "41b1a097979aca8811ebe13882a97e27", "fusion_lon": 0.0, "bike_id": "41b1a097979aca8811ebe13882a97e27", "is_disabled": 0, "is_reserved": 0}, {"rental_uris": {"ios": "https://dc.lft.to/lastmile_qr_scan", "android": "https://dc.lft.to/lastmile_qr_scan"}, "lon": -76.90815833333333, "type": "electric_bike", "fusion_lat": 0.0, "lat": 38.994562333333334, "name": "0ef1625f11130bda54a3711a5de90e47", "fusion_lon": 0.0, "bike_id": "0ef1625f11130bda54a3711a5de90e47", "is_disabled": 0, "is_reserved": 0}, {"rental_uris": {"ios": "https://dc.lft.to/lastmile_qr_scan", "android": "https://dc.lft.to/lastmile_qr_scan"}, "lon": -77.0246895, "type": "electric_scooter", "fusion_lat": 0.0, "lat": 38.93098116666667, "name": "0f3681ec447fb846c98ab851fcdae62c", "fusion_lon": 0.0, "bike_id": "0f3681ec447fb846c98ab851fcdae62c", "is_disabled": 0, "is_reserved": 0}, {"rental_uris": {"ios": "https://dc.lft.to/lastmile_qr_scan", "android": "https://dc.lft.to/lastmile_qr_scan"}, "lon": -77.00569866666666, "type": "electric_scooter", "fusion_lat": 0.0, "lat": 38.903500666666666, "name": "905d565a1e228b415d6564674a98b3cf", "fusion_lon": 0.0, "bike_id": "905d565a1e228b415d6564674a98b3cf", "is_disabled": 0, "is_reserved": 0}, {"rental_uris": {"ios": "https://dc.lft.to/lastmile_qr_scan", "android": "https://dc.lft.to/lastmile_qr_scan"}, "lon": -77.02834283333334, "type": "electric_scooter", "fusion_lat": 0.0, "lat": 38.931880666666665, "name": "eced84237fc50f487c0a69f9ccf981eb", "fusion_lon": 0.0, "bike_id": "eced84237fc50f487c0a69f9ccf981eb", "is_disabled": 0, "is_reserved": 0}, {"rental_uris": {"ios": "https://dc.lft.to/lastmile_qr_scan", "android": "https://dc.lft.to/lastmile_qr_scan"}, "lon": -77.02740833333333, "type": "electric_scooter", "fusion_lat": 0.0, "lat": 38.933782, "name": "a5ae65b844cfc4f73283dba7cc0cdcea", "fusion_lon": 0.0, "bike_id": "a5ae65b844cfc4f73283dba7cc0cdcea", "is_disabled": 0, "is_reserved": 0}, {"rental_uris": {"ios": "https://dc.lft.to/lastmile_qr_scan", "android": "https://dc.lft.to/lastmile_qr_scan"}, "lon": -77.01120516666667, "type": "electric_scooter", "fusion_lat": 0.0, "lat": 38.8953695, "name": "62244469756dbe3d16b7b84e9ff9db30", "fusion_lon": 0.0, "bike_id": "62244469756dbe3d16b7b84e9ff9db30", "is_disabled": 0, "is_reserved": 0}, {"rental_uris": {"ios": "https://dc.lft.to/lastmile_qr_scan", "android": "https://dc.lft.to/lastmile_qr_scan"}, "lon": -77.08199, "type": "electric_scooter", "fusion_lat": 0.0, "lat": 38.94926066666667, "name": "16bd6335ec9dc679329cf0f78299dfe9", "fusion_lon": 0.0, "bike_id": "16bd6335ec9dc679329cf0f78299dfe9", "is_disabled": 0, "is_reserved": 0}, {"rental_uris": {"ios": "https://dc.lft.to/lastmile_qr_scan", "android": "https://dc.lft.to/lastmile_qr_scan"}, "lon": -77.12739333333333, "type": "electric_bike", "fusion_lat": 0.0, "lat": 38.88822166666667, "name": "4404e88061559df305a3170bb83d7c0a", "fusion_lon": 0.0, "bike_id": "4404e88061559df305a3170bb83d7c0a", "is_disabled": 0, "is_reserved": 0}, {"rental_uris": {"ios": "https://dc.lft.to/lastmile_qr_scan", "android": "https://dc.lft.to/lastmile_qr_scan"}, "lon": -76.98774516666667, "type": "electric_scooter", "fusion_lat": 0.0, "lat": 38.91175783333333, "name": "e7349a3c6071664ea066907d6f09fd4f", "fusion_lon": 0.0, "bike_id": "e7349a3c6071664ea066907d6f09fd4f", "is_disabled": 0, "is_reserved": 0}, {"rental_uris": {"ios": "https://dc.lft.to/lastmile_qr_scan", "android": "https://dc.lft.to/lastmile_qr_scan"}, "lon": -77.04826233333333, "type": "electric_scooter", "fusion_lat": 0.0, "lat": 38.8962215, "name": "bde0a79cd1ce946fbbc8d977f3efe171", "fusion_lon": 0.0, "bike_id": "bde0a79cd1ce946fbbc8d977f3efe171", "is_disabled": 0, "is_reserved": 0}, {"rental_uris": {"ios": "https://dc.lft.to/lastmile_qr_scan", "android": "https://dc.lft.to/lastmile_qr_scan"}, "lon": -77.02898583333334, "type": "electric_scooter", "fusion_lat": 0.0, "lat": 38.903607, "name": "a11c07618a12d4791bc7d65167395e1f", "fusion_lon": 0.0, "bike_id": "a11c07618a12d4791bc7d65167395e1f", "is_disabled": 0, "is_reserved": 0}, {"rental_uris": {"ios": "https://dc.lft.to/lastmile_qr_scan", "android": "https://dc.lft.to/lastmile_qr_scan"}, "lon": -77.01756583333334, "type": "electric_scooter", "fusion_lat": 0.0, "lat": 38.938907666666665, "name": "186cee83af8b112b7360ca8391094887", "fusion_lon": 0.0, "bike_id": "186cee83af8b112b7360ca8391094887", "is_disabled": 0, "is_reserved": 0}, {"rental_uris": {"ios": "https://dc.lft.to/lastmile_qr_scan", "android": "https://dc.lft.to/lastmile_qr_scan"}, "lon": -76.9788695, "type": "electric_scooter", "fusion_lat": 0.0, "lat": 38.91673516666667, "name": "29f3ec837b9fbff0c5e8cc08c702f9eb", "fusion_lon": 0.0, "bike_id": "29f3ec837b9fbff0c5e8cc08c702f9eb", "is_disabled": 0, "is_reserved": 0}, {"rental_uris": {"ios": "https://dc.lft.to/lastmile_qr_scan", "android": "https://dc.lft.to/lastmile_qr_scan"}, "lon": -76.93790166666666, "type": "electric_scooter", "fusion_lat": 0.0, "lat": 38.912818, "name": "da56adb99832ed2eff92f0ea26b97031", "fusion_lon": 0.0, "bike_id": "da56adb99832ed2eff92f0ea26b97031", "is_disabled": 0, "is_reserved": 0}, {"rental_uris": {"ios": "https://dc.lft.to/lastmile_qr_scan", "android": "https://dc.lft.to/lastmile_qr_scan"}, "lon": -77.04318283333333, "type": "electric_scooter", "fusion_lat": 0.0, "lat": 38.89589016666667, "name": "aee9ebd667844672bfc61eb3b0c71f9d", "fusion_lon": 0.0, "bike_id": "aee9ebd667844672bfc61eb3b0c71f9d", "is_disabled": 0, "is_reserved": 0}, {"rental_uris": {"ios": "https://dc.lft.to/lastmile_qr_scan", "android": "https://dc.lft.to/lastmile_qr_scan"}, "lon": -77.029617, "type": "electric_scooter", "fusion_lat": 0.0, "lat": 38.9123095, "name": "2f352d49eda7ddd89c82649deb354ebd", "fusion_lon": 0.0, "bike_id": "2f352d49eda7ddd89c82649deb354ebd", "is_disabled": 0, "is_reserved": 0}, {"rental_uris": {"ios": "https://dc.lft.to/lastmile_qr_scan", "android": "https://dc.lft.to/lastmile_qr_scan"}, "lon": -77.00852283333333, "type": "electric_scooter", "fusion_lat": 0.0, "lat": 38.92592716666667, "name": "a89784853d8198a296f5a0a628f38f3e", "fusion_lon": 0.0, "bike_id": "a89784853d8198a296f5a0a628f38f3e", "is_disabled": 0, "is_reserved": 0}, {"rental_uris": {"ios": "https://dc.lft.to/lastmile_qr_scan", "android": "https://dc.lft.to/lastmile_qr_scan"}, "lon": -77.049838, "type": "electric_scooter", "fusion_lat": 0.0, "lat": 38.89651416666667, "name": "9968803fe2ccdd48bf935f096d7f0971", "fusion_lon": 0.0, "bike_id": "9968803fe2ccdd48bf935f096d7f0971", "is_disabled": 0, "is_reserved": 0}, {"rental_uris": {"ios": "https://dc.lft.to/lastmile_qr_scan", "android": "https://dc.lft.to/lastmile_qr_scan"}, "lon": -77.042309, "type": "electric_scooter", "fusion_lat": 0.0, "lat": 38.90794416666667, "name": "0a0c890c6b119b1a19ffbb05e4f65bd8", "fusion_lon": 0.0, "bike_id": "0a0c890c6b119b1a19ffbb05e4f65bd8", "is_disabled": 0, "is_reserved": 0}, {"rental_uris": {"ios": "https://dc.lft.to/lastmile_qr_scan", "android": "https://dc.lft.to/lastmile_qr_scan"}, "lon": -77.03261966666666, "type": "electric_scooter", "fusion_lat": 0.0, "lat": 38.93738916666667, "name": "30915ece701ecdfe8dc9d45f5ca8152b", "fusion_lon": 0.0, "bike_id": "30915ece701ecdfe8dc9d45f5ca8152b", "is_disabled": 0, "is_reserved": 0}, {"rental_uris": {"ios": "https://dc.lft.to/lastmile_qr_scan", "android": "https://dc.lft.to/lastmile_qr_scan"}, "lon": -77.08366616666666, "type": "electric_scooter", "fusion_lat": 0.0, "lat": 38.93029383333333, "name": "1496b88ff70c2f7800f92e011ebcd5d2", "fusion_lon": 0.0, "bike_id": "1496b88ff70c2f7800f92e011ebcd5d2", "is_disabled": 0, "is_reserved": 0},