{"data": {"bikes": [{"is_reserved": 0, "bike_id": "48c646c3f9b0ca4ad04631bd5c6c588d", "type": "electric_scooter", "name": "48c646c3f9b0ca4ad04631bd5c6c588d", "is_disabled": 0, "fusion_lon": 0.0, "rental_uris": {"android": "https://dc.lft.to/lastmile_qr_scan", "ios": "https://dc.lft.to/lastmile_qr_scan"}, "lat": 38.9002205, "lon": -76.98792033333334, "fusion_lat": 0.0}, {"is_reserved": 0, "bike_id": "d5ca636217f0fbdd2216e8a2015f169d", "type": "electric_scooter", "name": "d5ca636217f0fbdd2216e8a2015f169d", "is_disabled": 0, "fusion_lon": 0.0, "rental_uris": {"android": "https://dc.lft.to/lastmile_qr_scan", "ios": "https://dc.lft.to/lastmile_qr_scan"}, "lat": 38.8845435, "lon": -76.92959883333333, "fusion_lat": 0.0}, {"is_reserved": 0, "bike_id": "cdd087d2a85f923e4bf81e2b43eac6c0", "type": "electric_scooter", "name": "cdd087d2a85f923e4bf81e2b43eac6c0", "is_disabled": 0, "fusion_lon": 0.0, "rental_uris": {"android": "https://dc.lft.to/lastmile_qr_scan", "ios": "https://dc.lft.to/lastmile_qr_scan"}, "lat": 38.9492125, "lon": -77.01857866666667, "fusion_lat": 0.0}, {"is_reserved": 0, "bike_id": "bb3544cee97e5784d6ab18f5e5378258", "type": "electric_scooter", "name": "bb3544cee97e5784d6ab18f5e5378258", "is_disabled": 0, "fusion_lon": 0.0, "rental_uris": {"android": "https://dc.lft.to/lastmile_qr_scan", "ios": "https://dc.lft.to/lastmile_qr_scan"}, "lat": 38.9261315, "lon": -77.04325933333334, "fusion_lat": 0.0}, {"is_reserved": 0, "bike_id": "16cf75a6d2562d51a7615a34f01d19e8", "type": "electric_scooter", "name": "16cf75a6d2562d51a7615a34f01d19e8", "is_disabled": 0, "fusion_lon": 0.0, "rental_uris": {"android": "https://dc.lft.to/lastmile_qr_scan", "ios": "https://dc.lft.to/lastmile_qr_scan"}, "lat": 38.873971833333336, "lon": -77.000578, "fusion_lat": 0.0}, {"is_reserved": 0, "bike_id": "cfed674729a465c1e334cc8ff8b46b27", "type": "electric_scooter", "name": "cfed674729a465c1e334cc8ff8b46b27", "is_disabled": 0, "fusion_lon": 0.0, "rental_uris": {"android": "https://dc.lft.to/lastmile_qr_scan", "ios": "https://dc.lft.to/lastmile_qr_scan"}, "lat": 38.906866666666666, "lon": -77.035195, "fusion_lat": 0.0}, {"is_reserved": 0, "bike_id": "88f1930d462a8f1408545a00f0da1391", "type": "electric_scooter", "name": "88f1930d462a8f1408545a00f0da1391", "is_disabled": 0, "fusion_lon": 0.0, "rental_uris": {"android": "https://dc.lft.to/lastmile_qr_scan", "ios": "https://dc.lft.to/lastmile_qr_scan"}, "lat": 38.9025405, "lon": -77.06, "fusion_lat": 0.0}, {"is_reserved": 0, "bike_id": "c577961f30ddeeb21d15850ca5f3a26f", "type": "electric_scooter", "name": "c577961f30ddeeb21d15850ca5f3a26f", "is_disabled": 0, "fusion_lon": 0.0, "rental_uris": {"android": "https://dc.lft.to/lastmile_qr_scan", "ios": "https://dc.lft.to/lastmile_qr_scan"}, "lat": 38.8872675, "lon": -76.98342116666667, "fusion_lat": 0.0}, {"is_reserved": 0, "bike_id": "9921e53912fe955a3775735a56420272", "type": "electric_scooter", "name": "9921e53912fe955a3775735a56420272", "is_disabled": 0, "fusion_lon": 0.0, "rental_uris": {"android": "https://dc.lft.to/lastmile_qr_scan", "ios": "https://dc.lft.to/lastmile_qr_scan"}, "lat": 38.921520666666666, "lon": -77.03324816666667, "fusion_lat": 0.0}, {"is_reserved": 0, "bike_id": "a1c574f21eef1ab28129f3fcc627b37c", "type": "electric_scooter", "name": "a1c574f21eef1ab28129f3fcc627b37c", "is_disabled": 0, "fusion_lon": 0.0, "rental_uris": {"android": "https://dc.lft.to/lastmile_qr_scan", "ios": "https://dc.lft.to/lastmile_qr_scan"}, "lat": 38.896233, "lon": -76.9857095, "fusion_lat": 0.0}, {"is_reserved": 0, "bike_id": "b8175e8422dcdb2eef23ba961ba2c5ad", "type": "electric_scooter", "name": "b8175e8422dcdb2eef23ba961ba2c5ad", "is_disabled": 0, "fusion_lon": 0.0, "rental_uris": {"android": "https://dc.lft.to/lastmile_qr_scan", "ios": "https://dc.lft.to/lastmile_qr_scan"}, "lat": 38.88747, "lon": -77.03150483333333, "fusion_lat": 0.0}, {"is_reserved": 0, "bike_id": "bb0cdae270b7ba3c6e5b686fe1e08f42", "type": "electric_scooter", "name": "bb0cdae270b7ba3c6e5b686fe1e08f42", "is_disabled": 0, "fusion_lon": 0.0, "rental_uris": {"android": "https://dc.lft.to/lastmile_qr_scan", "ios": "https://dc.lft.to/lastmile_qr_scan"}, "lat": 38.9679295, "lon": -77.02413516666667, "fusion_lat": 0.0}, {"is_reserved": 0, "bike_id": "9d985345f20b7d6d4a0a586ab121f70c", "type": "electric_scooter", "name": "9d985345f20b7d6d4a0a586ab121f70c", "is_disabled": 0, "fusion_lon": 0.0, "rental_uris": {"android": "https://dc.lft.to/lastmile_qr_scan", "ios": "https://dc.lft.to/lastmile_qr_scan"}, "lat": 38.904354833333336, "lon": -77.0349695, "fusion_lat": 0.0}, {"is_reserved": 0, "bike_id": "613e748e80f53f154b228b6a88d30326", "type": "electric_bike", "name": "613e748e80f53f154b228b6a88d30326", "is_disabled": 0, "fusion_lon": 0.0, "rental_uris": {"android": "https://dc.lft.to/lastmile_qr_scan", "ios": "https://dc.lft.to/lastmile_qr_scan"}, "lat": 38.924830166666666, "lon": -77.03198666666667, "fusion_lat": 0.0}, {"is_reserved": 0, "bike_id": "c45a7af52a462a975ec9acca4068f65c", "type": "electric_scooter", "name": "c45a7af52a462a975ec9acca4068f65c", "is_disabled": 0, "fusion_lon": 0.0, "rental_uris": {"android": "https://dc.lft.to/lastmile_qr_scan", "ios": "https://dc.lft.to/lastmile_qr_scan"}, "lat": 38.886004, "lon": -76.92506833333333, "fusion_lat": 0.0}, {"is_reserved": 0, "bike_id": "bdeb1a605f2c72b9092fa8e5feb747ce", "type": "electric_scooter", "name": "bdeb1a605f2c72b9092fa8e5feb747ce", "is_disabled": 0, "fusion_lon": 0.0, "rental_uris": {"android": "https://dc.lft.to/lastmile_qr_scan", "ios": "https://dc.lft.to/lastmile_qr_scan"}, "lat": 38.91595516666667, "lon": -77.03670333333334, "fusion_lat": 0.0}, {"is_reserved": 0, "bike_id": "c56275d77cbaa7a3dfce0196fc88b700", "type": "electric_scooter", "name": "c56275d77cbaa7a3dfce0196fc88b700", "is_disabled": 0, "fusion_lon": 0.0, "rental_uris": {"android": "https://dc.lft.to/lastmile_qr_scan", "ios": "https://dc.lft.to/lastmile_qr_scan"}, "lat": 38.87285416666667, "lon": -77.01702183333333, "fusion_lat": 0.0}, {"is_reserved": 0, "bike_id": "ebf00be9195d3b54a4d6ef070aa599e6", "type": "electric_scooter", "name": "ebf00be9195d3b54a4d6ef070aa599e6", "is_disabled": 0, "fusion_lon": 0.0, "rental_uris": {"android": "https://dc.lft.to/lastmile_qr_scan", "ios": "https://dc.lft.to/lastmile_qr_scan"}, "lat": 38.876779, "lon": -77.00054016666667, "fusion_lat": 0.0}, {"is_reserved": 0, "bike_id": "047aae19253eed2efc21d0714aea81fe", "type": "electric_scooter", "name": "047aae19253eed2efc21d0714aea81fe", "is_disabled": 0, "fusion_lon": 0.0, "rental_uris": {"android": "https://dc.lft.to/lastmile_qr_scan", "ios": "https://dc.lft.to/lastmile_qr_scan"}, "lat": 38.92073766666667, "lon": -77.0366105, "fusion_lat": 0.0}, {"is_reserved": 0, "bike_id": "418f8f60deca01bbaee9a362f1723948", "type": "electric_scooter", "name": "418f8f60deca01bbaee9a362f1723948", "is_disabled": 0, "fusion_lon": 0.0, "rental_uris": {"android": "https://dc.lft.to/lastmile_qr_scan", "ios": "https://dc.lft.to/lastmile_qr_scan"}, "lat": 38.95613983333333, "lon": -77.02763033333333, "fusion_lat": 0.0}, {"is_reserved": 0, "bike_id": "1b03919a809a16caf4632edad6d1f902", "type": "electric_scooter", "name": "1b03919a809a16caf4632edad6d1f902", "is_disabled": 0, "fusion_lon": 0.0, "rental_uris": {"android": "https://dc.lft.to/lastmile_qr_scan", "ios": "https://dc.lft.to/lastmile_qr_scan"}, "lat": 38.92419533333333, "lon": -77.03537433333334, "fusion_lat": 0.0}, {"is_reserved": 0, "bike_id": "4a93c05ab7b4b5f09c447cfbfc5d80bb", "type": "electric_scooter", "name": "4a93c05ab7b4b5f09c447cfbfc5d80bb", "is_disabled": 0, "fusion_lon": 0.0, "rental_uris": {"android": "https://dc.lft.to/lastmile_qr_scan", "ios": "https://dc.lft.to/lastmile_qr_scan"}, "lat": 38.880807833333336, "lon": -76.99501783333334, "fusion_lat": 0.0}, {"is_reserved": 0, "bike_id": "6ea3fdc185bac58fb70f767295429a95", "type": "electric_scooter", "name": "6ea3fdc185bac58fb70f767295429a95", "is_disabled": 0, "fusion_lon": 0.0, "rental_uris": {"android": "https://dc.lft.to/lastmile_qr_scan", "ios": "https://dc.lft.to/lastmile_qr_scan"}, "lat": 38.87718316666667, "lon": -77.00603266666667, "fusion_lat": 0.0}, {"is_reserved": 0, "bike_id": "8e92a328c131a6a992e468a4294cda10", "type": "electric_scooter", "name": "8e92a328c131a6a992e468a4294cda10", "is_disabled": 0, "fusion_lon": 0.0, "rental_uris": {"android": "https://dc.lft.to/lastmile_qr_scan", "ios": "https://dc.lft.to/lastmile_qr_scan"}, "lat": 38.92327266666667, "lon": -77.01961266666666, "fusion_lat": 0.0}, {"is_reserved": 0, "bike_id": "6422b7ace1b62bdd53e57b2500c19918", "type": "electric_scooter", "name": "6422b7ace1b62bdd53e57b2500c19918", "is_disabled": 0, "fusion_lon": 0.0, "rental_uris": {"android": "https://dc.lft.to/lastmile_qr_scan", "ios": "https://dc.lft.to/lastmile_qr_scan"}, "lat": 38.929723333333335, "lon": -77.0318345, "fusion_lat": 0.0}, {"is_reserved": 0, "bike_id": "1ae27cc7c7b830c5cedbddc8d0bac350", "type": "electric_scooter", "name": "1ae27cc7c7b830c5cedbddc8d0bac350", "is_disabled": 0, "fusion_lon": 0.0, "rental_uris": {"android": "https://dc.lft.to/lastmile_qr_scan", "ios": "https://dc.lft.to/lastmile_qr_scan"}, "lat": 38.92017466666667, "lon": -77.06360533333333, "fusion_lat": 0.0}, {"is_reserved": 0, "bike_id": "505f8013d6cc309697831af5ced672f3", "type": "electric_scooter", "name": "505f8013d6cc309697831af5ced672f3", "is_disabled": 0, "fusion_lon": 0.0, "rental_uris": {"android": "https://dc.lft.to/lastmile_qr_scan", "ios": "https://dc.lft.to/lastmile_qr_scan"}, "lat": 38.9407955, "lon": -77.06124733333333, "fusion_lat": 0.0}, {"is_reserved": 0, "bike_id": "a0488dbc8f13a887166e095e3d1484e2", "type": "electric_scooter", "name": "a0488dbc8f13a887166e095e3d1484e2", "is_disabled": 0, "fusion_lon": 0.0, "rental_uris": {"android": "https://dc.lft.to/lastmile_qr_scan", "ios": "https://dc.lft.to/lastmile_qr_scan"}, "lat": 38.899880833333334, "lon": -77.0274485, "fusion_lat": 0.0}, {"is_reserved": 0, "bike_id": "fbfe97af84d726e477e701ae0bb80ba2", "type": "electric_scooter", "name": "fbfe97af84d726e477e701ae0bb80ba2", "is_disabled": 0, "fusion_lon": 0.0, "rental_uris": {"android": "https://dc.lft.to/lastmile_qr_scan", "ios": "https://dc.lft.to/lastmile_qr_scan"}, "lat": 38.94190966666667, "lon": -77.02346666666666, "fusion_lat": 0.0}, {"is_reserved": 0, "bike_id": "31d33295ebf809103e6620eb771cb4bc", "type": "electric_scooter", "name": "31d33295ebf809103e6620eb771cb4bc", "is_disabled": 0, "fusion_lon": 0.0, "rental_uris": {"android": "https://dc.lft.to/lastmile_qr_scan", "ios": "https://dc.lft.to/lastmile_qr_scan"}, "lat": 38.9310895, "lon": -77.03483116666666, "fusion_lat": 0.0}, {"is_reserved": 0, "bike_id": "319a8b8efe9b696fe697baa92746f250", "type": "electric_scooter", "name": "319a8b8efe9b696fe697baa92746f250", "is_disabled": 0, "fusion_lon": 0.0, "rental_uris": {"android": "https://dc.lft.to/lastmile_qr_scan", "ios": "https://dc.lft.to/lastmile_qr_scan"}, "lat": 38.914166333333334, "lon": -77.0258655, "fusion_lat": 0.0}, {"is_reserved": 0, "bike_id": "8b25fa408226c3131f5268ea6074b8fb", "type": "electric_scooter", "name": "8b25fa408226c3131f5268ea6074b8fb", "is_disabled": 0, "fusion_lon": 0.0, "rental_uris": {"android": "https://dc.lft.to/lastmile_qr_scan", "ios": "https://dc.lft.to/lastmile_qr_scan"}, "lat": 38.902606166666665, "lon": -77.01804133333333, "fusion_lat": 0.0}, {"is_reserved": 0, "bike_id": "37f938776c71d8cdb4175642ed91455f", "type": "electric_bike", "name": "37f938776c71d8cdb4175642ed91455f", "is_disabled": 0, "fusion_lon": 0.0, "rental_uris": {"android": "https://dc.lft.to/lastmile_qr_scan", "ios": "https://dc.lft.to/lastmile_qr_scan"}, "lat": 38.88871983333333, "lon": -76.97845516666666, "fusion_lat": 0.0}, {"is_reserved": 0, "bike_id": "7ea1ef48cb59e93595f52675351fa39f", "type": "electric_scooter", "name": "7ea1ef48cb59e93595f52675351fa39f", "is_disabled": 0, "fusion_lon": 0.0, "rental_uris": {"android": "https://dc.lft.to/lastmile_qr_scan", "ios": "https://dc.lft.to/lastmile_qr_scan"}, "lat": 38.88720583333333, "lon": -77.02177066666667, "fusion_lat": 0.0}, {"is_reserved": 0, "bike_id": "e29fe3a7e894be4f5a7bb93d7f6a191d", "type": "electric_bike", "name": "e29fe3a7e894be4f5a7bb93d7f6a191d", "is_disabled": 0, "fusion_lon": 0.0, "rental_uris": {"android": "https://dc.lft.to/lastmile_qr_scan", "ios": "https://dc.lft.to/lastmile_qr_scan"}, "lat": 38.89618816666667, "lon": -76.907504, "fusion_lat": 0.0}, {"is_reserved": 0, "bike_id": "af7f2f6e774b0dbc48cec6219bc2d4a8", "type": "electric_scooter", "name": "af7f2f6e774b0dbc48cec6219bc2d4a8", "is_disabled": 0, "fusion_lon": 0.0, "rental_uris": {"android": "https://dc.lft.to/lastmile_qr_scan", "ios": "https://dc.lft.to/lastmile_qr_scan"}, "lat": 38.92229783333333, "lon": -77.02334483333334, "fusion_lat": 0.0}, {"is_reserved": 0, "bike_id": "b4cd2b610b51d8ffc3773ec15c1fe775", "type": "electric_scooter", "name": "b4cd2b610b51d8ffc3773ec15c1fe775", "is_disabled": 0, "fusion_lon": 0.0, "rental_uris": {"android": "https://dc.lft.to/lastmile_qr_scan", "ios": "https://dc.lft.to/lastmile_qr_scan"}, "lat": 38.89830516666667, "lon": -77.03170416666667, "fusion_lat": 0.0}, {"is_reserved": 0, "bike_id": "2d832fae8a51e013f2c8a1cb5cd1d05c", "type": "electric_scooter", "name": "2d832fae8a51e013f2c8a1cb5cd1d05c", "is_disabled": 0, "fusion_lon": 0.0, "rental_uris": {"android": "https://dc.lft.to/lastmile_qr_scan", "ios": "https://dc.lft.to/lastmile_qr_scan"}, "lat": 38.913355, "lon": -77.01204666666666, "fusion_lat": 0.0}, {"is_reserved": 0, "bike_id": "f4efd7180074f1cd4710dc6fb4aeb40d", "type": "electric_scooter", "name": "f4efd7180074f1cd4710dc6fb4aeb40d", "is_disabled": 0, "fusion_lon": 0.0, "rental_uris": {"android": "https://dc.lft.to/lastmile_qr_scan", "ios": "https://dc.lft.to/lastmile_qr_scan"}, "lat": 38.92673633333333, "lon": -77.07828383333333, "fusion_lat": 0.0}, {"is_reserved": 0, "bike_id": "228232559c67d87baa3299378ab04c7f", "type": "electric_scooter", "name": "228232559c67d87baa3299378ab04c7f", "is_disabled": 0, "fusion_lon": 0.0, "rental_uris": {"android": "https://dc.lft.to/lastmile_qr_scan", "ios": "https://dc.lft.to/lastmile_qr_scan"}, "lat": 38.915727833333335, "lon": -77.03192566666667, "fusion_lat": 0.0}, {"is_reserved": 0, "bike_id": "4317897a18656f909167487bb8ddfc05", "type": "electric_scooter", "name": "4317897a18656f909167487bb8ddfc05", "is_disabled": 0, "fusion_lon": 0.0, "rental_uris": {"android": "https://dc.lft.to/lastmile_qr_scan", "ios": "https://dc.lft.to/lastmile_qr_scan"}, "lat": 38.885146, "lon": -76.92444716666667, "fusion_lat": 0.0}, {"is_reserved": 0, "bike_id": "72b03462dc84306065ed72ffe3f7ab6e", "type": "electric_scooter", "name": "72b03462dc84306065ed72ffe3f7ab6e", "is_disabled": 0, "fusion_lon": 0.0, "rental_uris": {"android": "https://dc.lft.to/lastmile_qr_scan", "ios": "https://dc.lft.to/lastmile_qr_scan"}, "lat": 38.9055505, "lon": -77.00592583333334, "fusion_lat": 0.0}, {"is_reserved": 0, "bike_id": "e491eba8e61a90b0e8d88844ae4b9832", "type": "electric_bike", "name": "e491eba8e61a90b0e8d88844ae4b9832", "is_disabled": 0, "fusion_lon": 0.0, "rental_uris": {"android": "https://dc.lft.to/lastmile_qr_scan", "ios": "https://dc.lft.to/lastmile_qr_scan"}, "lat": 38.900333833333335, "lon": -76.9722245, "fusion_lat": 0.0}, {"is_reserved": 0, "bike_id": "06e0781446f407125eae0f48e8fc1380", "type": "electric_scooter", "name": "06e0781446f407125eae0f48e8fc1380", "is_disabled": 0, "fusion_lon": 0.0, "rental_uris": {"android": "https://dc.lft.to/lastmile_qr_scan", "ios": "https://dc.lft.to/lastmile_qr_scan"}, "lat": 38.931050166666665, "lon": -77.0559, "fusion_lat": 0.0}, {"is_reserved": 0, "bike_id": "5ce75a97749ec7a980af805a72b40668", "type": "electric_scooter", "name": "5ce75a97749ec7a980af805a72b40668", "is_disabled": 0, "fusion_lon": 0.0, "rental_uris": {"android": "https://dc.lft.to/lastmile_qr_scan", "ios": "https://dc.lft.to/lastmile_qr_scan"}, "lat": 38.905038166666664, "lon": -77.02958633333333, "fusion_lat": 0.0}, {"is_reserved": 0, "bike_id": "a9f2de0117ebecc6521ea0a674d6a8b7", "type": "electric_scooter", "name": "a9f2de0117ebecc6521ea0a674d6a8b7", "is_disabled": 0, "fusion_lon": 0.0, "rental_uris": {"android": "https://dc.lft.to/lastmile_qr_scan", "ios": "https://dc.lft.to/lastmile_qr_scan"}, "lat": 38.895513666666666, "lon": -76.93054233333334, "fusion_lat": 0.0}, {"is_reserved": 0, "bike_id": "7021a1c8b2fa9657a9076e23ae9caf48", "type": "electric_scooter", "name": "7021a1c8b2fa9657a9076e23ae9caf48", "is_disabled": 0, "fusion_lon": 0.0, "rental_uris": {"android": "https://dc.lft.to/lastmile_qr_scan", "ios": "https://dc.lft.to/lastmile_qr_scan"}, "lat": 38.9199385, "lon": -77.04079666666667, "fusion_lat": 0.0}, {"is_reserved": 0, "bike_id": "0309398e454123952b14ceb151758a84", "type": "electric_scooter", "name": "0309398e454123952b14ceb151758a84", "is_disabled": 0, "fusion_lon": 0.0, "rental_uris": {"android": "https://dc.lft.to/lastmile_qr_scan", "ios": "https://dc.lft.to/lastmile_qr_scan"}, "lat": 38.91554283333333, "lon": -77.03176783333333, "fusion_lat": 0.0}, {"is_reserved": 0, "bike_id": "3932e15c5d10d17b645505f6e053116c", "type": "electric_scooter", "name": "3932e15c5d10d17b645505f6e053116c", "is_disabled": 0, "fusion_lon": 0.0, "rental_uris": {"android": "https://dc.lft.to/lastmile_qr_scan", "ios": "https://dc.lft.to/lastmile_qr_scan"}, "lat": 38.90078033333333, "lon": -77.05412233333334, "fusion_lat": 0.0}, {"is_reserved": 0, "bike_id": "c7ea9baed28c87afd6f974dd9875ef35", "type": "electric_scooter", "name": "c7ea9baed28c87afd6f974dd9875ef35", "is_disabled": 0, "fusion_lon": 0.0, "rental_uris": {"android": "https://dc.lft.to/lastmile_qr_scan", "ios": "https://dc.lft.to/lastmile_qr_scan"}, "lat": 38.88506866666667, "lon": -77.011153, "fusion_lat": 0.0}, {"is_reserved": 0, "bike_id": "1d70cb92d2920978880739efd4e39994", "type": "electric_scooter", "name": "1d70cb92d2920978880739efd4e39994", "is_disabled": 0, "fusion_lon": 0.0, "rental_uris": {"android": "https://dc.lft.to/lastmile_qr_scan", "ios": "https://dc.lft.to/lastmile_qr_scan"}, "lat": 38.90782566666667, "lon": -77.03515016666667, "fusion_lat": 0.0}, {"is_reserved": 0, "bike_id": "87e89f7531fbf6a4180ed97f5deef307", "type": "electric_scooter", "name": "87e89f7531fbf6a4180ed97f5deef307", "is_disabled": 0, "fusion_lon": 0.0, "rental_uris": {"android": "https://dc.lft.to/lastmile_qr_scan", "ios": "https://dc.lft.to/lastmile_qr_scan"}, "lat": 38.91623716666667, "lon": -77.03993083333333, "fusion_lat": 0.0}, {"is_reserved": 0, "bike_id": "62d58da01c72b6e8d0e3e4afa3b80edd", "type": "electric_scooter", "name": "62d58da01c72b6e8d0e3e4afa3b80edd", "is_disabled": 0, "fusion_lon": 0.0, "rental_uris": {"android": "https://dc.lft.to/lastmile_qr_scan", "ios": "https://dc.lft.to/lastmile_qr_scan"}, "lat": 38.902402333333335, "lon": -77.01756583333334, "fusion_lat": 0.0}, {"is_reserved": 0, "bike_id": "b576b61b5945522310f05cc12f1d24bd", "type": "electric_scooter", "name": "b576b61b5945522310f05cc12f1d24bd", "is_disabled": 0, "fusion_lon": 0.0, "rental_uris": {"android": "https://dc.lft.to/lastmile_qr_scan", "ios": "https://dc.lft.to/lastmile_qr_scan"}, "lat": 38.90887566666667, "lon": -77.04405283333334, "fusion_lat": 0.0}, {"is_reserved": 0, "bike_id": "f10e44af0e17507bdd5024ad768fea85", "type": "electric_scooter", "name": "f10e44af0e17507bdd5024ad768fea85", "is_disabled": 0, "fusion_lon": 0.0, "rental_uris": {"android": "https://dc.lft.to/lastmile_qr_scan", "ios": "https://dc.lft.to/lastmile_qr_scan"}, "lat": 38.921631166666664, "lon": -77.0219495, "fusion_lat": 0.0}, {"is_reserved": 0, "bike_id": "ca7a6391fda9a85eae440caf35935755", "type": "electric_scooter", "name": "ca7a6391fda9a85eae440caf35935755", "is_disabled": 0, "fusion_lon": 0.0, "rental_uris": {"android": "https://dc.lft.to/lastmile_qr_scan", "ios": "https://dc.lft.to/lastmile_qr_scan"}, "lat": 38.925964, "lon": -77.02157983333333, "fusion_lat": 0.0}, {"is_reserved": 0, "bike_id": "adb83c8eedfe66e1596e5258715713ea", "type": "electric_scooter", "name": "adb83c8eedfe66e1596e5258715713ea", "is_disabled": 0, "fusion_lon": 0.0, "rental_uris": {"android": "https://dc.lft.to/lastmile_qr_scan", "ios": "https://dc.lft.to/lastmile_qr_scan"}, "lat": 38.926866, "lon": -77.02577983333333, "fusion_lat": 0.0}, {"is_reserved": 0, "bike_id": "c444552121b135f3f013a163a42a2b4b", "type": "electric_scooter", "name": "c444552121b135f3f013a163a42a2b4b", "is_disabled": 0, "fusion_lon": 0.0, "rental_uris": {"android": "https://dc.lft.to/lastmile_qr_scan", "ios": "https://dc.lft.to/lastmile_qr_scan"}, "lat": 38.936167833333336, "lon": -77.03285966666667, "fusion_lat": 0.0}, {"is_reserved": 0, "bike_id": "6409825a4b71efe2013f3b960a8069df", "type": "electric_bike", "name": "6409825a4b71efe2013f3b960a8069df", "is_disabled": 0, "fusion_lon": 0.0, "rental_uris": {"android": "https://dc.lft.to/lastmile_qr_scan", "ios": "https://dc.lft.to/lastmile_qr_scan"}, "lat": 38.9359545, "lon": -77.02122533333333, "fusion_lat": 0.0}, {"is_reserved": 0, "bike_id": "0e3d4900b5207292432b7f9f9f45fed5", "type": "electric_scooter", "name": "0e3d4900b5207292432b7f9f9f45fed5", "is_disabled": 0, "fusion_lon": 0.0, "rental_uris": {"android": "https://dc.lft.to/lastmile_qr_scan", "ios": "https://dc.lft.to/lastmile_qr_scan"}, "lat": 38.90122933333333, "lon": -77.04996133333333, "fusion_lat": 0.0}, {"is_reserved": 0, "bike_id": "55deaf482b23cc9cca69d4bc53ef0871", "type": "electric_scooter", "name": "55deaf482b23cc9cca69d4bc53ef0871", "is_disabled": 0, "fusion_lon": 0.0, "rental_uris": {"android": "https://dc.lft.to/lastmile_qr_scan", "ios": "https://dc.lft.to/lastmile_qr_scan"}, "lat": 38.90570866666667, "lon": -77.06276183333334, "fusion_lat": 0.0}, {"is_reserved": 0, "bike_id": "d392b6d8119be8d6c9392842fad58f6c", "type": "electric_scooter", "name": "d392b6d8119be8d6c9392842fad58f6c", "is_disabled": 0, "fusion_lon": 0.0, "rental_uris": {"android": "https://dc.lft.to/lastmile_qr_scan", "ios": "https://dc.lft.to/lastmile_qr_scan"}, "lat": 38.87843266666667, "lon": -77.00868, "fusion_lat": 0.0}, {"is_reserved": 0, "bike_id": "91d969ae06c2e20c706d9435e5232db9", "type": "electric_scooter", "name": "91d969ae06c2e20c706d9435e5232db9", "is_disabled": 0, "fusion_lon": 0.0, "rental_uris": {"android": "https://dc.lft.to/lastmile_qr_scan", "ios": "https://dc.lft.to/lastmile_qr_scan"}, "lat": 38.920509, "lon": -77.02376133333334, "fusion_lat": 0.0}, {"is_reserved": 0, "bike_id": "d9f27ba6ae1f57c44992aaca1f6f5276", "type": "electric_scooter", "name": "d9f27ba6ae1f57c44992aaca1f6f5276", "is_disabled": 0, "fusion_lon": 0.0, "rental_uris": {"android": "https://dc.lft.to/lastmile_qr_scan", "ios": "https://dc.lft.to/lastmile_qr_scan"}, "lat": 38.9341345, "lon": -77.041593, "fusion_lat": 0.0}, {"is_reserved": 0, "bike_id": "f034a9c747fb2b67a6fe97aef67771b2", "type": "electric_scooter", "name": "f034a9c747fb2b67a6fe97aef67771b2", "is_disabled": 0, "fusion_lon": 0.0, "rental_uris": {"android": "https://dc.lft.to/lastmile_qr_scan", "ios": "https://dc.lft.to/lastmile_qr_scan"}, "lat": 38.855052, "lon": -76.98646483333333, "fusion_lat": 0.0}, {"is_reserved": 0, "bike_id": "5dedf6bcbf840caa37779e3d7da399c0", "type": "electric_scooter", "name": "5dedf6bcbf840caa37779e3d7da399c0", "is_disabled": 0, "fusion_lon": 0.0, "rental_uris": {"android": "https://dc.lft.to/lastmile_qr_scan", "ios": "https://dc.lft.to/lastmile_qr_scan"}, "lat": 38.92823766666667, "lon": -77.02257566666667, "fusion_lat": 0.0}, {"is_reserved": 0, "bike_id": "364c357c964ebe623f59f49967f4367d", "type": "electric_scooter", "name": "364c357c964ebe623f59f49967f4367d", "is_disabled": 0, "fusion_lon": 0.0, "rental_uris": {"android": "https://dc.lft.to/lastmile_qr_scan", "ios": "https://dc.lft.to/lastmile_qr_scan"}, "lat": 38.9213385, "lon": -77.018005, "fusion_lat": 0.0}, {"is_reserved": 0, "bike_id": "e08e90529b7a2a198caeb25f7a66373c", "type": "electric_scooter", "name": "e08e90529b7a2a198caeb25f7a66373c", "is_disabled": 0, "fusion_lon": 0.0, "rental_uris": {"android": "https://dc.lft.to/lastmile_qr_scan", "ios": "https://dc.lft.to/lastmile_qr_scan"}, "lat": 38.878805, "lon": -77.0005515, "fusion_lat": 0.0}, {"is_reserved": 0, "bike_id": "af854642929d3b34a27d46b0a0acce16", "type": "electric_scooter", "name": "af854642929d3b34a27d46b0a0acce16", "is_disabled": 0, "fusion_lon": 0.0, "rental_uris": {"android": "https://dc.lft.to/lastmile_qr_scan", "ios": "https://dc.lft.to/lastmile_qr_scan"}, "lat": 38.92467466666667, "lon": -77.05238283333334, "fusion_lat": 0.0}, {"is_reserved": 0, "bike_id": "f98fbdc5130f70d12b7c53d1d91afbc3", "type": "electric_scooter", "name": "f98fbdc5130f70d12b7c53d1d91afbc3", "is_disabled": 0, "fusion_lon": 0.0, "rental_uris": {"android": "https://dc.lft.to/lastmile_qr_scan", "ios": "https://dc.lft.to/lastmile_qr_scan"}, "lat": 38.89552316666666, "lon": -77.00918383333334, "fusion_lat": 0.0}, {"is_reserved": 0, "bike_id": "8bd73b8df051a8dc254f9859f83d9ec6", "type": "electric_scooter", "name": "8bd73b8df051a8dc254f9859f83d9ec6", "is_disabled": 0, "fusion_lon": 0.0, "rental_uris": {"android": "https://dc.lft.to/lastmile_qr_scan", "ios": "https://dc.lft.to/lastmile_qr_scan"}, "lat": 38.9160155, "lon": -77.04859916666666, "fusion_lat": 0.0}, {"is_reserved": 0, "bike_id": "08f66b148093716a4b74944ada7ec76f", "type": "electric_bike", "name": "08f66b148093716a4b74944ada7ec76f", "is_disabled": 0, "fusion_lon": 0.0, "rental_uris": {"android": "https://dc.lft.to/lastmile_qr_scan", "ios": "https://dc.lft.to/lastmile_qr_scan"}, "lat": 38.90472233333333, "lon": -76.92952916666667, "fusion_lat": 0.0}, {"is_reserved": 0, "bike_id": "cee039ddb682919d6300ac2e8c328b04", "type": "electric_scooter", "name": "cee039ddb682919d6300ac2e8c328b04", "is_disabled": 0, "fusion_lon": 0.0, "rental_uris": {"android": "https://dc.lft.to/lastmile_qr_scan", "ios": "https://dc.lft.to/lastmile_qr_scan"}, "lat": 38.8778715, "lon": -77.00119933333333, "fusion_lat": 0.0}, {"is_reserved": 0, "bike_id": "392be1abb3ff3eaa5cb74e3080f6d1da", "type": "electric_scooter", "name": "392be1abb3ff3eaa5cb74e3080f6d1da", "is_disabled": 0, "fusion_lon": 0.0, "rental_uris": {"android": "https://dc.lft.to/lastmile_qr_scan", "ios": "https://dc.lft.to/lastmile_qr_scan"}, "lat": 38.91186666666667, "lon": -77.03214166666666, "fusion_lat": 0.0}, {"is_reserved": 0, "bike_id": "a7c301dae54cbd1b47f350b6f4e6fb4b", "type": "electric_scooter", "name": "a7c301dae54cbd1b47f350b6f4e6fb4b", "is_disabled": 0, "fusion_lon": 0.0, "rental_uris": {"android": "https://dc.lft.to/lastmile_qr_scan", "ios": "https://dc.lft.to/lastmile_qr_scan"}, "lat": 38.895371, "lon": -76.98245116666666, "fusion_lat": 0.0}, {"is_reserved": 0, "bike_id": "3894dec5ce39eb299ff59b06b5f6c243", "type": "electric_scooter", "name": "3894dec5ce39eb299ff59b06b5f6c243", "is_disabled": 0, "fusion_lon": 0.0, "rental_uris": {"android": "https://dc.lft.to/lastmile_qr_scan", "ios": "https://dc.lft.to/lastmile_qr_scan"}, "lat": 38.919365, "lon": -77.01803966666667, "fusion_lat": 0.0}, {"is_reserved": 0, "bike_id": "f24e9edb0b9883f0a397a994a928441b", "type": "electric_scooter", "name": "f24e9edb0b9883f0a397a994a928441b", "is_disabled": 0, "fusion_lon": 0.0, "rental_uris": {"android": "https://dc.lft.to/lastmile_qr_scan", "ios": "https://dc.lft.to/lastmile_qr_scan"}, "lat": 38.897238, "lon": -76.9259275, "fusion_lat": 0.0}, {"is_reserved": 0, "bike_id": "7dbc2aba4bd1ed2b15feab4d05bec0ed", "type": "electric_scooter", "name": "7dbc2aba4bd1ed2b15feab4d05bec0ed", "is_disabled": 0, "fusion_lon": 0.0, "rental_uris": {"android": "https://dc.lft.to/lastmile_qr_scan", "ios": "https://dc.lft.to/lastmile_qr_scan"}, "lat": 38.931234, "lon": -77.05731316666666, "fusion_lat": 0.0}, {"is_reserved": 0, "bike_id": "6ceabfa98637e0c2837779d24a0e353f", "type": "electric_scooter", "name": "6ceabfa98637e0c2837779d24a0e353f", "is_disabled": 0, "fusion_lon": 0.0, "rental_uris": {"android": "https://dc.lft.to/lastmile_qr_scan", "ios": "https://dc.lft.to/lastmile_qr_scan"}, "lat": 38.907070833333336, "lon": -77.03231333333333, "fusion_lat": 0.0}, {"is_reserved": 0, "bike_id": "d704cde29dd6c24fbeb06f4358c45d28", "type": "electric_bike", "name": "d704cde29dd6c24fbeb06f4358c45d28", "is_disabled": 0, "fusion_lon": 0.0, "rental_uris": {"android": "https://dc.lft.to/lastmile_qr_scan", "ios": "https://dc.lft.to/lastmile_qr_scan"}, "lat": 38.905682666666664, "lon": -77.01852016666666, "fusion_lat": 0.0}, {"is_reserved": 0, "bike_id": "b8297c9f9c06c89b7d01acaf31bd37d1", "type": "electric_scooter", "name": "b8297c9f9c06c89b7d01acaf31bd37d1", "is_disabled": 0, "fusion_lon": 0.0, "rental_uris": {"android": "https://dc.lft.to/lastmile_qr_scan", "ios": "https://dc.lft.to/lastmile_qr_scan"}, "lat": 38.920562, "lon": -77.02368016666667, "fusion_lat": 0.0}, {"is_reserved": 0, "bike_id": "083efeef4368f1db89379de75ccff765", "type": "electric_scooter", "name": "083efeef4368f1db89379de75ccff765", "is_disabled": 0, "fusion_lon": 0.0, "rental_uris": {"android": "https://dc.lft.to/lastmile_qr_scan", "ios": "https://dc.lft.to/lastmile_qr_scan"}, "lat": 38.91414816666666, "lon": -77.02175583333333, "fusion_lat": 0.0}, {"is_reserved": 0, "bike_id": "a9932330d2fa77a549fefc6b5c183733", "type": "electric_scooter", "name": "a9932330d2fa77a549fefc6b5c183733", "is_disabled": 0, "fusion_lon": 0.0, "rental_uris": {"android": "https://dc.lft.to/lastmile_qr_scan", "ios": "https://dc.lft.to/lastmile_qr_scan"}, "lat": 38.92308233333333, "lon": -77.03861616666667, "fusion_lat": 0.0}, {"is_reserved": 0, "bike_id": "2f5c6f18ee8f226083405fec83aea806", "type": "electric_scooter", "name": "2f5c6f18ee8f226083405fec83aea806", "is_disabled": 0, "fusion_lon": 0.0, "rental_uris": {"android": "https://dc.lft.to/lastmile_qr_scan", "ios": "https://dc.lft.to/lastmile_qr_scan"}, "lat": 38.89955916666667, "lon": -77.0161065, "fusion_lat": 0.0}, {"is_reserved": 0, "bike_id": "ccaeaa1bb7617305290eb172f219149b", "type": "electric_scooter", "name": "ccaeaa1bb7617305290eb172f219149b", "is_disabled": 0, "fusion_lon": 0.0, "rental_uris": {"android": "https://dc.lft.to/lastmile_qr_scan", "ios": "https://dc.lft.to/lastmile_qr_scan"}, "lat": 38.9246945, "lon": -77.02219816666667, "fusion_lat": 0.0}, {"is_reserved": 0, "bike_id": "f7e54616482d89ba67b4028e8c0dbf43", "type": "electric_scooter", "name": "f7e54616482d89ba67b4028e8c0dbf43", "is_disabled": 0, "fusion_lon": 0.0, "rental_uris": {"android": "https://dc.lft.to/lastmile_qr_scan", "ios": "https://dc.lft.to/lastmile_qr_scan"}, "lat": 38.92493916666667, "lon": -77.02170483333333, "fusion_lat": 0.0}, {"is_reserved": 0, "bike_id": "a1b19f06779f32f19743bb153e12540a", "type": "electric_bike", "name": "a1b19f06779f32f19743bb153e12540a", "is_disabled": 0, "fusion_lon": 0.0, "rental_uris": {"android": "https://dc.lft.to/lastmile_qr_scan", "ios": "https://dc.lft.to/lastmile_qr_scan"}, "lat": 38.9554085, "lon": -76.96858916666666, "fusion_lat": 0.0}, {"is_reserved": 0, "bike_id": "0ac1bb81de26d904bad2bcef10571e7c", "type": "electric_scooter", "name": "0ac1bb81de26d904bad2bcef10571e7c", "is_disabled": 0, "fusion_lon": 0.0, "rental_uris": {"android": "https://dc.lft.to/lastmile_qr_scan", "ios": "https://dc.lft.to/lastmile_qr_scan"}, "lat": 38.9140415, "lon": -77.0180905, "fusion_lat": 0.0}, {"is_reserved": 0, "bike_id": "9090c42f0f3f84deb277931be83e5e11", "type": "electric_bike", "name": "9090c42f0f3f84deb277931be83e5e11", "is_disabled": 0, "fusion_lon": 0.0, "rental_uris": {"android": "https://dc.lft.to/lastmile_qr_scan", "ios": "https://dc.lft.to/lastmile_qr_scan"}, "lat": 38.83875716666667, "lon": -76.99703583333333, "fusion_lat": 0.0}, {"is_reserved": 0, "bike_id": "588b9afb8cc9faa51f7e93331d5a22c0", "type": "electric_scooter", "name": "588b9afb8cc9faa51f7e93331d5a22c0", "is_disabled": 0, "fusion_lon": 0.0, "rental_uris": {"android": "https://dc.lft.to/lastmile_qr_scan", "ios": "https://dc.lft.to/lastmile_qr_scan"}, "lat": 38.922442333333336, "lon": -77.03890066666666, "fusion_lat": 0.0}, {"is_reserved": 0, "bike_id": "d62a9ec5cb57e3f1dc86b27e7e59fdb3", "type": "electric_scooter", "name": "d62a9ec5cb57e3f1dc86b27e7e59fdb3", "is_disabled": 0, "fusion_lon": 0.0, "rental_uris": {"android": "https://dc.lft.to/lastmile_qr_scan", "ios": "https://dc.lft.to/lastmile_qr_scan"}, "lat": 38.93406016666667, "lon": -77.0412925, "fusion_lat": 0.0}, {"is_reserved": 0, "bike_id": "08eca8d134979291662c67ded10d1f45", "type": "electric_scooter", "name": "08eca8d134979291662c67ded10d1f45", "is_disabled": 0, "fusion_lon": 0.0, "rental_uris": {"android": "https://dc.lft.to/lastmile_qr_scan", "ios": "https://dc.lft.to/lastmile_qr_scan"}, "lat": 38.914161666666665, "lon": -77.02172233333333, "fusion_lat": 0.0}, {"is_reserved": 0, "bike_id": "b049b62179036e2f81c44dcdc1596d89", "type": "electric_scooter", "name": "b049b62179036e2f81c44dcdc1596d89", "is_disabled": 0, "fusion_lon": 0.0, "rental_uris": {"android": "https://dc.lft.to/lastmile_qr_scan", "ios": "https://dc.lft.to/lastmile_qr_scan"}, "lat": 38.8999115, "lon": -77.02187633333334, "fusion_lat": 0.0}, {"is_reserved": 0, "bike_id": "ad6713eaec67db02da7cc2bacb6bb69d", "type": "electric_scooter", "name": "ad6713eaec67db02da7cc2bacb6bb69d", "is_disabled": 0, "fusion_lon": 0.0, "rental_uris": {"android": "https://dc.lft.to/lastmile_qr_scan", "ios": "https://dc.lft.to/lastmile_qr_scan"}, "lat": 38.915814166666664, "lon": -77.03176633333334, "fusion_lat": 0.0}, {"is_reserved": 0, "bike_id": "6b1a29e93239970f59bbe8e239e390df", "type": "electric_scooter", "name": "6b1a29e93239970f59bbe8e239e390df", "is_disabled": 0, "fusion_lon": 0.0, "rental_uris": {"android": "https://dc.lft.to/lastmile_qr_scan", "ios": "https://dc.lft.to/lastmile_qr_scan"}, "lat": 38.92326466666667, "lon": -77.05685083333333, "fusion_lat": 0.0}, {"is_reserved": 0, "bike_id": "63c7cf2d092d76bc90e3b7843594eb17", "type": "electric_scooter", "name": "63c7cf2d092d76bc90e3b7843594eb17", "is_disabled": 0, "fusion_lon": 0.0, "rental_uris": {"android": "https://dc.lft.to/lastmile_qr_scan", "ios": "https://dc.lft.to/lastmile_qr_scan"}, "lat": 38.92433183333333, "lon": -77.04241933333333, "fusion_lat": 0.0}, {"is_reserved": 0, "bike_id": "fcbd6678bae31c45062ac65d03928056", "type": "electric_scooter", "name": "fcbd6678bae31c45062ac65d03928056", "is_disabled": 0, "fusion_lon": 0.0, "rental_uris": {"android": "https://dc.lft.to/lastmile_qr_scan", "ios": "https://dc.lft.to/lastmile_qr_scan"}, "lat": 38.90584416666667, "lon": -77.012214, "fusion_lat": 0.0}, {"is_reserved": 0, "bike_id": "7db18941852a41dd5a20820686922335", "type": "electric_scooter", "name": "7db18941852a41dd5a20820686922335", "is_disabled": 0, "fusion_lon": 0.0, "rental_uris": {"android": "https://dc.lft.to/lastmile_qr_scan", "ios": "https://dc.lft.to/lastmile_qr_scan"}, "lat": 38.930587, "lon": -77.023359, "fusion_lat": 0.0}, {"is_reserved": 0, "bike_id": "4d49855376834d8f6b887e91dbde220c", "type": "electric_scooter", "name": "4d49855376834d8f6b887e91dbde220c", "is_disabled": 0, "fusion_lon": 0.0, "rental_uris": {"android": "https://dc.lft.to/lastmile_qr_scan", "ios": "https://dc.lft.to/lastmile_qr_scan"}, "lat": 38.899793833333334, "lon": -77.01111466666667, "fusion_lat": 0.0}, {"is_reserved": 0, "bike_id": "bf95afe2bb53964e793ca16275c2025b", "type": "electric_scooter", "name": "bf95afe2bb53964e793ca16275c2025b", "is_disabled": 0, "fusion_lon": 0.0, "rental_uris": {"android": "https://dc.lft.to/lastmile_qr_scan", "ios": "https://dc.lft.to/lastmile_qr_scan"}, "lat": 38.891833, "lon": -77.01536066666667, "fusion_lat": 0.0}, {"is_reserved": 0, "bike_id": "d791559948ad143b3486af950a7ab38f", "type": "electric_scooter", "name": "d791559948ad143b3486af950a7ab38f", "is_disabled": 0, "fusion_lon": 0.0, "rental_uris": {"android": "https://dc.lft.to/lastmile_qr_scan", "ios": "https://dc.lft.to/lastmile_qr_scan"}, "lat": 38.932042, "lon": -77.04124966666667, "fusion_lat": 0.0}, {"is_reserved": 0, "bike_id": "303f1b14b573aa263e7576700ece7d03", "type": "electric_scooter", "name": "303f1b14b573aa263e7576700ece7d03", "is_disabled": 0, "fusion_lon": 0.0, "rental_uris": {"android": "https://dc.lft.to/lastmile_qr_scan", "ios": "https://dc.lft.to/lastmile_qr_scan"}, "lat": 38.9015975, "lon": -77.0416675, "fusion_lat": 0.0}, {"is_reserved": 0, "bike_id": "783cd61115b2332351894dabf5384220", "type": "electric_scooter", "name": "783cd61115b2332351894dabf5384220", "is_disabled": 0, "fusion_lon": 0.0, "rental_uris": {"android": "https://dc.lft.to/lastmile_qr_scan", "ios": "https://dc.lft.to/lastmile_qr_scan"}, "lat": 38.92503466666667, "lon": -77.023578, "fusion_lat": 0.0}, {"is_reserved": 0, "bike_id": "6dea30f02299d786818b5cc42dba2da2", "type": "electric_bike", "name": "6dea30f02299d786818b5cc42dba2da2", "is_disabled": 0, "fusion_lon": 0.0, "rental_uris": {"android": "https://dc.lft.to/lastmile_qr_scan", "ios": "https://dc.lft.to/lastmile_qr_scan"}, "lat": 38.89410083333333, "lon": -76.9998255, "fusion_lat": 0.0}, {"is_reserved": 0, "bike_id": "59943f7a092f7fb923dbfd1f48277e3d", "type": "electric_scooter", "name": "59943f7a092f7fb923dbfd1f48277e3d", "is_disabled": 0, "fusion_lon": 0.0, "rental_uris": {"android": "https://dc.lft.to/lastmile_qr_scan", "ios": "https://dc.lft.to/lastmile_qr_scan"}, "lat": 38.9573715, "lon": -77.02389583333333, "fusion_lat": 0.0}, {"is_reserved": 0, "bike_id": "2480934c2f052e190a10e7c0585e2f16", "type": "electric_scooter", "name": "2480934c2f052e190a10e7c0585e2f16", "is_disabled": 0, "fusion_lon": 0.0, "rental_uris": {"android": "https://dc.lft.to/lastmile_qr_scan", "ios": "https://dc.lft.to/lastmile_qr_scan"}, "lat": 38.903296, "lon": -77.0163515, "fusion_lat": 0.0}, {"is_reserved": 0, "bike_id": "bb9fdb9d03c6a210b627fd1fdce0357a", "type": "electric_scooter", "name": "bb9fdb9d03c6a210b627fd1fdce0357a", "is_disabled": 0, "fusion_lon": 0.0, "rental_uris": {"android": "https://dc.lft.to/lastmile_qr_scan", "ios": "https://dc.lft.to/lastmile_qr_scan"}, "lat": 38.876148, "lon": -77.0057875, "fusion_lat": 0.0}, {"is_reserved": 0, "bike_id": "0da50718ea00866bd946f1a14381d1e3", "type": "electric_scooter", "name": "0da50718ea00866bd946f1a14381d1e3", "is_disabled": 0, "fusion_lon": 0.0, "rental_uris": {"android": "https://dc.lft.to/lastmile_qr_scan", "ios": "https://dc.lft.to/lastmile_qr_scan"}, "lat": 38.916177, "lon": -77.00339933333333, "fusion_lat": 0.0}, {"is_reserved": 0, "bike_id": "59fa0c9dbe6689eebc32246454d3d5d0", "type": "electric_scooter", "name": "59fa0c9dbe6689eebc32246454d3d5d0", "is_disabled": 0, "fusion_lon": 0.0, "rental_uris": {"android": "https://dc.lft.to/lastmile_qr_scan", "ios": "https://dc.lft.to/lastmile_qr_scan"}, "lat": 38.90589683333334, "lon": -76.98543266666667, "fusion_lat": 0.0}, {"is_reserved": 0, "bike_id": "c06186b4d3c86aae4d2e7671f126ab46", "type": "electric_scooter", "name": "c06186b4d3c86aae4d2e7671f126ab46", "is_disabled": 0, "fusion_lon": 0.0, "rental_uris": {"android": "https://dc.lft.to/lastmile_qr_scan", "ios": "https://dc.lft.to/lastmile_qr_scan"}, "lat": 38.89980333333333, "lon": -76.99151516666667, "fusion_lat": 0.0}, {"is_reserved": 0, "bike_id": "b5887ed0df2cc8d4e6ae8086b3ddd1db", "type": "electric_bike", "name": "b5887ed0df2cc8d4e6ae8086b3ddd1db", "is_disabled": 0, "fusion_lon": 0.0, "rental_uris": {"android": "https://dc.lft.to/lastmile_qr_scan", "ios": "https://dc.lft.to/lastmile_qr_scan"}, "lat": 38.82207483333333, "lon": -76.97702116666666, "fusion_lat": 0.0}, {"is_reserved": 0, "bike_id": "5b29186d9ab38811313466c7d252e700", "type": "electric_scooter", "name": "5b29186d9ab38811313466c7d252e700", "is_disabled": 0, "fusion_lon": 0.0, "rental_uris": {"android": "https://dc.lft.to/lastmile_qr_scan", "ios": "https://dc.lft.to/lastmile_qr_scan"}, "lat": 38.896327166666666, "lon": -77.03313883333334, "fusion_lat": 0.0}, {"is_reserved": 0, "bike_id": "eff8f6cbb1826ee42782b97490289727", "type": "electric_scooter", "name": "eff8f6cbb1826ee42782b97490289727", "is_disabled": 0, "fusion_lon": 0.0, "rental_uris": {"android": "https://dc.lft.to/lastmile_qr_scan", "ios": "https://dc.lft.to/lastmile_qr_scan"}, "lat": 38.878947, "lon": -76.93525916666667, "fusion_lat": 0.0}, {"is_reserved": 0, "bike_id": "658cbf41229871c75e259b682bdee33e", "type": "electric_scooter", "name": "658cbf41229871c75e259b682bdee33e", "is_disabled": 0, "fusion_lon": 0.0, "rental_uris": {"android": "https://dc.lft.to/lastmile_qr_scan", "ios": "https://dc.lft.to/lastmile_qr_scan"}, "lat": 38.9346105, "lon": -77.03067966666667, "fusion_lat": 0.0}, {"is_reserved": 0, "bike_id": "d6afdfa552dbbc28256fb226a6b14fad", "type": "electric_scooter", "name": "d6afdfa552dbbc28256fb226a6b14fad", "is_disabled": 0, "fusion_lon": 0.0, "rental_uris": {"android": "https://dc.lft.to/lastmile_qr_scan", "ios": "https://dc.lft.to/lastmile_qr_scan"}, "lat": 38.92364116666667, "lon": -77.0723345, "fusion_lat": 0.0}, {"is_reserved": 0, "bike_id": "5873e36fab538422210d09850e2038c4", "type": "electric_scooter", "name": "5873e36fab538422210d09850e2038c4", "is_disabled": 0, "fusion_lon": 0.0, "rental_uris": {"android": "https://dc.lft.to/lastmile_qr_scan", "ios": "https://dc.lft.to/lastmile_qr_scan"}, "lat": 38.92916266666667, "lon": -77.03480916666666, "fusion_lat": 0.0}, {"is_reserved": 0, "bike_id": "9488ed2eeb5dffd2acc9ae6aa3ceff56", "type": "electric_scooter", "name": "9488ed2eeb5dffd2acc9ae6aa3ceff56", "is_disabled": 0, "fusion_lon": 0.0, "rental_uris": {"android": "https://dc.lft.to/lastmile_qr_scan", "ios": "https://dc.lft.to/lastmile_qr_scan"}, "lat": 38.895630833333335, "lon": -77.0289825, "fusion_lat": 0.0}, {"is_reserved": 0, "bike_id": "4ebbf6c30832be1540d3de086012f12a", "type": "electric_scooter", "name": "4ebbf6c30832be1540d3de086012f12a", "is_disabled": 0, "fusion_lon": 0.0, "rental_uris": {"android": "https://dc.lft.to/lastmile_qr_scan", "ios": "https://dc.lft.to/lastmile_qr_scan"}, "lat": 38.92544183333333, "lon": -77.0228065, "fusion_lat": 0.0}, {"is_reserved": 0, "bike_id": "ec4f05f0bf45daba90f81b4b11e83d5b", "type": "electric_bike", "name": "ec4f05f0bf45daba90f81b4b11e83d5b", "is_disabled": 0, "fusion_lon": 0.0, "rental_uris": {"android": "https://dc.lft.to/lastmile_qr_scan", "ios": "https://dc.lft.to/lastmile_qr_scan"}, "lat": 38.94472233333333, "lon": -76.98688033333333, "fusion_lat": 0.0}, {"is_reserved": 0, "bike_id": "209562c1b3c4ec4fd52283ecdec4664c", "type": "electric_bike", "name": "209562c1b3c4ec4fd52283ecdec4664c", "is_disabled": 0, "fusion_lon": 0.0, "rental_uris": {"android": "https://dc.lft.to/lastmile_qr_scan", "ios": "https://dc.lft.to/lastmile_qr_scan"}, "lat": 39.02300116666667, "lon": -77.021072, "fusion_lat": 0.0}, {"is_reserved": 0, "bike_id": "5005da53ec4c0ab0ee90185bb0d0ed43", "type": "electric_scooter", "name": "5005da53ec4c0ab0ee90185bb0d0ed43", "is_disabled": 0, "fusion_lon": 0.0, "rental_uris": {"android": "https://dc.lft.to/lastmile_qr_scan", "ios": "https://dc.lft.to/lastmile_qr_scan"}, "lat": 38.91572033333333, "lon": -77.0199295, "fusion_lat": 0.0}, {"is_reserved": 0, "bike_id": "d1d697ac1fc7cad1982ebf57321c31ee", "type": "electric_bike", "name": "d1d697ac1fc7cad1982ebf57321c31ee", "is_disabled": 0, "fusion_lon": 0.0, "rental_uris": {"android": "https://dc.lft.to/lastmile_qr_scan", "ios": "https://dc.lft.to/lastmile_qr_scan"}, "lat": 38.91857516666666, "lon": -76.960912, "fusion_lat": 0.0}, {"is_reserved": 0, "bike_id": "8eff020fa8a5c4c26a26e3db69bbb955", "type": "electric_scooter", "name": "8eff020fa8a5c4c26a26e3db69bbb955", "is_disabled": 0, "fusion_lon": 0.0, "rental_uris": {"android": "https://dc.lft.to/lastmile_qr_scan", "ios": "https://dc.lft.to/lastmile_qr_scan"}, "lat": 38.903745666666666, "lon": -77.02595283333333, "fusion_lat": 0.0}, {"is_reserved": 0, "bike_id": "0d51080d3db7bae03a9e996d520b9774", "type": "electric_scooter", "name": "0d51080d3db7bae03a9e996d520b9774", "is_disabled": 0, "fusion_lon": 0.0, "rental_uris": {"android": "https://dc.lft.to/lastmile_qr_scan", "ios": "https://dc.lft.to/lastmile_qr_scan"}, "lat": 38.951829833333335, "lon": -77.0264075, "fusion_lat": 0.0}, {"is_reserved": 0, "bike_id": "9f08ec995eec89dc9b03d46b1460220a", "type": "electric_bike", "name": "9f08ec995eec89dc9b03d46b1460220a", "is_disabled": 0, "fusion_lon": 0.0, "rental_uris": {"android": "https://dc.lft.to/lastmile_qr_scan", "ios": "https://dc.lft.to/lastmile_qr_scan"}, "lat": 38.819428, "lon": -77.00207733333333, "fusion_lat": 0.0}, {"is_reserved": 0, "bike_id": "c1d9971ae9d97a54cdc59f3cdb093847", "type": "electric_scooter", "name": "c1d9971ae9d97a54cdc59f3cdb093847", "is_disabled": 0, "fusion_lon": 0.0, "rental_uris": {"android": "https://dc.lft.to/lastmile_qr_scan", "ios": "https://dc.lft.to/lastmile_qr_scan"}, "lat": 38.914069166666664, "lon": -77.02205533333333, "fusion_lat": 0.0}, {"is_reserved": 0, "bike_id": "dad97508e12c8673f1e7eb302353badc", "type": "electric_scooter", "name": "dad97508e12c8673f1e7eb302353badc", "is_disabled": 0, "fusion_lon": 0.0, "rental_uris": {"android": "https://dc.lft.to/lastmile_qr_scan", "ios": "https://dc.lft.to/lastmile_qr_scan"}, "lat": 38.92290716666667, "lon": -77.04202, "fusion_lat": 0.0}, {"is_reserved": 0, "bike_id": "ee912849097256dbabc3fa1ea1de5f41", "type": "electric_scooter", "name": "ee912849097256dbabc3fa1ea1de5f41", "is_disabled": 0, "fusion_lon": 0.0, "rental_uris": {"android": "https://dc.lft.to/lastmile_qr_scan", "ios": "https://dc.lft.to/lastmile_qr_scan"}, "lat": 38.885014, "lon": -77.00572933333333, "fusion_lat": 0.0}, {"is_reserved": 0, "bike_id": "1bb6f8173ab60617e46e7edb2a2f9b22", "type": "electric_scooter", "name": "1bb6f8173ab60617e46e7edb2a2f9b22", "is_disabled": 0, "fusion_lon": 0.0, "rental_uris": {"android": "https://dc.lft.to/lastmile_qr_scan", "ios": "https://dc.lft.to/lastmile_qr_scan"}, "lat": 38.8621585, "lon": -76.99488566666666, "fusion_lat": 0.0}, {"is_reserved": 0, "bike_id": "41ee4b30e2fa522de241a80f0a7e2aa9", "type": "electric_scooter", "name": "41ee4b30e2fa522de241a80f0a7e2aa9", "is_disabled": 0, "fusion_lon": 0.0, "rental_uris": {"android": "https://dc.lft.to/lastmile_qr_scan", "ios": "https://dc.lft.to/lastmile_qr_scan"}, "lat": 38.9154995, "lon": -77.03803233333333, "fusion_lat": 0.0}, {"is_reserved": 0, "bike_id": "6216100e99d57185b05b46996a711129", "type": "electric_scooter", "name": "6216100e99d57185b05b46996a711129", "is_disabled": 0, "fusion_lon": 0.0, "rental_uris": {"android": "https://dc.lft.to/lastmile_qr_scan", "ios": "https://dc.lft.to/lastmile_qr_scan"}, "lat": 38.916161833333334, "lon": -77.03290066666666, "fusion_lat": 0.0}, {"is_reserved": 0, "bike_id": "c2c0c0d0d2f4d659275cb2f2c5594187", "type": "electric_scooter", "name": "c2c0c0d0d2f4d659275cb2f2c5594187", "is_disabled": 0, "fusion_lon": 0.0, "rental_uris": {"android": "https://dc.lft.to/lastmile_qr_scan", "ios": "https://dc.lft.to/lastmile_qr_scan"}, "lat": 38.91814683333333, "lon": -77.02479616666666, "fusion_lat": 0.0}, {"is_reserved": 0, "bike_id": "d02605451602c399bc973ef99968dfa3", "type": "electric_scooter", "name": "d02605451602c399bc973ef99968dfa3", "is_disabled": 0, "fusion_lon": 0.0, "rental_uris": {"android": "https://dc.lft.to/lastmile_qr_scan", "ios": "https://dc.lft.to/lastmile_qr_scan"}, "lat": 38.90805533333333, "lon": -77.0417515, "fusion_lat": 0.0}, {"is_reserved": 0, "bike_id": "e2231d0f0e09150248a08cbd5d866b6c", "type": "electric_scooter", "name": "e2231d0f0e09150248a08cbd5d866b6c", "is_disabled": 0, "fusion_lon": 0.0, "rental_uris": {"android": "https://dc.lft.to/lastmile_qr_scan", "ios": "https://dc.lft.to/lastmile_qr_scan"}, "lat": 38.908747, "lon": -76.9912715, "fusion_lat": 0.0}, {"is_reserved": 0, "bike_id": "9b67c0cde0a6652345ca59b913ec6ad1", "type": "electric_scooter", "name": "9b67c0cde0a6652345ca59b913ec6ad1", "is_disabled": 0, "fusion_lon": 0.0, "rental_uris": {"android": "https://dc.lft.to/lastmile_qr_scan", "ios": "https://dc.lft.to/lastmile_qr_scan"}, "lat": 38.90179916666666, "lon": -77.05003316666667, "fusion_lat": 0.0}, {"is_reserved": 0, "bike_id": "b236b040b218afe4ba065f60819a0825", "type": "electric_scooter", "name": "b236b040b218afe4ba065f60819a0825", "is_disabled": 0, "fusion_lon": 0.0, "rental_uris": {"android": "https://dc.lft.to/lastmile_qr_scan", "ios": "https://dc.lft.to/lastmile_qr_scan"}, "lat": 38.914687666666666, "lon": -77.036388, "fusion_lat": 0.0}, {"is_reserved": 0, "bike_id": "e2bcac8d0c1c55848b74290831b0ee3e", "type": "electric_scooter", "name": "e2bcac8d0c1c55848b74290831b0ee3e", "is_disabled": 0, "fusion_lon": 0.0, "rental_uris": {"android": "https://dc.lft.to/lastmile_qr_scan", "ios": "https://dc.lft.to/lastmile_qr_scan"}, "lat": 38.91308816666667, "lon": -77.01927266666667, "fusion_lat": 0.0}, {"is_reserved": 0, "bike_id": "ea386be24a1c3b623bd2a8852d49427f", "type": "electric_scooter", "name": "ea386be24a1c3b623bd2a8852d49427f", "is_disabled": 0, "fusion_lon": 0.0, "rental_uris": {"android": "https://dc.lft.to/lastmile_qr_scan", "ios": "https://dc.lft.to/lastmile_qr_scan"}, "lat": 38.90565216666667, "lon": -77.004281, "fusion_lat": 0.0}, {"is_reserved": 0, "bike_id": "f12e7277a0ef37ac1528ca2ec3c89e89", "type": "electric_scooter", "name": "f12e7277a0ef37ac1528ca2ec3c89e89", "is_disabled": 0, "fusion_lon": 0.0, "rental_uris": {"android": "https://dc.lft.to/lastmile_qr_scan", "ios": "https://dc.lft.to/lastmile_qr_scan"}, "lat": 38.9168755, "lon": -77.02957633333334, "fusion_lat": 0.0}, {"is_reserved": 0, "bike_id": "0fa83b7ab2bb92ce4a1640039874544a", "type": "electric_scooter", "name": "0fa83b7ab2bb92ce4a1640039874544a", "is_disabled": 0, "fusion_lon": 0.0, "rental_uris": {"android": "https://dc.lft.to/lastmile_qr_scan", "ios": "https://dc.lft.to/lastmile_qr_scan"}, "lat": 38.890436333333334, "lon": -76.99011033333333, "fusion_lat": 0.0}, {"is_reserved": 0, "bike_id": "a53f0fae1296288e45ca3845e5b7108a", "type": "electric_scooter", "name": "a53f0fae1296288e45ca3845e5b7108a", "is_disabled": 0, "fusion_lon": 0.0, "rental_uris": {"android": "https://dc.lft.to/lastmile_qr_scan", "ios": "https://dc.lft.to/lastmile_qr_scan"}, "lat": 38.902318333333334, "lon": -77.00604183333333, "fusion_lat": 0.0}, {"is_reserved": 0, "bike_id": "56e3abaf0230fd70781d8aab5500f91b", "type": "electric_scooter", "name": "56e3abaf0230fd70781d8aab5500f91b", "is_disabled": 0, "fusion_lon": 0.0, "rental_uris": {"android": "https://dc.lft.to/lastmile_qr_scan", "ios": "https://dc.lft.to/lastmile_qr_scan"}, "lat": 38.880342166666665, "lon": -77.025069, "fusion_lat": 0.0}, {"is_reserved": 0, "bike_id": "af4ccbdc25f519d90611a2738a85ea5c", "type": "electric_bike", "name": "af4ccbdc25f519d90611a2738a85ea5c", "is_disabled": 0, "fusion_lon": 0.0, "rental_uris": {"android": "https://dc.lft.to/lastmile_qr_scan", "ios": "https://dc.lft.to/lastmile_qr_scan"}, "lat": 38.8153905, "lon": -77.0464245, "fusion_lat": 0.0}, {"is_reserved": 0, "bike_id": "c060a3478b038476a29de984465f133d", "type": "electric_scooter", "name": "c060a3478b038476a29de984465f133d", "is_disabled": 0, "fusion_lon": 0.0, "rental_uris": {"android": "https://dc.lft.to/lastmile_qr_scan", "ios": "https://dc.lft.to/lastmile_qr_scan"}, "lat": 38.929032, "lon": -77.0581025, "fusion_lat": 0.0}, {"is_reserved": 0, "bike_id": "5620cfeaa3b872cf75a60dfd17642d1c", "type": "electric_bike", "name": "5620cfeaa3b872cf75a60dfd17642d1c", "is_disabled": 0, "fusion_lon": 0.0, "rental_uris": {"android": "https://dc.lft.to/lastmile_qr_scan", "ios": "https://dc.lft.to/lastmile_qr_scan"}, "lat": 38.9363115, "lon": -76.96066816666666, "fusion_lat": 0.0}, {"is_reserved": 0, "bike_id": "cd146dd26c40c9594b6c5afd5ecc3688", "type": "electric_scooter", "name": "cd146dd26c40c9594b6c5afd5ecc3688", "is_disabled": 0, "fusion_lon": 0.0, "rental_uris": {"android": "https://dc.lft.to/lastmile_qr_scan", "ios": "https://dc.lft.to/lastmile_qr_scan"}, "lat": 38.89817716666667, "lon": -76.97932783333333, "fusion_lat": 0.0}, {"is_reserved": 0, "bike_id": "c8a3cc0b92d4927b2f5d629015efb5dc", "type": "electric_scooter", "name": "c8a3cc0b92d4927b2f5d629015efb5dc", "is_disabled": 0, "fusion_lon": 0.0, "rental_uris": {"android": "https://dc.lft.to/lastmile_qr_scan", "ios": "https://dc.lft.to/lastmile_qr_scan"}, "lat": 38.895424, "lon": -76.98338016666666, "fusion_lat": 0.0}, {"is_reserved": 0, "bike_id": "594ac4b43fd257cf07021e7afed625df", "type": "electric_scooter", "name": "594ac4b43fd257cf07021e7afed625df", "is_disabled": 0, "fusion_lon": 0.0, "rental_uris": {"android": "https://dc.lft.to/lastmile_qr_scan", "ios": "https://dc.lft.to/lastmile_qr_scan"}, "lat": 38.93961783333334, "lon": -77.03284516666666, "fusion_lat": 0.0}, {"is_reserved": 0, "bike_id": "5a0fe480bbeebf9c495bdbd8da77c1ff", "type": "electric_scooter", "name": "5a0fe480bbeebf9c495bdbd8da77c1ff", "is_disabled": 0, "fusion_lon": 0.0, "rental_uris": {"android": "https://dc.lft.to/lastmile_qr_scan", "ios": "https://dc.lft.to/lastmile_qr_scan"}, "lat": 38.88004816666667, "lon": -76.98542733333333, "fusion_lat": 0.0}, {"is_reserved": 0, "bike_id": "411fa86e2d1df754896aaf8d10866a10", "type": "electric_scooter", "name": "411fa86e2d1df754896aaf8d10866a10", "is_disabled": 0, "fusion_lon": 0.0, "rental_uris": {"android": "https://dc.lft.to/lastmile_qr_scan", "ios": "https://dc.lft.to/lastmile_qr_scan"}, "lat": 38.952033166666666, "lon": -77.02732016666667, "fusion_lat": 0.0}, {"is_reserved": 0, "bike_id": "838ba9e0da097432bde15fc9f13499ee", "type": "electric_scooter", "name": "838ba9e0da097432bde15fc9f13499ee", "is_disabled": 0, "fusion_lon": 0.0, "rental_uris": {"android": "https://dc.lft.to/lastmile_qr_scan", "ios": "https://dc.lft.to/lastmile_qr_scan"}, "lat": 38.926018, "lon": -77.02151533333334, "fusion_lat": 0.0}, {"is_reserved": 0, "bike_id": "efa7268135e3d55dad9b9c2b9366c5bf", "type": "electric_scooter", "name": "efa7268135e3d55dad9b9c2b9366c5bf", "is_disabled": 0, "fusion_lon": 0.0, "rental_uris": {"android": "https://dc.lft.to/lastmile_qr_scan", "ios": "https://dc.lft.to/lastmile_qr_scan"}, "lat": 38.90958766666667, "lon": -77.00767983333333, "fusion_lat": 0.0}, {"is_reserved": 0, "bike_id": "ed8524b8a7ba40649e0e76a90dcbd7da", "type": "electric_scooter", "name": "ed8524b8a7ba40649e0e76a90dcbd7da", "is_disabled": 0, "fusion_lon": 0.0, "rental_uris": {"android": "https://dc.lft.to/lastmile_qr_scan", "ios": "https://dc.lft.to/lastmile_qr_scan"}, "lat": 38.937682, "lon": -77.0328565, "fusion_lat": 0.0}, {"is_reserved": 0, "bike_id": "dc3e2c8553700d0f84dd00ec1de5209b", "type": "electric_scooter", "name": "dc3e2c8553700d0f84dd00ec1de5209b", "is_disabled": 0, "fusion_lon": 0.0, "rental_uris": {"android": "https://dc.lft.to/lastmile_qr_scan", "ios": "https://dc.lft.to/lastmile_qr_scan"}, "lat": 38.90812066666667, "lon": -76.99712866666667, "fusion_lat": 0.0}, {"is_reserved": 0, "bike_id": "abecdbaf3dad3a739b503276ba9320cf", "type": "electric_scooter", "name": "abecdbaf3dad3a739b503276ba9320cf", "is_disabled": 0, "fusion_lon": 0.0, "rental_uris": {"android": "https://dc.lft.to/lastmile_qr_scan", "ios": "https://dc.lft.to/lastmile_qr_scan"}, "lat": 38.929835833333335, "lon": -77.03467316666666, "fusion_lat": 0.0}, {"is_reserved": 0, "bike_id": "bdaf1a9192d03fc0cd376df219541fbb", "type": "electric_scooter", "name": "bdaf1a9192d03fc0cd376df219541fbb", "is_disabled": 0, "fusion_lon": 0.0, "rental_uris": {"android": "https://dc.lft.to/lastmile_qr_scan", "ios": "https://dc.lft.to/lastmile_qr_scan"}, "lat": 38.9009325, "lon": -76.97685533333333, "fusion_lat": 0.0}, {"is_reserved": 0, "bike_id": "950ef2289eb883275a27d329d5e01d1f", "type": "electric_scooter", "name": "950ef2289eb883275a27d329d5e01d1f", "is_disabled": 0, "fusion_lon": 0.0, "rental_uris": {"android": "https://dc.lft.to/lastmile_qr_scan", "ios": "https://dc.lft.to/lastmile_qr_scan"}, "lat": 38.914129333333335, "lon": -77.01798183333334, "fusion_lat": 0.0}, {"is_reserved": 0, "bike_id": "c03f371e36c231b1b43f2ea34ed0f1f3", "type": "electric_scooter", "name": "c03f371e36c231b1b43f2ea34ed0f1f3", "is_disabled": 0, "fusion_lon": 0.0, "rental_uris": {"android": "https://dc.lft.to/lastmile_qr_scan", "ios": "https://dc.lft.to/lastmile_qr_scan"}, "lat": 38.89882133333333, "lon": -77.00352, "fusion_lat": 0.0}, {"is_reserved": 0, "bike_id": "2f121c1b1b0842ab1c8afb288ed92f8b", "type": "electric_scooter", "name": "2f121c1b1b0842ab1c8afb288ed92f8b", "is_disabled": 0, "fusion_lon": 0.0, "rental_uris": {"android": "https://dc.lft.to/lastmile_qr_scan", "ios": "https://dc.lft.to/lastmile_qr_scan"}, "lat": 38.93061933333333, "lon": -77.02337, "fusion_lat": 0.0}, {"is_reserved": 0, "bike_id": "2983ad48a7ba55341cdf9b3ac9becbba", "type": "electric_scooter", "name": "2983ad48a7ba55341cdf9b3ac9becbba", "is_disabled": 0, "fusion_lon": 0.0, "rental_uris": {"android": "https://dc.lft.to/lastmile_qr_scan", "ios": "https://dc.lft.to/lastmile_qr_scan"}, "lat": 38.90970816666667, "lon": -76.984662, "fusion_lat": 0.0}, {"is_reserved": 0, "bike_id": "20bb0d430dec664390e2f197b80938af", "type": "electric_bike", "name": "20bb0d430dec664390e2f197b80938af", "is_disabled": 0, "fusion_lon": 0.0, "rental_uris": {"android": "https://dc.lft.to/lastmile_qr_scan", "ios": "https://dc.lft.to/lastmile_qr_scan"}, "lat": 38.906271333333336, "lon": -77.1289085, "fusion_lat": 0.0}, {"is_reserved": 0, "bike_id": "240c6ccde3b7eb1c4272428bcbdf9011", "type": "electric_scooter", "name": "240c6ccde3b7eb1c4272428bcbdf9011", "is_disabled": 0, "fusion_lon": 0.0, "rental_uris": {"android": "https://dc.lft.to/lastmile_qr_scan", "ios": "https://dc.lft.to/lastmile_qr_scan"}, "lat": 38.91718316666667, "lon": -77.041548, "fusion_lat": 0.0}, {"is_reserved": 0, "bike_id": "7802228434b12a5ca20c27bc0ee60fc8", "type": "electric_scooter", "name": "7802228434b12a5ca20c27bc0ee60fc8", "is_disabled": 0, "fusion_lon": 0.0, "rental_uris": {"android": "https://dc.lft.to/lastmile_qr_scan", "ios": "https://dc.lft.to/lastmile_qr_scan"}, "lat": 38.8621085, "lon": -76.9947725, "fusion_lat": 0.0}, {"is_reserved": 0, "bike_id": "124096eb1c9dc24cafe5c3663ed0cee8", "type": "electric_scooter", "name": "124096eb1c9dc24cafe5c3663ed0cee8", "is_disabled": 0, "fusion_lon": 0.0, "rental_uris": {"android": "https://dc.lft.to/lastmile_qr_scan", "ios": "https://dc.lft.to/lastmile_qr_scan"}, "lat": 38.88257, "lon": -77.00357783333334, "fusion_lat": 0.0}, {"is_reserved": 0, "bike_id": "1be6b3065952aad7aeefe236316076d7", "type": "electric_scooter", "name": "1be6b3065952aad7aeefe236316076d7", "is_disabled": 0, "fusion_lon": 0.0, "rental_uris": {"android": "https://dc.lft.to/lastmile_qr_scan", "ios": "https://dc.lft.to/lastmile_qr_scan"}, "lat": 38.915459, "lon": -77.02206716666667, "fusion_lat": 0.0}, {"is_reserved": 0, "bike_id": "443c1b7eb4028a9139a6e15c4889547a", "type": "electric_scooter", "name": "443c1b7eb4028a9139a6e15c4889547a", "is_disabled": 0, "fusion_lon": 0.0, "rental_uris": {"android": "https://dc.lft.to/lastmile_qr_scan", "ios": "https://dc.lft.to/lastmile_qr_scan"}, "lat": 38.91408166666667, "lon": -77.0223235, "fusion_lat": 0.0}, {"is_reserved": 0, "bike_id": "6c3850f85becc6bdb2fa32a512eb2f9e", "type": "electric_bike", "name": "6c3850f85becc6bdb2fa32a512eb2f9e", "is_disabled": 0, "fusion_lon": 0.0, "rental_uris": {"android": "https://dc.lft.to/lastmile_qr_scan", "ios": "https://dc.lft.to/lastmile_qr_scan"}, "lat": 38.93581416666667, "lon": -77.10595483333333, "fusion_lat": 0.0}, {"is_reserved": 0, "bike_id": "ecf1c72b151ff1dc7d6775354c454d50", "type": "electric_scooter", "name": "ecf1c72b151ff1dc7d6775354c454d50", "is_disabled": 0, "fusion_lon": 0.0, "rental_uris": {"android": "https://dc.lft.to/lastmile_qr_scan", "ios": "https://dc.lft.to/lastmile_qr_scan"}, "lat": 38.9140235, "lon": -77.01806333333333, "fusion_lat": 0.0}, {"is_reserved": 0, "bike_id": "f69433c0d31f65f9505b2d9552aaa5d2", "type": "electric_scooter", "name": "f69433c0d31f65f9505b2d9552aaa5d2", "is_disabled": 0, "fusion_lon": 0.0, "rental_uris": {"android": "https://dc.lft.to/lastmile_qr_scan", "ios": "https://dc.lft.to/lastmile_qr_scan"}, "lat": 38.8873785, "lon": -77.01507733333334, "fusion_lat": 0.0}, {"is_reserved": 0, "bike_id": "75004843915d5c465e63ecf82ff1427c", "type": "electric_scooter", "name": "75004843915d5c465e63ecf82ff1427c", "is_disabled": 0, "fusion_lon": 0.0, "rental_uris": {"android": "https://dc.lft.to/lastmile_qr_scan", "ios": "https://dc.lft.to/lastmile_qr_scan"}, "lat": 38.919198333333334, "lon": -77.03188266666666, "fusion_lat": 0.0}, {"is_reserved": 0, "bike_id": "96c16f8e49f66823e6706a82069bba58", "type": "electric_bike", "name": "96c16f8e49f66823e6706a82069bba58", "is_disabled": 0, "fusion_lon": 0.0, "rental_uris": {"android": "https://dc.lft.to/lastmile_qr_scan", "ios": "https://dc.lft.to/lastmile_qr_scan"}, "lat": 38.920707166666666, "lon": -77.03067816666666, "fusion_lat": 0.0}, {"is_reserved": 0, "bike_id": "02613502aa7858420946183552255c3f", "type": "electric_bike", "name": "02613502aa7858420946183552255c3f", "is_disabled": 0, "fusion_lon": 0.0, "rental_uris": {"android": "https://dc.lft.to/lastmile_qr_scan", "ios": "https://dc.lft.to/lastmile_qr_scan"}, "lat": 38.835884, "lon": -76.99021483333334, "fusion_lat": 0.0}, {"is_reserved": 0, "bike_id": "97d138185a80545785d2931eec9f3a81", "type": "electric_scooter", "name": "97d138185a80545785d2931eec9f3a81", "is_disabled": 0, "fusion_lon": 0.0, "rental_uris": {"android": "https://dc.lft.to/lastmile_qr_scan", "ios": "https://dc.lft.to/lastmile_qr_scan"}, "lat": 38.90570316666667, "lon": -77.00735216666666, "fusion_lat": 0.0}, {"is_reserved": 0, "bike_id": "aaf366143ecfaa4cf2a9ec3139aa52d3", "type": "electric_scooter", "name": "aaf366143ecfaa4cf2a9ec3139aa52d3", "is_disabled": 0, "fusion_lon": 0.0, "rental_uris": {"android": "https://dc.lft.to/lastmile_qr_scan", "ios": "https://dc.lft.to/lastmile_qr_scan"}, "lat": 38.901508166666666, "lon": -77.02289516666667, "fusion_lat": 0.0}, {"is_reserved": 0, "bike_id": "c88e1a91a90d6903f2984464212778fa", "type": "electric_scooter", "name": "c88e1a91a90d6903f2984464212778fa", "is_disabled": 0, "fusion_lon": 0.0, "rental_uris": {"android": "https://dc.lft.to/lastmile_qr_scan", "ios": "https://dc.lft.to/lastmile_qr_scan"}, "lat": 38.92685933333333, "lon": -77.0258535, "fusion_lat": 0.0}, {"is_reserved": 0, "bike_id": "807880718e546c35d599faaf1c6ff20d", "type": "electric_scooter", "name": "807880718e546c35d599faaf1c6ff20d", "is_disabled": 0, "fusion_lon": 0.0, "rental_uris": {"android": "https://dc.lft.to/lastmile_qr_scan", "ios": "https://dc.lft.to/lastmile_qr_scan"}, "lat": 38.923253, "lon": -77.01968783333334, "fusion_lat": 0.0}, {"is_reserved": 0, "bike_id": "4faba39943e760b2189c7dbc6e1d33e5", "type": "electric_bike", "name": "4faba39943e760b2189c7dbc6e1d33e5", "is_disabled": 0, "fusion_lon": 0.0, "rental_uris": {"android": "https://dc.lft.to/lastmile_qr_scan", "ios": "https://dc.lft.to/lastmile_qr_scan"}, "lat": 38.95014333333334, "lon": -77.01561466666666, "fusion_lat": 0.0}, {"is_reserved": 0, "bike_id": "63db724713ac9c7b818e6506516729a6", "type": "electric_scooter", "name": "63db724713ac9c7b818e6506516729a6", "is_disabled": 0, "fusion_lon": 0.0, "rental_uris": {"android": "https://dc.lft.to/lastmile_qr_scan", "ios": "https://dc.lft.to/lastmile_qr_scan"}, "lat": 38.9408955, "lon": -77.02318566666666, "fusion_lat": 0.0}, {"is_reserved": 0, "bike_id": "cb8841d743af9290b10952140427501d", "type": "electric_scooter", "name": "cb8841d743af9290b10952140427501d", "is_disabled": 0, "fusion_lon": 0.0, "rental_uris": {"android": "https://dc.lft.to/lastmile_qr_scan", "ios": "https://dc.lft.to/lastmile_qr_scan"}, "lat": 38.918209166666664, "lon": -77.031801, "fusion_lat": 0.0}, {"is_reserved": 0, "bike_id": "e822beaaefaf2073cba01b4a360d57fb", "type": "electric_bike", "name": "e822beaaefaf2073cba01b4a360d57fb", "is_disabled": 0, "fusion_lon": 0.0, "rental_uris": {"android": "https://dc.lft.to/lastmile_qr_scan", "ios": "https://dc.lft.to/lastmile_qr_scan"}, "lat": 38.8824215, "lon": -76.962626, "fusion_lat": 0.0}, {"is_reserved": 0, "bike_id": "083c0b809faeb76f45efb7c94b493937", "type": "electric_scooter", "name": "083c0b809faeb76f45efb7c94b493937", "is_disabled": 0, "fusion_lon": 0.0, "rental_uris": {"android": "https://dc.lft.to/lastmile_qr_scan", "ios": "https://dc.lft.to/lastmile_qr_scan"}, "lat": 38.904652166666665, "lon": -77.02949416666667, "fusion_lat": 0.0}, {"is_reserved": 0, "bike_id": "bdfbc6ee5c40c2829c5aaa6e8d3b554b", "type": "electric_scooter", "name": "bdfbc6ee5c40c2829c5aaa6e8d3b554b", "is_disabled": 0, "fusion_lon": 0.0, "rental_uris": {"android": "https://dc.lft.to/lastmile_qr_scan", "ios": "https://dc.lft.to/lastmile_qr_scan"}, "lat": 38.9140795, "lon": -77.017972, "fusion_lat": 0.0}, {"is_reserved": 0, "bike_id": "fc4937e18167758043dd9530de9f9ffb", "type": "electric_scooter", "name": "fc4937e18167758043dd9530de9f9ffb", "is_disabled": 0, "fusion_lon": 0.0, "rental_uris": {"android": "https://dc.lft.to/lastmile_qr_scan", "ios": "https://dc.lft.to/lastmile_qr_scan"}, "lat": 38.87559816666667, "lon": -77.00589483333333, "fusion_lat": 0.0}, {"is_reserved": 0, "bike_id": "de5073a19ea5482f9801ba4d3e336dab", "type": "electric_scooter", "name": "de5073a19ea5482f9801ba4d3e336dab", "is_disabled": 0, "fusion_lon": 0.0, "rental_uris": {"android": "https://dc.lft.to/lastmile_qr_scan", "ios": "https://dc.lft.to/lastmile_qr_scan"}, "lat": 38.9385735, "lon": -77.02466316666667, "fusion_lat": 0.0}, {"is_reserved": 0, "bike_id": "7471cc035f8783c2eb4943ebed67315b", "type": "electric_scooter", "name": "7471cc035f8783c2eb4943ebed67315b", "is_disabled": 0, "fusion_lon": 0.0, "rental_uris": {"android": "https://dc.lft.to/lastmile_qr_scan", "ios": "https://dc.lft.to/lastmile_qr_scan"}, "lat": 38.89189116666667, "lon": -76.99854500000001, "fusion_lat": 0.0}, {"is_reserved": 0, "bike_id": "b58ffa25bc0c865f5d5ba3ee39e96f51", "type": "electric_scooter", "name": "b58ffa25bc0c865f5d5ba3ee39e96f51", "is_disabled": 0, "fusion_lon": 0.0, "rental_uris": {"android": "https://dc.lft.to/lastmile_qr_scan", "ios": "https://dc.lft.to/lastmile_qr_scan"}, "lat": 38.924583166666665, "lon": -76.9991245, "fusion_lat": 0.0}, {"is_reserved": 0, "bike_id": "0ec46c70f4a08ae58976cacda087184a", "type": "electric_bike", "name": "0ec46c70f4a08ae58976cacda087184a", "is_disabled": 0, "fusion_lon": 0.0, "rental_uris": {"android": "https://dc.lft.to/lastmile_qr_scan", "ios": "https://dc.lft.to/lastmile_qr_scan"}, "lat": 38.8766935, "lon": -77.01464083333333, "fusion_lat": 0.0}, {"is_reserved": 0, "bike_id": "2264adf3f924470d97c34352376800ca", "type": "electric_scooter", "name": "2264adf3f924470d97c34352376800ca", "is_disabled": 0, "fusion_lon": 0.0, "rental_uris": {"android": "https://dc.lft.to/lastmile_qr_scan", "ios": "https://dc.lft.to/lastmile_qr_scan"}, "lat": 38.9212155, "lon": -77.041282, "fusion_lat": 0.0}, {"is_reserved": 0, "bike_id": "eb5ea7291dfb0bdb2f8b4221a74bf298", "type": "electric_scooter", "name": "eb5ea7291dfb0bdb2f8b4221a74bf298", "is_disabled": 0, "fusion_lon": 0.0, "rental_uris": {"android": "https://dc.lft.to/lastmile_qr_scan", "ios": "https://dc.lft.to/lastmile_qr_scan"}, "lat": 38.924268, "lon": -77.02037016666667, "fusion_lat": 0.0}, {"is_reserved": 0, "bike_id": "80966d67afffc2b8b5fe79a481c59233", "type": "electric_scooter", "name": "80966d67afffc2b8b5fe79a481c59233", "is_disabled": 0, "fusion_lon": 0.0, "rental_uris": {"android": "https://dc.lft.to/lastmile_qr_scan", "ios": "https://dc.lft.to/lastmile_qr_scan"}, "lat": 38.92416816666667, "lon": -77.0194325, "fusion_lat": 0.0}, {"is_reserved": 0, "bike_id": "8f0b176e62347236f0d79debf22d645b", "type": "electric_scooter", "name": "8f0b176e62347236f0d79debf22d645b", "is_disabled": 0, "fusion_lon": 0.0, "rental_uris": {"android": "https://dc.lft.to/lastmile_qr_scan", "ios": "https://dc.lft.to/lastmile_qr_scan"}, "lat": 38.87540516666667, "lon": -77.0058975, "fusion_lat": 0.0}, {"is_reserved": 0, "bike_id": "a7464582f3cc5cec57dce673bef90982", "type": "electric_bike", "name": "a7464582f3cc5cec57dce673bef90982", "is_disabled": 0, "fusion_lon": 0.0, "rental_uris": {"android": "https://dc.lft.to/lastmile_qr_scan", "ios": "https://dc.lft.to/lastmile_qr_scan"}, "lat": 38.9532475, "lon": -77.02741116666667, "fusion_lat": 0.0}, {"is_reserved": 0, "bike_id": "0daa5ac7af36fb7556446e964a00e255", "type": "electric_scooter", "name": "0daa5ac7af36fb7556446e964a00e255", "is_disabled": 0, "fusion_lon": 0.0, "rental_uris": {"android": "https://dc.lft.to/lastmile_qr_scan", "ios": "https://dc.lft.to/lastmile_qr_scan"}, "lat": 38.922204666666666, "lon": -77.03201533333333, "fusion_lat": 0.0}, {"is_reserved": 0, "bike_id": "9ed66f75903f3dcb4157fa47986cb962", "type": "electric_bike", "name": "9ed66f75903f3dcb4157fa47986cb962", "is_disabled": 0, "fusion_lon": 0.0, "rental_uris": {"android": "https://dc.lft.to/lastmile_qr_scan", "ios": "https://dc.lft.to/lastmile_qr_scan"}, "lat": 38.985049333333336, "lon": -76.982093, "fusion_lat": 0.0}, {"is_reserved": 0, "bike_id": "83872d9167ba3c9a311041af2fa5066a", "type": "electric_scooter", "name": "83872d9167ba3c9a311041af2fa5066a", "is_disabled": 0, "fusion_lon": 0.0, "rental_uris": {"android": "https://dc.lft.to/lastmile_qr_scan", "ios": "https://dc.lft.to/lastmile_qr_scan"}, "lat": 38.949735833333335, "lon": -77.02449716666666, "fusion_lat": 0.0}, {"is_reserved": 0, "bike_id": "2e367a51ba574dc108f8a6ef4a118e80", "type": "electric_scooter", "name": "2e367a51ba574dc108f8a6ef4a118e80", "is_disabled": 0, "fusion_lon": 0.0, "rental_uris": {"android": "https://dc.lft.to/lastmile_qr_scan", "ios": "https://dc.lft.to/lastmile_qr_scan"}, "lat": 38.91130616666667, "lon": -77.0219675, "fusion_lat": 0.0}, {"is_reserved": 0, "bike_id": "df1bee75ae93c6a4db942220fcf282bf", "type": "electric_scooter", "name": "df1bee75ae93c6a4db942220fcf282bf", "is_disabled": 0, "fusion_lon": 0.0, "rental_uris": {"android": "https://dc.lft.to/lastmile_qr_scan", "ios": "https://dc.lft.to/lastmile_qr_scan"}, "lat": 38.917721666666665, "lon": -77.02291633333333, "fusion_lat": 0.0}, {"is_reserved": 0, "bike_id": "26b23fd6d14acc4bdfea7b008016e93d", "type": "electric_scooter", "name": "26b23fd6d14acc4bdfea7b008016e93d", "is_disabled": 0, "fusion_lon": 0.0, "rental_uris": {"android": "https://dc.lft.to/lastmile_qr_scan", "ios": "https://dc.lft.to/lastmile_qr_scan"}, "lat": 38.92646233333333, "lon": -77.0371555, "fusion_lat": 0.0}, {"is_reserved": 0, "bike_id": "31ab820304cdf6775968106d540ce4e9", "type": "electric_scooter", "name": "31ab820304cdf6775968106d540ce4e9", "is_disabled": 0, "fusion_lon": 0.0, "rental_uris": {"android": "https://dc.lft.to/lastmile_qr_scan", "ios": "https://dc.lft.to/lastmile_qr_scan"}, "lat": 38.93825283333334, "lon": -76.990504, "fusion_lat": 0.0}, {"is_reserved": 0, "bike_id": "c0f2d4f66dd8fa903e17cd35779b9fcc", "type": "electric_scooter", "name": "c0f2d4f66dd8fa903e17cd35779b9fcc", "is_disabled": 0, "fusion_lon": 0.0, "rental_uris": {"android": "https://dc.lft.to/lastmile_qr_scan", "ios": "https://dc.lft.to/lastmile_qr_scan"}, "lat": 38.908699, "lon": -77.00923033333333, "fusion_lat": 0.0}, {"is_reserved": 0, "bike_id": "247e4589a43c5e9b2d9997d1b2ccfa72", "type": "electric_scooter", "name": "247e4589a43c5e9b2d9997d1b2ccfa72", "is_disabled": 0, "fusion_lon": 0.0, "rental_uris": {"android": "https://dc.lft.to/lastmile_qr_scan", "ios": "https://dc.lft.to/lastmile_qr_scan"}, "lat": 38.92652116666667, "lon": -77.03714483333333, "fusion_lat": 0.0}, {"is_reserved": 0, "bike_id": "61379b3492685f7a4c7cfeadb68badcf", "type": "electric_scooter", "name": "61379b3492685f7a4c7cfeadb68badcf", "is_disabled": 0, "fusion_lon": 0.0, "rental_uris": {"android": "https://dc.lft.to/lastmile_qr_scan", "ios": "https://dc.lft.to/lastmile_qr_scan"}, "lat": 38.9105655, "lon": -77.053278, "fusion_lat": 0.0}, {"is_reserved": 0, "bike_id": "23b6c6b553cf6b55ba556de93b2033d3", "type": "electric_scooter", "name": "23b6c6b553cf6b55ba556de93b2033d3", "is_disabled": 0, "fusion_lon": 0.0, "rental_uris": {"android": "https://dc.lft.to/lastmile_qr_scan", "ios": "https://dc.lft.to/lastmile_qr_scan"}, "lat": 38.89769916666667, "lon": -77.02704016666667, "fusion_lat": 0.0}, {"is_reserved": 0, "bike_id": "4459724a723119e84f18a22642dc9e98", "type": "electric_scooter", "name": "4459724a723119e84f18a22642dc9e98", "is_disabled": 0, "fusion_lon": 0.0, "rental_uris": {"android": "https://dc.lft.to/lastmile_qr_scan", "ios": "https://dc.lft.to/lastmile_qr_scan"}, "lat": 38.876636500000004, "lon": -77.00302016666667, "fusion_lat": 0.0}, {"is_reserved": 0, "bike_id": "01175812985b79a7453af7f235dd34ec", "type": "electric_scooter", "name": "01175812985b79a7453af7f235dd34ec", "is_disabled": 0, "fusion_lon": 0.0, "rental_uris": {"android": "https://dc.lft.to/lastmile_qr_scan", "ios": "https://dc.lft.to/lastmile_qr_scan"}, "lat": 38.93265183333333, "lon": -77.0192525, "fusion_lat": 0.0}, {"is_reserved": 0, "bike_id": "a7046f916004f5591b013d402b307097", "type": "electric_scooter", "name": "a7046f916004f5591b013d402b307097", "is_disabled": 0, "fusion_lon": 0.0, "rental_uris": {"android": "https://dc.lft.to/lastmile_qr_scan", "ios": "https://dc.lft.to/lastmile_qr_scan"}, "lat": 38.95420083333333, "lon": -77.02763683333333, "fusion_lat": 0.0}, {"is_reserved": 0, "bike_id": "b18985b6982f64f431c83c51b3606480", "type": "electric_scooter", "name": "b18985b6982f64f431c83c51b3606480", "is_disabled": 0, "fusion_lon": 0.0, "rental_uris": {"android": "https://dc.lft.to/lastmile_qr_scan", "ios": "https://dc.lft.to/lastmile_qr_scan"}, "lat": 38.91802533333333, "lon": -77.02722033333333, "fusion_lat": 0.0}, {"is_reserved": 0, "bike_id": "e78352b54fbee9a62bf50811032b4231", "type": "electric_scooter", "name": "e78352b54fbee9a62bf50811032b4231", "is_disabled": 0, "fusion_lon": 0.0, "rental_uris": {"android": "https://dc.lft.to/lastmile_qr_scan", "ios": "https://dc.lft.to/lastmile_qr_scan"}, "lat": 38.90562966666667, "lon": -77.057012, "fusion_lat": 0.0}, {"is_reserved": 0, "bike_id": "06cec8b5c9391abc99dde8212fb1197c", "type": "electric_scooter", "name": "06cec8b5c9391abc99dde8212fb1197c", "is_disabled": 0, "fusion_lon": 0.0, "rental_uris": {"android": "https://dc.lft.to/lastmile_qr_scan", "ios": "https://dc.lft.to/lastmile_qr_scan"}, "lat": 38.92400416666667, "lon": -77.02007283333333, "fusion_lat": 0.0}, {"is_reserved": 0, "bike_id": "82d112333780f9c7af3385086e556f4e", "type": "electric_bike", "name": "82d112333780f9c7af3385086e556f4e", "is_disabled": 0, "fusion_lon": 0.0, "rental_uris": {"android": "https://dc.lft.to/lastmile_qr_scan", "ios": "https://dc.lft.to/lastmile_qr_scan"}, "lat": 38.896201833333336, "lon": -76.90749866666667, "fusion_lat": 0.0}, {"is_reserved": 0, "bike_id": "e51d5381aeb76483074292ca3323ee13", "type": "electric_scooter", "name": "e51d5381aeb76483074292ca3323ee13", "is_disabled": 0, "fusion_lon": 0.0, "rental_uris": {"android": "https://dc.lft.to/lastmile_qr_scan", "ios": "https://dc.lft.to/lastmile_qr_scan"}, "lat": 38.912089, "lon": -77.04392566666667, "fusion_lat": 0.0}, {"is_reserved": 0, "bike_id": "adae4da06f697e4dd05bb808c2606fdf", "type": "electric_bike", "name": "adae4da06f697e4dd05bb808c2606fdf", "is_disabled": 0, "fusion_lon": 0.0, "rental_uris": {"android": "https://dc.lft.to/lastmile_qr_scan", "ios": "https://dc.lft.to/lastmile_qr_scan"}, "lat": 38.9524345, "lon": -77.09626133333333, "fusion_lat": 0.0}, {"is_reserved": 0, "bike_id": "010e189e9df9ab3e4b28941004763bfa", "type": "electric_scooter", "name": "010e189e9df9ab3e4b28941004763bfa", "is_disabled": 0, "fusion_lon": 0.0, "rental_uris": {"android": "https://dc.lft.to/lastmile_qr_scan", "ios": "https://dc.lft.to/lastmile_qr_scan"}, "lat": 38.92070433333333, "lon": -77.023872, "fusion_lat": 0.0}, {"is_reserved": 0, "bike_id": "cdde51e5f9a5bdea64d0b375665046dd", "type": "electric_scooter", "name": "cdde51e5f9a5bdea64d0b375665046dd", "is_disabled": 0, "fusion_lon": 0.0, "rental_uris": {"android": "https://dc.lft.to/lastmile_qr_scan", "ios": "https://dc.lft.to/lastmile_qr_scan"}, "lat": 38.914024166666664, "lon": -77.02209166666667, "fusion_lat": 0.0}, {"is_reserved": 0, "bike_id": "7d0823daf60c85b1e20c31bce65d5759", "type": "electric_bike", "name": "7d0823daf60c85b1e20c31bce65d5759", "is_disabled": 0, "fusion_lon": 0.0, "rental_uris": {"android": "https://dc.lft.to/lastmile_qr_scan", "ios": "https://dc.lft.to/lastmile_qr_scan"}, "lat": 38.964672166666666, "lon": -77.035632, "fusion_lat": 0.0}, {"is_reserved": 0, "bike_id": "e691b09708f62324ffdf4c96cb86b15c", "type": "electric_bike", "name": "e691b09708f62324ffdf4c96cb86b15c", "is_disabled": 0, "fusion_lon": 0.0, "rental_uris": {"android": "https://dc.lft.to/lastmile_qr_scan", "ios": "https://dc.lft.to/lastmile_qr_scan"}, "lat": 38.997883333333334, "lon": -77.00764066666666, "fusion_lat": 0.0}, {"is_reserved": 0, "bike_id": "d6c4a85cfb9fed777a25859c0fd6f1b0", "type": "electric_scooter", "name": "d6c4a85cfb9fed777a25859c0fd6f1b0", "is_disabled": 0, "fusion_lon": 0.0, "rental_uris": {"android": "https://dc.lft.to/lastmile_qr_scan", "ios": "https://dc.lft.to/lastmile_qr_scan"}, "lat": 38.895062333333335, "lon": -76.992518, "fusion_lat": 0.0}, {"is_reserved": 0, "bike_id": "5afd5405414db1b0e1bf0cb2f55955a2", "type": "electric_scooter", "name": "5afd5405414db1b0e1bf0cb2f55955a2", "is_disabled": 0, "fusion_lon": 0.0, "rental_uris": {"android": "https://dc.lft.to/lastmile_qr_scan", "ios": "https://dc.lft.to/lastmile_qr_scan"}, "lat": 38.90466266666667, "lon": -77.01628316666667, "fusion_lat": 0.0}, {"is_reserved": 0, "bike_id": "8cc57dc9182783eebb88e820b6919ce9", "type": "electric_bike", "name": "8cc57dc9182783eebb88e820b6919ce9", "is_disabled": 0, "fusion_lon": 0.0, "rental_uris": {"android": "https://dc.lft.to/lastmile_qr_scan", "ios": "https://dc.lft.to/lastmile_qr_scan"}, "lat": 38.992261666666664, "lon": -77.035881, "fusion_lat": 0.0}, {"is_reserved": 0, "bike_id": "4943002a9f422101aa6b190932589384", "type": "electric_scooter", "name": "4943002a9f422101aa6b190932589384", "is_disabled": 0, "fusion_lon": 0.0, "rental_uris": {"android": "https://dc.lft.to/lastmile_qr_scan", "ios": "https://dc.lft.to/lastmile_qr_scan"}, "lat": 38.899539833333336, "lon": -77.02814516666666, "fusion_lat": 0.0}, {"is_reserved": 0, "bike_id": "20e491222bf3e9d0473c55825e16ab38", "type": "electric_bike", "name": "20e491222bf3e9d0473c55825e16ab38", "is_disabled": 0, "fusion_lon": 0.0, "rental_uris": {"android": "https://dc.lft.to/lastmile_qr_scan", "ios": "https://dc.lft.to/lastmile_qr_scan"}, "lat": 38.836074833333335, "lon": -77.00373383333333, "fusion_lat": 0.0}, {"is_reserved": 0, "bike_id": "5788adae1aa1f8b8777ebbcaf3608adc", "type": "electric_scooter", "name": "5788adae1aa1f8b8777ebbcaf3608adc", "is_disabled": 0, "fusion_lon": 0.0, "rental_uris": {"android": "https://dc.lft.to/lastmile_qr_scan", "ios": "https://dc.lft.to/lastmile_qr_scan"}, "lat": 38.89731783333333, "lon": -77.00779316666667, "fusion_lat": 0.0}, {"is_reserved": 0, "bike_id": "69bf3add1c5f28f031b1971fbe399503", "type": "electric_scooter", "name": "69bf3add1c5f28f031b1971fbe399503", "is_disabled": 0, "fusion_lon": 0.0, "rental_uris": {"android": "https://dc.lft.to/lastmile_qr_scan", "ios": "https://dc.lft.to/lastmile_qr_scan"}, "lat": 38.917371, "lon": -77.02115816666667, "fusion_lat": 0.0}, {"is_reserved": 0, "bike_id": "86f2aed5ba5f66876b2a894d990b9132", "type": "electric_scooter", "name": "86f2aed5ba5f66876b2a894d990b9132", "is_disabled": 0, "fusion_lon": 0.0, "rental_uris": {"android": "https://dc.lft.to/lastmile_qr_scan", "ios": "https://dc.lft.to/lastmile_qr_scan"}, "lat": 38.931866666666664, "lon": -77.03869233333333, "fusion_lat": 0.0}, {"is_reserved": 0, "bike_id": "ed79a4c0580c12e48f2b7a76e58e5b08", "type": "electric_scooter", "name": "ed79a4c0580c12e48f2b7a76e58e5b08", "is_disabled": 0, "fusion_lon": 0.0, "rental_uris": {"android": "https://dc.lft.to/lastmile_qr_scan", "ios": "https://dc.lft.to/lastmile_qr_scan"}, "lat": 38.91927866666666, "lon": -77.03427216666667, "fusion_lat": 0.0}, {"is_reserved": 0, "bike_id": "a0a78cab90d789b0fd8f589ecfc16157", "type": "electric_scooter", "name": "a0a78cab90d789b0fd8f589ecfc16157", "is_disabled": 0, "fusion_lon": 0.0, "rental_uris": {"android": "https://dc.lft.to/lastmile_qr_scan", "ios": "https://dc.lft.to/lastmile_qr_scan"}, "lat": 38.89750333333333, "lon": -77.02680616666666, "fusion_lat": 0.0}, {"is_reserved": 0, "bike_id": "6119a2110c3f471a534889858dcbf275", "type": "electric_scooter", "name": "6119a2110c3f471a534889858dcbf275", "is_disabled": 0, "fusion_lon": 0.0, "rental_uris": {"android": "https://dc.lft.to/lastmile_qr_scan", "ios": "https://dc.lft.to/lastmile_qr_scan"}, "lat": 38.9158415, "lon": -77.014591, "fusion_lat": 0.0}, {"is_reserved": 0, "bike_id": "67b744cbc3a784fe5d6e648e33ebda79", "type": "electric_scooter", "name": "67b744cbc3a784fe5d6e648e33ebda79", "is_disabled": 0, "fusion_lon": 0.0, "rental_uris": {"android": "https://dc.lft.to/lastmile_qr_scan", "ios": "https://dc.lft.to/lastmile_qr_scan"}, "lat": 38.91715583333333, "lon": -77.03859983333334, "fusion_lat": 0.0}, {"is_reserved": 0, "bike_id": "1e3cd5a62f710f3653dc5ff26a58b72a", "type": "electric_scooter", "name": "1e3cd5a62f710f3653dc5ff26a58b72a", "is_disabled": 0, "fusion_lon": 0.0, "rental_uris": {"android": "https://dc.lft.to/lastmile_qr_scan", "ios": "https://dc.lft.to/lastmile_qr_scan"}, "lat": 38.966524166666666, "lon": -77.02746783333333, "fusion_lat": 0.0}, {"is_reserved": 0, "bike_id": "ef20f373289947eb6e2fa7df3096b740", "type": "electric_scooter", "name": "ef20f373289947eb6e2fa7df3096b740", "is_disabled": 0, "fusion_lon": 0.0, "rental_uris": {"android": "https://dc.lft.to/lastmile_qr_scan", "ios": "https://dc.lft.to/lastmile_qr_scan"}, "lat": 38.91571533333333, "lon": -77.01993833333333, "fusion_lat": 0.0}, {"is_reserved": 0, "bike_id": "1f4c2104bf2cf0edaead983b55363058", "type": "electric_bike", "name": "1f4c2104bf2cf0edaead983b55363058", "is_disabled": 0, "fusion_lon": 0.0, "rental_uris": {"android": "https://dc.lft.to/lastmile_qr_scan", "ios": "https://dc.lft.to/lastmile_qr_scan"}, "lat": 38.8380865, "lon": -77.0027975, "fusion_lat": 0.0}, {"is_reserved": 0, "bike_id": "7553c60381ab2e5076ae2bc2c39a5799", "type": "electric_scooter", "name": "7553c60381ab2e5076ae2bc2c39a5799", "is_disabled": 0, "fusion_lon": 0.0, "rental_uris": {"android": "https://dc.lft.to/lastmile_qr_scan", "ios": "https://dc.lft.to/lastmile_qr_scan"}, "lat": 38.94736133333333, "lon": -77.02368916666667, "fusion_lat": 0.0}, {"is_reserved": 0, "bike_id": "337484ef21a79add9d1649438c7ab2de", "type": "electric_scooter", "name": "337484ef21a79add9d1649438c7ab2de", "is_disabled": 0, "fusion_lon": 0.0, "rental_uris": {"android": "https://dc.lft.to/lastmile_qr_scan", "ios": "https://dc.lft.to/lastmile_qr_scan"}, "lat": 38.90894466666666, "lon": -77.00294733333334, "fusion_lat": 0.0}, {"is_reserved": 0, "bike_id": "666ac571a002c8e7da2765c9530027cf", "type": "electric_scooter", "name": "666ac571a002c8e7da2765c9530027cf", "is_disabled": 0, "fusion_lon": 0.0, "rental_uris": {"android": "https://dc.lft.to/lastmile_qr_scan", "ios": "https://dc.lft.to/lastmile_qr_scan"}, "lat": 38.9165595, "lon": -77.038596, "fusion_lat": 0.0}, {"is_reserved": 0, "bike_id": "d4c4091d8b8122ae300f41efec9dd476", "type": "electric_scooter", "name": "d4c4091d8b8122ae300f41efec9dd476", "is_disabled": 0, "fusion_lon": 0.0, "rental_uris": {"android": "https://dc.lft.to/lastmile_qr_scan", "ios": "https://dc.lft.to/lastmile_qr_scan"}, "lat": 38.91561016666667, "lon": -77.06800916666667, "fusion_lat": 0.0}, {"is_reserved": 0, "bike_id": "99314591d9e464503a3f5e32e2139a35", "type": "electric_scooter", "name": "99314591d9e464503a3f5e32e2139a35", "is_disabled": 0, "fusion_lon": 0.0, "rental_uris": {"android": "https://dc.lft.to/lastmile_qr_scan", "ios": "https://dc.lft.to/lastmile_qr_scan"}, "lat": 38.9417675, "lon": -77.03654616666667, "fusion_lat": 0.0}, {"is_reserved": 0, "bike_id": "4ee5abbd89d84a8d7f302bf29729f6d5", "type": "electric_scooter", "name": "4ee5abbd89d84a8d7f302bf29729f6d5", "is_disabled": 0, "fusion_lon": 0.0, "rental_uris": {"android": "https://dc.lft.to/lastmile_qr_scan", "ios": "https://dc.lft.to/lastmile_qr_scan"}, "lat": 38.934398, "lon": -77.034496, "fusion_lat": 0.0}, {"is_reserved": 0, "bike_id": "3f7727ca1f78e121ca99b42f79136717", "type": "electric_scooter", "name": "3f7727ca1f78e121ca99b42f79136717", "is_disabled": 0, "fusion_lon": 0.0, "rental_uris": {"android": "https://dc.lft.to/lastmile_qr_scan", "ios": "https://dc.lft.to/lastmile_qr_scan"}, "lat": 38.9271665, "lon": -77.02076283333334, "fusion_lat": 0.0}, {"is_reserved": 0, "bike_id": "8c6d73ac616cc929f8c0ec4cdc1980b0", "type": "electric_scooter", "name": "8c6d73ac616cc929f8c0ec4cdc1980b0", "is_disabled": 0, "fusion_lon": 0.0, "rental_uris": {"android": "https://dc.lft.to/lastmile_qr_scan", "ios": "https://dc.lft.to/lastmile_qr_scan"}, "lat": 38.935782833333334, "lon": -77.033508, "fusion_lat": 0.0}, {"is_reserved": 0, "bike_id": "aab88a336f2d04ceed3baf5438a79e83", "type": "electric_scooter", "name": "aab88a336f2d04ceed3baf5438a79e83", "is_disabled": 0, "fusion_lon": 0.0, "rental_uris": {"android": "https://dc.lft.to/lastmile_qr_scan", "ios": "https://dc.lft.to/lastmile_qr_scan"}, "lat": 38.913248833333334, "lon": -77.04538033333333, "fusion_lat": 0.0}, {"is_reserved": 0, "bike_id": "07ae6705fb59d5b4254a6b50a26dd673", "type": "electric_scooter", "name": "07ae6705fb59d5b4254a6b50a26dd673", "is_disabled": 0, "fusion_lon": 0.0, "rental_uris": {"android": "https://dc.lft.to/lastmile_qr_scan", "ios": "https://dc.lft.to/lastmile_qr_scan"}, "lat": 38.911864333333334, "lon": -77.0608435, "fusion_lat": 0.0}, {"is_reserved": 0, "bike_id": "e9794e665174e77adc14676525ccab39", "type": "electric_scooter", "name": "e9794e665174e77adc14676525ccab39", "is_disabled": 0, "fusion_lon": 0.0, "rental_uris": {"android": "https://dc.lft.to/lastmile_qr_scan", "ios": "https://dc.lft.to/lastmile_qr_scan"}, "lat": 38.9157, "lon": -77.0460815, "fusion_lat": 0.0}, {"is_reserved": 0, "bike_id": "9c83b3521e85a098221934e1fd9afddc", "type": "electric_scooter", "name": "9c83b3521e85a098221934e1fd9afddc", "is_disabled": 0, "fusion_lon": 0.0, "rental_uris": {"android": "https://dc.lft.to/lastmile_qr_scan", "ios": "https://dc.lft.to/lastmile_qr_scan"}, "lat": 38.92949083333333, "lon": -77.02783083333334, "fusion_lat": 0.0}, {"is_reserved": 0, "bike_id": "2b45873591f62b1050e22d566bcc9fca", "type": "electric_scooter", "name": "2b45873591f62b1050e22d566bcc9fca", "is_disabled": 0, "fusion_lon": 0.0, "rental_uris": {"android": "https://dc.lft.to/lastmile_qr_scan", "ios": "https://dc.lft.to/lastmile_qr_scan"}, "lat": 38.91977516666667, "lon": -77.037934, "fusion_lat": 0.0}, {"is_reserved": 0, "bike_id": "6b29a02659e254144c7a0b258bbcfb49", "type": "electric_scooter", "name": "6b29a02659e254144c7a0b258bbcfb49", "is_disabled": 0, "fusion_lon": 0.0, "rental_uris": {"android": "https://dc.lft.to/lastmile_qr_scan", "ios": "https://dc.lft.to/lastmile_qr_scan"}, "lat": 38.91826533333333, "lon": -77.03437683333334, "fusion_lat": 0.0}, {"is_reserved": 0, "bike_id": "0b2a45a344640561f9ae559db7dc8917", "type": "electric_scooter", "name": "0b2a45a344640561f9ae559db7dc8917", "is_disabled": 0, "fusion_lon": 0.0, "rental_uris": {"android": "https://dc.lft.to/lastmile_qr_scan", "ios": "https://dc.lft.to/lastmile_qr_scan"}, "lat": 38.89635616666666, "lon": -76.92962383333334, "fusion_lat": 0.0}, {"is_reserved": 0, "bike_id": "7a679e10e15a02710eb5df3190be3849", "type": "electric_scooter", "name": "7a679e10e15a02710eb5df3190be3849", "is_disabled": 0, "fusion_lon": 0.0, "rental_uris": {"android": "https://dc.lft.to/lastmile_qr_scan", "ios": "https://dc.lft.to/lastmile_qr_scan"}, "lat": 38.89854733333333, "lon": -77.019949, "fusion_lat": 0.0}, {"is_reserved": 0, "bike_id": "d63c608bd94fd09d7c50fe0892dcc353", "type": "electric_scooter", "name": "d63c608bd94fd09d7c50fe0892dcc353", "is_disabled": 0, "fusion_lon": 0.0, "rental_uris": {"android": "https://dc.lft.to/lastmile_qr_scan", "ios": "https://dc.lft.to/lastmile_qr_scan"}, "lat": 38.90350183333334, "lon": -76.98614933333333, "fusion_lat": 0.0}, {"is_reserved": 0, "bike_id": "66e26131f7c63b436b6166a6f3d2858f", "type": "electric_scooter", "name": "66e26131f7c63b436b6166a6f3d2858f", "is_disabled": 0, "fusion_lon": 0.0, "rental_uris": {"android": "https://dc.lft.to/lastmile_qr_scan", "ios": "https://dc.lft.to/lastmile_qr_scan"}, "lat": 38.90550866666667, "lon": -77.0060215, "fusion_lat": 0.0}, {"is_reserved": 0, "bike_id": "295d52714d501057580e0646249b2939", "type": "electric_scooter", "name": "295d52714d501057580e0646249b2939", "is_disabled": 0, "fusion_lon": 0.0, "rental_uris": {"android": "https://dc.lft.to/lastmile_qr_scan", "ios": "https://dc.lft.to/lastmile_qr_scan"}, "lat": 38.917116666666665, "lon": -77.00411933333334, "fusion_lat": 0.0}, {"is_reserved": 0, "bike_id": "731803c7af56ef7ddc98c141e6186263", "type": "electric_bike", "name": "731803c7af56ef7ddc98c141e6186263", "is_disabled": 0, "fusion_lon": 0.0, "rental_uris": {"android": "https://dc.lft.to/lastmile_qr_scan", "ios": "https://dc.lft.to/lastmile_qr_scan"}, "lat": 38.865836333333334, "lon": -77.12941066666667, "fusion_lat": 0.0}, {"is_reserved": 0, "bike_id": "ad29722079f6d4a2cb1fab03ba4b15b8", "type": "electric_scooter", "name": "ad29722079f6d4a2cb1fab03ba4b15b8", "is_disabled": 0, "fusion_lon": 0.0, "rental_uris": {"android": "https://dc.lft.to/lastmile_qr_scan", "ios": "https://dc.lft.to/lastmile_qr_scan"}, "lat": 38.903830166666665, "lon": -77.05374533333334, "fusion_lat": 0.0}, {"is_reserved": 0, "bike_id": "b0e29a19e837623284c69665b714f1a6", "type": "electric_scooter", "name": "b0e29a19e837623284c69665b714f1a6", "is_disabled": 0, "fusion_lon": 0.0, "rental_uris": {"android": "https://dc.lft.to/lastmile_qr_scan", "ios": "https://dc.lft.to/lastmile_qr_scan"}, "lat": 38.918540666666665, "lon": -76.96545933333333, "fusion_lat": 0.0}, {"is_reserved": 0, "bike_id": "10801802fdfba8d7e40d09919a294eb9", "type": "electric_scooter", "name": "10801802fdfba8d7e40d09919a294eb9", "is_disabled": 0, "fusion_lon": 0.0, "rental_uris": {"android": "https://dc.lft.to/lastmile_qr_scan", "ios": "https://dc.lft.to/lastmile_qr_scan"}, "lat": 38.9205085, "lon": -77.02426483333333, "fusion_lat": 0.0}, {"is_reserved": 0, "bike_id": "fd26c7fccd3c5beffff455798608fa6d", "type": "electric_scooter", "name": "fd26c7fccd3c5beffff455798608fa6d", "is_disabled": 0, "fusion_lon": 0.0, "rental_uris": {"android": "https://dc.lft.to/lastmile_qr_scan", "ios": "https://dc.lft.to/lastmile_qr_scan"}, "lat": 38.96607616666667, "lon": -77.0210745, "fusion_lat": 0.0}, {"is_reserved": 0, "bike_id": "61424c31ae0a895b6033e137f5d66ec6", "type": "electric_scooter", "name": "61424c31ae0a895b6033e137f5d66ec6", "is_disabled": 0, "fusion_lon": 0.0, "rental_uris": {"android": "https://dc.lft.to/lastmile_qr_scan", "ios": "https://dc.lft.to/lastmile_qr_scan"}, "lat": 38.93558216666667, "lon": -77.05879966666667, "fusion_lat": 0.0}, {"is_reserved": 0, "bike_id": "bba3de0c8e9663e9321ffb0f02ac19a8", "type": "electric_scooter", "name": "bba3de0c8e9663e9321ffb0f02ac19a8", "is_disabled": 0, "fusion_lon": 0.0, "rental_uris": {"android": "https://dc.lft.to/lastmile_qr_scan", "ios": "https://dc.lft.to/lastmile_qr_scan"}, "lat": 38.9110185, "lon": -77.02642833333333, "fusion_lat": 0.0}, {"is_reserved": 0, "bike_id": "3b09379bf20ab5cc14787ca28af0a4cb", "type": "electric_scooter", "name": "3b09379bf20ab5cc14787ca28af0a4cb", "is_disabled": 0, "fusion_lon": 0.0, "rental_uris": {"android": "https://dc.lft.to/lastmile_qr_scan", "ios": "https://dc.lft.to/lastmile_qr_scan"}, "lat": 38.887126333333335, "lon": -77.02182333333333, "fusion_lat": 0.0}, {"is_reserved": 0, "bike_id": "4ede69e8b3b397e3ac336b9020110704", "type": "electric_scooter", "name": "4ede69e8b3b397e3ac336b9020110704", "is_disabled": 0, "fusion_lon": 0.0, "rental_uris": {"android": "https://dc.lft.to/lastmile_qr_scan", "ios": "https://dc.lft.to/lastmile_qr_scan"}, "lat": 38.875316833333336, "lon": -77.00069, "fusion_lat": 0.0}, {"is_reserved": 0, "bike_id": "73de6249d9ff3594324bedf909285749", "type": "electric_scooter", "name": "73de6249d9ff3594324bedf909285749", "is_disabled": 0, "fusion_lon": 0.0, "rental_uris": {"android": "https://dc.lft.to/lastmile_qr_scan", "ios": "https://dc.lft.to/lastmile_qr_scan"}, "lat": 38.890819666666665, "lon": -76.995091, "fusion_lat": 0.0}, {"is_reserved": 0, "bike_id": "bbb6d6893135fc5140aa536967de06a9", "type": "electric_scooter", "name": "bbb6d6893135fc5140aa536967de06a9", "is_disabled": 0, "fusion_lon": 0.0, "rental_uris": {"android": "https://dc.lft.to/lastmile_qr_scan", "ios": "https://dc.lft.to/lastmile_qr_scan"}, "lat": 38.884976333333334, "lon": -77.00601633333333, "fusion_lat": 0.0}, {"is_reserved": 0, "bike_id": "c49b16817d17698b5c470ba1a26bb442", "type": "electric_bike", "name": "c49b16817d17698b5c470ba1a26bb442", "is_disabled": 0, "fusion_lon": 0.0, "rental_uris": {"android": "https://dc.lft.to/lastmile_qr_scan", "ios": "https://dc.lft.to/lastmile_qr_scan"}, "lat": 38.9677765, "lon": -76.99655333333334, "fusion_lat": 0.0}, {"is_reserved": 0, "bike_id": "ae44052cbf4185bcdd19950e01e11e76", "type": "electric_scooter", "name": "ae44052cbf4185bcdd19950e01e11e76", "is_disabled": 0, "fusion_lon": 0.0, "rental_uris": {"android": "https://dc.lft.to/lastmile_qr_scan", "ios": "https://dc.lft.to/lastmile_qr_scan"}, "lat": 38.9022265, "lon": -77.02183133333334, "fusion_lat": 0.0}, {"is_reserved": 0, "bike_id": "efbc64e02583e1433d8ba99c66ce7227", "type": "electric_scooter", "name": "efbc64e02583e1433d8ba99c66ce7227", "is_disabled": 0, "fusion_lon": 0.0, "rental_uris": {"android": "https://dc.lft.to/lastmile_qr_scan", "ios": "https://dc.lft.to/lastmile_qr_scan"}, "lat": 38.8955995, "lon": -77.0296905, "fusion_lat": 0.0}, {"is_reserved": 0, "bike_id": "2cafe901d3189af27fca9c724d434b43", "type": "electric_scooter", "name": "2cafe901d3189af27fca9c724d434b43", "is_disabled": 0, "fusion_lon": 0.0, "rental_uris": {"android": "https://dc.lft.to/lastmile_qr_scan", "ios": "https://dc.lft.to/lastmile_qr_scan"}, "lat": 38.898782833333335, "lon": -76.93182183333333, "fusion_lat": 0.0}, {"is_reserved": 0, "bike_id": "f59918dde047c78c546cce858d98ffc2", "type": "electric_scooter", "name": "f59918dde047c78c546cce858d98ffc2", "is_disabled": 0, "fusion_lon": 0.0, "rental_uris": {"android": "https://dc.lft.to/lastmile_qr_scan", "ios": "https://dc.lft.to/lastmile_qr_scan"}, "lat": 38.92318183333333, "lon": -77.05467933333334, "fusion_lat": 0.0}, {"is_reserved": 0, "bike_id": "ad4077d5f08f5de37666523c1f0d18e4", "type": "electric_scooter", "name": "ad4077d5f08f5de37666523c1f0d18e4", "is_disabled": 0, "fusion_lon": 0.0, "rental_uris": {"android": "https://dc.lft.to/lastmile_qr_scan", "ios": "https://dc.lft.to/lastmile_qr_scan"}, "lat": 38.907034, "lon": -76.98565216666667, "fusion_lat": 0.0}, {"is_reserved": 0, "bike_id": "32c8cf8432061cc4d7ecf3963024f8ac", "type": "electric_bike", "name": "32c8cf8432061cc4d7ecf3963024f8ac", "is_disabled": 0, "fusion_lon": 0.0, "rental_uris": {"android": "https://dc.lft.to/lastmile_qr_scan", "ios": "https://dc.lft.to/lastmile_qr_scan"}, "lat": 38.985497333333335, "lon": -77.00402916666667, "fusion_lat": 0.0}, {"is_reserved": 0, "bike_id": "caed381c894d998dca704923338c30bd", "type": "electric_scooter", "name": "caed381c894d998dca704923338c30bd", "is_disabled": 0, "fusion_lon": 0.0, "rental_uris": {"android": "https://dc.lft.to/lastmile_qr_scan", "ios": "https://dc.lft.to/lastmile_qr_scan"}, "lat": 38.89558183333333, "lon": -77.02170516666666, "fusion_lat": 0.0}, {"is_reserved": 0, "bike_id": "aeeeefe717166beb42cb174cdc91b860", "type": "electric_scooter", "name": "aeeeefe717166beb42cb174cdc91b860", "is_disabled": 0, "fusion_lon": 0.0, "rental_uris": {"android": "https://dc.lft.to/lastmile_qr_scan", "ios": "https://dc.lft.to/lastmile_qr_scan"}, "lat": 38.920972, "lon": -77.0252105, "fusion_lat": 0.0}, {"is_reserved": 0, "bike_id": "e286f439ae0eece31a13c3a28a9d1213", "type": "electric_scooter", "name": "e286f439ae0eece31a13c3a28a9d1213", "is_disabled": 0, "fusion_lon": 0.0, "rental_uris": {"android": "https://dc.lft.to/lastmile_qr_scan", "ios": "https://dc.lft.to/lastmile_qr_scan"}, "lat": 38.9125305, "lon": -77.03920616666667, "fusion_lat": 0.0}, {"is_reserved": 0, "bike_id": "6dfbc08213e43a52dadfb79c0ffd2366", "type": "electric_scooter", "name": "6dfbc08213e43a52dadfb79c0ffd2366", "is_disabled": 0, "fusion_lon": 0.0, "rental_uris": {"android": "https://dc.lft.to/lastmile_qr_scan", "ios": "https://dc.lft.to/lastmile_qr_scan"}, "lat": 38.88429266666667, "lon": -77.030485, "fusion_lat": 0.0}, {"is_reserved": 0, "bike_id": "63b26cc899f3191e970827f5fef31e60", "type": "electric_scooter", "name": "63b26cc899f3191e970827f5fef31e60", "is_disabled": 0, "fusion_lon": 0.0, "rental_uris": {"android": "https://dc.lft.to/lastmile_qr_scan", "ios": "https://dc.lft.to/lastmile_qr_scan"}, "lat": 38.896121666666666, "lon": -76.9855685, "fusion_lat": 0.0}, {"is_reserved": 0, "bike_id": "42e3bc383b693233485ec0083fd30449", "type": "electric_bike", "name": "42e3bc383b693233485ec0083fd30449", "is_disabled": 0, "fusion_lon": 0.0, "rental_uris": {"android": "https://dc.lft.to/lastmile_qr_scan", "ios": "https://dc.lft.to/lastmile_qr_scan"}, "lat": 38.8528465, "lon": -77.049698, "fusion_lat": 0.0}, {"is_reserved": 0, "bike_id": "68c3e425735fea536e825558fc28c5bb", "type": "electric_scooter", "name": "68c3e425735fea536e825558fc28c5bb", "is_disabled": 0, "fusion_lon": 0.0, "rental_uris": {"android": "https://dc.lft.to/lastmile_qr_scan", "ios": "https://dc.lft.to/lastmile_qr_scan"}, "lat": 38.90655133333333, "lon": -77.05338533333334, "fusion_lat": 0.0}, {"is_reserved": 0, "bike_id": "ab193c2a6656ed2cb8e277563e2c8d5b", "type": "electric_scooter", "name": "ab193c2a6656ed2cb8e277563e2c8d5b", "is_disabled": 0, "fusion_lon": 0.0, "rental_uris": {"android": "https://dc.lft.to/lastmile_qr_scan", "ios": "https://dc.lft.to/lastmile_qr_scan"}, "lat": 38.914009166666666, "lon": -77.0101665, "fusion_lat": 0.0}, {"is_reserved": 0, "bike_id": "72ae6081c16bc8cf21a52f75d982adda", "type": "electric_scooter", "name": "72ae6081c16bc8cf21a52f75d982adda", "is_disabled": 0, "fusion_lon": 0.0, "rental_uris": {"android": "https://dc.lft.to/lastmile_qr_scan", "ios": "https://dc.lft.to/lastmile_qr_scan"}, "lat": 38.923243666666664, "lon": -77.05681166666666, "fusion_lat": 0.0}, {"is_reserved": 0, "bike_id": "c791da5df97faf5c2a402ca2fd48abec", "type": "electric_scooter", "name": "c791da5df97faf5c2a402ca2fd48abec", "is_disabled": 0, "fusion_lon": 0.0, "rental_uris": {"android": "https://dc.lft.to/lastmile_qr_scan", "ios": "https://dc.lft.to/lastmile_qr_scan"}, "lat": 38.954222666666666, "lon": -77.02763516666667, "fusion_lat": 0.0}, {"is_reserved": 0, "bike_id": "23e5141317377f3c0b54a097ed412b85", "type": "electric_scooter", "name": "23e5141317377f3c0b54a097ed412b85", "is_disabled": 0, "fusion_lon": 0.0, "rental_uris": {"android": "https://dc.lft.to/lastmile_qr_scan", "ios": "https://dc.lft.to/lastmile_qr_scan"}, "lat": 38.922680166666666, "lon": -77.02963733333333, "fusion_lat": 0.0}, {"is_reserved": 0, "bike_id": "2857feaea110e57825da97c8fc39db8b", "type": "electric_scooter", "name": "2857feaea110e57825da97c8fc39db8b", "is_disabled": 0, "fusion_lon": 0.0, "rental_uris": {"android": "https://dc.lft.to/lastmile_qr_scan", "ios": "https://dc.lft.to/lastmile_qr_scan"}, "lat": 38.931754, "lon": -77.037004, "fusion_lat": 0.0}, {"is_reserved": 0, "bike_id": "b7772022cb44fa97b70ed6360e5c22d0", "type": "electric_scooter", "name": "b7772022cb44fa97b70ed6360e5c22d0", "is_disabled": 0, "fusion_lon": 0.0, "rental_uris": {"android": "https://dc.lft.to/lastmile_qr_scan", "ios": "https://dc.lft.to/lastmile_qr_scan"}, "lat": 38.912669, "lon": -77.02212633333333, "fusion_lat": 0.0}, {"is_reserved": 0, "bike_id": "301ab6c9e8ae934914259bb443055290", "type": "electric_scooter", "name": "301ab6c9e8ae934914259bb443055290", "is_disabled": 0, "fusion_lon": 0.0, "rental_uris": {"android": "https://dc.lft.to/lastmile_qr_scan", "ios": "https://dc.lft.to/lastmile_qr_scan"}, "lat": 38.893480833333335, "lon": -77.00290933333333, "fusion_lat": 0.0},