{"data": {"bikes": [{"lon": -76.99308983333333, "name": "eb701ac8a17280b1de29ba142f584938", "is_disabled": 0, "type": "electric_bike", "is_reserved": 0, "fusion_lon": 0.0, "lat": 38.94630266666667, "rental_uris": {"ios": "https://dc.lft.to/lastmile_qr_scan", "android": "https://dc.lft.to/lastmile_qr_scan"}, "bike_id": "eb701ac8a17280b1de29ba142f584938", "fusion_lat": 0.0}, {"lon": -77.03199366666666, "name": "eec39d8cef75c9b8379a8c2ae65ca668", "is_disabled": 0, "type": "electric_scooter", "is_reserved": 0, "fusion_lon": 0.0, "lat": 38.922918333333335, "rental_uris": {"ios": "https://dc.lft.to/lastmile_qr_scan", "android": "https://dc.lft.to/lastmile_qr_scan"}, "bike_id": "eec39d8cef75c9b8379a8c2ae65ca668", "fusion_lat": 0.0}, {"lon": -77.03262316666667, "name": "b307a3c2a1bd34ee5d132bb853f0f9f9", "is_disabled": 0, "type": "electric_scooter", "is_reserved": 0, "fusion_lon": 0.0, "lat": 38.935626166666665, "rental_uris": {"ios": "https://dc.lft.to/lastmile_qr_scan", "android": "https://dc.lft.to/lastmile_qr_scan"}, "bike_id": "b307a3c2a1bd34ee5d132bb853f0f9f9", "fusion_lat": 0.0}, {"lon": -77.05526883333333, "name": "03ad653bfe0d714b042c7d34f42ce73c", "is_disabled": 0, "type": "electric_scooter", "is_reserved": 0, "fusion_lon": 0.0, "lat": 38.8972365, "rental_uris": {"ios": "https://dc.lft.to/lastmile_qr_scan", "android": "https://dc.lft.to/lastmile_qr_scan"}, "bike_id": "03ad653bfe0d714b042c7d34f42ce73c", "fusion_lat": 0.0}, {"lon": -77.01809866666666, "name": "d64796ff7a54392a6186984056165677", "is_disabled": 0, "type": "electric_scooter", "is_reserved": 0, "fusion_lon": 0.0, "lat": 38.921432, "rental_uris": {"ios": "https://dc.lft.to/lastmile_qr_scan", "android": "https://dc.lft.to/lastmile_qr_scan"}, "bike_id": "d64796ff7a54392a6186984056165677", "fusion_lat": 0.0}, {"lon": -77.02119666666667, "name": "c1471ac3195947267bf9406428ad785b", "is_disabled": 0, "type": "electric_scooter", "is_reserved": 0, "fusion_lon": 0.0, "lat": 38.9310885, "rental_uris": {"ios": "https://dc.lft.to/lastmile_qr_scan", "android": "https://dc.lft.to/lastmile_qr_scan"}, "bike_id": "c1471ac3195947267bf9406428ad785b", "fusion_lat": 0.0}, {"lon": -77.01180766666667, "name": "58abe0765464f00d6124db2c63c56ed5", "is_disabled": 0, "type": "electric_scooter", "is_reserved": 0, "fusion_lon": 0.0, "lat": 38.900329666666664, "rental_uris": {"ios": "https://dc.lft.to/lastmile_qr_scan", "android": "https://dc.lft.to/lastmile_qr_scan"}, "bike_id": "58abe0765464f00d6124db2c63c56ed5", "fusion_lat": 0.0}, {"lon": -77.06088283333334, "name": "c043c35555c2db3ff067b307733921d0", "is_disabled": 0, "type": "electric_bike", "is_reserved": 0, "fusion_lon": 0.0, "lat": 38.80431733333333, "rental_uris": {"ios": "https://dc.lft.to/lastmile_qr_scan", "android": "https://dc.lft.to/lastmile_qr_scan"}, "bike_id": "c043c35555c2db3ff067b307733921d0", "fusion_lat": 0.0}, {"lon": -77.01986766666667, "name": "ddd0f5192b8eaee80e1d387562c738e7", "is_disabled": 0, "type": "electric_scooter", "is_reserved": 0, "fusion_lon": 0.0, "lat": 38.9156505, "rental_uris": {"ios": "https://dc.lft.to/lastmile_qr_scan", "android": "https://dc.lft.to/lastmile_qr_scan"}, "bike_id": "ddd0f5192b8eaee80e1d387562c738e7", "fusion_lat": 0.0}, {"lon": -77.041928, "name": "f44c028f8fec24f7ef6424b20dca0ae4", "is_disabled": 0, "type": "electric_scooter", "is_reserved": 0, "fusion_lon": 0.0, "lat": 38.920544666666665, "rental_uris": {"ios": "https://dc.lft.to/lastmile_qr_scan", "android": "https://dc.lft.to/lastmile_qr_scan"}, "bike_id": "f44c028f8fec24f7ef6424b20dca0ae4", "fusion_lat": 0.0}, {"lon": -77.024014, "name": "7000a5943c6f38019e113ca86f74758a", "is_disabled": 0, "type": "electric_scooter", "is_reserved": 0, "fusion_lon": 0.0, "lat": 38.900501, "rental_uris": {"ios": "https://dc.lft.to/lastmile_qr_scan", "android": "https://dc.lft.to/lastmile_qr_scan"}, "bike_id": "7000a5943c6f38019e113ca86f74758a", "fusion_lat": 0.0}, {"lon": -77.031868, "name": "5b2df25acc77d8eb97a5b035c6fa95d5", "is_disabled": 0, "type": "electric_scooter", "is_reserved": 0, "fusion_lon": 0.0, "lat": 38.8838595, "rental_uris": {"ios": "https://dc.lft.to/lastmile_qr_scan", "android": "https://dc.lft.to/lastmile_qr_scan"}, "bike_id": "5b2df25acc77d8eb97a5b035c6fa95d5", "fusion_lat": 0.0}, {"lon": -77.00986083333333, "name": "6e06b337b1528cdd2a9d314036e1f420", "is_disabled": 0, "type": "electric_scooter", "is_reserved": 0, "fusion_lon": 0.0, "lat": 38.91403716666667, "rental_uris": {"ios": "https://dc.lft.to/lastmile_qr_scan", "android": "https://dc.lft.to/lastmile_qr_scan"}, "bike_id": "6e06b337b1528cdd2a9d314036e1f420", "fusion_lat": 0.0}, {"lon": -77.03260333333333, "name": "3e6a5c2e3d781944112521494b88a065", "is_disabled": 0, "type": "electric_scooter", "is_reserved": 0, "fusion_lon": 0.0, "lat": 38.902607, "rental_uris": {"ios": "https://dc.lft.to/lastmile_qr_scan", "android": "https://dc.lft.to/lastmile_qr_scan"}, "bike_id": "3e6a5c2e3d781944112521494b88a065", "fusion_lat": 0.0}, {"lon": -77.01333416666667, "name": "8c37621156032ed30e2c6f30143b8327", "is_disabled": 0, "type": "electric_scooter", "is_reserved": 0, "fusion_lon": 0.0, "lat": 38.9419885, "rental_uris": {"ios": "https://dc.lft.to/lastmile_qr_scan", "android": "https://dc.lft.to/lastmile_qr_scan"}, "bike_id": "8c37621156032ed30e2c6f30143b8327", "fusion_lat": 0.0}, {"lon": -76.99491866666666, "name": "57ab12ca32aca5b650814dbcbd94b70f", "is_disabled": 0, "type": "electric_scooter", "is_reserved": 0, "fusion_lon": 0.0, "lat": 38.94774666666667, "rental_uris": {"ios": "https://dc.lft.to/lastmile_qr_scan", "android": "https://dc.lft.to/lastmile_qr_scan"}, "bike_id": "57ab12ca32aca5b650814dbcbd94b70f", "fusion_lat": 0.0}, {"lon": -77.06014216666667, "name": "f5f63f4b6144bbe2c2425783b0e5d57e", "is_disabled": 0, "type": "electric_scooter", "is_reserved": 0, "fusion_lon": 0.0, "lat": 38.92710483333333, "rental_uris": {"ios": "https://dc.lft.to/lastmile_qr_scan", "android": "https://dc.lft.to/lastmile_qr_scan"}, "bike_id": "f5f63f4b6144bbe2c2425783b0e5d57e", "fusion_lat": 0.0}, {"lon": -77.02407033333333, "name": "4ebf2ba499b216886501a1ecd8fdb2d1", "is_disabled": 0, "type": "electric_scooter", "is_reserved": 0, "fusion_lon": 0.0, "lat": 38.917113, "rental_uris": {"ios": "https://dc.lft.to/lastmile_qr_scan", "android": "https://dc.lft.to/lastmile_qr_scan"}, "bike_id": "4ebf2ba499b216886501a1ecd8fdb2d1", "fusion_lat": 0.0}, {"lon": -77.05002266666666, "name": "c0ed8fb6dd9b9fa5b58f7ed2fdd7b72f", "is_disabled": 0, "type": "electric_bike", "is_reserved": 0, "fusion_lon": 0.0, "lat": 39.03883166666667, "rental_uris": {"ios": "https://dc.lft.to/lastmile_qr_scan", "android": "https://dc.lft.to/lastmile_qr_scan"}, "bike_id": "c0ed8fb6dd9b9fa5b58f7ed2fdd7b72f", "fusion_lat": 0.0}, {"lon": -76.99854316666666, "name": "9f486efeb6170e9bc14cf8425cd8565b", "is_disabled": 0, "type": "electric_scooter", "is_reserved": 0, "fusion_lon": 0.0, "lat": 38.901206333333334, "rental_uris": {"ios": "https://dc.lft.to/lastmile_qr_scan", "android": "https://dc.lft.to/lastmile_qr_scan"}, "bike_id": "9f486efeb6170e9bc14cf8425cd8565b", "fusion_lat": 0.0}, {"lon": -76.92633183333334, "name": "4f8e9e090669f4e30a66e3a2b2726f66", "is_disabled": 0, "type": "electric_scooter", "is_reserved": 0, "fusion_lon": 0.0, "lat": 38.8862305, "rental_uris": {"ios": "https://dc.lft.to/lastmile_qr_scan", "android": "https://dc.lft.to/lastmile_qr_scan"}, "bike_id": "4f8e9e090669f4e30a66e3a2b2726f66", "fusion_lat": 0.0}, {"lon": -77.01948316666666, "name": "2448a438de78a4e864c7cdf2c2830f42", "is_disabled": 0, "type": "electric_scooter", "is_reserved": 0, "fusion_lon": 0.0, "lat": 38.92369133333333, "rental_uris": {"ios": "https://dc.lft.to/lastmile_qr_scan", "android": "https://dc.lft.to/lastmile_qr_scan"}, "bike_id": "2448a438de78a4e864c7cdf2c2830f42", "fusion_lat": 0.0}, {"lon": -76.98608433333334, "name": "76e377fe2aef4c03ec04af667906b024", "is_disabled": 0, "type": "electric_bike", "is_reserved": 0, "fusion_lon": 0.0, "lat": 38.9297735, "rental_uris": {"ios": "https://dc.lft.to/lastmile_qr_scan", "android": "https://dc.lft.to/lastmile_qr_scan"}, "bike_id": "76e377fe2aef4c03ec04af667906b024", "fusion_lat": 0.0}, {"lon": -77.02166966666667, "name": "1766c6ebea1f0ecf3a18c92b9be1eda8", "is_disabled": 0, "type": "electric_scooter", "is_reserved": 0, "fusion_lon": 0.0, "lat": 38.926391833333334, "rental_uris": {"ios": "https://dc.lft.to/lastmile_qr_scan", "android": "https://dc.lft.to/lastmile_qr_scan"}, "bike_id": "1766c6ebea1f0ecf3a18c92b9be1eda8", "fusion_lat": 0.0}, {"lon": -76.9963465, "name": "28c5940c4ef8b1e12cfb61e1fa18c1d2", "is_disabled": 0, "type": "electric_scooter", "is_reserved": 0, "fusion_lon": 0.0, "lat": 38.90061933333333, "rental_uris": {"ios": "https://dc.lft.to/lastmile_qr_scan", "android": "https://dc.lft.to/lastmile_qr_scan"}, "bike_id": "28c5940c4ef8b1e12cfb61e1fa18c1d2", "fusion_lat": 0.0}, {"lon": -77.0464535, "name": "a187f2e5b715866186ad3e623e47f692", "is_disabled": 0, "type": "electric_scooter", "is_reserved": 0, "fusion_lon": 0.0, "lat": 38.892441166666664, "rental_uris": {"ios": "https://dc.lft.to/lastmile_qr_scan", "android": "https://dc.lft.to/lastmile_qr_scan"}, "bike_id": "a187f2e5b715866186ad3e623e47f692", "fusion_lat": 0.0}, {"lon": -76.9934465, "name": "897c9569137497762768e974dc50f199", "is_disabled": 0, "type": "electric_scooter", "is_reserved": 0, "fusion_lon": 0.0, "lat": 38.91032366666666, "rental_uris": {"ios": "https://dc.lft.to/lastmile_qr_scan", "android": "https://dc.lft.to/lastmile_qr_scan"}, "bike_id": "897c9569137497762768e974dc50f199", "fusion_lat": 0.0}, {"lon": -77.0445635, "name": "ffc1c956ac59a1b08915474abbc3de25", "is_disabled": 0, "type": "electric_scooter", "is_reserved": 0, "fusion_lon": 0.0, "lat": 38.91018783333333, "rental_uris": {"ios": "https://dc.lft.to/lastmile_qr_scan", "android": "https://dc.lft.to/lastmile_qr_scan"}, "bike_id": "ffc1c956ac59a1b08915474abbc3de25", "fusion_lat": 0.0}, {"lon": -76.93714583333333, "name": "f5c737d489afec2526a24e544613b5e2", "is_disabled": 0, "type": "electric_scooter", "is_reserved": 0, "fusion_lon": 0.0, "lat": 38.88856166666667, "rental_uris": {"ios": "https://dc.lft.to/lastmile_qr_scan", "android": "https://dc.lft.to/lastmile_qr_scan"}, "bike_id": "f5c737d489afec2526a24e544613b5e2", "fusion_lat": 0.0}, {"lon": -77.00609716666666, "name": "4fee1cc7fc091d0417a25fb11fcfc473", "is_disabled": 0, "type": "electric_scooter", "is_reserved": 0, "fusion_lon": 0.0, "lat": 38.911124666666666, "rental_uris": {"ios": "https://dc.lft.to/lastmile_qr_scan", "android": "https://dc.lft.to/lastmile_qr_scan"}, "bike_id": "4fee1cc7fc091d0417a25fb11fcfc473", "fusion_lat": 0.0}, {"lon": -76.91067316666667, "name": "28a3a1f211c4b25cd08b69ff48c04276", "is_disabled": 0, "type": "electric_bike", "is_reserved": 0, "fusion_lon": 0.0, "lat": 39.0107335, "rental_uris": {"ios": "https://dc.lft.to/lastmile_qr_scan", "android": "https://dc.lft.to/lastmile_qr_scan"}, "bike_id": "28a3a1f211c4b25cd08b69ff48c04276", "fusion_lat": 0.0}, {"lon": -77.0471885, "name": "05ed3b2414a5f209df6a85c36496b4f6", "is_disabled": 0, "type": "electric_scooter", "is_reserved": 0, "fusion_lon": 0.0, "lat": 38.899729, "rental_uris": {"ios": "https://dc.lft.to/lastmile_qr_scan", "android": "https://dc.lft.to/lastmile_qr_scan"}, "bike_id": "05ed3b2414a5f209df6a85c36496b4f6", "fusion_lat": 0.0}, {"lon": -76.92591116666667, "name": "3e7e7c777775dd97953fc03f86b98b1e", "is_disabled": 0, "type": "electric_scooter", "is_reserved": 0, "fusion_lon": 0.0, "lat": 38.897313, "rental_uris": {"ios": "https://dc.lft.to/lastmile_qr_scan", "android": "https://dc.lft.to/lastmile_qr_scan"}, "bike_id": "3e7e7c777775dd97953fc03f86b98b1e", "fusion_lat": 0.0}, {"lon": -77.027026, "name": "da3101571117f7d39cac0fc757eb9878", "is_disabled": 0, "type": "electric_scooter", "is_reserved": 0, "fusion_lon": 0.0, "lat": 38.897779, "rental_uris": {"ios": "https://dc.lft.to/lastmile_qr_scan", "android": "https://dc.lft.to/lastmile_qr_scan"}, "bike_id": "da3101571117f7d39cac0fc757eb9878", "fusion_lat": 0.0}, {"lon": -77.04811416666666, "name": "87f8033e0e588e265e1e6f0c823c2b1c", "is_disabled": 0, "type": "electric_scooter", "is_reserved": 0, "fusion_lon": 0.0, "lat": 38.8983615, "rental_uris": {"ios": "https://dc.lft.to/lastmile_qr_scan", "android": "https://dc.lft.to/lastmile_qr_scan"}, "bike_id": "87f8033e0e588e265e1e6f0c823c2b1c", "fusion_lat": 0.0}, {"lon": -77.05273766666667, "name": "ec24d210f96008a093c9674b0eeb8a7b", "is_disabled": 0, "type": "electric_scooter", "is_reserved": 0, "fusion_lon": 0.0, "lat": 38.923361, "rental_uris": {"ios": "https://dc.lft.to/lastmile_qr_scan", "android": "https://dc.lft.to/lastmile_qr_scan"}, "bike_id": "ec24d210f96008a093c9674b0eeb8a7b", "fusion_lat": 0.0}, {"lon": -76.93745816666667, "name": "124958e703fec53580be69ef30ba0a2f", "is_disabled": 0, "type": "electric_scooter", "is_reserved": 0, "fusion_lon": 0.0, "lat": 38.89011933333333, "rental_uris": {"ios": "https://dc.lft.to/lastmile_qr_scan", "android": "https://dc.lft.to/lastmile_qr_scan"}, "bike_id": "124958e703fec53580be69ef30ba0a2f", "fusion_lat": 0.0}, {"lon": -77.0111775, "name": "8138a69d91f47de86324f44c6c40d2ed", "is_disabled": 0, "type": "electric_scooter", "is_reserved": 0, "fusion_lon": 0.0, "lat": 38.903529666666664, "rental_uris": {"ios": "https://dc.lft.to/lastmile_qr_scan", "android": "https://dc.lft.to/lastmile_qr_scan"}, "bike_id": "8138a69d91f47de86324f44c6c40d2ed", "fusion_lat": 0.0}, {"lon": -76.99517783333333, "name": "11a079a17f13efaa43a292f9c555af6e", "is_disabled": 0, "type": "electric_scooter", "is_reserved": 0, "fusion_lon": 0.0, "lat": 38.90265483333334, "rental_uris": {"ios": "https://dc.lft.to/lastmile_qr_scan", "android": "https://dc.lft.to/lastmile_qr_scan"}, "bike_id": "11a079a17f13efaa43a292f9c555af6e", "fusion_lat": 0.0}, {"lon": -77.04803916666667, "name": "7ec685a44a12f8225f48b555dd86bd45", "is_disabled": 0, "type": "electric_scooter", "is_reserved": 0, "fusion_lon": 0.0, "lat": 38.89824266666667, "rental_uris": {"ios": "https://dc.lft.to/lastmile_qr_scan", "android": "https://dc.lft.to/lastmile_qr_scan"}, "bike_id": "7ec685a44a12f8225f48b555dd86bd45", "fusion_lat": 0.0}, {"lon": -77.04495216666666, "name": "21d617d87ddfee0269f7b2266998bc5a", "is_disabled": 0, "type": "electric_scooter", "is_reserved": 0, "fusion_lon": 0.0, "lat": 38.89943983333333, "rental_uris": {"ios": "https://dc.lft.to/lastmile_qr_scan", "android": "https://dc.lft.to/lastmile_qr_scan"}, "bike_id": "21d617d87ddfee0269f7b2266998bc5a", "fusion_lat": 0.0}, {"lon": -77.02364433333334, "name": "a4cbaad16cd843aff976fb1064f43fbb", "is_disabled": 0, "type": "electric_scooter", "is_reserved": 0, "fusion_lon": 0.0, "lat": 38.925165666666665, "rental_uris": {"ios": "https://dc.lft.to/lastmile_qr_scan", "android": "https://dc.lft.to/lastmile_qr_scan"}, "bike_id": "a4cbaad16cd843aff976fb1064f43fbb", "fusion_lat": 0.0}, {"lon": -77.00368633333333, "name": "a2f9ddb17677a67d5ed2df583460b743", "is_disabled": 0, "type": "electric_bike", "is_reserved": 0, "fusion_lon": 0.0, "lat": 38.876325, "rental_uris": {"ios": "https://dc.lft.to/lastmile_qr_scan", "android": "https://dc.lft.to/lastmile_qr_scan"}, "bike_id": "a2f9ddb17677a67d5ed2df583460b743", "fusion_lat": 0.0}, {"lon": -77.03217983333333, "name": "14f7e8c3865fa983d3a77b24388cbcbd", "is_disabled": 0, "type": "electric_scooter", "is_reserved": 0, "fusion_lon": 0.0, "lat": 38.91562583333334, "rental_uris": {"ios": "https://dc.lft.to/lastmile_qr_scan", "android": "https://dc.lft.to/lastmile_qr_scan"}, "bike_id": "14f7e8c3865fa983d3a77b24388cbcbd", "fusion_lat": 0.0}, {"lon": -77.0295515, "name": "9046807efcf758c2fd9c708a25817279", "is_disabled": 0, "type": "electric_scooter", "is_reserved": 0, "fusion_lon": 0.0, "lat": 38.899599333333335, "rental_uris": {"ios": "https://dc.lft.to/lastmile_qr_scan", "android": "https://dc.lft.to/lastmile_qr_scan"}, "bike_id": "9046807efcf758c2fd9c708a25817279", "fusion_lat": 0.0}, {"lon": -77.02792466666666, "name": "641db85569560937015f953e5153f95d", "is_disabled": 0, "type": "electric_bike", "is_reserved": 0, "fusion_lon": 0.0, "lat": 38.96750633333333, "rental_uris": {"ios": "https://dc.lft.to/lastmile_qr_scan", "android": "https://dc.lft.to/lastmile_qr_scan"}, "bike_id": "641db85569560937015f953e5153f95d", "fusion_lat": 0.0}, {"lon": -77.02513583333334, "name": "ee26a98510d50ac437502d3e7ae68714", "is_disabled": 0, "type": "electric_scooter", "is_reserved": 0, "fusion_lon": 0.0, "lat": 38.91925, "rental_uris": {"ios": "https://dc.lft.to/lastmile_qr_scan", "android": "https://dc.lft.to/lastmile_qr_scan"}, "bike_id": "ee26a98510d50ac437502d3e7ae68714", "fusion_lat": 0.0}, {"lon": -77.0447305, "name": "57f31a391febcfb43c84eda469343a30", "is_disabled": 0, "type": "electric_scooter", "is_reserved": 0, "fusion_lon": 0.0, "lat": 38.91860233333333, "rental_uris": {"ios": "https://dc.lft.to/lastmile_qr_scan", "android": "https://dc.lft.to/lastmile_qr_scan"}, "bike_id": "57f31a391febcfb43c84eda469343a30", "fusion_lat": 0.0}, {"lon": -77.054257, "name": "9a56350b8b3e6a32aa240093e8a63450", "is_disabled": 0, "type": "electric_scooter", "is_reserved": 0, "fusion_lon": 0.0, "lat": 38.92337533333333, "rental_uris": {"ios": "https://dc.lft.to/lastmile_qr_scan", "android": "https://dc.lft.to/lastmile_qr_scan"}, "bike_id": "9a56350b8b3e6a32aa240093e8a63450", "fusion_lat": 0.0}, {"lon": -76.98542733333333, "name": "bce07b6c7cb028e3abdb2b1905e0b8ec", "is_disabled": 0, "type": "electric_scooter", "is_reserved": 0, "fusion_lon": 0.0, "lat": 38.879736, "rental_uris": {"ios": "https://dc.lft.to/lastmile_qr_scan", "android": "https://dc.lft.to/lastmile_qr_scan"}, "bike_id": "bce07b6c7cb028e3abdb2b1905e0b8ec", "fusion_lat": 0.0}, {"lon": -77.0412605, "name": "ec1b9b4f78c023e618a4a3cc028a3192", "is_disabled": 0, "type": "electric_scooter", "is_reserved": 0, "fusion_lon": 0.0, "lat": 38.921252, "rental_uris": {"ios": "https://dc.lft.to/lastmile_qr_scan", "android": "https://dc.lft.to/lastmile_qr_scan"}, "bike_id": "ec1b9b4f78c023e618a4a3cc028a3192", "fusion_lat": 0.0}, {"lon": -77.01547933333333, "name": "a2663421a9fb20fb9b3b078ea4d579a2", "is_disabled": 0, "type": "electric_scooter", "is_reserved": 0, "fusion_lon": 0.0, "lat": 38.92800733333333, "rental_uris": {"ios": "https://dc.lft.to/lastmile_qr_scan", "android": "https://dc.lft.to/lastmile_qr_scan"}, "bike_id": "a2663421a9fb20fb9b3b078ea4d579a2", "fusion_lat": 0.0}, {"lon": -77.02477066666667, "name": "0c237c213faba470f1f845f17c883ea5", "is_disabled": 0, "type": "electric_scooter", "is_reserved": 0, "fusion_lon": 0.0, "lat": 38.884847, "rental_uris": {"ios": "https://dc.lft.to/lastmile_qr_scan", "android": "https://dc.lft.to/lastmile_qr_scan"}, "bike_id": "0c237c213faba470f1f845f17c883ea5", "fusion_lat": 0.0}, {"lon": -77.036567, "name": "8fcf91dd73c8623f256234f2e738b77c", "is_disabled": 0, "type": "electric_scooter", "is_reserved": 0, "fusion_lon": 0.0, "lat": 38.93155316666667, "rental_uris": {"ios": "https://dc.lft.to/lastmile_qr_scan", "android": "https://dc.lft.to/lastmile_qr_scan"}, "bike_id": "8fcf91dd73c8623f256234f2e738b77c", "fusion_lat": 0.0}, {"lon": -77.051961, "name": "1575f5811cdeb87ace726ba71d0187b8", "is_disabled": 0, "type": "electric_scooter", "is_reserved": 0, "fusion_lon": 0.0, "lat": 38.905116666666665, "rental_uris": {"ios": "https://dc.lft.to/lastmile_qr_scan", "android": "https://dc.lft.to/lastmile_qr_scan"}, "bike_id": "1575f5811cdeb87ace726ba71d0187b8", "fusion_lat": 0.0}, {"lon": -77.02195333333333, "name": "53028a97768677828a3032660bdd6c77", "is_disabled": 0, "type": "electric_scooter", "is_reserved": 0, "fusion_lon": 0.0, "lat": 38.878949166666665, "rental_uris": {"ios": "https://dc.lft.to/lastmile_qr_scan", "android": "https://dc.lft.to/lastmile_qr_scan"}, "bike_id": "53028a97768677828a3032660bdd6c77", "fusion_lat": 0.0}, {"lon": -77.02237733333334, "name": "1f64ec87b680b49f3bb319262ae40b67", "is_disabled": 0, "type": "electric_scooter", "is_reserved": 0, "fusion_lon": 0.0, "lat": 38.923476666666666, "rental_uris": {"ios": "https://dc.lft.to/lastmile_qr_scan", "android": "https://dc.lft.to/lastmile_qr_scan"}, "bike_id": "1f64ec87b680b49f3bb319262ae40b67", "fusion_lat": 0.0}, {"lon": -77.01912716666666, "name": "3c72d4169c32beafbc533dfb6ceb029b", "is_disabled": 0, "type": "electric_scooter", "is_reserved": 0, "fusion_lon": 0.0, "lat": 38.929401, "rental_uris": {"ios": "https://dc.lft.to/lastmile_qr_scan", "android": "https://dc.lft.to/lastmile_qr_scan"}, "bike_id": "3c72d4169c32beafbc533dfb6ceb029b", "fusion_lat": 0.0}, {"lon": -77.04624133333333, "name": "baf2fc7fb52090455d434e96594ecff5", "is_disabled": 0, "type": "electric_scooter", "is_reserved": 0, "fusion_lon": 0.0, "lat": 38.916159666666665, "rental_uris": {"ios": "https://dc.lft.to/lastmile_qr_scan", "android": "https://dc.lft.to/lastmile_qr_scan"}, "bike_id": "baf2fc7fb52090455d434e96594ecff5", "fusion_lat": 0.0}, {"lon": -77.0920065, "name": "1a528d69715fc1d7f6086cb1168b65a2", "is_disabled": 0, "type": "electric_scooter", "is_reserved": 0, "fusion_lon": 0.0, "lat": 38.9171295, "rental_uris": {"ios": "https://dc.lft.to/lastmile_qr_scan", "android": "https://dc.lft.to/lastmile_qr_scan"}, "bike_id": "1a528d69715fc1d7f6086cb1168b65a2", "fusion_lat": 0.0}, {"lon": -77.03337933333333, "name": "f5bddd7fb15963795682f6e0937642ad", "is_disabled": 0, "type": "electric_scooter", "is_reserved": 0, "fusion_lon": 0.0, "lat": 38.902529, "rental_uris": {"ios": "https://dc.lft.to/lastmile_qr_scan", "android": "https://dc.lft.to/lastmile_qr_scan"}, "bike_id": "f5bddd7fb15963795682f6e0937642ad", "fusion_lat": 0.0}, {"lon": -77.00143766666666, "name": "86e2e6b1b8dcfeb6b043ec624ee61bc4", "is_disabled": 0, "type": "electric_scooter", "is_reserved": 0, "fusion_lon": 0.0, "lat": 38.884311833333335, "rental_uris": {"ios": "https://dc.lft.to/lastmile_qr_scan", "android": "https://dc.lft.to/lastmile_qr_scan"}, "bike_id": "86e2e6b1b8dcfeb6b043ec624ee61bc4", "fusion_lat": 0.0}, {"lon": -76.981005, "name": "f781113addb837257a50bf3279391857", "is_disabled": 0, "type": "electric_bike", "is_reserved": 0, "fusion_lon": 0.0, "lat": 38.95352366666667, "rental_uris": {"ios": "https://dc.lft.to/lastmile_qr_scan", "android": "https://dc.lft.to/lastmile_qr_scan"}, "bike_id": "f781113addb837257a50bf3279391857", "fusion_lat": 0.0}, {"lon": -77.024877, "name": "2cdaa56f97b719c66d6522e8466865b6", "is_disabled": 0, "type": "electric_scooter", "is_reserved": 0, "fusion_lon": 0.0, "lat": 38.938968, "rental_uris": {"ios": "https://dc.lft.to/lastmile_qr_scan", "android": "https://dc.lft.to/lastmile_qr_scan"}, "bike_id": "2cdaa56f97b719c66d6522e8466865b6", "fusion_lat": 0.0}, {"lon": -77.04347016666667, "name": "f5fe95865f107635aad554cdf29c8393", "is_disabled": 0, "type": "electric_bike", "is_reserved": 0, "fusion_lon": 0.0, "lat": 38.898615166666666, "rental_uris": {"ios": "https://dc.lft.to/lastmile_qr_scan", "android": "https://dc.lft.to/lastmile_qr_scan"}, "bike_id": "f5fe95865f107635aad554cdf29c8393", "fusion_lat": 0.0}, {"lon": -77.008293, "name": "abed2fda0d98be2310239001d098dd7d", "is_disabled": 0, "type": "electric_scooter", "is_reserved": 0, "fusion_lon": 0.0, "lat": 38.9224445, "rental_uris": {"ios": "https://dc.lft.to/lastmile_qr_scan", "android": "https://dc.lft.to/lastmile_qr_scan"}, "bike_id": "abed2fda0d98be2310239001d098dd7d", "fusion_lat": 0.0}, {"lon": -77.0401655, "name": "5058cdf0e8541d3214e9c62221fda10f", "is_disabled": 0, "type": "electric_scooter", "is_reserved": 0, "fusion_lon": 0.0, "lat": 38.90380783333333, "rental_uris": {"ios": "https://dc.lft.to/lastmile_qr_scan", "android": "https://dc.lft.to/lastmile_qr_scan"}, "bike_id": "5058cdf0e8541d3214e9c62221fda10f", "fusion_lat": 0.0}, {"lon": -77.01837366666666, "name": "5768cc99d0c95dfe01df7f160421ad34", "is_disabled": 0, "type": "electric_scooter", "is_reserved": 0, "fusion_lon": 0.0, "lat": 38.90862383333333, "rental_uris": {"ios": "https://dc.lft.to/lastmile_qr_scan", "android": "https://dc.lft.to/lastmile_qr_scan"}, "bike_id": "5768cc99d0c95dfe01df7f160421ad34", "fusion_lat": 0.0}, {"lon": -76.99154433333334, "name": "b19323fdca61869da097994aae0bccd0", "is_disabled": 0, "type": "electric_scooter", "is_reserved": 0, "fusion_lon": 0.0, "lat": 38.89171183333333, "rental_uris": {"ios": "https://dc.lft.to/lastmile_qr_scan", "android": "https://dc.lft.to/lastmile_qr_scan"}, "bike_id": "b19323fdca61869da097994aae0bccd0", "fusion_lat": 0.0}, {"lon": -77.018531, "name": "f4402ec83ee1772d112ee331a5765031", "is_disabled": 0, "type": "electric_scooter", "is_reserved": 0, "fusion_lon": 0.0, "lat": 38.87460433333333, "rental_uris": {"ios": "https://dc.lft.to/lastmile_qr_scan", "android": "https://dc.lft.to/lastmile_qr_scan"}, "bike_id": "f4402ec83ee1772d112ee331a5765031", "fusion_lat": 0.0}, {"lon": -76.97746533333333, "name": "42aa192e43365d072c4a577f294289c1", "is_disabled": 0, "type": "electric_bike", "is_reserved": 0, "fusion_lon": 0.0, "lat": 38.864853833333335, "rental_uris": {"ios": "https://dc.lft.to/lastmile_qr_scan", "android": "https://dc.lft.to/lastmile_qr_scan"}, "bike_id": "42aa192e43365d072c4a577f294289c1", "fusion_lat": 0.0}, {"lon": -77.03179783333333, "name": "269954a78ebc04b32f8512653e575f9a", "is_disabled": 0, "type": "electric_scooter", "is_reserved": 0, "fusion_lon": 0.0, "lat": 38.89240083333333, "rental_uris": {"ios": "https://dc.lft.to/lastmile_qr_scan", "android": "https://dc.lft.to/lastmile_qr_scan"}, "bike_id": "269954a78ebc04b32f8512653e575f9a", "fusion_lat": 0.0}, {"lon": -77.03931216666666, "name": "1022cdba4c174d9f3158d617a09d8309", "is_disabled": 0, "type": "electric_scooter", "is_reserved": 0, "fusion_lon": 0.0, "lat": 38.898551499999996, "rental_uris": {"ios": "https://dc.lft.to/lastmile_qr_scan", "android": "https://dc.lft.to/lastmile_qr_scan"}, "bike_id": "1022cdba4c174d9f3158d617a09d8309", "fusion_lat": 0.0}, {"lon": -77.04622566666667, "name": "3c207140b01beb119a0ad4bff72092ab", "is_disabled": 0, "type": "electric_scooter", "is_reserved": 0, "fusion_lon": 0.0, "lat": 38.916158333333335, "rental_uris": {"ios": "https://dc.lft.to/lastmile_qr_scan", "android": "https://dc.lft.to/lastmile_qr_scan"}, "bike_id": "3c207140b01beb119a0ad4bff72092ab", "fusion_lat": 0.0}, {"lon": -76.97269433333334, "name": "9d3771726f2857f4ddd692f38187ad2d", "is_disabled": 0, "type": "electric_bike", "is_reserved": 0, "fusion_lon": 0.0, "lat": 38.856003333333334, "rental_uris": {"ios": "https://dc.lft.to/lastmile_qr_scan", "android": "https://dc.lft.to/lastmile_qr_scan"}, "bike_id": "9d3771726f2857f4ddd692f38187ad2d", "fusion_lat": 0.0}, {"lon": -77.044758, "name": "8c5fa31d6983718d7640164b24c4bec4", "is_disabled": 0, "type": "electric_scooter", "is_reserved": 0, "fusion_lon": 0.0, "lat": 38.893635833333335, "rental_uris": {"ios": "https://dc.lft.to/lastmile_qr_scan", "android": "https://dc.lft.to/lastmile_qr_scan"}, "bike_id": "8c5fa31d6983718d7640164b24c4bec4", "fusion_lat": 0.0}, {"lon": -77.02052683333334, "name": "3fb7a417bc91818a0c53a86a3f59a6d2", "is_disabled": 0, "type": "electric_scooter", "is_reserved": 0, "fusion_lon": 0.0, "lat": 38.91906766666666, "rental_uris": {"ios": "https://dc.lft.to/lastmile_qr_scan", "android": "https://dc.lft.to/lastmile_qr_scan"}, "bike_id": "3fb7a417bc91818a0c53a86a3f59a6d2", "fusion_lat": 0.0}, {"lon": -77.04511616666667, "name": "e0addbc1c46015da168381418e9a62b7", "is_disabled": 0, "type": "electric_scooter", "is_reserved": 0, "fusion_lon": 0.0, "lat": 38.90777283333333, "rental_uris": {"ios": "https://dc.lft.to/lastmile_qr_scan", "android": "https://dc.lft.to/lastmile_qr_scan"}, "bike_id": "e0addbc1c46015da168381418e9a62b7", "fusion_lat": 0.0}, {"lon": -77.03488216666666, "name": "458d2010df496d1f15551c14b73fc919", "is_disabled": 0, "type": "electric_scooter", "is_reserved": 0, "fusion_lon": 0.0, "lat": 38.923429, "rental_uris": {"ios": "https://dc.lft.to/lastmile_qr_scan", "android": "https://dc.lft.to/lastmile_qr_scan"}, "bike_id": "458d2010df496d1f15551c14b73fc919", "fusion_lat": 0.0}, {"lon": -77.02203433333334, "name": "f8a600bfb7326e6bf82a4fa1e8fc4318", "is_disabled": 0, "type": "electric_scooter", "is_reserved": 0, "fusion_lon": 0.0, "lat": 38.911240666666664, "rental_uris": {"ios": "https://dc.lft.to/lastmile_qr_scan", "android": "https://dc.lft.to/lastmile_qr_scan"}, "bike_id": "f8a600bfb7326e6bf82a4fa1e8fc4318", "fusion_lat": 0.0}, {"lon": -77.01874033333333, "name": "56c0a8a321ebab9b1a0a21ebd6033d9e", "is_disabled": 0, "type": "electric_scooter", "is_reserved": 0, "fusion_lon": 0.0, "lat": 38.881233, "rental_uris": {"ios": "https://dc.lft.to/lastmile_qr_scan", "android": "https://dc.lft.to/lastmile_qr_scan"}, "bike_id": "56c0a8a321ebab9b1a0a21ebd6033d9e", "fusion_lat": 0.0}, {"lon": -77.01841333333333, "name": "c10805a502c8e45e9959e3e8e7fc3417", "is_disabled": 0, "type": "electric_scooter", "is_reserved": 0, "fusion_lon": 0.0, "lat": 38.907298833333336, "rental_uris": {"ios": "https://dc.lft.to/lastmile_qr_scan", "android": "https://dc.lft.to/lastmile_qr_scan"}, "bike_id": "c10805a502c8e45e9959e3e8e7fc3417", "fusion_lat": 0.0}, {"lon": -77.031846, "name": "5426e94e32538a0d8311a19cb050178a", "is_disabled": 0, "type": "electric_scooter", "is_reserved": 0, "fusion_lon": 0.0, "lat": 38.905132333333334, "rental_uris": {"ios": "https://dc.lft.to/lastmile_qr_scan", "android": "https://dc.lft.to/lastmile_qr_scan"}, "bike_id": "5426e94e32538a0d8311a19cb050178a", "fusion_lat": 0.0}, {"lon": -77.00071466666667, "name": "320b04602e36a8cd31d464c0bc223c28", "is_disabled": 0, "type": "electric_scooter", "is_reserved": 0, "fusion_lon": 0.0, "lat": 38.887755, "rental_uris": {"ios": "https://dc.lft.to/lastmile_qr_scan", "android": "https://dc.lft.to/lastmile_qr_scan"}, "bike_id": "320b04602e36a8cd31d464c0bc223c28", "fusion_lat": 0.0}, {"lon": -77.02159733333333, "name": "7bff35e9f78193cb7bab092b6912944f", "is_disabled": 0, "type": "electric_scooter", "is_reserved": 0, "fusion_lon": 0.0, "lat": 38.926115, "rental_uris": {"ios": "https://dc.lft.to/lastmile_qr_scan", "android": "https://dc.lft.to/lastmile_qr_scan"}, "bike_id": "7bff35e9f78193cb7bab092b6912944f", "fusion_lat": 0.0}, {"lon": -77.0319265, "name": "81f866bf83b4ee8e4f4dc83ef254317c", "is_disabled": 0, "type": "electric_scooter", "is_reserved": 0, "fusion_lon": 0.0, "lat": 38.920875333333335, "rental_uris": {"ios": "https://dc.lft.to/lastmile_qr_scan", "android": "https://dc.lft.to/lastmile_qr_scan"}, "bike_id": "81f866bf83b4ee8e4f4dc83ef254317c", "fusion_lat": 0.0}, {"lon": -77.02126233333334, "name": "f35430f387ed47dcd1c0a0629fa6a7e8", "is_disabled": 0, "type": "electric_scooter", "is_reserved": 0, "fusion_lon": 0.0, "lat": 38.92398633333333, "rental_uris": {"ios": "https://dc.lft.to/lastmile_qr_scan", "android": "https://dc.lft.to/lastmile_qr_scan"}, "bike_id": "f35430f387ed47dcd1c0a0629fa6a7e8", "fusion_lat": 0.0}, {"lon": -76.98188666666667, "name": "32191a871b51468e4bfbb8381c40a4ee", "is_disabled": 0, "type": "electric_bike", "is_reserved": 0, "fusion_lon": 0.0, "lat": 38.985063, "rental_uris": {"ios": "https://dc.lft.to/lastmile_qr_scan", "android": "https://dc.lft.to/lastmile_qr_scan"}, "bike_id": "32191a871b51468e4bfbb8381c40a4ee", "fusion_lat": 0.0}, {"lon": -77.02198583333333, "name": "c490dedf8b1b086c4971c7d4b4c7c5ff", "is_disabled": 0, "type": "electric_scooter", "is_reserved": 0, "fusion_lon": 0.0, "lat": 38.91125783333333, "rental_uris": {"ios": "https://dc.lft.to/lastmile_qr_scan", "android": "https://dc.lft.to/lastmile_qr_scan"}, "bike_id": "c490dedf8b1b086c4971c7d4b4c7c5ff", "fusion_lat": 0.0}, {"lon": -77.021581, "name": "801a63c20da7d6c47210a76a289f6df5", "is_disabled": 0, "type": "electric_scooter", "is_reserved": 0, "fusion_lon": 0.0, "lat": 38.92598983333333, "rental_uris": {"ios": "https://dc.lft.to/lastmile_qr_scan", "android": "https://dc.lft.to/lastmile_qr_scan"}, "bike_id": "801a63c20da7d6c47210a76a289f6df5", "fusion_lat": 0.0}, {"lon": -77.0123285, "name": "3b62a7397da1afb27c8bf92076e19772", "is_disabled": 0, "type": "electric_scooter", "is_reserved": 0, "fusion_lon": 0.0, "lat": 38.90009933333333, "rental_uris": {"ios": "https://dc.lft.to/lastmile_qr_scan", "android": "https://dc.lft.to/lastmile_qr_scan"}, "bike_id": "3b62a7397da1afb27c8bf92076e19772", "fusion_lat": 0.0}, {"lon": -77.03215283333333, "name": "4b2d9fc73e8c3c59b0eea511a0dda7ce", "is_disabled": 0, "type": "electric_scooter", "is_reserved": 0, "fusion_lon": 0.0, "lat": 38.903858, "rental_uris": {"ios": "https://dc.lft.to/lastmile_qr_scan", "android": "https://dc.lft.to/lastmile_qr_scan"}, "bike_id": "4b2d9fc73e8c3c59b0eea511a0dda7ce", "fusion_lat": 0.0}, {"lon": -76.97805416666667, "name": "60ce45ffc095009db8aab766ebdbf0bc", "is_disabled": 0, "type": "electric_scooter", "is_reserved": 0, "fusion_lon": 0.0, "lat": 38.92032833333333, "rental_uris": {"ios": "https://dc.lft.to/lastmile_qr_scan", "android": "https://dc.lft.to/lastmile_qr_scan"}, "bike_id": "60ce45ffc095009db8aab766ebdbf0bc", "fusion_lat": 0.0}, {"lon": -77.0017435, "name": "9aed1d2c7e3cefb78a070dc7a189b77c", "is_disabled": 0, "type": "electric_scooter", "is_reserved": 0, "fusion_lon": 0.0, "lat": 38.94068816666667, "rental_uris": {"ios": "https://dc.lft.to/lastmile_qr_scan", "android": "https://dc.lft.to/lastmile_qr_scan"}, "bike_id": "9aed1d2c7e3cefb78a070dc7a189b77c", "fusion_lat": 0.0}, {"lon": -77.03824866666666, "name": "ed32674338c232b65bbff0e6962552d0", "is_disabled": 0, "type": "electric_scooter", "is_reserved": 0, "fusion_lon": 0.0, "lat": 38.9036885, "rental_uris": {"ios": "https://dc.lft.to/lastmile_qr_scan", "android": "https://dc.lft.to/lastmile_qr_scan"}, "bike_id": "ed32674338c232b65bbff0e6962552d0", "fusion_lat": 0.0}, {"lon": -77.032866, "name": "d5d1318a1f2b1cef1ef98155c8e9cd41", "is_disabled": 0, "type": "electric_scooter", "is_reserved": 0, "fusion_lon": 0.0, "lat": 38.93735683333333, "rental_uris": {"ios": "https://dc.lft.to/lastmile_qr_scan", "android": "https://dc.lft.to/lastmile_qr_scan"}, "bike_id": "d5d1318a1f2b1cef1ef98155c8e9cd41", "fusion_lat": 0.0}, {"lon": -76.98417316666666, "name": "6d589ab35ffcf1b0345a272e08ca4e46", "is_disabled": 0, "type": "electric_bike", "is_reserved": 0, "fusion_lon": 0.0, "lat": 38.90995316666667, "rental_uris": {"ios": "https://dc.lft.to/lastmile_qr_scan", "android": "https://dc.lft.to/lastmile_qr_scan"}, "bike_id": "6d589ab35ffcf1b0345a272e08ca4e46", "fusion_lat": 0.0}, {"lon": -77.0294505, "name": "caa9dcd21b3d397485597f56161fc3db", "is_disabled": 0, "type": "electric_scooter", "is_reserved": 0, "fusion_lon": 0.0, "lat": 38.93968683333333, "rental_uris": {"ios": "https://dc.lft.to/lastmile_qr_scan", "android": "https://dc.lft.to/lastmile_qr_scan"}, "bike_id": "caa9dcd21b3d397485597f56161fc3db", "fusion_lat": 0.0}, {"lon": -77.03704, "name": "7d2871851e33127125b6caeaa669ace3", "is_disabled": 0, "type": "electric_scooter", "is_reserved": 0, "fusion_lon": 0.0, "lat": 38.9264415, "rental_uris": {"ios": "https://dc.lft.to/lastmile_qr_scan", "android": "https://dc.lft.to/lastmile_qr_scan"}, "bike_id": "7d2871851e33127125b6caeaa669ace3", "fusion_lat": 0.0}, {"lon": -77.022044, "name": "c789c2d22419d2e21595c1b43862b4dc", "is_disabled": 0, "type": "electric_scooter", "is_reserved": 0, "fusion_lon": 0.0, "lat": 38.886106166666664, "rental_uris": {"ios": "https://dc.lft.to/lastmile_qr_scan", "android": "https://dc.lft.to/lastmile_qr_scan"}, "bike_id": "c789c2d22419d2e21595c1b43862b4dc", "fusion_lat": 0.0}, {"lon": -76.99786616666667, "name": "db46b73b2fe1c0ae78cbf228756460ad", "is_disabled": 0, "type": "electric_scooter", "is_reserved": 0, "fusion_lon": 0.0, "lat": 38.88000383333333, "rental_uris": {"ios": "https://dc.lft.to/lastmile_qr_scan", "android": "https://dc.lft.to/lastmile_qr_scan"}, "bike_id": "db46b73b2fe1c0ae78cbf228756460ad", "fusion_lat": 0.0}, {"lon": -77.03500666666666, "name": "6f4ad7e7e01b6c8308f075a3023ab434", "is_disabled": 0, "type": "electric_scooter", "is_reserved": 0, "fusion_lon": 0.0, "lat": 38.91631666666667, "rental_uris": {"ios": "https://dc.lft.to/lastmile_qr_scan", "android": "https://dc.lft.to/lastmile_qr_scan"}, "bike_id": "6f4ad7e7e01b6c8308f075a3023ab434", "fusion_lat": 0.0}, {"lon": -77.03442266666667, "name": "e32cec27dcb7b7bee293dabbdb84152a", "is_disabled": 0, "type": "electric_scooter", "is_reserved": 0, "fusion_lon": 0.0, "lat": 38.902810333333335, "rental_uris": {"ios": "https://dc.lft.to/lastmile_qr_scan", "android": "https://dc.lft.to/lastmile_qr_scan"}, "bike_id": "e32cec27dcb7b7bee293dabbdb84152a", "fusion_lat": 0.0}, {"lon": -76.9837115, "name": "3d84a813bec7a71a7fb8aa0ee3756ae0", "is_disabled": 0, "type": "electric_scooter", "is_reserved": 0, "fusion_lon": 0.0, "lat": 38.8926965, "rental_uris": {"ios": "https://dc.lft.to/lastmile_qr_scan", "android": "https://dc.lft.to/lastmile_qr_scan"}, "bike_id": "3d84a813bec7a71a7fb8aa0ee3756ae0", "fusion_lat": 0.0}, {"lon": -77.0364905, "name": "312cf31fd7438ea238fa5c91fbaa4df8", "is_disabled": 0, "type": "electric_scooter", "is_reserved": 0, "fusion_lon": 0.0, "lat": 38.90308483333333, "rental_uris": {"ios": "https://dc.lft.to/lastmile_qr_scan", "android": "https://dc.lft.to/lastmile_qr_scan"}, "bike_id": "312cf31fd7438ea238fa5c91fbaa4df8", "fusion_lat": 0.0}, {"lon": -77.02551916666667, "name": "417717e69959fef3a88bbb53bb516cef", "is_disabled": 0, "type": "electric_scooter", "is_reserved": 0, "fusion_lon": 0.0, "lat": 38.92092433333333, "rental_uris": {"ios": "https://dc.lft.to/lastmile_qr_scan", "android": "https://dc.lft.to/lastmile_qr_scan"}, "bike_id": "417717e69959fef3a88bbb53bb516cef", "fusion_lat": 0.0}, {"lon": -77.02596233333334, "name": "235c65530c42ba8b01b9f7ccdec9abf9", "is_disabled": 0, "type": "electric_scooter", "is_reserved": 0, "fusion_lon": 0.0, "lat": 38.898774, "rental_uris": {"ios": "https://dc.lft.to/lastmile_qr_scan", "android": "https://dc.lft.to/lastmile_qr_scan"}, "bike_id": "235c65530c42ba8b01b9f7ccdec9abf9", "fusion_lat": 0.0}, {"lon": -77.02218716666667, "name": "52dafbc14b94e94dc4d8622b1c882714", "is_disabled": 0, "type": "electric_scooter", "is_reserved": 0, "fusion_lon": 0.0, "lat": 38.92480283333333, "rental_uris": {"ios": "https://dc.lft.to/lastmile_qr_scan", "android": "https://dc.lft.to/lastmile_qr_scan"}, "bike_id": "52dafbc14b94e94dc4d8622b1c882714", "fusion_lat": 0.0}, {"lon": -77.003998, "name": "9213362fe9c473af85a48d41aba8b8e6", "is_disabled": 0, "type": "electric_scooter", "is_reserved": 0, "fusion_lon": 0.0, "lat": 38.90564216666667, "rental_uris": {"ios": "https://dc.lft.to/lastmile_qr_scan", "android": "https://dc.lft.to/lastmile_qr_scan"}, "bike_id": "9213362fe9c473af85a48d41aba8b8e6", "fusion_lat": 0.0}, {"lon": -77.03171, "name": "64e0d164ff6fed23cc3f281f15cc198c", "is_disabled": 0, "type": "electric_scooter", "is_reserved": 0, "fusion_lon": 0.0, "lat": 38.91562116666667, "rental_uris": {"ios": "https://dc.lft.to/lastmile_qr_scan", "android": "https://dc.lft.to/lastmile_qr_scan"}, "bike_id": "64e0d164ff6fed23cc3f281f15cc198c", "fusion_lat": 0.0}, {"lon": -77.02370066666667, "name": "11987ce406e289b064599389cc018b59", "is_disabled": 0, "type": "electric_scooter", "is_reserved": 0, "fusion_lon": 0.0, "lat": 38.90199916666667, "rental_uris": {"ios": "https://dc.lft.to/lastmile_qr_scan", "android": "https://dc.lft.to/lastmile_qr_scan"}, "bike_id": "11987ce406e289b064599389cc018b59", "fusion_lat": 0.0}, {"lon": -77.02216283333334, "name": "621dd389c71bd25e04a3c352a7036094", "is_disabled": 0, "type": "electric_scooter", "is_reserved": 0, "fusion_lon": 0.0, "lat": 38.92475266666667, "rental_uris": {"ios": "https://dc.lft.to/lastmile_qr_scan", "android": "https://dc.lft.to/lastmile_qr_scan"}, "bike_id": "621dd389c71bd25e04a3c352a7036094", "fusion_lat": 0.0}, {"lon": -77.0318555, "name": "955464ae7eaa03a2c1bc98c91dca0df5", "is_disabled": 0, "type": "electric_scooter", "is_reserved": 0, "fusion_lon": 0.0, "lat": 38.8924185, "rental_uris": {"ios": "https://dc.lft.to/lastmile_qr_scan", "android": "https://dc.lft.to/lastmile_qr_scan"}, "bike_id": "955464ae7eaa03a2c1bc98c91dca0df5", "fusion_lat": 0.0}, {"lon": -77.01725383333333, "name": "a549d07f17437ca0b15df979786c9514", "is_disabled": 0, "type": "electric_scooter", "is_reserved": 0, "fusion_lon": 0.0, "lat": 38.920365333333336, "rental_uris": {"ios": "https://dc.lft.to/lastmile_qr_scan", "android": "https://dc.lft.to/lastmile_qr_scan"}, "bike_id": "a549d07f17437ca0b15df979786c9514", "fusion_lat": 0.0}, {"lon": -76.97852366666666, "name": "571b461583e1bde95a1a78bd8eb451a7", "is_disabled": 0, "type": "electric_scooter", "is_reserved": 0, "fusion_lon": 0.0, "lat": 38.897177, "rental_uris": {"ios": "https://dc.lft.to/lastmile_qr_scan", "android": "https://dc.lft.to/lastmile_qr_scan"}, "bike_id": "571b461583e1bde95a1a78bd8eb451a7", "fusion_lat": 0.0}, {"lon": -76.9883905, "name": "3c80ffc55f45ae912b5311da6f5bc669", "is_disabled": 0, "type": "electric_scooter", "is_reserved": 0, "fusion_lon": 0.0, "lat": 38.89249, "rental_uris": {"ios": "https://dc.lft.to/lastmile_qr_scan", "android": "https://dc.lft.to/lastmile_qr_scan"}, "bike_id": "3c80ffc55f45ae912b5311da6f5bc669", "fusion_lat": 0.0}, {"lon": -76.98339033333333, "name": "001510c83c53696e30266e88f4a8773d", "is_disabled": 0, "type": "electric_scooter", "is_reserved": 0, "fusion_lon": 0.0, "lat": 38.89544316666667, "rental_uris": {"ios": "https://dc.lft.to/lastmile_qr_scan", "android": "https://dc.lft.to/lastmile_qr_scan"}, "bike_id": "001510c83c53696e30266e88f4a8773d", "fusion_lat": 0.0}, {"lon": -77.02654033333333, "name": "17a8d1f925390fd070f3bb324eb8f624", "is_disabled": 0, "type": "electric_scooter", "is_reserved": 0, "fusion_lon": 0.0, "lat": 38.90249, "rental_uris": {"ios": "https://dc.lft.to/lastmile_qr_scan", "android": "https://dc.lft.to/lastmile_qr_scan"}, "bike_id": "17a8d1f925390fd070f3bb324eb8f624", "fusion_lat": 0.0}, {"lon": -77.05750816666666, "name": "d700d781624c6038e3343393e0ecc1ab", "is_disabled": 0, "type": "electric_scooter", "is_reserved": 0, "fusion_lon": 0.0, "lat": 38.9339135, "rental_uris": {"ios": "https://dc.lft.to/lastmile_qr_scan", "android": "https://dc.lft.to/lastmile_qr_scan"}, "bike_id": "d700d781624c6038e3343393e0ecc1ab", "fusion_lat": 0.0}, {"lon": -76.98592983333333, "name": "9539c20a77e56c068e8e8c477fb8af05", "is_disabled": 0, "type": "electric_scooter", "is_reserved": 0, "fusion_lon": 0.0, "lat": 38.90018233333333, "rental_uris": {"ios": "https://dc.lft.to/lastmile_qr_scan", "android": "https://dc.lft.to/lastmile_qr_scan"}, "bike_id": "9539c20a77e56c068e8e8c477fb8af05", "fusion_lat": 0.0}, {"lon": -77.02138516666666, "name": "eeec4195f456225435364ba7afa2232c", "is_disabled": 0, "type": "electric_scooter", "is_reserved": 0, "fusion_lon": 0.0, "lat": 38.931130833333334, "rental_uris": {"ios": "https://dc.lft.to/lastmile_qr_scan", "android": "https://dc.lft.to/lastmile_qr_scan"}, "bike_id": "eeec4195f456225435364ba7afa2232c", "fusion_lat": 0.0}, {"lon": -77.032314, "name": "ee8928cfb96c62696e4bc21247b13de2", "is_disabled": 0, "type": "electric_scooter", "is_reserved": 0, "fusion_lon": 0.0, "lat": 38.923564999999996, "rental_uris": {"ios": "https://dc.lft.to/lastmile_qr_scan", "android": "https://dc.lft.to/lastmile_qr_scan"}, "bike_id": "ee8928cfb96c62696e4bc21247b13de2", "fusion_lat": 0.0}, {"lon": -77.04676616666667, "name": "5044f60ccb0b9269b13f9661eefc87e6", "is_disabled": 0, "type": "electric_scooter", "is_reserved": 0, "fusion_lon": 0.0, "lat": 38.89369033333333, "rental_uris": {"ios": "https://dc.lft.to/lastmile_qr_scan", "android": "https://dc.lft.to/lastmile_qr_scan"}, "bike_id": "5044f60ccb0b9269b13f9661eefc87e6", "fusion_lat": 0.0}, {"lon": -77.00973016666667, "name": "40de87e7390f39b27270feb18f713b8f", "is_disabled": 0, "type": "electric_scooter", "is_reserved": 0, "fusion_lon": 0.0, "lat": 38.89881866666666, "rental_uris": {"ios": "https://dc.lft.to/lastmile_qr_scan", "android": "https://dc.lft.to/lastmile_qr_scan"}, "bike_id": "40de87e7390f39b27270feb18f713b8f", "fusion_lat": 0.0}, {"lon": -76.99156216666667, "name": "c5b955ed2d1d9da816708c0a5acb76a1", "is_disabled": 0, "type": "electric_bike", "is_reserved": 0, "fusion_lon": 0.0, "lat": 38.873405166666664, "rental_uris": {"ios": "https://dc.lft.to/lastmile_qr_scan", "android": "https://dc.lft.to/lastmile_qr_scan"}, "bike_id": "c5b955ed2d1d9da816708c0a5acb76a1", "fusion_lat": 0.0}, {"lon": -77.03644183333333, "name": "dd50cea620557405c156eb860afc4489", "is_disabled": 0, "type": "electric_scooter", "is_reserved": 0, "fusion_lon": 0.0, "lat": 38.902917, "rental_uris": {"ios": "https://dc.lft.to/lastmile_qr_scan", "android": "https://dc.lft.to/lastmile_qr_scan"}, "bike_id": "dd50cea620557405c156eb860afc4489", "fusion_lat": 0.0}, {"lon": -77.018544, "name": "98647f29b149f11975b75b60da56014b", "is_disabled": 0, "type": "electric_scooter", "is_reserved": 0, "fusion_lon": 0.0, "lat": 38.92131583333333, "rental_uris": {"ios": "https://dc.lft.to/lastmile_qr_scan", "android": "https://dc.lft.to/lastmile_qr_scan"}, "bike_id": "98647f29b149f11975b75b60da56014b", "fusion_lat": 0.0}, {"lon": -77.09021333333334, "name": "90eed7b44f56ca0422923fc2f12d09f4", "is_disabled": 0, "type": "electric_bike", "is_reserved": 0, "fusion_lon": 0.0, "lat": 38.926494166666664, "rental_uris": {"ios": "https://dc.lft.to/lastmile_qr_scan", "android": "https://dc.lft.to/lastmile_qr_scan"}, "bike_id": "90eed7b44f56ca0422923fc2f12d09f4", "fusion_lat": 0.0}, {"lon": -77.01669716666666, "name": "5a7d021091d8d29f3e0e34cf3190d218", "is_disabled": 0, "type": "electric_scooter", "is_reserved": 0, "fusion_lon": 0.0, "lat": 38.920443166666665, "rental_uris": {"ios": "https://dc.lft.to/lastmile_qr_scan", "android": "https://dc.lft.to/lastmile_qr_scan"}, "bike_id": "5a7d021091d8d29f3e0e34cf3190d218", "fusion_lat": 0.0}, {"lon": -77.02978283333333, "name": "d1bb3eec98aed4182b8ed182f3aadfb9", "is_disabled": 0, "type": "electric_scooter", "is_reserved": 0, "fusion_lon": 0.0, "lat": 38.91717666666667, "rental_uris": {"ios": "https://dc.lft.to/lastmile_qr_scan", "android": "https://dc.lft.to/lastmile_qr_scan"}, "bike_id": "d1bb3eec98aed4182b8ed182f3aadfb9", "fusion_lat": 0.0}, {"lon": -77.048995, "name": "e725558f3e736e670e375470ae6da13e", "is_disabled": 0, "type": "electric_scooter", "is_reserved": 0, "fusion_lon": 0.0, "lat": 38.9006305, "rental_uris": {"ios": "https://dc.lft.to/lastmile_qr_scan", "android": "https://dc.lft.to/lastmile_qr_scan"}, "bike_id": "e725558f3e736e670e375470ae6da13e", "fusion_lat": 0.0}, {"lon": -77.03309966666667, "name": "31bcbfede4d22b986045bd9b31de0597", "is_disabled": 0, "type": "electric_scooter", "is_reserved": 0, "fusion_lon": 0.0, "lat": 38.919756166666666, "rental_uris": {"ios": "https://dc.lft.to/lastmile_qr_scan", "android": "https://dc.lft.to/lastmile_qr_scan"}, "bike_id": "31bcbfede4d22b986045bd9b31de0597", "fusion_lat": 0.0}, {"lon": -76.9982905, "name": "02fd571e791d04b628c4aa89aa92cb47", "is_disabled": 0, "type": "electric_scooter", "is_reserved": 0, "fusion_lon": 0.0, "lat": 38.907179166666666, "rental_uris": {"ios": "https://dc.lft.to/lastmile_qr_scan", "android": "https://dc.lft.to/lastmile_qr_scan"}, "bike_id": "02fd571e791d04b628c4aa89aa92cb47", "fusion_lat": 0.0}, {"lon": -76.960917, "name": "0eaffa212e1f48a1f35e669e563a52a1", "is_disabled": 0, "type": "electric_bike", "is_reserved": 0, "fusion_lon": 0.0, "lat": 38.918498, "rental_uris": {"ios": "https://dc.lft.to/lastmile_qr_scan", "android": "https://dc.lft.to/lastmile_qr_scan"}, "bike_id": "0eaffa212e1f48a1f35e669e563a52a1", "fusion_lat": 0.0}, {"lon": -77.06289966666667, "name": "3576854f12aaa05da2aed3fd98361935", "is_disabled": 0, "type": "electric_scooter", "is_reserved": 0, "fusion_lon": 0.0, "lat": 38.90773083333333, "rental_uris": {"ios": "https://dc.lft.to/lastmile_qr_scan", "android": "https://dc.lft.to/lastmile_qr_scan"}, "bike_id": "3576854f12aaa05da2aed3fd98361935", "fusion_lat": 0.0}, {"lon": -77.00496966666667, "name": "497c6d1fd56da90acaa0ceaa1e7d3d8f", "is_disabled": 0, "type": "electric_scooter", "is_reserved": 0, "fusion_lon": 0.0, "lat": 38.91621116666666, "rental_uris": {"ios": "https://dc.lft.to/lastmile_qr_scan", "android": "https://dc.lft.to/lastmile_qr_scan"}, "bike_id": "497c6d1fd56da90acaa0ceaa1e7d3d8f", "fusion_lat": 0.0}, {"lon": -77.02214216666667, "name": "9515542698226e8a97340b10b4262ece", "is_disabled": 0, "type": "electric_scooter", "is_reserved": 0, "fusion_lon": 0.0, "lat": 38.924614, "rental_uris": {"ios": "https://dc.lft.to/lastmile_qr_scan", "android": "https://dc.lft.to/lastmile_qr_scan"}, "bike_id": "9515542698226e8a97340b10b4262ece", "fusion_lat": 0.0}, {"lon": -77.02953783333334, "name": "7b77dc04d6ca9d4b483b2c3237d6d1f4", "is_disabled": 0, "type": "electric_scooter", "is_reserved": 0, "fusion_lon": 0.0, "lat": 38.943051833333335, "rental_uris": {"ios": "https://dc.lft.to/lastmile_qr_scan", "android": "https://dc.lft.to/lastmile_qr_scan"}, "bike_id": "7b77dc04d6ca9d4b483b2c3237d6d1f4", "fusion_lat": 0.0}, {"lon": -77.04177683333333, "name": "5ec10c2a44fb9ea42fd1fc7d0a1c66dc", "is_disabled": 0, "type": "electric_scooter", "is_reserved": 0, "fusion_lon": 0.0, "lat": 38.91929533333333, "rental_uris": {"ios": "https://dc.lft.to/lastmile_qr_scan", "android": "https://dc.lft.to/lastmile_qr_scan"}, "bike_id": "5ec10c2a44fb9ea42fd1fc7d0a1c66dc", "fusion_lat": 0.0}, {"lon": -77.02129, "name": "acd0807e031a3985a9b8800f3af8cf72", "is_disabled": 0, "type": "electric_scooter", "is_reserved": 0, "fusion_lon": 0.0, "lat": 38.9227325, "rental_uris": {"ios": "https://dc.lft.to/lastmile_qr_scan", "android": "https://dc.lft.to/lastmile_qr_scan"}, "bike_id": "acd0807e031a3985a9b8800f3af8cf72", "fusion_lat": 0.0}, {"lon": -76.98084233333333, "name": "97b304d0d9b3d43319988510693f4225", "is_disabled": 0, "type": "electric_scooter", "is_reserved": 0, "fusion_lon": 0.0, "lat": 38.89438616666666, "rental_uris": {"ios": "https://dc.lft.to/lastmile_qr_scan", "android": "https://dc.lft.to/lastmile_qr_scan"}, "bike_id": "97b304d0d9b3d43319988510693f4225", "fusion_lat": 0.0}, {"lon": -77.01861933333333, "name": "330a17add68c274a176b236c9ad9a8d4", "is_disabled": 0, "type": "electric_scooter", "is_reserved": 0, "fusion_lon": 0.0, "lat": 38.914924166666665, "rental_uris": {"ios": "https://dc.lft.to/lastmile_qr_scan", "android": "https://dc.lft.to/lastmile_qr_scan"}, "bike_id": "330a17add68c274a176b236c9ad9a8d4", "fusion_lat": 0.0}, {"lon": -77.090476, "name": "48842c86e16412a3a4eda1286d4ede17", "is_disabled": 0, "type": "electric_bike", "is_reserved": 0, "fusion_lon": 0.0, "lat": 38.84146833333333, "rental_uris": {"ios": "https://dc.lft.to/lastmile_qr_scan", "android": "https://dc.lft.to/lastmile_qr_scan"}, "bike_id": "48842c86e16412a3a4eda1286d4ede17", "fusion_lat": 0.0}, {"lon": -77.0237345, "name": "07f918267de185c9061b240860559144", "is_disabled": 0, "type": "electric_scooter", "is_reserved": 0, "fusion_lon": 0.0, "lat": 38.91783133333333, "rental_uris": {"ios": "https://dc.lft.to/lastmile_qr_scan", "android": "https://dc.lft.to/lastmile_qr_scan"}, "bike_id": "07f918267de185c9061b240860559144", "fusion_lat": 0.0}, {"lon": -77.03628633333334, "name": "671c1ce0ac36ae5903e6f12296f12201", "is_disabled": 0, "type": "electric_scooter", "is_reserved": 0, "fusion_lon": 0.0, "lat": 38.94607833333333, "rental_uris": {"ios": "https://dc.lft.to/lastmile_qr_scan", "android": "https://dc.lft.to/lastmile_qr_scan"}, "bike_id": "671c1ce0ac36ae5903e6f12296f12201", "fusion_lat": 0.0}, {"lon": -77.0422515, "name": "b27a445ff6c387398c7e9530edc6c173", "is_disabled": 0, "type": "electric_scooter", "is_reserved": 0, "fusion_lon": 0.0, "lat": 38.921491333333336, "rental_uris": {"ios": "https://dc.lft.to/lastmile_qr_scan", "android": "https://dc.lft.to/lastmile_qr_scan"}, "bike_id": "b27a445ff6c387398c7e9530edc6c173", "fusion_lat": 0.0}, {"lon": -77.021605, "name": "ae21857b3f3eb643de66e50cd41acd96", "is_disabled": 0, "type": "electric_scooter", "is_reserved": 0, "fusion_lon": 0.0, "lat": 38.926119666666665, "rental_uris": {"ios": "https://dc.lft.to/lastmile_qr_scan", "android": "https://dc.lft.to/lastmile_qr_scan"}, "bike_id": "ae21857b3f3eb643de66e50cd41acd96", "fusion_lat": 0.0}, {"lon": -77.004622, "name": "d18a2f75f1f232f763dbfe0d9a7f2cef", "is_disabled": 0, "type": "electric_scooter", "is_reserved": 0, "fusion_lon": 0.0, "lat": 38.8771355, "rental_uris": {"ios": "https://dc.lft.to/lastmile_qr_scan", "android": "https://dc.lft.to/lastmile_qr_scan"}, "bike_id": "d18a2f75f1f232f763dbfe0d9a7f2cef", "fusion_lat": 0.0}, {"lon": -77.019538, "name": "80886e767dbf924ef5f62a30d1c5ef01", "is_disabled": 0, "type": "electric_scooter", "is_reserved": 0, "fusion_lon": 0.0, "lat": 38.92318816666667, "rental_uris": {"ios": "https://dc.lft.to/lastmile_qr_scan", "android": "https://dc.lft.to/lastmile_qr_scan"}, "bike_id": "80886e767dbf924ef5f62a30d1c5ef01", "fusion_lat": 0.0}, {"lon": -77.05044183333334, "name": "7676d70a718f95c45168762cbeb2d877", "is_disabled": 0, "type": "electric_scooter", "is_reserved": 0, "fusion_lon": 0.0, "lat": 38.903096166666664, "rental_uris": {"ios": "https://dc.lft.to/lastmile_qr_scan", "android": "https://dc.lft.to/lastmile_qr_scan"}, "bike_id": "7676d70a718f95c45168762cbeb2d877", "fusion_lat": 0.0}, {"lon": -77.0202575, "name": "94ab18824900a587e2fbc46e61fedd0f", "is_disabled": 0, "type": "electric_scooter", "is_reserved": 0, "fusion_lon": 0.0, "lat": 38.924358833333336, "rental_uris": {"ios": "https://dc.lft.to/lastmile_qr_scan", "android": "https://dc.lft.to/lastmile_qr_scan"}, "bike_id": "94ab18824900a587e2fbc46e61fedd0f", "fusion_lat": 0.0}, {"lon": -77.057257, "name": "d7880f51731c804d42cbefd4d3272cf7", "is_disabled": 0, "type": "electric_scooter", "is_reserved": 0, "fusion_lon": 0.0, "lat": 38.931306, "rental_uris": {"ios": "https://dc.lft.to/lastmile_qr_scan", "android": "https://dc.lft.to/lastmile_qr_scan"}, "bike_id": "d7880f51731c804d42cbefd4d3272cf7", "fusion_lat": 0.0}, {"lon": -77.01682066666666, "name": "303dd56439a7c7fbf1c6e70e8a4dbd17", "is_disabled": 0, "type": "electric_scooter", "is_reserved": 0, "fusion_lon": 0.0, "lat": 38.920428333333334, "rental_uris": {"ios": "https://dc.lft.to/lastmile_qr_scan", "android": "https://dc.lft.to/lastmile_qr_scan"}, "bike_id": "303dd56439a7c7fbf1c6e70e8a4dbd17", "fusion_lat": 0.0}, {"lon": -77.0253365, "name": "261c1371e4e09b708c0b20d309652e96", "is_disabled": 0, "type": "electric_scooter", "is_reserved": 0, "fusion_lon": 0.0, "lat": 38.91820666666667, "rental_uris": {"ios": "https://dc.lft.to/lastmile_qr_scan", "android": "https://dc.lft.to/lastmile_qr_scan"}, "bike_id": "261c1371e4e09b708c0b20d309652e96", "fusion_lat": 0.0}, {"lon": -76.92587766666666, "name": "892bb92f597a2e3e0073dc3dac786b74", "is_disabled": 0, "type": "electric_scooter", "is_reserved": 0, "fusion_lon": 0.0, "lat": 38.897290166666664, "rental_uris": {"ios": "https://dc.lft.to/lastmile_qr_scan", "android": "https://dc.lft.to/lastmile_qr_scan"}, "bike_id": "892bb92f597a2e3e0073dc3dac786b74", "fusion_lat": 0.0}, {"lon": -77.04227066666667, "name": "7c3ceacfa3305a1fab7a50bcb6b68b10", "is_disabled": 0, "type": "electric_scooter", "is_reserved": 0, "fusion_lon": 0.0, "lat": 38.921629333333335, "rental_uris": {"ios": "https://dc.lft.to/lastmile_qr_scan", "android": "https://dc.lft.to/lastmile_qr_scan"}, "bike_id": "7c3ceacfa3305a1fab7a50bcb6b68b10", "fusion_lat": 0.0}, {"lon": -77.02404216666666, "name": "ed861f5a437d84956ac1ed8891f60149", "is_disabled": 0, "type": "electric_scooter", "is_reserved": 0, "fusion_lon": 0.0, "lat": 38.917565, "rental_uris": {"ios": "https://dc.lft.to/lastmile_qr_scan", "android": "https://dc.lft.to/lastmile_qr_scan"}, "bike_id": "ed861f5a437d84956ac1ed8891f60149", "fusion_lat": 0.0}, {"lon": -77.02246183333334, "name": "83630346ec6c71fac4de2920a1a321d2", "is_disabled": 0, "type": "electric_scooter", "is_reserved": 0, "fusion_lon": 0.0, "lat": 38.92426116666667, "rental_uris": {"ios": "https://dc.lft.to/lastmile_qr_scan", "android": "https://dc.lft.to/lastmile_qr_scan"}, "bike_id": "83630346ec6c71fac4de2920a1a321d2", "fusion_lat": 0.0}, {"lon": -77.02932116666666, "name": "7d3f68c232f67f4e45eee2d446896c36", "is_disabled": 0, "type": "electric_scooter", "is_reserved": 0, "fusion_lon": 0.0, "lat": 38.89834333333334, "rental_uris": {"ios": "https://dc.lft.to/lastmile_qr_scan", "android": "https://dc.lft.to/lastmile_qr_scan"}, "bike_id": "7d3f68c232f67f4e45eee2d446896c36", "fusion_lat": 0.0}, {"lon": -77.02002583333334, "name": "e97ec664fab61bf5d3f825434300c572", "is_disabled": 0, "type": "electric_scooter", "is_reserved": 0, "fusion_lon": 0.0, "lat": 38.9109915, "rental_uris": {"ios": "https://dc.lft.to/lastmile_qr_scan", "android": "https://dc.lft.to/lastmile_qr_scan"}, "bike_id": "e97ec664fab61bf5d3f825434300c572", "fusion_lat": 0.0}, {"lon": -77.02410116666667, "name": "907f3d3099a88db6e3feafa6353541eb", "is_disabled": 0, "type": "electric_scooter", "is_reserved": 0, "fusion_lon": 0.0, "lat": 38.91600066666667, "rental_uris": {"ios": "https://dc.lft.to/lastmile_qr_scan", "android": "https://dc.lft.to/lastmile_qr_scan"}, "bike_id": "907f3d3099a88db6e3feafa6353541eb", "fusion_lat": 0.0}, {"lon": -76.9969925, "name": "e0a3b718ac4f816d199c9965cc439a6f", "is_disabled": 0, "type": "electric_bike", "is_reserved": 0, "fusion_lon": 0.0, "lat": 38.838657, "rental_uris": {"ios": "https://dc.lft.to/lastmile_qr_scan", "android": "https://dc.lft.to/lastmile_qr_scan"}, "bike_id": "e0a3b718ac4f816d199c9965cc439a6f", "fusion_lat": 0.0}, {"lon": -76.95126616666667, "name": "f2b655fc55e0bea19e40dd7cb9b83b85", "is_disabled": 0, "type": "electric_bike", "is_reserved": 0, "fusion_lon": 0.0, "lat": 38.95184883333334, "rental_uris": {"ios": "https://dc.lft.to/lastmile_qr_scan", "android": "https://dc.lft.to/lastmile_qr_scan"}, "bike_id": "f2b655fc55e0bea19e40dd7cb9b83b85", "fusion_lat": 0.0}, {"lon": -77.06266833333333, "name": "3e32d02b845e98f244ab3510f53ffc10", "is_disabled": 0, "type": "electric_scooter", "is_reserved": 0, "fusion_lon": 0.0, "lat": 38.9055255, "rental_uris": {"ios": "https://dc.lft.to/lastmile_qr_scan", "android": "https://dc.lft.to/lastmile_qr_scan"}, "bike_id": "3e32d02b845e98f244ab3510f53ffc10", "fusion_lat": 0.0}, {"lon": -77.0189035, "name": "99d0aa27a3eb07faaef9530835b3ede1", "is_disabled": 0, "type": "electric_scooter", "is_reserved": 0, "fusion_lon": 0.0, "lat": 38.909123666666666, "rental_uris": {"ios": "https://dc.lft.to/lastmile_qr_scan", "android": "https://dc.lft.to/lastmile_qr_scan"}, "bike_id": "99d0aa27a3eb07faaef9530835b3ede1", "fusion_lat": 0.0}, {"lon": -77.021716, "name": "bd54090ef55e0cdd2b9936526fa0dfa1", "is_disabled": 0, "type": "electric_scooter", "is_reserved": 0, "fusion_lon": 0.0, "lat": 38.901895833333334, "rental_uris": {"ios": "https://dc.lft.to/lastmile_qr_scan", "android": "https://dc.lft.to/lastmile_qr_scan"}, "bike_id": "bd54090ef55e0cdd2b9936526fa0dfa1", "fusion_lat": 0.0}, {"lon": -77.02074133333333, "name": "2acde65aac4e8d49fb929e1197110c7b", "is_disabled": 0, "type": "electric_scooter", "is_reserved": 0, "fusion_lon": 0.0, "lat": 38.922828333333335, "rental_uris": {"ios": "https://dc.lft.to/lastmile_qr_scan", "android": "https://dc.lft.to/lastmile_qr_scan"}, "bike_id": "2acde65aac4e8d49fb929e1197110c7b", "fusion_lat": 0.0}, {"lon": -77.024592, "name": "9e511d5de87a19bc398b2af0bbf91cfc", "is_disabled": 0, "type": "electric_scooter", "is_reserved": 0, "fusion_lon": 0.0, "lat": 38.8937755, "rental_uris": {"ios": "https://dc.lft.to/lastmile_qr_scan", "android": "https://dc.lft.to/lastmile_qr_scan"}, "bike_id": "9e511d5de87a19bc398b2af0bbf91cfc", "fusion_lat": 0.0}, {"lon": -77.02160366666666, "name": "ee2e0eb16c720e25cd02180e65dbb8ed", "is_disabled": 0, "type": "electric_scooter", "is_reserved": 0, "fusion_lon": 0.0, "lat": 38.92612716666667, "rental_uris": {"ios": "https://dc.lft.to/lastmile_qr_scan", "android": "https://dc.lft.to/lastmile_qr_scan"}, "bike_id": "ee2e0eb16c720e25cd02180e65dbb8ed", "fusion_lat": 0.0}, {"lon": -77.0605285, "name": "23fbc6a2fedb329d8e6a02bab10b8383", "is_disabled": 0, "type": "electric_scooter", "is_reserved": 0, "fusion_lon": 0.0, "lat": 38.93931333333333, "rental_uris": {"ios": "https://dc.lft.to/lastmile_qr_scan", "android": "https://dc.lft.to/lastmile_qr_scan"}, "bike_id": "23fbc6a2fedb329d8e6a02bab10b8383", "fusion_lat": 0.0}, {"lon": -77.09451266666666, "name": "376c0512781c98b8809158f72e3fb763", "is_disabled": 0, "type": "electric_bike", "is_reserved": 0, "fusion_lon": 0.0, "lat": 38.89420166666667, "rental_uris": {"ios": "https://dc.lft.to/lastmile_qr_scan", "android": "https://dc.lft.to/lastmile_qr_scan"}, "bike_id": "376c0512781c98b8809158f72e3fb763", "fusion_lat": 0.0}, {"lon": -77.02059683333333, "name": "56bdba1ec444bcd3025b72e4f971bbf0", "is_disabled": 0, "type": "electric_scooter", "is_reserved": 0, "fusion_lon": 0.0, "lat": 38.9214455, "rental_uris": {"ios": "https://dc.lft.to/lastmile_qr_scan", "android": "https://dc.lft.to/lastmile_qr_scan"}, "bike_id": "56bdba1ec444bcd3025b72e4f971bbf0", "fusion_lat": 0.0}, {"lon": -77.021089, "name": "2bd1a16710dd9827ac403aa997eb16e2", "is_disabled": 0, "type": "electric_bike", "is_reserved": 0, "fusion_lon": 0.0, "lat": 39.0229175, "rental_uris": {"ios": "https://dc.lft.to/lastmile_qr_scan", "android": "https://dc.lft.to/lastmile_qr_scan"}, "bike_id": "2bd1a16710dd9827ac403aa997eb16e2", "fusion_lat": 0.0}, {"lon": -76.99901566666666, "name": "9b4819a266ace90ee70f18e184ef0b0d", "is_disabled": 0, "type": "electric_scooter", "is_reserved": 0, "fusion_lon": 0.0, "lat": 38.8910675, "rental_uris": {"ios": "https://dc.lft.to/lastmile_qr_scan", "android": "https://dc.lft.to/lastmile_qr_scan"}, "bike_id": "9b4819a266ace90ee70f18e184ef0b0d", "fusion_lat": 0.0}, {"lon": -77.0347285, "name": "5499a8d61b1c4002889ab9e0aa15d79b", "is_disabled": 0, "type": "electric_scooter", "is_reserved": 0, "fusion_lon": 0.0, "lat": 38.902299666666664, "rental_uris": {"ios": "https://dc.lft.to/lastmile_qr_scan", "android": "https://dc.lft.to/lastmile_qr_scan"}, "bike_id": "5499a8d61b1c4002889ab9e0aa15d79b", "fusion_lat": 0.0}, {"lon": -76.98666283333333, "name": "ae8cff2f05bb4d5f5a8b063c9e6b8b30", "is_disabled": 0, "type": "electric_bike", "is_reserved": 0, "fusion_lon": 0.0, "lat": 38.974743, "rental_uris": {"ios": "https://dc.lft.to/lastmile_qr_scan", "android": "https://dc.lft.to/lastmile_qr_scan"}, "bike_id": "ae8cff2f05bb4d5f5a8b063c9e6b8b30", "fusion_lat": 0.0}, {"lon": -77.23408316666666, "name": "266afc9610abe16b24f4e4a5c3dd5a19", "is_disabled": 0, "type": "electric_bike", "is_reserved": 0, "fusion_lon": 0.0, "lat": 38.875733833333335, "rental_uris": {"ios": "https://dc.lft.to/lastmile_qr_scan", "android": "https://dc.lft.to/lastmile_qr_scan"}, "bike_id": "266afc9610abe16b24f4e4a5c3dd5a19", "fusion_lat": 0.0}, {"lon": -77.07703416666666, "name": "111311a5b3054f483cca382e370c247b", "is_disabled": 0, "type": "electric_scooter", "is_reserved": 0, "fusion_lon": 0.0, "lat": 38.922448, "rental_uris": {"ios": "https://dc.lft.to/lastmile_qr_scan", "android": "https://dc.lft.to/lastmile_qr_scan"}, "bike_id": "111311a5b3054f483cca382e370c247b", "fusion_lat": 0.0}, {"lon": -77.025705, "name": "f7ca4a67a70119413bcb66238381e69a", "is_disabled": 0, "type": "electric_scooter", "is_reserved": 0, "fusion_lon": 0.0, "lat": 38.887434666666664, "rental_uris": {"ios": "https://dc.lft.to/lastmile_qr_scan", "android": "https://dc.lft.to/lastmile_qr_scan"}, "bike_id": "f7ca4a67a70119413bcb66238381e69a", "fusion_lat": 0.0}, {"lon": -77.00553583333334, "name": "92d6ba7b73af477256cb5d5b620c578c", "is_disabled": 0, "type": "electric_bike", "is_reserved": 0, "fusion_lon": 0.0, "lat": 38.927407333333335, "rental_uris": {"ios": "https://dc.lft.to/lastmile_qr_scan", "android": "https://dc.lft.to/lastmile_qr_scan"}, "bike_id": "92d6ba7b73af477256cb5d5b620c578c", "fusion_lat": 0.0}, {"lon": -77.02363416666667, "name": "bbfa82010a5e12938110687618f3b763", "is_disabled": 0, "type": "electric_scooter", "is_reserved": 0, "fusion_lon": 0.0, "lat": 38.90850283333333, "rental_uris": {"ios": "https://dc.lft.to/lastmile_qr_scan", "android": "https://dc.lft.to/lastmile_qr_scan"}, "bike_id": "bbfa82010a5e12938110687618f3b763", "fusion_lat": 0.0}, {"lon": -77.0057065, "name": "86c1a46127f052b9b1cb04009414e330", "is_disabled": 0, "type": "electric_scooter", "is_reserved": 0, "fusion_lon": 0.0, "lat": 38.885024, "rental_uris": {"ios": "https://dc.lft.to/lastmile_qr_scan", "android": "https://dc.lft.to/lastmile_qr_scan"}, "bike_id": "86c1a46127f052b9b1cb04009414e330", "fusion_lat": 0.0}, {"lon": -77.02174266666667, "name": "46cd1342f045269d6e9c26b9228f6801", "is_disabled": 0, "type": "electric_scooter", "is_reserved": 0, "fusion_lon": 0.0, "lat": 38.9198865, "rental_uris": {"ios": "https://dc.lft.to/lastmile_qr_scan", "android": "https://dc.lft.to/lastmile_qr_scan"}, "bike_id": "46cd1342f045269d6e9c26b9228f6801", "fusion_lat": 0.0}, {"lon": -77.0431085, "name": "203c9e429d56f837893ab40e0d18aaf0", "is_disabled": 0, "type": "electric_scooter", "is_reserved": 0, "fusion_lon": 0.0, "lat": 38.923926333333334, "rental_uris": {"ios": "https://dc.lft.to/lastmile_qr_scan", "android": "https://dc.lft.to/lastmile_qr_scan"}, "bike_id": "203c9e429d56f837893ab40e0d18aaf0", "fusion_lat": 0.0}, {"lon": -77.0319805, "name": "0b28d32b0d9b62e96465bdd1ede6a7ee", "is_disabled": 0, "type": "electric_scooter", "is_reserved": 0, "fusion_lon": 0.0, "lat": 38.9229345, "rental_uris": {"ios": "https://dc.lft.to/lastmile_qr_scan", "android": "https://dc.lft.to/lastmile_qr_scan"}, "bike_id": "0b28d32b0d9b62e96465bdd1ede6a7ee", "fusion_lat": 0.0}, {"lon": -76.93930533333334, "name": "8af2d77e53d62cbe8ce16751b938a493", "is_disabled": 0, "type": "electric_scooter", "is_reserved": 0, "fusion_lon": 0.0, "lat": 38.89328483333333, "rental_uris": {"ios": "https://dc.lft.to/lastmile_qr_scan", "android": "https://dc.lft.to/lastmile_qr_scan"}, "bike_id": "8af2d77e53d62cbe8ce16751b938a493", "fusion_lat": 0.0}, {"lon": -77.005826, "name": "431134afec7d694ec3da1c021f1a629e", "is_disabled": 0, "type": "electric_scooter", "is_reserved": 0, "fusion_lon": 0.0, "lat": 38.90233966666667, "rental_uris": {"ios": "https://dc.lft.to/lastmile_qr_scan", "android": "https://dc.lft.to/lastmile_qr_scan"}, "bike_id": "431134afec7d694ec3da1c021f1a629e", "fusion_lat": 0.0}, {"lon": -77.04147033333334, "name": "0e3558a7c5cc723990b688c2acf5832f", "is_disabled": 0, "type": "electric_scooter", "is_reserved": 0, "fusion_lon": 0.0, "lat": 38.90118866666667, "rental_uris": {"ios": "https://dc.lft.to/lastmile_qr_scan", "android": "https://dc.lft.to/lastmile_qr_scan"}, "bike_id": "0e3558a7c5cc723990b688c2acf5832f", "fusion_lat": 0.0}, {"lon": -77.0248835, "name": "3939569e1a7ccb073c4aab368e3012c7", "is_disabled": 0, "type": "electric_scooter", "is_reserved": 0, "fusion_lon": 0.0, "lat": 38.91814633333333, "rental_uris": {"ios": "https://dc.lft.to/lastmile_qr_scan", "android": "https://dc.lft.to/lastmile_qr_scan"}, "bike_id": "3939569e1a7ccb073c4aab368e3012c7", "fusion_lat": 0.0}, {"lon": -77.040083, "name": "39b25a876656ba2157f3a93bb7b754a9", "is_disabled": 0, "type": "electric_scooter", "is_reserved": 0, "fusion_lon": 0.0, "lat": 38.916915, "rental_uris": {"ios": "https://dc.lft.to/lastmile_qr_scan", "android": "https://dc.lft.to/lastmile_qr_scan"}, "bike_id": "39b25a876656ba2157f3a93bb7b754a9", "fusion_lat": 0.0}, {"lon": -77.00296233333333, "name": "b4da9d63db59502f7a00e39bfde8d811", "is_disabled": 0, "type": "electric_scooter", "is_reserved": 0, "fusion_lon": 0.0, "lat": 38.89230366666666, "rental_uris": {"ios": "https://dc.lft.to/lastmile_qr_scan", "android": "https://dc.lft.to/lastmile_qr_scan"}, "bike_id": "b4da9d63db59502f7a00e39bfde8d811", "fusion_lat": 0.0}, {"lon": -77.0472175, "name": "8167e22e0fa47145837051d7031a57a5", "is_disabled": 0, "type": "electric_scooter", "is_reserved": 0, "fusion_lon": 0.0, "lat": 38.8996395, "rental_uris": {"ios": "https://dc.lft.to/lastmile_qr_scan", "android": "https://dc.lft.to/lastmile_qr_scan"}, "bike_id": "8167e22e0fa47145837051d7031a57a5", "fusion_lat": 0.0}, {"lon": -76.98488966666666, "name": "be26b908304bb3dc88e2b50e936d7b3e", "is_disabled": 0, "type": "electric_scooter", "is_reserved": 0, "fusion_lon": 0.0, "lat": 38.92030583333333, "rental_uris": {"ios": "https://dc.lft.to/lastmile_qr_scan", "android": "https://dc.lft.to/lastmile_qr_scan"}, "bike_id": "be26b908304bb3dc88e2b50e936d7b3e", "fusion_lat": 0.0}, {"lon": -77.03264883333334, "name": "ed43e0db4a60e077518e53a51fd6c572", "is_disabled": 0, "type": "electric_scooter", "is_reserved": 0, "fusion_lon": 0.0, "lat": 38.93251683333333, "rental_uris": {"ios": "https://dc.lft.to/lastmile_qr_scan", "android": "https://dc.lft.to/lastmile_qr_scan"}, "bike_id": "ed43e0db4a60e077518e53a51fd6c572", "fusion_lat": 0.0}, {"lon": -77.013729, "name": "384e3fb3710718b56c32d47d727fa240", "is_disabled": 0, "type": "electric_scooter", "is_reserved": 0, "fusion_lon": 0.0, "lat": 38.91330816666667, "rental_uris": {"ios": "https://dc.lft.to/lastmile_qr_scan", "android": "https://dc.lft.to/lastmile_qr_scan"}, "bike_id": "384e3fb3710718b56c32d47d727fa240", "fusion_lat": 0.0}, {"lon": -77.0640245, "name": "974dc0e7b04a35e87f012a2fc925a4d5", "is_disabled": 0, "type": "electric_scooter", "is_reserved": 0, "fusion_lon": 0.0, "lat": 38.90679866666667, "rental_uris": {"ios": "https://dc.lft.to/lastmile_qr_scan", "android": "https://dc.lft.to/lastmile_qr_scan"}, "bike_id": "974dc0e7b04a35e87f012a2fc925a4d5", "fusion_lat": 0.0}, {"lon": -77.03502916666666, "name": "c6b027f232852d4c23c6f96ba067f513", "is_disabled": 0, "type": "electric_scooter", "is_reserved": 0, "fusion_lon": 0.0, "lat": 38.901390166666665, "rental_uris": {"ios": "https://dc.lft.to/lastmile_qr_scan", "android": "https://dc.lft.to/lastmile_qr_scan"}, "bike_id": "c6b027f232852d4c23c6f96ba067f513", "fusion_lat": 0.0}, {"lon": -77.02418316666666, "name": "b850b96e67ab9112818250efc27f9274", "is_disabled": 0, "type": "electric_scooter", "is_reserved": 0, "fusion_lon": 0.0, "lat": 38.921425666666664, "rental_uris": {"ios": "https://dc.lft.to/lastmile_qr_scan", "android": "https://dc.lft.to/lastmile_qr_scan"}, "bike_id": "b850b96e67ab9112818250efc27f9274", "fusion_lat": 0.0}, {"lon": -77.04173433333334, "name": "15f83d3abaa5fea2790719c210cbe410", "is_disabled": 0, "type": "electric_scooter", "is_reserved": 0, "fusion_lon": 0.0, "lat": 38.919234333333335, "rental_uris": {"ios": "https://dc.lft.to/lastmile_qr_scan", "android": "https://dc.lft.to/lastmile_qr_scan"}, "bike_id": "15f83d3abaa5fea2790719c210cbe410", "fusion_lat": 0.0}, {"lon": -77.06414083333334, "name": "97ccea48be167b502a1d1bca6fcb00ce", "is_disabled": 0, "type": "electric_bike", "is_reserved": 0, "fusion_lon": 0.0, "lat": 38.980079833333335, "rental_uris": {"ios": "https://dc.lft.to/lastmile_qr_scan", "android": "https://dc.lft.to/lastmile_qr_scan"}, "bike_id": "97ccea48be167b502a1d1bca6fcb00ce", "fusion_lat": 0.0}, {"lon": -77.0019465, "name": "d28a65efca8c5605a65ad22a88f9f0d8", "is_disabled": 0, "type": "electric_scooter", "is_reserved": 0, "fusion_lon": 0.0, "lat": 38.89480666666667, "rental_uris": {"ios": "https://dc.lft.to/lastmile_qr_scan", "android": "https://dc.lft.to/lastmile_qr_scan"}, "bike_id": "d28a65efca8c5605a65ad22a88f9f0d8", "fusion_lat": 0.0}, {"lon": -77.09877216666666, "name": "d9ced86fc45e20852d7c7d0537cf4964", "is_disabled": 0, "type": "electric_bike", "is_reserved": 0, "fusion_lon": 0.0, "lat": 38.947160833333335, "rental_uris": {"ios": "https://dc.lft.to/lastmile_qr_scan", "android": "https://dc.lft.to/lastmile_qr_scan"}, "bike_id": "d9ced86fc45e20852d7c7d0537cf4964", "fusion_lat": 0.0}, {"lon": -77.005645, "name": "b786e872eb867cc778a8cbb98bba74b1", "is_disabled": 0, "type": "electric_scooter", "is_reserved": 0, "fusion_lon": 0.0, "lat": 38.896105666666664, "rental_uris": {"ios": "https://dc.lft.to/lastmile_qr_scan", "android": "https://dc.lft.to/lastmile_qr_scan"}, "bike_id": "b786e872eb867cc778a8cbb98bba74b1", "fusion_lat": 0.0}, {"lon": -77.02556016666666, "name": "8cd895cc9196e629aa26a3867d6b4a78", "is_disabled": 0, "type": "electric_scooter", "is_reserved": 0, "fusion_lon": 0.0, "lat": 38.923695, "rental_uris": {"ios": "https://dc.lft.to/lastmile_qr_scan", "android": "https://dc.lft.to/lastmile_qr_scan"}, "bike_id": "8cd895cc9196e629aa26a3867d6b4a78", "fusion_lat": 0.0}, {"lon": -76.9755985, "name": "10794d4f0811bbc923e68a2b544e0be0", "is_disabled": 0, "type": "electric_bike", "is_reserved": 0, "fusion_lon": 0.0, "lat": 38.924535, "rental_uris": {"ios": "https://dc.lft.to/lastmile_qr_scan", "android": "https://dc.lft.to/lastmile_qr_scan"}, "bike_id": "10794d4f0811bbc923e68a2b544e0be0", "fusion_lat": 0.0}, {"lon": -77.03218466666667, "name": "6b7b10e9f394bf0de5176602a98ba33b", "is_disabled": 0, "type": "electric_scooter", "is_reserved": 0, "fusion_lon": 0.0, "lat": 38.91264666666667, "rental_uris": {"ios": "https://dc.lft.to/lastmile_qr_scan", "android": "https://dc.lft.to/lastmile_qr_scan"}, "bike_id": "6b7b10e9f394bf0de5176602a98ba33b", "fusion_lat": 0.0}, {"lon": -76.99382083333333, "name": "0ff1fb3b4dee6b2dc54d364d2665dba2", "is_disabled": 0, "type": "electric_scooter", "is_reserved": 0, "fusion_lon": 0.0, "lat": 38.89340583333333, "rental_uris": {"ios": "https://dc.lft.to/lastmile_qr_scan", "android": "https://dc.lft.to/lastmile_qr_scan"}, "bike_id": "0ff1fb3b4dee6b2dc54d364d2665dba2", "fusion_lat": 0.0}, {"lon": -77.01853866666667, "name": "1108c511df93fd1e7ac182e3cdcf455b", "is_disabled": 0, "type": "electric_scooter", "is_reserved": 0, "fusion_lon": 0.0, "lat": 38.9488785, "rental_uris": {"ios": "https://dc.lft.to/lastmile_qr_scan", "android": "https://dc.lft.to/lastmile_qr_scan"}, "bike_id": "1108c511df93fd1e7ac182e3cdcf455b", "fusion_lat": 0.0}, {"lon": -77.03192683333333, "name": "3c669065bb4bf0f0a4bd765352754b32", "is_disabled": 0, "type": "electric_scooter", "is_reserved": 0, "fusion_lon": 0.0, "lat": 38.91638366666667, "rental_uris": {"ios": "https://dc.lft.to/lastmile_qr_scan", "android": "https://dc.lft.to/lastmile_qr_scan"}, "bike_id": "3c669065bb4bf0f0a4bd765352754b32", "fusion_lat": 0.0}, {"lon": -76.975685, "name": "e8e6e776be3f37bc39405a94a96d0ae5", "is_disabled": 0, "type": "electric_bike", "is_reserved": 0, "fusion_lon": 0.0, "lat": 38.872634166666664, "rental_uris": {"ios": "https://dc.lft.to/lastmile_qr_scan", "android": "https://dc.lft.to/lastmile_qr_scan"}, "bike_id": "e8e6e776be3f37bc39405a94a96d0ae5", "fusion_lat": 0.0}, {"lon": -76.99101166666667, "name": "4e32d8eecbf33197ad644ad938a25e50", "is_disabled": 0, "type": "electric_bike", "is_reserved": 0, "fusion_lon": 0.0, "lat": 38.80482833333333, "rental_uris": {"ios": "https://dc.lft.to/lastmile_qr_scan", "android": "https://dc.lft.to/lastmile_qr_scan"}, "bike_id": "4e32d8eecbf33197ad644ad938a25e50", "fusion_lat": 0.0}, {"lon": -76.98730466666666, "name": "2ccc54ec4552235002973c387854501d", "is_disabled": 0, "type": "electric_bike", "is_reserved": 0, "fusion_lon": 0.0, "lat": 38.86326966666667, "rental_uris": {"ios": "https://dc.lft.to/lastmile_qr_scan", "android": "https://dc.lft.to/lastmile_qr_scan"}, "bike_id": "2ccc54ec4552235002973c387854501d", "fusion_lat": 0.0}, {"lon": -77.01270633333333, "name": "a54342f597da80c5401c9604bb50a288", "is_disabled": 0, "type": "electric_scooter", "is_reserved": 0, "fusion_lon": 0.0, "lat": 38.86453266666667, "rental_uris": {"ios": "https://dc.lft.to/lastmile_qr_scan", "android": "https://dc.lft.to/lastmile_qr_scan"}, "bike_id": "a54342f597da80c5401c9604bb50a288", "fusion_lat": 0.0}, {"lon": -77.00360666666667, "name": "8531c0f67381b7462076fd69a7ed3a61", "is_disabled": 0, "type": "electric_scooter", "is_reserved": 0, "fusion_lon": 0.0, "lat": 38.917662, "rental_uris": {"ios": "https://dc.lft.to/lastmile_qr_scan", "android": "https://dc.lft.to/lastmile_qr_scan"}, "bike_id": "8531c0f67381b7462076fd69a7ed3a61", "fusion_lat": 0.0}, {"lon": -77.025476, "name": "93071e3f45a5c0dc939c1361f1e056a5", "is_disabled": 0, "type": "electric_scooter", "is_reserved": 0, "fusion_lon": 0.0, "lat": 38.92243233333333, "rental_uris": {"ios": "https://dc.lft.to/lastmile_qr_scan", "android": "https://dc.lft.to/lastmile_qr_scan"}, "bike_id": "93071e3f45a5c0dc939c1361f1e056a5", "fusion_lat": 0.0}, {"lon": -77.025579, "name": "b9180749a63fc2d9cbfcdc8dd47ba5e2", "is_disabled": 0, "type": "electric_scooter", "is_reserved": 0, "fusion_lon": 0.0, "lat": 38.941642333333334, "rental_uris": {"ios": "https://dc.lft.to/lastmile_qr_scan", "android": "https://dc.lft.to/lastmile_qr_scan"}, "bike_id": "b9180749a63fc2d9cbfcdc8dd47ba5e2", "fusion_lat": 0.0}, {"lon": -76.98389633333333, "name": "4c28463c7a39ceb8f825ddc08f9c8939", "is_disabled": 0, "type": "electric_scooter", "is_reserved": 0, "fusion_lon": 0.0, "lat": 38.90649283333333, "rental_uris": {"ios": "https://dc.lft.to/lastmile_qr_scan", "android": "https://dc.lft.to/lastmile_qr_scan"}, "bike_id": "4c28463c7a39ceb8f825ddc08f9c8939", "fusion_lat": 0.0}, {"lon": -77.0282065, "name": "3405230d606a1cdcb40a27d14b062b13", "is_disabled": 0, "type": "electric_scooter", "is_reserved": 0, "fusion_lon": 0.0, "lat": 38.906996, "rental_uris": {"ios": "https://dc.lft.to/lastmile_qr_scan", "android": "https://dc.lft.to/lastmile_qr_scan"}, "bike_id": "3405230d606a1cdcb40a27d14b062b13", "fusion_lat": 0.0}, {"lon": -76.9906845, "name": "deb9af04b4fb0177cecff23cc7a26e5e", "is_disabled": 0, "type": "electric_scooter", "is_reserved": 0, "fusion_lon": 0.0, "lat": 38.85621866666666, "rental_uris": {"ios": "https://dc.lft.to/lastmile_qr_scan", "android": "https://dc.lft.to/lastmile_qr_scan"}, "bike_id": "deb9af04b4fb0177cecff23cc7a26e5e", "fusion_lat": 0.0}, {"lon": -76.9610715, "name": "955d6238e0fb072c09340fb8344f3c80", "is_disabled": 0, "type": "electric_scooter", "is_reserved": 0, "fusion_lon": 0.0, "lat": 38.89202366666667, "rental_uris": {"ios": "https://dc.lft.to/lastmile_qr_scan", "android": "https://dc.lft.to/lastmile_qr_scan"}, "bike_id": "955d6238e0fb072c09340fb8344f3c80", "fusion_lat": 0.0}, {"lon": -77.03297683333334, "name": "9d360c27b187c535bdb0f598282c1cab", "is_disabled": 0, "type": "electric_scooter", "is_reserved": 0, "fusion_lon": 0.0, "lat": 38.899257166666665, "rental_uris": {"ios": "https://dc.lft.to/lastmile_qr_scan", "android": "https://dc.lft.to/lastmile_qr_scan"}, "bike_id": "9d360c27b187c535bdb0f598282c1cab", "fusion_lat": 0.0}, {"lon": -76.98610616666667, "name": "2296b5ddce62976f126ee76b5ec1c0d5", "is_disabled": 0, "type": "electric_scooter", "is_reserved": 0, "fusion_lon": 0.0, "lat": 38.906576, "rental_uris": {"ios": "https://dc.lft.to/lastmile_qr_scan", "android": "https://dc.lft.to/lastmile_qr_scan"}, "bike_id": "2296b5ddce62976f126ee76b5ec1c0d5", "fusion_lat": 0.0}, {"lon": -77.022213, "name": "195305d74896248773765a62f3047d57", "is_disabled": 0, "type": "electric_scooter", "is_reserved": 0, "fusion_lon": 0.0, "lat": 38.924707833333336, "rental_uris": {"ios": "https://dc.lft.to/lastmile_qr_scan", "android": "https://dc.lft.to/lastmile_qr_scan"}, "bike_id": "195305d74896248773765a62f3047d57", "fusion_lat": 0.0}, {"lon": -77.02204883333333, "name": "9ccc80f412e4245e48d51b73d9195050", "is_disabled": 0, "type": "electric_scooter", "is_reserved": 0, "fusion_lon": 0.0, "lat": 38.924685833333335, "rental_uris": {"ios": "https://dc.lft.to/lastmile_qr_scan", "android": "https://dc.lft.to/lastmile_qr_scan"}, "bike_id": "9ccc80f412e4245e48d51b73d9195050", "fusion_lat": 0.0}, {"lon": -76.99162, "name": "759e462c1c6cefe5f3a1a6f115fa026c", "is_disabled": 0, "type": "electric_scooter", "is_reserved": 0, "fusion_lon": 0.0, "lat": 38.873424666666665, "rental_uris": {"ios": "https://dc.lft.to/lastmile_qr_scan", "android": "https://dc.lft.to/lastmile_qr_scan"}, "bike_id": "759e462c1c6cefe5f3a1a6f115fa026c", "fusion_lat": 0.0}, {"lon": -77.02112866666667, "name": "da68266625dc8ffded8fc6cd45bad6e6", "is_disabled": 0, "type": "electric_scooter", "is_reserved": 0, "fusion_lon": 0.0, "lat": 38.927828, "rental_uris": {"ios": "https://dc.lft.to/lastmile_qr_scan", "android": "https://dc.lft.to/lastmile_qr_scan"}, "bike_id": "da68266625dc8ffded8fc6cd45bad6e6", "fusion_lat": 0.0}, {"lon": -76.9979815, "name": "45b970c9642fc5c0a0581469f51d37ec", "is_disabled": 0, "type": "electric_bike", "is_reserved": 0, "fusion_lon": 0.0, "lat": 38.998002166666666, "rental_uris": {"ios": "https://dc.lft.to/lastmile_qr_scan", "android": "https://dc.lft.to/lastmile_qr_scan"}, "bike_id": "45b970c9642fc5c0a0581469f51d37ec", "fusion_lat": 0.0}, {"lon": -77.04348616666667, "name": "c7f4ab3389d271800979c3c50a80b09c", "is_disabled": 0, "type": "electric_scooter", "is_reserved": 0, "fusion_lon": 0.0, "lat": 38.904042833333335, "rental_uris": {"ios": "https://dc.lft.to/lastmile_qr_scan", "android": "https://dc.lft.to/lastmile_qr_scan"}, "bike_id": "c7f4ab3389d271800979c3c50a80b09c", "fusion_lat": 0.0}, {"lon": -77.021584, "name": "6d05ef024c7bab17775c5d8e01db4bdb", "is_disabled": 0, "type": "electric_scooter", "is_reserved": 0, "fusion_lon": 0.0, "lat": 38.92601716666667, "rental_uris": {"ios": "https://dc.lft.to/lastmile_qr_scan", "android": "https://dc.lft.to/lastmile_qr_scan"}, "bike_id": "6d05ef024c7bab17775c5d8e01db4bdb", "fusion_lat": 0.0}, {"lon": -77.03876966666667, "name": "b08529be444ca83b3a800cd742ffeda9", "is_disabled": 0, "type": "electric_scooter", "is_reserved": 0, "fusion_lon": 0.0, "lat": 38.902940666666666, "rental_uris": {"ios": "https://dc.lft.to/lastmile_qr_scan", "android": "https://dc.lft.to/lastmile_qr_scan"}, "bike_id": "b08529be444ca83b3a800cd742ffeda9", "fusion_lat": 0.0}, {"lon": -77.05262083333334, "name": "8577dc941cbefb13d39e3a1ceb66ed0e", "is_disabled": 0, "type": "electric_scooter", "is_reserved": 0, "fusion_lon": 0.0, "lat": 38.9097425, "rental_uris": {"ios": "https://dc.lft.to/lastmile_qr_scan", "android": "https://dc.lft.to/lastmile_qr_scan"}, "bike_id": "8577dc941cbefb13d39e3a1ceb66ed0e", "fusion_lat": 0.0}, {"lon": -77.02821066666667, "name": "a0d28035adef958237372db73f64dfa5", "is_disabled": 0, "type": "electric_scooter", "is_reserved": 0, "fusion_lon": 0.0, "lat": 38.90259916666667, "rental_uris": {"ios": "https://dc.lft.to/lastmile_qr_scan", "android": "https://dc.lft.to/lastmile_qr_scan"}, "bike_id": "a0d28035adef958237372db73f64dfa5", "fusion_lat": 0.0}, {"lon": -77.02314083333333, "name": "272ecf630b8a764a2eb5d214667cf4f6", "is_disabled": 0, "type": "electric_scooter", "is_reserved": 0, "fusion_lon": 0.0, "lat": 38.9007585, "rental_uris": {"ios": "https://dc.lft.to/lastmile_qr_scan", "android": "https://dc.lft.to/lastmile_qr_scan"}, "bike_id": "272ecf630b8a764a2eb5d214667cf4f6", "fusion_lat": 0.0}, {"lon": -77.021663, "name": "c8b25b604095f3af09a1ea7317059328", "is_disabled": 0, "type": "electric_scooter", "is_reserved": 0, "fusion_lon": 0.0, "lat": 38.930732166666665, "rental_uris": {"ios": "https://dc.lft.to/lastmile_qr_scan", "android": "https://dc.lft.to/lastmile_qr_scan"}, "bike_id": "c8b25b604095f3af09a1ea7317059328", "fusion_lat": 0.0}, {"lon": -76.99607466666667, "name": "779a941051a7b663297da5a34271633c", "is_disabled": 0, "type": "electric_scooter", "is_reserved": 0, "fusion_lon": 0.0, "lat": 38.90139816666667, "rental_uris": {"ios": "https://dc.lft.to/lastmile_qr_scan", "android": "https://dc.lft.to/lastmile_qr_scan"}, "bike_id": "779a941051a7b663297da5a34271633c", "fusion_lat": 0.0}, {"lon": -77.03186383333333, "name": "412c8cf88b423ce54dc987b6291a011f", "is_disabled": 0, "type": "electric_scooter", "is_reserved": 0, "fusion_lon": 0.0, "lat": 38.89238, "rental_uris": {"ios": "https://dc.lft.to/lastmile_qr_scan", "android": "https://dc.lft.to/lastmile_qr_scan"}, "bike_id": "412c8cf88b423ce54dc987b6291a011f", "fusion_lat": 0.0}, {"lon": -77.02813666666667, "name": "df7f9c45ebd9986666fd8a1ee5fdade0", "is_disabled": 0, "type": "electric_scooter", "is_reserved": 0, "fusion_lon": 0.0, "lat": 38.92231483333333, "rental_uris": {"ios": "https://dc.lft.to/lastmile_qr_scan", "android": "https://dc.lft.to/lastmile_qr_scan"}, "bike_id": "df7f9c45ebd9986666fd8a1ee5fdade0", "fusion_lat": 0.0}, {"lon": -77.0281575, "name": "6ac5324c5ba2f204b488276330dd78a0", "is_disabled": 0, "type": "electric_scooter", "is_reserved": 0, "fusion_lon": 0.0, "lat": 38.907052666666665, "rental_uris": {"ios": "https://dc.lft.to/lastmile_qr_scan", "android": "https://dc.lft.to/lastmile_qr_scan"}, "bike_id": "6ac5324c5ba2f204b488276330dd78a0", "fusion_lat": 0.0}, {"lon": -76.94075933333333, "name": "c91d98005b9b701d4978dadec5efc736", "is_disabled": 0, "type": "electric_scooter", "is_reserved": 0, "fusion_lon": 0.0, "lat": 38.89984833333333, "rental_uris": {"ios": "https://dc.lft.to/lastmile_qr_scan", "android": "https://dc.lft.to/lastmile_qr_scan"}, "bike_id": "c91d98005b9b701d4978dadec5efc736", "fusion_lat": 0.0}, {"lon": -77.01073516666666, "name": "4bd20746de85baaf76294cc585c367d2", "is_disabled": 0, "type": "electric_scooter", "is_reserved": 0, "fusion_lon": 0.0, "lat": 38.8731345, "rental_uris": {"ios": "https://dc.lft.to/lastmile_qr_scan", "android": "https://dc.lft.to/lastmile_qr_scan"}, "bike_id": "4bd20746de85baaf76294cc585c367d2", "fusion_lat": 0.0}, {"lon": -77.03952166666667, "name": "8a076c0675b20c8612ac9d551a0f303a", "is_disabled": 0, "type": "electric_scooter", "is_reserved": 0, "fusion_lon": 0.0, "lat": 38.919253833333336, "rental_uris": {"ios": "https://dc.lft.to/lastmile_qr_scan", "android": "https://dc.lft.to/lastmile_qr_scan"}, "bike_id": "8a076c0675b20c8612ac9d551a0f303a", "fusion_lat": 0.0}, {"lon": -77.0395625, "name": "ccf2e74bc702719d46499eca086cd7ef", "is_disabled": 0, "type": "electric_scooter", "is_reserved": 0, "fusion_lon": 0.0, "lat": 38.89861233333333, "rental_uris": {"ios": "https://dc.lft.to/lastmile_qr_scan", "android": "https://dc.lft.to/lastmile_qr_scan"}, "bike_id": "ccf2e74bc702719d46499eca086cd7ef", "fusion_lat": 0.0}, {"lon": -77.04200383333334, "name": "56a6060bf3e94280dce16dbc1c49cecb", "is_disabled": 0, "type": "electric_scooter", "is_reserved": 0, "fusion_lon": 0.0, "lat": 38.920620166666666, "rental_uris": {"ios": "https://dc.lft.to/lastmile_qr_scan", "android": "https://dc.lft.to/lastmile_qr_scan"}, "bike_id": "56a6060bf3e94280dce16dbc1c49cecb", "fusion_lat": 0.0}, {"lon": -77.02669883333333, "name": "d3c0f1744f23bc744dd1767480958a54", "is_disabled": 0, "type": "electric_scooter", "is_reserved": 0, "fusion_lon": 0.0, "lat": 38.9320755, "rental_uris": {"ios": "https://dc.lft.to/lastmile_qr_scan", "android": "https://dc.lft.to/lastmile_qr_scan"}, "bike_id": "d3c0f1744f23bc744dd1767480958a54", "fusion_lat": 0.0}, {"lon": -77.04311916666667, "name": "15ad82fd451f5e5d42e3cddb191e237a", "is_disabled": 0, "type": "electric_bike", "is_reserved": 0, "fusion_lon": 0.0, "lat": 39.034267, "rental_uris": {"ios": "https://dc.lft.to/lastmile_qr_scan", "android": "https://dc.lft.to/lastmile_qr_scan"}, "bike_id": "15ad82fd451f5e5d42e3cddb191e237a", "fusion_lat": 0.0}, {"lon": -77.00142383333333, "name": "98a6838b51d7bc5f213f104db7071e85", "is_disabled": 0, "type": "electric_scooter", "is_reserved": 0, "fusion_lon": 0.0, "lat": 38.873733666666666, "rental_uris": {"ios": "https://dc.lft.to/lastmile_qr_scan", "android": "https://dc.lft.to/lastmile_qr_scan"}, "bike_id": "98a6838b51d7bc5f213f104db7071e85", "fusion_lat": 0.0}, {"lon": -77.021372, "name": "f906b7327965da4b01070acf12b4577d", "is_disabled": 0, "type": "electric_scooter", "is_reserved": 0, "fusion_lon": 0.0, "lat": 38.9236855, "rental_uris": {"ios": "https://dc.lft.to/lastmile_qr_scan", "android": "https://dc.lft.to/lastmile_qr_scan"}, "bike_id": "f906b7327965da4b01070acf12b4577d", "fusion_lat": 0.0}, {"lon": -77.0030245, "name": "5124a9f374986574621bf8ca526a1fed", "is_disabled": 0, "type": "electric_scooter", "is_reserved": 0, "fusion_lon": 0.0, "lat": 38.87666733333333, "rental_uris": {"ios": "https://dc.lft.to/lastmile_qr_scan", "android": "https://dc.lft.to/lastmile_qr_scan"}, "bike_id": "5124a9f374986574621bf8ca526a1fed", "fusion_lat": 0.0}, {"lon": -77.03379833333334, "name": "b0784ab23bd708f821c253605ca1e7f2", "is_disabled": 0, "type": "electric_scooter", "is_reserved": 0, "fusion_lon": 0.0, "lat": 38.921564833333335, "rental_uris": {"ios": "https://dc.lft.to/lastmile_qr_scan", "android": "https://dc.lft.to/lastmile_qr_scan"}, "bike_id": "b0784ab23bd708f821c253605ca1e7f2", "fusion_lat": 0.0}, {"lon": -77.04194683333333, "name": "72334cc340c51428a66b2f1e43da8256", "is_disabled": 0, "type": "electric_scooter", "is_reserved": 0, "fusion_lon": 0.0, "lat": 38.92057066666667, "rental_uris": {"ios": "https://dc.lft.to/lastmile_qr_scan", "android": "https://dc.lft.to/lastmile_qr_scan"}, "bike_id": "72334cc340c51428a66b2f1e43da8256", "fusion_lat": 0.0}, {"lon": -77.04197583333334, "name": "bb81e92f2a49373deaa17bbac76dbdf1", "is_disabled": 0, "type": "electric_scooter", "is_reserved": 0, "fusion_lon": 0.0, "lat": 38.92062083333333, "rental_uris": {"ios": "https://dc.lft.to/lastmile_qr_scan", "android": "https://dc.lft.to/lastmile_qr_scan"}, "bike_id": "bb81e92f2a49373deaa17bbac76dbdf1", "fusion_lat": 0.0}, {"lon": -77.03853616666666, "name": "bc6b3a97080cd13acb9b07e77b411bd0", "is_disabled": 0, "type": "electric_scooter", "is_reserved": 0, "fusion_lon": 0.0, "lat": 38.9166485, "rental_uris": {"ios": "https://dc.lft.to/lastmile_qr_scan", "android": "https://dc.lft.to/lastmile_qr_scan"}, "bike_id": "bc6b3a97080cd13acb9b07e77b411bd0", "fusion_lat": 0.0}, {"lon": -77.039747, "name": "f2e7495f9dc74a4aedafab82a345e844", "is_disabled": 0, "type": "electric_scooter", "is_reserved": 0, "fusion_lon": 0.0, "lat": 38.903728, "rental_uris": {"ios": "https://dc.lft.to/lastmile_qr_scan", "android": "https://dc.lft.to/lastmile_qr_scan"}, "bike_id": "f2e7495f9dc74a4aedafab82a345e844", "fusion_lat": 0.0}, {"lon": -76.9741605, "name": "ee1956150e7ba27949888735d8f6bb96", "is_disabled": 0, "type": "electric_scooter", "is_reserved": 0, "fusion_lon": 0.0, "lat": 38.865654166666666, "rental_uris": {"ios": "https://dc.lft.to/lastmile_qr_scan", "android": "https://dc.lft.to/lastmile_qr_scan"}, "bike_id": "ee1956150e7ba27949888735d8f6bb96", "fusion_lat": 0.0}, {"lon": -76.97143533333333, "name": "6b9092c5deb84989188b256b89f9af34", "is_disabled": 0, "type": "electric_scooter", "is_reserved": 0, "fusion_lon": 0.0, "lat": 38.913493333333335, "rental_uris": {"ios": "https://dc.lft.to/lastmile_qr_scan", "android": "https://dc.lft.to/lastmile_qr_scan"}, "bike_id": "6b9092c5deb84989188b256b89f9af34", "fusion_lat": 0.0}, {"lon": -77.05389666666666, "name": "db693d7bbb71d054f391c8a83fcfdfc2", "is_disabled": 0, "type": "electric_scooter", "is_reserved": 0, "fusion_lon": 0.0, "lat": 38.9233275, "rental_uris": {"ios": "https://dc.lft.to/lastmile_qr_scan", "android": "https://dc.lft.to/lastmile_qr_scan"}, "bike_id": "db693d7bbb71d054f391c8a83fcfdfc2", "fusion_lat": 0.0}, {"lon": -76.90756016666667, "name": "136ac43fd9f49dbc9daa6ec1d3f0f2ed", "is_disabled": 0, "type": "electric_bike", "is_reserved": 0, "fusion_lon": 0.0, "lat": 38.89613533333333, "rental_uris": {"ios": "https://dc.lft.to/lastmile_qr_scan", "android": "https://dc.lft.to/lastmile_qr_scan"}, "bike_id": "136ac43fd9f49dbc9daa6ec1d3f0f2ed", "fusion_lat": 0.0}, {"lon": -77.03942983333333, "name": "6f8d650d56afd0082f304baa0c94b9b1", "is_disabled": 0, "type": "electric_scooter", "is_reserved": 0, "fusion_lon": 0.0, "lat": 38.908178, "rental_uris": {"ios": "https://dc.lft.to/lastmile_qr_scan", "android": "https://dc.lft.to/lastmile_qr_scan"}, "bike_id": "6f8d650d56afd0082f304baa0c94b9b1", "fusion_lat": 0.0}, {"lon": -77.00614616666667, "name": "b17023b60fd22a44d130ac7dab0dd790", "is_disabled": 0, "type": "electric_scooter", "is_reserved": 0, "fusion_lon": 0.0, "lat": 38.8719725, "rental_uris": {"ios": "https://dc.lft.to/lastmile_qr_scan", "android": "https://dc.lft.to/lastmile_qr_scan"}, "bike_id": "b17023b60fd22a44d130ac7dab0dd790", "fusion_lat": 0.0}, {"lon": -77.02712766666667, "name": "a737f404d83c6f241a2c7cf15452ff64", "is_disabled": 0, "type": "electric_scooter", "is_reserved": 0, "fusion_lon": 0.0, "lat": 38.897360166666665, "rental_uris": {"ios": "https://dc.lft.to/lastmile_qr_scan", "android": "https://dc.lft.to/lastmile_qr_scan"}, "bike_id": "a737f404d83c6f241a2c7cf15452ff64", "fusion_lat": 0.0}, {"lon": -77.049943, "name": "1537e8129dafbe168db12af2a97d6672", "is_disabled": 0, "type": "electric_scooter", "is_reserved": 0, "fusion_lon": 0.0, "lat": 38.90123716666667, "rental_uris": {"ios": "https://dc.lft.to/lastmile_qr_scan", "android": "https://dc.lft.to/lastmile_qr_scan"}, "bike_id": "1537e8129dafbe168db12af2a97d6672", "fusion_lat": 0.0}, {"lon": -77.01782416666667, "name": "07b0e21803f4a12a701799c1d8f8aa45", "is_disabled": 0, "type": "electric_scooter", "is_reserved": 0, "fusion_lon": 0.0, "lat": 38.919932, "rental_uris": {"ios": "https://dc.lft.to/lastmile_qr_scan", "android": "https://dc.lft.to/lastmile_qr_scan"}, "bike_id": "07b0e21803f4a12a701799c1d8f8aa45", "fusion_lat": 0.0}, {"lon": -77.04389583333334, "name": "b5091574b53661169acb18928da9219f", "is_disabled": 0, "type": "electric_scooter", "is_reserved": 0, "fusion_lon": 0.0, "lat": 38.902779, "rental_uris": {"ios": "https://dc.lft.to/lastmile_qr_scan", "android": "https://dc.lft.to/lastmile_qr_scan"}, "bike_id": "b5091574b53661169acb18928da9219f", "fusion_lat": 0.0}, {"lon": -77.01948716666666, "name": "1e4c07e07301f641b6286a66916e6cd4", "is_disabled": 0, "type": "electric_scooter", "is_reserved": 0, "fusion_lon": 0.0, "lat": 38.922556666666665, "rental_uris": {"ios": "https://dc.lft.to/lastmile_qr_scan", "android": "https://dc.lft.to/lastmile_qr_scan"}, "bike_id": "1e4c07e07301f641b6286a66916e6cd4", "fusion_lat": 0.0}, {"lon": -77.03976716666666, "name": "041236486778165d011fdfe70cb8a1b7", "is_disabled": 0, "type": "electric_scooter", "is_reserved": 0, "fusion_lon": 0.0, "lat": 38.920245, "rental_uris": {"ios": "https://dc.lft.to/lastmile_qr_scan", "android": "https://dc.lft.to/lastmile_qr_scan"}, "bike_id": "041236486778165d011fdfe70cb8a1b7", "fusion_lat": 0.0}, {"lon": -77.04748016666667, "name": "70a30d09b63315e5f249aeb8cf6924f3", "is_disabled": 0, "type": "electric_scooter", "is_reserved": 0, "fusion_lon": 0.0, "lat": 38.900395833333334, "rental_uris": {"ios": "https://dc.lft.to/lastmile_qr_scan", "android": "https://dc.lft.to/lastmile_qr_scan"}, "bike_id": "70a30d09b63315e5f249aeb8cf6924f3", "fusion_lat": 0.0}, {"lon": -77.03381983333334, "name": "cb28b56c6640b803dd522b55e01e8e73", "is_disabled": 0, "type": "electric_scooter", "is_reserved": 0, "fusion_lon": 0.0, "lat": 38.92156933333333, "rental_uris": {"ios": "https://dc.lft.to/lastmile_qr_scan", "android": "https://dc.lft.to/lastmile_qr_scan"}, "bike_id": "cb28b56c6640b803dd522b55e01e8e73", "fusion_lat": 0.0}, {"lon": -76.9928805, "name": "4e4c5315c2a3008edc3c9d4055741283", "is_disabled": 0, "type": "electric_scooter", "is_reserved": 0, "fusion_lon": 0.0, "lat": 38.904091333333334, "rental_uris": {"ios": "https://dc.lft.to/lastmile_qr_scan", "android": "https://dc.lft.to/lastmile_qr_scan"}, "bike_id": "4e4c5315c2a3008edc3c9d4055741283", "fusion_lat": 0.0}, {"lon": -77.01273383333333, "name": "50568e25d77cedcc7acb7db51b138fb6", "is_disabled": 0, "type": "electric_scooter", "is_reserved": 0, "fusion_lon": 0.0, "lat": 38.91543216666667, "rental_uris": {"ios": "https://dc.lft.to/lastmile_qr_scan", "android": "https://dc.lft.to/lastmile_qr_scan"}, "bike_id": "50568e25d77cedcc7acb7db51b138fb6", "fusion_lat": 0.0}, {"lon": -77.046394, "name": "6f40ecad653696a532f4cb99573f8ee7", "is_disabled": 0, "type": "electric_scooter", "is_reserved": 0, "fusion_lon": 0.0, "lat": 38.91427266666667, "rental_uris": {"ios": "https://dc.lft.to/lastmile_qr_scan", "android": "https://dc.lft.to/lastmile_qr_scan"}, "bike_id": "6f40ecad653696a532f4cb99573f8ee7", "fusion_lat": 0.0}, {"lon": -77.03858516666666, "name": "8ac0e374057360312c24f74ea586c6de", "is_disabled": 0, "type": "electric_scooter", "is_reserved": 0, "fusion_lon": 0.0, "lat": 38.90427966666667, "rental_uris": {"ios": "https://dc.lft.to/lastmile_qr_scan", "android": "https://dc.lft.to/lastmile_qr_scan"}, "bike_id": "8ac0e374057360312c24f74ea586c6de", "fusion_lat": 0.0}, {"lon": -77.00439266666666, "name": "baca858d47862ad8ac8487c56fd2f3e8", "is_disabled": 0, "type": "electric_scooter", "is_reserved": 0, "fusion_lon": 0.0, "lat": 38.906129, "rental_uris": {"ios": "https://dc.lft.to/lastmile_qr_scan", "android": "https://dc.lft.to/lastmile_qr_scan"}, "bike_id": "baca858d47862ad8ac8487c56fd2f3e8", "fusion_lat": 0.0}, {"lon": -77.06523266666666, "name": "b8c637b02f66b62063046d50ae325667", "is_disabled": 0, "type": "electric_scooter", "is_reserved": 0, "fusion_lon": 0.0, "lat": 38.90393916666667, "rental_uris": {"ios": "https://dc.lft.to/lastmile_qr_scan", "android": "https://dc.lft.to/lastmile_qr_scan"}, "bike_id": "b8c637b02f66b62063046d50ae325667", "fusion_lat": 0.0}, {"lon": -77.0234285, "name": "130d46049032ced5d522e0d3b55ff33f", "is_disabled": 0, "type": "electric_scooter", "is_reserved": 0, "fusion_lon": 0.0, "lat": 38.944923333333335, "rental_uris": {"ios": "https://dc.lft.to/lastmile_qr_scan", "android": "https://dc.lft.to/lastmile_qr_scan"}, "bike_id": "130d46049032ced5d522e0d3b55ff33f", "fusion_lat": 0.0}, {"lon": -77.03349166666666, "name": "a2c4555b256ced1ae4ddf1dae62b92f1", "is_disabled": 0, "type": "electric_scooter", "is_reserved": 0, "fusion_lon": 0.0, "lat": 38.884785666666666, "rental_uris": {"ios": "https://dc.lft.to/lastmile_qr_scan", "android": "https://dc.lft.to/lastmile_qr_scan"}, "bike_id": "a2c4555b256ced1ae4ddf1dae62b92f1", "fusion_lat": 0.0}, {"lon": -77.00213283333333, "name": "63a76043b2c2d86c6d8f0fa8e9c6b472", "is_disabled": 0, "type": "electric_scooter", "is_reserved": 0, "fusion_lon": 0.0, "lat": 38.89522383333333, "rental_uris": {"ios": "https://dc.lft.to/lastmile_qr_scan", "android": "https://dc.lft.to/lastmile_qr_scan"}, "bike_id": "63a76043b2c2d86c6d8f0fa8e9c6b472", "fusion_lat": 0.0}, {"lon": -77.01692066666666, "name": "4e2610e5d6ee33038317fccbd3a58442", "is_disabled": 0, "type": "electric_scooter", "is_reserved": 0, "fusion_lon": 0.0, "lat": 38.92039666666667, "rental_uris": {"ios": "https://dc.lft.to/lastmile_qr_scan", "android": "https://dc.lft.to/lastmile_qr_scan"}, "bike_id": "4e2610e5d6ee33038317fccbd3a58442", "fusion_lat": 0.0}, {"lon": -77.0215775, "name": "1f04a24840de427300e5aa5ce2533576", "is_disabled": 0, "type": "electric_scooter", "is_reserved": 0, "fusion_lon": 0.0, "lat": 38.9260265, "rental_uris": {"ios": "https://dc.lft.to/lastmile_qr_scan", "android": "https://dc.lft.to/lastmile_qr_scan"}, "bike_id": "1f04a24840de427300e5aa5ce2533576", "fusion_lat": 0.0}, {"lon": -77.04195033333333, "name": "e350f8a32e8f051d13553179048f7a3e", "is_disabled": 0, "type": "electric_scooter", "is_reserved": 0, "fusion_lon": 0.0, "lat": 38.905342166666664, "rental_uris": {"ios": "https://dc.lft.to/lastmile_qr_scan", "android": "https://dc.lft.to/lastmile_qr_scan"}, "bike_id": "e350f8a32e8f051d13553179048f7a3e", "fusion_lat": 0.0}, {"lon": -77.05764016666667, "name": "5a451b88271bf64a8386ddd2ff660e61", "is_disabled": 0, "type": "electric_scooter", "is_reserved": 0, "fusion_lon": 0.0, "lat": 38.92488383333333, "rental_uris": {"ios": "https://dc.lft.to/lastmile_qr_scan", "android": "https://dc.lft.to/lastmile_qr_scan"}, "bike_id": "5a451b88271bf64a8386ddd2ff660e61", "fusion_lat": 0.0}, {"lon": -77.012294, "name": "b34b98e03747065fa1d27bc6c6d30c7a", "is_disabled": 0, "type": "electric_scooter", "is_reserved": 0, "fusion_lon": 0.0, "lat": 38.89771616666667, "rental_uris": {"ios": "https://dc.lft.to/lastmile_qr_scan", "android": "https://dc.lft.to/lastmile_qr_scan"}, "bike_id": "b34b98e03747065fa1d27bc6c6d30c7a", "fusion_lat": 0.0}, {"lon": -77.03203233333333, "name": "d7dd3a6c5441d5c552e809475f19412a", "is_disabled": 0, "type": "electric_scooter", "is_reserved": 0, "fusion_lon": 0.0, "lat": 38.9229365, "rental_uris": {"ios": "https://dc.lft.to/lastmile_qr_scan", "android": "https://dc.lft.to/lastmile_qr_scan"}, "bike_id": "d7dd3a6c5441d5c552e809475f19412a", "fusion_lat": 0.0},