{"data": {"bikes": [{"is_reserved": 0, "type": "electric_scooter", "bike_id": "3b9012868ffff81e20b11e1c3369e30a", "lat": 38.924568, "lon": -77.0522685, "rental_uris": {"android": "https://dc.lft.to/lastmile_qr_scan", "ios": "https://dc.lft.to/lastmile_qr_scan"}, "is_disabled": 0, "fusion_lat": 0.0, "name": "3b9012868ffff81e20b11e1c3369e30a", "fusion_lon": 0.0}, {"is_reserved": 0, "type": "electric_scooter", "bike_id": "f3295c3480089e512f1486a62a843081", "lat": 38.86376533333333, "lon": -76.99059316666667, "rental_uris": {"android": "https://dc.lft.to/lastmile_qr_scan", "ios": "https://dc.lft.to/lastmile_qr_scan"}, "is_disabled": 0, "fusion_lat": 0.0, "name": "f3295c3480089e512f1486a62a843081", "fusion_lon": 0.0}, {"is_reserved": 0, "type": "electric_scooter", "bike_id": "324978c296431a84ec0b5945cf0f4cd9", "lat": 38.91407133333333, "lon": -77.02689033333333, "rental_uris": {"android": "https://dc.lft.to/lastmile_qr_scan", "ios": "https://dc.lft.to/lastmile_qr_scan"}, "is_disabled": 0, "fusion_lat": 0.0, "name": "324978c296431a84ec0b5945cf0f4cd9", "fusion_lon": 0.0}, {"is_reserved": 0, "type": "electric_scooter", "bike_id": "45682666f8ea8c678f27c810c798744c", "lat": 38.89227416666667, "lon": -77.04360583333333, "rental_uris": {"android": "https://dc.lft.to/lastmile_qr_scan", "ios": "https://dc.lft.to/lastmile_qr_scan"}, "is_disabled": 0, "fusion_lat": 0.0, "name": "45682666f8ea8c678f27c810c798744c", "fusion_lon": 0.0}, {"is_reserved": 0, "type": "electric_scooter", "bike_id": "b9b601036b3552d962a3f0bd8916e89a", "lat": 38.8995445, "lon": -77.04759066666666, "rental_uris": {"android": "https://dc.lft.to/lastmile_qr_scan", "ios": "https://dc.lft.to/lastmile_qr_scan"}, "is_disabled": 0, "fusion_lat": 0.0, "name": "b9b601036b3552d962a3f0bd8916e89a", "fusion_lon": 0.0}, {"is_reserved": 0, "type": "electric_scooter", "bike_id": "76f8a942a493c8b24ec96145c79849a7", "lat": 38.9275355, "lon": -77.03302516666666, "rental_uris": {"android": "https://dc.lft.to/lastmile_qr_scan", "ios": "https://dc.lft.to/lastmile_qr_scan"}, "is_disabled": 0, "fusion_lat": 0.0, "name": "76f8a942a493c8b24ec96145c79849a7", "fusion_lon": 0.0}, {"is_reserved": 0, "type": "electric_bike", "bike_id": "85e491fa63f215bfdc55b8735666b482", "lat": 39.0003085, "lon": -77.04740683333333, "rental_uris": {"android": "https://dc.lft.to/lastmile_qr_scan", "ios": "https://dc.lft.to/lastmile_qr_scan"}, "is_disabled": 0, "fusion_lat": 0.0, "name": "85e491fa63f215bfdc55b8735666b482", "fusion_lon": 0.0}, {"is_reserved": 0, "type": "electric_scooter", "bike_id": "a6ba5dd7ca466d5b56c5db0092230647", "lat": 38.89460033333334, "lon": -77.0189535, "rental_uris": {"android": "https://dc.lft.to/lastmile_qr_scan", "ios": "https://dc.lft.to/lastmile_qr_scan"}, "is_disabled": 0, "fusion_lat": 0.0, "name": "a6ba5dd7ca466d5b56c5db0092230647", "fusion_lon": 0.0}, {"is_reserved": 0, "type": "electric_scooter", "bike_id": "2a364d2a88f8ffbe1abe35c139e87630", "lat": 38.90571716666667, "lon": -77.00578866666666, "rental_uris": {"android": "https://dc.lft.to/lastmile_qr_scan", "ios": "https://dc.lft.to/lastmile_qr_scan"}, "is_disabled": 0, "fusion_lat": 0.0, "name": "2a364d2a88f8ffbe1abe35c139e87630", "fusion_lon": 0.0}, {"is_reserved": 0, "type": "electric_scooter", "bike_id": "5f837c665cfaa640b054ae01574a238c", "lat": 38.9282975, "lon": -77.05443683333333, "rental_uris": {"android": "https://dc.lft.to/lastmile_qr_scan", "ios": "https://dc.lft.to/lastmile_qr_scan"}, "is_disabled": 0, "fusion_lat": 0.0, "name": "5f837c665cfaa640b054ae01574a238c", "fusion_lon": 0.0}, {"is_reserved": 0, "type": "electric_scooter", "bike_id": "85573f3b408f1bd89333b5b62488fdf9", "lat": 38.928312166666664, "lon": -77.05438583333333, "rental_uris": {"android": "https://dc.lft.to/lastmile_qr_scan", "ios": "https://dc.lft.to/lastmile_qr_scan"}, "is_disabled": 0, "fusion_lat": 0.0, "name": "85573f3b408f1bd89333b5b62488fdf9", "fusion_lon": 0.0}, {"is_reserved": 0, "type": "electric_scooter", "bike_id": "347b640165150be3afdb6d7d2ed3e00e", "lat": 38.91836166666667, "lon": -77.01471966666666, "rental_uris": {"android": "https://dc.lft.to/lastmile_qr_scan", "ios": "https://dc.lft.to/lastmile_qr_scan"}, "is_disabled": 0, "fusion_lat": 0.0, "name": "347b640165150be3afdb6d7d2ed3e00e", "fusion_lon": 0.0}, {"is_reserved": 0, "type": "electric_scooter", "bike_id": "d1d982a6b44a5c7d8855759e54ab5cb2", "lat": 38.899415166666664, "lon": -76.977098, "rental_uris": {"android": "https://dc.lft.to/lastmile_qr_scan", "ios": "https://dc.lft.to/lastmile_qr_scan"}, "is_disabled": 0, "fusion_lat": 0.0, "name": "d1d982a6b44a5c7d8855759e54ab5cb2", "fusion_lon": 0.0}, {"is_reserved": 0, "type": "electric_scooter", "bike_id": "20df5f896b63eb0db358f7627a9391c0", "lat": 38.892505, "lon": -76.9413335, "rental_uris": {"android": "https://dc.lft.to/lastmile_qr_scan", "ios": "https://dc.lft.to/lastmile_qr_scan"}, "is_disabled": 0, "fusion_lat": 0.0, "name": "20df5f896b63eb0db358f7627a9391c0", "fusion_lon": 0.0}, {"is_reserved": 0, "type": "electric_scooter", "bike_id": "d9731341782bf06a17619a4cfa3c82c3", "lat": 38.94088766666667, "lon": -77.0297265, "rental_uris": {"android": "https://dc.lft.to/lastmile_qr_scan", "ios": "https://dc.lft.to/lastmile_qr_scan"}, "is_disabled": 0, "fusion_lat": 0.0, "name": "d9731341782bf06a17619a4cfa3c82c3", "fusion_lon": 0.0}, {"is_reserved": 0, "type": "electric_scooter", "bike_id": "7ccf54c3b9d108c35040d5c3497213c3", "lat": 38.9324465, "lon": -77.03867966666667, "rental_uris": {"android": "https://dc.lft.to/lastmile_qr_scan", "ios": "https://dc.lft.to/lastmile_qr_scan"}, "is_disabled": 0, "fusion_lat": 0.0, "name": "7ccf54c3b9d108c35040d5c3497213c3", "fusion_lon": 0.0}, {"is_reserved": 0, "type": "electric_scooter", "bike_id": "4d7d87a194f788ff5741d4f09ba903d7", "lat": 38.917782333333335, "lon": -77.023155, "rental_uris": {"android": "https://dc.lft.to/lastmile_qr_scan", "ios": "https://dc.lft.to/lastmile_qr_scan"}, "is_disabled": 0, "fusion_lat": 0.0, "name": "4d7d87a194f788ff5741d4f09ba903d7", "fusion_lon": 0.0}, {"is_reserved": 0, "type": "electric_scooter", "bike_id": "54cfc7de3d0360749d3142e6a85cd8bd", "lat": 38.90571816666667, "lon": -77.0184645, "rental_uris": {"android": "https://dc.lft.to/lastmile_qr_scan", "ios": "https://dc.lft.to/lastmile_qr_scan"}, "is_disabled": 0, "fusion_lat": 0.0, "name": "54cfc7de3d0360749d3142e6a85cd8bd", "fusion_lon": 0.0}, {"is_reserved": 0, "type": "electric_scooter", "bike_id": "19bdc80c55ec230021d96cb9a0c1919b", "lat": 38.92537933333333, "lon": -77.055582, "rental_uris": {"android": "https://dc.lft.to/lastmile_qr_scan", "ios": "https://dc.lft.to/lastmile_qr_scan"}, "is_disabled": 0, "fusion_lat": 0.0, "name": "19bdc80c55ec230021d96cb9a0c1919b", "fusion_lon": 0.0}, {"is_reserved": 0, "type": "electric_scooter", "bike_id": "808489ae5dfbc53f36fb872b4a2500e6", "lat": 38.901518, "lon": -77.04655233333334, "rental_uris": {"android": "https://dc.lft.to/lastmile_qr_scan", "ios": "https://dc.lft.to/lastmile_qr_scan"}, "is_disabled": 0, "fusion_lat": 0.0, "name": "808489ae5dfbc53f36fb872b4a2500e6", "fusion_lon": 0.0}, {"is_reserved": 0, "type": "electric_scooter", "bike_id": "830e3ad63ccdff5bbf522629d1014f62", "lat": 38.91402183333334, "lon": -77.02835266666666, "rental_uris": {"android": "https://dc.lft.to/lastmile_qr_scan", "ios": "https://dc.lft.to/lastmile_qr_scan"}, "is_disabled": 0, "fusion_lat": 0.0, "name": "830e3ad63ccdff5bbf522629d1014f62", "fusion_lon": 0.0}, {"is_reserved": 0, "type": "electric_scooter", "bike_id": "997a41ac533a5b2c3ad6f565ad8c1a46", "lat": 38.90231416666666, "lon": -77.0534205, "rental_uris": {"android": "https://dc.lft.to/lastmile_qr_scan", "ios": "https://dc.lft.to/lastmile_qr_scan"}, "is_disabled": 0, "fusion_lat": 0.0, "name": "997a41ac533a5b2c3ad6f565ad8c1a46", "fusion_lon": 0.0}, {"is_reserved": 0, "type": "electric_bike", "bike_id": "afa7df504230d37dd20ca1140f5d40e5", "lat": 39.0108035, "lon": -76.91063983333333, "rental_uris": {"android": "https://dc.lft.to/lastmile_qr_scan", "ios": "https://dc.lft.to/lastmile_qr_scan"}, "is_disabled": 0, "fusion_lat": 0.0, "name": "afa7df504230d37dd20ca1140f5d40e5", "fusion_lon": 0.0}, {"is_reserved": 0, "type": "electric_scooter", "bike_id": "6d2caf19ea03cab2f8a4c6e319439532", "lat": 38.90829316666667, "lon": -76.98718283333334, "rental_uris": {"android": "https://dc.lft.to/lastmile_qr_scan", "ios": "https://dc.lft.to/lastmile_qr_scan"}, "is_disabled": 0, "fusion_lat": 0.0, "name": "6d2caf19ea03cab2f8a4c6e319439532", "fusion_lon": 0.0}, {"is_reserved": 0, "type": "electric_scooter", "bike_id": "67afa5a1c6a3dae39ea3857f4eee5823", "lat": 38.913005166666665, "lon": -76.9847185, "rental_uris": {"android": "https://dc.lft.to/lastmile_qr_scan", "ios": "https://dc.lft.to/lastmile_qr_scan"}, "is_disabled": 0, "fusion_lat": 0.0, "name": "67afa5a1c6a3dae39ea3857f4eee5823", "fusion_lon": 0.0}, {"is_reserved": 0, "type": "electric_scooter", "bike_id": "f8fffeaf2fec62ff3471b14f3442acf2", "lat": 38.90094366666667, "lon": -77.02224233333334, "rental_uris": {"android": "https://dc.lft.to/lastmile_qr_scan", "ios": "https://dc.lft.to/lastmile_qr_scan"}, "is_disabled": 0, "fusion_lat": 0.0, "name": "f8fffeaf2fec62ff3471b14f3442acf2", "fusion_lon": 0.0}, {"is_reserved": 0, "type": "electric_scooter", "bike_id": "1d929c41b3909ed78e810e920c291cd7", "lat": 38.88614533333333, "lon": -77.00405566666667, "rental_uris": {"android": "https://dc.lft.to/lastmile_qr_scan", "ios": "https://dc.lft.to/lastmile_qr_scan"}, "is_disabled": 0, "fusion_lat": 0.0, "name": "1d929c41b3909ed78e810e920c291cd7", "fusion_lon": 0.0}, {"is_reserved": 0, "type": "electric_bike", "bike_id": "679475761881b4ffa68e41c8ea57882e", "lat": 38.936013333333335, "lon": -77.0314285, "rental_uris": {"android": "https://dc.lft.to/lastmile_qr_scan", "ios": "https://dc.lft.to/lastmile_qr_scan"}, "is_disabled": 0, "fusion_lat": 0.0, "name": "679475761881b4ffa68e41c8ea57882e", "fusion_lon": 0.0}, {"is_reserved": 0, "type": "electric_bike", "bike_id": "c7023d284d0ac3e0c7d630d6c099413c", "lat": 38.882743, "lon": -76.93235833333334, "rental_uris": {"android": "https://dc.lft.to/lastmile_qr_scan", "ios": "https://dc.lft.to/lastmile_qr_scan"}, "is_disabled": 0, "fusion_lat": 0.0, "name": "c7023d284d0ac3e0c7d630d6c099413c", "fusion_lon": 0.0}, {"is_reserved": 0, "type": "electric_scooter", "bike_id": "d5b99644afa8f3b5b49258d44799b82d", "lat": 38.915611166666665, "lon": -77.03668216666667, "rental_uris": {"android": "https://dc.lft.to/lastmile_qr_scan", "ios": "https://dc.lft.to/lastmile_qr_scan"}, "is_disabled": 0, "fusion_lat": 0.0, "name": "d5b99644afa8f3b5b49258d44799b82d", "fusion_lon": 0.0}, {"is_reserved": 0, "type": "electric_scooter", "bike_id": "05ff5ac9be8f8a242b9dd10c7fe8759f", "lat": 38.92697016666666, "lon": -77.02410583333334, "rental_uris": {"android": "https://dc.lft.to/lastmile_qr_scan", "ios": "https://dc.lft.to/lastmile_qr_scan"}, "is_disabled": 0, "fusion_lat": 0.0, "name": "05ff5ac9be8f8a242b9dd10c7fe8759f", "fusion_lon": 0.0}, {"is_reserved": 0, "type": "electric_scooter", "bike_id": "6c75cf745c384a544c3cbb2e5de21ac9", "lat": 38.946150833333334, "lon": -77.03063416666667, "rental_uris": {"android": "https://dc.lft.to/lastmile_qr_scan", "ios": "https://dc.lft.to/lastmile_qr_scan"}, "is_disabled": 0, "fusion_lat": 0.0, "name": "6c75cf745c384a544c3cbb2e5de21ac9", "fusion_lon": 0.0}, {"is_reserved": 0, "type": "electric_scooter", "bike_id": "65f9690c8fe7b261111aaf868319b114", "lat": 38.91854683333333, "lon": -76.96554866666666, "rental_uris": {"android": "https://dc.lft.to/lastmile_qr_scan", "ios": "https://dc.lft.to/lastmile_qr_scan"}, "is_disabled": 0, "fusion_lat": 0.0, "name": "65f9690c8fe7b261111aaf868319b114", "fusion_lon": 0.0}, {"is_reserved": 0, "type": "electric_scooter", "bike_id": "22d03b77fcaaa5b347779f9492b68925", "lat": 38.926893, "lon": -77.02977733333333, "rental_uris": {"android": "https://dc.lft.to/lastmile_qr_scan", "ios": "https://dc.lft.to/lastmile_qr_scan"}, "is_disabled": 0, "fusion_lat": 0.0, "name": "22d03b77fcaaa5b347779f9492b68925", "fusion_lon": 0.0}, {"is_reserved": 0, "type": "electric_scooter", "bike_id": "74da2fbb7b1e963d6bff8bf14a05277f", "lat": 38.91959966666667, "lon": -77.01781833333334, "rental_uris": {"android": "https://dc.lft.to/lastmile_qr_scan", "ios": "https://dc.lft.to/lastmile_qr_scan"}, "is_disabled": 0, "fusion_lat": 0.0, "name": "74da2fbb7b1e963d6bff8bf14a05277f", "fusion_lon": 0.0}, {"is_reserved": 0, "type": "electric_scooter", "bike_id": "55256aef135cb9014c3ffc843a81e5dc", "lat": 38.949797833333335, "lon": -77.02456433333333, "rental_uris": {"android": "https://dc.lft.to/lastmile_qr_scan", "ios": "https://dc.lft.to/lastmile_qr_scan"}, "is_disabled": 0, "fusion_lat": 0.0, "name": "55256aef135cb9014c3ffc843a81e5dc", "fusion_lon": 0.0}, {"is_reserved": 0, "type": "electric_scooter", "bike_id": "8ec6192ca10ee9fc42aaf921cf15454f", "lat": 38.894064666666665, "lon": -77.02328066666666, "rental_uris": {"android": "https://dc.lft.to/lastmile_qr_scan", "ios": "https://dc.lft.to/lastmile_qr_scan"}, "is_disabled": 0, "fusion_lat": 0.0, "name": "8ec6192ca10ee9fc42aaf921cf15454f", "fusion_lon": 0.0}, {"is_reserved": 0, "type": "electric_scooter", "bike_id": "097eb0c39e789ca485363fac7ed6a85f", "lat": 38.90808066666666, "lon": -77.03639816666667, "rental_uris": {"android": "https://dc.lft.to/lastmile_qr_scan", "ios": "https://dc.lft.to/lastmile_qr_scan"}, "is_disabled": 0, "fusion_lat": 0.0, "name": "097eb0c39e789ca485363fac7ed6a85f", "fusion_lon": 0.0}, {"is_reserved": 0, "type": "electric_scooter", "bike_id": "a6d70ca3cd0571d2c75aefcec625eb80", "lat": 38.891411833333336, "lon": -76.999383, "rental_uris": {"android": "https://dc.lft.to/lastmile_qr_scan", "ios": "https://dc.lft.to/lastmile_qr_scan"}, "is_disabled": 0, "fusion_lat": 0.0, "name": "a6d70ca3cd0571d2c75aefcec625eb80", "fusion_lon": 0.0}, {"is_reserved": 0, "type": "electric_scooter", "bike_id": "465524a01cc39ab9d7dd2c96f954145a", "lat": 38.90541533333333, "lon": -77.02725616666666, "rental_uris": {"android": "https://dc.lft.to/lastmile_qr_scan", "ios": "https://dc.lft.to/lastmile_qr_scan"}, "is_disabled": 0, "fusion_lat": 0.0, "name": "465524a01cc39ab9d7dd2c96f954145a", "fusion_lon": 0.0}, {"is_reserved": 0, "type": "electric_scooter", "bike_id": "1e3d6b11012e1dfeea2ea4b6838e92cc", "lat": 38.872975, "lon": -77.002333, "rental_uris": {"android": "https://dc.lft.to/lastmile_qr_scan", "ios": "https://dc.lft.to/lastmile_qr_scan"}, "is_disabled": 0, "fusion_lat": 0.0, "name": "1e3d6b11012e1dfeea2ea4b6838e92cc", "fusion_lon": 0.0}, {"is_reserved": 0, "type": "electric_scooter", "bike_id": "2547b1c1091a92d28084689f725a04e3", "lat": 38.926270833333334, "lon": -77.034592, "rental_uris": {"android": "https://dc.lft.to/lastmile_qr_scan", "ios": "https://dc.lft.to/lastmile_qr_scan"}, "is_disabled": 0, "fusion_lat": 0.0, "name": "2547b1c1091a92d28084689f725a04e3", "fusion_lon": 0.0}, {"is_reserved": 0, "type": "electric_scooter", "bike_id": "2456d47cc45700c6c5094266b4b24bd2", "lat": 38.927947, "lon": -77.02534716666666, "rental_uris": {"android": "https://dc.lft.to/lastmile_qr_scan", "ios": "https://dc.lft.to/lastmile_qr_scan"}, "is_disabled": 0, "fusion_lat": 0.0, "name": "2456d47cc45700c6c5094266b4b24bd2", "fusion_lon": 0.0}, {"is_reserved": 0, "type": "electric_scooter", "bike_id": "bb200bc3d608b6d3abb00e1417cdd104", "lat": 38.89222, "lon": -77.04504333333334, "rental_uris": {"android": "https://dc.lft.to/lastmile_qr_scan", "ios": "https://dc.lft.to/lastmile_qr_scan"}, "is_disabled": 0, "fusion_lat": 0.0, "name": "bb200bc3d608b6d3abb00e1417cdd104", "fusion_lon": 0.0}, {"is_reserved": 0, "type": "electric_scooter", "bike_id": "fdbb41a9b4a01bde6a0858319123d258", "lat": 38.922986333333334, "lon": -76.99775766666667, "rental_uris": {"android": "https://dc.lft.to/lastmile_qr_scan", "ios": "https://dc.lft.to/lastmile_qr_scan"}, "is_disabled": 0, "fusion_lat": 0.0, "name": "fdbb41a9b4a01bde6a0858319123d258", "fusion_lon": 0.0}, {"is_reserved": 0, "type": "electric_scooter", "bike_id": "ffe1af5a604966f85f2aa018b31806b3", "lat": 38.899131, "lon": -76.98002283333334, "rental_uris": {"android": "https://dc.lft.to/lastmile_qr_scan", "ios": "https://dc.lft.to/lastmile_qr_scan"}, "is_disabled": 0, "fusion_lat": 0.0, "name": "ffe1af5a604966f85f2aa018b31806b3", "fusion_lon": 0.0}, {"is_reserved": 0, "type": "electric_scooter", "bike_id": "2171f71b82e34bcca3422fcbf8b77bd2", "lat": 38.91481483333333, "lon": -77.03182533333333, "rental_uris": {"android": "https://dc.lft.to/lastmile_qr_scan", "ios": "https://dc.lft.to/lastmile_qr_scan"}, "is_disabled": 0, "fusion_lat": 0.0, "name": "2171f71b82e34bcca3422fcbf8b77bd2", "fusion_lon": 0.0}, {"is_reserved": 0, "type": "electric_scooter", "bike_id": "72481564a17f412630d1a2d886dab9c0", "lat": 38.92150133333333, "lon": -77.0208425, "rental_uris": {"android": "https://dc.lft.to/lastmile_qr_scan", "ios": "https://dc.lft.to/lastmile_qr_scan"}, "is_disabled": 0, "fusion_lat": 0.0, "name": "72481564a17f412630d1a2d886dab9c0", "fusion_lon": 0.0}, {"is_reserved": 0, "type": "electric_scooter", "bike_id": "993de39182d42e2b4d674e1b57f6540d", "lat": 38.928192, "lon": -77.06216283333333, "rental_uris": {"android": "https://dc.lft.to/lastmile_qr_scan", "ios": "https://dc.lft.to/lastmile_qr_scan"}, "is_disabled": 0, "fusion_lat": 0.0, "name": "993de39182d42e2b4d674e1b57f6540d", "fusion_lon": 0.0}, {"is_reserved": 0, "type": "electric_scooter", "bike_id": "2d9a258a9836d78be04147ce32b410b4", "lat": 38.93597166666667, "lon": -77.03370683333333, "rental_uris": {"android": "https://dc.lft.to/lastmile_qr_scan", "ios": "https://dc.lft.to/lastmile_qr_scan"}, "is_disabled": 0, "fusion_lat": 0.0, "name": "2d9a258a9836d78be04147ce32b410b4", "fusion_lon": 0.0}, {"is_reserved": 0, "type": "electric_bike", "bike_id": "e827b982044f4b1d1211d5f8f9920ecb", "lat": 38.9730475, "lon": -76.99497233333334, "rental_uris": {"android": "https://dc.lft.to/lastmile_qr_scan", "ios": "https://dc.lft.to/lastmile_qr_scan"}, "is_disabled": 0, "fusion_lat": 0.0, "name": "e827b982044f4b1d1211d5f8f9920ecb", "fusion_lon": 0.0}, {"is_reserved": 0, "type": "electric_scooter", "bike_id": "140a59ffa5c954b214a87e7a1e6c22b3", "lat": 38.914188833333334, "lon": -77.02820583333333, "rental_uris": {"android": "https://dc.lft.to/lastmile_qr_scan", "ios": "https://dc.lft.to/lastmile_qr_scan"}, "is_disabled": 0, "fusion_lat": 0.0, "name": "140a59ffa5c954b214a87e7a1e6c22b3", "fusion_lon": 0.0}, {"is_reserved": 0, "type": "electric_scooter", "bike_id": "0215011615a7bd8b4900b48f94f46cba", "lat": 38.887293666666665, "lon": -77.02206916666667, "rental_uris": {"android": "https://dc.lft.to/lastmile_qr_scan", "ios": "https://dc.lft.to/lastmile_qr_scan"}, "is_disabled": 0, "fusion_lat": 0.0, "name": "0215011615a7bd8b4900b48f94f46cba", "fusion_lon": 0.0}, {"is_reserved": 0, "type": "electric_scooter", "bike_id": "76566cd0ace070932482cb5a1a481898", "lat": 38.919298166666664, "lon": -77.07271366666667, "rental_uris": {"android": "https://dc.lft.to/lastmile_qr_scan", "ios": "https://dc.lft.to/lastmile_qr_scan"}, "is_disabled": 0, "fusion_lat": 0.0, "name": "76566cd0ace070932482cb5a1a481898", "fusion_lon": 0.0}, {"is_reserved": 0, "type": "electric_scooter", "bike_id": "712f771a2d3bf78cbb78ac99288f7635", "lat": 38.903667166666665, "lon": -77.02211583333333, "rental_uris": {"android": "https://dc.lft.to/lastmile_qr_scan", "ios": "https://dc.lft.to/lastmile_qr_scan"}, "is_disabled": 0, "fusion_lat": 0.0, "name": "712f771a2d3bf78cbb78ac99288f7635", "fusion_lon": 0.0}, {"is_reserved": 0, "type": "electric_scooter", "bike_id": "fa2700bf4e2cc08d10566a95a2fd6bca", "lat": 38.8930095, "lon": -77.0123035, "rental_uris": {"android": "https://dc.lft.to/lastmile_qr_scan", "ios": "https://dc.lft.to/lastmile_qr_scan"}, "is_disabled": 0, "fusion_lat": 0.0, "name": "fa2700bf4e2cc08d10566a95a2fd6bca", "fusion_lon": 0.0}, {"is_reserved": 0, "type": "electric_scooter", "bike_id": "1438af80c68b5e3577f83635de5c046d", "lat": 38.9319715, "lon": -77.02357966666666, "rental_uris": {"android": "https://dc.lft.to/lastmile_qr_scan", "ios": "https://dc.lft.to/lastmile_qr_scan"}, "is_disabled": 0, "fusion_lat": 0.0, "name": "1438af80c68b5e3577f83635de5c046d", "fusion_lon": 0.0}, {"is_reserved": 0, "type": "electric_scooter", "bike_id": "0caa536655cfab002f706f0d19b216d6", "lat": 38.92327516666667, "lon": -77.03676816666666, "rental_uris": {"android": "https://dc.lft.to/lastmile_qr_scan", "ios": "https://dc.lft.to/lastmile_qr_scan"}, "is_disabled": 0, "fusion_lat": 0.0, "name": "0caa536655cfab002f706f0d19b216d6", "fusion_lon": 0.0}, {"is_reserved": 0, "type": "electric_scooter", "bike_id": "964a8ec2482de15475d8c2750b6ed411", "lat": 38.90729433333333, "lon": -76.93450083333333, "rental_uris": {"android": "https://dc.lft.to/lastmile_qr_scan", "ios": "https://dc.lft.to/lastmile_qr_scan"}, "is_disabled": 0, "fusion_lat": 0.0, "name": "964a8ec2482de15475d8c2750b6ed411", "fusion_lon": 0.0}, {"is_reserved": 0, "type": "electric_scooter", "bike_id": "a4c164bd9cb32d551b11739114fe76cc", "lat": 38.9139955, "lon": -77.046752, "rental_uris": {"android": "https://dc.lft.to/lastmile_qr_scan", "ios": "https://dc.lft.to/lastmile_qr_scan"}, "is_disabled": 0, "fusion_lat": 0.0, "name": "a4c164bd9cb32d551b11739114fe76cc", "fusion_lon": 0.0}, {"is_reserved": 0, "type": "electric_scooter", "bike_id": "b7f04a5183f161628f19c6f68a2b64ed", "lat": 38.93301316666667, "lon": -77.02143716666667, "rental_uris": {"android": "https://dc.lft.to/lastmile_qr_scan", "ios": "https://dc.lft.to/lastmile_qr_scan"}, "is_disabled": 0, "fusion_lat": 0.0, "name": "b7f04a5183f161628f19c6f68a2b64ed", "fusion_lon": 0.0}, {"is_reserved": 0, "type": "electric_scooter", "bike_id": "9d4b38138c3815cbe22438d0d8fa4c8d", "lat": 38.899505166666664, "lon": -76.97909133333333, "rental_uris": {"android": "https://dc.lft.to/lastmile_qr_scan", "ios": "https://dc.lft.to/lastmile_qr_scan"}, "is_disabled": 0, "fusion_lat": 0.0, "name": "9d4b38138c3815cbe22438d0d8fa4c8d", "fusion_lon": 0.0}, {"is_reserved": 0, "type": "electric_scooter", "bike_id": "233bab918caead107e87b8eefc999d3b", "lat": 38.927567333333336, "lon": -77.0324165, "rental_uris": {"android": "https://dc.lft.to/lastmile_qr_scan", "ios": "https://dc.lft.to/lastmile_qr_scan"}, "is_disabled": 0, "fusion_lat": 0.0, "name": "233bab918caead107e87b8eefc999d3b", "fusion_lon": 0.0}, {"is_reserved": 0, "type": "electric_scooter", "bike_id": "52b11d3840a5d9babde5c3453dba7ffa", "lat": 38.913968833333335, "lon": -77.0317835, "rental_uris": {"android": "https://dc.lft.to/lastmile_qr_scan", "ios": "https://dc.lft.to/lastmile_qr_scan"}, "is_disabled": 0, "fusion_lat": 0.0, "name": "52b11d3840a5d9babde5c3453dba7ffa", "fusion_lon": 0.0}, {"is_reserved": 0, "type": "electric_scooter", "bike_id": "f7bdf00027153f8b4c0825fae33f530c", "lat": 38.916821166666665, "lon": -77.03199983333333, "rental_uris": {"android": "https://dc.lft.to/lastmile_qr_scan", "ios": "https://dc.lft.to/lastmile_qr_scan"}, "is_disabled": 0, "fusion_lat": 0.0, "name": "f7bdf00027153f8b4c0825fae33f530c", "fusion_lon": 0.0}, {"is_reserved": 0, "type": "electric_scooter", "bike_id": "807c6c15663a675e13ef070031e802f6", "lat": 38.9237295, "lon": -77.08047183333333, "rental_uris": {"android": "https://dc.lft.to/lastmile_qr_scan", "ios": "https://dc.lft.to/lastmile_qr_scan"}, "is_disabled": 0, "fusion_lat": 0.0, "name": "807c6c15663a675e13ef070031e802f6", "fusion_lon": 0.0}, {"is_reserved": 0, "type": "electric_scooter", "bike_id": "ac11077a3bb6b81e36fa6aab50891f32", "lat": 38.897112666666665, "lon": -76.9912055, "rental_uris": {"android": "https://dc.lft.to/lastmile_qr_scan", "ios": "https://dc.lft.to/lastmile_qr_scan"}, "is_disabled": 0, "fusion_lat": 0.0, "name": "ac11077a3bb6b81e36fa6aab50891f32", "fusion_lon": 0.0}, {"is_reserved": 0, "type": "electric_scooter", "bike_id": "d02497c8806f6e56a1d17b7a9b187cb5", "lat": 38.9249165, "lon": -77.028134, "rental_uris": {"android": "https://dc.lft.to/lastmile_qr_scan", "ios": "https://dc.lft.to/lastmile_qr_scan"}, "is_disabled": 0, "fusion_lat": 0.0, "name": "d02497c8806f6e56a1d17b7a9b187cb5", "fusion_lon": 0.0}, {"is_reserved": 0, "type": "electric_scooter", "bike_id": "059265f437ffa090c4eb33ae9dfac1b3", "lat": 38.93640383333333, "lon": -77.06002066666667, "rental_uris": {"android": "https://dc.lft.to/lastmile_qr_scan", "ios": "https://dc.lft.to/lastmile_qr_scan"}, "is_disabled": 0, "fusion_lat": 0.0, "name": "059265f437ffa090c4eb33ae9dfac1b3", "fusion_lon": 0.0}, {"is_reserved": 0, "type": "electric_scooter", "bike_id": "7ff75910ea0482688771b4c560185af4", "lat": 38.91710666666667, "lon": -77.0107445, "rental_uris": {"android": "https://dc.lft.to/lastmile_qr_scan", "ios": "https://dc.lft.to/lastmile_qr_scan"}, "is_disabled": 0, "fusion_lat": 0.0, "name": "7ff75910ea0482688771b4c560185af4", "fusion_lon": 0.0}, {"is_reserved": 0, "type": "electric_scooter", "bike_id": "49091aa5cfdb39f722b9c2b96c517319", "lat": 38.86450833333333, "lon": -76.99113133333333, "rental_uris": {"android": "https://dc.lft.to/lastmile_qr_scan", "ios": "https://dc.lft.to/lastmile_qr_scan"}, "is_disabled": 0, "fusion_lat": 0.0, "name": "49091aa5cfdb39f722b9c2b96c517319", "fusion_lon": 0.0}, {"is_reserved": 0, "type": "electric_scooter", "bike_id": "f82089157fbb10bd3372f4c22e92605d", "lat": 38.91714, "lon": -77.0386195, "rental_uris": {"android": "https://dc.lft.to/lastmile_qr_scan", "ios": "https://dc.lft.to/lastmile_qr_scan"}, "is_disabled": 0, "fusion_lat": 0.0, "name": "f82089157fbb10bd3372f4c22e92605d", "fusion_lon": 0.0}, {"is_reserved": 0, "type": "electric_scooter", "bike_id": "71e5e18f937de4e4f0b23de4daa5eaff", "lat": 38.924733333333336, "lon": -77.02995083333333, "rental_uris": {"android": "https://dc.lft.to/lastmile_qr_scan", "ios": "https://dc.lft.to/lastmile_qr_scan"}, "is_disabled": 0, "fusion_lat": 0.0, "name": "71e5e18f937de4e4f0b23de4daa5eaff", "fusion_lon": 0.0}, {"is_reserved": 0, "type": "electric_scooter", "bike_id": "fb1710b6dc0738afd40cf2caa3baeb54", "lat": 38.914220666666665, "lon": -77.01801333333333, "rental_uris": {"android": "https://dc.lft.to/lastmile_qr_scan", "ios": "https://dc.lft.to/lastmile_qr_scan"}, "is_disabled": 0, "fusion_lat": 0.0, "name": "fb1710b6dc0738afd40cf2caa3baeb54", "fusion_lon": 0.0}, {"is_reserved": 0, "type": "electric_bike", "bike_id": "e12d744ad8471ecadf827344f723dadb", "lat": 39.09445233333334, "lon": -77.13462133333333, "rental_uris": {"android": "https://dc.lft.to/lastmile_qr_scan", "ios": "https://dc.lft.to/lastmile_qr_scan"}, "is_disabled": 0, "fusion_lat": 0.0, "name": "e12d744ad8471ecadf827344f723dadb", "fusion_lon": 0.0}, {"is_reserved": 0, "type": "electric_scooter", "bike_id": "035d3b4feb01370d8b6143381bcfa1d3", "lat": 38.972326833333334, "lon": -77.02708683333333, "rental_uris": {"android": "https://dc.lft.to/lastmile_qr_scan", "ios": "https://dc.lft.to/lastmile_qr_scan"}, "is_disabled": 0, "fusion_lat": 0.0, "name": "035d3b4feb01370d8b6143381bcfa1d3", "fusion_lon": 0.0}, {"is_reserved": 0, "type": "electric_scooter", "bike_id": "d69c1220353c33563d41e04315ef89e5", "lat": 38.930229833333335, "lon": -77.03787533333333, "rental_uris": {"android": "https://dc.lft.to/lastmile_qr_scan", "ios": "https://dc.lft.to/lastmile_qr_scan"}, "is_disabled": 0, "fusion_lat": 0.0, "name": "d69c1220353c33563d41e04315ef89e5", "fusion_lon": 0.0}, {"is_reserved": 0, "type": "electric_scooter", "bike_id": "784a5860333828173cf402f242016e3e", "lat": 38.919291, "lon": -77.0342225, "rental_uris": {"android": "https://dc.lft.to/lastmile_qr_scan", "ios": "https://dc.lft.to/lastmile_qr_scan"}, "is_disabled": 0, "fusion_lat": 0.0, "name": "784a5860333828173cf402f242016e3e", "fusion_lon": 0.0}, {"is_reserved": 0, "type": "electric_bike", "bike_id": "d258469eab9081a5264dfa0d757bd23d", "lat": 38.928810166666665, "lon": -77.03807466666666, "rental_uris": {"android": "https://dc.lft.to/lastmile_qr_scan", "ios": "https://dc.lft.to/lastmile_qr_scan"}, "is_disabled": 0, "fusion_lat": 0.0, "name": "d258469eab9081a5264dfa0d757bd23d", "fusion_lon": 0.0}, {"is_reserved": 0, "type": "electric_scooter", "bike_id": "4b8401b7d228cfe8b106e70d5bc942b9", "lat": 38.9149455, "lon": -77.01997316666667, "rental_uris": {"android": "https://dc.lft.to/lastmile_qr_scan", "ios": "https://dc.lft.to/lastmile_qr_scan"}, "is_disabled": 0, "fusion_lat": 0.0, "name": "4b8401b7d228cfe8b106e70d5bc942b9", "fusion_lon": 0.0}, {"is_reserved": 0, "type": "electric_scooter", "bike_id": "8bab5ce0892c4d37b196ea24badb19f7", "lat": 38.899978833333336, "lon": -77.02208483333334, "rental_uris": {"android": "https://dc.lft.to/lastmile_qr_scan", "ios": "https://dc.lft.to/lastmile_qr_scan"}, "is_disabled": 0, "fusion_lat": 0.0, "name": "8bab5ce0892c4d37b196ea24badb19f7", "fusion_lon": 0.0}, {"is_reserved": 0, "type": "electric_scooter", "bike_id": "bdd9231deea2f7b24195b6997afc7c9b", "lat": 38.90139, "lon": -77.04167, "rental_uris": {"android": "https://dc.lft.to/lastmile_qr_scan", "ios": "https://dc.lft.to/lastmile_qr_scan"}, "is_disabled": 0, "fusion_lat": 0.0, "name": "bdd9231deea2f7b24195b6997afc7c9b", "fusion_lon": 0.0}, {"is_reserved": 0, "type": "electric_scooter", "bike_id": "6509ac575740f8a7391ad6fe2fea1f51", "lat": 38.877055666666664, "lon": -77.01735383333333, "rental_uris": {"android": "https://dc.lft.to/lastmile_qr_scan", "ios": "https://dc.lft.to/lastmile_qr_scan"}, "is_disabled": 0, "fusion_lat": 0.0, "name": "6509ac575740f8a7391ad6fe2fea1f51", "fusion_lon": 0.0}, {"is_reserved": 0, "type": "electric_scooter", "bike_id": "bb347e138366dab220c1c0342ac6466f", "lat": 38.88634233333333, "lon": -77.0128545, "rental_uris": {"android": "https://dc.lft.to/lastmile_qr_scan", "ios": "https://dc.lft.to/lastmile_qr_scan"}, "is_disabled": 0, "fusion_lat": 0.0, "name": "bb347e138366dab220c1c0342ac6466f", "fusion_lon": 0.0}, {"is_reserved": 0, "type": "electric_scooter", "bike_id": "f0edbd1e2ef5a2d4b6b63f9304ba56f7", "lat": 38.9192725, "lon": -77.01976083333334, "rental_uris": {"android": "https://dc.lft.to/lastmile_qr_scan", "ios": "https://dc.lft.to/lastmile_qr_scan"}, "is_disabled": 0, "fusion_lat": 0.0, "name": "f0edbd1e2ef5a2d4b6b63f9304ba56f7", "fusion_lon": 0.0}, {"is_reserved": 0, "type": "electric_scooter", "bike_id": "aa7d7bff0aed6e5975998c6b18b9d4d5", "lat": 38.927258, "lon": -77.016411, "rental_uris": {"android": "https://dc.lft.to/lastmile_qr_scan", "ios": "https://dc.lft.to/lastmile_qr_scan"}, "is_disabled": 0, "fusion_lat": 0.0, "name": "aa7d7bff0aed6e5975998c6b18b9d4d5", "fusion_lon": 0.0}, {"is_reserved": 0, "type": "electric_scooter", "bike_id": "dcecfb1faf4e8e0d59a37da7ea5e6754", "lat": 38.89797083333333, "lon": -77.032522, "rental_uris": {"android": "https://dc.lft.to/lastmile_qr_scan", "ios": "https://dc.lft.to/lastmile_qr_scan"}, "is_disabled": 0, "fusion_lat": 0.0, "name": "dcecfb1faf4e8e0d59a37da7ea5e6754", "fusion_lon": 0.0}, {"is_reserved": 0, "type": "electric_scooter", "bike_id": "5df9211ad30c60b6d03c306db6024aee", "lat": 38.92382116666667, "lon": -77.018851, "rental_uris": {"android": "https://dc.lft.to/lastmile_qr_scan", "ios": "https://dc.lft.to/lastmile_qr_scan"}, "is_disabled": 0, "fusion_lat": 0.0, "name": "5df9211ad30c60b6d03c306db6024aee", "fusion_lon": 0.0}, {"is_reserved": 0, "type": "electric_scooter", "bike_id": "3f5c1926ce7565a45473a502fcf859f7", "lat": 38.901197833333335, "lon": -77.02724816666667, "rental_uris": {"android": "https://dc.lft.to/lastmile_qr_scan", "ios": "https://dc.lft.to/lastmile_qr_scan"}, "is_disabled": 0, "fusion_lat": 0.0, "name": "3f5c1926ce7565a45473a502fcf859f7", "fusion_lon": 0.0}, {"is_reserved": 0, "type": "electric_scooter", "bike_id": "7e47444bb3d1ed1fae4c71abcc9931be", "lat": 38.8950225, "lon": -77.046423, "rental_uris": {"android": "https://dc.lft.to/lastmile_qr_scan", "ios": "https://dc.lft.to/lastmile_qr_scan"}, "is_disabled": 0, "fusion_lat": 0.0, "name": "7e47444bb3d1ed1fae4c71abcc9931be", "fusion_lon": 0.0}, {"is_reserved": 0, "type": "electric_scooter", "bike_id": "69dc14242eba65311ac0e58d966aa52b", "lat": 38.92037716666667, "lon": -77.0177365, "rental_uris": {"android": "https://dc.lft.to/lastmile_qr_scan", "ios": "https://dc.lft.to/lastmile_qr_scan"}, "is_disabled": 0, "fusion_lat": 0.0, "name": "69dc14242eba65311ac0e58d966aa52b", "fusion_lon": 0.0}, {"is_reserved": 0, "type": "electric_scooter", "bike_id": "a5b4e2af1339e0eda49fb0fb720765b7", "lat": 38.91102, "lon": -77.073468, "rental_uris": {"android": "https://dc.lft.to/lastmile_qr_scan", "ios": "https://dc.lft.to/lastmile_qr_scan"}, "is_disabled": 0, "fusion_lat": 0.0, "name": "a5b4e2af1339e0eda49fb0fb720765b7", "fusion_lon": 0.0}, {"is_reserved": 0, "type": "electric_scooter", "bike_id": "980fa3663a663076cb624f378649da65", "lat": 38.922312833333336, "lon": -77.02330183333333, "rental_uris": {"android": "https://dc.lft.to/lastmile_qr_scan", "ios": "https://dc.lft.to/lastmile_qr_scan"}, "is_disabled": 0, "fusion_lat": 0.0, "name": "980fa3663a663076cb624f378649da65", "fusion_lon": 0.0}, {"is_reserved": 0, "type": "electric_scooter", "bike_id": "92c9f8e6e3c85f24d3bcf79970ada34b", "lat": 38.930082166666665, "lon": -77.023062, "rental_uris": {"android": "https://dc.lft.to/lastmile_qr_scan", "ios": "https://dc.lft.to/lastmile_qr_scan"}, "is_disabled": 0, "fusion_lat": 0.0, "name": "92c9f8e6e3c85f24d3bcf79970ada34b", "fusion_lon": 0.0}, {"is_reserved": 0, "type": "electric_scooter", "bike_id": "4b1cf58f40a300ad48d222e5e4471672", "lat": 38.92161016666667, "lon": -77.03381116666667, "rental_uris": {"android": "https://dc.lft.to/lastmile_qr_scan", "ios": "https://dc.lft.to/lastmile_qr_scan"}, "is_disabled": 0, "fusion_lat": 0.0, "name": "4b1cf58f40a300ad48d222e5e4471672", "fusion_lon": 0.0}, {"is_reserved": 0, "type": "electric_scooter", "bike_id": "35f315024b519b6d55914ac829846c28", "lat": 38.91417216666667, "lon": -77.018774, "rental_uris": {"android": "https://dc.lft.to/lastmile_qr_scan", "ios": "https://dc.lft.to/lastmile_qr_scan"}, "is_disabled": 0, "fusion_lat": 0.0, "name": "35f315024b519b6d55914ac829846c28", "fusion_lon": 0.0}, {"is_reserved": 0, "type": "electric_scooter", "bike_id": "aed33be4e0df8096609a071fa5bf9040", "lat": 38.914054, "lon": -77.03170283333333, "rental_uris": {"android": "https://dc.lft.to/lastmile_qr_scan", "ios": "https://dc.lft.to/lastmile_qr_scan"}, "is_disabled": 0, "fusion_lat": 0.0, "name": "aed33be4e0df8096609a071fa5bf9040", "fusion_lon": 0.0}, {"is_reserved": 0, "type": "electric_bike", "bike_id": "491aab4ea5cd0fec81e865e4abf209d6", "lat": 38.9661845, "lon": -77.034408, "rental_uris": {"android": "https://dc.lft.to/lastmile_qr_scan", "ios": "https://dc.lft.to/lastmile_qr_scan"}, "is_disabled": 0, "fusion_lat": 0.0, "name": "491aab4ea5cd0fec81e865e4abf209d6", "fusion_lon": 0.0}, {"is_reserved": 0, "type": "electric_scooter", "bike_id": "6bf584e16dbadad6261a07778a2bd4c9", "lat": 38.8830245, "lon": -76.9485655, "rental_uris": {"android": "https://dc.lft.to/lastmile_qr_scan", "ios": "https://dc.lft.to/lastmile_qr_scan"}, "is_disabled": 0, "fusion_lat": 0.0, "name": "6bf584e16dbadad6261a07778a2bd4c9", "fusion_lon": 0.0}, {"is_reserved": 0, "type": "electric_scooter", "bike_id": "ea6f92335064ab770fe506863b3ab76e", "lat": 38.90070033333333, "lon": -77.04942566666666, "rental_uris": {"android": "https://dc.lft.to/lastmile_qr_scan", "ios": "https://dc.lft.to/lastmile_qr_scan"}, "is_disabled": 0, "fusion_lat": 0.0, "name": "ea6f92335064ab770fe506863b3ab76e", "fusion_lon": 0.0}, {"is_reserved": 0, "type": "electric_scooter", "bike_id": "72080b50fb4c5e6fbc735e4771376a72", "lat": 38.878586166666665, "lon": -77.00745166666667, "rental_uris": {"android": "https://dc.lft.to/lastmile_qr_scan", "ios": "https://dc.lft.to/lastmile_qr_scan"}, "is_disabled": 0, "fusion_lat": 0.0, "name": "72080b50fb4c5e6fbc735e4771376a72", "fusion_lon": 0.0}, {"is_reserved": 0, "type": "electric_scooter", "bike_id": "df6dc0bd680792874e81e57fc9bb22e2", "lat": 38.923069, "lon": -77.03011966666666, "rental_uris": {"android": "https://dc.lft.to/lastmile_qr_scan", "ios": "https://dc.lft.to/lastmile_qr_scan"}, "is_disabled": 0, "fusion_lat": 0.0, "name": "df6dc0bd680792874e81e57fc9bb22e2", "fusion_lon": 0.0}, {"is_reserved": 0, "type": "electric_scooter", "bike_id": "6c759bc0626a27959f5ed6bf26b8d538", "lat": 38.9187325, "lon": -77.044476, "rental_uris": {"android": "https://dc.lft.to/lastmile_qr_scan", "ios": "https://dc.lft.to/lastmile_qr_scan"}, "is_disabled": 0, "fusion_lat": 0.0, "name": "6c759bc0626a27959f5ed6bf26b8d538", "fusion_lon": 0.0}, {"is_reserved": 0, "type": "electric_bike", "bike_id": "75871bed5123ca5dc1191c32a726bec5", "lat": 38.8086835, "lon": -77.112563, "rental_uris": {"android": "https://dc.lft.to/lastmile_qr_scan", "ios": "https://dc.lft.to/lastmile_qr_scan"}, "is_disabled": 0, "fusion_lat": 0.0, "name": "75871bed5123ca5dc1191c32a726bec5", "fusion_lon": 0.0}, {"is_reserved": 0, "type": "electric_scooter", "bike_id": "244e2093eb6224a47241819831df0c0e", "lat": 38.914174333333335, "lon": -77.02211483333333, "rental_uris": {"android": "https://dc.lft.to/lastmile_qr_scan", "ios": "https://dc.lft.to/lastmile_qr_scan"}, "is_disabled": 0, "fusion_lat": 0.0, "name": "244e2093eb6224a47241819831df0c0e", "fusion_lon": 0.0}, {"is_reserved": 0, "type": "electric_scooter", "bike_id": "2dafa5e9d8800167b623c2a3faa9482c", "lat": 38.892057333333334, "lon": -76.929207, "rental_uris": {"android": "https://dc.lft.to/lastmile_qr_scan", "ios": "https://dc.lft.to/lastmile_qr_scan"}, "is_disabled": 0, "fusion_lat": 0.0, "name": "2dafa5e9d8800167b623c2a3faa9482c", "fusion_lon": 0.0}, {"is_reserved": 0, "type": "electric_scooter", "bike_id": "b9034a80120daf30214d55797c3b122c", "lat": 38.923167166666666, "lon": -77.04313916666666, "rental_uris": {"android": "https://dc.lft.to/lastmile_qr_scan", "ios": "https://dc.lft.to/lastmile_qr_scan"}, "is_disabled": 0, "fusion_lat": 0.0, "name": "b9034a80120daf30214d55797c3b122c", "fusion_lon": 0.0}, {"is_reserved": 0, "type": "electric_bike", "bike_id": "19152d29f21c7c5882d0a123b486b81b", "lat": 38.900388, "lon": -76.9779265, "rental_uris": {"android": "https://dc.lft.to/lastmile_qr_scan", "ios": "https://dc.lft.to/lastmile_qr_scan"}, "is_disabled": 0, "fusion_lat": 0.0, "name": "19152d29f21c7c5882d0a123b486b81b", "fusion_lon": 0.0}, {"is_reserved": 0, "type": "electric_scooter", "bike_id": "0101f3d04f602b39e86ca8161846af5e", "lat": 38.923324, "lon": -77.04666616666667, "rental_uris": {"android": "https://dc.lft.to/lastmile_qr_scan", "ios": "https://dc.lft.to/lastmile_qr_scan"}, "is_disabled": 0, "fusion_lat": 0.0, "name": "0101f3d04f602b39e86ca8161846af5e", "fusion_lon": 0.0}, {"is_reserved": 0, "type": "electric_scooter", "bike_id": "34dac9eddc199adf8d2c0bd248cbd6fc", "lat": 38.897284666666664, "lon": -77.05520133333333, "rental_uris": {"android": "https://dc.lft.to/lastmile_qr_scan", "ios": "https://dc.lft.to/lastmile_qr_scan"}, "is_disabled": 0, "fusion_lat": 0.0, "name": "34dac9eddc199adf8d2c0bd248cbd6fc", "fusion_lon": 0.0}, {"is_reserved": 0, "type": "electric_scooter", "bike_id": "4f2a8162de3e194bc1b1d3d47ecbdda0", "lat": 38.925549833333335, "lon": -77.0365455, "rental_uris": {"android": "https://dc.lft.to/lastmile_qr_scan", "ios": "https://dc.lft.to/lastmile_qr_scan"}, "is_disabled": 0, "fusion_lat": 0.0, "name": "4f2a8162de3e194bc1b1d3d47ecbdda0", "fusion_lon": 0.0}, {"is_reserved": 0, "type": "electric_scooter", "bike_id": "8a5ce1129413832a6cf09b942271f16d", "lat": 38.925196166666666, "lon": -77.02572066666667, "rental_uris": {"android": "https://dc.lft.to/lastmile_qr_scan", "ios": "https://dc.lft.to/lastmile_qr_scan"}, "is_disabled": 0, "fusion_lat": 0.0, "name": "8a5ce1129413832a6cf09b942271f16d", "fusion_lon": 0.0}, {"is_reserved": 0, "type": "electric_scooter", "bike_id": "a5a05b308456c0e47c0496462feb1f30", "lat": 38.9200375, "lon": -77.03879966666666, "rental_uris": {"android": "https://dc.lft.to/lastmile_qr_scan", "ios": "https://dc.lft.to/lastmile_qr_scan"}, "is_disabled": 0, "fusion_lat": 0.0, "name": "a5a05b308456c0e47c0496462feb1f30", "fusion_lon": 0.0}, {"is_reserved": 0, "type": "electric_scooter", "bike_id": "9aaae81d45cb468a157faf722327446b", "lat": 38.92360266666667, "lon": -77.01910483333333, "rental_uris": {"android": "https://dc.lft.to/lastmile_qr_scan", "ios": "https://dc.lft.to/lastmile_qr_scan"}, "is_disabled": 0, "fusion_lat": 0.0, "name": "9aaae81d45cb468a157faf722327446b", "fusion_lon": 0.0}, {"is_reserved": 0, "type": "electric_scooter", "bike_id": "df05271c453adec21d16b704a7b6c39d", "lat": 38.89226983333333, "lon": -77.02420833333333, "rental_uris": {"android": "https://dc.lft.to/lastmile_qr_scan", "ios": "https://dc.lft.to/lastmile_qr_scan"}, "is_disabled": 0, "fusion_lat": 0.0, "name": "df05271c453adec21d16b704a7b6c39d", "fusion_lon": 0.0}, {"is_reserved": 0, "type": "electric_scooter", "bike_id": "8fda097d143ba42b8ddf278edb90e582", "lat": 38.872716833333335, "lon": -77.01709616666666, "rental_uris": {"android": "https://dc.lft.to/lastmile_qr_scan", "ios": "https://dc.lft.to/lastmile_qr_scan"}, "is_disabled": 0, "fusion_lat": 0.0, "name": "8fda097d143ba42b8ddf278edb90e582", "fusion_lon": 0.0}, {"is_reserved": 0, "type": "electric_scooter", "bike_id": "6d83586682094dfef5caf6f6294612d0", "lat": 38.936180666666665, "lon": -77.058581, "rental_uris": {"android": "https://dc.lft.to/lastmile_qr_scan", "ios": "https://dc.lft.to/lastmile_qr_scan"}, "is_disabled": 0, "fusion_lat": 0.0, "name": "6d83586682094dfef5caf6f6294612d0", "fusion_lon": 0.0}, {"is_reserved": 0, "type": "electric_scooter", "bike_id": "7bc7f134b53b03c52c7d133d6e4c3997", "lat": 38.8716045, "lon": -77.013153, "rental_uris": {"android": "https://dc.lft.to/lastmile_qr_scan", "ios": "https://dc.lft.to/lastmile_qr_scan"}, "is_disabled": 0, "fusion_lat": 0.0, "name": "7bc7f134b53b03c52c7d133d6e4c3997", "fusion_lon": 0.0}, {"is_reserved": 0, "type": "electric_bike", "bike_id": "797e539b8b7165d7c8959c48c618ca89", "lat": 38.9575405, "lon": -76.96747433333333, "rental_uris": {"android": "https://dc.lft.to/lastmile_qr_scan", "ios": "https://dc.lft.to/lastmile_qr_scan"}, "is_disabled": 0, "fusion_lat": 0.0, "name": "797e539b8b7165d7c8959c48c618ca89", "fusion_lon": 0.0}, {"is_reserved": 0, "type": "electric_scooter", "bike_id": "47b1fc16a85b2c88f5f8c45e3fc5d527", "lat": 38.932668666666665, "lon": -77.0328125, "rental_uris": {"android": "https://dc.lft.to/lastmile_qr_scan", "ios": "https://dc.lft.to/lastmile_qr_scan"}, "is_disabled": 0, "fusion_lat": 0.0, "name": "47b1fc16a85b2c88f5f8c45e3fc5d527", "fusion_lon": 0.0}, {"is_reserved": 0, "type": "electric_scooter", "bike_id": "78723bc90d752114e0c67ac319198f9f", "lat": 38.93092383333333, "lon": -77.0238095, "rental_uris": {"android": "https://dc.lft.to/lastmile_qr_scan", "ios": "https://dc.lft.to/lastmile_qr_scan"}, "is_disabled": 0, "fusion_lat": 0.0, "name": "78723bc90d752114e0c67ac319198f9f", "fusion_lon": 0.0}, {"is_reserved": 0, "type": "electric_scooter", "bike_id": "944c1b4b11685ab870d71b1090a4292f", "lat": 38.89624966666667, "lon": -76.99729333333333, "rental_uris": {"android": "https://dc.lft.to/lastmile_qr_scan", "ios": "https://dc.lft.to/lastmile_qr_scan"}, "is_disabled": 0, "fusion_lat": 0.0, "name": "944c1b4b11685ab870d71b1090a4292f", "fusion_lon": 0.0}, {"is_reserved": 0, "type": "electric_scooter", "bike_id": "01853cb999ec2f0d79e98cee86782c33", "lat": 38.875731, "lon": -77.00574883333333, "rental_uris": {"android": "https://dc.lft.to/lastmile_qr_scan", "ios": "https://dc.lft.to/lastmile_qr_scan"}, "is_disabled": 0, "fusion_lat": 0.0, "name": "01853cb999ec2f0d79e98cee86782c33", "fusion_lon": 0.0}, {"is_reserved": 0, "type": "electric_scooter", "bike_id": "d3fc6f4b8ef99dc35b5b2f1742dc29a7", "lat": 38.916480666666665, "lon": -77.02181066666667, "rental_uris": {"android": "https://dc.lft.to/lastmile_qr_scan", "ios": "https://dc.lft.to/lastmile_qr_scan"}, "is_disabled": 0, "fusion_lat": 0.0, "name": "d3fc6f4b8ef99dc35b5b2f1742dc29a7", "fusion_lon": 0.0}, {"is_reserved": 0, "type": "electric_scooter", "bike_id": "e7fe64f28ee91a599b3f9a68ce4ed478", "lat": 38.89950233333333, "lon": -76.94630533333333, "rental_uris": {"android": "https://dc.lft.to/lastmile_qr_scan", "ios": "https://dc.lft.to/lastmile_qr_scan"}, "is_disabled": 0, "fusion_lat": 0.0, "name": "e7fe64f28ee91a599b3f9a68ce4ed478", "fusion_lon": 0.0}, {"is_reserved": 0, "type": "electric_scooter", "bike_id": "8c740afc4518530c9dd6ba66087e45ee", "lat": 38.92398566666667, "lon": -77.05052716666667, "rental_uris": {"android": "https://dc.lft.to/lastmile_qr_scan", "ios": "https://dc.lft.to/lastmile_qr_scan"}, "is_disabled": 0, "fusion_lat": 0.0, "name": "8c740afc4518530c9dd6ba66087e45ee", "fusion_lon": 0.0}, {"is_reserved": 0, "type": "electric_bike", "bike_id": "d434c0c94856ccba0771e91ae6d0eb01", "lat": 38.958728, "lon": -76.97055116666667, "rental_uris": {"android": "https://dc.lft.to/lastmile_qr_scan", "ios": "https://dc.lft.to/lastmile_qr_scan"}, "is_disabled": 0, "fusion_lat": 0.0, "name": "d434c0c94856ccba0771e91ae6d0eb01", "fusion_lon": 0.0}, {"is_reserved": 0, "type": "electric_scooter", "bike_id": "8e0da56eec224235859fe793a8550071", "lat": 38.89325266666667, "lon": -77.0318835, "rental_uris": {"android": "https://dc.lft.to/lastmile_qr_scan", "ios": "https://dc.lft.to/lastmile_qr_scan"}, "is_disabled": 0, "fusion_lat": 0.0, "name": "8e0da56eec224235859fe793a8550071", "fusion_lon": 0.0}, {"is_reserved": 0, "type": "electric_bike", "bike_id": "104de14f9a9a6f260a6dc968128f114d", "lat": 38.857931666666666, "lon": -77.09967183333333, "rental_uris": {"android": "https://dc.lft.to/lastmile_qr_scan", "ios": "https://dc.lft.to/lastmile_qr_scan"}, "is_disabled": 0, "fusion_lat": 0.0, "name": "104de14f9a9a6f260a6dc968128f114d", "fusion_lon": 0.0}, {"is_reserved": 0, "type": "electric_scooter", "bike_id": "c8ec945395368ea0392d66968a31f894", "lat": 38.93244, "lon": -76.99753816666667, "rental_uris": {"android": "https://dc.lft.to/lastmile_qr_scan", "ios": "https://dc.lft.to/lastmile_qr_scan"}, "is_disabled": 0, "fusion_lat": 0.0, "name": "c8ec945395368ea0392d66968a31f894", "fusion_lon": 0.0}, {"is_reserved": 0, "type": "electric_scooter", "bike_id": "29e30cbcf321a4e5ad1dbe6ab8b33a37", "lat": 38.903572, "lon": -77.00755033333333, "rental_uris": {"android": "https://dc.lft.to/lastmile_qr_scan", "ios": "https://dc.lft.to/lastmile_qr_scan"}, "is_disabled": 0, "fusion_lat": 0.0, "name": "29e30cbcf321a4e5ad1dbe6ab8b33a37", "fusion_lon": 0.0}, {"is_reserved": 0, "type": "electric_scooter", "bike_id": "f5fbfd02285b85b56bdb4cd36ba9c143", "lat": 38.90548883333334, "lon": -77.0043525, "rental_uris": {"android": "https://dc.lft.to/lastmile_qr_scan", "ios": "https://dc.lft.to/lastmile_qr_scan"}, "is_disabled": 0, "fusion_lat": 0.0, "name": "f5fbfd02285b85b56bdb4cd36ba9c143", "fusion_lon": 0.0}, {"is_reserved": 0, "type": "electric_scooter", "bike_id": "f977ef95811f0454ea72cfe2449f5e86", "lat": 38.92121066666667, "lon": -77.01901816666667, "rental_uris": {"android": "https://dc.lft.to/lastmile_qr_scan", "ios": "https://dc.lft.to/lastmile_qr_scan"}, "is_disabled": 0, "fusion_lat": 0.0, "name": "f977ef95811f0454ea72cfe2449f5e86", "fusion_lon": 0.0}, {"is_reserved": 0, "type": "electric_scooter", "bike_id": "c53d01e0ed0ead3a3178065dd552fedc", "lat": 38.907304833333335, "lon": -77.00811433333334, "rental_uris": {"android": "https://dc.lft.to/lastmile_qr_scan", "ios": "https://dc.lft.to/lastmile_qr_scan"}, "is_disabled": 0, "fusion_lat": 0.0, "name": "c53d01e0ed0ead3a3178065dd552fedc", "fusion_lon": 0.0}, {"is_reserved": 0, "type": "electric_scooter", "bike_id": "2137698b48b0a02a26cc6fc4ecb169e2", "lat": 38.91685483333333, "lon": -77.02948166666667, "rental_uris": {"android": "https://dc.lft.to/lastmile_qr_scan", "ios": "https://dc.lft.to/lastmile_qr_scan"}, "is_disabled": 0, "fusion_lat": 0.0, "name": "2137698b48b0a02a26cc6fc4ecb169e2", "fusion_lon": 0.0}, {"is_reserved": 0, "type": "electric_scooter", "bike_id": "ad29a2f0283ade116987ba26e98da8d0", "lat": 38.930763, "lon": -77.028156, "rental_uris": {"android": "https://dc.lft.to/lastmile_qr_scan", "ios": "https://dc.lft.to/lastmile_qr_scan"}, "is_disabled": 0, "fusion_lat": 0.0, "name": "ad29a2f0283ade116987ba26e98da8d0", "fusion_lon": 0.0}, {"is_reserved": 0, "type": "electric_bike", "bike_id": "1c5c3231cb84ccda151e24c43915b665", "lat": 38.945636666666665, "lon": -76.95842583333334, "rental_uris": {"android": "https://dc.lft.to/lastmile_qr_scan", "ios": "https://dc.lft.to/lastmile_qr_scan"}, "is_disabled": 0, "fusion_lat": 0.0, "name": "1c5c3231cb84ccda151e24c43915b665", "fusion_lon": 0.0}, {"is_reserved": 0, "type": "electric_scooter", "bike_id": "2f3e03fad3a62d4e862c864f097bbb16", "lat": 38.92605833333333, "lon": -77.0215875, "rental_uris": {"android": "https://dc.lft.to/lastmile_qr_scan", "ios": "https://dc.lft.to/lastmile_qr_scan"}, "is_disabled": 0, "fusion_lat": 0.0, "name": "2f3e03fad3a62d4e862c864f097bbb16", "fusion_lon": 0.0}, {"is_reserved": 0, "type": "electric_bike", "bike_id": "274c7af46935a29c601b7ba51ae119a0", "lat": 38.802527, "lon": -77.11445433333333, "rental_uris": {"android": "https://dc.lft.to/lastmile_qr_scan", "ios": "https://dc.lft.to/lastmile_qr_scan"}, "is_disabled": 0, "fusion_lat": 0.0, "name": "274c7af46935a29c601b7ba51ae119a0", "fusion_lon": 0.0}, {"is_reserved": 0, "type": "electric_scooter", "bike_id": "4dc7ac7f5219597f10620977c229f00c", "lat": 38.916429666666666, "lon": -77.02099083333333, "rental_uris": {"android": "https://dc.lft.to/lastmile_qr_scan", "ios": "https://dc.lft.to/lastmile_qr_scan"}, "is_disabled": 0, "fusion_lat": 0.0, "name": "4dc7ac7f5219597f10620977c229f00c", "fusion_lon": 0.0}, {"is_reserved": 0, "type": "electric_scooter", "bike_id": "ecba26172062376def2ff42b5f24e03a", "lat": 38.9061955, "lon": -77.051463, "rental_uris": {"android": "https://dc.lft.to/lastmile_qr_scan", "ios": "https://dc.lft.to/lastmile_qr_scan"}, "is_disabled": 0, "fusion_lat": 0.0, "name": "ecba26172062376def2ff42b5f24e03a", "fusion_lon": 0.0}, {"is_reserved": 0, "type": "electric_bike", "bike_id": "ee235f9476b0b299d5b6599534f90a71", "lat": 38.88758216666667, "lon": -77.08928733333333, "rental_uris": {"android": "https://dc.lft.to/lastmile_qr_scan", "ios": "https://dc.lft.to/lastmile_qr_scan"}, "is_disabled": 0, "fusion_lat": 0.0, "name": "ee235f9476b0b299d5b6599534f90a71", "fusion_lon": 0.0}, {"is_reserved": 0, "type": "electric_scooter", "bike_id": "d2eb24f2b896f041a3a801cc1c152367", "lat": 38.922228, "lon": -77.043284, "rental_uris": {"android": "https://dc.lft.to/lastmile_qr_scan", "ios": "https://dc.lft.to/lastmile_qr_scan"}, "is_disabled": 0, "fusion_lat": 0.0, "name": "d2eb24f2b896f041a3a801cc1c152367", "fusion_lon": 0.0}, {"is_reserved": 0, "type": "electric_scooter", "bike_id": "994d309801ea4a94c01b64ad04b649e4", "lat": 38.926008333333336, "lon": -77.05711983333333, "rental_uris": {"android": "https://dc.lft.to/lastmile_qr_scan", "ios": "https://dc.lft.to/lastmile_qr_scan"}, "is_disabled": 0, "fusion_lat": 0.0, "name": "994d309801ea4a94c01b64ad04b649e4", "fusion_lon": 0.0}, {"is_reserved": 0, "type": "electric_scooter", "bike_id": "ab63c930db27d42754ff349d69aa6362", "lat": 38.9001845, "lon": -76.99688633333334, "rental_uris": {"android": "https://dc.lft.to/lastmile_qr_scan", "ios": "https://dc.lft.to/lastmile_qr_scan"}, "is_disabled": 0, "fusion_lat": 0.0, "name": "ab63c930db27d42754ff349d69aa6362", "fusion_lon": 0.0}, {"is_reserved": 0, "type": "electric_scooter", "bike_id": "1b343429039f3dcee24aa39399f5fe88", "lat": 38.926675833333334, "lon": -77.03024266666667, "rental_uris": {"android": "https://dc.lft.to/lastmile_qr_scan", "ios": "https://dc.lft.to/lastmile_qr_scan"}, "is_disabled": 0, "fusion_lat": 0.0, "name": "1b343429039f3dcee24aa39399f5fe88", "fusion_lon": 0.0}, {"is_reserved": 0, "type": "electric_scooter", "bike_id": "e069cd9a37ea3b4aba1852ae0ca295e9", "lat": 38.91983533333333, "lon": -77.04065333333334, "rental_uris": {"android": "https://dc.lft.to/lastmile_qr_scan", "ios": "https://dc.lft.to/lastmile_qr_scan"}, "is_disabled": 0, "fusion_lat": 0.0, "name": "e069cd9a37ea3b4aba1852ae0ca295e9", "fusion_lon": 0.0}, {"is_reserved": 0, "type": "electric_scooter", "bike_id": "151fe9f46706325453345dfb51939314", "lat": 38.928290833333335, "lon": -77.05438966666667, "rental_uris": {"android": "https://dc.lft.to/lastmile_qr_scan", "ios": "https://dc.lft.to/lastmile_qr_scan"}, "is_disabled": 0, "fusion_lat": 0.0, "name": "151fe9f46706325453345dfb51939314", "fusion_lon": 0.0}, {"is_reserved": 0, "type": "electric_scooter", "bike_id": "faebef47353b5e0db9d6e71a213ccd0c", "lat": 38.924817166666664, "lon": -77.03479883333333, "rental_uris": {"android": "https://dc.lft.to/lastmile_qr_scan", "ios": "https://dc.lft.to/lastmile_qr_scan"}, "is_disabled": 0, "fusion_lat": 0.0, "name": "faebef47353b5e0db9d6e71a213ccd0c", "fusion_lon": 0.0}, {"is_reserved": 0, "type": "electric_scooter", "bike_id": "47e58d9596cb1d585d6bc37fba17eea7", "lat": 38.873983, "lon": -77.00017883333334, "rental_uris": {"android": "https://dc.lft.to/lastmile_qr_scan", "ios": "https://dc.lft.to/lastmile_qr_scan"}, "is_disabled": 0, "fusion_lat": 0.0, "name": "47e58d9596cb1d585d6bc37fba17eea7", "fusion_lon": 0.0}, {"is_reserved": 0, "type": "electric_scooter", "bike_id": "95288fee59e54ae9b1dd70ad7643fef5", "lat": 38.93747066666667, "lon": -77.032551, "rental_uris": {"android": "https://dc.lft.to/lastmile_qr_scan", "ios": "https://dc.lft.to/lastmile_qr_scan"}, "is_disabled": 0, "fusion_lat": 0.0, "name": "95288fee59e54ae9b1dd70ad7643fef5", "fusion_lon": 0.0}, {"is_reserved": 0, "type": "electric_scooter", "bike_id": "9e44e014e07b04b12e3a19d629b4e3e8", "lat": 38.943149, "lon": -77.0218065, "rental_uris": {"android": "https://dc.lft.to/lastmile_qr_scan", "ios": "https://dc.lft.to/lastmile_qr_scan"}, "is_disabled": 0, "fusion_lat": 0.0, "name": "9e44e014e07b04b12e3a19d629b4e3e8", "fusion_lon": 0.0}, {"is_reserved": 0, "type": "electric_scooter", "bike_id": "58add8c48c6d1b932af47c1dd78ed536", "lat": 38.90794283333334, "lon": -77.0488295, "rental_uris": {"android": "https://dc.lft.to/lastmile_qr_scan", "ios": "https://dc.lft.to/lastmile_qr_scan"}, "is_disabled": 0, "fusion_lat": 0.0, "name": "58add8c48c6d1b932af47c1dd78ed536", "fusion_lon": 0.0}, {"is_reserved": 0, "type": "electric_scooter", "bike_id": "a5eb2af9f290a014c2883772ab17091e", "lat": 38.888112, "lon": -77.00207266666666, "rental_uris": {"android": "https://dc.lft.to/lastmile_qr_scan", "ios": "https://dc.lft.to/lastmile_qr_scan"}, "is_disabled": 0, "fusion_lat": 0.0, "name": "a5eb2af9f290a014c2883772ab17091e", "fusion_lon": 0.0}, {"is_reserved": 0, "type": "electric_scooter", "bike_id": "c1ea932d04e52e1658ca79bbf86a56d8", "lat": 38.9202915, "lon": -77.0102975, "rental_uris": {"android": "https://dc.lft.to/lastmile_qr_scan", "ios": "https://dc.lft.to/lastmile_qr_scan"}, "is_disabled": 0, "fusion_lat": 0.0, "name": "c1ea932d04e52e1658ca79bbf86a56d8", "fusion_lon": 0.0}, {"is_reserved": 0, "type": "electric_scooter", "bike_id": "ae1162318cc0724046a1e7b0cb59ff45", "lat": 38.89915666666667, "lon": -77.0267905, "rental_uris": {"android": "https://dc.lft.to/lastmile_qr_scan", "ios": "https://dc.lft.to/lastmile_qr_scan"}, "is_disabled": 0, "fusion_lat": 0.0, "name": "ae1162318cc0724046a1e7b0cb59ff45", "fusion_lon": 0.0}, {"is_reserved": 0, "type": "electric_scooter", "bike_id": "5d76f6ff24bad26f3607be41c0a993f8", "lat": 38.8763535, "lon": -77.007179, "rental_uris": {"android": "https://dc.lft.to/lastmile_qr_scan", "ios": "https://dc.lft.to/lastmile_qr_scan"}, "is_disabled": 0, "fusion_lat": 0.0, "name": "5d76f6ff24bad26f3607be41c0a993f8", "fusion_lon": 0.0}, {"is_reserved": 0, "type": "electric_scooter", "bike_id": "44af5efd2fb269664d20f1febaea845d", "lat": 38.89044333333333, "lon": -76.95249066666666, "rental_uris": {"android": "https://dc.lft.to/lastmile_qr_scan", "ios": "https://dc.lft.to/lastmile_qr_scan"}, "is_disabled": 0, "fusion_lat": 0.0, "name": "44af5efd2fb269664d20f1febaea845d", "fusion_lon": 0.0}, {"is_reserved": 0, "type": "electric_scooter", "bike_id": "b3caf58fcd949e344910064febf3dadd", "lat": 38.876088833333334, "lon": -76.965631, "rental_uris": {"android": "https://dc.lft.to/lastmile_qr_scan", "ios": "https://dc.lft.to/lastmile_qr_scan"}, "is_disabled": 0, "fusion_lat": 0.0, "name": "b3caf58fcd949e344910064febf3dadd", "fusion_lon": 0.0}, {"is_reserved": 0, "type": "electric_scooter", "bike_id": "35d62f2f3ed6d7616ec95b821e885a37", "lat": 38.925557166666664, "lon": -77.07763733333333, "rental_uris": {"android": "https://dc.lft.to/lastmile_qr_scan", "ios": "https://dc.lft.to/lastmile_qr_scan"}, "is_disabled": 0, "fusion_lat": 0.0, "name": "35d62f2f3ed6d7616ec95b821e885a37", "fusion_lon": 0.0}, {"is_reserved": 0, "type": "electric_scooter", "bike_id": "9facc69edeab2a240d5d0b97a53c92ab", "lat": 38.9181655, "lon": -77.03152833333333, "rental_uris": {"android": "https://dc.lft.to/lastmile_qr_scan", "ios": "https://dc.lft.to/lastmile_qr_scan"}, "is_disabled": 0, "fusion_lat": 0.0, "name": "9facc69edeab2a240d5d0b97a53c92ab", "fusion_lon": 0.0}, {"is_reserved": 0, "type": "electric_scooter", "bike_id": "70264450e5c74e89d1b695cd5ac5906b", "lat": 38.90520866666667, "lon": -77.0638365, "rental_uris": {"android": "https://dc.lft.to/lastmile_qr_scan", "ios": "https://dc.lft.to/lastmile_qr_scan"}, "is_disabled": 0, "fusion_lat": 0.0, "name": "70264450e5c74e89d1b695cd5ac5906b", "fusion_lon": 0.0}, {"is_reserved": 0, "type": "electric_scooter", "bike_id": "845977ed8fcc237f62b9806e8614386e", "lat": 38.901054333333335, "lon": -77.02324033333333, "rental_uris": {"android": "https://dc.lft.to/lastmile_qr_scan", "ios": "https://dc.lft.to/lastmile_qr_scan"}, "is_disabled": 0, "fusion_lat": 0.0, "name": "845977ed8fcc237f62b9806e8614386e", "fusion_lon": 0.0}, {"is_reserved": 0, "type": "electric_scooter", "bike_id": "3a84bd0c2a68cd35064278c040617c05", "lat": 38.9239735, "lon": -77.05043316666666, "rental_uris": {"android": "https://dc.lft.to/lastmile_qr_scan", "ios": "https://dc.lft.to/lastmile_qr_scan"}, "is_disabled": 0, "fusion_lat": 0.0, "name": "3a84bd0c2a68cd35064278c040617c05", "fusion_lon": 0.0}, {"is_reserved": 0, "type": "electric_bike", "bike_id": "e2467b4d277601539c8251369dcff841", "lat": 38.793402666666665, "lon": -77.00061866666667, "rental_uris": {"android": "https://dc.lft.to/lastmile_qr_scan", "ios": "https://dc.lft.to/lastmile_qr_scan"}, "is_disabled": 0, "fusion_lat": 0.0, "name": "e2467b4d277601539c8251369dcff841", "fusion_lon": 0.0}, {"is_reserved": 0, "type": "electric_scooter", "bike_id": "6b4241192c98e126ef0c3c69125742b2", "lat": 38.9356925, "lon": -77.03258433333333, "rental_uris": {"android": "https://dc.lft.to/lastmile_qr_scan", "ios": "https://dc.lft.to/lastmile_qr_scan"}, "is_disabled": 0, "fusion_lat": 0.0, "name": "6b4241192c98e126ef0c3c69125742b2", "fusion_lon": 0.0}, {"is_reserved": 0, "type": "electric_scooter", "bike_id": "f2da2bdf503dda94a24e4f5ebc73f4fe", "lat": 38.90577116666667, "lon": -77.027627, "rental_uris": {"android": "https://dc.lft.to/lastmile_qr_scan", "ios": "https://dc.lft.to/lastmile_qr_scan"}, "is_disabled": 0, "fusion_lat": 0.0, "name": "f2da2bdf503dda94a24e4f5ebc73f4fe", "fusion_lon": 0.0}, {"is_reserved": 0, "type": "electric_scooter", "bike_id": "609b57825ca38a821fdde27efda280d0", "lat": 38.89227866666667, "lon": -77.0448655, "rental_uris": {"android": "https://dc.lft.to/lastmile_qr_scan", "ios": "https://dc.lft.to/lastmile_qr_scan"}, "is_disabled": 0, "fusion_lat": 0.0, "name": "609b57825ca38a821fdde27efda280d0", "fusion_lon": 0.0}, {"is_reserved": 0, "type": "electric_scooter", "bike_id": "d635c712cb5d7a0684ca2025b03952b2", "lat": 38.93982033333333, "lon": -77.035705, "rental_uris": {"android": "https://dc.lft.to/lastmile_qr_scan", "ios": "https://dc.lft.to/lastmile_qr_scan"}, "is_disabled": 0, "fusion_lat": 0.0, "name": "d635c712cb5d7a0684ca2025b03952b2", "fusion_lon": 0.0}, {"is_reserved": 0, "type": "electric_scooter", "bike_id": "28a2ca5ef1a02b57176ef24868752858", "lat": 38.91291533333333, "lon": -77.02306566666667, "rental_uris": {"android": "https://dc.lft.to/lastmile_qr_scan", "ios": "https://dc.lft.to/lastmile_qr_scan"}, "is_disabled": 0, "fusion_lat": 0.0, "name": "28a2ca5ef1a02b57176ef24868752858", "fusion_lon": 0.0}, {"is_reserved": 0, "type": "electric_scooter", "bike_id": "33de1ffb6ed4b8c314c67d1f552a2c15", "lat": 38.877667333333335, "lon": -77.0188685, "rental_uris": {"android": "https://dc.lft.to/lastmile_qr_scan", "ios": "https://dc.lft.to/lastmile_qr_scan"}, "is_disabled": 0, "fusion_lat": 0.0, "name": "33de1ffb6ed4b8c314c67d1f552a2c15", "fusion_lon": 0.0}, {"is_reserved": 0, "type": "electric_scooter", "bike_id": "e865d0e44932fa004a72656f6d1c1a10", "lat": 38.905761, "lon": -77.00784633333333, "rental_uris": {"android": "https://dc.lft.to/lastmile_qr_scan", "ios": "https://dc.lft.to/lastmile_qr_scan"}, "is_disabled": 0, "fusion_lat": 0.0, "name": "e865d0e44932fa004a72656f6d1c1a10", "fusion_lon": 0.0}, {"is_reserved": 0, "type": "electric_scooter", "bike_id": "4973687ef3b79804f7ef236f7fa95eee", "lat": 38.914586, "lon": -76.98440633333334, "rental_uris": {"android": "https://dc.lft.to/lastmile_qr_scan", "ios": "https://dc.lft.to/lastmile_qr_scan"}, "is_disabled": 0, "fusion_lat": 0.0, "name": "4973687ef3b79804f7ef236f7fa95eee", "fusion_lon": 0.0}, {"is_reserved": 0, "type": "electric_scooter", "bike_id": "2e60246fc204d129f1e84a94845a8866", "lat": 38.89222016666667, "lon": -77.04682983333333, "rental_uris": {"android": "https://dc.lft.to/lastmile_qr_scan", "ios": "https://dc.lft.to/lastmile_qr_scan"}, "is_disabled": 0, "fusion_lat": 0.0, "name": "2e60246fc204d129f1e84a94845a8866", "fusion_lon": 0.0}, {"is_reserved": 0, "type": "electric_scooter", "bike_id": "2f78f807178c9e9d291c6ad91130bdf8", "lat": 38.91990966666667, "lon": -77.033099, "rental_uris": {"android": "https://dc.lft.to/lastmile_qr_scan", "ios": "https://dc.lft.to/lastmile_qr_scan"}, "is_disabled": 0, "fusion_lat": 0.0, "name": "2f78f807178c9e9d291c6ad91130bdf8", "fusion_lon": 0.0}, {"is_reserved": 0, "type": "electric_scooter", "bike_id": "ea601da947e091b55aad9a2bc8e5d495", "lat": 38.90372, "lon": -76.98491716666666, "rental_uris": {"android": "https://dc.lft.to/lastmile_qr_scan", "ios": "https://dc.lft.to/lastmile_qr_scan"}, "is_disabled": 0, "fusion_lat": 0.0, "name": "ea601da947e091b55aad9a2bc8e5d495", "fusion_lon": 0.0}, {"is_reserved": 0, "type": "electric_scooter", "bike_id": "72bf199b16466bec88d206ea856e54a3", "lat": 38.9341385, "lon": -77.03378083333334, "rental_uris": {"android": "https://dc.lft.to/lastmile_qr_scan", "ios": "https://dc.lft.to/lastmile_qr_scan"}, "is_disabled": 0, "fusion_lat": 0.0, "name": "72bf199b16466bec88d206ea856e54a3", "fusion_lon": 0.0}, {"is_reserved": 0, "type": "electric_scooter", "bike_id": "13a906c32e665326e294c4e9a24a3949", "lat": 38.89987816666667, "lon": -76.99482233333333, "rental_uris": {"android": "https://dc.lft.to/lastmile_qr_scan", "ios": "https://dc.lft.to/lastmile_qr_scan"}, "is_disabled": 0, "fusion_lat": 0.0, "name": "13a906c32e665326e294c4e9a24a3949", "fusion_lon": 0.0}, {"is_reserved": 0, "type": "electric_scooter", "bike_id": "777d649301cdf05cf0c17eb41aa851cd", "lat": 38.894851, "lon": -77.02154483333334, "rental_uris": {"android": "https://dc.lft.to/lastmile_qr_scan", "ios": "https://dc.lft.to/lastmile_qr_scan"}, "is_disabled": 0, "fusion_lat": 0.0, "name": "777d649301cdf05cf0c17eb41aa851cd", "fusion_lon": 0.0}, {"is_reserved": 0, "type": "electric_scooter", "bike_id": "d1268a5b25307f3638d9951bcf5716e8", "lat": 38.93756883333333, "lon": -77.02834766666666, "rental_uris": {"android": "https://dc.lft.to/lastmile_qr_scan", "ios": "https://dc.lft.to/lastmile_qr_scan"}, "is_disabled": 0, "fusion_lat": 0.0, "name": "d1268a5b25307f3638d9951bcf5716e8", "fusion_lon": 0.0}, {"is_reserved": 0, "type": "electric_scooter", "bike_id": "cf83a832081e5a54780dd19ab69b5204", "lat": 38.900578, "lon": -77.052988, "rental_uris": {"android": "https://dc.lft.to/lastmile_qr_scan", "ios": "https://dc.lft.to/lastmile_qr_scan"}, "is_disabled": 0, "fusion_lat": 0.0, "name": "cf83a832081e5a54780dd19ab69b5204", "fusion_lon": 0.0}, {"is_reserved": 0, "type": "electric_scooter", "bike_id": "a9ce53209efe0038c26d41c190f1b6d7", "lat": 38.924091, "lon": -77.0194405, "rental_uris": {"android": "https://dc.lft.to/lastmile_qr_scan", "ios": "https://dc.lft.to/lastmile_qr_scan"}, "is_disabled": 0, "fusion_lat": 0.0, "name": "a9ce53209efe0038c26d41c190f1b6d7", "fusion_lon": 0.0}, {"is_reserved": 0, "type": "electric_scooter", "bike_id": "beaa6e26183b6658621f686d204318fc", "lat": 38.89219683333334, "lon": -77.031012, "rental_uris": {"android": "https://dc.lft.to/lastmile_qr_scan", "ios": "https://dc.lft.to/lastmile_qr_scan"}, "is_disabled": 0, "fusion_lat": 0.0, "name": "beaa6e26183b6658621f686d204318fc", "fusion_lon": 0.0}, {"is_reserved": 0, "type": "electric_scooter", "bike_id": "1b37a59748f58d5d80081252f8656b8e", "lat": 38.9220155, "lon": -77.02032733333333, "rental_uris": {"android": "https://dc.lft.to/lastmile_qr_scan", "ios": "https://dc.lft.to/lastmile_qr_scan"}, "is_disabled": 0, "fusion_lat": 0.0, "name": "1b37a59748f58d5d80081252f8656b8e", "fusion_lon": 0.0}, {"is_reserved": 0, "type": "electric_scooter", "bike_id": "58eb915abd054dc771c162e9fb23775a", "lat": 38.9061785, "lon": -77.008722, "rental_uris": {"android": "https://dc.lft.to/lastmile_qr_scan", "ios": "https://dc.lft.to/lastmile_qr_scan"}, "is_disabled": 0, "fusion_lat": 0.0, "name": "58eb915abd054dc771c162e9fb23775a", "fusion_lon": 0.0}, {"is_reserved": 0, "type": "electric_scooter", "bike_id": "901e9cdad3421200ffec4f1bf725aae6", "lat": 38.91021583333333, "lon": -76.993776, "rental_uris": {"android": "https://dc.lft.to/lastmile_qr_scan", "ios": "https://dc.lft.to/lastmile_qr_scan"}, "is_disabled": 0, "fusion_lat": 0.0, "name": "901e9cdad3421200ffec4f1bf725aae6", "fusion_lon": 0.0}, {"is_reserved": 0, "type": "electric_scooter", "bike_id": "0e6942465c86a4029d973f1461c1900f", "lat": 38.912678, "lon": -77.0386925, "rental_uris": {"android": "https://dc.lft.to/lastmile_qr_scan", "ios": "https://dc.lft.to/lastmile_qr_scan"}, "is_disabled": 0, "fusion_lat": 0.0, "name": "0e6942465c86a4029d973f1461c1900f", "fusion_lon": 0.0}, {"is_reserved": 0, "type": "electric_scooter", "bike_id": "6d296c8e1d6a9b9dcf05d2cad0900ae1", "lat": 38.90616766666667, "lon": -77.00744766666666, "rental_uris": {"android": "https://dc.lft.to/lastmile_qr_scan", "ios": "https://dc.lft.to/lastmile_qr_scan"}, "is_disabled": 0, "fusion_lat": 0.0, "name": "6d296c8e1d6a9b9dcf05d2cad0900ae1", "fusion_lon": 0.0}, {"is_reserved": 0, "type": "electric_scooter", "bike_id": "fbd308c6b84c811e53977a8ba78d889c", "lat": 38.904965, "lon": -77.0295215, "rental_uris": {"android": "https://dc.lft.to/lastmile_qr_scan", "ios": "https://dc.lft.to/lastmile_qr_scan"}, "is_disabled": 0, "fusion_lat": 0.0, "name": "fbd308c6b84c811e53977a8ba78d889c", "fusion_lon": 0.0}, {"is_reserved": 0, "type": "electric_scooter", "bike_id": "e6810b3fdbd737359e94d55b120e323d", "lat": 38.92853066666667, "lon": -77.02871983333333, "rental_uris": {"android": "https://dc.lft.to/lastmile_qr_scan", "ios": "https://dc.lft.to/lastmile_qr_scan"}, "is_disabled": 0, "fusion_lat": 0.0, "name": "e6810b3fdbd737359e94d55b120e323d", "fusion_lon": 0.0}, {"is_reserved": 0, "type": "electric_scooter", "bike_id": "3683f18992d5fd50047aba6511ded9a8", "lat": 38.91422933333333, "lon": -77.0180645, "rental_uris": {"android": "https://dc.lft.to/lastmile_qr_scan", "ios": "https://dc.lft.to/lastmile_qr_scan"}, "is_disabled": 0, "fusion_lat": 0.0, "name": "3683f18992d5fd50047aba6511ded9a8", "fusion_lon": 0.0}, {"is_reserved": 0, "type": "electric_scooter", "bike_id": "ddbd37b69e5ff8bb1cef8ce3708fcbfa", "lat": 38.89631933333333, "lon": -77.00210183333333, "rental_uris": {"android": "https://dc.lft.to/lastmile_qr_scan", "ios": "https://dc.lft.to/lastmile_qr_scan"}, "is_disabled": 0, "fusion_lat": 0.0, "name": "ddbd37b69e5ff8bb1cef8ce3708fcbfa", "fusion_lon": 0.0}, {"is_reserved": 0, "type": "electric_scooter", "bike_id": "a4b88a7226a9d961a1a1ff545251344c", "lat": 38.9280335, "lon": -77.03630383333333, "rental_uris": {"android": "https://dc.lft.to/lastmile_qr_scan", "ios": "https://dc.lft.to/lastmile_qr_scan"}, "is_disabled": 0, "fusion_lat": 0.0, "name": "a4b88a7226a9d961a1a1ff545251344c", "fusion_lon": 0.0}, {"is_reserved": 0, "type": "electric_scooter", "bike_id": "6cb1dd69673f9a70fabe815de2e51fa5", "lat": 38.90155266666667, "lon": -77.0447375, "rental_uris": {"android": "https://dc.lft.to/lastmile_qr_scan", "ios": "https://dc.lft.to/lastmile_qr_scan"}, "is_disabled": 0, "fusion_lat": 0.0, "name": "6cb1dd69673f9a70fabe815de2e51fa5", "fusion_lon": 0.0}, {"is_reserved": 0, "type": "electric_bike", "bike_id": "ae0e2c60df2bb0ee21a6474ad9ab616f", "lat": 38.898859333333334, "lon": -76.97874233333333, "rental_uris": {"android": "https://dc.lft.to/lastmile_qr_scan", "ios": "https://dc.lft.to/lastmile_qr_scan"}, "is_disabled": 0, "fusion_lat": 0.0, "name": "ae0e2c60df2bb0ee21a6474ad9ab616f", "fusion_lon": 0.0}, {"is_reserved": 0, "type": "electric_scooter", "bike_id": "96f7290956acd25605954f9e1c323333", "lat": 38.905638, "lon": -77.01936933333333, "rental_uris": {"android": "https://dc.lft.to/lastmile_qr_scan", "ios": "https://dc.lft.to/lastmile_qr_scan"}, "is_disabled": 0, "fusion_lat": 0.0, "name": "96f7290956acd25605954f9e1c323333", "fusion_lon": 0.0}, {"is_reserved": 0, "type": "electric_scooter", "bike_id": "f3d31f53bf06a9251d71d0158e7320fb", "lat": 38.90603733333333, "lon": -77.04684483333334, "rental_uris": {"android": "https://dc.lft.to/lastmile_qr_scan", "ios": "https://dc.lft.to/lastmile_qr_scan"}, "is_disabled": 0, "fusion_lat": 0.0, "name": "f3d31f53bf06a9251d71d0158e7320fb", "fusion_lon": 0.0}, {"is_reserved": 0, "type": "electric_scooter", "bike_id": "fe01ae54b2cf1c6e1691d75195ff88c1", "lat": 38.90968733333333, "lon": -77.0144335, "rental_uris": {"android": "https://dc.lft.to/lastmile_qr_scan", "ios": "https://dc.lft.to/lastmile_qr_scan"}, "is_disabled": 0, "fusion_lat": 0.0, "name": "fe01ae54b2cf1c6e1691d75195ff88c1", "fusion_lon": 0.0}, {"is_reserved": 0, "type": "electric_scooter", "bike_id": "4ca5846ce71c0acc71e6287371da48fa", "lat": 38.902967333333336, "lon": -77.01611166666666, "rental_uris": {"android": "https://dc.lft.to/lastmile_qr_scan", "ios": "https://dc.lft.to/lastmile_qr_scan"}, "is_disabled": 0, "fusion_lat": 0.0, "name": "4ca5846ce71c0acc71e6287371da48fa", "fusion_lon": 0.0}, {"is_reserved": 0, "type": "electric_scooter", "bike_id": "4308b5df9d275d1ddccd1d21db2aaac1", "lat": 38.924055, "lon": -76.95144166666667, "rental_uris": {"android": "https://dc.lft.to/lastmile_qr_scan", "ios": "https://dc.lft.to/lastmile_qr_scan"}, "is_disabled": 0, "fusion_lat": 0.0, "name": "4308b5df9d275d1ddccd1d21db2aaac1", "fusion_lon": 0.0}, {"is_reserved": 0, "type": "electric_scooter", "bike_id": "96a6f84d1261e09e610a91d2ec5d2434", "lat": 38.90851416666667, "lon": -76.99964116666666, "rental_uris": {"android": "https://dc.lft.to/lastmile_qr_scan", "ios": "https://dc.lft.to/lastmile_qr_scan"}, "is_disabled": 0, "fusion_lat": 0.0, "name": "96a6f84d1261e09e610a91d2ec5d2434", "fusion_lon": 0.0}, {"is_reserved": 0, "type": "electric_scooter", "bike_id": "6d1b93be8aa5f56806e7be88dfb33ae7", "lat": 38.89666616666667, "lon": -77.02406633333334, "rental_uris": {"android": "https://dc.lft.to/lastmile_qr_scan", "ios": "https://dc.lft.to/lastmile_qr_scan"}, "is_disabled": 0, "fusion_lat": 0.0, "name": "6d1b93be8aa5f56806e7be88dfb33ae7", "fusion_lon": 0.0}, {"is_reserved": 0, "type": "electric_scooter", "bike_id": "f3a56a50334049b684d2349caf67e7b8", "lat": 38.904025, "lon": -77.02003016666667, "rental_uris": {"android": "https://dc.lft.to/lastmile_qr_scan", "ios": "https://dc.lft.to/lastmile_qr_scan"}, "is_disabled": 0, "fusion_lat": 0.0, "name": "f3a56a50334049b684d2349caf67e7b8", "fusion_lon": 0.0}, {"is_reserved": 0, "type": "electric_scooter", "bike_id": "21b9a6c96d60312b0961cb8550412847", "lat": 38.9309535, "lon": -77.02550866666667, "rental_uris": {"android": "https://dc.lft.to/lastmile_qr_scan", "ios": "https://dc.lft.to/lastmile_qr_scan"}, "is_disabled": 0, "fusion_lat": 0.0, "name": "21b9a6c96d60312b0961cb8550412847", "fusion_lon": 0.0}, {"is_reserved": 0, "type": "electric_scooter", "bike_id": "502c9af4b34b2a5cbe71633b52ebd561", "lat": 38.9173125, "lon": -77.016027, "rental_uris": {"android": "https://dc.lft.to/lastmile_qr_scan", "ios": "https://dc.lft.to/lastmile_qr_scan"}, "is_disabled": 0, "fusion_lat": 0.0, "name": "502c9af4b34b2a5cbe71633b52ebd561", "fusion_lon": 0.0}, {"is_reserved": 0, "type": "electric_scooter", "bike_id": "3900151b5969bd4ed6f8e77a85279e12", "lat": 38.93501633333333, "lon": -77.042842, "rental_uris": {"android": "https://dc.lft.to/lastmile_qr_scan", "ios": "https://dc.lft.to/lastmile_qr_scan"}, "is_disabled": 0, "fusion_lat": 0.0, "name": "3900151b5969bd4ed6f8e77a85279e12", "fusion_lon": 0.0}, {"is_reserved": 0, "type": "electric_scooter", "bike_id": "12b447f60427b582a7833712bd0cfe72", "lat": 38.927681166666666, "lon": -77.02776566666667, "rental_uris": {"android": "https://dc.lft.to/lastmile_qr_scan", "ios": "https://dc.lft.to/lastmile_qr_scan"}, "is_disabled": 0, "fusion_lat": 0.0, "name": "12b447f60427b582a7833712bd0cfe72", "fusion_lon": 0.0}, {"is_reserved": 0, "type": "electric_scooter", "bike_id": "8ea354f1eb6ba59061837ea177be9766", "lat": 38.9239705, "lon": -77.05040383333333, "rental_uris": {"android": "https://dc.lft.to/lastmile_qr_scan", "ios": "https://dc.lft.to/lastmile_qr_scan"}, "is_disabled": 0, "fusion_lat": 0.0, "name": "8ea354f1eb6ba59061837ea177be9766", "fusion_lon": 0.0}, {"is_reserved": 0, "type": "electric_scooter", "bike_id": "36227a5c547a30ecc1194c5bc7ecf827", "lat": 38.9239455, "lon": -77.05044616666666, "rental_uris": {"android": "https://dc.lft.to/lastmile_qr_scan", "ios": "https://dc.lft.to/lastmile_qr_scan"}, "is_disabled": 0, "fusion_lat": 0.0, "name": "36227a5c547a30ecc1194c5bc7ecf827", "fusion_lon": 0.0}, {"is_reserved": 0, "type": "electric_scooter", "bike_id": "d9650279db2db940bed6a203a4e3f9c7", "lat": 38.94745666666667, "lon": -77.01935933333333, "rental_uris": {"android": "https://dc.lft.to/lastmile_qr_scan", "ios": "https://dc.lft.to/lastmile_qr_scan"}, "is_disabled": 0, "fusion_lat": 0.0, "name": "d9650279db2db940bed6a203a4e3f9c7", "fusion_lon": 0.0}, {"is_reserved": 0, "type": "electric_scooter", "bike_id": "d70c1fd00e532dfcce28a442d52c76d2", "lat": 38.92831533333333, "lon": -77.05517666666667, "rental_uris": {"android": "https://dc.lft.to/lastmile_qr_scan", "ios": "https://dc.lft.to/lastmile_qr_scan"}, "is_disabled": 0, "fusion_lat": 0.0, "name": "d70c1fd00e532dfcce28a442d52c76d2", "fusion_lon": 0.0}, {"is_reserved": 0, "type": "electric_scooter", "bike_id": "92deac6eef8823d94ab85a2695f623d6", "lat": 38.898026, "lon": -77.01179233333333, "rental_uris": {"android": "https://dc.lft.to/lastmile_qr_scan", "ios": "https://dc.lft.to/lastmile_qr_scan"}, "is_disabled": 0, "fusion_lat": 0.0, "name": "92deac6eef8823d94ab85a2695f623d6", "fusion_lon": 0.0}, {"is_reserved": 0, "type": "electric_bike", "bike_id": "fe75a7c289b72dd82d32e54111b36d0a", "lat": 38.895626, "lon": -77.12734966666666, "rental_uris": {"android": "https://dc.lft.to/lastmile_qr_scan", "ios": "https://dc.lft.to/lastmile_qr_scan"}, "is_disabled": 0, "fusion_lat": 0.0, "name": "fe75a7c289b72dd82d32e54111b36d0a", "fusion_lon": 0.0}, {"is_reserved": 0, "type": "electric_scooter", "bike_id": "f0a642e76ba8b8be2f5dbd6525beb2d0", "lat": 38.93004233333333, "lon": -77.02306016666667, "rental_uris": {"android": "https://dc.lft.to/lastmile_qr_scan", "ios": "https://dc.lft.to/lastmile_qr_scan"}, "is_disabled": 0, "fusion_lat": 0.0, "name": "f0a642e76ba8b8be2f5dbd6525beb2d0", "fusion_lon": 0.0}, {"is_reserved": 0, "type": "electric_scooter", "bike_id": "ab278eef2b5cfb2c0ca7bacc664ab206", "lat": 38.9403085, "lon": -77.02639866666667, "rental_uris": {"android": "https://dc.lft.to/lastmile_qr_scan", "ios": "https://dc.lft.to/lastmile_qr_scan"}, "is_disabled": 0, "fusion_lat": 0.0, "name": "ab278eef2b5cfb2c0ca7bacc664ab206", "fusion_lon": 0.0}, {"is_reserved": 0, "type": "electric_scooter", "bike_id": "f39b53135b12e2c4b0f69904bcf095bd", "lat": 38.91176033333333, "lon": -77.028276, "rental_uris": {"android": "https://dc.lft.to/lastmile_qr_scan", "ios": "https://dc.lft.to/lastmile_qr_scan"}, "is_disabled": 0, "fusion_lat": 0.0, "name": "f39b53135b12e2c4b0f69904bcf095bd", "fusion_lon": 0.0}, {"is_reserved": 0, "type": "electric_scooter", "bike_id": "2afde24014903ae2358ad6c98529688e", "lat": 38.86435983333333, "lon": -76.99856566666666, "rental_uris": {"android": "https://dc.lft.to/lastmile_qr_scan", "ios": "https://dc.lft.to/lastmile_qr_scan"}, "is_disabled": 0, "fusion_lat": 0.0, "name": "2afde24014903ae2358ad6c98529688e", "fusion_lon": 0.0}, {"is_reserved": 0, "type": "electric_scooter", "bike_id": "256a9f57a8837b65f4e72dc1c7a17128", "lat": 38.93459, "lon": -77.0223815, "rental_uris": {"android": "https://dc.lft.to/lastmile_qr_scan", "ios": "https://dc.lft.to/lastmile_qr_scan"}, "is_disabled": 0, "fusion_lat": 0.0, "name": "256a9f57a8837b65f4e72dc1c7a17128", "fusion_lon": 0.0}, {"is_reserved": 0, "type": "electric_scooter", "bike_id": "ab012b3f324605b8d81c0db5b56c00d3", "lat": 38.92901466666667, "lon": -77.0225095, "rental_uris": {"android": "https://dc.lft.to/lastmile_qr_scan", "ios": "https://dc.lft.to/lastmile_qr_scan"}, "is_disabled": 0, "fusion_lat": 0.0, "name": "ab012b3f324605b8d81c0db5b56c00d3", "fusion_lon": 0.0}, {"is_reserved": 0, "type": "electric_scooter", "bike_id": "c3ceb13765405378270b39009cdaf153", "lat": 38.91768783333333, "lon": -77.0320495, "rental_uris": {"android": "https://dc.lft.to/lastmile_qr_scan", "ios": "https://dc.lft.to/lastmile_qr_scan"}, "is_disabled": 0, "fusion_lat": 0.0, "name": "c3ceb13765405378270b39009cdaf153", "fusion_lon": 0.0}, {"is_reserved": 0, "type": "electric_scooter", "bike_id": "307c3025c84aded7d6fb759881233f1d", "lat": 38.950921, "lon": -77.0281145, "rental_uris": {"android": "https://dc.lft.to/lastmile_qr_scan", "ios": "https://dc.lft.to/lastmile_qr_scan"}, "is_disabled": 0, "fusion_lat": 0.0, "name": "307c3025c84aded7d6fb759881233f1d", "fusion_lon": 0.0}, {"is_reserved": 0, "type": "electric_scooter", "bike_id": "4def45950cf42e3a722234954cb0eea9", "lat": 38.90063816666667, "lon": -76.98684316666667, "rental_uris": {"android": "https://dc.lft.to/lastmile_qr_scan", "ios": "https://dc.lft.to/lastmile_qr_scan"}, "is_disabled": 0, "fusion_lat": 0.0, "name": "4def45950cf42e3a722234954cb0eea9", "fusion_lon": 0.0}, {"is_reserved": 0, "type": "electric_scooter", "bike_id": "464626e5f79977512f746571c0ac744b", "lat": 38.895904333333334, "lon": -76.929777, "rental_uris": {"android": "https://dc.lft.to/lastmile_qr_scan", "ios": "https://dc.lft.to/lastmile_qr_scan"}, "is_disabled": 0, "fusion_lat": 0.0, "name": "464626e5f79977512f746571c0ac744b", "fusion_lon": 0.0}, {"is_reserved": 0, "type": "electric_scooter", "bike_id": "0f781d0087892eafc3beb8a0cc899fa2", "lat": 38.89830516666667, "lon": -77.02196266666667, "rental_uris": {"android": "https://dc.lft.to/lastmile_qr_scan", "ios": "https://dc.lft.to/lastmile_qr_scan"}, "is_disabled": 0, "fusion_lat": 0.0, "name": "0f781d0087892eafc3beb8a0cc899fa2", "fusion_lon": 0.0}, {"is_reserved": 0, "type": "electric_scooter", "bike_id": "8e2442083d5710df9c06f6de2f1ac32c", "lat": 38.970048166666665, "lon": -77.009087, "rental_uris": {"android": "https://dc.lft.to/lastmile_qr_scan", "ios": "https://dc.lft.to/lastmile_qr_scan"}, "is_disabled": 0, "fusion_lat": 0.0, "name": "8e2442083d5710df9c06f6de2f1ac32c", "fusion_lon": 0.0}, {"is_reserved": 0, "type": "electric_scooter", "bike_id": "da1121e4a3890a4e30f79b99cf7f4cb1", "lat": 38.90558216666667, "lon": -77.03247766666667, "rental_uris": {"android": "https://dc.lft.to/lastmile_qr_scan", "ios": "https://dc.lft.to/lastmile_qr_scan"}, "is_disabled": 0, "fusion_lat": 0.0, "name": "da1121e4a3890a4e30f79b99cf7f4cb1", "fusion_lon": 0.0}, {"is_reserved": 0, "type": "electric_scooter", "bike_id": "49782883df013eeaf7c83fbd55728921", "lat": 38.87658033333334, "lon": -77.00815016666667, "rental_uris": {"android": "https://dc.lft.to/lastmile_qr_scan", "ios": "https://dc.lft.to/lastmile_qr_scan"}, "is_disabled": 0, "fusion_lat": 0.0, "name": "49782883df013eeaf7c83fbd55728921", "fusion_lon": 0.0}, {"is_reserved": 0, "type": "electric_scooter", "bike_id": "3aa9af1ef3deb16df407ac180fc84a35", "lat": 38.892149333333336, "lon": -77.02404333333334, "rental_uris": {"android": "https://dc.lft.to/lastmile_qr_scan", "ios": "https://dc.lft.to/lastmile_qr_scan"}, "is_disabled": 0, "fusion_lat": 0.0, "name": "3aa9af1ef3deb16df407ac180fc84a35", "fusion_lon": 0.0}, {"is_reserved": 0, "type": "electric_scooter", "bike_id": "558ee0dad21b7062dc68c9487a264826", "lat": 38.89521416666667, "lon": -77.03957783333334, "rental_uris": {"android": "https://dc.lft.to/lastmile_qr_scan", "ios": "https://dc.lft.to/lastmile_qr_scan"}, "is_disabled": 0, "fusion_lat": 0.0, "name": "558ee0dad21b7062dc68c9487a264826", "fusion_lon": 0.0}, {"is_reserved": 0, "type": "electric_scooter", "bike_id": "0c0a5ea8bc7547ddc802c9565d57d3f3", "lat": 38.90958783333333, "lon": -77.02284116666667, "rental_uris": {"android": "https://dc.lft.to/lastmile_qr_scan", "ios": "https://dc.lft.to/lastmile_qr_scan"}, "is_disabled": 0, "fusion_lat": 0.0, "name": "0c0a5ea8bc7547ddc802c9565d57d3f3", "fusion_lon": 0.0}, {"is_reserved": 0, "type": "electric_scooter", "bike_id": "36ce868f4e37d26d8db56ed0c2ffb485", "lat": 38.92391216666667, "lon": -77.04453333333333, "rental_uris": {"android": "https://dc.lft.to/lastmile_qr_scan", "ios": "https://dc.lft.to/lastmile_qr_scan"}, "is_disabled": 0, "fusion_lat": 0.0, "name": "36ce868f4e37d26d8db56ed0c2ffb485", "fusion_lon": 0.0}, {"is_reserved": 0, "type": "electric_scooter", "bike_id": "6bae204349b99cabccd138b61e7d217c", "lat": 38.95753, "lon": -77.02112783333334, "rental_uris": {"android": "https://dc.lft.to/lastmile_qr_scan", "ios": "https://dc.lft.to/lastmile_qr_scan"}, "is_disabled": 0, "fusion_lat": 0.0, "name": "6bae204349b99cabccd138b61e7d217c", "fusion_lon": 0.0}, {"is_reserved": 0, "type": "electric_scooter", "bike_id": "58a24036e8b01db5b7cf175770019419", "lat": 38.898047166666665, "lon": -77.03063366666666, "rental_uris": {"android": "https://dc.lft.to/lastmile_qr_scan", "ios": "https://dc.lft.to/lastmile_qr_scan"}, "is_disabled": 0, "fusion_lat": 0.0, "name": "58a24036e8b01db5b7cf175770019419", "fusion_lon": 0.0}, {"is_reserved": 0, "type": "electric_scooter", "bike_id": "740a99d54e2b4f5e814a1d796a8baf2b", "lat": 38.91671316666667, "lon": -77.03463083333334, "rental_uris": {"android": "https://dc.lft.to/lastmile_qr_scan", "ios": "https://dc.lft.to/lastmile_qr_scan"}, "is_disabled": 0, "fusion_lat": 0.0, "name": "740a99d54e2b4f5e814a1d796a8baf2b", "fusion_lon": 0.0}, {"is_reserved": 0, "type": "electric_scooter", "bike_id": "3f67ea5a3621c7a8af7a64676f1cc9b2", "lat": 38.92722333333333, "lon": -77.03681666666667, "rental_uris": {"android": "https://dc.lft.to/lastmile_qr_scan", "ios": "https://dc.lft.to/lastmile_qr_scan"}, "is_disabled": 0, "fusion_lat": 0.0, "name": "3f67ea5a3621c7a8af7a64676f1cc9b2", "fusion_lon": 0.0}, {"is_reserved": 0, "type": "electric_scooter", "bike_id": "438c873252d388ea4015a915a810a406", "lat": 38.8522565, "lon": -76.9942585, "rental_uris": {"android": "https://dc.lft.to/lastmile_qr_scan", "ios": "https://dc.lft.to/lastmile_qr_scan"}, "is_disabled": 0, "fusion_lat": 0.0, "name": "438c873252d388ea4015a915a810a406", "fusion_lon": 0.0}, {"is_reserved": 0, "type": "electric_scooter", "bike_id": "9551568df7a6a0cb0a367ca73a49bf9b", "lat": 38.89917533333333, "lon": -76.9336685, "rental_uris": {"android": "https://dc.lft.to/lastmile_qr_scan", "ios": "https://dc.lft.to/lastmile_qr_scan"}, "is_disabled": 0, "fusion_lat": 0.0, "name": "9551568df7a6a0cb0a367ca73a49bf9b", "fusion_lon": 0.0}, {"is_reserved": 0, "type": "electric_scooter", "bike_id": "bdad562bad2fe0f1ed4b30971015c34e", "lat": 38.921443, "lon": -77.04481183333333, "rental_uris": {"android": "https://dc.lft.to/lastmile_qr_scan", "ios": "https://dc.lft.to/lastmile_qr_scan"}, "is_disabled": 0, "fusion_lat": 0.0, "name": "bdad562bad2fe0f1ed4b30971015c34e", "fusion_lon": 0.0}, {"is_reserved": 0, "type": "electric_scooter", "bike_id": "c686587974f47b6a9d85090f48a0786d", "lat": 38.93619233333333, "lon": -77.0321375, "rental_uris": {"android": "https://dc.lft.to/lastmile_qr_scan", "ios": "https://dc.lft.to/lastmile_qr_scan"}, "is_disabled": 0, "fusion_lat": 0.0, "name": "c686587974f47b6a9d85090f48a0786d", "fusion_lon": 0.0}, {"is_reserved": 0, "type": "electric_scooter", "bike_id": "20b6e8c442f0caf629db702c0bb142b6", "lat": 38.938940833333334, "lon": -77.03263033333333, "rental_uris": {"android": "https://dc.lft.to/lastmile_qr_scan", "ios": "https://dc.lft.to/lastmile_qr_scan"}, "is_disabled": 0, "fusion_lat": 0.0, "name": "20b6e8c442f0caf629db702c0bb142b6", "fusion_lon": 0.0}, {"is_reserved": 0, "type": "electric_scooter", "bike_id": "cc34ad1a6830de18eb43aba72da61a01", "lat": 38.90487066666667, "lon": -77.02968816666667, "rental_uris": {"android": "https://dc.lft.to/lastmile_qr_scan", "ios": "https://dc.lft.to/lastmile_qr_scan"}, "is_disabled": 0, "fusion_lat": 0.0, "name": "cc34ad1a6830de18eb43aba72da61a01", "fusion_lon": 0.0}, {"is_reserved": 0, "type": "electric_scooter", "bike_id": "0e4627bfb684b2e082acae8fe15202ee", "lat": 38.906134, "lon": -77.00866916666666, "rental_uris": {"android": "https://dc.lft.to/lastmile_qr_scan", "ios": "https://dc.lft.to/lastmile_qr_scan"}, "is_disabled": 0, "fusion_lat": 0.0, "name": "0e4627bfb684b2e082acae8fe15202ee", "fusion_lon": 0.0}, {"is_reserved": 0, "type": "electric_scooter", "bike_id": "0f1055327bf455b827de6990a5b51c80", "lat": 38.87661816666667, "lon": -77.00761333333334, "rental_uris": {"android": "https://dc.lft.to/lastmile_qr_scan", "ios": "https://dc.lft.to/lastmile_qr_scan"}, "is_disabled": 0, "fusion_lat": 0.0, "name": "0f1055327bf455b827de6990a5b51c80", "fusion_lon": 0.0}, {"is_reserved": 0, "type": "electric_scooter", "bike_id": "86cc54f885a20bb4259f1fa22b949b5c", "lat": 38.9160995, "lon": -77.04487233333333, "rental_uris": {"android": "https://dc.lft.to/lastmile_qr_scan", "ios": "https://dc.lft.to/lastmile_qr_scan"}, "is_disabled": 0, "fusion_lat": 0.0, "name": "86cc54f885a20bb4259f1fa22b949b5c", "fusion_lon": 0.0}, {"is_reserved": 0, "type": "electric_scooter", "bike_id": "ff4d81ec0b5c7388d475bf4f57101de8", "lat": 38.920195666666665, "lon": -77.01724016666667, "rental_uris": {"android": "https://dc.lft.to/lastmile_qr_scan", "ios": "https://dc.lft.to/lastmile_qr_scan"}, "is_disabled": 0, "fusion_lat": 0.0, "name": "ff4d81ec0b5c7388d475bf4f57101de8", "fusion_lon": 0.0}, {"is_reserved": 0, "type": "electric_scooter", "bike_id": "117b2203ce055e279968d1ea76c4bbec", "lat": 38.90684533333334, "lon": -77.015466, "rental_uris": {"android": "https://dc.lft.to/lastmile_qr_scan", "ios": "https://dc.lft.to/lastmile_qr_scan"}, "is_disabled": 0, "fusion_lat": 0.0, "name": "117b2203ce055e279968d1ea76c4bbec", "fusion_lon": 0.0}, {"is_reserved": 0, "type": "electric_scooter", "bike_id": "749aa38872f5b7c8c258923c8c922879", "lat": 38.91061766666667, "lon": -77.0411155, "rental_uris": {"android": "https://dc.lft.to/lastmile_qr_scan", "ios": "https://dc.lft.to/lastmile_qr_scan"}, "is_disabled": 0, "fusion_lat": 0.0, "name": "749aa38872f5b7c8c258923c8c922879", "fusion_lon": 0.0}, {"is_reserved": 0, "type": "electric_scooter", "bike_id": "532fca71a3ef5a3d3dc733714215b0f6", "lat": 38.90412216666667, "lon": -76.973294, "rental_uris": {"android": "https://dc.lft.to/lastmile_qr_scan", "ios": "https://dc.lft.to/lastmile_qr_scan"}, "is_disabled": 0, "fusion_lat": 0.0, "name": "532fca71a3ef5a3d3dc733714215b0f6", "fusion_lon": 0.0}, {"is_reserved": 0, "type": "electric_scooter", "bike_id": "bed0bfeabf80923beb4ad54365c27448", "lat": 38.908499666666664, "lon": -77.01018716666667, "rental_uris": {"android": "https://dc.lft.to/lastmile_qr_scan", "ios": "https://dc.lft.to/lastmile_qr_scan"}, "is_disabled": 0, "fusion_lat": 0.0, "name": "bed0bfeabf80923beb4ad54365c27448", "fusion_lon": 0.0}, {"is_reserved": 0, "type": "electric_scooter", "bike_id": "192a0654014cfd6ad4bd383b5608fc84", "lat": 38.87663283333333, "lon": -76.99323816666667, "rental_uris": {"android": "https://dc.lft.to/lastmile_qr_scan", "ios": "https://dc.lft.to/lastmile_qr_scan"}, "is_disabled": 0, "fusion_lat": 0.0, "name": "192a0654014cfd6ad4bd383b5608fc84", "fusion_lon": 0.0}, {"is_reserved": 0, "type": "electric_scooter", "bike_id": "3dc11aabacada57ee736fe172fdd4ad1", "lat": 38.89954433333333, "lon": -77.044815, "rental_uris": {"android": "https://dc.lft.to/lastmile_qr_scan", "ios": "https://dc.lft.to/lastmile_qr_scan"}, "is_disabled": 0, "fusion_lat": 0.0, "name": "3dc11aabacada57ee736fe172fdd4ad1", "fusion_lon": 0.0}, {"is_reserved": 0, "type": "electric_scooter", "bike_id": "c96ae3a525b3e9cacb1ff4fe6fc00673", "lat": 38.919427666666664, "lon": -77.02512983333334, "rental_uris": {"android": "https://dc.lft.to/lastmile_qr_scan", "ios": "https://dc.lft.to/lastmile_qr_scan"}, "is_disabled": 0, "fusion_lat": 0.0, "name": "c96ae3a525b3e9cacb1ff4fe6fc00673", "fusion_lon": 0.0}, {"is_reserved": 0, "type": "electric_scooter", "bike_id": "cfb1cdce60ef4bb73c1c16df6924db49", "lat": 38.920813, "lon": -77.03559483333333, "rental_uris": {"android": "https://dc.lft.to/lastmile_qr_scan", "ios": "https://dc.lft.to/lastmile_qr_scan"}, "is_disabled": 0, "fusion_lat": 0.0, "name": "cfb1cdce60ef4bb73c1c16df6924db49", "fusion_lon": 0.0}, {"is_reserved": 0, "type": "electric_scooter", "bike_id": "3b5b21e17e26c530e7c0e0e4f0abae38", "lat": 38.92574916666667, "lon": -77.037616, "rental_uris": {"android": "https://dc.lft.to/lastmile_qr_scan", "ios": "https://dc.lft.to/lastmile_qr_scan"}, "is_disabled": 0, "fusion_lat": 0.0, "name": "3b5b21e17e26c530e7c0e0e4f0abae38", "fusion_lon": 0.0}, {"is_reserved": 0, "type": "electric_scooter", "bike_id": "3ddce7d08a11eeb62ecbd80268bd7242", "lat": 38.909711333333334, "lon": -77.00768516666666, "rental_uris": {"android": "https://dc.lft.to/lastmile_qr_scan", "ios": "https://dc.lft.to/lastmile_qr_scan"}, "is_disabled": 0, "fusion_lat": 0.0, "name": "3ddce7d08a11eeb62ecbd80268bd7242", "fusion_lon": 0.0}, {"is_reserved": 0, "type": "electric_scooter", "bike_id": "d9c9bd072a58c0333a368d9fb0618955", "lat": 38.887308166666664, "lon": -76.9837875, "rental_uris": {"android": "https://dc.lft.to/lastmile_qr_scan", "ios": "https://dc.lft.to/lastmile_qr_scan"}, "is_disabled": 0, "fusion_lat": 0.0, "name": "d9c9bd072a58c0333a368d9fb0618955", "fusion_lon": 0.0}, {"is_reserved": 0, "type": "electric_scooter", "bike_id": "988e10dc7861a400b76a390df08c8a5e", "lat": 38.92167933333333, "lon": -77.040122, "rental_uris": {"android": "https://dc.lft.to/lastmile_qr_scan", "ios": "https://dc.lft.to/lastmile_qr_scan"}, "is_disabled": 0, "fusion_lat": 0.0, "name": "988e10dc7861a400b76a390df08c8a5e", "fusion_lon": 0.0}, {"is_reserved": 0, "type": "electric_scooter", "bike_id": "ba4e16e5cafa4a872ba3fd4d1318841a", "lat": 38.9275105, "lon": -77.02110166666667, "rental_uris": {"android": "https://dc.lft.to/lastmile_qr_scan", "ios": "https://dc.lft.to/lastmile_qr_scan"}, "is_disabled": 0, "fusion_lat": 0.0, "name": "ba4e16e5cafa4a872ba3fd4d1318841a", "fusion_lon": 0.0}, {"is_reserved": 0, "type": "electric_scooter", "bike_id": "624712fd59635e380058f2c78571102f", "lat": 38.89446366666667, "lon": -77.04533383333333, "rental_uris": {"android": "https://dc.lft.to/lastmile_qr_scan", "ios": "https://dc.lft.to/lastmile_qr_scan"}, "is_disabled": 0, "fusion_lat": 0.0, "name": "624712fd59635e380058f2c78571102f", "fusion_lon": 0.0}, {"is_reserved": 0, "type": "electric_scooter", "bike_id": "ada3d472e845afa5ec1876108d53c344", "lat": 38.9009205, "lon": -76.98018366666666, "rental_uris": {"android": "https://dc.lft.to/lastmile_qr_scan", "ios": "https://dc.lft.to/lastmile_qr_scan"}, "is_disabled": 0, "fusion_lat": 0.0, "name": "ada3d472e845afa5ec1876108d53c344", "fusion_lon": 0.0}, {"is_reserved": 0, "type": "electric_scooter", "bike_id": "f2f6cd4c06aef3cdee884fbe7cac4f88", "lat": 38.8956965, "lon": -77.0412525, "rental_uris": {"android": "https://dc.lft.to/lastmile_qr_scan", "ios": "https://dc.lft.to/lastmile_qr_scan"}, "is_disabled": 0, "fusion_lat": 0.0, "name": "f2f6cd4c06aef3cdee884fbe7cac4f88", "fusion_lon": 0.0}, {"is_reserved": 0, "type": "electric_scooter", "bike_id": "b1377b17bb2f65ade21404bddab4eaad", "lat": 38.90390766666667, "lon": -77.016432, "rental_uris": {"android": "https://dc.lft.to/lastmile_qr_scan", "ios": "https://dc.lft.to/lastmile_qr_scan"}, "is_disabled": 0, "fusion_lat": 0.0, "name": "b1377b17bb2f65ade21404bddab4eaad", "fusion_lon": 0.0}, {"is_reserved": 0, "type": "electric_scooter", "bike_id": "f631149b60ecbcf8d22cd8bd6d9bb7fa", "lat": 38.91878166666667, "lon": -77.035726, "rental_uris": {"android": "https://dc.lft.to/lastmile_qr_scan", "ios": "https://dc.lft.to/lastmile_qr_scan"}, "is_disabled": 0, "fusion_lat": 0.0, "name": "f631149b60ecbcf8d22cd8bd6d9bb7fa", "fusion_lon": 0.0}, {"is_reserved": 0, "type": "electric_scooter", "bike_id": "d7862261e53b08520cf756a81628b9af", "lat": 38.90787783333333, "lon": -77.0478215, "rental_uris": {"android": "https://dc.lft.to/lastmile_qr_scan", "ios": "https://dc.lft.to/lastmile_qr_scan"}, "is_disabled": 0, "fusion_lat": 0.0, "name": "d7862261e53b08520cf756a81628b9af", "fusion_lon": 0.0}, {"is_reserved": 0, "type": "electric_scooter", "bike_id": "287adbee26b40f0ce6058a0405d1b8d4", "lat": 38.885157666666665, "lon": -76.99674183333333, "rental_uris": {"android": "https://dc.lft.to/lastmile_qr_scan", "ios": "https://dc.lft.to/lastmile_qr_scan"}, "is_disabled": 0, "fusion_lat": 0.0, "name": "287adbee26b40f0ce6058a0405d1b8d4", "fusion_lon": 0.0}, {"is_reserved": 0, "type": "electric_scooter", "bike_id": "a8951da50eb3024bf707a1f0d1e92c8f", "lat": 38.92241033333333, "lon": -77.0388965, "rental_uris": {"android": "https://dc.lft.to/lastmile_qr_scan", "ios": "https://dc.lft.to/lastmile_qr_scan"}, "is_disabled": 0, "fusion_lat": 0.0, "name": "a8951da50eb3024bf707a1f0d1e92c8f", "fusion_lon": 0.0}, {"is_reserved": 0, "type": "electric_scooter", "bike_id": "893b9998b63eb22e761bce5eda03658d", "lat": 38.920876, "lon": -77.023577, "rental_uris": {"android": "https://dc.lft.to/lastmile_qr_scan", "ios": "https://dc.lft.to/lastmile_qr_scan"}, "is_disabled": 0, "fusion_lat": 0.0, "name": "893b9998b63eb22e761bce5eda03658d", "fusion_lon": 0.0}, {"is_reserved": 0, "type": "electric_scooter", "bike_id": "56f16d630981144b84210914183b80b7", "lat": 38.92315583333333, "lon": -77.04460883333333, "rental_uris": {"android": "https://dc.lft.to/lastmile_qr_scan", "ios": "https://dc.lft.to/lastmile_qr_scan"}, "is_disabled": 0, "fusion_lat": 0.0, "name": "56f16d630981144b84210914183b80b7", "fusion_lon": 0.0}, {"is_reserved": 0, "type": "electric_scooter", "bike_id": "6618da7a43caa4ab542f5f979e334546", "lat": 38.914458333333336, "lon": -77.02374516666667, "rental_uris": {"android": "https://dc.lft.to/lastmile_qr_scan", "ios": "https://dc.lft.to/lastmile_qr_scan"}, "is_disabled": 0, "fusion_lat": 0.0, "name": "6618da7a43caa4ab542f5f979e334546", "fusion_lon": 0.0}, {"is_reserved": 0, "type": "electric_scooter", "bike_id": "b4aaeb6bb89a41b405d770de92a77144", "lat": 38.91571116666667, "lon": -77.04613283333333, "rental_uris": {"android": "https://dc.lft.to/lastmile_qr_scan", "ios": "https://dc.lft.to/lastmile_qr_scan"}, "is_disabled": 0, "fusion_lat": 0.0, "name": "b4aaeb6bb89a41b405d770de92a77144", "fusion_lon": 0.0}, {"is_reserved": 0, "type": "electric_scooter", "bike_id": "24d384f2eb73af4e6004197439532197", "lat": 38.926393166666664, "lon": -76.99549666666667, "rental_uris": {"android": "https://dc.lft.to/lastmile_qr_scan", "ios": "https://dc.lft.to/lastmile_qr_scan"}, "is_disabled": 0, "fusion_lat": 0.0, "name": "24d384f2eb73af4e6004197439532197", "fusion_lon": 0.0}, {"is_reserved": 0, "type": "electric_scooter", "bike_id": "039c5d975bcd4a43f412fe79e2b6359d", "lat": 38.92631316666667, "lon": -77.03537066666667, "rental_uris": {"android": "https://dc.lft.to/lastmile_qr_scan", "ios": "https://dc.lft.to/lastmile_qr_scan"}, "is_disabled": 0, "fusion_lat": 0.0, "name": "039c5d975bcd4a43f412fe79e2b6359d", "fusion_lon": 0.0}, {"is_reserved": 0, "type": "electric_scooter", "bike_id": "8ab6b44470c4c6829615dec0f6dcc005", "lat": 38.91715883333333, "lon": -77.02964566666667, "rental_uris": {"android": "https://dc.lft.to/lastmile_qr_scan", "ios": "https://dc.lft.to/lastmile_qr_scan"}, "is_disabled": 0, "fusion_lat": 0.0, "name": "8ab6b44470c4c6829615dec0f6dcc005", "fusion_lon": 0.0}, {"is_reserved": 0, "type": "electric_scooter", "bike_id": "8474497fbfe63b55bc9a2c8f52712ed6", "lat": 38.949086666666666, "lon": -77.031867, "rental_uris": {"android": "https://dc.lft.to/lastmile_qr_scan", "ios": "https://dc.lft.to/lastmile_qr_scan"}, "is_disabled": 0, "fusion_lat": 0.0, "name": "8474497fbfe63b55bc9a2c8f52712ed6", "fusion_lon": 0.0}, {"is_reserved": 0, "type": "electric_scooter", "bike_id": "a0fcebc79bcb664d0f2b6adb96cb2a34", "lat": 38.98226566666666, "lon": -77.02643083333334, "rental_uris": {"android": "https://dc.lft.to/lastmile_qr_scan", "ios": "https://dc.lft.to/lastmile_qr_scan"}, "is_disabled": 0, "fusion_lat": 0.0, "name": "a0fcebc79bcb664d0f2b6adb96cb2a34", "fusion_lon": 0.0}, {"is_reserved": 0, "type": "electric_scooter", "bike_id": "5e832970ead5b31c582127b3bde454ac", "lat": 38.8746865, "lon": -77.0056165, "rental_uris": {"android": "https://dc.lft.to/lastmile_qr_scan", "ios": "https://dc.lft.to/lastmile_qr_scan"}, "is_disabled": 0, "fusion_lat": 0.0, "name": "5e832970ead5b31c582127b3bde454ac", "fusion_lon": 0.0}, {"is_reserved": 0, "type": "electric_scooter", "bike_id": "1114d966ad8dacd6964d373a39bb30de", "lat": 38.932332833333334, "lon": -77.02965266666666, "rental_uris": {"android": "https://dc.lft.to/lastmile_qr_scan", "ios": "https://dc.lft.to/lastmile_qr_scan"}, "is_disabled": 0, "fusion_lat": 0.0, "name": "1114d966ad8dacd6964d373a39bb30de", "fusion_lon": 0.0}, {"is_reserved": 0, "type": "electric_scooter", "bike_id": "4205faeab8d6deab101f72e3ac447b56", "lat": 38.89675116666667, "lon": -76.94734216666667, "rental_uris": {"android": "https://dc.lft.to/lastmile_qr_scan", "ios": "https://dc.lft.to/lastmile_qr_scan"}, "is_disabled": 0, "fusion_lat": 0.0, "name": "4205faeab8d6deab101f72e3ac447b56", "fusion_lon": 0.0}, {"is_reserved": 0, "type": "electric_scooter", "bike_id": "ace2370637e41257919c6451395e31ad", "lat": 38.92324516666667, "lon": -77.03689016666667, "rental_uris": {"android": "https://dc.lft.to/lastmile_qr_scan", "ios": "https://dc.lft.to/lastmile_qr_scan"}, "is_disabled": 0, "fusion_lat": 0.0, "name": "ace2370637e41257919c6451395e31ad", "fusion_lon": 0.0}, {"is_reserved": 0, "type": "electric_scooter", "bike_id": "e6023d6e7b384b34025307231ebe98f3", "lat": 38.883890666666666, "lon": -76.93037566666666, "rental_uris": {"android": "https://dc.lft.to/lastmile_qr_scan", "ios": "https://dc.lft.to/lastmile_qr_scan"}, "is_disabled": 0, "fusion_lat": 0.0, "name": "e6023d6e7b384b34025307231ebe98f3", "fusion_lon": 0.0}, {"is_reserved": 0, "type": "electric_scooter", "bike_id": "6a505639b210409bb26441d307e8bd64", "lat": 38.905962833333334, "lon": -76.950541, "rental_uris": {"android": "https://dc.lft.to/lastmile_qr_scan", "ios": "https://dc.lft.to/lastmile_qr_scan"}, "is_disabled": 0, "fusion_lat": 0.0, "name": "6a505639b210409bb26441d307e8bd64", "fusion_lon": 0.0}, {"is_reserved": 0, "type": "electric_scooter", "bike_id": "5ac5151ce7477a19e104e50db16985f9", "lat": 38.902731333333335, "lon": -77.0176855, "rental_uris": {"android": "https://dc.lft.to/lastmile_qr_scan", "ios": "https://dc.lft.to/lastmile_qr_scan"}, "is_disabled": 0, "fusion_lat": 0.0, "name": "5ac5151ce7477a19e104e50db16985f9", "fusion_lon": 0.0},