{"data": {"bikes": [{"lon": -77.03267733333334, "bike_id": "906040a1ef87ae38399d107912fb2b92", "lat": 38.93767, "fusion_lon": 0.0, "fusion_lat": 0.0, "type": "electric_scooter", "name": "906040a1ef87ae38399d107912fb2b92", "is_disabled": 0, "rental_uris": {"ios": "https://dc.lft.to/lastmile_qr_scan", "android": "https://dc.lft.to/lastmile_qr_scan"}, "is_reserved": 0}, {"lon": -77.0155625, "bike_id": "795639e4b75cee8bbdbd0f738acd5603", "lat": 38.88324133333333, "fusion_lon": 0.0, "fusion_lat": 0.0, "type": "electric_scooter", "name": "795639e4b75cee8bbdbd0f738acd5603", "is_disabled": 0, "rental_uris": {"ios": "https://dc.lft.to/lastmile_qr_scan", "android": "https://dc.lft.to/lastmile_qr_scan"}, "is_reserved": 0}, {"lon": -77.032541, "bike_id": "ac56a8e42cc36eebb48b948cae7fbda9", "lat": 38.931351666666664, "fusion_lon": 0.0, "fusion_lat": 0.0, "type": "electric_scooter", "name": "ac56a8e42cc36eebb48b948cae7fbda9", "is_disabled": 0, "rental_uris": {"ios": "https://dc.lft.to/lastmile_qr_scan", "android": "https://dc.lft.to/lastmile_qr_scan"}, "is_reserved": 0}, {"lon": -77.0388565, "bike_id": "043436593e0a1136883c7569f3b6489b", "lat": 38.924987, "fusion_lon": 0.0, "fusion_lat": 0.0, "type": "electric_scooter", "name": "043436593e0a1136883c7569f3b6489b", "is_disabled": 0, "rental_uris": {"ios": "https://dc.lft.to/lastmile_qr_scan", "android": "https://dc.lft.to/lastmile_qr_scan"}, "is_reserved": 0}, {"lon": -77.035572, "bike_id": "dea1ea581c9e74761e9b4c8675dbbdf8", "lat": 38.93376266666667, "fusion_lon": 0.0, "fusion_lat": 0.0, "type": "electric_scooter", "name": "dea1ea581c9e74761e9b4c8675dbbdf8", "is_disabled": 0, "rental_uris": {"ios": "https://dc.lft.to/lastmile_qr_scan", "android": "https://dc.lft.to/lastmile_qr_scan"}, "is_reserved": 0}, {"lon": -76.97858983333333, "bike_id": "65631b6a603b4d7638c73920dcc7e5c1", "lat": 38.90723466666667, "fusion_lon": 0.0, "fusion_lat": 0.0, "type": "electric_scooter", "name": "65631b6a603b4d7638c73920dcc7e5c1", "is_disabled": 0, "rental_uris": {"ios": "https://dc.lft.to/lastmile_qr_scan", "android": "https://dc.lft.to/lastmile_qr_scan"}, "is_reserved": 0}, {"lon": -77.03849233333334, "bike_id": "a749b770098af8ef1fabe54a18513e38", "lat": 38.9323425, "fusion_lon": 0.0, "fusion_lat": 0.0, "type": "electric_scooter", "name": "a749b770098af8ef1fabe54a18513e38", "is_disabled": 0, "rental_uris": {"ios": "https://dc.lft.to/lastmile_qr_scan", "android": "https://dc.lft.to/lastmile_qr_scan"}, "is_reserved": 0}, {"lon": -77.02090383333334, "bike_id": "cd26d0dcb388c07f83085fe20c068c81", "lat": 38.929096, "fusion_lon": 0.0, "fusion_lat": 0.0, "type": "electric_scooter", "name": "cd26d0dcb388c07f83085fe20c068c81", "is_disabled": 0, "rental_uris": {"ios": "https://dc.lft.to/lastmile_qr_scan", "android": "https://dc.lft.to/lastmile_qr_scan"}, "is_reserved": 0}, {"lon": -76.975554, "bike_id": "1135a3227371de9c2068df33985b4dd0", "lat": 38.92457783333333, "fusion_lon": 0.0, "fusion_lat": 0.0, "type": "electric_bike", "name": "1135a3227371de9c2068df33985b4dd0", "is_disabled": 0, "rental_uris": {"ios": "https://dc.lft.to/lastmile_qr_scan", "android": "https://dc.lft.to/lastmile_qr_scan"}, "is_reserved": 0}, {"lon": -76.949984, "bike_id": "1b9573d1e4be336df0ba2972e4efb3d9", "lat": 38.89379, "fusion_lon": 0.0, "fusion_lat": 0.0, "type": "electric_scooter", "name": "1b9573d1e4be336df0ba2972e4efb3d9", "is_disabled": 0, "rental_uris": {"ios": "https://dc.lft.to/lastmile_qr_scan", "android": "https://dc.lft.to/lastmile_qr_scan"}, "is_reserved": 0}, {"lon": -77.07323116666667, "bike_id": "30b05ff961088f52f94d25ab8f87796e", "lat": 38.933560666666665, "fusion_lon": 0.0, "fusion_lat": 0.0, "type": "electric_scooter", "name": "30b05ff961088f52f94d25ab8f87796e", "is_disabled": 0, "rental_uris": {"ios": "https://dc.lft.to/lastmile_qr_scan", "android": "https://dc.lft.to/lastmile_qr_scan"}, "is_reserved": 0}, {"lon": -76.9960085, "bike_id": "a8fabb5b9291a61bf7ac6b1ae3fadc6f", "lat": 38.95070583333333, "fusion_lon": 0.0, "fusion_lat": 0.0, "type": "electric_bike", "name": "a8fabb5b9291a61bf7ac6b1ae3fadc6f", "is_disabled": 0, "rental_uris": {"ios": "https://dc.lft.to/lastmile_qr_scan", "android": "https://dc.lft.to/lastmile_qr_scan"}, "is_reserved": 0}, {"lon": -77.03604433333334, "bike_id": "b0998438be827c5c30ec240c065087bb", "lat": 38.923340833333334, "fusion_lon": 0.0, "fusion_lat": 0.0, "type": "electric_scooter", "name": "b0998438be827c5c30ec240c065087bb", "is_disabled": 0, "rental_uris": {"ios": "https://dc.lft.to/lastmile_qr_scan", "android": "https://dc.lft.to/lastmile_qr_scan"}, "is_reserved": 0}, {"lon": -77.04871166666666, "bike_id": "07a789162132c9428f492ccf1fb03081", "lat": 38.904833833333335, "fusion_lon": 0.0, "fusion_lat": 0.0, "type": "electric_bike", "name": "07a789162132c9428f492ccf1fb03081", "is_disabled": 0, "rental_uris": {"ios": "https://dc.lft.to/lastmile_qr_scan", "android": "https://dc.lft.to/lastmile_qr_scan"}, "is_reserved": 0}, {"lon": -77.032774, "bike_id": "0f8724990d6cbdd8dc20541c038f000f", "lat": 38.928052666666666, "fusion_lon": 0.0, "fusion_lat": 0.0, "type": "electric_bike", "name": "0f8724990d6cbdd8dc20541c038f000f", "is_disabled": 0, "rental_uris": {"ios": "https://dc.lft.to/lastmile_qr_scan", "android": "https://dc.lft.to/lastmile_qr_scan"}, "is_reserved": 0}, {"lon": -77.04174383333333, "bike_id": "bde0474553d49cf04d63a86185f11fa4", "lat": 38.919754, "fusion_lon": 0.0, "fusion_lat": 0.0, "type": "electric_scooter", "name": "bde0474553d49cf04d63a86185f11fa4", "is_disabled": 0, "rental_uris": {"ios": "https://dc.lft.to/lastmile_qr_scan", "android": "https://dc.lft.to/lastmile_qr_scan"}, "is_reserved": 0}, {"lon": -76.98378433333333, "bike_id": "4cfb4798dfa5a1ab824e4053867b5c7c", "lat": 38.91492433333333, "fusion_lon": 0.0, "fusion_lat": 0.0, "type": "electric_scooter", "name": "4cfb4798dfa5a1ab824e4053867b5c7c", "is_disabled": 0, "rental_uris": {"ios": "https://dc.lft.to/lastmile_qr_scan", "android": "https://dc.lft.to/lastmile_qr_scan"}, "is_reserved": 0}, {"lon": -77.11780533333334, "bike_id": "e80c772aa2badab5e600bf5dddda62b6", "lat": 39.05494216666666, "fusion_lon": 0.0, "fusion_lat": 0.0, "type": "electric_bike", "name": "e80c772aa2badab5e600bf5dddda62b6", "is_disabled": 0, "rental_uris": {"ios": "https://dc.lft.to/lastmile_qr_scan", "android": "https://dc.lft.to/lastmile_qr_scan"}, "is_reserved": 0}, {"lon": -77.03292533333334, "bike_id": "42155022b1b3b9a36149cb3878aee345", "lat": 38.95650833333333, "fusion_lon": 0.0, "fusion_lat": 0.0, "type": "electric_scooter", "name": "42155022b1b3b9a36149cb3878aee345", "is_disabled": 0, "rental_uris": {"ios": "https://dc.lft.to/lastmile_qr_scan", "android": "https://dc.lft.to/lastmile_qr_scan"}, "is_reserved": 0}, {"lon": -77.01669466666667, "bike_id": "a510bd9472ce443bcad785630d6539d7", "lat": 38.91735716666667, "fusion_lon": 0.0, "fusion_lat": 0.0, "type": "electric_scooter", "name": "a510bd9472ce443bcad785630d6539d7", "is_disabled": 0, "rental_uris": {"ios": "https://dc.lft.to/lastmile_qr_scan", "android": "https://dc.lft.to/lastmile_qr_scan"}, "is_reserved": 0}, {"lon": -77.02971466666666, "bike_id": "df77c68fec3bae6e07b3107cc7f027b0", "lat": 38.91671, "fusion_lon": 0.0, "fusion_lat": 0.0, "type": "electric_scooter", "name": "df77c68fec3bae6e07b3107cc7f027b0", "is_disabled": 0, "rental_uris": {"ios": "https://dc.lft.to/lastmile_qr_scan", "android": "https://dc.lft.to/lastmile_qr_scan"}, "is_reserved": 0}, {"lon": -77.025692, "bike_id": "d054be47e9b17705b7d4584ebe80e26a", "lat": 38.8807935, "fusion_lon": 0.0, "fusion_lat": 0.0, "type": "electric_scooter", "name": "d054be47e9b17705b7d4584ebe80e26a", "is_disabled": 0, "rental_uris": {"ios": "https://dc.lft.to/lastmile_qr_scan", "android": "https://dc.lft.to/lastmile_qr_scan"}, "is_reserved": 0}, {"lon": -77.0251105, "bike_id": "18084332b9e860cd11ea7d619558aaf8", "lat": 38.9309815, "fusion_lon": 0.0, "fusion_lat": 0.0, "type": "electric_scooter", "name": "18084332b9e860cd11ea7d619558aaf8", "is_disabled": 0, "rental_uris": {"ios": "https://dc.lft.to/lastmile_qr_scan", "android": "https://dc.lft.to/lastmile_qr_scan"}, "is_reserved": 0}, {"lon": -76.93173283333333, "bike_id": "0c3fac3c90ae805940b710d4f0f7bb78", "lat": 38.903691, "fusion_lon": 0.0, "fusion_lat": 0.0, "type": "electric_scooter", "name": "0c3fac3c90ae805940b710d4f0f7bb78", "is_disabled": 0, "rental_uris": {"ios": "https://dc.lft.to/lastmile_qr_scan", "android": "https://dc.lft.to/lastmile_qr_scan"}, "is_reserved": 0}, {"lon": -76.93358666666667, "bike_id": "c08070e5e86af03f6120b9ab3d10ff8b", "lat": 38.887953333333336, "fusion_lon": 0.0, "fusion_lat": 0.0, "type": "electric_scooter", "name": "c08070e5e86af03f6120b9ab3d10ff8b", "is_disabled": 0, "rental_uris": {"ios": "https://dc.lft.to/lastmile_qr_scan", "android": "https://dc.lft.to/lastmile_qr_scan"}, "is_reserved": 0}, {"lon": -77.0100095, "bike_id": "70fd5c0668a342b76e2df8af08261082", "lat": 38.919253499999996, "fusion_lon": 0.0, "fusion_lat": 0.0, "type": "electric_scooter", "name": "70fd5c0668a342b76e2df8af08261082", "is_disabled": 0, "rental_uris": {"ios": "https://dc.lft.to/lastmile_qr_scan", "android": "https://dc.lft.to/lastmile_qr_scan"}, "is_reserved": 0}, {"lon": -77.0478965, "bike_id": "e45b8a3a9ce7a82341c49731a8c8a99a", "lat": 38.909741833333335, "fusion_lon": 0.0, "fusion_lat": 0.0, "type": "electric_scooter", "name": "e45b8a3a9ce7a82341c49731a8c8a99a", "is_disabled": 0, "rental_uris": {"ios": "https://dc.lft.to/lastmile_qr_scan", "android": "https://dc.lft.to/lastmile_qr_scan"}, "is_reserved": 0}, {"lon": -77.0469695, "bike_id": "b9bc5fca6755e6a7accfdbed71cb8a69", "lat": 38.90537616666667, "fusion_lon": 0.0, "fusion_lat": 0.0, "type": "electric_scooter", "name": "b9bc5fca6755e6a7accfdbed71cb8a69", "is_disabled": 0, "rental_uris": {"ios": "https://dc.lft.to/lastmile_qr_scan", "android": "https://dc.lft.to/lastmile_qr_scan"}, "is_reserved": 0}, {"lon": -77.02724566666667, "bike_id": "9dc5491f8bd1bbf33cf9a756efeb11b4", "lat": 38.8977435, "fusion_lon": 0.0, "fusion_lat": 0.0, "type": "electric_scooter", "name": "9dc5491f8bd1bbf33cf9a756efeb11b4", "is_disabled": 0, "rental_uris": {"ios": "https://dc.lft.to/lastmile_qr_scan", "android": "https://dc.lft.to/lastmile_qr_scan"}, "is_reserved": 0}, {"lon": -77.02224083333333, "bike_id": "971c2f461d8a3895d5e2d81b89494a8a", "lat": 38.9056615, "fusion_lon": 0.0, "fusion_lat": 0.0, "type": "electric_scooter", "name": "971c2f461d8a3895d5e2d81b89494a8a", "is_disabled": 0, "rental_uris": {"ios": "https://dc.lft.to/lastmile_qr_scan", "android": "https://dc.lft.to/lastmile_qr_scan"}, "is_reserved": 0}, {"lon": -77.03084833333334, "bike_id": "37a2b37471f01690bdc4409b69b5fd80", "lat": 38.900626833333334, "fusion_lon": 0.0, "fusion_lat": 0.0, "type": "electric_scooter", "name": "37a2b37471f01690bdc4409b69b5fd80", "is_disabled": 0, "rental_uris": {"ios": "https://dc.lft.to/lastmile_qr_scan", "android": "https://dc.lft.to/lastmile_qr_scan"}, "is_reserved": 0}, {"lon": -77.02753, "bike_id": "b37ef00acdbad63081fb10a4c9cdcbb2", "lat": 38.95783016666667, "fusion_lon": 0.0, "fusion_lat": 0.0, "type": "electric_scooter", "name": "b37ef00acdbad63081fb10a4c9cdcbb2", "is_disabled": 0, "rental_uris": {"ios": "https://dc.lft.to/lastmile_qr_scan", "android": "https://dc.lft.to/lastmile_qr_scan"}, "is_reserved": 0}, {"lon": -77.02692566666667, "bike_id": "e29377497191048990e39566ce509dba", "lat": 38.9084135, "fusion_lon": 0.0, "fusion_lat": 0.0, "type": "electric_scooter", "name": "e29377497191048990e39566ce509dba", "is_disabled": 0, "rental_uris": {"ios": "https://dc.lft.to/lastmile_qr_scan", "android": "https://dc.lft.to/lastmile_qr_scan"}, "is_reserved": 0}, {"lon": -76.948773, "bike_id": "f87e9e1e06f7acdd045c2d7c6508c1ca", "lat": 38.89425466666667, "fusion_lon": 0.0, "fusion_lat": 0.0, "type": "electric_scooter", "name": "f87e9e1e06f7acdd045c2d7c6508c1ca", "is_disabled": 0, "rental_uris": {"ios": "https://dc.lft.to/lastmile_qr_scan", "android": "https://dc.lft.to/lastmile_qr_scan"}, "is_reserved": 0}, {"lon": -77.00679, "bike_id": "582d724afa267a02317681e9601b893c", "lat": 38.83491983333333, "fusion_lon": 0.0, "fusion_lat": 0.0, "type": "electric_scooter", "name": "582d724afa267a02317681e9601b893c", "is_disabled": 0, "rental_uris": {"ios": "https://dc.lft.to/lastmile_qr_scan", "android": "https://dc.lft.to/lastmile_qr_scan"}, "is_reserved": 0}, {"lon": -77.0198335, "bike_id": "0bf9d3526be7ea69f63688654cade5b1", "lat": 38.92546733333333, "fusion_lon": 0.0, "fusion_lat": 0.0, "type": "electric_bike", "name": "0bf9d3526be7ea69f63688654cade5b1", "is_disabled": 0, "rental_uris": {"ios": "https://dc.lft.to/lastmile_qr_scan", "android": "https://dc.lft.to/lastmile_qr_scan"}, "is_reserved": 0}, {"lon": -77.04473216666666, "bike_id": "af4589d4fd1bc435d4716851d4755b16", "lat": 38.919357, "fusion_lon": 0.0, "fusion_lat": 0.0, "type": "electric_scooter", "name": "af4589d4fd1bc435d4716851d4755b16", "is_disabled": 0, "rental_uris": {"ios": "https://dc.lft.to/lastmile_qr_scan", "android": "https://dc.lft.to/lastmile_qr_scan"}, "is_reserved": 0}, {"lon": -77.03301366666666, "bike_id": "e55bec6bb93843145faccf5710e09aba", "lat": 38.92873766666666, "fusion_lon": 0.0, "fusion_lat": 0.0, "type": "electric_scooter", "name": "e55bec6bb93843145faccf5710e09aba", "is_disabled": 0, "rental_uris": {"ios": "https://dc.lft.to/lastmile_qr_scan", "android": "https://dc.lft.to/lastmile_qr_scan"}, "is_reserved": 0}, {"lon": -77.033137, "bike_id": "22f97e9f37f990f15288521df7321727", "lat": 38.92161683333333, "fusion_lon": 0.0, "fusion_lat": 0.0, "type": "electric_scooter", "name": "22f97e9f37f990f15288521df7321727", "is_disabled": 0, "rental_uris": {"ios": "https://dc.lft.to/lastmile_qr_scan", "android": "https://dc.lft.to/lastmile_qr_scan"}, "is_reserved": 0}, {"lon": -76.99371883333333, "bike_id": "b62742de021b5d0bda6fdef188097c23", "lat": 38.89379666666667, "fusion_lon": 0.0, "fusion_lat": 0.0, "type": "electric_scooter", "name": "b62742de021b5d0bda6fdef188097c23", "is_disabled": 0, "rental_uris": {"ios": "https://dc.lft.to/lastmile_qr_scan", "android": "https://dc.lft.to/lastmile_qr_scan"}, "is_reserved": 0}, {"lon": -77.0456195, "bike_id": "5b2de10beeacb2c61b19dd2c37e14761", "lat": 38.913131666666665, "fusion_lon": 0.0, "fusion_lat": 0.0, "type": "electric_scooter", "name": "5b2de10beeacb2c61b19dd2c37e14761", "is_disabled": 0, "rental_uris": {"ios": "https://dc.lft.to/lastmile_qr_scan", "android": "https://dc.lft.to/lastmile_qr_scan"}, "is_reserved": 0}, {"lon": -77.0276915, "bike_id": "21c6245555ded620870b6955e21e8681", "lat": 38.8922145, "fusion_lon": 0.0, "fusion_lat": 0.0, "type": "electric_scooter", "name": "21c6245555ded620870b6955e21e8681", "is_disabled": 0, "rental_uris": {"ios": "https://dc.lft.to/lastmile_qr_scan", "android": "https://dc.lft.to/lastmile_qr_scan"}, "is_reserved": 0}, {"lon": -77.01789833333333, "bike_id": "ab1261835ddfafd37b135fdf7e16f16f", "lat": 38.94116366666667, "fusion_lon": 0.0, "fusion_lat": 0.0, "type": "electric_scooter", "name": "ab1261835ddfafd37b135fdf7e16f16f", "is_disabled": 0, "rental_uris": {"ios": "https://dc.lft.to/lastmile_qr_scan", "android": "https://dc.lft.to/lastmile_qr_scan"}, "is_reserved": 0}, {"lon": -77.00016983333333, "bike_id": "c2d5ccee56398053617b33ce502c10b5", "lat": 38.89092383333333, "fusion_lon": 0.0, "fusion_lat": 0.0, "type": "electric_scooter", "name": "c2d5ccee56398053617b33ce502c10b5", "is_disabled": 0, "rental_uris": {"ios": "https://dc.lft.to/lastmile_qr_scan", "android": "https://dc.lft.to/lastmile_qr_scan"}, "is_reserved": 0}, {"lon": -77.02055283333333, "bike_id": "230cd4bf9ba6d881f156a8666430635e", "lat": 38.929141, "fusion_lon": 0.0, "fusion_lat": 0.0, "type": "electric_scooter", "name": "230cd4bf9ba6d881f156a8666430635e", "is_disabled": 0, "rental_uris": {"ios": "https://dc.lft.to/lastmile_qr_scan", "android": "https://dc.lft.to/lastmile_qr_scan"}, "is_reserved": 0}, {"lon": -76.94125783333334, "bike_id": "ff81c25227fb237afe395b4905292c7f", "lat": 38.908229666666664, "fusion_lon": 0.0, "fusion_lat": 0.0, "type": "electric_scooter", "name": "ff81c25227fb237afe395b4905292c7f", "is_disabled": 0, "rental_uris": {"ios": "https://dc.lft.to/lastmile_qr_scan", "android": "https://dc.lft.to/lastmile_qr_scan"}, "is_reserved": 0}, {"lon": -76.99050666666666, "bike_id": "ccd7500cc5eb0f8759d518646d0346cb", "lat": 38.86379983333333, "fusion_lon": 0.0, "fusion_lat": 0.0, "type": "electric_scooter", "name": "ccd7500cc5eb0f8759d518646d0346cb", "is_disabled": 0, "rental_uris": {"ios": "https://dc.lft.to/lastmile_qr_scan", "android": "https://dc.lft.to/lastmile_qr_scan"}, "is_reserved": 0}, {"lon": -77.00061666666667, "bike_id": "b1fe33251fab267956192af8c97735d1", "lat": 38.900859833333335, "fusion_lon": 0.0, "fusion_lat": 0.0, "type": "electric_scooter", "name": "b1fe33251fab267956192af8c97735d1", "is_disabled": 0, "rental_uris": {"ios": "https://dc.lft.to/lastmile_qr_scan", "android": "https://dc.lft.to/lastmile_qr_scan"}, "is_reserved": 0}, {"lon": -77.0320575, "bike_id": "5f20922e127ab6537133acd6d3eff79f", "lat": 38.91261266666667, "fusion_lon": 0.0, "fusion_lat": 0.0, "type": "electric_scooter", "name": "5f20922e127ab6537133acd6d3eff79f", "is_disabled": 0, "rental_uris": {"ios": "https://dc.lft.to/lastmile_qr_scan", "android": "https://dc.lft.to/lastmile_qr_scan"}, "is_reserved": 0}, {"lon": -77.00552133333333, "bike_id": "1f7eeaf4d9996f25045c98bec31d87a0", "lat": 38.911808666666666, "fusion_lon": 0.0, "fusion_lat": 0.0, "type": "electric_scooter", "name": "1f7eeaf4d9996f25045c98bec31d87a0", "is_disabled": 0, "rental_uris": {"ios": "https://dc.lft.to/lastmile_qr_scan", "android": "https://dc.lft.to/lastmile_qr_scan"}, "is_reserved": 0}, {"lon": -77.03860366666666, "bike_id": "3553172cc5b7fd52f414721e30af4b86", "lat": 38.9027575, "fusion_lon": 0.0, "fusion_lat": 0.0, "type": "electric_scooter", "name": "3553172cc5b7fd52f414721e30af4b86", "is_disabled": 0, "rental_uris": {"ios": "https://dc.lft.to/lastmile_qr_scan", "android": "https://dc.lft.to/lastmile_qr_scan"}, "is_reserved": 0}, {"lon": -77.04339816666666, "bike_id": "e29591384d5d6d984ec79b41d11243df", "lat": 38.902527, "fusion_lon": 0.0, "fusion_lat": 0.0, "type": "electric_scooter", "name": "e29591384d5d6d984ec79b41d11243df", "is_disabled": 0, "rental_uris": {"ios": "https://dc.lft.to/lastmile_qr_scan", "android": "https://dc.lft.to/lastmile_qr_scan"}, "is_reserved": 0}, {"lon": -77.04482, "bike_id": "921283c6532f6db6387391bade8082d6", "lat": 38.911626, "fusion_lon": 0.0, "fusion_lat": 0.0, "type": "electric_scooter", "name": "921283c6532f6db6387391bade8082d6", "is_disabled": 0, "rental_uris": {"ios": "https://dc.lft.to/lastmile_qr_scan", "android": "https://dc.lft.to/lastmile_qr_scan"}, "is_reserved": 0}, {"lon": -77.04177283333334, "bike_id": "efbb1de6806bc04d0bc1c485b84972a8", "lat": 38.913492, "fusion_lon": 0.0, "fusion_lat": 0.0, "type": "electric_scooter", "name": "efbb1de6806bc04d0bc1c485b84972a8", "is_disabled": 0, "rental_uris": {"ios": "https://dc.lft.to/lastmile_qr_scan", "android": "https://dc.lft.to/lastmile_qr_scan"}, "is_reserved": 0}, {"lon": -76.9948945, "bike_id": "71802b1294131d5729ab782c99e287c1", "lat": 38.862443999999996, "fusion_lon": 0.0, "fusion_lat": 0.0, "type": "electric_scooter", "name": "71802b1294131d5729ab782c99e287c1", "is_disabled": 0, "rental_uris": {"ios": "https://dc.lft.to/lastmile_qr_scan", "android": "https://dc.lft.to/lastmile_qr_scan"}, "is_reserved": 0}, {"lon": -76.93731416666667, "bike_id": "94522c5915be3c9c2ef7f0b9e40b8fd9", "lat": 38.890174, "fusion_lon": 0.0, "fusion_lat": 0.0, "type": "electric_scooter", "name": "94522c5915be3c9c2ef7f0b9e40b8fd9", "is_disabled": 0, "rental_uris": {"ios": "https://dc.lft.to/lastmile_qr_scan", "android": "https://dc.lft.to/lastmile_qr_scan"}, "is_reserved": 0}, {"lon": -76.988823, "bike_id": "5e715e43577021b92dae237b6b65eab0", "lat": 38.86648483333333, "fusion_lon": 0.0, "fusion_lat": 0.0, "type": "electric_scooter", "name": "5e715e43577021b92dae237b6b65eab0", "is_disabled": 0, "rental_uris": {"ios": "https://dc.lft.to/lastmile_qr_scan", "android": "https://dc.lft.to/lastmile_qr_scan"}, "is_reserved": 0}, {"lon": -77.03216033333334, "bike_id": "ba9cab49c62d08fd1ab58586a38098e4", "lat": 38.892419333333336, "fusion_lon": 0.0, "fusion_lat": 0.0, "type": "electric_scooter", "name": "ba9cab49c62d08fd1ab58586a38098e4", "is_disabled": 0, "rental_uris": {"ios": "https://dc.lft.to/lastmile_qr_scan", "android": "https://dc.lft.to/lastmile_qr_scan"}, "is_reserved": 0}, {"lon": -77.03177733333334, "bike_id": "3f5ac5a1a77298f0ef35060d14788e49", "lat": 38.908100833333336, "fusion_lon": 0.0, "fusion_lat": 0.0, "type": "electric_scooter", "name": "3f5ac5a1a77298f0ef35060d14788e49", "is_disabled": 0, "rental_uris": {"ios": "https://dc.lft.to/lastmile_qr_scan", "android": "https://dc.lft.to/lastmile_qr_scan"}, "is_reserved": 0}, {"lon": -77.02329666666667, "bike_id": "39c7c99829c3470d9c848055dbfbef64", "lat": 38.916587166666666, "fusion_lon": 0.0, "fusion_lat": 0.0, "type": "electric_scooter", "name": "39c7c99829c3470d9c848055dbfbef64", "is_disabled": 0, "rental_uris": {"ios": "https://dc.lft.to/lastmile_qr_scan", "android": "https://dc.lft.to/lastmile_qr_scan"}, "is_reserved": 0}, {"lon": -77.04341016666666, "bike_id": "5607cb19a9e5b3c7a98dd3fdb1675cfe", "lat": 38.90143, "fusion_lon": 0.0, "fusion_lat": 0.0, "type": "electric_scooter", "name": "5607cb19a9e5b3c7a98dd3fdb1675cfe", "is_disabled": 0, "rental_uris": {"ios": "https://dc.lft.to/lastmile_qr_scan", "android": "https://dc.lft.to/lastmile_qr_scan"}, "is_reserved": 0}, {"lon": -77.04490233333334, "bike_id": "6eab564f3f3c450a6b0500ec5df9b2b6", "lat": 38.90370566666667, "fusion_lon": 0.0, "fusion_lat": 0.0, "type": "electric_scooter", "name": "6eab564f3f3c450a6b0500ec5df9b2b6", "is_disabled": 0, "rental_uris": {"ios": "https://dc.lft.to/lastmile_qr_scan", "android": "https://dc.lft.to/lastmile_qr_scan"}, "is_reserved": 0}, {"lon": -76.98710283333334, "bike_id": "c5f5c39ef11c25ec44784a71ff7650f3", "lat": 38.866997833333336, "fusion_lon": 0.0, "fusion_lat": 0.0, "type": "electric_scooter", "name": "c5f5c39ef11c25ec44784a71ff7650f3", "is_disabled": 0, "rental_uris": {"ios": "https://dc.lft.to/lastmile_qr_scan", "android": "https://dc.lft.to/lastmile_qr_scan"}, "is_reserved": 0}, {"lon": -77.02978116666667, "bike_id": "001a33eca2201f6dd81d919594c23758", "lat": 38.928727333333335, "fusion_lon": 0.0, "fusion_lat": 0.0, "type": "electric_scooter", "name": "001a33eca2201f6dd81d919594c23758", "is_disabled": 0, "rental_uris": {"ios": "https://dc.lft.to/lastmile_qr_scan", "android": "https://dc.lft.to/lastmile_qr_scan"}, "is_reserved": 0}, {"lon": -77.03662133333333, "bike_id": "85e2e2d6959286345624f3ab4e013436", "lat": 38.91675583333333, "fusion_lon": 0.0, "fusion_lat": 0.0, "type": "electric_scooter", "name": "85e2e2d6959286345624f3ab4e013436", "is_disabled": 0, "rental_uris": {"ios": "https://dc.lft.to/lastmile_qr_scan", "android": "https://dc.lft.to/lastmile_qr_scan"}, "is_reserved": 0}, {"lon": -77.0253615, "bike_id": "af3b91bebd8c01778d47ab1fc5a55697", "lat": 38.93855966666667, "fusion_lon": 0.0, "fusion_lat": 0.0, "type": "electric_scooter", "name": "af3b91bebd8c01778d47ab1fc5a55697", "is_disabled": 0, "rental_uris": {"ios": "https://dc.lft.to/lastmile_qr_scan", "android": "https://dc.lft.to/lastmile_qr_scan"}, "is_reserved": 0}, {"lon": -77.04376316666666, "bike_id": "c299b35defe36699a87e4d97070a1e45", "lat": 38.920678333333335, "fusion_lon": 0.0, "fusion_lat": 0.0, "type": "electric_scooter", "name": "c299b35defe36699a87e4d97070a1e45", "is_disabled": 0, "rental_uris": {"ios": "https://dc.lft.to/lastmile_qr_scan", "android": "https://dc.lft.to/lastmile_qr_scan"}, "is_reserved": 0}, {"lon": -77.0301075, "bike_id": "0ce700594b27336346ac6b949f017ee1", "lat": 38.925708, "fusion_lon": 0.0, "fusion_lat": 0.0, "type": "electric_scooter", "name": "0ce700594b27336346ac6b949f017ee1", "is_disabled": 0, "rental_uris": {"ios": "https://dc.lft.to/lastmile_qr_scan", "android": "https://dc.lft.to/lastmile_qr_scan"}, "is_reserved": 0}, {"lon": -77.03259733333333, "bike_id": "4c4006fcde0839a7e635bdc1aaaf4233", "lat": 38.938930666666664, "fusion_lon": 0.0, "fusion_lat": 0.0, "type": "electric_scooter", "name": "4c4006fcde0839a7e635bdc1aaaf4233", "is_disabled": 0, "rental_uris": {"ios": "https://dc.lft.to/lastmile_qr_scan", "android": "https://dc.lft.to/lastmile_qr_scan"}, "is_reserved": 0}, {"lon": -77.1662475, "bike_id": "62b13f747ed2ad2deccc0730b18b5977", "lat": 38.888374166666665, "fusion_lon": 0.0, "fusion_lat": 0.0, "type": "electric_bike", "name": "62b13f747ed2ad2deccc0730b18b5977", "is_disabled": 0, "rental_uris": {"ios": "https://dc.lft.to/lastmile_qr_scan", "android": "https://dc.lft.to/lastmile_qr_scan"}, "is_reserved": 0}, {"lon": -77.04333283333334, "bike_id": "2500aa9753ebabd1a7d110bb6caa8b75", "lat": 38.90562033333333, "fusion_lon": 0.0, "fusion_lat": 0.0, "type": "electric_scooter", "name": "2500aa9753ebabd1a7d110bb6caa8b75", "is_disabled": 0, "rental_uris": {"ios": "https://dc.lft.to/lastmile_qr_scan", "android": "https://dc.lft.to/lastmile_qr_scan"}, "is_reserved": 0}, {"lon": -77.04664566666666, "bike_id": "9cf8df06da008c161f36e35ec900c523", "lat": 38.90780566666667, "fusion_lon": 0.0, "fusion_lat": 0.0, "type": "electric_scooter", "name": "9cf8df06da008c161f36e35ec900c523", "is_disabled": 0, "rental_uris": {"ios": "https://dc.lft.to/lastmile_qr_scan", "android": "https://dc.lft.to/lastmile_qr_scan"}, "is_reserved": 0}, {"lon": -76.99608466666666, "bike_id": "4f88872ae5da7224bdab3005bcd67593", "lat": 38.930863, "fusion_lon": 0.0, "fusion_lat": 0.0, "type": "electric_scooter", "name": "4f88872ae5da7224bdab3005bcd67593", "is_disabled": 0, "rental_uris": {"ios": "https://dc.lft.to/lastmile_qr_scan", "android": "https://dc.lft.to/lastmile_qr_scan"}, "is_reserved": 0}, {"lon": -76.99522166666667, "bike_id": "dd04274a74753d6e774682a617bd12e0", "lat": 38.8917425, "fusion_lon": 0.0, "fusion_lat": 0.0, "type": "electric_scooter", "name": "dd04274a74753d6e774682a617bd12e0", "is_disabled": 0, "rental_uris": {"ios": "https://dc.lft.to/lastmile_qr_scan", "android": "https://dc.lft.to/lastmile_qr_scan"}, "is_reserved": 0}, {"lon": -76.98655166666667, "bike_id": "84e6f7ed564da3292d9ed3fc94503c06", "lat": 38.86729733333333, "fusion_lon": 0.0, "fusion_lat": 0.0, "type": "electric_scooter", "name": "84e6f7ed564da3292d9ed3fc94503c06", "is_disabled": 0, "rental_uris": {"ios": "https://dc.lft.to/lastmile_qr_scan", "android": "https://dc.lft.to/lastmile_qr_scan"}, "is_reserved": 0}, {"lon": -77.037479, "bike_id": "c9ae088a8e6fe062fedfc461e1ff61d1", "lat": 38.929072833333336, "fusion_lon": 0.0, "fusion_lat": 0.0, "type": "electric_scooter", "name": "c9ae088a8e6fe062fedfc461e1ff61d1", "is_disabled": 0, "rental_uris": {"ios": "https://dc.lft.to/lastmile_qr_scan", "android": "https://dc.lft.to/lastmile_qr_scan"}, "is_reserved": 0}, {"lon": -77.03350233333333, "bike_id": "83e4d41851c19691bc95d5a089917914", "lat": 38.89249616666667, "fusion_lon": 0.0, "fusion_lat": 0.0, "type": "electric_scooter", "name": "83e4d41851c19691bc95d5a089917914", "is_disabled": 0, "rental_uris": {"ios": "https://dc.lft.to/lastmile_qr_scan", "android": "https://dc.lft.to/lastmile_qr_scan"}, "is_reserved": 0}, {"lon": -77.03193666666667, "bike_id": "7623a84ee5385c96c544293403332fdc", "lat": 38.92012533333333, "fusion_lon": 0.0, "fusion_lat": 0.0, "type": "electric_scooter", "name": "7623a84ee5385c96c544293403332fdc", "is_disabled": 0, "rental_uris": {"ios": "https://dc.lft.to/lastmile_qr_scan", "android": "https://dc.lft.to/lastmile_qr_scan"}, "is_reserved": 0}, {"lon": -77.02807466666667, "bike_id": "fa453adfc7f4bf03309ed8f0c763af3b", "lat": 38.89814883333333, "fusion_lon": 0.0, "fusion_lat": 0.0, "type": "electric_scooter", "name": "fa453adfc7f4bf03309ed8f0c763af3b", "is_disabled": 0, "rental_uris": {"ios": "https://dc.lft.to/lastmile_qr_scan", "android": "https://dc.lft.to/lastmile_qr_scan"}, "is_reserved": 0}, {"lon": -77.0326145, "bike_id": "a664b9e9f5e7d589637a12b6b5157e44", "lat": 38.932182166666664, "fusion_lon": 0.0, "fusion_lat": 0.0, "type": "electric_scooter", "name": "a664b9e9f5e7d589637a12b6b5157e44", "is_disabled": 0, "rental_uris": {"ios": "https://dc.lft.to/lastmile_qr_scan", "android": "https://dc.lft.to/lastmile_qr_scan"}, "is_reserved": 0}, {"lon": -77.02273183333334, "bike_id": "a0e1c9c69875cdbfaceef3c0df7bcba0", "lat": 38.926670333333334, "fusion_lon": 0.0, "fusion_lat": 0.0, "type": "electric_scooter", "name": "a0e1c9c69875cdbfaceef3c0df7bcba0", "is_disabled": 0, "rental_uris": {"ios": "https://dc.lft.to/lastmile_qr_scan", "android": "https://dc.lft.to/lastmile_qr_scan"}, "is_reserved": 0}, {"lon": -77.03335083333333, "bike_id": "dc03608ffceb6c20a58f0acf9d75133b", "lat": 38.92874116666667, "fusion_lon": 0.0, "fusion_lat": 0.0, "type": "electric_scooter", "name": "dc03608ffceb6c20a58f0acf9d75133b", "is_disabled": 0, "rental_uris": {"ios": "https://dc.lft.to/lastmile_qr_scan", "android": "https://dc.lft.to/lastmile_qr_scan"}, "is_reserved": 0}, {"lon": -77.001976, "bike_id": "692ba533e6ae1f1bea12374ee48cda67", "lat": 38.90036166666667, "fusion_lon": 0.0, "fusion_lat": 0.0, "type": "electric_scooter", "name": "692ba533e6ae1f1bea12374ee48cda67", "is_disabled": 0, "rental_uris": {"ios": "https://dc.lft.to/lastmile_qr_scan", "android": "https://dc.lft.to/lastmile_qr_scan"}, "is_reserved": 0}, {"lon": -77.03353883333334, "bike_id": "79e2ebedad66b5c7860df82bbc53556b", "lat": 38.92345133333333, "fusion_lon": 0.0, "fusion_lat": 0.0, "type": "electric_scooter", "name": "79e2ebedad66b5c7860df82bbc53556b", "is_disabled": 0, "rental_uris": {"ios": "https://dc.lft.to/lastmile_qr_scan", "android": "https://dc.lft.to/lastmile_qr_scan"}, "is_reserved": 0}, {"lon": -77.04805833333333, "bike_id": "5c26e46de55968e3e1e43f5b0470fa32", "lat": 38.9140245, "fusion_lon": 0.0, "fusion_lat": 0.0, "type": "electric_scooter", "name": "5c26e46de55968e3e1e43f5b0470fa32", "is_disabled": 0, "rental_uris": {"ios": "https://dc.lft.to/lastmile_qr_scan", "android": "https://dc.lft.to/lastmile_qr_scan"}, "is_reserved": 0}, {"lon": -77.024224, "bike_id": "0782c0b0d60e8a6b747901c91f3890c5", "lat": 38.884072333333336, "fusion_lon": 0.0, "fusion_lat": 0.0, "type": "electric_scooter", "name": "0782c0b0d60e8a6b747901c91f3890c5", "is_disabled": 0, "rental_uris": {"ios": "https://dc.lft.to/lastmile_qr_scan", "android": "https://dc.lft.to/lastmile_qr_scan"}, "is_reserved": 0}, {"lon": -77.00372716666666, "bike_id": "fd8f5dea8850ff85ab24331eb45f0bda", "lat": 38.89869266666667, "fusion_lon": 0.0, "fusion_lat": 0.0, "type": "electric_scooter", "name": "fd8f5dea8850ff85ab24331eb45f0bda", "is_disabled": 0, "rental_uris": {"ios": "https://dc.lft.to/lastmile_qr_scan", "android": "https://dc.lft.to/lastmile_qr_scan"}, "is_reserved": 0}, {"lon": -77.04150833333334, "bike_id": "f3b5a7ca7fb8f54ef7dc6093ca6412b5", "lat": 38.89730733333333, "fusion_lon": 0.0, "fusion_lat": 0.0, "type": "electric_scooter", "name": "f3b5a7ca7fb8f54ef7dc6093ca6412b5", "is_disabled": 0, "rental_uris": {"ios": "https://dc.lft.to/lastmile_qr_scan", "android": "https://dc.lft.to/lastmile_qr_scan"}, "is_reserved": 0}, {"lon": -77.02263566666667, "bike_id": "cac545bc2b0c4404c8a2e445997ddc06", "lat": 38.907179666666664, "fusion_lon": 0.0, "fusion_lat": 0.0, "type": "electric_scooter", "name": "cac545bc2b0c4404c8a2e445997ddc06", "is_disabled": 0, "rental_uris": {"ios": "https://dc.lft.to/lastmile_qr_scan", "android": "https://dc.lft.to/lastmile_qr_scan"}, "is_reserved": 0}, {"lon": -77.0329405, "bike_id": "712b82c756c85b1fb4425259c7a433e3", "lat": 38.928591833333336, "fusion_lon": 0.0, "fusion_lat": 0.0, "type": "electric_scooter", "name": "712b82c756c85b1fb4425259c7a433e3", "is_disabled": 0, "rental_uris": {"ios": "https://dc.lft.to/lastmile_qr_scan", "android": "https://dc.lft.to/lastmile_qr_scan"}, "is_reserved": 0}, {"lon": -77.0239495, "bike_id": "567d68e6aba5b3cd4934e5db3d68bb78", "lat": 38.89733116666667, "fusion_lon": 0.0, "fusion_lat": 0.0, "type": "electric_scooter", "name": "567d68e6aba5b3cd4934e5db3d68bb78", "is_disabled": 0, "rental_uris": {"ios": "https://dc.lft.to/lastmile_qr_scan", "android": "https://dc.lft.to/lastmile_qr_scan"}, "is_reserved": 0}, {"lon": -76.982351, "bike_id": "bc261430dee6015ec269d666495a8a44", "lat": 38.888641166666666, "fusion_lon": 0.0, "fusion_lat": 0.0, "type": "electric_scooter", "name": "bc261430dee6015ec269d666495a8a44", "is_disabled": 0, "rental_uris": {"ios": "https://dc.lft.to/lastmile_qr_scan", "android": "https://dc.lft.to/lastmile_qr_scan"}, "is_reserved": 0}, {"lon": -77.04156616666667, "bike_id": "97ae9861add4e929ac0eef0933260264", "lat": 38.912508, "fusion_lon": 0.0, "fusion_lat": 0.0, "type": "electric_scooter", "name": "97ae9861add4e929ac0eef0933260264", "is_disabled": 0, "rental_uris": {"ios": "https://dc.lft.to/lastmile_qr_scan", "android": "https://dc.lft.to/lastmile_qr_scan"}, "is_reserved": 0}, {"lon": -77.0649355, "bike_id": "3fef77a8e5ecf24c97bc8cb4e837c66a", "lat": 38.92905233333333, "fusion_lon": 0.0, "fusion_lat": 0.0, "type": "electric_scooter", "name": "3fef77a8e5ecf24c97bc8cb4e837c66a", "is_disabled": 0, "rental_uris": {"ios": "https://dc.lft.to/lastmile_qr_scan", "android": "https://dc.lft.to/lastmile_qr_scan"}, "is_reserved": 0}, {"lon": -77.07113333333334, "bike_id": "95a7d8e101a4f3a4fba4473b23dbef4d", "lat": 38.919721333333335, "fusion_lon": 0.0, "fusion_lat": 0.0, "type": "electric_scooter", "name": "95a7d8e101a4f3a4fba4473b23dbef4d", "is_disabled": 0, "rental_uris": {"ios": "https://dc.lft.to/lastmile_qr_scan", "android": "https://dc.lft.to/lastmile_qr_scan"}, "is_reserved": 0}, {"lon": -77.0117715, "bike_id": "bc22b3de2ce38b8194b05bf931ec47d2", "lat": 38.90034983333334, "fusion_lon": 0.0, "fusion_lat": 0.0, "type": "electric_scooter", "name": "bc22b3de2ce38b8194b05bf931ec47d2", "is_disabled": 0, "rental_uris": {"ios": "https://dc.lft.to/lastmile_qr_scan", "android": "https://dc.lft.to/lastmile_qr_scan"}, "is_reserved": 0}, {"lon": -76.994356, "bike_id": "59a43fae7e0f0b130bbc50f69463250d", "lat": 38.933440833333336, "fusion_lon": 0.0, "fusion_lat": 0.0, "type": "electric_scooter", "name": "59a43fae7e0f0b130bbc50f69463250d", "is_disabled": 0, "rental_uris": {"ios": "https://dc.lft.to/lastmile_qr_scan", "android": "https://dc.lft.to/lastmile_qr_scan"}, "is_reserved": 0}, {"lon": -77.03111416666667, "bike_id": "d4ec30b38cd1e6436513e0198fafc823", "lat": 38.91562316666667, "fusion_lon": 0.0, "fusion_lat": 0.0, "type": "electric_scooter", "name": "d4ec30b38cd1e6436513e0198fafc823", "is_disabled": 0, "rental_uris": {"ios": "https://dc.lft.to/lastmile_qr_scan", "android": "https://dc.lft.to/lastmile_qr_scan"}, "is_reserved": 0}, {"lon": -77.02973516666667, "bike_id": "c2bd9977c7c187fa19c067ccb591529d", "lat": 38.916668333333334, "fusion_lon": 0.0, "fusion_lat": 0.0, "type": "electric_scooter", "name": "c2bd9977c7c187fa19c067ccb591529d", "is_disabled": 0, "rental_uris": {"ios": "https://dc.lft.to/lastmile_qr_scan", "android": "https://dc.lft.to/lastmile_qr_scan"}, "is_reserved": 0}, {"lon": -77.05526166666667, "bike_id": "c2de3194f576f88d434dae15ef2c417f", "lat": 38.89973483333333, "fusion_lon": 0.0, "fusion_lat": 0.0, "type": "electric_scooter", "name": "c2de3194f576f88d434dae15ef2c417f", "is_disabled": 0, "rental_uris": {"ios": "https://dc.lft.to/lastmile_qr_scan", "android": "https://dc.lft.to/lastmile_qr_scan"}, "is_reserved": 0}, {"lon": -77.0792075, "bike_id": "c6ade5a42ae807b2268422c0e56397a1", "lat": 38.9308775, "fusion_lon": 0.0, "fusion_lat": 0.0, "type": "electric_scooter", "name": "c6ade5a42ae807b2268422c0e56397a1", "is_disabled": 0, "rental_uris": {"ios": "https://dc.lft.to/lastmile_qr_scan", "android": "https://dc.lft.to/lastmile_qr_scan"}, "is_reserved": 0}, {"lon": -77.02445283333333, "bike_id": "a7af2d9d017f768bd773e207549ddc4d", "lat": 38.925046, "fusion_lon": 0.0, "fusion_lat": 0.0, "type": "electric_scooter", "name": "a7af2d9d017f768bd773e207549ddc4d", "is_disabled": 0, "rental_uris": {"ios": "https://dc.lft.to/lastmile_qr_scan", "android": "https://dc.lft.to/lastmile_qr_scan"}, "is_reserved": 0}, {"lon": -77.02922333333333, "bike_id": "15741bd338e285581c5e766b5abe542a", "lat": 38.934655166666666, "fusion_lon": 0.0, "fusion_lat": 0.0, "type": "electric_scooter", "name": "15741bd338e285581c5e766b5abe542a", "is_disabled": 0, "rental_uris": {"ios": "https://dc.lft.to/lastmile_qr_scan", "android": "https://dc.lft.to/lastmile_qr_scan"}, "is_reserved": 0}, {"lon": -77.03835016666666, "bike_id": "7a5f8f1585f711825bb992ef57f0002b", "lat": 38.90669533333333, "fusion_lon": 0.0, "fusion_lat": 0.0, "type": "electric_scooter", "name": "7a5f8f1585f711825bb992ef57f0002b", "is_disabled": 0, "rental_uris": {"ios": "https://dc.lft.to/lastmile_qr_scan", "android": "https://dc.lft.to/lastmile_qr_scan"}, "is_reserved": 0}, {"lon": -76.981411, "bike_id": "e38ba25cb97cdcdfe9ac83a3fabf1a71", "lat": 38.90318283333333, "fusion_lon": 0.0, "fusion_lat": 0.0, "type": "electric_scooter", "name": "e38ba25cb97cdcdfe9ac83a3fabf1a71", "is_disabled": 0, "rental_uris": {"ios": "https://dc.lft.to/lastmile_qr_scan", "android": "https://dc.lft.to/lastmile_qr_scan"}, "is_reserved": 0}, {"lon": -77.02828283333334, "bike_id": "dff30d12890bf64f23e5317074722425", "lat": 38.93267766666666, "fusion_lon": 0.0, "fusion_lat": 0.0, "type": "electric_scooter", "name": "dff30d12890bf64f23e5317074722425", "is_disabled": 0, "rental_uris": {"ios": "https://dc.lft.to/lastmile_qr_scan", "android": "https://dc.lft.to/lastmile_qr_scan"}, "is_reserved": 0}, {"lon": -76.9886015, "bike_id": "34ea95349e3598ba09f69aaf746d9193", "lat": 38.89173566666667, "fusion_lon": 0.0, "fusion_lat": 0.0, "type": "electric_scooter", "name": "34ea95349e3598ba09f69aaf746d9193", "is_disabled": 0, "rental_uris": {"ios": "https://dc.lft.to/lastmile_qr_scan", "android": "https://dc.lft.to/lastmile_qr_scan"}, "is_reserved": 0}, {"lon": -76.97669816666667, "bike_id": "e221d04924b90334153990388e0b84c8", "lat": 38.95243933333333, "fusion_lon": 0.0, "fusion_lat": 0.0, "type": "electric_bike", "name": "e221d04924b90334153990388e0b84c8", "is_disabled": 0, "rental_uris": {"ios": "https://dc.lft.to/lastmile_qr_scan", "android": "https://dc.lft.to/lastmile_qr_scan"}, "is_reserved": 0}, {"lon": -77.04109883333334, "bike_id": "a27d2ad9bbcd568a276d63daf33c2a6d", "lat": 38.908705166666664, "fusion_lon": 0.0, "fusion_lat": 0.0, "type": "electric_scooter", "name": "a27d2ad9bbcd568a276d63daf33c2a6d", "is_disabled": 0, "rental_uris": {"ios": "https://dc.lft.to/lastmile_qr_scan", "android": "https://dc.lft.to/lastmile_qr_scan"}, "is_reserved": 0}, {"lon": -77.0230815, "bike_id": "bb8e9c1cfd40212a86e328b3d55aa2cd", "lat": 38.91835533333333, "fusion_lon": 0.0, "fusion_lat": 0.0, "type": "electric_scooter", "name": "bb8e9c1cfd40212a86e328b3d55aa2cd", "is_disabled": 0, "rental_uris": {"ios": "https://dc.lft.to/lastmile_qr_scan", "android": "https://dc.lft.to/lastmile_qr_scan"}, "is_reserved": 0}, {"lon": -77.03206633333333, "bike_id": "6e2bc6e07ea71f5aad13539defeb00ef", "lat": 38.9130785, "fusion_lon": 0.0, "fusion_lat": 0.0, "type": "electric_scooter", "name": "6e2bc6e07ea71f5aad13539defeb00ef", "is_disabled": 0, "rental_uris": {"ios": "https://dc.lft.to/lastmile_qr_scan", "android": "https://dc.lft.to/lastmile_qr_scan"}, "is_reserved": 0}, {"lon": -76.988015, "bike_id": "6fb7700edb1effbebc9253089428e890", "lat": 38.86723766666667, "fusion_lon": 0.0, "fusion_lat": 0.0, "type": "electric_scooter", "name": "6fb7700edb1effbebc9253089428e890", "is_disabled": 0, "rental_uris": {"ios": "https://dc.lft.to/lastmile_qr_scan", "android": "https://dc.lft.to/lastmile_qr_scan"}, "is_reserved": 0}, {"lon": -77.046791, "bike_id": "074d455d06385bab6340c8845dfef3dd", "lat": 38.892206, "fusion_lon": 0.0, "fusion_lat": 0.0, "type": "electric_scooter", "name": "074d455d06385bab6340c8845dfef3dd", "is_disabled": 0, "rental_uris": {"ios": "https://dc.lft.to/lastmile_qr_scan", "android": "https://dc.lft.to/lastmile_qr_scan"}, "is_reserved": 0}, {"lon": -76.999007, "bike_id": "e247ad0f429673aeb733684db1061fe6", "lat": 38.9002535, "fusion_lon": 0.0, "fusion_lat": 0.0, "type": "electric_scooter", "name": "e247ad0f429673aeb733684db1061fe6", "is_disabled": 0, "rental_uris": {"ios": "https://dc.lft.to/lastmile_qr_scan", "android": "https://dc.lft.to/lastmile_qr_scan"}, "is_reserved": 0}, {"lon": -77.00189816666666, "bike_id": "95caf5c6cfe7eeb08825cb716b501faf", "lat": 38.89097983333333, "fusion_lon": 0.0, "fusion_lat": 0.0, "type": "electric_scooter", "name": "95caf5c6cfe7eeb08825cb716b501faf", "is_disabled": 0, "rental_uris": {"ios": "https://dc.lft.to/lastmile_qr_scan", "android": "https://dc.lft.to/lastmile_qr_scan"}, "is_reserved": 0}, {"lon": -77.049913, "bike_id": "5e6cddfed42188bd67b0edc3b878abd0", "lat": 38.90060716666667, "fusion_lon": 0.0, "fusion_lat": 0.0, "type": "electric_scooter", "name": "5e6cddfed42188bd67b0edc3b878abd0", "is_disabled": 0, "rental_uris": {"ios": "https://dc.lft.to/lastmile_qr_scan", "android": "https://dc.lft.to/lastmile_qr_scan"}, "is_reserved": 0}, {"lon": -77.02682266666666, "bike_id": "650e3740523ea0426fed7d0aa0d951e7", "lat": 38.902509333333334, "fusion_lon": 0.0, "fusion_lat": 0.0, "type": "electric_scooter", "name": "650e3740523ea0426fed7d0aa0d951e7", "is_disabled": 0, "rental_uris": {"ios": "https://dc.lft.to/lastmile_qr_scan", "android": "https://dc.lft.to/lastmile_qr_scan"}, "is_reserved": 0}, {"lon": -77.05009583333333, "bike_id": "81f10519388116326b945ecace56a3c0", "lat": 38.89995433333333, "fusion_lon": 0.0, "fusion_lat": 0.0, "type": "electric_scooter", "name": "81f10519388116326b945ecace56a3c0", "is_disabled": 0, "rental_uris": {"ios": "https://dc.lft.to/lastmile_qr_scan", "android": "https://dc.lft.to/lastmile_qr_scan"}, "is_reserved": 0}, {"lon": -77.02515466666667, "bike_id": "768a5b0a1aa5c5dcacb2ab08c8371e95", "lat": 38.92085016666667, "fusion_lon": 0.0, "fusion_lat": 0.0, "type": "electric_scooter", "name": "768a5b0a1aa5c5dcacb2ab08c8371e95", "is_disabled": 0, "rental_uris": {"ios": "https://dc.lft.to/lastmile_qr_scan", "android": "https://dc.lft.to/lastmile_qr_scan"}, "is_reserved": 0}, {"lon": -77.07795283333333, "bike_id": "2e4a86dff3dbb516a2e98bb8f61ce7e5", "lat": 38.996030833333336, "fusion_lon": 0.0, "fusion_lat": 0.0, "type": "electric_bike", "name": "2e4a86dff3dbb516a2e98bb8f61ce7e5", "is_disabled": 0, "rental_uris": {"ios": "https://dc.lft.to/lastmile_qr_scan", "android": "https://dc.lft.to/lastmile_qr_scan"}, "is_reserved": 0}, {"lon": -77.02427766666666, "bike_id": "69195afa2758f83501c1d725ed3aeedb", "lat": 38.922828833333334, "fusion_lon": 0.0, "fusion_lat": 0.0, "type": "electric_scooter", "name": "69195afa2758f83501c1d725ed3aeedb", "is_disabled": 0, "rental_uris": {"ios": "https://dc.lft.to/lastmile_qr_scan", "android": "https://dc.lft.to/lastmile_qr_scan"}, "is_reserved": 0}, {"lon": -76.95331416666667, "bike_id": "82b20e41313ff38f6bf07ab9b34ddf94", "lat": 38.889319, "fusion_lon": 0.0, "fusion_lat": 0.0, "type": "electric_scooter", "name": "82b20e41313ff38f6bf07ab9b34ddf94", "is_disabled": 0, "rental_uris": {"ios": "https://dc.lft.to/lastmile_qr_scan", "android": "https://dc.lft.to/lastmile_qr_scan"}, "is_reserved": 0}, {"lon": -77.06129916666667, "bike_id": "13f59fb8c6742a806ec04c36b0ce04f7", "lat": 38.9436135, "fusion_lon": 0.0, "fusion_lat": 0.0, "type": "electric_scooter", "name": "13f59fb8c6742a806ec04c36b0ce04f7", "is_disabled": 0, "rental_uris": {"ios": "https://dc.lft.to/lastmile_qr_scan", "android": "https://dc.lft.to/lastmile_qr_scan"}, "is_reserved": 0}, {"lon": -77.04373383333333, "bike_id": "ae1b465612099dd2e9f7002177a755f3", "lat": 38.905604833333335, "fusion_lon": 0.0, "fusion_lat": 0.0, "type": "electric_scooter", "name": "ae1b465612099dd2e9f7002177a755f3", "is_disabled": 0, "rental_uris": {"ios": "https://dc.lft.to/lastmile_qr_scan", "android": "https://dc.lft.to/lastmile_qr_scan"}, "is_reserved": 0}, {"lon": -77.01987783333334, "bike_id": "ce877abe4d46a07b3f48a1cfa945cd70", "lat": 38.8860655, "fusion_lon": 0.0, "fusion_lat": 0.0, "type": "electric_scooter", "name": "ce877abe4d46a07b3f48a1cfa945cd70", "is_disabled": 0, "rental_uris": {"ios": "https://dc.lft.to/lastmile_qr_scan", "android": "https://dc.lft.to/lastmile_qr_scan"}, "is_reserved": 0}, {"lon": -77.03004333333334, "bike_id": "26bddfd088b0016688ece4f2936392de", "lat": 39.0419255, "fusion_lon": 0.0, "fusion_lat": 0.0, "type": "electric_bike", "name": "26bddfd088b0016688ece4f2936392de", "is_disabled": 0, "rental_uris": {"ios": "https://dc.lft.to/lastmile_qr_scan", "android": "https://dc.lft.to/lastmile_qr_scan"}, "is_reserved": 0}, {"lon": -77.0245315, "bike_id": "7ce9f771c8ece7f97f28be30ed00441b", "lat": 38.93854283333334, "fusion_lon": 0.0, "fusion_lat": 0.0, "type": "electric_scooter", "name": "7ce9f771c8ece7f97f28be30ed00441b", "is_disabled": 0, "rental_uris": {"ios": "https://dc.lft.to/lastmile_qr_scan", "android": "https://dc.lft.to/lastmile_qr_scan"}, "is_reserved": 0}, {"lon": -77.02469933333333, "bike_id": "eb23b482b30cd124ab41ad379e383c1f", "lat": 38.90403383333334, "fusion_lon": 0.0, "fusion_lat": 0.0, "type": "electric_scooter", "name": "eb23b482b30cd124ab41ad379e383c1f", "is_disabled": 0, "rental_uris": {"ios": "https://dc.lft.to/lastmile_qr_scan", "android": "https://dc.lft.to/lastmile_qr_scan"}, "is_reserved": 0}, {"lon": -77.02816333333334, "bike_id": "8344f7abf10f0d2feb7fdd73ce5bee24", "lat": 38.91133633333333, "fusion_lon": 0.0, "fusion_lat": 0.0, "type": "electric_scooter", "name": "8344f7abf10f0d2feb7fdd73ce5bee24", "is_disabled": 0, "rental_uris": {"ios": "https://dc.lft.to/lastmile_qr_scan", "android": "https://dc.lft.to/lastmile_qr_scan"}, "is_reserved": 0}, {"lon": -77.0318175, "bike_id": "a9e1edd4952e3761263b4616622257f9", "lat": 38.91920433333333, "fusion_lon": 0.0, "fusion_lat": 0.0, "type": "electric_scooter", "name": "a9e1edd4952e3761263b4616622257f9", "is_disabled": 0, "rental_uris": {"ios": "https://dc.lft.to/lastmile_qr_scan", "android": "https://dc.lft.to/lastmile_qr_scan"}, "is_reserved": 0}, {"lon": -77.03589683333334, "bike_id": "965b681a6e3e67ce4cc67e971a1f3dbb", "lat": 38.909661166666666, "fusion_lon": 0.0, "fusion_lat": 0.0, "type": "electric_scooter", "name": "965b681a6e3e67ce4cc67e971a1f3dbb", "is_disabled": 0, "rental_uris": {"ios": "https://dc.lft.to/lastmile_qr_scan", "android": "https://dc.lft.to/lastmile_qr_scan"}, "is_reserved": 0}, {"lon": -77.0414045, "bike_id": "bbff53313b0f05cbd884dd22fee34166", "lat": 38.91978683333333, "fusion_lon": 0.0, "fusion_lat": 0.0, "type": "electric_scooter", "name": "bbff53313b0f05cbd884dd22fee34166", "is_disabled": 0, "rental_uris": {"ios": "https://dc.lft.to/lastmile_qr_scan", "android": "https://dc.lft.to/lastmile_qr_scan"}, "is_reserved": 0}, {"lon": -77.03203833333333, "bike_id": "27b9a071af0ef1de0d78a289e5e97c81", "lat": 38.914762333333336, "fusion_lon": 0.0, "fusion_lat": 0.0, "type": "electric_scooter", "name": "27b9a071af0ef1de0d78a289e5e97c81", "is_disabled": 0, "rental_uris": {"ios": "https://dc.lft.to/lastmile_qr_scan", "android": "https://dc.lft.to/lastmile_qr_scan"}, "is_reserved": 0}, {"lon": -76.94883316666666, "bike_id": "da613a4aac246a4a1c6de770d8e8e083", "lat": 38.89509916666667, "fusion_lon": 0.0, "fusion_lat": 0.0, "type": "electric_scooter", "name": "da613a4aac246a4a1c6de770d8e8e083", "is_disabled": 0, "rental_uris": {"ios": "https://dc.lft.to/lastmile_qr_scan", "android": "https://dc.lft.to/lastmile_qr_scan"}, "is_reserved": 0}, {"lon": -76.99029683333333, "bike_id": "ed7a9d3e62988038e92cfc5aba4270f6", "lat": 38.88870416666666, "fusion_lon": 0.0, "fusion_lat": 0.0, "type": "electric_scooter", "name": "ed7a9d3e62988038e92cfc5aba4270f6", "is_disabled": 0, "rental_uris": {"ios": "https://dc.lft.to/lastmile_qr_scan", "android": "https://dc.lft.to/lastmile_qr_scan"}, "is_reserved": 0}, {"lon": -76.99521616666667, "bike_id": "5df3c4b89a14f767150abddb83669e91", "lat": 38.862606666666665, "fusion_lon": 0.0, "fusion_lat": 0.0, "type": "electric_scooter", "name": "5df3c4b89a14f767150abddb83669e91", "is_disabled": 0, "rental_uris": {"ios": "https://dc.lft.to/lastmile_qr_scan", "android": "https://dc.lft.to/lastmile_qr_scan"}, "is_reserved": 0}, {"lon": -77.03445766666667, "bike_id": "7493fa7468b958b3f6e2a0315af63fc6", "lat": 38.9097585, "fusion_lon": 0.0, "fusion_lat": 0.0, "type": "electric_scooter", "name": "7493fa7468b958b3f6e2a0315af63fc6", "is_disabled": 0, "rental_uris": {"ios": "https://dc.lft.to/lastmile_qr_scan", "android": "https://dc.lft.to/lastmile_qr_scan"}, "is_reserved": 0}, {"lon": -77.01984316666666, "bike_id": "3f783870cfbd3cfcd7ef53095a910b08", "lat": 38.924126333333334, "fusion_lon": 0.0, "fusion_lat": 0.0, "type": "electric_scooter", "name": "3f783870cfbd3cfcd7ef53095a910b08", "is_disabled": 0, "rental_uris": {"ios": "https://dc.lft.to/lastmile_qr_scan", "android": "https://dc.lft.to/lastmile_qr_scan"}, "is_reserved": 0}, {"lon": -76.98985866666666, "bike_id": "971901444d049a18b416ee8bc359447e", "lat": 38.93361733333333, "fusion_lon": 0.0, "fusion_lat": 0.0, "type": "electric_scooter", "name": "971901444d049a18b416ee8bc359447e", "is_disabled": 0, "rental_uris": {"ios": "https://dc.lft.to/lastmile_qr_scan", "android": "https://dc.lft.to/lastmile_qr_scan"}, "is_reserved": 0}, {"lon": -77.007675, "bike_id": "5a7546d7b0d10d78f3297be1deef4a6a", "lat": 38.89786, "fusion_lon": 0.0, "fusion_lat": 0.0, "type": "electric_bike", "name": "5a7546d7b0d10d78f3297be1deef4a6a", "is_disabled": 0, "rental_uris": {"ios": "https://dc.lft.to/lastmile_qr_scan", "android": "https://dc.lft.to/lastmile_qr_scan"}, "is_reserved": 0}, {"lon": -77.03279433333333, "bike_id": "f68c6b3a6a4ae90a245478bf4da10511", "lat": 38.9013315, "fusion_lon": 0.0, "fusion_lat": 0.0, "type": "electric_scooter", "name": "f68c6b3a6a4ae90a245478bf4da10511", "is_disabled": 0, "rental_uris": {"ios": "https://dc.lft.to/lastmile_qr_scan", "android": "https://dc.lft.to/lastmile_qr_scan"}, "is_reserved": 0}, {"lon": -77.01905066666667, "bike_id": "1f28e17cd77b7eca306a6a05469eb65d", "lat": 39.0117645, "fusion_lon": 0.0, "fusion_lat": 0.0, "type": "electric_bike", "name": "1f28e17cd77b7eca306a6a05469eb65d", "is_disabled": 0, "rental_uris": {"ios": "https://dc.lft.to/lastmile_qr_scan", "android": "https://dc.lft.to/lastmile_qr_scan"}, "is_reserved": 0}, {"lon": -77.0574315, "bike_id": "f657ab51c8fc71b578e6785a2a690af3", "lat": 38.93345716666666, "fusion_lon": 0.0, "fusion_lat": 0.0, "type": "electric_scooter", "name": "f657ab51c8fc71b578e6785a2a690af3", "is_disabled": 0, "rental_uris": {"ios": "https://dc.lft.to/lastmile_qr_scan", "android": "https://dc.lft.to/lastmile_qr_scan"}, "is_reserved": 0}, {"lon": -77.07970583333334, "bike_id": "d476d9ea8b603d9242a09f8c3b993aa4", "lat": 38.85726916666667, "fusion_lon": 0.0, "fusion_lat": 0.0, "type": "electric_bike", "name": "d476d9ea8b603d9242a09f8c3b993aa4", "is_disabled": 0, "rental_uris": {"ios": "https://dc.lft.to/lastmile_qr_scan", "android": "https://dc.lft.to/lastmile_qr_scan"}, "is_reserved": 0}, {"lon": -77.0208335, "bike_id": "adadffb624f257c2fa61b4e52c9ac9ae", "lat": 38.904111666666665, "fusion_lon": 0.0, "fusion_lat": 0.0, "type": "electric_scooter", "name": "adadffb624f257c2fa61b4e52c9ac9ae", "is_disabled": 0, "rental_uris": {"ios": "https://dc.lft.to/lastmile_qr_scan", "android": "https://dc.lft.to/lastmile_qr_scan"}, "is_reserved": 0}, {"lon": -77.0310765, "bike_id": "c7e32e1afe5473b74a107481dcda14e7", "lat": 38.91568616666667, "fusion_lon": 0.0, "fusion_lat": 0.0, "type": "electric_scooter", "name": "c7e32e1afe5473b74a107481dcda14e7", "is_disabled": 0, "rental_uris": {"ios": "https://dc.lft.to/lastmile_qr_scan", "android": "https://dc.lft.to/lastmile_qr_scan"}, "is_reserved": 0}, {"lon": -77.041827, "bike_id": "dddbdc309db43fa2a0ba4b9e1c75c6a3", "lat": 38.919820666666666, "fusion_lon": 0.0, "fusion_lat": 0.0, "type": "electric_scooter", "name": "dddbdc309db43fa2a0ba4b9e1c75c6a3", "is_disabled": 0, "rental_uris": {"ios": "https://dc.lft.to/lastmile_qr_scan", "android": "https://dc.lft.to/lastmile_qr_scan"}, "is_reserved": 0}, {"lon": -76.980228, "bike_id": "304f0b225133f71215844ab917aa7d5e", "lat": 38.85318616666667, "fusion_lon": 0.0, "fusion_lat": 0.0, "type": "electric_bike", "name": "304f0b225133f71215844ab917aa7d5e", "is_disabled": 0, "rental_uris": {"ios": "https://dc.lft.to/lastmile_qr_scan", "android": "https://dc.lft.to/lastmile_qr_scan"}, "is_reserved": 0}, {"lon": -77.024051, "bike_id": "819c279fa97fd294afd7a6dc39206b59", "lat": 38.904202, "fusion_lon": 0.0, "fusion_lat": 0.0, "type": "electric_scooter", "name": "819c279fa97fd294afd7a6dc39206b59", "is_disabled": 0, "rental_uris": {"ios": "https://dc.lft.to/lastmile_qr_scan", "android": "https://dc.lft.to/lastmile_qr_scan"}, "is_reserved": 0}, {"lon": -77.0276695, "bike_id": "7c94501913a10b65dd7de61ad6be1e52", "lat": 38.93461816666667, "fusion_lon": 0.0, "fusion_lat": 0.0, "type": "electric_scooter", "name": "7c94501913a10b65dd7de61ad6be1e52", "is_disabled": 0, "rental_uris": {"ios": "https://dc.lft.to/lastmile_qr_scan", "android": "https://dc.lft.to/lastmile_qr_scan"}, "is_reserved": 0}, {"lon": -77.10132, "bike_id": "d5fcbe9e4c1cc917d6a15eb599c58bd2", "lat": 38.85205666666667, "fusion_lon": 0.0, "fusion_lat": 0.0, "type": "electric_bike", "name": "d5fcbe9e4c1cc917d6a15eb599c58bd2", "is_disabled": 0, "rental_uris": {"ios": "https://dc.lft.to/lastmile_qr_scan", "android": "https://dc.lft.to/lastmile_qr_scan"}, "is_reserved": 0}, {"lon": -76.95744033333334, "bike_id": "63919b916ce850b77a82721696fbaf4d", "lat": 38.884323333333334, "fusion_lon": 0.0, "fusion_lat": 0.0, "type": "electric_scooter", "name": "63919b916ce850b77a82721696fbaf4d", "is_disabled": 0, "rental_uris": {"ios": "https://dc.lft.to/lastmile_qr_scan", "android": "https://dc.lft.to/lastmile_qr_scan"}, "is_reserved": 0}, {"lon": -77.02962133333334, "bike_id": "ce7f730170fabad3b6e37c35ede76b3d", "lat": 38.92492466666667, "fusion_lon": 0.0, "fusion_lat": 0.0, "type": "electric_scooter", "name": "ce7f730170fabad3b6e37c35ede76b3d", "is_disabled": 0, "rental_uris": {"ios": "https://dc.lft.to/lastmile_qr_scan", "android": "https://dc.lft.to/lastmile_qr_scan"}, "is_reserved": 0}, {"lon": -77.08684233333334, "bike_id": "dfa79dd0493925e9c001fde7fc19bc1c", "lat": 38.87392033333333, "fusion_lon": 0.0, "fusion_lat": 0.0, "type": "electric_bike", "name": "dfa79dd0493925e9c001fde7fc19bc1c", "is_disabled": 0, "rental_uris": {"ios": "https://dc.lft.to/lastmile_qr_scan", "android": "https://dc.lft.to/lastmile_qr_scan"}, "is_reserved": 0}, {"lon": -77.02843766666666, "bike_id": "56964cf808d24da72f53e3254acc2002", "lat": 38.92575433333333, "fusion_lon": 0.0, "fusion_lat": 0.0, "type": "electric_scooter", "name": "56964cf808d24da72f53e3254acc2002", "is_disabled": 0, "rental_uris": {"ios": "https://dc.lft.to/lastmile_qr_scan", "android": "https://dc.lft.to/lastmile_qr_scan"}, "is_reserved": 0}, {"lon": -77.02503116666666, "bike_id": "ae2844ecb65af79f23b4114e2fe12cec", "lat": 38.92638766666666, "fusion_lon": 0.0, "fusion_lat": 0.0, "type": "electric_scooter", "name": "ae2844ecb65af79f23b4114e2fe12cec", "is_disabled": 0, "rental_uris": {"ios": "https://dc.lft.to/lastmile_qr_scan", "android": "https://dc.lft.to/lastmile_qr_scan"}, "is_reserved": 0}, {"lon": -77.04160466666667, "bike_id": "ea507c1642e40e3eec10bbe001c2f03a", "lat": 38.91489266666667, "fusion_lon": 0.0, "fusion_lat": 0.0, "type": "electric_scooter", "name": "ea507c1642e40e3eec10bbe001c2f03a", "is_disabled": 0, "rental_uris": {"ios": "https://dc.lft.to/lastmile_qr_scan", "android": "https://dc.lft.to/lastmile_qr_scan"}, "is_reserved": 0}, {"lon": -77.03914283333333, "bike_id": "076cabb9ab0289aee150dfddc94f947a", "lat": 38.925754, "fusion_lon": 0.0, "fusion_lat": 0.0, "type": "electric_scooter", "name": "076cabb9ab0289aee150dfddc94f947a", "is_disabled": 0, "rental_uris": {"ios": "https://dc.lft.to/lastmile_qr_scan", "android": "https://dc.lft.to/lastmile_qr_scan"}, "is_reserved": 0}, {"lon": -77.02652366666666, "bike_id": "0a30e9f23ae9a31b6f094ae3d5a98d81", "lat": 38.926148833333336, "fusion_lon": 0.0, "fusion_lat": 0.0, "type": "electric_scooter", "name": "0a30e9f23ae9a31b6f094ae3d5a98d81", "is_disabled": 0, "rental_uris": {"ios": "https://dc.lft.to/lastmile_qr_scan", "android": "https://dc.lft.to/lastmile_qr_scan"}, "is_reserved": 0}, {"lon": -77.03276316666667, "bike_id": "f27a0fa4720de6cf50bc0de5e0941556", "lat": 38.93982833333333, "fusion_lon": 0.0, "fusion_lat": 0.0, "type": "electric_scooter", "name": "f27a0fa4720de6cf50bc0de5e0941556", "is_disabled": 0, "rental_uris": {"ios": "https://dc.lft.to/lastmile_qr_scan", "android": "https://dc.lft.to/lastmile_qr_scan"}, "is_reserved": 0}, {"lon": -77.04516666666666, "bike_id": "064e4ce9a787c64cc5038d8162d7a06b", "lat": 38.9182415, "fusion_lon": 0.0, "fusion_lat": 0.0, "type": "electric_scooter", "name": "064e4ce9a787c64cc5038d8162d7a06b", "is_disabled": 0, "rental_uris": {"ios": "https://dc.lft.to/lastmile_qr_scan", "android": "https://dc.lft.to/lastmile_qr_scan"}, "is_reserved": 0}, {"lon": -77.01207233333334, "bike_id": "b0cb40fa22fa730b20e9312c2ec0f2d1", "lat": 38.8854815, "fusion_lon": 0.0, "fusion_lat": 0.0, "type": "electric_scooter", "name": "b0cb40fa22fa730b20e9312c2ec0f2d1", "is_disabled": 0, "rental_uris": {"ios": "https://dc.lft.to/lastmile_qr_scan", "android": "https://dc.lft.to/lastmile_qr_scan"}, "is_reserved": 0}, {"lon": -77.052899, "bike_id": "b3dd3f9202c8db84bf13a6c5328785ad", "lat": 38.8989125, "fusion_lon": 0.0, "fusion_lat": 0.0, "type": "electric_scooter", "name": "b3dd3f9202c8db84bf13a6c5328785ad", "is_disabled": 0, "rental_uris": {"ios": "https://dc.lft.to/lastmile_qr_scan", "android": "https://dc.lft.to/lastmile_qr_scan"}, "is_reserved": 0}, {"lon": -76.97703383333334, "bike_id": "1e798ba10bb16710a2e09a3ffeab99dd", "lat": 38.94912883333333, "fusion_lon": 0.0, "fusion_lat": 0.0, "type": "electric_bike", "name": "1e798ba10bb16710a2e09a3ffeab99dd", "is_disabled": 0, "rental_uris": {"ios": "https://dc.lft.to/lastmile_qr_scan", "android": "https://dc.lft.to/lastmile_qr_scan"}, "is_reserved": 0}, {"lon": -77.04079733333333, "bike_id": "66789407223e371ca880fe73d2fbf88c", "lat": 38.917016833333335, "fusion_lon": 0.0, "fusion_lat": 0.0, "type": "electric_scooter", "name": "66789407223e371ca880fe73d2fbf88c", "is_disabled": 0, "rental_uris": {"ios": "https://dc.lft.to/lastmile_qr_scan", "android": "https://dc.lft.to/lastmile_qr_scan"}, "is_reserved": 0}, {"lon": -77.02024083333333, "bike_id": "0b339c91b23a5bb9bc5d873fa991c944", "lat": 38.92422466666667, "fusion_lon": 0.0, "fusion_lat": 0.0, "type": "electric_scooter", "name": "0b339c91b23a5bb9bc5d873fa991c944", "is_disabled": 0, "rental_uris": {"ios": "https://dc.lft.to/lastmile_qr_scan", "android": "https://dc.lft.to/lastmile_qr_scan"}, "is_reserved": 0}, {"lon": -77.02703016666666, "bike_id": "c729d48bcb2929735b52be08c4c3e3c8", "lat": 38.906704166666664, "fusion_lon": 0.0, "fusion_lat": 0.0, "type": "electric_scooter", "name": "c729d48bcb2929735b52be08c4c3e3c8", "is_disabled": 0, "rental_uris": {"ios": "https://dc.lft.to/lastmile_qr_scan", "android": "https://dc.lft.to/lastmile_qr_scan"}, "is_reserved": 0}, {"lon": -76.99782633333334, "bike_id": "5acb17f3607ed25bcc9610506c706835", "lat": 38.844226666666664, "fusion_lon": 0.0, "fusion_lat": 0.0, "type": "electric_scooter", "name": "5acb17f3607ed25bcc9610506c706835", "is_disabled": 0, "rental_uris": {"ios": "https://dc.lft.to/lastmile_qr_scan", "android": "https://dc.lft.to/lastmile_qr_scan"}, "is_reserved": 0}, {"lon": -77.02609816666667, "bike_id": "dd7dd4d39b071a01bfd3b0925a72c35d", "lat": 38.90061933333333, "fusion_lon": 0.0, "fusion_lat": 0.0, "type": "electric_scooter", "name": "dd7dd4d39b071a01bfd3b0925a72c35d", "is_disabled": 0, "rental_uris": {"ios": "https://dc.lft.to/lastmile_qr_scan", "android": "https://dc.lft.to/lastmile_qr_scan"}, "is_reserved": 0}, {"lon": -76.947223, "bike_id": "8d1d583d06c47f686e1e22080134cff5", "lat": 38.8973845, "fusion_lon": 0.0, "fusion_lat": 0.0, "type": "electric_scooter", "name": "8d1d583d06c47f686e1e22080134cff5", "is_disabled": 0, "rental_uris": {"ios": "https://dc.lft.to/lastmile_qr_scan", "android": "https://dc.lft.to/lastmile_qr_scan"}, "is_reserved": 0}, {"lon": -77.34412016666667, "bike_id": "642617dad4b260cc4c429b8aba7f563e", "lat": 38.9458555, "fusion_lon": 0.0, "fusion_lat": 0.0, "type": "electric_bike", "name": "642617dad4b260cc4c429b8aba7f563e", "is_disabled": 0, "rental_uris": {"ios": "https://dc.lft.to/lastmile_qr_scan", "android": "https://dc.lft.to/lastmile_qr_scan"}, "is_reserved": 0}, {"lon": -77.02235933333333, "bike_id": "82dd2c1283e1d7c02049c4ec5844a9e2", "lat": 38.9086465, "fusion_lon": 0.0, "fusion_lat": 0.0, "type": "electric_scooter", "name": "82dd2c1283e1d7c02049c4ec5844a9e2", "is_disabled": 0, "rental_uris": {"ios": "https://dc.lft.to/lastmile_qr_scan", "android": "https://dc.lft.to/lastmile_qr_scan"}, "is_reserved": 0}, {"lon": -76.98379933333334, "bike_id": "a9c9e05e34b432d21f7d1c5a0f4cf93a", "lat": 38.90643433333334, "fusion_lon": 0.0, "fusion_lat": 0.0, "type": "electric_scooter", "name": "a9c9e05e34b432d21f7d1c5a0f4cf93a", "is_disabled": 0, "rental_uris": {"ios": "https://dc.lft.to/lastmile_qr_scan", "android": "https://dc.lft.to/lastmile_qr_scan"}, "is_reserved": 0}, {"lon": -77.06892033333334, "bike_id": "9721e7ced6935d59b3a6743c3006efdc", "lat": 38.90510916666667, "fusion_lon": 0.0, "fusion_lat": 0.0, "type": "electric_scooter", "name": "9721e7ced6935d59b3a6743c3006efdc", "is_disabled": 0, "rental_uris": {"ios": "https://dc.lft.to/lastmile_qr_scan", "android": "https://dc.lft.to/lastmile_qr_scan"}, "is_reserved": 0}, {"lon": -77.0031015, "bike_id": "a12ea64445979e2bd1e6c1338da6cdb5", "lat": 38.923502166666665, "fusion_lon": 0.0, "fusion_lat": 0.0, "type": "electric_scooter", "name": "a12ea64445979e2bd1e6c1338da6cdb5", "is_disabled": 0, "rental_uris": {"ios": "https://dc.lft.to/lastmile_qr_scan", "android": "https://dc.lft.to/lastmile_qr_scan"}, "is_reserved": 0}, {"lon": -77.0364415, "bike_id": "f971ac27a4665843efb5f997f017d067", "lat": 38.911770833333335, "fusion_lon": 0.0, "fusion_lat": 0.0, "type": "electric_scooter", "name": "f971ac27a4665843efb5f997f017d067", "is_disabled": 0, "rental_uris": {"ios": "https://dc.lft.to/lastmile_qr_scan", "android": "https://dc.lft.to/lastmile_qr_scan"}, "is_reserved": 0}, {"lon": -77.02316466666667, "bike_id": "aaf63a42fca868762790d731909c4b87", "lat": 38.878819166666666, "fusion_lon": 0.0, "fusion_lat": 0.0, "type": "electric_scooter", "name": "aaf63a42fca868762790d731909c4b87", "is_disabled": 0, "rental_uris": {"ios": "https://dc.lft.to/lastmile_qr_scan", "android": "https://dc.lft.to/lastmile_qr_scan"}, "is_reserved": 0}, {"lon": -77.022653, "bike_id": "7eecfc34a17eba6d6728752780fcc683", "lat": 38.92665683333333, "fusion_lon": 0.0, "fusion_lat": 0.0, "type": "electric_scooter", "name": "7eecfc34a17eba6d6728752780fcc683", "is_disabled": 0, "rental_uris": {"ios": "https://dc.lft.to/lastmile_qr_scan", "android": "https://dc.lft.to/lastmile_qr_scan"}, "is_reserved": 0}, {"lon": -77.02121016666666, "bike_id": "1c01b3dcf6126c4229ac6c903c57fd50", "lat": 38.9300635, "fusion_lon": 0.0, "fusion_lat": 0.0, "type": "electric_scooter", "name": "1c01b3dcf6126c4229ac6c903c57fd50", "is_disabled": 0, "rental_uris": {"ios": "https://dc.lft.to/lastmile_qr_scan", "android": "https://dc.lft.to/lastmile_qr_scan"}, "is_reserved": 0}, {"lon": -76.946339, "bike_id": "468401565ecd55f8bba7d61ea912fdea", "lat": 38.898324, "fusion_lon": 0.0, "fusion_lat": 0.0, "type": "electric_scooter", "name": "468401565ecd55f8bba7d61ea912fdea", "is_disabled": 0, "rental_uris": {"ios": "https://dc.lft.to/lastmile_qr_scan", "android": "https://dc.lft.to/lastmile_qr_scan"}, "is_reserved": 0}, {"lon": -77.0309015, "bike_id": "31824b8016e383d3eb4ced1b88770200", "lat": 38.909941, "fusion_lon": 0.0, "fusion_lat": 0.0, "type": "electric_scooter", "name": "31824b8016e383d3eb4ced1b88770200", "is_disabled": 0, "rental_uris": {"ios": "https://dc.lft.to/lastmile_qr_scan", "android": "https://dc.lft.to/lastmile_qr_scan"}, "is_reserved": 0}, {"lon": -77.00025633333334, "bike_id": "218fb96cd0adbc524259175692875325", "lat": 38.907067, "fusion_lon": 0.0, "fusion_lat": 0.0, "type": "electric_scooter", "name": "218fb96cd0adbc524259175692875325", "is_disabled": 0, "rental_uris": {"ios": "https://dc.lft.to/lastmile_qr_scan", "android": "https://dc.lft.to/lastmile_qr_scan"}, "is_reserved": 0}, {"lon": -77.00680883333334, "bike_id": "bd5a601a09019d13dab3c49d674a4dc9", "lat": 38.94495933333334, "fusion_lon": 0.0, "fusion_lat": 0.0, "type": "electric_bike", "name": "bd5a601a09019d13dab3c49d674a4dc9", "is_disabled": 0, "rental_uris": {"ios": "https://dc.lft.to/lastmile_qr_scan", "android": "https://dc.lft.to/lastmile_qr_scan"}, "is_reserved": 0}, {"lon": -77.02569, "bike_id": "2e8dfab34e446ad9c5067e38e571d069", "lat": 38.914759833333335, "fusion_lon": 0.0, "fusion_lat": 0.0, "type": "electric_scooter", "name": "2e8dfab34e446ad9c5067e38e571d069", "is_disabled": 0, "rental_uris": {"ios": "https://dc.lft.to/lastmile_qr_scan", "android": "https://dc.lft.to/lastmile_qr_scan"}, "is_reserved": 0}, {"lon": -76.999023, "bike_id": "deb27799a2c469b6a7c20d58776260f3", "lat": 38.907219166666664, "fusion_lon": 0.0, "fusion_lat": 0.0, "type": "electric_scooter", "name": "deb27799a2c469b6a7c20d58776260f3", "is_disabled": 0, "rental_uris": {"ios": "https://dc.lft.to/lastmile_qr_scan", "android": "https://dc.lft.to/lastmile_qr_scan"}, "is_reserved": 0}, {"lon": -77.04006166666667, "bike_id": "7c6018fec1879837c8373111b9a28ff6", "lat": 38.909971166666665, "fusion_lon": 0.0, "fusion_lat": 0.0, "type": "electric_scooter", "name": "7c6018fec1879837c8373111b9a28ff6", "is_disabled": 0, "rental_uris": {"ios": "https://dc.lft.to/lastmile_qr_scan", "android": "https://dc.lft.to/lastmile_qr_scan"}, "is_reserved": 0}, {"lon": -77.02557866666666, "bike_id": "aebee2aab5f22d9e4448dd51872bee49", "lat": 38.94168466666667, "fusion_lon": 0.0, "fusion_lat": 0.0, "type": "electric_scooter", "name": "aebee2aab5f22d9e4448dd51872bee49", "is_disabled": 0, "rental_uris": {"ios": "https://dc.lft.to/lastmile_qr_scan", "android": "https://dc.lft.to/lastmile_qr_scan"}, "is_reserved": 0}, {"lon": -77.01159733333333, "bike_id": "4ac5bcc4e4c0109ff2e75f8825c1a5eb", "lat": 38.885456, "fusion_lon": 0.0, "fusion_lat": 0.0, "type": "electric_scooter", "name": "4ac5bcc4e4c0109ff2e75f8825c1a5eb", "is_disabled": 0, "rental_uris": {"ios": "https://dc.lft.to/lastmile_qr_scan", "android": "https://dc.lft.to/lastmile_qr_scan"}, "is_reserved": 0}, {"lon": -77.03801316666667, "bike_id": "fc2f892c4d8d3adf2bf0481c639a047b", "lat": 38.9302415, "fusion_lon": 0.0, "fusion_lat": 0.0, "type": "electric_scooter", "name": "fc2f892c4d8d3adf2bf0481c639a047b", "is_disabled": 0, "rental_uris": {"ios": "https://dc.lft.to/lastmile_qr_scan", "android": "https://dc.lft.to/lastmile_qr_scan"}, "is_reserved": 0}, {"lon": -77.071045, "bike_id": "e3c2364a5ba529fad762e04ec2626347", "lat": 38.919727333333334, "fusion_lon": 0.0, "fusion_lat": 0.0, "type": "electric_scooter", "name": "e3c2364a5ba529fad762e04ec2626347", "is_disabled": 0, "rental_uris": {"ios": "https://dc.lft.to/lastmile_qr_scan", "android": "https://dc.lft.to/lastmile_qr_scan"}, "is_reserved": 0}, {"lon": -76.89536566666666, "bike_id": "ecb7b18f149727568a01bcc339264a47", "lat": 38.945492333333334, "fusion_lon": 0.0, "fusion_lat": 0.0, "type": "electric_bike", "name": "ecb7b18f149727568a01bcc339264a47", "is_disabled": 0, "rental_uris": {"ios": "https://dc.lft.to/lastmile_qr_scan", "android": "https://dc.lft.to/lastmile_qr_scan"}, "is_reserved": 0}, {"lon": -77.03213966666667, "bike_id": "0bf376b1c3f9895c4fba70d6302e1c63", "lat": 38.909447166666666, "fusion_lon": 0.0, "fusion_lat": 0.0, "type": "electric_scooter", "name": "0bf376b1c3f9895c4fba70d6302e1c63", "is_disabled": 0, "rental_uris": {"ios": "https://dc.lft.to/lastmile_qr_scan", "android": "https://dc.lft.to/lastmile_qr_scan"}, "is_reserved": 0}, {"lon": -77.03272933333334, "bike_id": "58f61625bc708cd8e841cb03c8aac206", "lat": 38.901506, "fusion_lon": 0.0, "fusion_lat": 0.0, "type": "electric_scooter", "name": "58f61625bc708cd8e841cb03c8aac206", "is_disabled": 0, "rental_uris": {"ios": "https://dc.lft.to/lastmile_qr_scan", "android": "https://dc.lft.to/lastmile_qr_scan"}, "is_reserved": 0}, {"lon": -77.0324195, "bike_id": "d45bfaa3e948d8007e53069f0ff17abd", "lat": 38.928716, "fusion_lon": 0.0, "fusion_lat": 0.0, "type": "electric_scooter", "name": "d45bfaa3e948d8007e53069f0ff17abd", "is_disabled": 0, "rental_uris": {"ios": "https://dc.lft.to/lastmile_qr_scan", "android": "https://dc.lft.to/lastmile_qr_scan"}, "is_reserved": 0}, {"lon": -77.12978333333334, "bike_id": "15985866476b733d06428452ec544c95", "lat": 38.799832, "fusion_lon": 0.0, "fusion_lat": 0.0, "type": "electric_bike", "name": "15985866476b733d06428452ec544c95", "is_disabled": 0, "rental_uris": {"ios": "https://dc.lft.to/lastmile_qr_scan", "android": "https://dc.lft.to/lastmile_qr_scan"}, "is_reserved": 0}, {"lon": -76.97808366666666, "bike_id": "b88618a100981df36a1be5d08946ecd9", "lat": 38.90665583333333, "fusion_lon": 0.0, "fusion_lat": 0.0, "type": "electric_scooter", "name": "b88618a100981df36a1be5d08946ecd9", "is_disabled": 0, "rental_uris": {"ios": "https://dc.lft.to/lastmile_qr_scan", "android": "https://dc.lft.to/lastmile_qr_scan"}, "is_reserved": 0}, {"lon": -77.03649033333333, "bike_id": "2ea9e264ca4fdeabf40e77a44c20f4f6", "lat": 38.92275016666667, "fusion_lon": 0.0, "fusion_lat": 0.0, "type": "electric_scooter", "name": "2ea9e264ca4fdeabf40e77a44c20f4f6", "is_disabled": 0, "rental_uris": {"ios": "https://dc.lft.to/lastmile_qr_scan", "android": "https://dc.lft.to/lastmile_qr_scan"}, "is_reserved": 0}, {"lon": -77.04387966666667, "bike_id": "8fd9593ccb1c6009da6b56ddbe2913fb", "lat": 38.921136, "fusion_lon": 0.0, "fusion_lat": 0.0, "type": "electric_scooter", "name": "8fd9593ccb1c6009da6b56ddbe2913fb", "is_disabled": 0, "rental_uris": {"ios": "https://dc.lft.to/lastmile_qr_scan", "android": "https://dc.lft.to/lastmile_qr_scan"}, "is_reserved": 0}, {"lon": -77.0398285, "bike_id": "48333f7dd5868306f3d8cf65e64dfe4e", "lat": 38.9055725, "fusion_lon": 0.0, "fusion_lat": 0.0, "type": "electric_scooter", "name": "48333f7dd5868306f3d8cf65e64dfe4e", "is_disabled": 0, "rental_uris": {"ios": "https://dc.lft.to/lastmile_qr_scan", "android": "https://dc.lft.to/lastmile_qr_scan"}, "is_reserved": 0}, {"lon": -77.04217183333333, "bike_id": "9263ff46589d7918b83e1ea00c59cb71", "lat": 38.92311316666667, "fusion_lon": 0.0, "fusion_lat": 0.0, "type": "electric_scooter", "name": "9263ff46589d7918b83e1ea00c59cb71", "is_disabled": 0, "rental_uris": {"ios": "https://dc.lft.to/lastmile_qr_scan", "android": "https://dc.lft.to/lastmile_qr_scan"}, "is_reserved": 0}, {"lon": -77.04418633333333, "bike_id": "2d048c433dcb186f76841bc660a509fd", "lat": 38.909664666666664, "fusion_lon": 0.0, "fusion_lat": 0.0, "type": "electric_scooter", "name": "2d048c433dcb186f76841bc660a509fd", "is_disabled": 0, "rental_uris": {"ios": "https://dc.lft.to/lastmile_qr_scan", "android": "https://dc.lft.to/lastmile_qr_scan"}, "is_reserved": 0}, {"lon": -77.07230183333333, "bike_id": "d53fa4dcb0ea02c545e960531edec8f0", "lat": 38.96811316666667, "fusion_lon": 0.0, "fusion_lat": 0.0, "type": "electric_bike", "name": "d53fa4dcb0ea02c545e960531edec8f0", "is_disabled": 0, "rental_uris": {"ios": "https://dc.lft.to/lastmile_qr_scan", "android": "https://dc.lft.to/lastmile_qr_scan"}, "is_reserved": 0}, {"lon": -77.011747, "bike_id": "84007e1e80ed847fee85bba6757c9473", "lat": 38.9002735, "fusion_lon": 0.0, "fusion_lat": 0.0, "type": "electric_scooter", "name": "84007e1e80ed847fee85bba6757c9473", "is_disabled": 0, "rental_uris": {"ios": "https://dc.lft.to/lastmile_qr_scan", "android": "https://dc.lft.to/lastmile_qr_scan"}, "is_reserved": 0}, {"lon": -76.99369833333333, "bike_id": "3ebe0fdcaa486560a25287498b93ca94", "lat": 38.971916666666665, "fusion_lon": 0.0, "fusion_lat": 0.0, "type": "electric_bike", "name": "3ebe0fdcaa486560a25287498b93ca94", "is_disabled": 0, "rental_uris": {"ios": "https://dc.lft.to/lastmile_qr_scan", "android": "https://dc.lft.to/lastmile_qr_scan"}, "is_reserved": 0}, {"lon": -77.013025, "bike_id": "eec6ceead5f0409821c8db7f06e46f7a", "lat": 38.94327666666667, "fusion_lon": 0.0, "fusion_lat": 0.0, "type": "electric_scooter", "name": "eec6ceead5f0409821c8db7f06e46f7a", "is_disabled": 0, "rental_uris": {"ios": "https://dc.lft.to/lastmile_qr_scan", "android": "https://dc.lft.to/lastmile_qr_scan"}, "is_reserved": 0}, {"lon": -77.0289065, "bike_id": "a9cce3e2124282acfe902813b4040553", "lat": 38.91687483333333, "fusion_lon": 0.0, "fusion_lat": 0.0, "type": "electric_scooter", "name": "a9cce3e2124282acfe902813b4040553", "is_disabled": 0, "rental_uris": {"ios": "https://dc.lft.to/lastmile_qr_scan", "android": "https://dc.lft.to/lastmile_qr_scan"}, "is_reserved": 0}, {"lon": -77.048774, "bike_id": "d704a7709ee94929e09954ac93d2c297", "lat": 38.8922845, "fusion_lon": 0.0, "fusion_lat": 0.0, "type": "electric_scooter", "name": "d704a7709ee94929e09954ac93d2c297", "is_disabled": 0, "rental_uris": {"ios": "https://dc.lft.to/lastmile_qr_scan", "android": "https://dc.lft.to/lastmile_qr_scan"}, "is_reserved": 0}, {"lon": -77.00576983333333, "bike_id": "d8cd3bc287b1da31193577eaf01885b8", "lat": 38.83590066666667, "fusion_lon": 0.0, "fusion_lat": 0.0, "type": "electric_scooter", "name": "d8cd3bc287b1da31193577eaf01885b8", "is_disabled": 0, "rental_uris": {"ios": "https://dc.lft.to/lastmile_qr_scan", "android": "https://dc.lft.to/lastmile_qr_scan"}, "is_reserved": 0}, {"lon": -77.032226, "bike_id": "6ddeb9daa9c247244f838e58c53f4863", "lat": 38.92861883333333, "fusion_lon": 0.0, "fusion_lat": 0.0, "type": "electric_scooter", "name": "6ddeb9daa9c247244f838e58c53f4863", "is_disabled": 0, "rental_uris": {"ios": "https://dc.lft.to/lastmile_qr_scan", "android": "https://dc.lft.to/lastmile_qr_scan"}, "is_reserved": 0}, {"lon": -77.03443216666666, "bike_id": "8579e97fb97d4126cf29108d9f9a5c9a", "lat": 38.916760333333336, "fusion_lon": 0.0, "fusion_lat": 0.0, "type": "electric_scooter", "name": "8579e97fb97d4126cf29108d9f9a5c9a", "is_disabled": 0, "rental_uris": {"ios": "https://dc.lft.to/lastmile_qr_scan", "android": "https://dc.lft.to/lastmile_qr_scan"}, "is_reserved": 0}, {"lon": -77.03609033333333, "bike_id": "bd527114ac99e16c9bedc6ad9a237c47", "lat": 38.93680966666667, "fusion_lon": 0.0, "fusion_lat": 0.0, "type": "electric_scooter", "name": "bd527114ac99e16c9bedc6ad9a237c47", "is_disabled": 0, "rental_uris": {"ios": "https://dc.lft.to/lastmile_qr_scan", "android": "https://dc.lft.to/lastmile_qr_scan"}, "is_reserved": 0}, {"lon": -76.96088166666667, "bike_id": "3ce7919ca0b38226dd721787c69ec870", "lat": 38.918601833333334, "fusion_lon": 0.0, "fusion_lat": 0.0, "type": "electric_bike", "name": "3ce7919ca0b38226dd721787c69ec870", "is_disabled": 0, "rental_uris": {"ios": "https://dc.lft.to/lastmile_qr_scan", "android": "https://dc.lft.to/lastmile_qr_scan"}, "is_reserved": 0}, {"lon": -77.07004883333333, "bike_id": "dacd91abcec9ee2dc055084be0e8317e", "lat": 38.958507833333336, "fusion_lon": 0.0, "fusion_lat": 0.0, "type": "electric_scooter", "name": "dacd91abcec9ee2dc055084be0e8317e", "is_disabled": 0, "rental_uris": {"ios": "https://dc.lft.to/lastmile_qr_scan", "android": "https://dc.lft.to/lastmile_qr_scan"}, "is_reserved": 0}, {"lon": -76.99678983333334, "bike_id": "f3e8d6d45939b4458dbfac31b5fea3ca", "lat": 38.86021316666667, "fusion_lon": 0.0, "fusion_lat": 0.0, "type": "electric_scooter", "name": "f3e8d6d45939b4458dbfac31b5fea3ca", "is_disabled": 0, "rental_uris": {"ios": "https://dc.lft.to/lastmile_qr_scan", "android": "https://dc.lft.to/lastmile_qr_scan"}, "is_reserved": 0}, {"lon": -76.996428, "bike_id": "3f228f7c8ef588b9d886c716bbea38a8", "lat": 38.988311333333336, "fusion_lon": 0.0, "fusion_lat": 0.0, "type": "electric_bike", "name": "3f228f7c8ef588b9d886c716bbea38a8", "is_disabled": 0, "rental_uris": {"ios": "https://dc.lft.to/lastmile_qr_scan", "android": "https://dc.lft.to/lastmile_qr_scan"}, "is_reserved": 0}, {"lon": -77.050412, "bike_id": "1460bdbcf62d4a43a2293ca90bd1ae03", "lat": 38.9004085, "fusion_lon": 0.0, "fusion_lat": 0.0, "type": "electric_scooter", "name": "1460bdbcf62d4a43a2293ca90bd1ae03", "is_disabled": 0, "rental_uris": {"ios": "https://dc.lft.to/lastmile_qr_scan", "android": "https://dc.lft.to/lastmile_qr_scan"}, "is_reserved": 0}, {"lon": -77.02929666666667, "bike_id": "b8a15c6e4da497b297563d82a34cdfc1", "lat": 38.90471083333333, "fusion_lon": 0.0, "fusion_lat": 0.0, "type": "electric_scooter", "name": "b8a15c6e4da497b297563d82a34cdfc1", "is_disabled": 0, "rental_uris": {"ios": "https://dc.lft.to/lastmile_qr_scan", "android": "https://dc.lft.to/lastmile_qr_scan"}, "is_reserved": 0}, {"lon": -77.023747, "bike_id": "40c1703c93aa64a5758e74ee5469960e", "lat": 38.892162, "fusion_lon": 0.0, "fusion_lat": 0.0, "type": "electric_scooter", "name": "40c1703c93aa64a5758e74ee5469960e", "is_disabled": 0, "rental_uris": {"ios": "https://dc.lft.to/lastmile_qr_scan", "android": "https://dc.lft.to/lastmile_qr_scan"}, "is_reserved": 0}, {"lon": -76.97519383333334, "bike_id": "a11bb9bf2f2db0ac570d440cdfac4991", "lat": 38.966942333333336, "fusion_lon": 0.0, "fusion_lat": 0.0, "type": "electric_bike", "name": "a11bb9bf2f2db0ac570d440cdfac4991", "is_disabled": 0, "rental_uris": {"ios": "https://dc.lft.to/lastmile_qr_scan", "android": "https://dc.lft.to/lastmile_qr_scan"}, "is_reserved": 0}, {"lon": -77.02083883333333, "bike_id": "bc2910a1710595da5e5d8f4640d9f04b", "lat": 38.9574625, "fusion_lon": 0.0, "fusion_lat": 0.0, "type": "electric_scooter", "name": "bc2910a1710595da5e5d8f4640d9f04b", "is_disabled": 0, "rental_uris": {"ios": "https://dc.lft.to/lastmile_qr_scan", "android": "https://dc.lft.to/lastmile_qr_scan"}, "is_reserved": 0}, {"lon": -77.03381483333334, "bike_id": "e09faa5c6a4e7c3acb7c96348623ec07", "lat": 38.909584, "fusion_lon": 0.0, "fusion_lat": 0.0, "type": "electric_scooter", "name": "e09faa5c6a4e7c3acb7c96348623ec07", "is_disabled": 0, "rental_uris": {"ios": "https://dc.lft.to/lastmile_qr_scan", "android": "https://dc.lft.to/lastmile_qr_scan"}, "is_reserved": 0}, {"lon": -77.03863266666667, "bike_id": "4b10c287a1c38dd3c006def96ed4a4e4", "lat": 38.911769666666665, "fusion_lon": 0.0, "fusion_lat": 0.0, "type": "electric_scooter", "name": "4b10c287a1c38dd3c006def96ed4a4e4", "is_disabled": 0, "rental_uris": {"ios": "https://dc.lft.to/lastmile_qr_scan", "android": "https://dc.lft.to/lastmile_qr_scan"}, "is_reserved": 0}, {"lon": -77.0828605, "bike_id": "b00bb7cf60cecf2631b8b781b4c1a067", "lat": 38.935843, "fusion_lon": 0.0, "fusion_lat": 0.0, "type": "electric_scooter", "name": "b00bb7cf60cecf2631b8b781b4c1a067", "is_disabled": 0, "rental_uris": {"ios": "https://dc.lft.to/lastmile_qr_scan", "android": "https://dc.lft.to/lastmile_qr_scan"}, "is_reserved": 0}, {"lon": -76.9418715, "bike_id": "631924756d077f198008cb5aa9f43fca", "lat": 38.893159, "fusion_lon": 0.0, "fusion_lat": 0.0, "type": "electric_bike", "name": "631924756d077f198008cb5aa9f43fca", "is_disabled": 0, "rental_uris": {"ios": "https://dc.lft.to/lastmile_qr_scan", "android": "https://dc.lft.to/lastmile_qr_scan"}, "is_reserved": 0}, {"lon": -77.023659, "bike_id": "0de652268c7ade38fe78b6269ffef066", "lat": 38.915473, "fusion_lon": 0.0, "fusion_lat": 0.0, "type": "electric_scooter", "name": "0de652268c7ade38fe78b6269ffef066", "is_disabled": 0, "rental_uris": {"ios": "https://dc.lft.to/lastmile_qr_scan", "android": "https://dc.lft.to/lastmile_qr_scan"}, "is_reserved": 0}, {"lon": -77.01322616666667, "bike_id": "24fa00229131ccad594e58f9f52590c4", "lat": 38.90020833333333, "fusion_lon": 0.0, "fusion_lat": 0.0, "type": "electric_scooter", "name": "24fa00229131ccad594e58f9f52590c4", "is_disabled": 0, "rental_uris": {"ios": "https://dc.lft.to/lastmile_qr_scan", "android": "https://dc.lft.to/lastmile_qr_scan"}, "is_reserved": 0}, {"lon": -77.03866983333333, "bike_id": "22a0f1bb5544dfa18863c8daec3956ac", "lat": 38.912636666666664, "fusion_lon": 0.0, "fusion_lat": 0.0, "type": "electric_scooter", "name": "22a0f1bb5544dfa18863c8daec3956ac", "is_disabled": 0, "rental_uris": {"ios": "https://dc.lft.to/lastmile_qr_scan", "android": "https://dc.lft.to/lastmile_qr_scan"}, "is_reserved": 0}, {"lon": -76.97328583333334, "bike_id": "947c8a44041ed135dc58d443691e7224", "lat": 38.904118, "fusion_lon": 0.0, "fusion_lat": 0.0, "type": "electric_scooter", "name": "947c8a44041ed135dc58d443691e7224", "is_disabled": 0, "rental_uris": {"ios": "https://dc.lft.to/lastmile_qr_scan", "android": "https://dc.lft.to/lastmile_qr_scan"}, "is_reserved": 0}, {"lon": -77.04153766666667, "bike_id": "75be1b3263d4f33d5994e73b7643ab4d", "lat": 38.91810183333333, "fusion_lon": 0.0, "fusion_lat": 0.0, "type": "electric_scooter", "name": "75be1b3263d4f33d5994e73b7643ab4d", "is_disabled": 0, "rental_uris": {"ios": "https://dc.lft.to/lastmile_qr_scan", "android": "https://dc.lft.to/lastmile_qr_scan"}, "is_reserved": 0}, {"lon": -77.02694583333333, "bike_id": "a49f4d8a796ccfc1e49f49221a062f36", "lat": 38.90525316666667, "fusion_lon": 0.0, "fusion_lat": 0.0, "type": "electric_scooter", "name": "a49f4d8a796ccfc1e49f49221a062f36", "is_disabled": 0, "rental_uris": {"ios": "https://dc.lft.to/lastmile_qr_scan", "android": "https://dc.lft.to/lastmile_qr_scan"}, "is_reserved": 0}, {"lon": -77.03514633333333, "bike_id": "cf0adbcc9e3ae6db1a6c49b7afa5db00", "lat": 38.92333516666667, "fusion_lon": 0.0, "fusion_lat": 0.0, "type": "electric_scooter", "name": "cf0adbcc9e3ae6db1a6c49b7afa5db00", "is_disabled": 0, "rental_uris": {"ios": "https://dc.lft.to/lastmile_qr_scan", "android": "https://dc.lft.to/lastmile_qr_scan"}, "is_reserved": 0}, {"lon": -77.03878083333333, "bike_id": "c3ba3c736adc88d1702647f073cf2ae1", "lat": 38.931856333333336, "fusion_lon": 0.0, "fusion_lat": 0.0, "type": "electric_scooter", "name": "c3ba3c736adc88d1702647f073cf2ae1", "is_disabled": 0, "rental_uris": {"ios": "https://dc.lft.to/lastmile_qr_scan", "android": "https://dc.lft.to/lastmile_qr_scan"}, "is_reserved": 0}, {"lon": -77.03464833333334, "bike_id": "69652dbcbec378a0273c06d3f0ad00a7", "lat": 38.907379166666665, "fusion_lon": 0.0, "fusion_lat": 0.0, "type": "electric_scooter", "name": "69652dbcbec378a0273c06d3f0ad00a7", "is_disabled": 0, "rental_uris": {"ios": "https://dc.lft.to/lastmile_qr_scan", "android": "https://dc.lft.to/lastmile_qr_scan"}, "is_reserved": 0}, {"lon": -77.03446933333333, "bike_id": "d5a13a516cf8adb0bf67f3aa2b95da7a", "lat": 38.908117833333336, "fusion_lon": 0.0, "fusion_lat": 0.0, "type": "electric_scooter", "name": "d5a13a516cf8adb0bf67f3aa2b95da7a", "is_disabled": 0, "rental_uris": {"ios": "https://dc.lft.to/lastmile_qr_scan", "android": "https://dc.lft.to/lastmile_qr_scan"}, "is_reserved": 0}, {"lon": -77.00650283333333, "bike_id": "1244d12b38a5d73ef2175d01c873a775", "lat": 38.83891766666667, "fusion_lon": 0.0, "fusion_lat": 0.0, "type": "electric_scooter", "name": "1244d12b38a5d73ef2175d01c873a775", "is_disabled": 0, "rental_uris": {"ios": "https://dc.lft.to/lastmile_qr_scan", "android": "https://dc.lft.to/lastmile_qr_scan"}, "is_reserved": 0}, {"lon": -77.03279183333333, "bike_id": "e41b85ca8ac7b274b825e27aa1d098e5", "lat": 38.956441, "fusion_lon": 0.0, "fusion_lat": 0.0, "type": "electric_scooter", "name": "e41b85ca8ac7b274b825e27aa1d098e5", "is_disabled": 0, "rental_uris": {"ios": "https://dc.lft.to/lastmile_qr_scan", "android": "https://dc.lft.to/lastmile_qr_scan"}, "is_reserved": 0}, {"lon": -77.04084766666666, "bike_id": "94d979daa04273225fe1882d3a95eee0", "lat": 38.9169235, "fusion_lon": 0.0, "fusion_lat": 0.0, "type": "electric_scooter", "name": "94d979daa04273225fe1882d3a95eee0", "is_disabled": 0, "rental_uris": {"ios": "https://dc.lft.to/lastmile_qr_scan", "android": "https://dc.lft.to/lastmile_qr_scan"}, "is_reserved": 0}, {"lon": -77.02511733333333, "bike_id": "b4d2f2ba115b1535f2c3c3d66dc64533", "lat": 38.91684983333333, "fusion_lon": 0.0, "fusion_lat": 0.0, "type": "electric_scooter", "name": "b4d2f2ba115b1535f2c3c3d66dc64533", "is_disabled": 0, "rental_uris": {"ios": "https://dc.lft.to/lastmile_qr_scan", "android": "https://dc.lft.to/lastmile_qr_scan"}, "is_reserved": 0}, {"lon": -76.931762, "bike_id": "c5029df57167092cef7b0fd07c4ea7b0", "lat": 38.898812666666664, "fusion_lon": 0.0, "fusion_lat": 0.0, "type": "electric_scooter", "name": "c5029df57167092cef7b0fd07c4ea7b0", "is_disabled": 0, "rental_uris": {"ios": "https://dc.lft.to/lastmile_qr_scan", "android": "https://dc.lft.to/lastmile_qr_scan"}, "is_reserved": 0}, {"lon": -77.03171583333334, "bike_id": "bb8ba895d1f4005c697e7e7c95637d27", "lat": 38.914187166666665, "fusion_lon": 0.0, "fusion_lat": 0.0, "type": "electric_scooter", "name": "bb8ba895d1f4005c697e7e7c95637d27", "is_disabled": 0, "rental_uris": {"ios": "https://dc.lft.to/lastmile_qr_scan", "android": "https://dc.lft.to/lastmile_qr_scan"}, "is_reserved": 0}, {"lon": -77.03865166666667, "bike_id": "f2fadb65f2d7b4db483815cb25381781", "lat": 38.906660333333335, "fusion_lon": 0.0, "fusion_lat": 0.0, "type": "electric_scooter", "name": "f2fadb65f2d7b4db483815cb25381781", "is_disabled": 0, "rental_uris": {"ios": "https://dc.lft.to/lastmile_qr_scan", "android": "https://dc.lft.to/lastmile_qr_scan"}, "is_reserved": 0}, {"lon": -76.95745366666667, "bike_id": "0c2d9437832c96100b9d616e323ec07a", "lat": 38.884263833333335, "fusion_lon": 0.0, "fusion_lat": 0.0, "type": "electric_scooter", "name": "0c2d9437832c96100b9d616e323ec07a", "is_disabled": 0, "rental_uris": {"ios": "https://dc.lft.to/lastmile_qr_scan", "android": "https://dc.lft.to/lastmile_qr_scan"}, "is_reserved": 0}, {"lon": -76.9364575, "bike_id": "4433891f7d2f1eb150ab31957705b92d", "lat": 38.900626833333334, "fusion_lon": 0.0, "fusion_lat": 0.0, "type": "electric_scooter", "name": "4433891f7d2f1eb150ab31957705b92d", "is_disabled": 0, "rental_uris": {"ios": "https://dc.lft.to/lastmile_qr_scan", "android": "https://dc.lft.to/lastmile_qr_scan"}, "is_reserved": 0}, {"lon": -76.9300735, "bike_id": "34f6afba34e1adf95534d35ccdc4237f", "lat": 38.8965135, "fusion_lon": 0.0, "fusion_lat": 0.0, "type": "electric_bike", "name": "34f6afba34e1adf95534d35ccdc4237f", "is_disabled": 0, "rental_uris": {"ios": "https://dc.lft.to/lastmile_qr_scan", "android": "https://dc.lft.to/lastmile_qr_scan"}, "is_reserved": 0}, {"lon": -77.03420783333334, "bike_id": "90dade212a594658cae92716fb5f9260", "lat": 38.93352383333333, "fusion_lon": 0.0, "fusion_lat": 0.0, "type": "electric_scooter", "name": "90dade212a594658cae92716fb5f9260", "is_disabled": 0, "rental_uris": {"ios": "https://dc.lft.to/lastmile_qr_scan", "android": "https://dc.lft.to/lastmile_qr_scan"}, "is_reserved": 0}, {"lon": -76.87495133333333, "bike_id": "ca61d4d544c61aac24ed30454448a0b9", "lat": 38.99089883333333, "fusion_lon": 0.0, "fusion_lat": 0.0, "type": "electric_bike", "name": "ca61d4d544c61aac24ed30454448a0b9", "is_disabled": 0, "rental_uris": {"ios": "https://dc.lft.to/lastmile_qr_scan", "android": "https://dc.lft.to/lastmile_qr_scan"}, "is_reserved": 0}, {"lon": -77.104885, "bike_id": "dd5723449aa5813cd485158058054088", "lat": 38.8560895, "fusion_lon": 0.0, "fusion_lat": 0.0, "type": "electric_bike", "name": "dd5723449aa5813cd485158058054088", "is_disabled": 0, "rental_uris": {"ios": "https://dc.lft.to/lastmile_qr_scan", "android": "https://dc.lft.to/lastmile_qr_scan"}, "is_reserved": 0}, {"lon": -76.98223883333333, "bike_id": "88209885f033883af7d89539e49fdb50", "lat": 38.886449166666665, "fusion_lon": 0.0, "fusion_lat": 0.0, "type": "electric_scooter", "name": "88209885f033883af7d89539e49fdb50", "is_disabled": 0, "rental_uris": {"ios": "https://dc.lft.to/lastmile_qr_scan", "android": "https://dc.lft.to/lastmile_qr_scan"}, "is_reserved": 0}, {"lon": -77.03997583333333, "bike_id": "08fcccfd245d353600550ac9e303025b", "lat": 38.913996166666664, "fusion_lon": 0.0, "fusion_lat": 0.0, "type": "electric_scooter", "name": "08fcccfd245d353600550ac9e303025b", "is_disabled": 0, "rental_uris": {"ios": "https://dc.lft.to/lastmile_qr_scan", "android": "https://dc.lft.to/lastmile_qr_scan"}, "is_reserved": 0}, {"lon": -77.02977933333334, "bike_id": "9d1040a63342491f278b7ea6da09ed8a", "lat": 38.90700833333333, "fusion_lon": 0.0, "fusion_lat": 0.0, "type": "electric_scooter", "name": "9d1040a63342491f278b7ea6da09ed8a", "is_disabled": 0, "rental_uris": {"ios": "https://dc.lft.to/lastmile_qr_scan", "android": "https://dc.lft.to/lastmile_qr_scan"}, "is_reserved": 0}, {"lon": -77.04158866666667, "bike_id": "9019b6a948c16410b0cf861e23afb1c8", "lat": 38.91414366666667, "fusion_lon": 0.0, "fusion_lat": 0.0, "type": "electric_scooter", "name": "9019b6a948c16410b0cf861e23afb1c8", "is_disabled": 0, "rental_uris": {"ios": "https://dc.lft.to/lastmile_qr_scan", "android": "https://dc.lft.to/lastmile_qr_scan"}, "is_reserved": 0}, {"lon": -76.930011, "bike_id": "7832a33b6e5809fbcf246d2d7e33e85a", "lat": 38.891921833333335, "fusion_lon": 0.0, "fusion_lat": 0.0, "type": "electric_scooter", "name": "7832a33b6e5809fbcf246d2d7e33e85a", "is_disabled": 0, "rental_uris": {"ios": "https://dc.lft.to/lastmile_qr_scan", "android": "https://dc.lft.to/lastmile_qr_scan"}, "is_reserved": 0}, {"lon": -77.03832333333334, "bike_id": "3c1c42b3c3e985f8cd51d753470926ff", "lat": 38.91119916666667, "fusion_lon": 0.0, "fusion_lat": 0.0, "type": "electric_scooter", "name": "3c1c42b3c3e985f8cd51d753470926ff", "is_disabled": 0, "rental_uris": {"ios": "https://dc.lft.to/lastmile_qr_scan", "android": "https://dc.lft.to/lastmile_qr_scan"}, "is_reserved": 0}, {"lon": -77.0317995, "bike_id": "84d2a915ba9ae5fb5f5b9aa304171eb1", "lat": 38.93687766666667, "fusion_lon": 0.0, "fusion_lat": 0.0, "type": "electric_scooter", "name": "84d2a915ba9ae5fb5f5b9aa304171eb1", "is_disabled": 0, "rental_uris": {"ios": "https://dc.lft.to/lastmile_qr_scan", "android": "https://dc.lft.to/lastmile_qr_scan"}, "is_reserved": 0}, {"lon": -76.97537183333333, "bike_id": "3c31cfdc4c07c84852bb73529dd37f76", "lat": 38.8641865, "fusion_lon": 0.0, "fusion_lat": 0.0, "type": "electric_scooter", "name": "3c31cfdc4c07c84852bb73529dd37f76", "is_disabled": 0, "rental_uris": {"ios": "https://dc.lft.to/lastmile_qr_scan", "android": "https://dc.lft.to/lastmile_qr_scan"}, "is_reserved": 0}, {"lon": -76.99528666666667, "bike_id": "55375c030ac7c7adc1f5dc717e208733", "lat": 38.883720333333336, "fusion_lon": 0.0, "fusion_lat": 0.0, "type": "electric_scooter", "name": "55375c030ac7c7adc1f5dc717e208733", "is_disabled": 0, "rental_uris": {"ios": "https://dc.lft.to/lastmile_qr_scan", "android": "https://dc.lft.to/lastmile_qr_scan"}, "is_reserved": 0}, {"lon": -77.05695333333334, "bike_id": "ceee564c104cae83b2127d44980d496e", "lat": 38.9371265, "fusion_lon": 0.0, "fusion_lat": 0.0, "type": "electric_scooter", "name": "ceee564c104cae83b2127d44980d496e", "is_disabled": 0, "rental_uris": {"ios": "https://dc.lft.to/lastmile_qr_scan", "android": "https://dc.lft.to/lastmile_qr_scan"}, "is_reserved": 0}, {"lon": -77.11157883333334, "bike_id": "e6a7aa69d048e0da83f776479806b6ff", "lat": 38.8550815, "fusion_lon": 0.0, "fusion_lat": 0.0, "type": "electric_bike", "name": "e6a7aa69d048e0da83f776479806b6ff", "is_disabled": 0, "rental_uris": {"ios": "https://dc.lft.to/lastmile_qr_scan", "android": "https://dc.lft.to/lastmile_qr_scan"}, "is_reserved": 0}, {"lon": -77.05717066666666, "bike_id": "6b18547ca9bc4c8ba96063d6ddb674b9", "lat": 38.933718666666664, "fusion_lon": 0.0, "fusion_lat": 0.0, "type": "electric_scooter", "name": "6b18547ca9bc4c8ba96063d6ddb674b9", "is_disabled": 0, "rental_uris": {"ios": "https://dc.lft.to/lastmile_qr_scan", "android": "https://dc.lft.to/lastmile_qr_scan"}, "is_reserved": 0}, {"lon": -77.01210283333333, "bike_id": "e6b6749943c47370d701a1d97c28073d", "lat": 38.92119983333333, "fusion_lon": 0.0, "fusion_lat": 0.0, "type": "electric_scooter", "name": "e6b6749943c47370d701a1d97c28073d", "is_disabled": 0, "rental_uris": {"ios": "https://dc.lft.to/lastmile_qr_scan", "android": "https://dc.lft.to/lastmile_qr_scan"}, "is_reserved": 0}, {"lon": -76.98104833333333, "bike_id": "0b505ec1fb99b6c5fd1b67a4dc206266", "lat": 38.91474083333333, "fusion_lon": 0.0, "fusion_lat": 0.0, "type": "electric_scooter", "name": "0b505ec1fb99b6c5fd1b67a4dc206266", "is_disabled": 0, "rental_uris": {"ios": "https://dc.lft.to/lastmile_qr_scan", "android": "https://dc.lft.to/lastmile_qr_scan"}, "is_reserved": 0}, {"lon": -77.00059316666666, "bike_id": "9eb68352cb330f3614efe723077f7a0b", "lat": 38.894971, "fusion_lon": 0.0, "fusion_lat": 0.0, "type": "electric_scooter", "name": "9eb68352cb330f3614efe723077f7a0b", "is_disabled": 0, "rental_uris": {"ios": "https://dc.lft.to/lastmile_qr_scan", "android": "https://dc.lft.to/lastmile_qr_scan"}, "is_reserved": 0}, {"lon": -77.04334733333333, "bike_id": "33a3e5dc1741e8d41a30b44891746d9d", "lat": 38.9221925, "fusion_lon": 0.0, "fusion_lat": 0.0, "type": "electric_scooter", "name": "33a3e5dc1741e8d41a30b44891746d9d", "is_disabled": 0, "rental_uris": {"ios": "https://dc.lft.to/lastmile_qr_scan", "android": "https://dc.lft.to/lastmile_qr_scan"}, "is_reserved": 0}, {"lon": -77.04267866666666, "bike_id": "77e48e73dc80669f8e79b4a8f557834b", "lat": 38.907288333333334, "fusion_lon": 0.0, "fusion_lat": 0.0, "type": "electric_scooter", "name": "77e48e73dc80669f8e79b4a8f557834b", "is_disabled": 0, "rental_uris": {"ios": "https://dc.lft.to/lastmile_qr_scan", "android": "https://dc.lft.to/lastmile_qr_scan"}, "is_reserved": 0}, {"lon": -77.051587, "bike_id": "a921f12638808fd17a12d2fe65f228d9", "lat": 39.0429955, "fusion_lon": 0.0, "fusion_lat": 0.0, "type": "electric_bike", "name": "a921f12638808fd17a12d2fe65f228d9", "is_disabled": 0, "rental_uris": {"ios": "https://dc.lft.to/lastmile_qr_scan", "android": "https://dc.lft.to/lastmile_qr_scan"}, "is_reserved": 0}, {"lon": -77.00046633333334, "bike_id": "dfedd619c0236076ececaaf1370fa60c", "lat": 38.923966666666665, "fusion_lon": 0.0, "fusion_lat": 0.0, "type": "electric_scooter", "name": "dfedd619c0236076ececaaf1370fa60c", "is_disabled": 0, "rental_uris": {"ios": "https://dc.lft.to/lastmile_qr_scan", "android": "https://dc.lft.to/lastmile_qr_scan"}, "is_reserved": 0}, {"lon": -76.9838815, "bike_id": "b912cae276d69a27875a47ebfecc7d44", "lat": 38.89885366666667, "fusion_lon": 0.0, "fusion_lat": 0.0, "type": "electric_bike", "name": "b912cae276d69a27875a47ebfecc7d44", "is_disabled": 0, "rental_uris": {"ios": "https://dc.lft.to/lastmile_qr_scan", "android": "https://dc.lft.to/lastmile_qr_scan"}, "is_reserved": 0}, {"lon": -76.94067366666667, "bike_id": "acb87c7db7f2cd9d5818532f71aab504", "lat": 38.89320416666666, "fusion_lon": 0.0, "fusion_lat": 0.0, "type": "electric_scooter", "name": "acb87c7db7f2cd9d5818532f71aab504", "is_disabled": 0, "rental_uris": {"ios": "https://dc.lft.to/lastmile_qr_scan", "android": "https://dc.lft.to/lastmile_qr_scan"}, "is_reserved": 0}, {"lon": -77.0302745, "bike_id": "77e12f0eb36cecb0b8715de563975e56", "lat": 38.88440266666667, "fusion_lon": 0.0, "fusion_lat": 0.0, "type": "electric_scooter", "name": "77e12f0eb36cecb0b8715de563975e56", "is_disabled": 0, "rental_uris": {"ios": "https://dc.lft.to/lastmile_qr_scan", "android": "https://dc.lft.to/lastmile_qr_scan"}, "is_reserved": 0}, {"lon": -77.0319645, "bike_id": "80f241bcf24ca8e0a50fc0f6ec25fce7", "lat": 38.9068485, "fusion_lon": 0.0, "fusion_lat": 0.0, "type": "electric_scooter", "name": "80f241bcf24ca8e0a50fc0f6ec25fce7", "is_disabled": 0, "rental_uris": {"ios": "https://dc.lft.to/lastmile_qr_scan", "android": "https://dc.lft.to/lastmile_qr_scan"}, "is_reserved": 0}, {"lon": -77.0233045, "bike_id": "29ad81c555e9ffa5796a5e78cfeca11f", "lat": 38.89490166666667, "fusion_lon": 0.0, "fusion_lat": 0.0, "type": "electric_scooter", "name": "29ad81c555e9ffa5796a5e78cfeca11f", "is_disabled": 0, "rental_uris": {"ios": "https://dc.lft.to/lastmile_qr_scan", "android": "https://dc.lft.to/lastmile_qr_scan"}, "is_reserved": 0}, {"lon": -76.99809033333334, "bike_id": "309bcb9dd6a8a4acd2ccca8aaea8a737", "lat": 38.82908183333333, "fusion_lon": 0.0, "fusion_lat": 0.0, "type": "electric_bike", "name": "309bcb9dd6a8a4acd2ccca8aaea8a737", "is_disabled": 0, "rental_uris": {"ios": "https://dc.lft.to/lastmile_qr_scan", "android": "https://dc.lft.to/lastmile_qr_scan"}, "is_reserved": 0}, {"lon": -77.02357366666666, "bike_id": "7f2c73a4fc158cfbacd085dcbe69c220", "lat": 38.9222295, "fusion_lon": 0.0, "fusion_lat": 0.0, "type": "electric_scooter", "name": "7f2c73a4fc158cfbacd085dcbe69c220", "is_disabled": 0, "rental_uris": {"ios": "https://dc.lft.to/lastmile_qr_scan", "android": "https://dc.lft.to/lastmile_qr_scan"}, "is_reserved": 0}, {"lon": -77.0168865, "bike_id": "c6d2ace4b09e705602208441423654b3", "lat": 38.914325833333336, "fusion_lon": 0.0, "fusion_lat": 0.0, "type": "electric_scooter", "name": "c6d2ace4b09e705602208441423654b3", "is_disabled": 0, "rental_uris": {"ios": "https://dc.lft.to/lastmile_qr_scan", "android": "https://dc.lft.to/lastmile_qr_scan"}, "is_reserved": 0}, {"lon": -77.03607816666667, "bike_id": "2a3ad0f6284e25ae58a42d7df58c8b3d", "lat": 38.93683083333333, "fusion_lon": 0.0, "fusion_lat": 0.0, "type": "electric_scooter", "name": "2a3ad0f6284e25ae58a42d7df58c8b3d", "is_disabled": 0, "rental_uris": {"ios": "https://dc.lft.to/lastmile_qr_scan", "android": "https://dc.lft.to/lastmile_qr_scan"}, "is_reserved": 0}, {"lon": -77.017566, "bike_id": "81c661bf6fd714e444807206e8256b27", "lat": 38.9039135, "fusion_lon": 0.0, "fusion_lat": 0.0, "type": "electric_scooter", "name": "81c661bf6fd714e444807206e8256b27", "is_disabled": 0, "rental_uris": {"ios": "https://dc.lft.to/lastmile_qr_scan", "android": "https://dc.lft.to/lastmile_qr_scan"}, "is_reserved": 0}, {"lon": -77.02718533333334, "bike_id": "21f85ad83bb775973babc41374854757", "lat": 38.926618500000004, "fusion_lon": 0.0, "fusion_lat": 0.0, "type": "electric_scooter", "name": "21f85ad83bb775973babc41374854757", "is_disabled": 0, "rental_uris": {"ios": "https://dc.lft.to/lastmile_qr_scan", "android": "https://dc.lft.to/lastmile_qr_scan"}, "is_reserved": 0}, {"lon": -76.95743316666666, "bike_id": "e8bf8115682ef24f89d38fd9e96b5c0a", "lat": 38.884302, "fusion_lon": 0.0, "fusion_lat": 0.0, "type": "electric_scooter", "name": "e8bf8115682ef24f89d38fd9e96b5c0a", "is_disabled": 0, "rental_uris": {"ios": "https://dc.lft.to/lastmile_qr_scan", "android": "https://dc.lft.to/lastmile_qr_scan"}, "is_reserved": 0}, {"lon": -77.04183583333334, "bike_id": "5f942c56a3a8f97787a6ec4889128f19", "lat": 38.89985766666667, "fusion_lon": 0.0, "fusion_lat": 0.0, "type": "electric_scooter", "name": "5f942c56a3a8f97787a6ec4889128f19", "is_disabled": 0, "rental_uris": {"ios": "https://dc.lft.to/lastmile_qr_scan", "android": "https://dc.lft.to/lastmile_qr_scan"}, "is_reserved": 0}, {"lon": -77.02287716666666, "bike_id": "828f1ea099398bdfea22df53812b7885", "lat": 38.909695666666664, "fusion_lon": 0.0, "fusion_lat": 0.0, "type": "electric_scooter", "name": "828f1ea099398bdfea22df53812b7885", "is_disabled": 0, "rental_uris": {"ios": "https://dc.lft.to/lastmile_qr_scan", "android": "https://dc.lft.to/lastmile_qr_scan"}, "is_reserved": 0}, {"lon": -77.1170735, "bike_id": "3013d606924387e44c1969ebc46e5adb", "lat": 38.8674405, "fusion_lon": 0.0, "fusion_lat": 0.0, "type": "electric_bike", "name": "3013d606924387e44c1969ebc46e5adb", "is_disabled": 0, "rental_uris": {"ios": "https://dc.lft.to/lastmile_qr_scan", "android": "https://dc.lft.to/lastmile_qr_scan"}, "is_reserved": 0}, {"lon": -77.031224, "bike_id": "85787e11d69ccf368dbfdfef8720a9ee", "lat": 38.920251666666665, "fusion_lon": 0.0, "fusion_lat": 0.0, "type": "electric_scooter", "name": "85787e11d69ccf368dbfdfef8720a9ee", "is_disabled": 0, "rental_uris": {"ios": "https://dc.lft.to/lastmile_qr_scan", "android": "https://dc.lft.to/lastmile_qr_scan"}, "is_reserved": 0},