{"data": {"bikes": [{"fusion_lon": 0.0, "bike_id": "6a6716f86dafec2de0be83c0e5166321", "is_disabled": 0, "is_reserved": 0, "lat": 38.91709216666667, "name": "6a6716f86dafec2de0be83c0e5166321", "rental_uris": {"ios": "https://dc.lft.to/lastmile_qr_scan", "android": "https://dc.lft.to/lastmile_qr_scan"}, "type": "electric_scooter", "fusion_lat": 0.0, "lon": -77.0386385}, {"fusion_lon": 0.0, "bike_id": "66e51ebd2f98690a52aa06baf4f23034", "is_disabled": 0, "is_reserved": 0, "lat": 38.91771933333333, "name": "66e51ebd2f98690a52aa06baf4f23034", "rental_uris": {"ios": "https://dc.lft.to/lastmile_qr_scan", "android": "https://dc.lft.to/lastmile_qr_scan"}, "type": "electric_scooter", "fusion_lat": 0.0, "lon": -77.03182533333333}, {"fusion_lon": 0.0, "bike_id": "45ae578eeb2ad60510863372f9ef6a91", "is_disabled": 0, "is_reserved": 0, "lat": 38.90928516666666, "name": "45ae578eeb2ad60510863372f9ef6a91", "rental_uris": {"ios": "https://dc.lft.to/lastmile_qr_scan", "android": "https://dc.lft.to/lastmile_qr_scan"}, "type": "electric_scooter", "fusion_lat": 0.0, "lon": -77.04213866666667}, {"fusion_lon": 0.0, "bike_id": "00767cff6a83a987cf62efadebd44846", "is_disabled": 0, "is_reserved": 0, "lat": 38.924234, "name": "00767cff6a83a987cf62efadebd44846", "rental_uris": {"ios": "https://dc.lft.to/lastmile_qr_scan", "android": "https://dc.lft.to/lastmile_qr_scan"}, "type": "electric_bike", "fusion_lat": 0.0, "lon": -77.05050566666667}, {"fusion_lon": 0.0, "bike_id": "3f21e8859cb3011cd996e132f96b1322", "is_disabled": 0, "is_reserved": 0, "lat": 38.80480933333333, "name": "3f21e8859cb3011cd996e132f96b1322", "rental_uris": {"ios": "https://dc.lft.to/lastmile_qr_scan", "android": "https://dc.lft.to/lastmile_qr_scan"}, "type": "electric_bike", "fusion_lat": 0.0, "lon": -76.99102633333334}, {"fusion_lon": 0.0, "bike_id": "36b4a08a66b25631466bdc6770a4c8cb", "is_disabled": 0, "is_reserved": 0, "lat": 38.91767433333333, "name": "36b4a08a66b25631466bdc6770a4c8cb", "rental_uris": {"ios": "https://dc.lft.to/lastmile_qr_scan", "android": "https://dc.lft.to/lastmile_qr_scan"}, "type": "electric_scooter", "fusion_lat": 0.0, "lon": -77.003548}, {"fusion_lon": 0.0, "bike_id": "8bafd6cfba9df48e5ef3dd14a5a5d187", "is_disabled": 0, "is_reserved": 0, "lat": 38.87269416666667, "name": "8bafd6cfba9df48e5ef3dd14a5a5d187", "rental_uris": {"ios": "https://dc.lft.to/lastmile_qr_scan", "android": "https://dc.lft.to/lastmile_qr_scan"}, "type": "electric_bike", "fusion_lat": 0.0, "lon": -76.97565583333333}, {"fusion_lon": 0.0, "bike_id": "07c810b45c68d38889707ab4b2b3471a", "is_disabled": 0, "is_reserved": 0, "lat": 38.91574033333333, "name": "07c810b45c68d38889707ab4b2b3471a", "rental_uris": {"ios": "https://dc.lft.to/lastmile_qr_scan", "android": "https://dc.lft.to/lastmile_qr_scan"}, "type": "electric_scooter", "fusion_lat": 0.0, "lon": -77.01991483333333}, {"fusion_lon": 0.0, "bike_id": "0811a40a3bfff575dd3834f81a2d8768", "is_disabled": 0, "is_reserved": 0, "lat": 38.948925833333334, "name": "0811a40a3bfff575dd3834f81a2d8768", "rental_uris": {"ios": "https://dc.lft.to/lastmile_qr_scan", "android": "https://dc.lft.to/lastmile_qr_scan"}, "type": "electric_scooter", "fusion_lat": 0.0, "lon": -77.01856333333333}, {"fusion_lon": 0.0, "bike_id": "52b24ed723139c25b238b231e99df2fc", "is_disabled": 0, "is_reserved": 0, "lat": 38.863346666666665, "name": "52b24ed723139c25b238b231e99df2fc", "rental_uris": {"ios": "https://dc.lft.to/lastmile_qr_scan", "android": "https://dc.lft.to/lastmile_qr_scan"}, "type": "electric_bike", "fusion_lat": 0.0, "lon": -76.98725516666667}, {"fusion_lon": 0.0, "bike_id": "84c2178e1e971fd990ce24b97a355547", "is_disabled": 0, "is_reserved": 0, "lat": 38.90730116666667, "name": "84c2178e1e971fd990ce24b97a355547", "rental_uris": {"ios": "https://dc.lft.to/lastmile_qr_scan", "android": "https://dc.lft.to/lastmile_qr_scan"}, "type": "electric_scooter", "fusion_lat": 0.0, "lon": -77.00795266666667}, {"fusion_lon": 0.0, "bike_id": "6fc694359517033e5b5790d8c744d232", "is_disabled": 0, "is_reserved": 0, "lat": 38.92253066666667, "name": "6fc694359517033e5b5790d8c744d232", "rental_uris": {"ios": "https://dc.lft.to/lastmile_qr_scan", "android": "https://dc.lft.to/lastmile_qr_scan"}, "type": "electric_scooter", "fusion_lat": 0.0, "lon": -77.01951066666666}, {"fusion_lon": 0.0, "bike_id": "8772a4e90082c223a7c5102bef7b186a", "is_disabled": 0, "is_reserved": 0, "lat": 38.90833133333334, "name": "8772a4e90082c223a7c5102bef7b186a", "rental_uris": {"ios": "https://dc.lft.to/lastmile_qr_scan", "android": "https://dc.lft.to/lastmile_qr_scan"}, "type": "electric_scooter", "fusion_lat": 0.0, "lon": -77.03304}, {"fusion_lon": 0.0, "bike_id": "fbcf07aaec4fe28f991090744a0cf4f0", "is_disabled": 0, "is_reserved": 0, "lat": 38.92339966666667, "name": "fbcf07aaec4fe28f991090744a0cf4f0", "rental_uris": {"ios": "https://dc.lft.to/lastmile_qr_scan", "android": "https://dc.lft.to/lastmile_qr_scan"}, "type": "electric_scooter", "fusion_lat": 0.0, "lon": -77.05616216666667}, {"fusion_lon": 0.0, "bike_id": "a3a5b25f2bb06f118391a8476ece5d42", "is_disabled": 0, "is_reserved": 0, "lat": 38.89773783333333, "name": "a3a5b25f2bb06f118391a8476ece5d42", "rental_uris": {"ios": "https://dc.lft.to/lastmile_qr_scan", "android": "https://dc.lft.to/lastmile_qr_scan"}, "type": "electric_scooter", "fusion_lat": 0.0, "lon": -77.01191333333334}, {"fusion_lon": 0.0, "bike_id": "242277a4f1bcc1cdbf22d50ab19e794c", "is_disabled": 0, "is_reserved": 0, "lat": 38.9679365, "name": "242277a4f1bcc1cdbf22d50ab19e794c", "rental_uris": {"ios": "https://dc.lft.to/lastmile_qr_scan", "android": "https://dc.lft.to/lastmile_qr_scan"}, "type": "electric_scooter", "fusion_lat": 0.0, "lon": -77.02432283333333}, {"fusion_lon": 0.0, "bike_id": "6c860910d9822e3a7ba276ebfbeac7d3", "is_disabled": 0, "is_reserved": 0, "lat": 38.89558266666667, "name": "6c860910d9822e3a7ba276ebfbeac7d3", "rental_uris": {"ios": "https://dc.lft.to/lastmile_qr_scan", "android": "https://dc.lft.to/lastmile_qr_scan"}, "type": "electric_scooter", "fusion_lat": 0.0, "lon": -77.00914016666667}, {"fusion_lon": 0.0, "bike_id": "445f09af35510755ce25cd9221ae5c7e", "is_disabled": 0, "is_reserved": 0, "lat": 38.887719833333335, "name": "445f09af35510755ce25cd9221ae5c7e", "rental_uris": {"ios": "https://dc.lft.to/lastmile_qr_scan", "android": "https://dc.lft.to/lastmile_qr_scan"}, "type": "electric_scooter", "fusion_lat": 0.0, "lon": -76.93262383333334}, {"fusion_lon": 0.0, "bike_id": "dca658dfd8defa09567f45bf5c232fe5", "is_disabled": 0, "is_reserved": 0, "lat": 38.91329966666667, "name": "dca658dfd8defa09567f45bf5c232fe5", "rental_uris": {"ios": "https://dc.lft.to/lastmile_qr_scan", "android": "https://dc.lft.to/lastmile_qr_scan"}, "type": "electric_scooter", "fusion_lat": 0.0, "lon": -77.043475}, {"fusion_lon": 0.0, "bike_id": "69f13f40911057fb74acd50809ce49d2", "is_disabled": 0, "is_reserved": 0, "lat": 38.921821333333334, "name": "69f13f40911057fb74acd50809ce49d2", "rental_uris": {"ios": "https://dc.lft.to/lastmile_qr_scan", "android": "https://dc.lft.to/lastmile_qr_scan"}, "type": "electric_scooter", "fusion_lat": 0.0, "lon": -77.04026166666667}, {"fusion_lon": 0.0, "bike_id": "9ba40209dfd1d96f9f9a5e7106a66e99", "is_disabled": 0, "is_reserved": 0, "lat": 38.9371855, "name": "9ba40209dfd1d96f9f9a5e7106a66e99", "rental_uris": {"ios": "https://dc.lft.to/lastmile_qr_scan", "android": "https://dc.lft.to/lastmile_qr_scan"}, "type": "electric_scooter", "fusion_lat": 0.0, "lon": -77.0242485}, {"fusion_lon": 0.0, "bike_id": "aa4bae8aeb28d27574f13a91b4e4dad5", "is_disabled": 0, "is_reserved": 0, "lat": 38.914953833333335, "name": "aa4bae8aeb28d27574f13a91b4e4dad5", "rental_uris": {"ios": "https://dc.lft.to/lastmile_qr_scan", "android": "https://dc.lft.to/lastmile_qr_scan"}, "type": "electric_scooter", "fusion_lat": 0.0, "lon": -77.03822283333334}, {"fusion_lon": 0.0, "bike_id": "fc10a1a4d5d1b4fb5f07b7a21a8a6916", "is_disabled": 0, "is_reserved": 0, "lat": 38.94573, "name": "fc10a1a4d5d1b4fb5f07b7a21a8a6916", "rental_uris": {"ios": "https://dc.lft.to/lastmile_qr_scan", "android": "https://dc.lft.to/lastmile_qr_scan"}, "type": "electric_bike", "fusion_lat": 0.0, "lon": -76.98115666666666}, {"fusion_lon": 0.0, "bike_id": "e6973d8065b5e9e794f4c036c5b24734", "is_disabled": 0, "is_reserved": 0, "lat": 38.90035733333333, "name": "e6973d8065b5e9e794f4c036c5b24734", "rental_uris": {"ios": "https://dc.lft.to/lastmile_qr_scan", "android": "https://dc.lft.to/lastmile_qr_scan"}, "type": "electric_scooter", "fusion_lat": 0.0, "lon": -77.020076}, {"fusion_lon": 0.0, "bike_id": "abd563390c56f613d39d55b6bc69abed", "is_disabled": 0, "is_reserved": 0, "lat": 38.98886483333333, "name": "abd563390c56f613d39d55b6bc69abed", "rental_uris": {"ios": "https://dc.lft.to/lastmile_qr_scan", "android": "https://dc.lft.to/lastmile_qr_scan"}, "type": "electric_bike", "fusion_lat": 0.0, "lon": -76.98805466666667}, {"fusion_lon": 0.0, "bike_id": "5bc3e54d048174cc1ca4af247832af5b", "is_disabled": 0, "is_reserved": 0, "lat": 38.897163166666665, "name": "5bc3e54d048174cc1ca4af247832af5b", "rental_uris": {"ios": "https://dc.lft.to/lastmile_qr_scan", "android": "https://dc.lft.to/lastmile_qr_scan"}, "type": "electric_scooter", "fusion_lat": 0.0, "lon": -77.00803666666667}, {"fusion_lon": 0.0, "bike_id": "da83e54eb84902e2d18c26e1d34273f5", "is_disabled": 0, "is_reserved": 0, "lat": 38.931901833333335, "name": "da83e54eb84902e2d18c26e1d34273f5", "rental_uris": {"ios": "https://dc.lft.to/lastmile_qr_scan", "android": "https://dc.lft.to/lastmile_qr_scan"}, "type": "electric_scooter", "fusion_lat": 0.0, "lon": -77.02569233333334}, {"fusion_lon": 0.0, "bike_id": "019bae04f19da62fd70303d255504d99", "is_disabled": 0, "is_reserved": 0, "lat": 38.9081845, "name": "019bae04f19da62fd70303d255504d99", "rental_uris": {"ios": "https://dc.lft.to/lastmile_qr_scan", "android": "https://dc.lft.to/lastmile_qr_scan"}, "type": "electric_scooter", "fusion_lat": 0.0, "lon": -77.04180733333334}, {"fusion_lon": 0.0, "bike_id": "645000584646f45c3afddd841c1d22f6", "is_disabled": 0, "is_reserved": 0, "lat": 38.89920266666667, "name": "645000584646f45c3afddd841c1d22f6", "rental_uris": {"ios": "https://dc.lft.to/lastmile_qr_scan", "android": "https://dc.lft.to/lastmile_qr_scan"}, "type": "electric_scooter", "fusion_lat": 0.0, "lon": -76.93383366666667}, {"fusion_lon": 0.0, "bike_id": "0c554865a5f920098023e88d19b4be66", "is_disabled": 0, "is_reserved": 0, "lat": 38.91032583333333, "name": "0c554865a5f920098023e88d19b4be66", "rental_uris": {"ios": "https://dc.lft.to/lastmile_qr_scan", "android": "https://dc.lft.to/lastmile_qr_scan"}, "type": "electric_scooter", "fusion_lat": 0.0, "lon": -77.00761766666666}, {"fusion_lon": 0.0, "bike_id": "16499539c6b335f3d6749987a0fd1772", "is_disabled": 0, "is_reserved": 0, "lat": 38.87958066666667, "name": "16499539c6b335f3d6749987a0fd1772", "rental_uris": {"ios": "https://dc.lft.to/lastmile_qr_scan", "android": "https://dc.lft.to/lastmile_qr_scan"}, "type": "electric_bike", "fusion_lat": 0.0, "lon": -76.93190683333333}, {"fusion_lon": 0.0, "bike_id": "ba971bc6f1e1829efa00d5bb960e8d63", "is_disabled": 0, "is_reserved": 0, "lat": 38.92483816666667, "name": "ba971bc6f1e1829efa00d5bb960e8d63", "rental_uris": {"ios": "https://dc.lft.to/lastmile_qr_scan", "android": "https://dc.lft.to/lastmile_qr_scan"}, "type": "electric_scooter", "fusion_lat": 0.0, "lon": -77.0255435}, {"fusion_lon": 0.0, "bike_id": "bd80c57383e33b9db8f04f6566216f34", "is_disabled": 0, "is_reserved": 0, "lat": 38.88875066666667, "name": "bd80c57383e33b9db8f04f6566216f34", "rental_uris": {"ios": "https://dc.lft.to/lastmile_qr_scan", "android": "https://dc.lft.to/lastmile_qr_scan"}, "type": "electric_bike", "fusion_lat": 0.0, "lon": -76.95700516666666}, {"fusion_lon": 0.0, "bike_id": "3dd1822e45791d1f2e4c0f21ee3eb3f0", "is_disabled": 0, "is_reserved": 0, "lat": 38.9282795, "name": "3dd1822e45791d1f2e4c0f21ee3eb3f0", "rental_uris": {"ios": "https://dc.lft.to/lastmile_qr_scan", "android": "https://dc.lft.to/lastmile_qr_scan"}, "type": "electric_scooter", "fusion_lat": 0.0, "lon": -77.054827}, {"fusion_lon": 0.0, "bike_id": "fffb4f31d11109438c342b41a8809242", "is_disabled": 0, "is_reserved": 0, "lat": 38.9072825, "name": "fffb4f31d11109438c342b41a8809242", "rental_uris": {"ios": "https://dc.lft.to/lastmile_qr_scan", "android": "https://dc.lft.to/lastmile_qr_scan"}, "type": "electric_scooter", "fusion_lat": 0.0, "lon": -77.068985}, {"fusion_lon": 0.0, "bike_id": "7b08187001e90c4debf596e2f1d6ca8e", "is_disabled": 0, "is_reserved": 0, "lat": 38.9236575, "name": "7b08187001e90c4debf596e2f1d6ca8e", "rental_uris": {"ios": "https://dc.lft.to/lastmile_qr_scan", "android": "https://dc.lft.to/lastmile_qr_scan"}, "type": "electric_scooter", "fusion_lat": 0.0, "lon": -77.0432015}, {"fusion_lon": 0.0, "bike_id": "8b4534369ac124a5e1ba99903cccbdb8", "is_disabled": 0, "is_reserved": 0, "lat": 38.927534666666666, "name": "8b4534369ac124a5e1ba99903cccbdb8", "rental_uris": {"ios": "https://dc.lft.to/lastmile_qr_scan", "android": "https://dc.lft.to/lastmile_qr_scan"}, "type": "electric_scooter", "fusion_lat": 0.0, "lon": -77.032988}, {"fusion_lon": 0.0, "bike_id": "cea03cc30990650cd9f5ba6e29d4a4db", "is_disabled": 0, "is_reserved": 0, "lat": 38.90241183333333, "name": "cea03cc30990650cd9f5ba6e29d4a4db", "rental_uris": {"ios": "https://dc.lft.to/lastmile_qr_scan", "android": "https://dc.lft.to/lastmile_qr_scan"}, "type": "electric_scooter", "fusion_lat": 0.0, "lon": -77.05165716666667}, {"fusion_lon": 0.0, "bike_id": "975b3619360816ec1a8db1082c53faef", "is_disabled": 0, "is_reserved": 0, "lat": 38.921024, "name": "975b3619360816ec1a8db1082c53faef", "rental_uris": {"ios": "https://dc.lft.to/lastmile_qr_scan", "android": "https://dc.lft.to/lastmile_qr_scan"}, "type": "electric_scooter", "fusion_lat": 0.0, "lon": -77.03180016666667}, {"fusion_lon": 0.0, "bike_id": "ca5fec9c4608dcac61af68b434e60bb0", "is_disabled": 0, "is_reserved": 0, "lat": 38.81549233333333, "name": "ca5fec9c4608dcac61af68b434e60bb0", "rental_uris": {"ios": "https://dc.lft.to/lastmile_qr_scan", "android": "https://dc.lft.to/lastmile_qr_scan"}, "type": "electric_bike", "fusion_lat": 0.0, "lon": -77.0464585}, {"fusion_lon": 0.0, "bike_id": "0a9709aab2e0c5f4565c9ab9ce396822", "is_disabled": 0, "is_reserved": 0, "lat": 38.9188335, "name": "0a9709aab2e0c5f4565c9ab9ce396822", "rental_uris": {"ios": "https://dc.lft.to/lastmile_qr_scan", "android": "https://dc.lft.to/lastmile_qr_scan"}, "type": "electric_scooter", "fusion_lat": 0.0, "lon": -77.04476883333334}, {"fusion_lon": 0.0, "bike_id": "e502a513a73bebc65f6e3223e3bce0f9", "is_disabled": 0, "is_reserved": 0, "lat": 38.90964266666667, "name": "e502a513a73bebc65f6e3223e3bce0f9", "rental_uris": {"ios": "https://dc.lft.to/lastmile_qr_scan", "android": "https://dc.lft.to/lastmile_qr_scan"}, "type": "electric_scooter", "fusion_lat": 0.0, "lon": -77.0241855}, {"fusion_lon": 0.0, "bike_id": "d121ee7df1a49e2b396a4798fd08dbb3", "is_disabled": 0, "is_reserved": 0, "lat": 38.914122, "name": "d121ee7df1a49e2b396a4798fd08dbb3", "rental_uris": {"ios": "https://dc.lft.to/lastmile_qr_scan", "android": "https://dc.lft.to/lastmile_qr_scan"}, "type": "electric_scooter", "fusion_lat": 0.0, "lon": -77.01841166666667}, {"fusion_lon": 0.0, "bike_id": "89050b87f2bccd0085823fea910a2238", "is_disabled": 0, "is_reserved": 0, "lat": 38.8972615, "name": "89050b87f2bccd0085823fea910a2238", "rental_uris": {"ios": "https://dc.lft.to/lastmile_qr_scan", "android": "https://dc.lft.to/lastmile_qr_scan"}, "type": "electric_scooter", "fusion_lat": 0.0, "lon": -76.9785945}, {"fusion_lon": 0.0, "bike_id": "c4d8745a731b83dab42d110d89fbdd69", "is_disabled": 0, "is_reserved": 0, "lat": 38.914900833333334, "name": "c4d8745a731b83dab42d110d89fbdd69", "rental_uris": {"ios": "https://dc.lft.to/lastmile_qr_scan", "android": "https://dc.lft.to/lastmile_qr_scan"}, "type": "electric_scooter", "fusion_lat": 0.0, "lon": -77.02184866666667}, {"fusion_lon": 0.0, "bike_id": "252b0a7ce3575f9bb48b513cb8a5127b", "is_disabled": 0, "is_reserved": 0, "lat": 38.925491666666666, "name": "252b0a7ce3575f9bb48b513cb8a5127b", "rental_uris": {"ios": "https://dc.lft.to/lastmile_qr_scan", "android": "https://dc.lft.to/lastmile_qr_scan"}, "type": "electric_scooter", "fusion_lat": 0.0, "lon": -77.04174216666667}, {"fusion_lon": 0.0, "bike_id": "6ade6802689a5affd756143a6b45bd23", "is_disabled": 0, "is_reserved": 0, "lat": 38.922368666666664, "name": "6ade6802689a5affd756143a6b45bd23", "rental_uris": {"ios": "https://dc.lft.to/lastmile_qr_scan", "android": "https://dc.lft.to/lastmile_qr_scan"}, "type": "electric_scooter", "fusion_lat": 0.0, "lon": -77.03351716666667}, {"fusion_lon": 0.0, "bike_id": "13621950555db15dddbf6d5b0053722c", "is_disabled": 0, "is_reserved": 0, "lat": 38.906676166666664, "name": "13621950555db15dddbf6d5b0053722c", "rental_uris": {"ios": "https://dc.lft.to/lastmile_qr_scan", "android": "https://dc.lft.to/lastmile_qr_scan"}, "type": "electric_scooter", "fusion_lat": 0.0, "lon": -77.0141005}, {"fusion_lon": 0.0, "bike_id": "676c80dfc220db9cffa62ca6c5955967", "is_disabled": 0, "is_reserved": 0, "lat": 38.900884833333336, "name": "676c80dfc220db9cffa62ca6c5955967", "rental_uris": {"ios": "https://dc.lft.to/lastmile_qr_scan", "android": "https://dc.lft.to/lastmile_qr_scan"}, "type": "electric_scooter", "fusion_lat": 0.0, "lon": -77.04782516666667}, {"fusion_lon": 0.0, "bike_id": "edbc463aa02058f3d1bb8a4d899275cc", "is_disabled": 0, "is_reserved": 0, "lat": 38.90029916666667, "name": "edbc463aa02058f3d1bb8a4d899275cc", "rental_uris": {"ios": "https://dc.lft.to/lastmile_qr_scan", "android": "https://dc.lft.to/lastmile_qr_scan"}, "type": "electric_scooter", "fusion_lat": 0.0, "lon": -76.988421}, {"fusion_lon": 0.0, "bike_id": "b6a309efa998d31c3d40b6256ed66539", "is_disabled": 0, "is_reserved": 0, "lat": 38.936919333333336, "name": "b6a309efa998d31c3d40b6256ed66539", "rental_uris": {"ios": "https://dc.lft.to/lastmile_qr_scan", "android": "https://dc.lft.to/lastmile_qr_scan"}, "type": "electric_bike", "fusion_lat": 0.0, "lon": -76.99058533333333}, {"fusion_lon": 0.0, "bike_id": "f25e5d1847e356db8c84831f4f4e7a5e", "is_disabled": 0, "is_reserved": 0, "lat": 38.900225666666664, "name": "f25e5d1847e356db8c84831f4f4e7a5e", "rental_uris": {"ios": "https://dc.lft.to/lastmile_qr_scan", "android": "https://dc.lft.to/lastmile_qr_scan"}, "type": "electric_scooter", "fusion_lat": 0.0, "lon": -77.04491033333333}, {"fusion_lon": 0.0, "bike_id": "645b8e3b86ed0103a718de7c7ddacd89", "is_disabled": 0, "is_reserved": 0, "lat": 38.924885, "name": "645b8e3b86ed0103a718de7c7ddacd89", "rental_uris": {"ios": "https://dc.lft.to/lastmile_qr_scan", "android": "https://dc.lft.to/lastmile_qr_scan"}, "type": "electric_scooter", "fusion_lat": 0.0, "lon": -77.021453}, {"fusion_lon": 0.0, "bike_id": "3ff399ea3d0b2a2b5e9c9cc53d287410", "is_disabled": 0, "is_reserved": 0, "lat": 38.909589, "name": "3ff399ea3d0b2a2b5e9c9cc53d287410", "rental_uris": {"ios": "https://dc.lft.to/lastmile_qr_scan", "android": "https://dc.lft.to/lastmile_qr_scan"}, "type": "electric_scooter", "fusion_lat": 0.0, "lon": -77.01180933333333}, {"fusion_lon": 0.0, "bike_id": "f7552567ce7fdcfa0f37449e3c401142", "is_disabled": 0, "is_reserved": 0, "lat": 38.90163966666667, "name": "f7552567ce7fdcfa0f37449e3c401142", "rental_uris": {"ios": "https://dc.lft.to/lastmile_qr_scan", "android": "https://dc.lft.to/lastmile_qr_scan"}, "type": "electric_scooter", "fusion_lat": 0.0, "lon": -77.051271}, {"fusion_lon": 0.0, "bike_id": "2d04bb82001916f79a83580c10fe6546", "is_disabled": 0, "is_reserved": 0, "lat": 38.9262365, "name": "2d04bb82001916f79a83580c10fe6546", "rental_uris": {"ios": "https://dc.lft.to/lastmile_qr_scan", "android": "https://dc.lft.to/lastmile_qr_scan"}, "type": "electric_scooter", "fusion_lat": 0.0, "lon": -77.07717166666667}, {"fusion_lon": 0.0, "bike_id": "4425170012544b915270f0c6d7a6aa1e", "is_disabled": 0, "is_reserved": 0, "lat": 38.87651116666667, "name": "4425170012544b915270f0c6d7a6aa1e", "rental_uris": {"ios": "https://dc.lft.to/lastmile_qr_scan", "android": "https://dc.lft.to/lastmile_qr_scan"}, "type": "electric_scooter", "fusion_lat": 0.0, "lon": -77.00054866666666}, {"fusion_lon": 0.0, "bike_id": "d77aae64303caa0c257b1639c6745cef", "is_disabled": 0, "is_reserved": 0, "lat": 38.927460833333335, "name": "d77aae64303caa0c257b1639c6745cef", "rental_uris": {"ios": "https://dc.lft.to/lastmile_qr_scan", "android": "https://dc.lft.to/lastmile_qr_scan"}, "type": "electric_scooter", "fusion_lat": 0.0, "lon": -77.035552}, {"fusion_lon": 0.0, "bike_id": "6ba5a8f4625a5fb3ff3d16163742f550", "is_disabled": 0, "is_reserved": 0, "lat": 38.929337833333335, "name": "6ba5a8f4625a5fb3ff3d16163742f550", "rental_uris": {"ios": "https://dc.lft.to/lastmile_qr_scan", "android": "https://dc.lft.to/lastmile_qr_scan"}, "type": "electric_scooter", "fusion_lat": 0.0, "lon": -77.03256666666667}, {"fusion_lon": 0.0, "bike_id": "fadca2022033de2cc6035f9054ad2618", "is_disabled": 0, "is_reserved": 0, "lat": 38.917037, "name": "fadca2022033de2cc6035f9054ad2618", "rental_uris": {"ios": "https://dc.lft.to/lastmile_qr_scan", "android": "https://dc.lft.to/lastmile_qr_scan"}, "type": "electric_scooter", "fusion_lat": 0.0, "lon": -77.02301466666667}, {"fusion_lon": 0.0, "bike_id": "da0b4dde2f354cfd2ce87281304737c3", "is_disabled": 0, "is_reserved": 0, "lat": 38.917064833333335, "name": "da0b4dde2f354cfd2ce87281304737c3", "rental_uris": {"ios": "https://dc.lft.to/lastmile_qr_scan", "android": "https://dc.lft.to/lastmile_qr_scan"}, "type": "electric_scooter", "fusion_lat": 0.0, "lon": -77.01107066666667}, {"fusion_lon": 0.0, "bike_id": "98ebe945b16abd99eb3c7ede0c5a7bb9", "is_disabled": 0, "is_reserved": 0, "lat": 38.9148765, "name": "98ebe945b16abd99eb3c7ede0c5a7bb9", "rental_uris": {"ios": "https://dc.lft.to/lastmile_qr_scan", "android": "https://dc.lft.to/lastmile_qr_scan"}, "type": "electric_scooter", "fusion_lat": 0.0, "lon": -77.02188633333333}, {"fusion_lon": 0.0, "bike_id": "949b45a6e8c38c3448df9599ceef4226", "is_disabled": 0, "is_reserved": 0, "lat": 38.9497705, "name": "949b45a6e8c38c3448df9599ceef4226", "rental_uris": {"ios": "https://dc.lft.to/lastmile_qr_scan", "android": "https://dc.lft.to/lastmile_qr_scan"}, "type": "electric_scooter", "fusion_lat": 0.0, "lon": -77.0244505}, {"fusion_lon": 0.0, "bike_id": "e4ad1a32bedf7a9ac0422e0ce2caf061", "is_disabled": 0, "is_reserved": 0, "lat": 38.924701166666665, "name": "e4ad1a32bedf7a9ac0422e0ce2caf061", "rental_uris": {"ios": "https://dc.lft.to/lastmile_qr_scan", "android": "https://dc.lft.to/lastmile_qr_scan"}, "type": "electric_scooter", "fusion_lat": 0.0, "lon": -77.03052}, {"fusion_lon": 0.0, "bike_id": "283a46adfb9187f8a91c9e53731508a3", "is_disabled": 0, "is_reserved": 0, "lat": 38.9039815, "name": "283a46adfb9187f8a91c9e53731508a3", "rental_uris": {"ios": "https://dc.lft.to/lastmile_qr_scan", "android": "https://dc.lft.to/lastmile_qr_scan"}, "type": "electric_scooter", "fusion_lat": 0.0, "lon": -77.04237766666667}, {"fusion_lon": 0.0, "bike_id": "1bdcb3b8a05a1f0ea8a74b1c1588ccaa", "is_disabled": 0, "is_reserved": 0, "lat": 38.897324166666664, "name": "1bdcb3b8a05a1f0ea8a74b1c1588ccaa", "rental_uris": {"ios": "https://dc.lft.to/lastmile_qr_scan", "android": "https://dc.lft.to/lastmile_qr_scan"}, "type": "electric_scooter", "fusion_lat": 0.0, "lon": -76.925858}, {"fusion_lon": 0.0, "bike_id": "b9fd7add7121343bf314f82f9069e468", "is_disabled": 0, "is_reserved": 0, "lat": 38.9181485, "name": "b9fd7add7121343bf314f82f9069e468", "rental_uris": {"ios": "https://dc.lft.to/lastmile_qr_scan", "android": "https://dc.lft.to/lastmile_qr_scan"}, "type": "electric_scooter", "fusion_lat": 0.0, "lon": -77.0253235}, {"fusion_lon": 0.0, "bike_id": "4bcc25c6c1a43406f0a41561b8a8007b", "is_disabled": 0, "is_reserved": 0, "lat": 38.914352666666666, "name": "4bcc25c6c1a43406f0a41561b8a8007b", "rental_uris": {"ios": "https://dc.lft.to/lastmile_qr_scan", "android": "https://dc.lft.to/lastmile_qr_scan"}, "type": "electric_scooter", "fusion_lat": 0.0, "lon": -77.06700333333333}, {"fusion_lon": 0.0, "bike_id": "baaf86d0575a2bcc248b66ab8022b141", "is_disabled": 0, "is_reserved": 0, "lat": 38.9146895, "name": "baaf86d0575a2bcc248b66ab8022b141", "rental_uris": {"ios": "https://dc.lft.to/lastmile_qr_scan", "android": "https://dc.lft.to/lastmile_qr_scan"}, "type": "electric_scooter", "fusion_lat": 0.0, "lon": -77.00207533333334}, {"fusion_lon": 0.0, "bike_id": "90ffb92fb57952790f95f216954654b4", "is_disabled": 0, "is_reserved": 0, "lat": 38.91127616666667, "name": "90ffb92fb57952790f95f216954654b4", "rental_uris": {"ios": "https://dc.lft.to/lastmile_qr_scan", "android": "https://dc.lft.to/lastmile_qr_scan"}, "type": "electric_scooter", "fusion_lat": 0.0, "lon": -77.0220175}, {"fusion_lon": 0.0, "bike_id": "d777a38fcf895e96c205c37676c2becf", "is_disabled": 0, "is_reserved": 0, "lat": 38.917213333333336, "name": "d777a38fcf895e96c205c37676c2becf", "rental_uris": {"ios": "https://dc.lft.to/lastmile_qr_scan", "android": "https://dc.lft.to/lastmile_qr_scan"}, "type": "electric_scooter", "fusion_lat": 0.0, "lon": -77.03245583333333}, {"fusion_lon": 0.0, "bike_id": "a9958d1d4b6ccdc74dfc665979bd9950", "is_disabled": 0, "is_reserved": 0, "lat": 38.895777333333335, "name": "a9958d1d4b6ccdc74dfc665979bd9950", "rental_uris": {"ios": "https://dc.lft.to/lastmile_qr_scan", "android": "https://dc.lft.to/lastmile_qr_scan"}, "type": "electric_scooter", "fusion_lat": 0.0, "lon": -77.04162916666667}, {"fusion_lon": 0.0, "bike_id": "c3d1424f762eb4fe601e5beffc65f3d0", "is_disabled": 0, "is_reserved": 0, "lat": 38.92573333333333, "name": "c3d1424f762eb4fe601e5beffc65f3d0", "rental_uris": {"ios": "https://dc.lft.to/lastmile_qr_scan", "android": "https://dc.lft.to/lastmile_qr_scan"}, "type": "electric_scooter", "fusion_lat": 0.0, "lon": -77.0378695}, {"fusion_lon": 0.0, "bike_id": "8ccaa7f88434472d499403be01458e37", "is_disabled": 0, "is_reserved": 0, "lat": 38.91434116666667, "name": "8ccaa7f88434472d499403be01458e37", "rental_uris": {"ios": "https://dc.lft.to/lastmile_qr_scan", "android": "https://dc.lft.to/lastmile_qr_scan"}, "type": "electric_scooter", "fusion_lat": 0.0, "lon": -77.01806116666667}, {"fusion_lon": 0.0, "bike_id": "4c5c5a814b0f07c9f0ef7dd25d79f235", "is_disabled": 0, "is_reserved": 0, "lat": 38.8996715, "name": "4c5c5a814b0f07c9f0ef7dd25d79f235", "rental_uris": {"ios": "https://dc.lft.to/lastmile_qr_scan", "android": "https://dc.lft.to/lastmile_qr_scan"}, "type": "electric_scooter", "fusion_lat": 0.0, "lon": -77.047146}, {"fusion_lon": 0.0, "bike_id": "30427f603e510a36c9e4cf2881105d11", "is_disabled": 0, "is_reserved": 0, "lat": 38.933836, "name": "30427f603e510a36c9e4cf2881105d11", "rental_uris": {"ios": "https://dc.lft.to/lastmile_qr_scan", "android": "https://dc.lft.to/lastmile_qr_scan"}, "type": "electric_scooter", "fusion_lat": 0.0, "lon": -77.02742516666666}, {"fusion_lon": 0.0, "bike_id": "9a3a35f83f11b6e1477cf916720ddb85", "is_disabled": 0, "is_reserved": 0, "lat": 38.898383333333335, "name": "9a3a35f83f11b6e1477cf916720ddb85", "rental_uris": {"ios": "https://dc.lft.to/lastmile_qr_scan", "android": "https://dc.lft.to/lastmile_qr_scan"}, "type": "electric_scooter", "fusion_lat": 0.0, "lon": -77.04812733333333}, {"fusion_lon": 0.0, "bike_id": "6e8c9fcb9ad7974e052aaa22dbe2d66a", "is_disabled": 0, "is_reserved": 0, "lat": 38.8303705, "name": "6e8c9fcb9ad7974e052aaa22dbe2d66a", "rental_uris": {"ios": "https://dc.lft.to/lastmile_qr_scan", "android": "https://dc.lft.to/lastmile_qr_scan"}, "type": "electric_bike", "fusion_lat": 0.0, "lon": -77.00823566666666}, {"fusion_lon": 0.0, "bike_id": "089d91f93a52867a461d329a2efaff18", "is_disabled": 0, "is_reserved": 0, "lat": 38.8905145, "name": "089d91f93a52867a461d329a2efaff18", "rental_uris": {"ios": "https://dc.lft.to/lastmile_qr_scan", "android": "https://dc.lft.to/lastmile_qr_scan"}, "type": "electric_scooter", "fusion_lat": 0.0, "lon": -76.937511}, {"fusion_lon": 0.0, "bike_id": "04c7f3e78659ec5b60b175f7cbc5b284", "is_disabled": 0, "is_reserved": 0, "lat": 38.914190833333336, "name": "04c7f3e78659ec5b60b175f7cbc5b284", "rental_uris": {"ios": "https://dc.lft.to/lastmile_qr_scan", "android": "https://dc.lft.to/lastmile_qr_scan"}, "type": "electric_scooter", "fusion_lat": 0.0, "lon": -77.022145}, {"fusion_lon": 0.0, "bike_id": "7b7c836a88263a61cc63dfd128179535", "is_disabled": 0, "is_reserved": 0, "lat": 38.9184135, "name": "7b7c836a88263a61cc63dfd128179535", "rental_uris": {"ios": "https://dc.lft.to/lastmile_qr_scan", "android": "https://dc.lft.to/lastmile_qr_scan"}, "type": "electric_scooter", "fusion_lat": 0.0, "lon": -77.03197733333333}, {"fusion_lon": 0.0, "bike_id": "2523bed4be369aa5882d171041319c98", "is_disabled": 0, "is_reserved": 0, "lat": 38.898338, "name": "2523bed4be369aa5882d171041319c98", "rental_uris": {"ios": "https://dc.lft.to/lastmile_qr_scan", "android": "https://dc.lft.to/lastmile_qr_scan"}, "type": "electric_scooter", "fusion_lat": 0.0, "lon": -77.048024}, {"fusion_lon": 0.0, "bike_id": "a0668c2b057d185a518484d3a034c90b", "is_disabled": 0, "is_reserved": 0, "lat": 38.9531135, "name": "a0668c2b057d185a518484d3a034c90b", "rental_uris": {"ios": "https://dc.lft.to/lastmile_qr_scan", "android": "https://dc.lft.to/lastmile_qr_scan"}, "type": "electric_bike", "fusion_lat": 0.0, "lon": -77.01914483333333}, {"fusion_lon": 0.0, "bike_id": "50084532b237119f7d0f136fce44f4ee", "is_disabled": 0, "is_reserved": 0, "lat": 38.88967016666667, "name": "50084532b237119f7d0f136fce44f4ee", "rental_uris": {"ios": "https://dc.lft.to/lastmile_qr_scan", "android": "https://dc.lft.to/lastmile_qr_scan"}, "type": "electric_scooter", "fusion_lat": 0.0, "lon": -76.92740433333333}, {"fusion_lon": 0.0, "bike_id": "80b90e58bbc11c322fe42e5493761aa9", "is_disabled": 0, "is_reserved": 0, "lat": 38.89626066666667, "name": "80b90e58bbc11c322fe42e5493761aa9", "rental_uris": {"ios": "https://dc.lft.to/lastmile_qr_scan", "android": "https://dc.lft.to/lastmile_qr_scan"}, "type": "electric_scooter", "fusion_lat": 0.0, "lon": -77.00345683333333}, {"fusion_lon": 0.0, "bike_id": "374ed90422c9ab67e0bd17325d59acea", "is_disabled": 0, "is_reserved": 0, "lat": 38.909728, "name": "374ed90422c9ab67e0bd17325d59acea", "rental_uris": {"ios": "https://dc.lft.to/lastmile_qr_scan", "android": "https://dc.lft.to/lastmile_qr_scan"}, "type": "electric_scooter", "fusion_lat": 0.0, "lon": -77.00883}, {"fusion_lon": 0.0, "bike_id": "400820fa6bfe23fb507667234574d92e", "is_disabled": 0, "is_reserved": 0, "lat": 38.9036095, "name": "400820fa6bfe23fb507667234574d92e", "rental_uris": {"ios": "https://dc.lft.to/lastmile_qr_scan", "android": "https://dc.lft.to/lastmile_qr_scan"}, "type": "electric_scooter", "fusion_lat": 0.0, "lon": -77.01101233333333}, {"fusion_lon": 0.0, "bike_id": "6c0f230c42a13d3d281f125f34b09f4c", "is_disabled": 0, "is_reserved": 0, "lat": 38.876421, "name": "6c0f230c42a13d3d281f125f34b09f4c", "rental_uris": {"ios": "https://dc.lft.to/lastmile_qr_scan", "android": "https://dc.lft.to/lastmile_qr_scan"}, "type": "electric_bike", "fusion_lat": 0.0, "lon": -77.00370033333333}, {"fusion_lon": 0.0, "bike_id": "4f2d3bec26cf125a8129f02614e5e2e4", "is_disabled": 0, "is_reserved": 0, "lat": 38.84462516666667, "name": "4f2d3bec26cf125a8129f02614e5e2e4", "rental_uris": {"ios": "https://dc.lft.to/lastmile_qr_scan", "android": "https://dc.lft.to/lastmile_qr_scan"}, "type": "electric_bike", "fusion_lat": 0.0, "lon": -77.06827083333333}, {"fusion_lon": 0.0, "bike_id": "ceaa2d91e243e043fbac4bb8d4518be8", "is_disabled": 0, "is_reserved": 0, "lat": 38.92143883333333, "name": "ceaa2d91e243e043fbac4bb8d4518be8", "rental_uris": {"ios": "https://dc.lft.to/lastmile_qr_scan", "android": "https://dc.lft.to/lastmile_qr_scan"}, "type": "electric_scooter", "fusion_lat": 0.0, "lon": -77.01782616666667}, {"fusion_lon": 0.0, "bike_id": "d906702e94108b6b4080689916645887", "is_disabled": 0, "is_reserved": 0, "lat": 38.918824, "name": "d906702e94108b6b4080689916645887", "rental_uris": {"ios": "https://dc.lft.to/lastmile_qr_scan", "android": "https://dc.lft.to/lastmile_qr_scan"}, "type": "electric_scooter", "fusion_lat": 0.0, "lon": -77.04476833333334}, {"fusion_lon": 0.0, "bike_id": "9912f927ae6e82ccd54ed7539096439d", "is_disabled": 0, "is_reserved": 0, "lat": 38.944048333333335, "name": "9912f927ae6e82ccd54ed7539096439d", "rental_uris": {"ios": "https://dc.lft.to/lastmile_qr_scan", "android": "https://dc.lft.to/lastmile_qr_scan"}, "type": "electric_scooter", "fusion_lat": 0.0, "lon": -77.094152}, {"fusion_lon": 0.0, "bike_id": "471fe577bede0c16c62d1cbb79db975e", "is_disabled": 0, "is_reserved": 0, "lat": 38.91112666666667, "name": "471fe577bede0c16c62d1cbb79db975e", "rental_uris": {"ios": "https://dc.lft.to/lastmile_qr_scan", "android": "https://dc.lft.to/lastmile_qr_scan"}, "type": "electric_scooter", "fusion_lat": 0.0, "lon": -77.04468316666667}, {"fusion_lon": 0.0, "bike_id": "8fbc70f1991a031d95d3d7aed63aa1ce", "is_disabled": 0, "is_reserved": 0, "lat": 38.92320616666667, "name": "8fbc70f1991a031d95d3d7aed63aa1ce", "rental_uris": {"ios": "https://dc.lft.to/lastmile_qr_scan", "android": "https://dc.lft.to/lastmile_qr_scan"}, "type": "electric_scooter", "fusion_lat": 0.0, "lon": -77.03915383333333}, {"fusion_lon": 0.0, "bike_id": "b336dd2d0cc267cf3c6764f9745f27d7", "is_disabled": 0, "is_reserved": 0, "lat": 38.881313166666665, "name": "b336dd2d0cc267cf3c6764f9745f27d7", "rental_uris": {"ios": "https://dc.lft.to/lastmile_qr_scan", "android": "https://dc.lft.to/lastmile_qr_scan"}, "type": "electric_scooter", "fusion_lat": 0.0, "lon": -77.00079566666666}, {"fusion_lon": 0.0, "bike_id": "5983e3e87ca1f54768025e5aa83e0c75", "is_disabled": 0, "is_reserved": 0, "lat": 38.8997275, "name": "5983e3e87ca1f54768025e5aa83e0c75", "rental_uris": {"ios": "https://dc.lft.to/lastmile_qr_scan", "android": "https://dc.lft.to/lastmile_qr_scan"}, "type": "electric_scooter", "fusion_lat": 0.0, "lon": -77.0192925}, {"fusion_lon": 0.0, "bike_id": "a117545c92a6acad8d89e327bcbcc9a5", "is_disabled": 0, "is_reserved": 0, "lat": 38.91600483333333, "name": "a117545c92a6acad8d89e327bcbcc9a5", "rental_uris": {"ios": "https://dc.lft.to/lastmile_qr_scan", "android": "https://dc.lft.to/lastmile_qr_scan"}, "type": "electric_scooter", "fusion_lat": 0.0, "lon": -77.03186616666666}, {"fusion_lon": 0.0, "bike_id": "d117514bf2d6c2215d7fb4dc65c425a0", "is_disabled": 0, "is_reserved": 0, "lat": 38.9023225, "name": "d117514bf2d6c2215d7fb4dc65c425a0", "rental_uris": {"ios": "https://dc.lft.to/lastmile_qr_scan", "android": "https://dc.lft.to/lastmile_qr_scan"}, "type": "electric_scooter", "fusion_lat": 0.0, "lon": -77.04553966666667}, {"fusion_lon": 0.0, "bike_id": "02c6aca094805ce4ca49f0c3f163caee", "is_disabled": 0, "is_reserved": 0, "lat": 38.91573866666667, "name": "02c6aca094805ce4ca49f0c3f163caee", "rental_uris": {"ios": "https://dc.lft.to/lastmile_qr_scan", "android": "https://dc.lft.to/lastmile_qr_scan"}, "type": "electric_scooter", "fusion_lat": 0.0, "lon": -77.01989833333333}, {"fusion_lon": 0.0, "bike_id": "c5a2e6974abb28fba06d4125e7167b6b", "is_disabled": 0, "is_reserved": 0, "lat": 38.9147625, "name": "c5a2e6974abb28fba06d4125e7167b6b", "rental_uris": {"ios": "https://dc.lft.to/lastmile_qr_scan", "android": "https://dc.lft.to/lastmile_qr_scan"}, "type": "electric_scooter", "fusion_lat": 0.0, "lon": -77.00888233333333}, {"fusion_lon": 0.0, "bike_id": "b3d42c9a8c999d0d518f3f3d59cab5cc", "is_disabled": 0, "is_reserved": 0, "lat": 38.900522333333335, "name": "b3d42c9a8c999d0d518f3f3d59cab5cc", "rental_uris": {"ios": "https://dc.lft.to/lastmile_qr_scan", "android": "https://dc.lft.to/lastmile_qr_scan"}, "type": "electric_scooter", "fusion_lat": 0.0, "lon": -77.0167395}, {"fusion_lon": 0.0, "bike_id": "9c656e2602c7b57692191c7b44b80e45", "is_disabled": 0, "is_reserved": 0, "lat": 38.908267, "name": "9c656e2602c7b57692191c7b44b80e45", "rental_uris": {"ios": "https://dc.lft.to/lastmile_qr_scan", "android": "https://dc.lft.to/lastmile_qr_scan"}, "type": "electric_scooter", "fusion_lat": 0.0, "lon": -77.03912533333333}, {"fusion_lon": 0.0, "bike_id": "c3e929c4885b3a1067b5063d3e7a047f", "is_disabled": 0, "is_reserved": 0, "lat": 38.899851, "name": "c3e929c4885b3a1067b5063d3e7a047f", "rental_uris": {"ios": "https://dc.lft.to/lastmile_qr_scan", "android": "https://dc.lft.to/lastmile_qr_scan"}, "type": "electric_scooter", "fusion_lat": 0.0, "lon": -77.02615833333333}, {"fusion_lon": 0.0, "bike_id": "50aa19706d0f1fc4931f57e93922594c", "is_disabled": 0, "is_reserved": 0, "lat": 38.89991766666667, "name": "50aa19706d0f1fc4931f57e93922594c", "rental_uris": {"ios": "https://dc.lft.to/lastmile_qr_scan", "android": "https://dc.lft.to/lastmile_qr_scan"}, "type": "electric_scooter", "fusion_lat": 0.0, "lon": -76.99014583333333}, {"fusion_lon": 0.0, "bike_id": "6d494dc043c8b4732f21d874ea64629c", "is_disabled": 0, "is_reserved": 0, "lat": 38.8456035, "name": "6d494dc043c8b4732f21d874ea64629c", "rental_uris": {"ios": "https://dc.lft.to/lastmile_qr_scan", "android": "https://dc.lft.to/lastmile_qr_scan"}, "type": "electric_bike", "fusion_lat": 0.0, "lon": -77.06702866666667}, {"fusion_lon": 0.0, "bike_id": "fe94e9d0bd273a8b53a2a0bf825c33ff", "is_disabled": 0, "is_reserved": 0, "lat": 38.89741733333334, "name": "fe94e9d0bd273a8b53a2a0bf825c33ff", "rental_uris": {"ios": "https://dc.lft.to/lastmile_qr_scan", "android": "https://dc.lft.to/lastmile_qr_scan"}, "type": "electric_scooter", "fusion_lat": 0.0, "lon": -77.02458583333333}, {"fusion_lon": 0.0, "bike_id": "52fc9b1f4fcfb1ceaa377558552ec6b4", "is_disabled": 0, "is_reserved": 0, "lat": 38.892331, "name": "52fc9b1f4fcfb1ceaa377558552ec6b4", "rental_uris": {"ios": "https://dc.lft.to/lastmile_qr_scan", "android": "https://dc.lft.to/lastmile_qr_scan"}, "type": "electric_scooter", "fusion_lat": 0.0, "lon": -77.024137}, {"fusion_lon": 0.0, "bike_id": "d9618191e35f2b79d97488f6194a3a44", "is_disabled": 0, "is_reserved": 0, "lat": 38.924978833333334, "name": "d9618191e35f2b79d97488f6194a3a44", "rental_uris": {"ios": "https://dc.lft.to/lastmile_qr_scan", "android": "https://dc.lft.to/lastmile_qr_scan"}, "type": "electric_scooter", "fusion_lat": 0.0, "lon": -77.03932216666666}, {"fusion_lon": 0.0, "bike_id": "1c6cbace567cd1e3f6538519d3392fa3", "is_disabled": 0, "is_reserved": 0, "lat": 38.8973765, "name": "1c6cbace567cd1e3f6538519d3392fa3", "rental_uris": {"ios": "https://dc.lft.to/lastmile_qr_scan", "android": "https://dc.lft.to/lastmile_qr_scan"}, "type": "electric_scooter", "fusion_lat": 0.0, "lon": -76.9921515}, {"fusion_lon": 0.0, "bike_id": "d586b5117c9b50fa37ad1c61a5a951bc", "is_disabled": 0, "is_reserved": 0, "lat": 38.914183666666666, "name": "d586b5117c9b50fa37ad1c61a5a951bc", "rental_uris": {"ios": "https://dc.lft.to/lastmile_qr_scan", "android": "https://dc.lft.to/lastmile_qr_scan"}, "type": "electric_scooter", "fusion_lat": 0.0, "lon": -77.02216116666666}, {"fusion_lon": 0.0, "bike_id": "c2541fd757d96ca28ec6d997229af6e8", "is_disabled": 0, "is_reserved": 0, "lat": 38.904181333333334, "name": "c2541fd757d96ca28ec6d997229af6e8", "rental_uris": {"ios": "https://dc.lft.to/lastmile_qr_scan", "android": "https://dc.lft.to/lastmile_qr_scan"}, "type": "electric_bike", "fusion_lat": 0.0, "lon": -77.04367616666667}, {"fusion_lon": 0.0, "bike_id": "3b2ae81331eb4dd7cf3cacdd0d03bc59", "is_disabled": 0, "is_reserved": 0, "lat": 38.923768333333335, "name": "3b2ae81331eb4dd7cf3cacdd0d03bc59", "rental_uris": {"ios": "https://dc.lft.to/lastmile_qr_scan", "android": "https://dc.lft.to/lastmile_qr_scan"}, "type": "electric_scooter", "fusion_lat": 0.0, "lon": -77.0354575}, {"fusion_lon": 0.0, "bike_id": "33b54655a8f77b9e6d1bdf89fd3b1cfa", "is_disabled": 0, "is_reserved": 0, "lat": 38.957417166666666, "name": "33b54655a8f77b9e6d1bdf89fd3b1cfa", "rental_uris": {"ios": "https://dc.lft.to/lastmile_qr_scan", "android": "https://dc.lft.to/lastmile_qr_scan"}, "type": "electric_scooter", "fusion_lat": 0.0, "lon": -77.00221266666667}, {"fusion_lon": 0.0, "bike_id": "ee42acf1cba200087c882f236d3b47b7", "is_disabled": 0, "is_reserved": 0, "lat": 38.8835995, "name": "ee42acf1cba200087c882f236d3b47b7", "rental_uris": {"ios": "https://dc.lft.to/lastmile_qr_scan", "android": "https://dc.lft.to/lastmile_qr_scan"}, "type": "electric_scooter", "fusion_lat": 0.0, "lon": -76.957682}, {"fusion_lon": 0.0, "bike_id": "60736d748cf989feb45b94dad6c3f371", "is_disabled": 0, "is_reserved": 0, "lat": 38.89995916666667, "name": "60736d748cf989feb45b94dad6c3f371", "rental_uris": {"ios": "https://dc.lft.to/lastmile_qr_scan", "android": "https://dc.lft.to/lastmile_qr_scan"}, "type": "electric_scooter", "fusion_lat": 0.0, "lon": -77.05569883333334}, {"fusion_lon": 0.0, "bike_id": "052272e496e9032bc3bc1a4cc2f2b870", "is_disabled": 0, "is_reserved": 0, "lat": 38.8985745, "name": "052272e496e9032bc3bc1a4cc2f2b870", "rental_uris": {"ios": "https://dc.lft.to/lastmile_qr_scan", "android": "https://dc.lft.to/lastmile_qr_scan"}, "type": "electric_scooter", "fusion_lat": 0.0, "lon": -76.99035516666666}, {"fusion_lon": 0.0, "bike_id": "9b23a346e6d79c0db4a51ae67e9aacd9", "is_disabled": 0, "is_reserved": 0, "lat": 38.9069885, "name": "9b23a346e6d79c0db4a51ae67e9aacd9", "rental_uris": {"ios": "https://dc.lft.to/lastmile_qr_scan", "android": "https://dc.lft.to/lastmile_qr_scan"}, "type": "electric_bike", "fusion_lat": 0.0, "lon": -76.95255066666667}, {"fusion_lon": 0.0, "bike_id": "6c579be3931357ce3fb658c8c4a50128", "is_disabled": 0, "is_reserved": 0, "lat": 38.90497766666667, "name": "6c579be3931357ce3fb658c8c4a50128", "rental_uris": {"ios": "https://dc.lft.to/lastmile_qr_scan", "android": "https://dc.lft.to/lastmile_qr_scan"}, "type": "electric_scooter", "fusion_lat": 0.0, "lon": -77.04822716666666}, {"fusion_lon": 0.0, "bike_id": "50f23ed1e13f77baef5ae632d3b8eb61", "is_disabled": 0, "is_reserved": 0, "lat": 38.8997525, "name": "50f23ed1e13f77baef5ae632d3b8eb61", "rental_uris": {"ios": "https://dc.lft.to/lastmile_qr_scan", "android": "https://dc.lft.to/lastmile_qr_scan"}, "type": "electric_scooter", "fusion_lat": 0.0, "lon": -77.03078266666667}, {"fusion_lon": 0.0, "bike_id": "78c35a1b811183edb25bca0eb4e9da79", "is_disabled": 0, "is_reserved": 0, "lat": 38.922500166666666, "name": "78c35a1b811183edb25bca0eb4e9da79", "rental_uris": {"ios": "https://dc.lft.to/lastmile_qr_scan", "android": "https://dc.lft.to/lastmile_qr_scan"}, "type": "electric_scooter", "fusion_lat": 0.0, "lon": -77.01951333333334}, {"fusion_lon": 0.0, "bike_id": "3649add54bec25dc08ac47ee7098d8cd", "is_disabled": 0, "is_reserved": 0, "lat": 38.92870516666667, "name": "3649add54bec25dc08ac47ee7098d8cd", "rental_uris": {"ios": "https://dc.lft.to/lastmile_qr_scan", "android": "https://dc.lft.to/lastmile_qr_scan"}, "type": "electric_scooter", "fusion_lat": 0.0, "lon": -77.01401466666667}, {"fusion_lon": 0.0, "bike_id": "e3b79ddc25b8259eb11e81968a7f7fab", "is_disabled": 0, "is_reserved": 0, "lat": 38.930653, "name": "e3b79ddc25b8259eb11e81968a7f7fab", "rental_uris": {"ios": "https://dc.lft.to/lastmile_qr_scan", "android": "https://dc.lft.to/lastmile_qr_scan"}, "type": "electric_scooter", "fusion_lat": 0.0, "lon": -77.03941316666666}, {"fusion_lon": 0.0, "bike_id": "370429e380910a54742a499490f0ed4c", "is_disabled": 0, "is_reserved": 0, "lat": 38.90704216666666, "name": "370429e380910a54742a499490f0ed4c", "rental_uris": {"ios": "https://dc.lft.to/lastmile_qr_scan", "android": "https://dc.lft.to/lastmile_qr_scan"}, "type": "electric_scooter", "fusion_lat": 0.0, "lon": -77.02708916666667}, {"fusion_lon": 0.0, "bike_id": "58e56adec4eab5191d0f8f9951de2c3b", "is_disabled": 0, "is_reserved": 0, "lat": 38.922343833333336, "name": "58e56adec4eab5191d0f8f9951de2c3b", "rental_uris": {"ios": "https://dc.lft.to/lastmile_qr_scan", "android": "https://dc.lft.to/lastmile_qr_scan"}, "type": "electric_scooter", "fusion_lat": 0.0, "lon": -77.04250183333333}, {"fusion_lon": 0.0, "bike_id": "1fe6987b5b25768fd76ce8b1c9c82423", "is_disabled": 0, "is_reserved": 0, "lat": 38.907328166666666, "name": "1fe6987b5b25768fd76ce8b1c9c82423", "rental_uris": {"ios": "https://dc.lft.to/lastmile_qr_scan", "android": "https://dc.lft.to/lastmile_qr_scan"}, "type": "electric_scooter", "fusion_lat": 0.0, "lon": -77.03446383333333}, {"fusion_lon": 0.0, "bike_id": "3a00752e2bd48c82ae5e616ddf990498", "is_disabled": 0, "is_reserved": 0, "lat": 38.95262533333333, "name": "3a00752e2bd48c82ae5e616ddf990498", "rental_uris": {"ios": "https://dc.lft.to/lastmile_qr_scan", "android": "https://dc.lft.to/lastmile_qr_scan"}, "type": "electric_scooter", "fusion_lat": 0.0, "lon": -77.02074816666666}, {"fusion_lon": 0.0, "bike_id": "7355af0df0a8992664d3f8303e60a04c", "is_disabled": 0, "is_reserved": 0, "lat": 38.9175095, "name": "7355af0df0a8992664d3f8303e60a04c", "rental_uris": {"ios": "https://dc.lft.to/lastmile_qr_scan", "android": "https://dc.lft.to/lastmile_qr_scan"}, "type": "electric_scooter", "fusion_lat": 0.0, "lon": -77.02118933333334}, {"fusion_lon": 0.0, "bike_id": "4204ff4c82a1eace6da20a7b4bfea7ed", "is_disabled": 0, "is_reserved": 0, "lat": 38.912522, "name": "4204ff4c82a1eace6da20a7b4bfea7ed", "rental_uris": {"ios": "https://dc.lft.to/lastmile_qr_scan", "android": "https://dc.lft.to/lastmile_qr_scan"}, "type": "electric_scooter", "fusion_lat": 0.0, "lon": -77.0281235}, {"fusion_lon": 0.0, "bike_id": "fb69e723e014d0b63df0305e3453fda2", "is_disabled": 0, "is_reserved": 0, "lat": 38.905064, "name": "fb69e723e014d0b63df0305e3453fda2", "rental_uris": {"ios": "https://dc.lft.to/lastmile_qr_scan", "android": "https://dc.lft.to/lastmile_qr_scan"}, "type": "electric_scooter", "fusion_lat": 0.0, "lon": -77.065229}, {"fusion_lon": 0.0, "bike_id": "b1fd3cc78b69330e2aa06ba24c075270", "is_disabled": 0, "is_reserved": 0, "lat": 38.89825916666667, "name": "b1fd3cc78b69330e2aa06ba24c075270", "rental_uris": {"ios": "https://dc.lft.to/lastmile_qr_scan", "android": "https://dc.lft.to/lastmile_qr_scan"}, "type": "electric_scooter", "fusion_lat": 0.0, "lon": -77.04611233333334}, {"fusion_lon": 0.0, "bike_id": "175ace685dd2a0c81719afde8e3c0c4a", "is_disabled": 0, "is_reserved": 0, "lat": 38.89925866666667, "name": "175ace685dd2a0c81719afde8e3c0c4a", "rental_uris": {"ios": "https://dc.lft.to/lastmile_qr_scan", "android": "https://dc.lft.to/lastmile_qr_scan"}, "type": "electric_scooter", "fusion_lat": 0.0, "lon": -77.0231735}, {"fusion_lon": 0.0, "bike_id": "8c7285e71e7e35949f3588d57df4d089", "is_disabled": 0, "is_reserved": 0, "lat": 38.91064866666667, "name": "8c7285e71e7e35949f3588d57df4d089", "rental_uris": {"ios": "https://dc.lft.to/lastmile_qr_scan", "android": "https://dc.lft.to/lastmile_qr_scan"}, "type": "electric_scooter", "fusion_lat": 0.0, "lon": -77.04087216666667}, {"fusion_lon": 0.0, "bike_id": "43379a84bedd65f1b956a9e81aa12a2c", "is_disabled": 0, "is_reserved": 0, "lat": 38.919946833333334, "name": "43379a84bedd65f1b956a9e81aa12a2c", "rental_uris": {"ios": "https://dc.lft.to/lastmile_qr_scan", "android": "https://dc.lft.to/lastmile_qr_scan"}, "type": "electric_scooter", "fusion_lat": 0.0, "lon": -77.03278866666666}, {"fusion_lon": 0.0, "bike_id": "31338fec4f8dfb1c57b7c7eaf2e9a98c", "is_disabled": 0, "is_reserved": 0, "lat": 38.904177, "name": "31338fec4f8dfb1c57b7c7eaf2e9a98c", "rental_uris": {"ios": "https://dc.lft.to/lastmile_qr_scan", "android": "https://dc.lft.to/lastmile_qr_scan"}, "type": "electric_scooter", "fusion_lat": 0.0, "lon": -77.04362483333334}, {"fusion_lon": 0.0, "bike_id": "a9305607c8b01cf3bcd9d46ceacfc916", "is_disabled": 0, "is_reserved": 0, "lat": 38.887104666666666, "name": "a9305607c8b01cf3bcd9d46ceacfc916", "rental_uris": {"ios": "https://dc.lft.to/lastmile_qr_scan", "android": "https://dc.lft.to/lastmile_qr_scan"}, "type": "electric_scooter", "fusion_lat": 0.0, "lon": -76.9838135}, {"fusion_lon": 0.0, "bike_id": "a9e8452c2776c22dba94823b148bb2ed", "is_disabled": 0, "is_reserved": 0, "lat": 38.922883166666665, "name": "a9e8452c2776c22dba94823b148bb2ed", "rental_uris": {"ios": "https://dc.lft.to/lastmile_qr_scan", "android": "https://dc.lft.to/lastmile_qr_scan"}, "type": "electric_scooter", "fusion_lat": 0.0, "lon": -77.0224555}, {"fusion_lon": 0.0, "bike_id": "c4005c59d74beedd581b7472db48b347", "is_disabled": 0, "is_reserved": 0, "lat": 38.917086833333336, "name": "c4005c59d74beedd581b7472db48b347", "rental_uris": {"ios": "https://dc.lft.to/lastmile_qr_scan", "android": "https://dc.lft.to/lastmile_qr_scan"}, "type": "electric_scooter", "fusion_lat": 0.0, "lon": -77.038639}, {"fusion_lon": 0.0, "bike_id": "143d57027a46649cab95d6e748aea1dd", "is_disabled": 0, "is_reserved": 0, "lat": 38.91374366666667, "name": "143d57027a46649cab95d6e748aea1dd", "rental_uris": {"ios": "https://dc.lft.to/lastmile_qr_scan", "android": "https://dc.lft.to/lastmile_qr_scan"}, "type": "electric_scooter", "fusion_lat": 0.0, "lon": -77.04492583333334}, {"fusion_lon": 0.0, "bike_id": "a70680e7fdbd708f060c2be90e1bc5bd", "is_disabled": 0, "is_reserved": 0, "lat": 38.92472166666667, "name": "a70680e7fdbd708f060c2be90e1bc5bd", "rental_uris": {"ios": "https://dc.lft.to/lastmile_qr_scan", "android": "https://dc.lft.to/lastmile_qr_scan"}, "type": "electric_scooter", "fusion_lat": 0.0, "lon": -77.02216033333333}, {"fusion_lon": 0.0, "bike_id": "bd27ff841e0aacd4dee5eeeefe896df3", "is_disabled": 0, "is_reserved": 0, "lat": 38.9241645, "name": "bd27ff841e0aacd4dee5eeeefe896df3", "rental_uris": {"ios": "https://dc.lft.to/lastmile_qr_scan", "android": "https://dc.lft.to/lastmile_qr_scan"}, "type": "electric_scooter", "fusion_lat": 0.0, "lon": -77.02039316666666}, {"fusion_lon": 0.0, "bike_id": "ecc0b6d00c4a9b19aa0f4d41dd720b47", "is_disabled": 0, "is_reserved": 0, "lat": 38.9037845, "name": "ecc0b6d00c4a9b19aa0f4d41dd720b47", "rental_uris": {"ios": "https://dc.lft.to/lastmile_qr_scan", "android": "https://dc.lft.to/lastmile_qr_scan"}, "type": "electric_scooter", "fusion_lat": 0.0, "lon": -77.017751}, {"fusion_lon": 0.0, "bike_id": "a00a9d4524fc7a4be04e5ac5f5f25515", "is_disabled": 0, "is_reserved": 0, "lat": 38.91353216666667, "name": "a00a9d4524fc7a4be04e5ac5f5f25515", "rental_uris": {"ios": "https://dc.lft.to/lastmile_qr_scan", "android": "https://dc.lft.to/lastmile_qr_scan"}, "type": "electric_scooter", "fusion_lat": 0.0, "lon": -77.03186133333334}, {"fusion_lon": 0.0, "bike_id": "76dddafe9a70113e525b1d70a77e9c53", "is_disabled": 0, "is_reserved": 0, "lat": 38.9192835, "name": "76dddafe9a70113e525b1d70a77e9c53", "rental_uris": {"ios": "https://dc.lft.to/lastmile_qr_scan", "android": "https://dc.lft.to/lastmile_qr_scan"}, "type": "electric_scooter", "fusion_lat": 0.0, "lon": -77.01793216666667}, {"fusion_lon": 0.0, "bike_id": "26ba2af9eb2017dea9f8ba111f1263e7", "is_disabled": 0, "is_reserved": 0, "lat": 38.9194765, "name": "26ba2af9eb2017dea9f8ba111f1263e7", "rental_uris": {"ios": "https://dc.lft.to/lastmile_qr_scan", "android": "https://dc.lft.to/lastmile_qr_scan"}, "type": "electric_scooter", "fusion_lat": 0.0, "lon": -77.0179585}, {"fusion_lon": 0.0, "bike_id": "175a56d23cf8dada32be1a73594292fa", "is_disabled": 0, "is_reserved": 0, "lat": 38.908539833333336, "name": "175a56d23cf8dada32be1a73594292fa", "rental_uris": {"ios": "https://dc.lft.to/lastmile_qr_scan", "android": "https://dc.lft.to/lastmile_qr_scan"}, "type": "electric_scooter", "fusion_lat": 0.0, "lon": -77.0637325}, {"fusion_lon": 0.0, "bike_id": "53c184e3c818c63979c1578e28a0ce2c", "is_disabled": 0, "is_reserved": 0, "lat": 38.907851, "name": "53c184e3c818c63979c1578e28a0ce2c", "rental_uris": {"ios": "https://dc.lft.to/lastmile_qr_scan", "android": "https://dc.lft.to/lastmile_qr_scan"}, "type": "electric_bike", "fusion_lat": 0.0, "lon": -77.08168583333334}, {"fusion_lon": 0.0, "bike_id": "76c6ac3c36f560983c8c0ff400ef41b0", "is_disabled": 0, "is_reserved": 0, "lat": 38.9306035, "name": "76c6ac3c36f560983c8c0ff400ef41b0", "rental_uris": {"ios": "https://dc.lft.to/lastmile_qr_scan", "android": "https://dc.lft.to/lastmile_qr_scan"}, "type": "electric_scooter", "fusion_lat": 0.0, "lon": -77.02322283333334}, {"fusion_lon": 0.0, "bike_id": "41c48d7819579477a3d8a79b702bd70f", "is_disabled": 0, "is_reserved": 0, "lat": 38.93938766666667, "name": "41c48d7819579477a3d8a79b702bd70f", "rental_uris": {"ios": "https://dc.lft.to/lastmile_qr_scan", "android": "https://dc.lft.to/lastmile_qr_scan"}, "type": "electric_scooter", "fusion_lat": 0.0, "lon": -77.0605665}, {"fusion_lon": 0.0, "bike_id": "b26b09d4f617d376f8c2d2a8259e1955", "is_disabled": 0, "is_reserved": 0, "lat": 38.90061166666667, "name": "b26b09d4f617d376f8c2d2a8259e1955", "rental_uris": {"ios": "https://dc.lft.to/lastmile_qr_scan", "android": "https://dc.lft.to/lastmile_qr_scan"}, "type": "electric_scooter", "fusion_lat": 0.0, "lon": -77.04551983333333}, {"fusion_lon": 0.0, "bike_id": "ed5cf737f339d90f4aaec199bb8bf910", "is_disabled": 0, "is_reserved": 0, "lat": 38.912570333333335, "name": "ed5cf737f339d90f4aaec199bb8bf910", "rental_uris": {"ios": "https://dc.lft.to/lastmile_qr_scan", "android": "https://dc.lft.to/lastmile_qr_scan"}, "type": "electric_scooter", "fusion_lat": 0.0, "lon": -77.04449266666667}, {"fusion_lon": 0.0, "bike_id": "11b0980b54b8c45c48c9c29728a22392", "is_disabled": 0, "is_reserved": 0, "lat": 38.93251716666666, "name": "11b0980b54b8c45c48c9c29728a22392", "rental_uris": {"ios": "https://dc.lft.to/lastmile_qr_scan", "android": "https://dc.lft.to/lastmile_qr_scan"}, "type": "electric_scooter", "fusion_lat": 0.0, "lon": -77.032799}, {"fusion_lon": 0.0, "bike_id": "64dd91f4313f08d060a9597eb738f5c6", "is_disabled": 0, "is_reserved": 0, "lat": 38.91998533333334, "name": "64dd91f4313f08d060a9597eb738f5c6", "rental_uris": {"ios": "https://dc.lft.to/lastmile_qr_scan", "android": "https://dc.lft.to/lastmile_qr_scan"}, "type": "electric_scooter", "fusion_lat": 0.0, "lon": -77.02134216666667}, {"fusion_lon": 0.0, "bike_id": "8559490783c43dcb1c995e15e3d57595", "is_disabled": 0, "is_reserved": 0, "lat": 38.922787666666665, "name": "8559490783c43dcb1c995e15e3d57595", "rental_uris": {"ios": "https://dc.lft.to/lastmile_qr_scan", "android": "https://dc.lft.to/lastmile_qr_scan"}, "type": "electric_scooter", "fusion_lat": 0.0, "lon": -77.02133683333334}, {"fusion_lon": 0.0, "bike_id": "c161a600a73e50475563a17d3fbd468e", "is_disabled": 0, "is_reserved": 0, "lat": 38.901816333333336, "name": "c161a600a73e50475563a17d3fbd468e", "rental_uris": {"ios": "https://dc.lft.to/lastmile_qr_scan", "android": "https://dc.lft.to/lastmile_qr_scan"}, "type": "electric_scooter", "fusion_lat": 0.0, "lon": -76.97674333333333}, {"fusion_lon": 0.0, "bike_id": "49abd39db2d4d38729710d809b9a3d72", "is_disabled": 0, "is_reserved": 0, "lat": 38.943342333333334, "name": "49abd39db2d4d38729710d809b9a3d72", "rental_uris": {"ios": "https://dc.lft.to/lastmile_qr_scan", "android": "https://dc.lft.to/lastmile_qr_scan"}, "type": "electric_scooter", "fusion_lat": 0.0, "lon": -77.03257883333333}, {"fusion_lon": 0.0, "bike_id": "b11856230a41084db5dbd54304f3e2b8", "is_disabled": 0, "is_reserved": 0, "lat": 38.9243175, "name": "b11856230a41084db5dbd54304f3e2b8", "rental_uris": {"ios": "https://dc.lft.to/lastmile_qr_scan", "android": "https://dc.lft.to/lastmile_qr_scan"}, "type": "electric_scooter", "fusion_lat": 0.0, "lon": -77.04051683333333}, {"fusion_lon": 0.0, "bike_id": "51469af85d22f4c40572d1ba1419901f", "is_disabled": 0, "is_reserved": 0, "lat": 38.887134, "name": "51469af85d22f4c40572d1ba1419901f", "rental_uris": {"ios": "https://dc.lft.to/lastmile_qr_scan", "android": "https://dc.lft.to/lastmile_qr_scan"}, "type": "electric_scooter", "fusion_lat": 0.0, "lon": -76.9838265}, {"fusion_lon": 0.0, "bike_id": "5a0a8c70b3e2583322eccf824bea88c6", "is_disabled": 0, "is_reserved": 0, "lat": 38.88248633333333, "name": "5a0a8c70b3e2583322eccf824bea88c6", "rental_uris": {"ios": "https://dc.lft.to/lastmile_qr_scan", "android": "https://dc.lft.to/lastmile_qr_scan"}, "type": "electric_bike", "fusion_lat": 0.0, "lon": -76.96262433333334}, {"fusion_lon": 0.0, "bike_id": "63039de523a4b27a3a1b61c731e333a8", "is_disabled": 0, "is_reserved": 0, "lat": 38.917535, "name": "63039de523a4b27a3a1b61c731e333a8", "rental_uris": {"ios": "https://dc.lft.to/lastmile_qr_scan", "android": "https://dc.lft.to/lastmile_qr_scan"}, "type": "electric_scooter", "fusion_lat": 0.0, "lon": -77.028186}, {"fusion_lon": 0.0, "bike_id": "76e68bc63b8d43439cd3fd7508cc485a", "is_disabled": 0, "is_reserved": 0, "lat": 38.8972105, "name": "76e68bc63b8d43439cd3fd7508cc485a", "rental_uris": {"ios": "https://dc.lft.to/lastmile_qr_scan", "android": "https://dc.lft.to/lastmile_qr_scan"}, "type": "electric_bike", "fusion_lat": 0.0, "lon": -77.006994}, {"fusion_lon": 0.0, "bike_id": "df3c53c356fbd0792774af559fc8dca3", "is_disabled": 0, "is_reserved": 0, "lat": 38.96739516666667, "name": "df3c53c356fbd0792774af559fc8dca3", "rental_uris": {"ios": "https://dc.lft.to/lastmile_qr_scan", "android": "https://dc.lft.to/lastmile_qr_scan"}, "type": "electric_bike", "fusion_lat": 0.0, "lon": -77.089115}, {"fusion_lon": 0.0, "bike_id": "aa044b68bbbbbcfffc1e102b01a0f2b0", "is_disabled": 0, "is_reserved": 0, "lat": 38.92037116666667, "name": "aa044b68bbbbbcfffc1e102b01a0f2b0", "rental_uris": {"ios": "https://dc.lft.to/lastmile_qr_scan", "android": "https://dc.lft.to/lastmile_qr_scan"}, "type": "electric_scooter", "fusion_lat": 0.0, "lon": -77.04188666666667}, {"fusion_lon": 0.0, "bike_id": "0f079327b5cad933a405d192ea568708", "is_disabled": 0, "is_reserved": 0, "lat": 38.887708, "name": "0f079327b5cad933a405d192ea568708", "rental_uris": {"ios": "https://dc.lft.to/lastmile_qr_scan", "android": "https://dc.lft.to/lastmile_qr_scan"}, "type": "electric_scooter", "fusion_lat": 0.0, "lon": -77.00042766666667}, {"fusion_lon": 0.0, "bike_id": "14d7dfbcbb145a74a9a6b3b13d6f8d39", "is_disabled": 0, "is_reserved": 0, "lat": 38.922350333333334, "name": "14d7dfbcbb145a74a9a6b3b13d6f8d39", "rental_uris": {"ios": "https://dc.lft.to/lastmile_qr_scan", "android": "https://dc.lft.to/lastmile_qr_scan"}, "type": "electric_scooter", "fusion_lat": 0.0, "lon": -77.02827}, {"fusion_lon": 0.0, "bike_id": "4577b66f2175f176417a69cdd813859a", "is_disabled": 0, "is_reserved": 0, "lat": 38.89579716666667, "name": "4577b66f2175f176417a69cdd813859a", "rental_uris": {"ios": "https://dc.lft.to/lastmile_qr_scan", "android": "https://dc.lft.to/lastmile_qr_scan"}, "type": "electric_scooter", "fusion_lat": 0.0, "lon": -77.029949}, {"fusion_lon": 0.0, "bike_id": "a6c70207562c93fa1897c29ffd3e4568", "is_disabled": 0, "is_reserved": 0, "lat": 38.83585333333333, "name": "a6c70207562c93fa1897c29ffd3e4568", "rental_uris": {"ios": "https://dc.lft.to/lastmile_qr_scan", "android": "https://dc.lft.to/lastmile_qr_scan"}, "type": "electric_bike", "fusion_lat": 0.0, "lon": -76.99016133333333}, {"fusion_lon": 0.0, "bike_id": "9ae646da73f20456e0f52835ec4bd603", "is_disabled": 0, "is_reserved": 0, "lat": 38.91877, "name": "9ae646da73f20456e0f52835ec4bd603", "rental_uris": {"ios": "https://dc.lft.to/lastmile_qr_scan", "android": "https://dc.lft.to/lastmile_qr_scan"}, "type": "electric_bike", "fusion_lat": 0.0, "lon": -76.96433916666666}, {"fusion_lon": 0.0, "bike_id": "f7c058cdaec0ec5bbf3b2cbc6c472bc9", "is_disabled": 0, "is_reserved": 0, "lat": 38.93260083333333, "name": "f7c058cdaec0ec5bbf3b2cbc6c472bc9", "rental_uris": {"ios": "https://dc.lft.to/lastmile_qr_scan", "android": "https://dc.lft.to/lastmile_qr_scan"}, "type": "electric_scooter", "fusion_lat": 0.0, "lon": -76.98876883333334}, {"fusion_lon": 0.0, "bike_id": "63e69efac955b97b6d10c11b9be8c5a4", "is_disabled": 0, "is_reserved": 0, "lat": 38.88769333333333, "name": "63e69efac955b97b6d10c11b9be8c5a4", "rental_uris": {"ios": "https://dc.lft.to/lastmile_qr_scan", "android": "https://dc.lft.to/lastmile_qr_scan"}, "type": "electric_scooter", "fusion_lat": 0.0, "lon": -76.97733666666667}, {"fusion_lon": 0.0, "bike_id": "c39c8938c120252a7149786dbc2c8efd", "is_disabled": 0, "is_reserved": 0, "lat": 38.932869833333335, "name": "c39c8938c120252a7149786dbc2c8efd", "rental_uris": {"ios": "https://dc.lft.to/lastmile_qr_scan", "android": "https://dc.lft.to/lastmile_qr_scan"}, "type": "electric_scooter", "fusion_lat": 0.0, "lon": -76.98651533333333}, {"fusion_lon": 0.0, "bike_id": "de9b173f3dd7305c7608425201d51144", "is_disabled": 0, "is_reserved": 0, "lat": 38.919231333333336, "name": "de9b173f3dd7305c7608425201d51144", "rental_uris": {"ios": "https://dc.lft.to/lastmile_qr_scan", "android": "https://dc.lft.to/lastmile_qr_scan"}, "type": "electric_scooter", "fusion_lat": 0.0, "lon": -77.03419816666667}, {"fusion_lon": 0.0, "bike_id": "20204b0de5a0b1a2975820303a238a05", "is_disabled": 0, "is_reserved": 0, "lat": 38.97441283333333, "name": "20204b0de5a0b1a2975820303a238a05", "rental_uris": {"ios": "https://dc.lft.to/lastmile_qr_scan", "android": "https://dc.lft.to/lastmile_qr_scan"}, "type": "electric_bike", "fusion_lat": 0.0, "lon": -77.09617316666667}, {"fusion_lon": 0.0, "bike_id": "b98f58e15809ecfadef24a9362f11ff6", "is_disabled": 0, "is_reserved": 0, "lat": 38.85448433333333, "name": "b98f58e15809ecfadef24a9362f11ff6", "rental_uris": {"ios": "https://dc.lft.to/lastmile_qr_scan", "android": "https://dc.lft.to/lastmile_qr_scan"}, "type": "electric_scooter", "fusion_lat": 0.0, "lon": -76.98610966666666}, {"fusion_lon": 0.0, "bike_id": "a8eda7caaf9b5c4fd77120232ca88206", "is_disabled": 0, "is_reserved": 0, "lat": 38.9242425, "name": "a8eda7caaf9b5c4fd77120232ca88206", "rental_uris": {"ios": "https://dc.lft.to/lastmile_qr_scan", "android": "https://dc.lft.to/lastmile_qr_scan"}, "type": "electric_scooter", "fusion_lat": 0.0, "lon": -77.02011666666667}, {"fusion_lon": 0.0, "bike_id": "8cee2c57be66acd158ca270516cfcbbc", "is_disabled": 0, "is_reserved": 0, "lat": 38.925101166666664, "name": "8cee2c57be66acd158ca270516cfcbbc", "rental_uris": {"ios": "https://dc.lft.to/lastmile_qr_scan", "android": "https://dc.lft.to/lastmile_qr_scan"}, "type": "electric_scooter", "fusion_lat": 0.0, "lon": -77.02162916666667}, {"fusion_lon": 0.0, "bike_id": "b261cc98b4ec2b82df5bcdaab067accf", "is_disabled": 0, "is_reserved": 0, "lat": 38.9096925, "name": "b261cc98b4ec2b82df5bcdaab067accf", "rental_uris": {"ios": "https://dc.lft.to/lastmile_qr_scan", "android": "https://dc.lft.to/lastmile_qr_scan"}, "type": "electric_scooter", "fusion_lat": 0.0, "lon": -77.033511}, {"fusion_lon": 0.0, "bike_id": "3f586d88fcdde985d60f545738534964", "is_disabled": 0, "is_reserved": 0, "lat": 38.922306166666665, "name": "3f586d88fcdde985d60f545738534964", "rental_uris": {"ios": "https://dc.lft.to/lastmile_qr_scan", "android": "https://dc.lft.to/lastmile_qr_scan"}, "type": "electric_scooter", "fusion_lat": 0.0, "lon": -77.02826116666667}, {"fusion_lon": 0.0, "bike_id": "42db2d2c4f2f6dcf22a16e49690c25c6", "is_disabled": 0, "is_reserved": 0, "lat": 38.9009265, "name": "42db2d2c4f2f6dcf22a16e49690c25c6", "rental_uris": {"ios": "https://dc.lft.to/lastmile_qr_scan", "android": "https://dc.lft.to/lastmile_qr_scan"}, "type": "electric_scooter", "fusion_lat": 0.0, "lon": -77.04762983333333}, {"fusion_lon": 0.0, "bike_id": "9b8af7024f2f3797ae013fbd1a9ae548", "is_disabled": 0, "is_reserved": 0, "lat": 38.901026, "name": "9b8af7024f2f3797ae013fbd1a9ae548", "rental_uris": {"ios": "https://dc.lft.to/lastmile_qr_scan", "android": "https://dc.lft.to/lastmile_qr_scan"}, "type": "electric_scooter", "fusion_lat": 0.0, "lon": -77.01616783333333}, {"fusion_lon": 0.0, "bike_id": "adbf6bedc62c9bef794ecc8d6cf2d3b8", "is_disabled": 0, "is_reserved": 0, "lat": 38.920061, "name": "adbf6bedc62c9bef794ecc8d6cf2d3b8", "rental_uris": {"ios": "https://dc.lft.to/lastmile_qr_scan", "android": "https://dc.lft.to/lastmile_qr_scan"}, "type": "electric_bike", "fusion_lat": 0.0, "lon": -77.03186966666667}, {"fusion_lon": 0.0, "bike_id": "030c5d0b7ed7d2d82c16f85a79ba3774", "is_disabled": 0, "is_reserved": 0, "lat": 38.94270816666667, "name": "030c5d0b7ed7d2d82c16f85a79ba3774", "rental_uris": {"ios": "https://dc.lft.to/lastmile_qr_scan", "android": "https://dc.lft.to/lastmile_qr_scan"}, "type": "electric_scooter", "fusion_lat": 0.0, "lon": -77.02941783333333}, {"fusion_lon": 0.0, "bike_id": "5230e805c1948c585f70cffbabdd1f38", "is_disabled": 0, "is_reserved": 0, "lat": 38.9435105, "name": "5230e805c1948c585f70cffbabdd1f38", "rental_uris": {"ios": "https://dc.lft.to/lastmile_qr_scan", "android": "https://dc.lft.to/lastmile_qr_scan"}, "type": "electric_scooter", "fusion_lat": 0.0, "lon": -77.02598233333333}, {"fusion_lon": 0.0, "bike_id": "a58dc0e5884d396b80094d0286b11e4d", "is_disabled": 0, "is_reserved": 0, "lat": 38.927056666666665, "name": "a58dc0e5884d396b80094d0286b11e4d", "rental_uris": {"ios": "https://dc.lft.to/lastmile_qr_scan", "android": "https://dc.lft.to/lastmile_qr_scan"}, "type": "electric_scooter", "fusion_lat": 0.0, "lon": -77.02101633333334}, {"fusion_lon": 0.0, "bike_id": "19e1ef28ccf65c8ad57ef6e318c1be86", "is_disabled": 0, "is_reserved": 0, "lat": 38.905671166666664, "name": "19e1ef28ccf65c8ad57ef6e318c1be86", "rental_uris": {"ios": "https://dc.lft.to/lastmile_qr_scan", "android": "https://dc.lft.to/lastmile_qr_scan"}, "type": "electric_scooter", "fusion_lat": 0.0, "lon": -77.00486833333333}, {"fusion_lon": 0.0, "bike_id": "841bc3b8dd6a284ed7dc4d36f9451db5", "is_disabled": 0, "is_reserved": 0, "lat": 38.923677833333336, "name": "841bc3b8dd6a284ed7dc4d36f9451db5", "rental_uris": {"ios": "https://dc.lft.to/lastmile_qr_scan", "android": "https://dc.lft.to/lastmile_qr_scan"}, "type": "electric_scooter", "fusion_lat": 0.0, "lon": -77.0281435}, {"fusion_lon": 0.0, "bike_id": "7b53364dd75f9ee4d60f417669bbdae9", "is_disabled": 0, "is_reserved": 0, "lat": 38.91969233333333, "name": "7b53364dd75f9ee4d60f417669bbdae9", "rental_uris": {"ios": "https://dc.lft.to/lastmile_qr_scan", "android": "https://dc.lft.to/lastmile_qr_scan"}, "type": "electric_scooter", "fusion_lat": 0.0, "lon": -77.04233033333334}, {"fusion_lon": 0.0, "bike_id": "251ce4fb1f9ec446a0bbe2a70828a941", "is_disabled": 0, "is_reserved": 0, "lat": 38.92477733333333, "name": "251ce4fb1f9ec446a0bbe2a70828a941", "rental_uris": {"ios": "https://dc.lft.to/lastmile_qr_scan", "android": "https://dc.lft.to/lastmile_qr_scan"}, "type": "electric_scooter", "fusion_lat": 0.0, "lon": -77.022347}, {"fusion_lon": 0.0, "bike_id": "8427a0f9161c00d35468e86198140a6f", "is_disabled": 0, "is_reserved": 0, "lat": 38.924178833333336, "name": "8427a0f9161c00d35468e86198140a6f", "rental_uris": {"ios": "https://dc.lft.to/lastmile_qr_scan", "android": "https://dc.lft.to/lastmile_qr_scan"}, "type": "electric_scooter", "fusion_lat": 0.0, "lon": -77.02129233333334}, {"fusion_lon": 0.0, "bike_id": "8066da973d9fda75c2c93c421e21d8de", "is_disabled": 0, "is_reserved": 0, "lat": 38.89967166666667, "name": "8066da973d9fda75c2c93c421e21d8de", "rental_uris": {"ios": "https://dc.lft.to/lastmile_qr_scan", "android": "https://dc.lft.to/lastmile_qr_scan"}, "type": "electric_scooter", "fusion_lat": 0.0, "lon": -77.0450555}, {"fusion_lon": 0.0, "bike_id": "493b6068be4ee6003aa3946bf9be7a17", "is_disabled": 0, "is_reserved": 0, "lat": 38.894661, "name": "493b6068be4ee6003aa3946bf9be7a17", "rental_uris": {"ios": "https://dc.lft.to/lastmile_qr_scan", "android": "https://dc.lft.to/lastmile_qr_scan"}, "type": "electric_bike", "fusion_lat": 0.0, "lon": -77.046785}, {"fusion_lon": 0.0, "bike_id": "c32372b4efa451f07b65ee177235fc68", "is_disabled": 0, "is_reserved": 0, "lat": 38.90567383333333, "name": "c32372b4efa451f07b65ee177235fc68", "rental_uris": {"ios": "https://dc.lft.to/lastmile_qr_scan", "android": "https://dc.lft.to/lastmile_qr_scan"}, "type": "electric_bike", "fusion_lat": 0.0, "lon": -77.00298716666667}, {"fusion_lon": 0.0, "bike_id": "a3b4e5c2a07ebec53259af12ddef587f", "is_disabled": 0, "is_reserved": 0, "lat": 38.921717, "name": "a3b4e5c2a07ebec53259af12ddef587f", "rental_uris": {"ios": "https://dc.lft.to/lastmile_qr_scan", "android": "https://dc.lft.to/lastmile_qr_scan"}, "type": "electric_scooter", "fusion_lat": 0.0, "lon": -77.03517283333333}, {"fusion_lon": 0.0, "bike_id": "5a4c9944e1d6f654907b346f0573cdee", "is_disabled": 0, "is_reserved": 0, "lat": 38.89345566666667, "name": "5a4c9944e1d6f654907b346f0573cdee", "rental_uris": {"ios": "https://dc.lft.to/lastmile_qr_scan", "android": "https://dc.lft.to/lastmile_qr_scan"}, "type": "electric_scooter", "fusion_lat": 0.0, "lon": -77.0319245}, {"fusion_lon": 0.0, "bike_id": "a81a52da40561a99e9de2c08edc70507", "is_disabled": 0, "is_reserved": 0, "lat": 38.93885733333333, "name": "a81a52da40561a99e9de2c08edc70507", "rental_uris": {"ios": "https://dc.lft.to/lastmile_qr_scan", "android": "https://dc.lft.to/lastmile_qr_scan"}, "type": "electric_scooter", "fusion_lat": 0.0, "lon": -77.02466}, {"fusion_lon": 0.0, "bike_id": "7e225fe317a8de43c3874ac72268e553", "is_disabled": 0, "is_reserved": 0, "lat": 38.88553483333333, "name": "7e225fe317a8de43c3874ac72268e553", "rental_uris": {"ios": "https://dc.lft.to/lastmile_qr_scan", "android": "https://dc.lft.to/lastmile_qr_scan"}, "type": "electric_scooter", "fusion_lat": 0.0, "lon": -77.020118}, {"fusion_lon": 0.0, "bike_id": "4be01658f58850544ec8fa8fa95418be", "is_disabled": 0, "is_reserved": 0, "lat": 38.87735433333334, "name": "4be01658f58850544ec8fa8fa95418be", "rental_uris": {"ios": "https://dc.lft.to/lastmile_qr_scan", "android": "https://dc.lft.to/lastmile_qr_scan"}, "type": "electric_scooter", "fusion_lat": 0.0, "lon": -77.010652}, {"fusion_lon": 0.0, "bike_id": "150188740b0a83b8908c07a2a43046ad", "is_disabled": 0, "is_reserved": 0, "lat": 38.920472333333336, "name": "150188740b0a83b8908c07a2a43046ad", "rental_uris": {"ios": "https://dc.lft.to/lastmile_qr_scan", "android": "https://dc.lft.to/lastmile_qr_scan"}, "type": "electric_scooter", "fusion_lat": 0.0, "lon": -77.03406166666667}, {"fusion_lon": 0.0, "bike_id": "9ac2cc6a03dfe9ced21f15d496e4f68c", "is_disabled": 0, "is_reserved": 0, "lat": 38.9275255, "name": "9ac2cc6a03dfe9ced21f15d496e4f68c", "rental_uris": {"ios": "https://dc.lft.to/lastmile_qr_scan", "android": "https://dc.lft.to/lastmile_qr_scan"}, "type": "electric_scooter", "fusion_lat": 0.0, "lon": -77.03299516666667}, {"fusion_lon": 0.0, "bike_id": "82a462ae4b73787a0a7a10ce269931e6", "is_disabled": 0, "is_reserved": 0, "lat": 38.91940683333333, "name": "82a462ae4b73787a0a7a10ce269931e6", "rental_uris": {"ios": "https://dc.lft.to/lastmile_qr_scan", "android": "https://dc.lft.to/lastmile_qr_scan"}, "type": "electric_scooter", "fusion_lat": 0.0, "lon": -77.01349383333333}, {"fusion_lon": 0.0, "bike_id": "54e6f0a5d89a2f5c4970f27da2a4e010", "is_disabled": 0, "is_reserved": 0, "lat": 38.901777333333335, "name": "54e6f0a5d89a2f5c4970f27da2a4e010", "rental_uris": {"ios": "https://dc.lft.to/lastmile_qr_scan", "android": "https://dc.lft.to/lastmile_qr_scan"}, "type": "electric_scooter", "fusion_lat": 0.0, "lon": -76.9294445}, {"fusion_lon": 0.0, "bike_id": "b54146d0597a4de311d485e195ee0193", "is_disabled": 0, "is_reserved": 0, "lat": 38.9003155, "name": "b54146d0597a4de311d485e195ee0193", "rental_uris": {"ios": "https://dc.lft.to/lastmile_qr_scan", "android": "https://dc.lft.to/lastmile_qr_scan"}, "type": "electric_scooter", "fusion_lat": 0.0, "lon": -76.988457}, {"fusion_lon": 0.0, "bike_id": "b2c5f47727d2fc01567663d0bb4f31ec", "is_disabled": 0, "is_reserved": 0, "lat": 38.89510966666667, "name": "b2c5f47727d2fc01567663d0bb4f31ec", "rental_uris": {"ios": "https://dc.lft.to/lastmile_qr_scan", "android": "https://dc.lft.to/lastmile_qr_scan"}, "type": "electric_scooter", "fusion_lat": 0.0, "lon": -76.9488365}, {"fusion_lon": 0.0, "bike_id": "605d58e67fbf86e5cb7c3ec04ef83ec7", "is_disabled": 0, "is_reserved": 0, "lat": 38.923714333333336, "name": "605d58e67fbf86e5cb7c3ec04ef83ec7", "rental_uris": {"ios": "https://dc.lft.to/lastmile_qr_scan", "android": "https://dc.lft.to/lastmile_qr_scan"}, "type": "electric_scooter", "fusion_lat": 0.0, "lon": -77.02138783333334}, {"fusion_lon": 0.0, "bike_id": "7b7fa5b7a9904bc238e3441037f67e99", "is_disabled": 0, "is_reserved": 0, "lat": 38.90026866666667, "name": "7b7fa5b7a9904bc238e3441037f67e99", "rental_uris": {"ios": "https://dc.lft.to/lastmile_qr_scan", "android": "https://dc.lft.to/lastmile_qr_scan"}, "type": "electric_scooter", "fusion_lat": 0.0, "lon": -76.98846516666667}, {"fusion_lon": 0.0, "bike_id": "b17a116d3047d882a035e46d651a10cd", "is_disabled": 0, "is_reserved": 0, "lat": 38.9126965, "name": "b17a116d3047d882a035e46d651a10cd", "rental_uris": {"ios": "https://dc.lft.to/lastmile_qr_scan", "android": "https://dc.lft.to/lastmile_qr_scan"}, "type": "electric_scooter", "fusion_lat": 0.0, "lon": -77.02229366666667}, {"fusion_lon": 0.0, "bike_id": "47fec3b0b1bcee4c2b4684e6f8f72934", "is_disabled": 0, "is_reserved": 0, "lat": 38.931821, "name": "47fec3b0b1bcee4c2b4684e6f8f72934", "rental_uris": {"ios": "https://dc.lft.to/lastmile_qr_scan", "android": "https://dc.lft.to/lastmile_qr_scan"}, "type": "electric_scooter", "fusion_lat": 0.0, "lon": -77.03844883333333}, {"fusion_lon": 0.0, "bike_id": "9e8d7525b14b5993b8f25fe214548835", "is_disabled": 0, "is_reserved": 0, "lat": 38.89949933333333, "name": "9e8d7525b14b5993b8f25fe214548835", "rental_uris": {"ios": "https://dc.lft.to/lastmile_qr_scan", "android": "https://dc.lft.to/lastmile_qr_scan"}, "type": "electric_scooter", "fusion_lat": 0.0, "lon": -76.93760466666667}, {"fusion_lon": 0.0, "bike_id": "42cc86049230c94e982cdfb4ceaf3f9b", "is_disabled": 0, "is_reserved": 0, "lat": 38.923188833333334, "name": "42cc86049230c94e982cdfb4ceaf3f9b", "rental_uris": {"ios": "https://dc.lft.to/lastmile_qr_scan", "android": "https://dc.lft.to/lastmile_qr_scan"}, "type": "electric_scooter", "fusion_lat": 0.0, "lon": -77.0289925}, {"fusion_lon": 0.0, "bike_id": "b3be90ccc75b118850bbf94fb24bb85e", "is_disabled": 0, "is_reserved": 0, "lat": 38.89334083333333, "name": "b3be90ccc75b118850bbf94fb24bb85e", "rental_uris": {"ios": "https://dc.lft.to/lastmile_qr_scan", "android": "https://dc.lft.to/lastmile_qr_scan"}, "type": "electric_scooter", "fusion_lat": 0.0, "lon": -76.99381316666667}, {"fusion_lon": 0.0, "bike_id": "02efc321031512f7153649ef4edc8619", "is_disabled": 0, "is_reserved": 0, "lat": 38.880057666666666, "name": "02efc321031512f7153649ef4edc8619", "rental_uris": {"ios": "https://dc.lft.to/lastmile_qr_scan", "android": "https://dc.lft.to/lastmile_qr_scan"}, "type": "electric_scooter", "fusion_lat": 0.0, "lon": -76.99833883333334}, {"fusion_lon": 0.0, "bike_id": "7f623ecfefc87a26900a76276f1eacb0", "is_disabled": 0, "is_reserved": 0, "lat": 38.90241316666667, "name": "7f623ecfefc87a26900a76276f1eacb0", "rental_uris": {"ios": "https://dc.lft.to/lastmile_qr_scan", "android": "https://dc.lft.to/lastmile_qr_scan"}, "type": "electric_scooter", "fusion_lat": 0.0, "lon": -77.05123433333333}, {"fusion_lon": 0.0, "bike_id": "640fe27e082a611bb83fe015d47aa833", "is_disabled": 0, "is_reserved": 0, "lat": 38.930223, "name": "640fe27e082a611bb83fe015d47aa833", "rental_uris": {"ios": "https://dc.lft.to/lastmile_qr_scan", "android": "https://dc.lft.to/lastmile_qr_scan"}, "type": "electric_scooter", "fusion_lat": 0.0, "lon": -77.01258916666667}, {"fusion_lon": 0.0, "bike_id": "fe3ed86c205f86bd9f0bab5d960e1cfe", "is_disabled": 0, "is_reserved": 0, "lat": 38.9057645, "name": "fe3ed86c205f86bd9f0bab5d960e1cfe", "rental_uris": {"ios": "https://dc.lft.to/lastmile_qr_scan", "android": "https://dc.lft.to/lastmile_qr_scan"}, "type": "electric_scooter", "fusion_lat": 0.0, "lon": -77.029919}, {"fusion_lon": 0.0, "bike_id": "5cfe9478dd8cbc8eab35b02d6905787e", "is_disabled": 0, "is_reserved": 0, "lat": 38.917086, "name": "5cfe9478dd8cbc8eab35b02d6905787e", "rental_uris": {"ios": "https://dc.lft.to/lastmile_qr_scan", "android": "https://dc.lft.to/lastmile_qr_scan"}, "type": "electric_scooter", "fusion_lat": 0.0, "lon": -77.0241545}, {"fusion_lon": 0.0, "bike_id": "dc938901eb0d5974149acf9fc739b16b", "is_disabled": 0, "is_reserved": 0, "lat": 38.90189383333333, "name": "dc938901eb0d5974149acf9fc739b16b", "rental_uris": {"ios": "https://dc.lft.to/lastmile_qr_scan", "android": "https://dc.lft.to/lastmile_qr_scan"}, "type": "electric_scooter", "fusion_lat": 0.0, "lon": -76.97674333333333}, {"fusion_lon": 0.0, "bike_id": "2252c26e2e2635bc5436f71534e70a5c", "is_disabled": 0, "is_reserved": 0, "lat": 38.87290933333333, "name": "2252c26e2e2635bc5436f71534e70a5c", "rental_uris": {"ios": "https://dc.lft.to/lastmile_qr_scan", "android": "https://dc.lft.to/lastmile_qr_scan"}, "type": "electric_scooter", "fusion_lat": 0.0, "lon": -77.00988766666667}, {"fusion_lon": 0.0, "bike_id": "7fcec88ee38b44121f72854455421adb", "is_disabled": 0, "is_reserved": 0, "lat": 38.93094683333333, "name": "7fcec88ee38b44121f72854455421adb", "rental_uris": {"ios": "https://dc.lft.to/lastmile_qr_scan", "android": "https://dc.lft.to/lastmile_qr_scan"}, "type": "electric_scooter", "fusion_lat": 0.0, "lon": -77.02551166666667}, {"fusion_lon": 0.0, "bike_id": "b4d74d11bad383b74dad11ead90219c8", "is_disabled": 0, "is_reserved": 0, "lat": 38.92828433333333, "name": "b4d74d11bad383b74dad11ead90219c8", "rental_uris": {"ios": "https://dc.lft.to/lastmile_qr_scan", "android": "https://dc.lft.to/lastmile_qr_scan"}, "type": "electric_scooter", "fusion_lat": 0.0, "lon": -77.0140505}, {"fusion_lon": 0.0, "bike_id": "2b396cccad14bb8c2249e75c971aef58", "is_disabled": 0, "is_reserved": 0, "lat": 39.034746166666665, "name": "2b396cccad14bb8c2249e75c971aef58", "rental_uris": {"ios": "https://dc.lft.to/lastmile_qr_scan", "android": "https://dc.lft.to/lastmile_qr_scan"}, "type": "electric_bike", "fusion_lat": 0.0, "lon": -77.04102766666666}, {"fusion_lon": 0.0, "bike_id": "b668be377d8743f8e7b922ee8f611d4d", "is_disabled": 0, "is_reserved": 0, "lat": 38.93350016666667, "name": "b668be377d8743f8e7b922ee8f611d4d", "rental_uris": {"ios": "https://dc.lft.to/lastmile_qr_scan", "android": "https://dc.lft.to/lastmile_qr_scan"}, "type": "electric_scooter", "fusion_lat": 0.0, "lon": -77.05711783333334}, {"fusion_lon": 0.0, "bike_id": "c5e87f2eb6dfbd5abe881d14a91026b1", "is_disabled": 0, "is_reserved": 0, "lat": 38.9274395, "name": "c5e87f2eb6dfbd5abe881d14a91026b1", "rental_uris": {"ios": "https://dc.lft.to/lastmile_qr_scan", "android": "https://dc.lft.to/lastmile_qr_scan"}, "type": "electric_scooter", "fusion_lat": 0.0, "lon": -77.03558483333333}, {"fusion_lon": 0.0, "bike_id": "737870397ade201428c897913436b45b", "is_disabled": 0, "is_reserved": 0, "lat": 38.8667405, "name": "737870397ade201428c897913436b45b", "rental_uris": {"ios": "https://dc.lft.to/lastmile_qr_scan", "android": "https://dc.lft.to/lastmile_qr_scan"}, "type": "electric_scooter", "fusion_lat": 0.0, "lon": -76.98510583333334}, {"fusion_lon": 0.0, "bike_id": "6f8aeff2c8b520d9c2db507346955203", "is_disabled": 0, "is_reserved": 0, "lat": 38.86749733333333, "name": "6f8aeff2c8b520d9c2db507346955203", "rental_uris": {"ios": "https://dc.lft.to/lastmile_qr_scan", "android": "https://dc.lft.to/lastmile_qr_scan"}, "type": "electric_scooter", "fusion_lat": 0.0, "lon": -77.00144816666666}, {"fusion_lon": 0.0, "bike_id": "8396d9391e6268c9d86660285ed4d300", "is_disabled": 0, "is_reserved": 0, "lat": 38.92471, "name": "8396d9391e6268c9d86660285ed4d300", "rental_uris": {"ios": "https://dc.lft.to/lastmile_qr_scan", "android": "https://dc.lft.to/lastmile_qr_scan"}, "type": "electric_scooter", "fusion_lat": 0.0, "lon": -77.0221955}, {"fusion_lon": 0.0, "bike_id": "f3ffe0b64e83cac2d9235bdf7e535528", "is_disabled": 0, "is_reserved": 0, "lat": 39.02518933333333, "name": "f3ffe0b64e83cac2d9235bdf7e535528", "rental_uris": {"ios": "https://dc.lft.to/lastmile_qr_scan", "android": "https://dc.lft.to/lastmile_qr_scan"}, "type": "electric_bike", "fusion_lat": 0.0, "lon": -77.01966716666666}, {"fusion_lon": 0.0, "bike_id": "4cafe1adb6f94a62534139209c3f5891", "is_disabled": 0, "is_reserved": 0, "lat": 38.8923695, "name": "4cafe1adb6f94a62534139209c3f5891", "rental_uris": {"ios": "https://dc.lft.to/lastmile_qr_scan", "android": "https://dc.lft.to/lastmile_qr_scan"}, "type": "electric_scooter", "fusion_lat": 0.0, "lon": -77.03199116666667}, {"fusion_lon": 0.0, "bike_id": "aaa15d106c68c7c64a1b506c71c119ff", "is_disabled": 0, "is_reserved": 0, "lat": 38.87660916666667, "name": "aaa15d106c68c7c64a1b506c71c119ff", "rental_uris": {"ios": "https://dc.lft.to/lastmile_qr_scan", "android": "https://dc.lft.to/lastmile_qr_scan"}, "type": "electric_scooter", "fusion_lat": 0.0, "lon": -77.000607}, {"fusion_lon": 0.0, "bike_id": "0ac047d5fd5f7dd11f20032441a5940d", "is_disabled": 0, "is_reserved": 0, "lat": 38.9258045, "name": "0ac047d5fd5f7dd11f20032441a5940d", "rental_uris": {"ios": "https://dc.lft.to/lastmile_qr_scan", "android": "https://dc.lft.to/lastmile_qr_scan"}, "type": "electric_scooter", "fusion_lat": 0.0, "lon": -77.02810616666666}, {"fusion_lon": 0.0, "bike_id": "992e15f56ed370515394e13462887e64", "is_disabled": 0, "is_reserved": 0, "lat": 38.887834833333336, "name": "992e15f56ed370515394e13462887e64", "rental_uris": {"ios": "https://dc.lft.to/lastmile_qr_scan", "android": "https://dc.lft.to/lastmile_qr_scan"}, "type": "electric_scooter", "fusion_lat": 0.0, "lon": -76.95532383333334}, {"fusion_lon": 0.0, "bike_id": "41927126501cd4d4edeb1cd1487f95c6", "is_disabled": 0, "is_reserved": 0, "lat": 38.89743566666667, "name": "41927126501cd4d4edeb1cd1487f95c6", "rental_uris": {"ios": "https://dc.lft.to/lastmile_qr_scan", "android": "https://dc.lft.to/lastmile_qr_scan"}, "type": "electric_scooter", "fusion_lat": 0.0, "lon": -77.00777083333334}, {"fusion_lon": 0.0, "bike_id": "20bf6ce18a3b43304cac3d9a1ced1bd3", "is_disabled": 0, "is_reserved": 0, "lat": 38.921139333333336, "name": "20bf6ce18a3b43304cac3d9a1ced1bd3", "rental_uris": {"ios": "https://dc.lft.to/lastmile_qr_scan", "android": "https://dc.lft.to/lastmile_qr_scan"}, "type": "electric_scooter", "fusion_lat": 0.0, "lon": -77.04206366666666}, {"fusion_lon": 0.0, "bike_id": "2168f914e61b97eec19974c84273c050", "is_disabled": 0, "is_reserved": 0, "lat": 39.085091166666665, "name": "2168f914e61b97eec19974c84273c050", "rental_uris": {"ios": "https://dc.lft.to/lastmile_qr_scan", "android": "https://dc.lft.to/lastmile_qr_scan"}, "type": "electric_bike", "fusion_lat": 0.0, "lon": -76.9506395}, {"fusion_lon": 0.0, "bike_id": "5912f913e75b91a707260c38cf9a7b29", "is_disabled": 0, "is_reserved": 0, "lat": 38.88739616666667, "name": "5912f913e75b91a707260c38cf9a7b29", "rental_uris": {"ios": "https://dc.lft.to/lastmile_qr_scan", "android": "https://dc.lft.to/lastmile_qr_scan"}, "type": "electric_scooter", "fusion_lat": 0.0, "lon": -77.00318066666667}, {"fusion_lon": 0.0, "bike_id": "6106401301bb3d082b64eb412b5a72cd", "is_disabled": 0, "is_reserved": 0, "lat": 38.92095283333333, "name": "6106401301bb3d082b64eb412b5a72cd", "rental_uris": {"ios": "https://dc.lft.to/lastmile_qr_scan", "android": "https://dc.lft.to/lastmile_qr_scan"}, "type": "electric_scooter", "fusion_lat": 0.0, "lon": -77.04687733333333}, {"fusion_lon": 0.0, "bike_id": "6c198fabc8a4d153d751500d912195a2", "is_disabled": 0, "is_reserved": 0, "lat": 38.90514366666667, "name": "6c198fabc8a4d153d751500d912195a2", "rental_uris": {"ios": "https://dc.lft.to/lastmile_qr_scan", "android": "https://dc.lft.to/lastmile_qr_scan"}, "type": "electric_scooter", "fusion_lat": 0.0, "lon": -77.05138716666667}, {"fusion_lon": 0.0, "bike_id": "815b4bf515272e22c7ff3496df2aaafc", "is_disabled": 0, "is_reserved": 0, "lat": 38.90824516666667, "name": "815b4bf515272e22c7ff3496df2aaafc", "rental_uris": {"ios": "https://dc.lft.to/lastmile_qr_scan", "android": "https://dc.lft.to/lastmile_qr_scan"}, "type": "electric_scooter", "fusion_lat": 0.0, "lon": -77.0295705}, {"fusion_lon": 0.0, "bike_id": "03429fe1c229fa12657637689e34d521", "is_disabled": 0, "is_reserved": 0, "lat": 38.94151133333333, "name": "03429fe1c229fa12657637689e34d521", "rental_uris": {"ios": "https://dc.lft.to/lastmile_qr_scan", "android": "https://dc.lft.to/lastmile_qr_scan"}, "type": "electric_bike", "fusion_lat": 0.0, "lon": -77.001972}, {"fusion_lon": 0.0, "bike_id": "6b7712f0ff79bd6a84056dd6a529776a", "is_disabled": 0, "is_reserved": 0, "lat": 38.91188133333333, "name": "6b7712f0ff79bd6a84056dd6a529776a", "rental_uris": {"ios": "https://dc.lft.to/lastmile_qr_scan", "android": "https://dc.lft.to/lastmile_qr_scan"}, "type": "electric_scooter", "fusion_lat": 0.0, "lon": -77.066149}, {"fusion_lon": 0.0, "bike_id": "3705a4b40ecb989048ee4cd84044f3ef", "is_disabled": 0, "is_reserved": 0, "lat": 38.92418966666666, "name": "3705a4b40ecb989048ee4cd84044f3ef", "rental_uris": {"ios": "https://dc.lft.to/lastmile_qr_scan", "android": "https://dc.lft.to/lastmile_qr_scan"}, "type": "electric_scooter", "fusion_lat": 0.0, "lon": -77.021301}, {"fusion_lon": 0.0, "bike_id": "bedd811918c27e26880e54f83553811b", "is_disabled": 0, "is_reserved": 0, "lat": 38.926023, "name": "bedd811918c27e26880e54f83553811b", "rental_uris": {"ios": "https://dc.lft.to/lastmile_qr_scan", "android": "https://dc.lft.to/lastmile_qr_scan"}, "type": "electric_scooter", "fusion_lat": 0.0, "lon": -77.02155616666667}, {"fusion_lon": 0.0, "bike_id": "cdc98a682f0e0ad6215d9fa259affd6b", "is_disabled": 0, "is_reserved": 0, "lat": 38.99894916666667, "name": "cdc98a682f0e0ad6215d9fa259affd6b", "rental_uris": {"ios": "https://dc.lft.to/lastmile_qr_scan", "android": "https://dc.lft.to/lastmile_qr_scan"}, "type": "electric_bike", "fusion_lat": 0.0, "lon": -76.91080033333333}, {"fusion_lon": 0.0, "bike_id": "0026f2b81cf31121c74e35b3896821fc", "is_disabled": 0, "is_reserved": 0, "lat": 38.8855515, "name": "0026f2b81cf31121c74e35b3896821fc", "rental_uris": {"ios": "https://dc.lft.to/lastmile_qr_scan", "android": "https://dc.lft.to/lastmile_qr_scan"}, "type": "electric_scooter", "fusion_lat": 0.0, "lon": -77.020091}, {"fusion_lon": 0.0, "bike_id": "8732355cc90bd20601beeee3ef0afb7c", "is_disabled": 0, "is_reserved": 0, "lat": 38.91146883333333, "name": "8732355cc90bd20601beeee3ef0afb7c", "rental_uris": {"ios": "https://dc.lft.to/lastmile_qr_scan", "android": "https://dc.lft.to/lastmile_qr_scan"}, "type": "electric_scooter", "fusion_lat": 0.0, "lon": -76.9872515}, {"fusion_lon": 0.0, "bike_id": "660348233020b7c77a96ccfef3aa455b", "is_disabled": 0, "is_reserved": 0, "lat": 38.86624483333333, "name": "660348233020b7c77a96ccfef3aa455b", "rental_uris": {"ios": "https://dc.lft.to/lastmile_qr_scan", "android": "https://dc.lft.to/lastmile_qr_scan"}, "type": "electric_bike", "fusion_lat": 0.0, "lon": -76.9457125}, {"fusion_lon": 0.0, "bike_id": "bef9e2c801b0b97c5854d53a055a0193", "is_disabled": 0, "is_reserved": 0, "lat": 38.914291666666664, "name": "bef9e2c801b0b97c5854d53a055a0193", "rental_uris": {"ios": "https://dc.lft.to/lastmile_qr_scan", "android": "https://dc.lft.to/lastmile_qr_scan"}, "type": "electric_scooter", "fusion_lat": 0.0, "lon": -77.0670375}, {"fusion_lon": 0.0, "bike_id": "62d2e12a68fee8cd0c9d33e1e8a21759", "is_disabled": 0, "is_reserved": 0, "lat": 38.91539216666666, "name": "62d2e12a68fee8cd0c9d33e1e8a21759", "rental_uris": {"ios": "https://dc.lft.to/lastmile_qr_scan", "android": "https://dc.lft.to/lastmile_qr_scan"}, "type": "electric_scooter", "fusion_lat": 0.0, "lon": -77.07548333333334}, {"fusion_lon": 0.0, "bike_id": "631869603ddb13b9c86c964b23d9a069", "is_disabled": 0, "is_reserved": 0, "lat": 38.90156116666667, "name": "631869603ddb13b9c86c964b23d9a069", "rental_uris": {"ios": "https://dc.lft.to/lastmile_qr_scan", "android": "https://dc.lft.to/lastmile_qr_scan"}, "type": "electric_scooter", "fusion_lat": 0.0, "lon": -76.98629883333334}, {"fusion_lon": 0.0, "bike_id": "a98b9b5e69aa0f83207edec5b894c55d", "is_disabled": 0, "is_reserved": 0, "lat": 38.8764785, "name": "a98b9b5e69aa0f83207edec5b894c55d", "rental_uris": {"ios": "https://dc.lft.to/lastmile_qr_scan", "android": "https://dc.lft.to/lastmile_qr_scan"}, "type": "electric_scooter", "fusion_lat": 0.0, "lon": -77.00745483333333}, {"fusion_lon": 0.0, "bike_id": "d5b04297259864fa004e7e06841eaa9f", "is_disabled": 0, "is_reserved": 0, "lat": 38.874732333333334, "name": "d5b04297259864fa004e7e06841eaa9f", "rental_uris": {"ios": "https://dc.lft.to/lastmile_qr_scan", "android": "https://dc.lft.to/lastmile_qr_scan"}, "type": "electric_scooter", "fusion_lat": 0.0, "lon": -77.00518766666667}, {"fusion_lon": 0.0, "bike_id": "383082378fedff341d3cc08f340dcd01", "is_disabled": 0, "is_reserved": 0, "lat": 38.883295, "name": "383082378fedff341d3cc08f340dcd01", "rental_uris": {"ios": "https://dc.lft.to/lastmile_qr_scan", "android": "https://dc.lft.to/lastmile_qr_scan"}, "type": "electric_scooter", "fusion_lat": 0.0, "lon": -77.0150335}, {"fusion_lon": 0.0, "bike_id": "6b3678ce1f06da1e59a1308971fe610d", "is_disabled": 0, "is_reserved": 0, "lat": 38.936875666666666, "name": "6b3678ce1f06da1e59a1308971fe610d", "rental_uris": {"ios": "https://dc.lft.to/lastmile_qr_scan", "android": "https://dc.lft.to/lastmile_qr_scan"}, "type": "electric_scooter", "fusion_lat": 0.0, "lon": -77.08431716666666}, {"fusion_lon": 0.0, "bike_id": "d1573cb04bb25089a4e3b7f3ab1d108b", "is_disabled": 0, "is_reserved": 0, "lat": 38.8844015, "name": "d1573cb04bb25089a4e3b7f3ab1d108b", "rental_uris": {"ios": "https://dc.lft.to/lastmile_qr_scan", "android": "https://dc.lft.to/lastmile_qr_scan"}, "type": "electric_scooter", "fusion_lat": 0.0, "lon": -77.03043216666667}, {"fusion_lon": 0.0, "bike_id": "d9f7d1521828c24a8be71648f8cabeb0", "is_disabled": 0, "is_reserved": 0, "lat": 38.9242455, "name": "d9f7d1521828c24a8be71648f8cabeb0", "rental_uris": {"ios": "https://dc.lft.to/lastmile_qr_scan", "android": "https://dc.lft.to/lastmile_qr_scan"}, "type": "electric_scooter", "fusion_lat": 0.0, "lon": -77.020093}, {"fusion_lon": 0.0, "bike_id": "163548a5d52692f42b27dcd5bfcc2368", "is_disabled": 0, "is_reserved": 0, "lat": 38.89625, "name": "163548a5d52692f42b27dcd5bfcc2368", "rental_uris": {"ios": "https://dc.lft.to/lastmile_qr_scan", "android": "https://dc.lft.to/lastmile_qr_scan"}, "type": "electric_bike", "fusion_lat": 0.0, "lon": -76.90748383333333}, {"fusion_lon": 0.0, "bike_id": "aae01cbc194de5c8935347e216811e40", "is_disabled": 0, "is_reserved": 0, "lat": 38.919299, "name": "aae01cbc194de5c8935347e216811e40", "rental_uris": {"ios": "https://dc.lft.to/lastmile_qr_scan", "android": "https://dc.lft.to/lastmile_qr_scan"}, "type": "electric_scooter", "fusion_lat": 0.0, "lon": -77.03174233333333}, {"fusion_lon": 0.0, "bike_id": "fb053158cedb73c17df396767e08876c", "is_disabled": 0, "is_reserved": 0, "lat": 38.91405233333333, "name": "fb053158cedb73c17df396767e08876c", "rental_uris": {"ios": "https://dc.lft.to/lastmile_qr_scan", "android": "https://dc.lft.to/lastmile_qr_scan"}, "type": "electric_scooter", "fusion_lat": 0.0, "lon": -77.01805383333334}, {"fusion_lon": 0.0, "bike_id": "a985ed5357278955339427db3f52a454", "is_disabled": 0, "is_reserved": 0, "lat": 38.905933833333336, "name": "a985ed5357278955339427db3f52a454", "rental_uris": {"ios": "https://dc.lft.to/lastmile_qr_scan", "android": "https://dc.lft.to/lastmile_qr_scan"}, "type": "electric_scooter", "fusion_lat": 0.0, "lon": -77.07009483333333}, {"fusion_lon": 0.0, "bike_id": "c2b0ae2c466e4a00fafdcd071df0cf68", "is_disabled": 0, "is_reserved": 0, "lat": 38.92192566666667, "name": "c2b0ae2c466e4a00fafdcd071df0cf68", "rental_uris": {"ios": "https://dc.lft.to/lastmile_qr_scan", "android": "https://dc.lft.to/lastmile_qr_scan"}, "type": "electric_scooter", "fusion_lat": 0.0, "lon": -77.04019916666667}, {"fusion_lon": 0.0, "bike_id": "85c817e5d3317f10599bdce1694e4684", "is_disabled": 0, "is_reserved": 0, "lat": 38.885158833333335, "name": "85c817e5d3317f10599bdce1694e4684", "rental_uris": {"ios": "https://dc.lft.to/lastmile_qr_scan", "android": "https://dc.lft.to/lastmile_qr_scan"}, "type": "electric_scooter", "fusion_lat": 0.0, "lon": -76.92443283333333}, {"fusion_lon": 0.0, "bike_id": "77cad1de3f3e7498babf1e5fd4c66f8d", "is_disabled": 0, "is_reserved": 0, "lat": 38.885347833333334, "name": "77cad1de3f3e7498babf1e5fd4c66f8d", "rental_uris": {"ios": "https://dc.lft.to/lastmile_qr_scan", "android": "https://dc.lft.to/lastmile_qr_scan"}, "type": "electric_scooter", "fusion_lat": 0.0, "lon": -76.9805595}, {"fusion_lon": 0.0, "bike_id": "d43363f96105eea9c126fb1d449b8a0c", "is_disabled": 0, "is_reserved": 0, "lat": 38.902569166666666, "name": "d43363f96105eea9c126fb1d449b8a0c", "rental_uris": {"ios": "https://dc.lft.to/lastmile_qr_scan", "android": "https://dc.lft.to/lastmile_qr_scan"}, "type": "electric_scooter", "fusion_lat": 0.0, "lon": -76.97700016666667}, {"fusion_lon": 0.0, "bike_id": "97217f52f87c65d13271744e98534c11", "is_disabled": 0, "is_reserved": 0, "lat": 38.892292166666664, "name": "97217f52f87c65d13271744e98534c11", "rental_uris": {"ios": "https://dc.lft.to/lastmile_qr_scan", "android": "https://dc.lft.to/lastmile_qr_scan"}, "type": "electric_scooter", "fusion_lat": 0.0, "lon": -77.024154}, {"fusion_lon": 0.0, "bike_id": "3dc87550c6febfcdaf748730bd824fdb", "is_disabled": 0, "is_reserved": 0, "lat": 38.9353845, "name": "3dc87550c6febfcdaf748730bd824fdb", "rental_uris": {"ios": "https://dc.lft.to/lastmile_qr_scan", "android": "https://dc.lft.to/lastmile_qr_scan"}, "type": "electric_scooter", "fusion_lat": 0.0, "lon": -77.03481416666666}, {"fusion_lon": 0.0, "bike_id": "976021add8cd962bc7d0926697019f3f", "is_disabled": 0, "is_reserved": 0, "lat": 38.9018445, "name": "976021add8cd962bc7d0926697019f3f", "rental_uris": {"ios": "https://dc.lft.to/lastmile_qr_scan", "android": "https://dc.lft.to/lastmile_qr_scan"}, "type": "electric_scooter", "fusion_lat": 0.0, "lon": -77.0222295}, {"fusion_lon": 0.0, "bike_id": "819ae8c6f182bff0a7b4004cfe05268f", "is_disabled": 0, "is_reserved": 0, "lat": 38.92637233333333, "name": "819ae8c6f182bff0a7b4004cfe05268f", "rental_uris": {"ios": "https://dc.lft.to/lastmile_qr_scan", "android": "https://dc.lft.to/lastmile_qr_scan"}, "type": "electric_scooter", "fusion_lat": 0.0, "lon": -77.03694733333333}, {"fusion_lon": 0.0, "bike_id": "77f9dfc025477ce4e29138761f7d5f1b", "is_disabled": 0, "is_reserved": 0, "lat": 38.924800833333336, "name": "77f9dfc025477ce4e29138761f7d5f1b", "rental_uris": {"ios": "https://dc.lft.to/lastmile_qr_scan", "android": "https://dc.lft.to/lastmile_qr_scan"}, "type": "electric_scooter", "fusion_lat": 0.0, "lon": -77.022155}, {"fusion_lon": 0.0, "bike_id": "eb8eed1e37650ef7e69c977ff93b4a56", "is_disabled": 0, "is_reserved": 0, "lat": 38.87534483333334, "name": "eb8eed1e37650ef7e69c977ff93b4a56", "rental_uris": {"ios": "https://dc.lft.to/lastmile_qr_scan", "android": "https://dc.lft.to/lastmile_qr_scan"}, "type": "electric_scooter", "fusion_lat": 0.0, "lon": -77.00507483333334}, {"fusion_lon": 0.0, "bike_id": "932aa6c7ff4e1b05d3a7c7c9f08507b9", "is_disabled": 0, "is_reserved": 0, "lat": 38.93087083333333, "name": "932aa6c7ff4e1b05d3a7c7c9f08507b9", "rental_uris": {"ios": "https://dc.lft.to/lastmile_qr_scan", "android": "https://dc.lft.to/lastmile_qr_scan"}, "type": "electric_scooter", "fusion_lat": 0.0, "lon": -77.03443583333333}, {"fusion_lon": 0.0, "bike_id": "859e264224eceb086a3ed6f332e008f5", "is_disabled": 0, "is_reserved": 0, "lat": 38.92194383333333, "name": "859e264224eceb086a3ed6f332e008f5", "rental_uris": {"ios": "https://dc.lft.to/lastmile_qr_scan", "android": "https://dc.lft.to/lastmile_qr_scan"}, "type": "electric_scooter", "fusion_lat": 0.0, "lon": -77.0994215}, {"fusion_lon": 0.0, "bike_id": "9c2ecbaf536be9aedb35da7b30878bbe", "is_disabled": 0, "is_reserved": 0, "lat": 38.9168655, "name": "9c2ecbaf536be9aedb35da7b30878bbe", "rental_uris": {"ios": "https://dc.lft.to/lastmile_qr_scan", "android": "https://dc.lft.to/lastmile_qr_scan"}, "type": "electric_scooter", "fusion_lat": 0.0, "lon": -77.015809}, {"fusion_lon": 0.0, "bike_id": "b43142fe63a050a4076506e9c0b85259", "is_disabled": 0, "is_reserved": 0, "lat": 38.899639666666666, "name": "b43142fe63a050a4076506e9c0b85259", "rental_uris": {"ios": "https://dc.lft.to/lastmile_qr_scan", "android": "https://dc.lft.to/lastmile_qr_scan"}, "type": "electric_scooter", "fusion_lat": 0.0, "lon": -77.03356183333334}, {"fusion_lon": 0.0, "bike_id": "87f1a90a8d3ca5cff160c1d51f4f5625", "is_disabled": 0, "is_reserved": 0, "lat": 38.90051866666667, "name": "87f1a90a8d3ca5cff160c1d51f4f5625", "rental_uris": {"ios": "https://dc.lft.to/lastmile_qr_scan", "android": "https://dc.lft.to/lastmile_qr_scan"}, "type": "electric_scooter", "fusion_lat": 0.0, "lon": -77.04433133333333}, {"fusion_lon": 0.0, "bike_id": "538f90150a1d10d28e5dfd01e78fe63b", "is_disabled": 0, "is_reserved": 0, "lat": 38.8427585, "name": "538f90150a1d10d28e5dfd01e78fe63b", "rental_uris": {"ios": "https://dc.lft.to/lastmile_qr_scan", "android": "https://dc.lft.to/lastmile_qr_scan"}, "type": "electric_bike", "fusion_lat": 0.0, "lon": -76.98841383333334}, {"fusion_lon": 0.0, "bike_id": "b885027c5eddff1c4873953823388904", "is_disabled": 0, "is_reserved": 0, "lat": 38.925995, "name": "b885027c5eddff1c4873953823388904", "rental_uris": {"ios": "https://dc.lft.to/lastmile_qr_scan", "android": "https://dc.lft.to/lastmile_qr_scan"}, "type": "electric_scooter", "fusion_lat": 0.0, "lon": -77.02496316666667}, {"fusion_lon": 0.0, "bike_id": "8eb1d34c4790fc3c206570518f9cd02d", "is_disabled": 0, "is_reserved": 0, "lat": 38.89472966666666, "name": "8eb1d34c4790fc3c206570518f9cd02d", "rental_uris": {"ios": "https://dc.lft.to/lastmile_qr_scan", "android": "https://dc.lft.to/lastmile_qr_scan"}, "type": "electric_scooter", "fusion_lat": 0.0, "lon": -76.98596}, {"fusion_lon": 0.0, "bike_id": "b1e37d99bbee4f3e177a94d96d71f501", "is_disabled": 0, "is_reserved": 0, "lat": 38.89914266666667, "name": "b1e37d99bbee4f3e177a94d96d71f501", "rental_uris": {"ios": "https://dc.lft.to/lastmile_qr_scan", "android": "https://dc.lft.to/lastmile_qr_scan"}, "type": "electric_scooter", "fusion_lat": 0.0, "lon": -76.93394483333333}, {"fusion_lon": 0.0, "bike_id": "2a2cc1aa3c1dbcb864947e3d1ea8ebe6", "is_disabled": 0, "is_reserved": 0, "lat": 38.917059, "name": "2a2cc1aa3c1dbcb864947e3d1ea8ebe6", "rental_uris": {"ios": "https://dc.lft.to/lastmile_qr_scan", "android": "https://dc.lft.to/lastmile_qr_scan"}, "type": "electric_scooter", "fusion_lat": 0.0, "lon": -77.0312235}, {"fusion_lon": 0.0, "bike_id": "e80c03d91711a0bde2b6a87b36ccbe1f", "is_disabled": 0, "is_reserved": 0, "lat": 38.912540666666665, "name": "e80c03d91711a0bde2b6a87b36ccbe1f", "rental_uris": {"ios": "https://dc.lft.to/lastmile_qr_scan", "android": "https://dc.lft.to/lastmile_qr_scan"}, "type": "electric_scooter", "fusion_lat": 0.0, "lon": -77.04767533333333}, {"fusion_lon": 0.0, "bike_id": "ac88a7d9d8cf5dc5ff627ae51baac989", "is_disabled": 0, "is_reserved": 0, "lat": 38.92169116666667, "name": "ac88a7d9d8cf5dc5ff627ae51baac989", "rental_uris": {"ios": "https://dc.lft.to/lastmile_qr_scan", "android": "https://dc.lft.to/lastmile_qr_scan"}, "type": "electric_scooter", "fusion_lat": 0.0, "lon": -77.03188533333334}, {"fusion_lon": 0.0, "bike_id": "202b9bb399ba9aa320dc26d1d490ca41", "is_disabled": 0, "is_reserved": 0, "lat": 38.90578383333333, "name": "202b9bb399ba9aa320dc26d1d490ca41", "rental_uris": {"ios": "https://dc.lft.to/lastmile_qr_scan", "android": "https://dc.lft.to/lastmile_qr_scan"}, "type": "electric_scooter", "fusion_lat": 0.0, "lon": -77.00560716666666}, {"fusion_lon": 0.0, "bike_id": "f4878b5c001a828037381d9f0ecaad15", "is_disabled": 0, "is_reserved": 0, "lat": 38.93115366666667, "name": "f4878b5c001a828037381d9f0ecaad15", "rental_uris": {"ios": "https://dc.lft.to/lastmile_qr_scan", "android": "https://dc.lft.to/lastmile_qr_scan"}, "type": "electric_scooter", "fusion_lat": 0.0, "lon": -77.02098333333333}, {"fusion_lon": 0.0, "bike_id": "7a0659dbb3db8f573a0cf68c3580737b", "is_disabled": 0, "is_reserved": 0, "lat": 38.87908766666666, "name": "7a0659dbb3db8f573a0cf68c3580737b", "rental_uris": {"ios": "https://dc.lft.to/lastmile_qr_scan", "android": "https://dc.lft.to/lastmile_qr_scan"}, "type": "electric_scooter", "fusion_lat": 0.0, "lon": -76.9447375},