{"data": {"bikes": [{"lat": 38.90254133333333, "is_disabled": 0, "type": "electric_scooter", "lon": -77.028119, "bike_id": "1329e9458df90769d51773481f2fec05", "fusion_lat": 0.0, "name": "1329e9458df90769d51773481f2fec05", "is_reserved": 0, "rental_uris": {"android": "https://dc.lft.to/lastmile_qr_scan", "ios": "https://dc.lft.to/lastmile_qr_scan"}, "fusion_lon": 0.0}, {"lat": 38.898464833333335, "is_disabled": 0, "type": "electric_scooter", "lon": -76.981848, "bike_id": "056243196342c5b441ecea1b7a2d7c1e", "fusion_lat": 0.0, "name": "056243196342c5b441ecea1b7a2d7c1e", "is_reserved": 0, "rental_uris": {"android": "https://dc.lft.to/lastmile_qr_scan", "ios": "https://dc.lft.to/lastmile_qr_scan"}, "fusion_lon": 0.0}, {"lat": 38.917570833333336, "is_disabled": 0, "type": "electric_scooter", "lon": -77.035985, "bike_id": "984b49c6db3f112347691e1e989de779", "fusion_lat": 0.0, "name": "984b49c6db3f112347691e1e989de779", "is_reserved": 0, "rental_uris": {"android": "https://dc.lft.to/lastmile_qr_scan", "ios": "https://dc.lft.to/lastmile_qr_scan"}, "fusion_lon": 0.0}, {"lat": 38.92254916666667, "is_disabled": 0, "type": "electric_scooter", "lon": -77.03084733333333, "bike_id": "1ea7be6aad74fc96da178c5a5cffd607", "fusion_lat": 0.0, "name": "1ea7be6aad74fc96da178c5a5cffd607", "is_reserved": 0, "rental_uris": {"android": "https://dc.lft.to/lastmile_qr_scan", "ios": "https://dc.lft.to/lastmile_qr_scan"}, "fusion_lon": 0.0}, {"lat": 38.92599366666666, "is_disabled": 0, "type": "electric_scooter", "lon": -77.05688283333333, "bike_id": "ba1d48ecccf841354b2e8584d879b0d1", "fusion_lat": 0.0, "name": "ba1d48ecccf841354b2e8584d879b0d1", "is_reserved": 0, "rental_uris": {"android": "https://dc.lft.to/lastmile_qr_scan", "ios": "https://dc.lft.to/lastmile_qr_scan"}, "fusion_lon": 0.0}, {"lat": 38.954044833333334, "is_disabled": 0, "type": "electric_scooter", "lon": -77.02745683333333, "bike_id": "dbaba4a07b55275b253a60adefe49ac8", "fusion_lat": 0.0, "name": "dbaba4a07b55275b253a60adefe49ac8", "is_reserved": 0, "rental_uris": {"android": "https://dc.lft.to/lastmile_qr_scan", "ios": "https://dc.lft.to/lastmile_qr_scan"}, "fusion_lon": 0.0}, {"lat": 38.8858275, "is_disabled": 0, "type": "electric_scooter", "lon": -76.91914716666666, "bike_id": "a9a963c6caccbded5b35e0f7375c71b7", "fusion_lat": 0.0, "name": "a9a963c6caccbded5b35e0f7375c71b7", "is_reserved": 0, "rental_uris": {"android": "https://dc.lft.to/lastmile_qr_scan", "ios": "https://dc.lft.to/lastmile_qr_scan"}, "fusion_lon": 0.0}, {"lat": 38.92192983333333, "is_disabled": 0, "type": "electric_scooter", "lon": -77.04711133333333, "bike_id": "7cd7b9b07a430d01ccdb258fef5aa310", "fusion_lat": 0.0, "name": "7cd7b9b07a430d01ccdb258fef5aa310", "is_reserved": 0, "rental_uris": {"android": "https://dc.lft.to/lastmile_qr_scan", "ios": "https://dc.lft.to/lastmile_qr_scan"}, "fusion_lon": 0.0}, {"lat": 38.937516, "is_disabled": 0, "type": "electric_scooter", "lon": -77.03472183333334, "bike_id": "c0f5ab2a46aac1d579f862ad3df5f21f", "fusion_lat": 0.0, "name": "c0f5ab2a46aac1d579f862ad3df5f21f", "is_reserved": 0, "rental_uris": {"android": "https://dc.lft.to/lastmile_qr_scan", "ios": "https://dc.lft.to/lastmile_qr_scan"}, "fusion_lon": 0.0}, {"lat": 38.927461666666666, "is_disabled": 0, "type": "electric_scooter", "lon": -77.025984, "bike_id": "8edb8d7327d9f9cd7d0225c84cc9864b", "fusion_lat": 0.0, "name": "8edb8d7327d9f9cd7d0225c84cc9864b", "is_reserved": 0, "rental_uris": {"android": "https://dc.lft.to/lastmile_qr_scan", "ios": "https://dc.lft.to/lastmile_qr_scan"}, "fusion_lon": 0.0}, {"lat": 38.92092816666667, "is_disabled": 0, "type": "electric_scooter", "lon": -77.041991, "bike_id": "b726f2cb34200a5d15afb9a95bbeeaa3", "fusion_lat": 0.0, "name": "b726f2cb34200a5d15afb9a95bbeeaa3", "is_reserved": 0, "rental_uris": {"android": "https://dc.lft.to/lastmile_qr_scan", "ios": "https://dc.lft.to/lastmile_qr_scan"}, "fusion_lon": 0.0}, {"lat": 38.88437733333333, "is_disabled": 0, "type": "electric_bike", "lon": -77.00082783333333, "bike_id": "08736682bdddac9c56a395b2e6ecfcda", "fusion_lat": 0.0, "name": "08736682bdddac9c56a395b2e6ecfcda", "is_reserved": 0, "rental_uris": {"android": "https://dc.lft.to/lastmile_qr_scan", "ios": "https://dc.lft.to/lastmile_qr_scan"}, "fusion_lon": 0.0}, {"lat": 38.903717, "is_disabled": 0, "type": "electric_scooter", "lon": -77.0363625, "bike_id": "e07e554eb5a22747fe5fda97f40e0af6", "fusion_lat": 0.0, "name": "e07e554eb5a22747fe5fda97f40e0af6", "is_reserved": 0, "rental_uris": {"android": "https://dc.lft.to/lastmile_qr_scan", "ios": "https://dc.lft.to/lastmile_qr_scan"}, "fusion_lon": 0.0}, {"lat": 38.91819516666666, "is_disabled": 0, "type": "electric_scooter", "lon": -77.04528866666666, "bike_id": "fecdadd26c03d48c810c026c3c7e0d48", "fusion_lat": 0.0, "name": "fecdadd26c03d48c810c026c3c7e0d48", "is_reserved": 0, "rental_uris": {"android": "https://dc.lft.to/lastmile_qr_scan", "ios": "https://dc.lft.to/lastmile_qr_scan"}, "fusion_lon": 0.0}, {"lat": 38.90163966666667, "is_disabled": 0, "type": "electric_bike", "lon": -76.980729, "bike_id": "77e8dfe39be9ba5a56561396b85b119b", "fusion_lat": 0.0, "name": "77e8dfe39be9ba5a56561396b85b119b", "is_reserved": 0, "rental_uris": {"android": "https://dc.lft.to/lastmile_qr_scan", "ios": "https://dc.lft.to/lastmile_qr_scan"}, "fusion_lon": 0.0}, {"lat": 38.89906116666667, "is_disabled": 0, "type": "electric_scooter", "lon": -77.07228283333333, "bike_id": "0f38e03466db073226dd216980d9f004", "fusion_lat": 0.0, "name": "0f38e03466db073226dd216980d9f004", "is_reserved": 0, "rental_uris": {"android": "https://dc.lft.to/lastmile_qr_scan", "ios": "https://dc.lft.to/lastmile_qr_scan"}, "fusion_lon": 0.0}, {"lat": 38.9329285, "is_disabled": 0, "type": "electric_scooter", "lon": -77.02196183333334, "bike_id": "a8c2c37ea9b552e213a155e64a18b4dd", "fusion_lat": 0.0, "name": "a8c2c37ea9b552e213a155e64a18b4dd", "is_reserved": 0, "rental_uris": {"android": "https://dc.lft.to/lastmile_qr_scan", "ios": "https://dc.lft.to/lastmile_qr_scan"}, "fusion_lon": 0.0}, {"lat": 38.91252016666667, "is_disabled": 0, "type": "electric_scooter", "lon": -77.04661933333334, "bike_id": "80caf29e1230b834aa914006d37c2672", "fusion_lat": 0.0, "name": "80caf29e1230b834aa914006d37c2672", "is_reserved": 0, "rental_uris": {"android": "https://dc.lft.to/lastmile_qr_scan", "ios": "https://dc.lft.to/lastmile_qr_scan"}, "fusion_lon": 0.0}, {"lat": 38.872798, "is_disabled": 0, "type": "electric_scooter", "lon": -77.009188, "bike_id": "e65a7a40b026cf3aa697451b88f598ba", "fusion_lat": 0.0, "name": "e65a7a40b026cf3aa697451b88f598ba", "is_reserved": 0, "rental_uris": {"android": "https://dc.lft.to/lastmile_qr_scan", "ios": "https://dc.lft.to/lastmile_qr_scan"}, "fusion_lon": 0.0}, {"lat": 38.90354166666667, "is_disabled": 0, "type": "electric_scooter", "lon": -77.04514616666667, "bike_id": "b0c6402707ab7cc090146e8d1837c08a", "fusion_lat": 0.0, "name": "b0c6402707ab7cc090146e8d1837c08a", "is_reserved": 0, "rental_uris": {"android": "https://dc.lft.to/lastmile_qr_scan", "ios": "https://dc.lft.to/lastmile_qr_scan"}, "fusion_lon": 0.0}, {"lat": 38.90129533333333, "is_disabled": 0, "type": "electric_scooter", "lon": -77.03364183333333, "bike_id": "62a9b67e863eda2ae13b4dba16d30f69", "fusion_lat": 0.0, "name": "62a9b67e863eda2ae13b4dba16d30f69", "is_reserved": 0, "rental_uris": {"android": "https://dc.lft.to/lastmile_qr_scan", "ios": "https://dc.lft.to/lastmile_qr_scan"}, "fusion_lon": 0.0}, {"lat": 38.90697, "is_disabled": 0, "type": "electric_bike", "lon": -77.0819995, "bike_id": "fab0f9bb9f943ba64d9947d9b69a5bf1", "fusion_lat": 0.0, "name": "fab0f9bb9f943ba64d9947d9b69a5bf1", "is_reserved": 0, "rental_uris": {"android": "https://dc.lft.to/lastmile_qr_scan", "ios": "https://dc.lft.to/lastmile_qr_scan"}, "fusion_lon": 0.0}, {"lat": 38.923066, "is_disabled": 0, "type": "electric_scooter", "lon": -77.02331983333333, "bike_id": "13d6f78b5b15fa17cf229ec524f613c6", "fusion_lat": 0.0, "name": "13d6f78b5b15fa17cf229ec524f613c6", "is_reserved": 0, "rental_uris": {"android": "https://dc.lft.to/lastmile_qr_scan", "ios": "https://dc.lft.to/lastmile_qr_scan"}, "fusion_lon": 0.0}, {"lat": 38.90107583333333, "is_disabled": 0, "type": "electric_scooter", "lon": -77.059022, "bike_id": "936b8371ab73f8fb53ffc1021b0b9447", "fusion_lat": 0.0, "name": "936b8371ab73f8fb53ffc1021b0b9447", "is_reserved": 0, "rental_uris": {"android": "https://dc.lft.to/lastmile_qr_scan", "ios": "https://dc.lft.to/lastmile_qr_scan"}, "fusion_lon": 0.0}, {"lat": 38.93984233333333, "is_disabled": 0, "type": "electric_scooter", "lon": -77.0263195, "bike_id": "79feeea74edb9cfbb342b885cbec25c5", "fusion_lat": 0.0, "name": "79feeea74edb9cfbb342b885cbec25c5", "is_reserved": 0, "rental_uris": {"android": "https://dc.lft.to/lastmile_qr_scan", "ios": "https://dc.lft.to/lastmile_qr_scan"}, "fusion_lon": 0.0}, {"lat": 38.90453383333333, "is_disabled": 0, "type": "electric_scooter", "lon": -77.05015883333333, "bike_id": "f8f1596ac275f0368607ba6fac821bf2", "fusion_lat": 0.0, "name": "f8f1596ac275f0368607ba6fac821bf2", "is_reserved": 0, "rental_uris": {"android": "https://dc.lft.to/lastmile_qr_scan", "ios": "https://dc.lft.to/lastmile_qr_scan"}, "fusion_lon": 0.0}, {"lat": 38.931173333333334, "is_disabled": 0, "type": "electric_scooter", "lon": -77.03510116666666, "bike_id": "779e6c18316d67fcb567b8e825474890", "fusion_lat": 0.0, "name": "779e6c18316d67fcb567b8e825474890", "is_reserved": 0, "rental_uris": {"android": "https://dc.lft.to/lastmile_qr_scan", "ios": "https://dc.lft.to/lastmile_qr_scan"}, "fusion_lon": 0.0}, {"lat": 38.901993, "is_disabled": 0, "type": "electric_scooter", "lon": -77.02174266666667, "bike_id": "d9849ce6eefe298941010f16f3283ec3", "fusion_lat": 0.0, "name": "d9849ce6eefe298941010f16f3283ec3", "is_reserved": 0, "rental_uris": {"android": "https://dc.lft.to/lastmile_qr_scan", "ios": "https://dc.lft.to/lastmile_qr_scan"}, "fusion_lon": 0.0}, {"lat": 38.91486166666667, "is_disabled": 0, "type": "electric_scooter", "lon": -76.98362966666667, "bike_id": "bdde3e309b7a87519ccb741a6eb0ecf7", "fusion_lat": 0.0, "name": "bdde3e309b7a87519ccb741a6eb0ecf7", "is_reserved": 0, "rental_uris": {"android": "https://dc.lft.to/lastmile_qr_scan", "ios": "https://dc.lft.to/lastmile_qr_scan"}, "fusion_lon": 0.0}, {"lat": 38.940765, "is_disabled": 0, "type": "electric_scooter", "lon": -77.06139483333334, "bike_id": "bdfba2dcebea9a866cdd96d2767b00a0", "fusion_lat": 0.0, "name": "bdfba2dcebea9a866cdd96d2767b00a0", "is_reserved": 0, "rental_uris": {"android": "https://dc.lft.to/lastmile_qr_scan", "ios": "https://dc.lft.to/lastmile_qr_scan"}, "fusion_lon": 0.0}, {"lat": 38.876341333333336, "is_disabled": 0, "type": "electric_scooter", "lon": -76.9652595, "bike_id": "a278a491e4f95484201e54b0cc471607", "fusion_lat": 0.0, "name": "a278a491e4f95484201e54b0cc471607", "is_reserved": 0, "rental_uris": {"android": "https://dc.lft.to/lastmile_qr_scan", "ios": "https://dc.lft.to/lastmile_qr_scan"}, "fusion_lon": 0.0}, {"lat": 38.93213183333334, "is_disabled": 0, "type": "electric_scooter", "lon": -77.044329, "bike_id": "5ea3776c6e6698b31f6f9680ea4c935e", "fusion_lat": 0.0, "name": "5ea3776c6e6698b31f6f9680ea4c935e", "is_reserved": 0, "rental_uris": {"android": "https://dc.lft.to/lastmile_qr_scan", "ios": "https://dc.lft.to/lastmile_qr_scan"}, "fusion_lon": 0.0}, {"lat": 38.93134633333333, "is_disabled": 0, "type": "electric_scooter", "lon": -77.032883, "bike_id": "e5c7bf42e7d7146e419ded5e68b329c5", "fusion_lat": 0.0, "name": "e5c7bf42e7d7146e419ded5e68b329c5", "is_reserved": 0, "rental_uris": {"android": "https://dc.lft.to/lastmile_qr_scan", "ios": "https://dc.lft.to/lastmile_qr_scan"}, "fusion_lon": 0.0}, {"lat": 38.89909816666667, "is_disabled": 0, "type": "electric_scooter", "lon": -77.0072545, "bike_id": "9ed0317f58f3e2a634ed2b6ec1c22c92", "fusion_lat": 0.0, "name": "9ed0317f58f3e2a634ed2b6ec1c22c92", "is_reserved": 0, "rental_uris": {"android": "https://dc.lft.to/lastmile_qr_scan", "ios": "https://dc.lft.to/lastmile_qr_scan"}, "fusion_lon": 0.0}, {"lat": 38.9229585, "is_disabled": 0, "type": "electric_scooter", "lon": -77.04016233333333, "bike_id": "7fa1d13f0574d3e70d0809bc6f5b2b18", "fusion_lat": 0.0, "name": "7fa1d13f0574d3e70d0809bc6f5b2b18", "is_reserved": 0, "rental_uris": {"android": "https://dc.lft.to/lastmile_qr_scan", "ios": "https://dc.lft.to/lastmile_qr_scan"}, "fusion_lon": 0.0}, {"lat": 38.901999833333335, "is_disabled": 0, "type": "electric_scooter", "lon": -77.0232275, "bike_id": "81809db26fe7453b615c2eb82ee88333", "fusion_lat": 0.0, "name": "81809db26fe7453b615c2eb82ee88333", "is_reserved": 0, "rental_uris": {"android": "https://dc.lft.to/lastmile_qr_scan", "ios": "https://dc.lft.to/lastmile_qr_scan"}, "fusion_lon": 0.0}, {"lat": 38.961180166666665, "is_disabled": 0, "type": "electric_scooter", "lon": -77.028135, "bike_id": "d8ee8ceed49d45da3b6404e7e16f0ea1", "fusion_lat": 0.0, "name": "d8ee8ceed49d45da3b6404e7e16f0ea1", "is_reserved": 0, "rental_uris": {"android": "https://dc.lft.to/lastmile_qr_scan", "ios": "https://dc.lft.to/lastmile_qr_scan"}, "fusion_lon": 0.0}, {"lat": 38.907519, "is_disabled": 0, "type": "electric_scooter", "lon": -77.03216966666666, "bike_id": "ebc8b12bd83ac5055585e209b7bc812c", "fusion_lat": 0.0, "name": "ebc8b12bd83ac5055585e209b7bc812c", "is_reserved": 0, "rental_uris": {"android": "https://dc.lft.to/lastmile_qr_scan", "ios": "https://dc.lft.to/lastmile_qr_scan"}, "fusion_lon": 0.0}, {"lat": 38.92122666666667, "is_disabled": 0, "type": "electric_scooter", "lon": -77.01820216666667, "bike_id": "d03dc9fc237aed6b6e477edb03710eef", "fusion_lat": 0.0, "name": "d03dc9fc237aed6b6e477edb03710eef", "is_reserved": 0, "rental_uris": {"android": "https://dc.lft.to/lastmile_qr_scan", "ios": "https://dc.lft.to/lastmile_qr_scan"}, "fusion_lon": 0.0}, {"lat": 38.892311166666666, "is_disabled": 0, "type": "electric_scooter", "lon": -77.021201, "bike_id": "0b03b4940c0fe42fa61d509247c59d33", "fusion_lat": 0.0, "name": "0b03b4940c0fe42fa61d509247c59d33", "is_reserved": 0, "rental_uris": {"android": "https://dc.lft.to/lastmile_qr_scan", "ios": "https://dc.lft.to/lastmile_qr_scan"}, "fusion_lon": 0.0}, {"lat": 38.92669183333334, "is_disabled": 0, "type": "electric_scooter", "lon": -77.01470183333333, "bike_id": "e1fe26c7c04617f52294b5f5e903a78c", "fusion_lat": 0.0, "name": "e1fe26c7c04617f52294b5f5e903a78c", "is_reserved": 0, "rental_uris": {"android": "https://dc.lft.to/lastmile_qr_scan", "ios": "https://dc.lft.to/lastmile_qr_scan"}, "fusion_lon": 0.0}, {"lat": 38.909866666666666, "is_disabled": 0, "type": "electric_scooter", "lon": -77.03443433333334, "bike_id": "dfdcee299cf65e7021548983136e2326", "fusion_lat": 0.0, "name": "dfdcee299cf65e7021548983136e2326", "is_reserved": 0, "rental_uris": {"android": "https://dc.lft.to/lastmile_qr_scan", "ios": "https://dc.lft.to/lastmile_qr_scan"}, "fusion_lon": 0.0}, {"lat": 38.9064775, "is_disabled": 0, "type": "electric_scooter", "lon": -77.03465916666667, "bike_id": "1ce223f0941b0d4f4f635f1e867d7369", "fusion_lat": 0.0, "name": "1ce223f0941b0d4f4f635f1e867d7369", "is_reserved": 0, "rental_uris": {"android": "https://dc.lft.to/lastmile_qr_scan", "ios": "https://dc.lft.to/lastmile_qr_scan"}, "fusion_lon": 0.0}, {"lat": 38.9258915, "is_disabled": 0, "type": "electric_scooter", "lon": -77.05757716666666, "bike_id": "672ec00bcb558e7e8b8f53239923861a", "fusion_lat": 0.0, "name": "672ec00bcb558e7e8b8f53239923861a", "is_reserved": 0, "rental_uris": {"android": "https://dc.lft.to/lastmile_qr_scan", "ios": "https://dc.lft.to/lastmile_qr_scan"}, "fusion_lon": 0.0}, {"lat": 38.90368983333333, "is_disabled": 0, "type": "electric_scooter", "lon": -77.01866066666666, "bike_id": "7ddd78744795b2dbf2f0989b9ac33980", "fusion_lat": 0.0, "name": "7ddd78744795b2dbf2f0989b9ac33980", "is_reserved": 0, "rental_uris": {"android": "https://dc.lft.to/lastmile_qr_scan", "ios": "https://dc.lft.to/lastmile_qr_scan"}, "fusion_lon": 0.0}, {"lat": 38.9156445, "is_disabled": 0, "type": "electric_scooter", "lon": -77.05319783333333, "bike_id": "66224491d6b2df23eeb79225948b29b6", "fusion_lat": 0.0, "name": "66224491d6b2df23eeb79225948b29b6", "is_reserved": 0, "rental_uris": {"android": "https://dc.lft.to/lastmile_qr_scan", "ios": "https://dc.lft.to/lastmile_qr_scan"}, "fusion_lon": 0.0}, {"lat": 38.89537333333333, "is_disabled": 0, "type": "electric_scooter", "lon": -77.02835716666667, "bike_id": "4320fab2c6426a0bf16fc749c9113ca9", "fusion_lat": 0.0, "name": "4320fab2c6426a0bf16fc749c9113ca9", "is_reserved": 0, "rental_uris": {"android": "https://dc.lft.to/lastmile_qr_scan", "ios": "https://dc.lft.to/lastmile_qr_scan"}, "fusion_lon": 0.0}, {"lat": 38.8990395, "is_disabled": 0, "type": "electric_scooter", "lon": -76.93357366666666, "bike_id": "b948df58dd9ac509e66bf6bcf6dc8d99", "fusion_lat": 0.0, "name": "b948df58dd9ac509e66bf6bcf6dc8d99", "is_reserved": 0, "rental_uris": {"android": "https://dc.lft.to/lastmile_qr_scan", "ios": "https://dc.lft.to/lastmile_qr_scan"}, "fusion_lon": 0.0}, {"lat": 38.930661, "is_disabled": 0, "type": "electric_scooter", "lon": -77.0418155, "bike_id": "7cd1736dcda8acf91efadca6704b9012", "fusion_lat": 0.0, "name": "7cd1736dcda8acf91efadca6704b9012", "is_reserved": 0, "rental_uris": {"android": "https://dc.lft.to/lastmile_qr_scan", "ios": "https://dc.lft.to/lastmile_qr_scan"}, "fusion_lon": 0.0}, {"lat": 38.908604, "is_disabled": 0, "type": "electric_scooter", "lon": -76.99168533333334, "bike_id": "014347fc96e956a5a65097b131361e61", "fusion_lat": 0.0, "name": "014347fc96e956a5a65097b131361e61", "is_reserved": 0, "rental_uris": {"android": "https://dc.lft.to/lastmile_qr_scan", "ios": "https://dc.lft.to/lastmile_qr_scan"}, "fusion_lon": 0.0}, {"lat": 38.90628616666667, "is_disabled": 0, "type": "electric_scooter", "lon": -76.98987333333334, "bike_id": "aaed4b8efb9dd744b80bd8040bac8729", "fusion_lat": 0.0, "name": "aaed4b8efb9dd744b80bd8040bac8729", "is_reserved": 0, "rental_uris": {"android": "https://dc.lft.to/lastmile_qr_scan", "ios": "https://dc.lft.to/lastmile_qr_scan"}, "fusion_lon": 0.0}, {"lat": 38.9274515, "is_disabled": 0, "type": "electric_scooter", "lon": -77.0253395, "bike_id": "d7be3b259781ea686e386c55a1d67093", "fusion_lat": 0.0, "name": "d7be3b259781ea686e386c55a1d67093", "is_reserved": 0, "rental_uris": {"android": "https://dc.lft.to/lastmile_qr_scan", "ios": "https://dc.lft.to/lastmile_qr_scan"}, "fusion_lon": 0.0}, {"lat": 38.859135, "is_disabled": 0, "type": "electric_scooter", "lon": -76.991505, "bike_id": "29d89f568e9d28ace83bb7f399b41ce6", "fusion_lat": 0.0, "name": "29d89f568e9d28ace83bb7f399b41ce6", "is_reserved": 0, "rental_uris": {"android": "https://dc.lft.to/lastmile_qr_scan", "ios": "https://dc.lft.to/lastmile_qr_scan"}, "fusion_lon": 0.0}, {"lat": 38.891241, "is_disabled": 0, "type": "electric_scooter", "lon": -76.94383983333333, "bike_id": "c6f8257c4b2af3ff6601048324ccc6ea", "fusion_lat": 0.0, "name": "c6f8257c4b2af3ff6601048324ccc6ea", "is_reserved": 0, "rental_uris": {"android": "https://dc.lft.to/lastmile_qr_scan", "ios": "https://dc.lft.to/lastmile_qr_scan"}, "fusion_lon": 0.0}, {"lat": 38.900482333333336, "is_disabled": 0, "type": "electric_scooter", "lon": -76.99376433333333, "bike_id": "748410671bd33c951004acb783d227b0", "fusion_lat": 0.0, "name": "748410671bd33c951004acb783d227b0", "is_reserved": 0, "rental_uris": {"android": "https://dc.lft.to/lastmile_qr_scan", "ios": "https://dc.lft.to/lastmile_qr_scan"}, "fusion_lon": 0.0}, {"lat": 38.911105166666665, "is_disabled": 0, "type": "electric_scooter", "lon": -77.04229583333333, "bike_id": "9de1ab54a5c4d02eaf129d0a3958cf50", "fusion_lat": 0.0, "name": "9de1ab54a5c4d02eaf129d0a3958cf50", "is_reserved": 0, "rental_uris": {"android": "https://dc.lft.to/lastmile_qr_scan", "ios": "https://dc.lft.to/lastmile_qr_scan"}, "fusion_lon": 0.0}, {"lat": 38.94748233333333, "is_disabled": 0, "type": "electric_scooter", "lon": -77.06527916666667, "bike_id": "1d8bd1e5de1b84e6cc02c9023ecff929", "fusion_lat": 0.0, "name": "1d8bd1e5de1b84e6cc02c9023ecff929", "is_reserved": 0, "rental_uris": {"android": "https://dc.lft.to/lastmile_qr_scan", "ios": "https://dc.lft.to/lastmile_qr_scan"}, "fusion_lon": 0.0}, {"lat": 38.866520666666666, "is_disabled": 0, "type": "electric_scooter", "lon": -76.98885133333333, "bike_id": "2626001f641940cc7c4c5e741d9367ce", "fusion_lat": 0.0, "name": "2626001f641940cc7c4c5e741d9367ce", "is_reserved": 0, "rental_uris": {"android": "https://dc.lft.to/lastmile_qr_scan", "ios": "https://dc.lft.to/lastmile_qr_scan"}, "fusion_lon": 0.0}, {"lat": 38.900429833333334, "is_disabled": 0, "type": "electric_scooter", "lon": -76.99735033333333, "bike_id": "523db91eafa13313130443c14506fd40", "fusion_lat": 0.0, "name": "523db91eafa13313130443c14506fd40", "is_reserved": 0, "rental_uris": {"android": "https://dc.lft.to/lastmile_qr_scan", "ios": "https://dc.lft.to/lastmile_qr_scan"}, "fusion_lon": 0.0}, {"lat": 38.93879416666667, "is_disabled": 0, "type": "electric_scooter", "lon": -77.02011133333333, "bike_id": "bf4cc1b8c43216740121522e6171a4d7", "fusion_lat": 0.0, "name": "bf4cc1b8c43216740121522e6171a4d7", "is_reserved": 0, "rental_uris": {"android": "https://dc.lft.to/lastmile_qr_scan", "ios": "https://dc.lft.to/lastmile_qr_scan"}, "fusion_lon": 0.0}, {"lat": 38.865559166666664, "is_disabled": 0, "type": "electric_scooter", "lon": -76.97421083333333, "bike_id": "52b220aaa7e7b5a745479b212d3dcbd8", "fusion_lat": 0.0, "name": "52b220aaa7e7b5a745479b212d3dcbd8", "is_reserved": 0, "rental_uris": {"android": "https://dc.lft.to/lastmile_qr_scan", "ios": "https://dc.lft.to/lastmile_qr_scan"}, "fusion_lon": 0.0}, {"lat": 38.90285316666667, "is_disabled": 0, "type": "electric_scooter", "lon": -77.03342583333334, "bike_id": "8ae455d5bb9ecabb8c3065895d9343e4", "fusion_lat": 0.0, "name": "8ae455d5bb9ecabb8c3065895d9343e4", "is_reserved": 0, "rental_uris": {"android": "https://dc.lft.to/lastmile_qr_scan", "ios": "https://dc.lft.to/lastmile_qr_scan"}, "fusion_lon": 0.0}, {"lat": 38.86392983333333, "is_disabled": 0, "type": "electric_bike", "lon": -76.98994266666666, "bike_id": "0e42201db25c24d7d383d5983e7fca4e", "fusion_lat": 0.0, "name": "0e42201db25c24d7d383d5983e7fca4e", "is_reserved": 0, "rental_uris": {"android": "https://dc.lft.to/lastmile_qr_scan", "ios": "https://dc.lft.to/lastmile_qr_scan"}, "fusion_lon": 0.0}, {"lat": 38.95338133333333, "is_disabled": 0, "type": "electric_bike", "lon": -76.97364016666667, "bike_id": "ba7ef7c4ca272a72559e5a359ac8007d", "fusion_lat": 0.0, "name": "ba7ef7c4ca272a72559e5a359ac8007d", "is_reserved": 0, "rental_uris": {"android": "https://dc.lft.to/lastmile_qr_scan", "ios": "https://dc.lft.to/lastmile_qr_scan"}, "fusion_lon": 0.0}, {"lat": 38.933741, "is_disabled": 0, "type": "electric_scooter", "lon": -77.023783, "bike_id": "88fa6e77f46f2bedd084d7b4227c86fe", "fusion_lat": 0.0, "name": "88fa6e77f46f2bedd084d7b4227c86fe", "is_reserved": 0, "rental_uris": {"android": "https://dc.lft.to/lastmile_qr_scan", "ios": "https://dc.lft.to/lastmile_qr_scan"}, "fusion_lon": 0.0}, {"lat": 39.000182, "is_disabled": 0, "type": "electric_bike", "lon": -76.9108095, "bike_id": "fa78aeb559e7e5604ad405129a222697", "fusion_lat": 0.0, "name": "fa78aeb559e7e5604ad405129a222697", "is_reserved": 0, "rental_uris": {"android": "https://dc.lft.to/lastmile_qr_scan", "ios": "https://dc.lft.to/lastmile_qr_scan"}, "fusion_lon": 0.0}, {"lat": 38.900945, "is_disabled": 0, "type": "electric_scooter", "lon": -77.049143, "bike_id": "1d4c8c8fddf14e7dced2b533b21f2420", "fusion_lat": 0.0, "name": "1d4c8c8fddf14e7dced2b533b21f2420", "is_reserved": 0, "rental_uris": {"android": "https://dc.lft.to/lastmile_qr_scan", "ios": "https://dc.lft.to/lastmile_qr_scan"}, "fusion_lon": 0.0}, {"lat": 38.9330905, "is_disabled": 0, "type": "electric_scooter", "lon": -77.02854516666666, "bike_id": "4ae52ba8ab982ca1a4981bb3b9ddd665", "fusion_lat": 0.0, "name": "4ae52ba8ab982ca1a4981bb3b9ddd665", "is_reserved": 0, "rental_uris": {"android": "https://dc.lft.to/lastmile_qr_scan", "ios": "https://dc.lft.to/lastmile_qr_scan"}, "fusion_lon": 0.0}, {"lat": 38.925893333333335, "is_disabled": 0, "type": "electric_scooter", "lon": -77.02832633333334, "bike_id": "60e13a0cfab087a4d0d49cf474b1f6df", "fusion_lat": 0.0, "name": "60e13a0cfab087a4d0d49cf474b1f6df", "is_reserved": 0, "rental_uris": {"android": "https://dc.lft.to/lastmile_qr_scan", "ios": "https://dc.lft.to/lastmile_qr_scan"}, "fusion_lon": 0.0}, {"lat": 38.92800716666667, "is_disabled": 0, "type": "electric_scooter", "lon": -77.0552705, "bike_id": "759ad1ca57220fd8b97cb3485847ed66", "fusion_lat": 0.0, "name": "759ad1ca57220fd8b97cb3485847ed66", "is_reserved": 0, "rental_uris": {"android": "https://dc.lft.to/lastmile_qr_scan", "ios": "https://dc.lft.to/lastmile_qr_scan"}, "fusion_lon": 0.0}, {"lat": 38.91548183333333, "is_disabled": 0, "type": "electric_scooter", "lon": -77.03205233333334, "bike_id": "b7bc45af6264f8155a894968bc9953b1", "fusion_lat": 0.0, "name": "b7bc45af6264f8155a894968bc9953b1", "is_reserved": 0, "rental_uris": {"android": "https://dc.lft.to/lastmile_qr_scan", "ios": "https://dc.lft.to/lastmile_qr_scan"}, "fusion_lon": 0.0}, {"lat": 38.91923466666667, "is_disabled": 0, "type": "electric_scooter", "lon": -77.02495616666667, "bike_id": "c511d41a1c585dda2064687fb21e286d", "fusion_lat": 0.0, "name": "c511d41a1c585dda2064687fb21e286d", "is_reserved": 0, "rental_uris": {"android": "https://dc.lft.to/lastmile_qr_scan", "ios": "https://dc.lft.to/lastmile_qr_scan"}, "fusion_lon": 0.0}, {"lat": 38.90193983333333, "is_disabled": 0, "type": "electric_scooter", "lon": -77.02181583333333, "bike_id": "5c665dadd7ed564fe5331050309cd5be", "fusion_lat": 0.0, "name": "5c665dadd7ed564fe5331050309cd5be", "is_reserved": 0, "rental_uris": {"android": "https://dc.lft.to/lastmile_qr_scan", "ios": "https://dc.lft.to/lastmile_qr_scan"}, "fusion_lon": 0.0}, {"lat": 38.90753, "is_disabled": 0, "type": "electric_scooter", "lon": -77.0414665, "bike_id": "29169b3c9b562d893cb136268d5eddab", "fusion_lat": 0.0, "name": "29169b3c9b562d893cb136268d5eddab", "is_reserved": 0, "rental_uris": {"android": "https://dc.lft.to/lastmile_qr_scan", "ios": "https://dc.lft.to/lastmile_qr_scan"}, "fusion_lon": 0.0}, {"lat": 38.89972616666667, "is_disabled": 0, "type": "electric_scooter", "lon": -77.05282733333334, "bike_id": "8c1350f5c641f1eb04dfe35cf970bbdb", "fusion_lat": 0.0, "name": "8c1350f5c641f1eb04dfe35cf970bbdb", "is_reserved": 0, "rental_uris": {"android": "https://dc.lft.to/lastmile_qr_scan", "ios": "https://dc.lft.to/lastmile_qr_scan"}, "fusion_lon": 0.0}, {"lat": 38.8828115, "is_disabled": 0, "type": "electric_bike", "lon": -76.932414, "bike_id": "41ba430f85b4e94de3847b58bfb44ef4", "fusion_lat": 0.0, "name": "41ba430f85b4e94de3847b58bfb44ef4", "is_reserved": 0, "rental_uris": {"android": "https://dc.lft.to/lastmile_qr_scan", "ios": "https://dc.lft.to/lastmile_qr_scan"}, "fusion_lon": 0.0}, {"lat": 38.90344266666666, "is_disabled": 0, "type": "electric_scooter", "lon": -76.9705495, "bike_id": "ead22a1bc70fe8dff02568ac04cde5b4", "fusion_lat": 0.0, "name": "ead22a1bc70fe8dff02568ac04cde5b4", "is_reserved": 0, "rental_uris": {"android": "https://dc.lft.to/lastmile_qr_scan", "ios": "https://dc.lft.to/lastmile_qr_scan"}, "fusion_lon": 0.0}, {"lat": 38.906518166666665, "is_disabled": 0, "type": "electric_scooter", "lon": -77.00612416666667, "bike_id": "992cc74eb6184ef1f4532c2349f1faa3", "fusion_lat": 0.0, "name": "992cc74eb6184ef1f4532c2349f1faa3", "is_reserved": 0, "rental_uris": {"android": "https://dc.lft.to/lastmile_qr_scan", "ios": "https://dc.lft.to/lastmile_qr_scan"}, "fusion_lon": 0.0}, {"lat": 38.91508733333333, "is_disabled": 0, "type": "electric_scooter", "lon": -76.983737, "bike_id": "b6603feccee81615de21b1e54e9463bf", "fusion_lat": 0.0, "name": "b6603feccee81615de21b1e54e9463bf", "is_reserved": 0, "rental_uris": {"android": "https://dc.lft.to/lastmile_qr_scan", "ios": "https://dc.lft.to/lastmile_qr_scan"}, "fusion_lon": 0.0}, {"lat": 38.9573545, "is_disabled": 0, "type": "electric_scooter", "lon": -77.02384216666667, "bike_id": "1ecd26309518b170a3852e587d8826b1", "fusion_lat": 0.0, "name": "1ecd26309518b170a3852e587d8826b1", "is_reserved": 0, "rental_uris": {"android": "https://dc.lft.to/lastmile_qr_scan", "ios": "https://dc.lft.to/lastmile_qr_scan"}, "fusion_lon": 0.0}, {"lat": 38.9120125, "is_disabled": 0, "type": "electric_scooter", "lon": -77.04493133333334, "bike_id": "47e71afd6ae1a383e9234d1089706a39", "fusion_lat": 0.0, "name": "47e71afd6ae1a383e9234d1089706a39", "is_reserved": 0, "rental_uris": {"android": "https://dc.lft.to/lastmile_qr_scan", "ios": "https://dc.lft.to/lastmile_qr_scan"}, "fusion_lon": 0.0}, {"lat": 38.908922, "is_disabled": 0, "type": "electric_scooter", "lon": -77.03664116666667, "bike_id": "3b596b4af22f2f76962705cb5267ee30", "fusion_lat": 0.0, "name": "3b596b4af22f2f76962705cb5267ee30", "is_reserved": 0, "rental_uris": {"android": "https://dc.lft.to/lastmile_qr_scan", "ios": "https://dc.lft.to/lastmile_qr_scan"}, "fusion_lon": 0.0}, {"lat": 38.86617116666667, "is_disabled": 0, "type": "electric_scooter", "lon": -76.986636, "bike_id": "e1cea0bb3cf11b8ab03349512d2dbbc4", "fusion_lat": 0.0, "name": "e1cea0bb3cf11b8ab03349512d2dbbc4", "is_reserved": 0, "rental_uris": {"android": "https://dc.lft.to/lastmile_qr_scan", "ios": "https://dc.lft.to/lastmile_qr_scan"}, "fusion_lon": 0.0}, {"lat": 38.935898, "is_disabled": 0, "type": "electric_scooter", "lon": -77.03759283333333, "bike_id": "44aedee5e9822d9681e4882b54052321", "fusion_lat": 0.0, "name": "44aedee5e9822d9681e4882b54052321", "is_reserved": 0, "rental_uris": {"android": "https://dc.lft.to/lastmile_qr_scan", "ios": "https://dc.lft.to/lastmile_qr_scan"}, "fusion_lon": 0.0}, {"lat": 38.89427233333333, "is_disabled": 0, "type": "electric_scooter", "lon": -77.020946, "bike_id": "6632f3f06337baef4c8ac89a8dd2d7b0", "fusion_lat": 0.0, "name": "6632f3f06337baef4c8ac89a8dd2d7b0", "is_reserved": 0, "rental_uris": {"android": "https://dc.lft.to/lastmile_qr_scan", "ios": "https://dc.lft.to/lastmile_qr_scan"}, "fusion_lon": 0.0}, {"lat": 38.90141366666667, "is_disabled": 0, "type": "electric_scooter", "lon": -77.051005, "bike_id": "6037baeaee2147917dfb42db9622d9df", "fusion_lat": 0.0, "name": "6037baeaee2147917dfb42db9622d9df", "is_reserved": 0, "rental_uris": {"android": "https://dc.lft.to/lastmile_qr_scan", "ios": "https://dc.lft.to/lastmile_qr_scan"}, "fusion_lon": 0.0}, {"lat": 38.950845, "is_disabled": 0, "type": "electric_bike", "lon": -77.01196683333333, "bike_id": "ecaaeb8f2d710acf3dbecac101bc89a5", "fusion_lat": 0.0, "name": "ecaaeb8f2d710acf3dbecac101bc89a5", "is_reserved": 0, "rental_uris": {"android": "https://dc.lft.to/lastmile_qr_scan", "ios": "https://dc.lft.to/lastmile_qr_scan"}, "fusion_lon": 0.0}, {"lat": 38.928308, "is_disabled": 0, "type": "electric_scooter", "lon": -77.02623283333334, "bike_id": "9b8b502a50db5c4b341dd38e64b9aa50", "fusion_lat": 0.0, "name": "9b8b502a50db5c4b341dd38e64b9aa50", "is_reserved": 0, "rental_uris": {"android": "https://dc.lft.to/lastmile_qr_scan", "ios": "https://dc.lft.to/lastmile_qr_scan"}, "fusion_lon": 0.0}, {"lat": 38.952905, "is_disabled": 0, "type": "electric_bike", "lon": -76.9459935, "bike_id": "06a36270a3bb01f220bf7fb6578ab66d", "fusion_lat": 0.0, "name": "06a36270a3bb01f220bf7fb6578ab66d", "is_reserved": 0, "rental_uris": {"android": "https://dc.lft.to/lastmile_qr_scan", "ios": "https://dc.lft.to/lastmile_qr_scan"}, "fusion_lon": 0.0}, {"lat": 38.90309033333333, "is_disabled": 0, "type": "electric_scooter", "lon": -77.03871766666667, "bike_id": "fe669c2125014686599044713975eade", "fusion_lat": 0.0, "name": "fe669c2125014686599044713975eade", "is_reserved": 0, "rental_uris": {"android": "https://dc.lft.to/lastmile_qr_scan", "ios": "https://dc.lft.to/lastmile_qr_scan"}, "fusion_lon": 0.0}, {"lat": 38.9035445, "is_disabled": 0, "type": "electric_scooter", "lon": -77.04479333333333, "bike_id": "f0e00ec3d367eb78e524079d1c8969c4", "fusion_lat": 0.0, "name": "f0e00ec3d367eb78e524079d1c8969c4", "is_reserved": 0, "rental_uris": {"android": "https://dc.lft.to/lastmile_qr_scan", "ios": "https://dc.lft.to/lastmile_qr_scan"}, "fusion_lon": 0.0}, {"lat": 38.90522883333333, "is_disabled": 0, "type": "electric_scooter", "lon": -77.049615, "bike_id": "99cf0b9491cdffd3f85160a0ba6ab01f", "fusion_lat": 0.0, "name": "99cf0b9491cdffd3f85160a0ba6ab01f", "is_reserved": 0, "rental_uris": {"android": "https://dc.lft.to/lastmile_qr_scan", "ios": "https://dc.lft.to/lastmile_qr_scan"}, "fusion_lon": 0.0}, {"lat": 38.917085666666665, "is_disabled": 0, "type": "electric_scooter", "lon": -77.00115016666666, "bike_id": "dc492e2ea152a80fa90e498be6f6f75a", "fusion_lat": 0.0, "name": "dc492e2ea152a80fa90e498be6f6f75a", "is_reserved": 0, "rental_uris": {"android": "https://dc.lft.to/lastmile_qr_scan", "ios": "https://dc.lft.to/lastmile_qr_scan"}, "fusion_lon": 0.0}, {"lat": 38.984238833333336, "is_disabled": 0, "type": "electric_bike", "lon": -76.95199, "bike_id": "12f7050a30fb86aa547632fc25e99548", "fusion_lat": 0.0, "name": "12f7050a30fb86aa547632fc25e99548", "is_reserved": 0, "rental_uris": {"android": "https://dc.lft.to/lastmile_qr_scan", "ios": "https://dc.lft.to/lastmile_qr_scan"}, "fusion_lon": 0.0}, {"lat": 38.8850005, "is_disabled": 0, "type": "electric_scooter", "lon": -77.007238, "bike_id": "595a0e25b69d5c7167332fb001ae341a", "fusion_lat": 0.0, "name": "595a0e25b69d5c7167332fb001ae341a", "is_reserved": 0, "rental_uris": {"android": "https://dc.lft.to/lastmile_qr_scan", "ios": "https://dc.lft.to/lastmile_qr_scan"}, "fusion_lon": 0.0}, {"lat": 38.93959733333333, "is_disabled": 0, "type": "electric_bike", "lon": -77.360981, "bike_id": "86efe947fb82cbb58afa1025f971d829", "fusion_lat": 0.0, "name": "86efe947fb82cbb58afa1025f971d829", "is_reserved": 0, "rental_uris": {"android": "https://dc.lft.to/lastmile_qr_scan", "ios": "https://dc.lft.to/lastmile_qr_scan"}, "fusion_lon": 0.0}, {"lat": 38.895598666666665, "is_disabled": 0, "type": "electric_scooter", "lon": -76.93080833333333, "bike_id": "7a5fa905c6b8d27189ac1d3870315ac8", "fusion_lat": 0.0, "name": "7a5fa905c6b8d27189ac1d3870315ac8", "is_reserved": 0, "rental_uris": {"android": "https://dc.lft.to/lastmile_qr_scan", "ios": "https://dc.lft.to/lastmile_qr_scan"}, "fusion_lon": 0.0}, {"lat": 38.9228205, "is_disabled": 0, "type": "electric_scooter", "lon": -77.04131133333334, "bike_id": "3542eaf40eaf643dc418d61ba19ea5ee", "fusion_lat": 0.0, "name": "3542eaf40eaf643dc418d61ba19ea5ee", "is_reserved": 0, "rental_uris": {"android": "https://dc.lft.to/lastmile_qr_scan", "ios": "https://dc.lft.to/lastmile_qr_scan"}, "fusion_lon": 0.0}, {"lat": 38.9026625, "is_disabled": 0, "type": "electric_scooter", "lon": -77.0033335, "bike_id": "b556c176aa297809428266dad0b3d126", "fusion_lat": 0.0, "name": "b556c176aa297809428266dad0b3d126", "is_reserved": 0, "rental_uris": {"android": "https://dc.lft.to/lastmile_qr_scan", "ios": "https://dc.lft.to/lastmile_qr_scan"}, "fusion_lon": 0.0}, {"lat": 38.9600905, "is_disabled": 0, "type": "electric_bike", "lon": -76.9985235, "bike_id": "9864601a0145c8ecc13408c50d1388ea", "fusion_lat": 0.0, "name": "9864601a0145c8ecc13408c50d1388ea", "is_reserved": 0, "rental_uris": {"android": "https://dc.lft.to/lastmile_qr_scan", "ios": "https://dc.lft.to/lastmile_qr_scan"}, "fusion_lon": 0.0}, {"lat": 38.91548983333333, "is_disabled": 0, "type": "electric_scooter", "lon": -77.03209, "bike_id": "a7bf76645c8a84193e75cb22042d2239", "fusion_lat": 0.0, "name": "a7bf76645c8a84193e75cb22042d2239", "is_reserved": 0, "rental_uris": {"android": "https://dc.lft.to/lastmile_qr_scan", "ios": "https://dc.lft.to/lastmile_qr_scan"}, "fusion_lon": 0.0}, {"lat": 38.95619116666667, "is_disabled": 0, "type": "electric_scooter", "lon": -77.010215, "bike_id": "6a40ad4e4cf23c863cf19d8ddbb9d45e", "fusion_lat": 0.0, "name": "6a40ad4e4cf23c863cf19d8ddbb9d45e", "is_reserved": 0, "rental_uris": {"android": "https://dc.lft.to/lastmile_qr_scan", "ios": "https://dc.lft.to/lastmile_qr_scan"}, "fusion_lon": 0.0}, {"lat": 38.844318333333334, "is_disabled": 0, "type": "electric_scooter", "lon": -76.99781416666667, "bike_id": "54a88107109b70afc0f8cfcb1386535a", "fusion_lat": 0.0, "name": "54a88107109b70afc0f8cfcb1386535a", "is_reserved": 0, "rental_uris": {"android": "https://dc.lft.to/lastmile_qr_scan", "ios": "https://dc.lft.to/lastmile_qr_scan"}, "fusion_lon": 0.0}, {"lat": 38.87711933333333, "is_disabled": 0, "type": "electric_scooter", "lon": -77.00394983333334, "bike_id": "8845d98ba5d9448bef045329c319c844", "fusion_lat": 0.0, "name": "8845d98ba5d9448bef045329c319c844", "is_reserved": 0, "rental_uris": {"android": "https://dc.lft.to/lastmile_qr_scan", "ios": "https://dc.lft.to/lastmile_qr_scan"}, "fusion_lon": 0.0}, {"lat": 38.907984, "is_disabled": 0, "type": "electric_scooter", "lon": -77.00205666666666, "bike_id": "c6482292e55b5c872e7f6da49410a8df", "fusion_lat": 0.0, "name": "c6482292e55b5c872e7f6da49410a8df", "is_reserved": 0, "rental_uris": {"android": "https://dc.lft.to/lastmile_qr_scan", "ios": "https://dc.lft.to/lastmile_qr_scan"}, "fusion_lon": 0.0}, {"lat": 38.921266, "is_disabled": 0, "type": "electric_scooter", "lon": -77.041179, "bike_id": "e36debba5a25d1e93fdcda1b97c7a4c9", "fusion_lat": 0.0, "name": "e36debba5a25d1e93fdcda1b97c7a4c9", "is_reserved": 0, "rental_uris": {"android": "https://dc.lft.to/lastmile_qr_scan", "ios": "https://dc.lft.to/lastmile_qr_scan"}, "fusion_lon": 0.0}, {"lat": 38.86621, "is_disabled": 0, "type": "electric_scooter", "lon": -76.986419, "bike_id": "b73ce979196c77be8c2954720911b38e", "fusion_lat": 0.0, "name": "b73ce979196c77be8c2954720911b38e", "is_reserved": 0, "rental_uris": {"android": "https://dc.lft.to/lastmile_qr_scan", "ios": "https://dc.lft.to/lastmile_qr_scan"}, "fusion_lon": 0.0}, {"lat": 38.933422666666665, "is_disabled": 0, "type": "electric_scooter", "lon": -76.99316533333334, "bike_id": "bb77798cde431e5fdfd932459b28c37d", "fusion_lat": 0.0, "name": "bb77798cde431e5fdfd932459b28c37d", "is_reserved": 0, "rental_uris": {"android": "https://dc.lft.to/lastmile_qr_scan", "ios": "https://dc.lft.to/lastmile_qr_scan"}, "fusion_lon": 0.0}, {"lat": 38.9129135, "is_disabled": 0, "type": "electric_scooter", "lon": -77.03862416666666, "bike_id": "5cd4d6e151b6feb079d91ebee51d66e8", "fusion_lat": 0.0, "name": "5cd4d6e151b6feb079d91ebee51d66e8", "is_reserved": 0, "rental_uris": {"android": "https://dc.lft.to/lastmile_qr_scan", "ios": "https://dc.lft.to/lastmile_qr_scan"}, "fusion_lon": 0.0}, {"lat": 38.91840466666667, "is_disabled": 0, "type": "electric_scooter", "lon": -77.02300516666666, "bike_id": "16724621a216bbb2296e0963e57160e9", "fusion_lat": 0.0, "name": "16724621a216bbb2296e0963e57160e9", "is_reserved": 0, "rental_uris": {"android": "https://dc.lft.to/lastmile_qr_scan", "ios": "https://dc.lft.to/lastmile_qr_scan"}, "fusion_lon": 0.0}, {"lat": 38.80510116666667, "is_disabled": 0, "type": "electric_bike", "lon": -77.04137916666667, "bike_id": "524eda551508be23d0ca502b4eec0fae", "fusion_lat": 0.0, "name": "524eda551508be23d0ca502b4eec0fae", "is_reserved": 0, "rental_uris": {"android": "https://dc.lft.to/lastmile_qr_scan", "ios": "https://dc.lft.to/lastmile_qr_scan"}, "fusion_lon": 0.0}, {"lat": 38.9134085, "is_disabled": 0, "type": "electric_scooter", "lon": -77.0319635, "bike_id": "77a3600cbfead5b6c18aee3cdc192426", "fusion_lat": 0.0, "name": "77a3600cbfead5b6c18aee3cdc192426", "is_reserved": 0, "rental_uris": {"android": "https://dc.lft.to/lastmile_qr_scan", "ios": "https://dc.lft.to/lastmile_qr_scan"}, "fusion_lon": 0.0}, {"lat": 38.9374695, "is_disabled": 0, "type": "electric_scooter", "lon": -77.0345515, "bike_id": "1b9c85d5a2608fb1d75d1ea283efa9e6", "fusion_lat": 0.0, "name": "1b9c85d5a2608fb1d75d1ea283efa9e6", "is_reserved": 0, "rental_uris": {"android": "https://dc.lft.to/lastmile_qr_scan", "ios": "https://dc.lft.to/lastmile_qr_scan"}, "fusion_lon": 0.0}, {"lat": 38.9064635, "is_disabled": 0, "type": "electric_scooter", "lon": -76.990249, "bike_id": "650c96ac76b40b84f2e8de114462ac63", "fusion_lat": 0.0, "name": "650c96ac76b40b84f2e8de114462ac63", "is_reserved": 0, "rental_uris": {"android": "https://dc.lft.to/lastmile_qr_scan", "ios": "https://dc.lft.to/lastmile_qr_scan"}, "fusion_lon": 0.0}, {"lat": 38.93825133333333, "is_disabled": 0, "type": "electric_bike", "lon": -76.9904395, "bike_id": "6d00f2cc5c4badfe7ac876f5b7714a94", "fusion_lat": 0.0, "name": "6d00f2cc5c4badfe7ac876f5b7714a94", "is_reserved": 0, "rental_uris": {"android": "https://dc.lft.to/lastmile_qr_scan", "ios": "https://dc.lft.to/lastmile_qr_scan"}, "fusion_lon": 0.0}, {"lat": 38.914278, "is_disabled": 0, "type": "electric_scooter", "lon": -77.03192816666666, "bike_id": "96550dea13272512a309bfb1982e9298", "fusion_lat": 0.0, "name": "96550dea13272512a309bfb1982e9298", "is_reserved": 0, "rental_uris": {"android": "https://dc.lft.to/lastmile_qr_scan", "ios": "https://dc.lft.to/lastmile_qr_scan"}, "fusion_lon": 0.0}, {"lat": 38.852144, "is_disabled": 0, "type": "electric_bike", "lon": -76.99585516666667, "bike_id": "70eaad64240a501759599c9ae5717173", "fusion_lat": 0.0, "name": "70eaad64240a501759599c9ae5717173", "is_reserved": 0, "rental_uris": {"android": "https://dc.lft.to/lastmile_qr_scan", "ios": "https://dc.lft.to/lastmile_qr_scan"}, "fusion_lon": 0.0}, {"lat": 38.9181015, "is_disabled": 0, "type": "electric_bike", "lon": -77.2233655, "bike_id": "b00ef169b037d33c1c47a81c51b91d1c", "fusion_lat": 0.0, "name": "b00ef169b037d33c1c47a81c51b91d1c", "is_reserved": 0, "rental_uris": {"android": "https://dc.lft.to/lastmile_qr_scan", "ios": "https://dc.lft.to/lastmile_qr_scan"}, "fusion_lon": 0.0}, {"lat": 38.926455833333335, "is_disabled": 0, "type": "electric_scooter", "lon": -77.04302083333333, "bike_id": "7a7ae5f5238fcc9036f75cb34cbac9a5", "fusion_lat": 0.0, "name": "7a7ae5f5238fcc9036f75cb34cbac9a5", "is_reserved": 0, "rental_uris": {"android": "https://dc.lft.to/lastmile_qr_scan", "ios": "https://dc.lft.to/lastmile_qr_scan"}, "fusion_lon": 0.0}, {"lat": 38.9085425, "is_disabled": 0, "type": "electric_scooter", "lon": -77.00626766666667, "bike_id": "295e2a30501debc00ed567ad8a888f2d", "fusion_lat": 0.0, "name": "295e2a30501debc00ed567ad8a888f2d", "is_reserved": 0, "rental_uris": {"android": "https://dc.lft.to/lastmile_qr_scan", "ios": "https://dc.lft.to/lastmile_qr_scan"}, "fusion_lon": 0.0}, {"lat": 38.937692, "is_disabled": 0, "type": "electric_scooter", "lon": -77.02146316666666, "bike_id": "4b7962eaa4f2c767851f7b03a58f7a73", "fusion_lat": 0.0, "name": "4b7962eaa4f2c767851f7b03a58f7a73", "is_reserved": 0, "rental_uris": {"android": "https://dc.lft.to/lastmile_qr_scan", "ios": "https://dc.lft.to/lastmile_qr_scan"}, "fusion_lon": 0.0}, {"lat": 38.896872333333334, "is_disabled": 0, "type": "electric_scooter", "lon": -77.05127766666666, "bike_id": "436fd602db842f8ea6562940d58432cd", "fusion_lat": 0.0, "name": "436fd602db842f8ea6562940d58432cd", "is_reserved": 0, "rental_uris": {"android": "https://dc.lft.to/lastmile_qr_scan", "ios": "https://dc.lft.to/lastmile_qr_scan"}, "fusion_lon": 0.0}, {"lat": 38.93037916666667, "is_disabled": 0, "type": "electric_scooter", "lon": -77.0296235, "bike_id": "f37db744c1cbe3f4f27036d24138432e", "fusion_lat": 0.0, "name": "f37db744c1cbe3f4f27036d24138432e", "is_reserved": 0, "rental_uris": {"android": "https://dc.lft.to/lastmile_qr_scan", "ios": "https://dc.lft.to/lastmile_qr_scan"}, "fusion_lon": 0.0}, {"lat": 38.92902733333333, "is_disabled": 0, "type": "electric_bike", "lon": -77.05780916666667, "bike_id": "fc40eb7d010d862f1f53b544a383c121", "fusion_lat": 0.0, "name": "fc40eb7d010d862f1f53b544a383c121", "is_reserved": 0, "rental_uris": {"android": "https://dc.lft.to/lastmile_qr_scan", "ios": "https://dc.lft.to/lastmile_qr_scan"}, "fusion_lon": 0.0}, {"lat": 38.90183566666666, "is_disabled": 0, "type": "electric_scooter", "lon": -77.05005083333333, "bike_id": "1b081f164ed3800d4c86f6354b7f2bd7", "fusion_lat": 0.0, "name": "1b081f164ed3800d4c86f6354b7f2bd7", "is_reserved": 0, "rental_uris": {"android": "https://dc.lft.to/lastmile_qr_scan", "ios": "https://dc.lft.to/lastmile_qr_scan"}, "fusion_lon": 0.0}, {"lat": 38.92265666666667, "is_disabled": 0, "type": "electric_scooter", "lon": -77.04293733333333, "bike_id": "0206d4bb1811a29148dffd21b750fc51", "fusion_lat": 0.0, "name": "0206d4bb1811a29148dffd21b750fc51", "is_reserved": 0, "rental_uris": {"android": "https://dc.lft.to/lastmile_qr_scan", "ios": "https://dc.lft.to/lastmile_qr_scan"}, "fusion_lon": 0.0}, {"lat": 38.91540333333333, "is_disabled": 0, "type": "electric_scooter", "lon": -77.032036, "bike_id": "f656c64daebeafb97d659e814a78de3a", "fusion_lat": 0.0, "name": "f656c64daebeafb97d659e814a78de3a", "is_reserved": 0, "rental_uris": {"android": "https://dc.lft.to/lastmile_qr_scan", "ios": "https://dc.lft.to/lastmile_qr_scan"}, "fusion_lon": 0.0}, {"lat": 38.87241866666667, "is_disabled": 0, "type": "electric_bike", "lon": -77.01164666666666, "bike_id": "8ae932418ebd7f27521e563712fffc0b", "fusion_lat": 0.0, "name": "8ae932418ebd7f27521e563712fffc0b", "is_reserved": 0, "rental_uris": {"android": "https://dc.lft.to/lastmile_qr_scan", "ios": "https://dc.lft.to/lastmile_qr_scan"}, "fusion_lon": 0.0}, {"lat": 38.928629, "is_disabled": 0, "type": "electric_bike", "lon": -77.22221283333333, "bike_id": "4f022ca178b9706031c3a32366a57cca", "fusion_lat": 0.0, "name": "4f022ca178b9706031c3a32366a57cca", "is_reserved": 0, "rental_uris": {"android": "https://dc.lft.to/lastmile_qr_scan", "ios": "https://dc.lft.to/lastmile_qr_scan"}, "fusion_lon": 0.0}, {"lat": 38.9177515, "is_disabled": 0, "type": "electric_scooter", "lon": -77.028905, "bike_id": "49da52aebd8c39c29f507f999e79ceb9", "fusion_lat": 0.0, "name": "49da52aebd8c39c29f507f999e79ceb9", "is_reserved": 0, "rental_uris": {"android": "https://dc.lft.to/lastmile_qr_scan", "ios": "https://dc.lft.to/lastmile_qr_scan"}, "fusion_lon": 0.0}, {"lat": 39.08862833333333, "is_disabled": 0, "type": "electric_bike", "lon": -77.17844283333334, "bike_id": "d49c38df573b17a45b291d9ee9817921", "fusion_lat": 0.0, "name": "d49c38df573b17a45b291d9ee9817921", "is_reserved": 0, "rental_uris": {"android": "https://dc.lft.to/lastmile_qr_scan", "ios": "https://dc.lft.to/lastmile_qr_scan"}, "fusion_lon": 0.0}, {"lat": 38.96563366666667, "is_disabled": 0, "type": "electric_bike", "lon": -77.02043266666666, "bike_id": "d92b4a492770de5c1670d2022f7c8256", "fusion_lat": 0.0, "name": "d92b4a492770de5c1670d2022f7c8256", "is_reserved": 0, "rental_uris": {"android": "https://dc.lft.to/lastmile_qr_scan", "ios": "https://dc.lft.to/lastmile_qr_scan"}, "fusion_lon": 0.0}, {"lat": 38.9220445, "is_disabled": 0, "type": "electric_scooter", "lon": -76.956612, "bike_id": "6bef717d49618a8a768e2f3e5d3cfc81", "fusion_lat": 0.0, "name": "6bef717d49618a8a768e2f3e5d3cfc81", "is_reserved": 0, "rental_uris": {"android": "https://dc.lft.to/lastmile_qr_scan", "ios": "https://dc.lft.to/lastmile_qr_scan"}, "fusion_lon": 0.0}, {"lat": 38.902377333333334, "is_disabled": 0, "type": "electric_scooter", "lon": -77.0433075, "bike_id": "71a3db95726e0070237b2267a1db58e7", "fusion_lat": 0.0, "name": "71a3db95726e0070237b2267a1db58e7", "is_reserved": 0, "rental_uris": {"android": "https://dc.lft.to/lastmile_qr_scan", "ios": "https://dc.lft.to/lastmile_qr_scan"}, "fusion_lon": 0.0}, {"lat": 38.902930166666664, "is_disabled": 0, "type": "electric_scooter", "lon": -77.02856816666667, "bike_id": "075569231f76b1e287cfdeaacba37eb4", "fusion_lat": 0.0, "name": "075569231f76b1e287cfdeaacba37eb4", "is_reserved": 0, "rental_uris": {"android": "https://dc.lft.to/lastmile_qr_scan", "ios": "https://dc.lft.to/lastmile_qr_scan"}, "fusion_lon": 0.0}, {"lat": 38.90643766666667, "is_disabled": 0, "type": "electric_scooter", "lon": -77.0315215, "bike_id": "46694f4d692253109a2dd558c160379e", "fusion_lat": 0.0, "name": "46694f4d692253109a2dd558c160379e", "is_reserved": 0, "rental_uris": {"android": "https://dc.lft.to/lastmile_qr_scan", "ios": "https://dc.lft.to/lastmile_qr_scan"}, "fusion_lon": 0.0}, {"lat": 38.9027135, "is_disabled": 0, "type": "electric_scooter", "lon": -77.01851166666667, "bike_id": "3ae4478364c4265e0d4fbd97bf9d069c", "fusion_lat": 0.0, "name": "3ae4478364c4265e0d4fbd97bf9d069c", "is_reserved": 0, "rental_uris": {"android": "https://dc.lft.to/lastmile_qr_scan", "ios": "https://dc.lft.to/lastmile_qr_scan"}, "fusion_lon": 0.0}, {"lat": 38.93320633333333, "is_disabled": 0, "type": "electric_scooter", "lon": -77.04526133333333, "bike_id": "9313bd3e842feed35196d5aeaf96496f", "fusion_lat": 0.0, "name": "9313bd3e842feed35196d5aeaf96496f", "is_reserved": 0, "rental_uris": {"android": "https://dc.lft.to/lastmile_qr_scan", "ios": "https://dc.lft.to/lastmile_qr_scan"}, "fusion_lon": 0.0}, {"lat": 38.972390833333336, "is_disabled": 0, "type": "electric_bike", "lon": -76.99346133333333, "bike_id": "4077f63d4b5cf02f351d6250b2910ee1", "fusion_lat": 0.0, "name": "4077f63d4b5cf02f351d6250b2910ee1", "is_reserved": 0, "rental_uris": {"android": "https://dc.lft.to/lastmile_qr_scan", "ios": "https://dc.lft.to/lastmile_qr_scan"}, "fusion_lon": 0.0}, {"lat": 38.9490095, "is_disabled": 0, "type": "electric_scooter", "lon": -77.03051316666667, "bike_id": "a2e069814bee6216a037997bda3a8c6b", "fusion_lat": 0.0, "name": "a2e069814bee6216a037997bda3a8c6b", "is_reserved": 0, "rental_uris": {"android": "https://dc.lft.to/lastmile_qr_scan", "ios": "https://dc.lft.to/lastmile_qr_scan"}, "fusion_lon": 0.0}, {"lat": 38.9223875, "is_disabled": 0, "type": "electric_scooter", "lon": -77.04576283333333, "bike_id": "59647d518cf66e8bff73957ce444fee9", "fusion_lat": 0.0, "name": "59647d518cf66e8bff73957ce444fee9", "is_reserved": 0, "rental_uris": {"android": "https://dc.lft.to/lastmile_qr_scan", "ios": "https://dc.lft.to/lastmile_qr_scan"}, "fusion_lon": 0.0}, {"lat": 38.90320583333333, "is_disabled": 0, "type": "electric_scooter", "lon": -77.0374265, "bike_id": "07c0c4bb51f1598954ce46f781ad6967", "fusion_lat": 0.0, "name": "07c0c4bb51f1598954ce46f781ad6967", "is_reserved": 0, "rental_uris": {"android": "https://dc.lft.to/lastmile_qr_scan", "ios": "https://dc.lft.to/lastmile_qr_scan"}, "fusion_lon": 0.0}, {"lat": 38.9017075, "is_disabled": 0, "type": "electric_scooter", "lon": -77.02005316666667, "bike_id": "af1a7f909ef5cafff3bbc575f2cb7489", "fusion_lat": 0.0, "name": "af1a7f909ef5cafff3bbc575f2cb7489", "is_reserved": 0, "rental_uris": {"android": "https://dc.lft.to/lastmile_qr_scan", "ios": "https://dc.lft.to/lastmile_qr_scan"}, "fusion_lon": 0.0}, {"lat": 38.9011415, "is_disabled": 0, "type": "electric_scooter", "lon": -77.0497945, "bike_id": "0171b048f6f872222c4fb04cabfd684d", "fusion_lat": 0.0, "name": "0171b048f6f872222c4fb04cabfd684d", "is_reserved": 0, "rental_uris": {"android": "https://dc.lft.to/lastmile_qr_scan", "ios": "https://dc.lft.to/lastmile_qr_scan"}, "fusion_lon": 0.0}, {"lat": 38.91198833333333, "is_disabled": 0, "type": "electric_scooter", "lon": -77.0022075, "bike_id": "ec0602190473c200b4a02e9d23bd052b", "fusion_lat": 0.0, "name": "ec0602190473c200b4a02e9d23bd052b", "is_reserved": 0, "rental_uris": {"android": "https://dc.lft.to/lastmile_qr_scan", "ios": "https://dc.lft.to/lastmile_qr_scan"}, "fusion_lon": 0.0}, {"lat": 38.84273566666667, "is_disabled": 0, "type": "electric_bike", "lon": -76.98847383333333, "bike_id": "df1d7dbaa7b9164e7e5b0ff1947176de", "fusion_lat": 0.0, "name": "df1d7dbaa7b9164e7e5b0ff1947176de", "is_reserved": 0, "rental_uris": {"android": "https://dc.lft.to/lastmile_qr_scan", "ios": "https://dc.lft.to/lastmile_qr_scan"}, "fusion_lon": 0.0}, {"lat": 38.887703333333334, "is_disabled": 0, "type": "electric_scooter", "lon": -76.95604766666666, "bike_id": "a3608fac82ff4fb4da74d03ffee1f264", "fusion_lat": 0.0, "name": "a3608fac82ff4fb4da74d03ffee1f264", "is_reserved": 0, "rental_uris": {"android": "https://dc.lft.to/lastmile_qr_scan", "ios": "https://dc.lft.to/lastmile_qr_scan"}, "fusion_lon": 0.0}, {"lat": 38.866345, "is_disabled": 0, "type": "electric_scooter", "lon": -76.98699166666667, "bike_id": "d45af0e6bfed0bcaa14312a7258afa26", "fusion_lat": 0.0, "name": "d45af0e6bfed0bcaa14312a7258afa26", "is_reserved": 0, "rental_uris": {"android": "https://dc.lft.to/lastmile_qr_scan", "ios": "https://dc.lft.to/lastmile_qr_scan"}, "fusion_lon": 0.0}, {"lat": 38.884912166666666, "is_disabled": 0, "type": "electric_scooter", "lon": -77.0071305, "bike_id": "7bd0e327ef4185077de5709599b23b5b", "fusion_lat": 0.0, "name": "7bd0e327ef4185077de5709599b23b5b", "is_reserved": 0, "rental_uris": {"android": "https://dc.lft.to/lastmile_qr_scan", "ios": "https://dc.lft.to/lastmile_qr_scan"}, "fusion_lon": 0.0}, {"lat": 38.93477816666667, "is_disabled": 0, "type": "electric_scooter", "lon": -77.03579366666666, "bike_id": "785acff8f8a2228e88ea0b4d7d85d71c", "fusion_lat": 0.0, "name": "785acff8f8a2228e88ea0b4d7d85d71c", "is_reserved": 0, "rental_uris": {"android": "https://dc.lft.to/lastmile_qr_scan", "ios": "https://dc.lft.to/lastmile_qr_scan"}, "fusion_lon": 0.0}, {"lat": 38.90159283333333, "is_disabled": 0, "type": "electric_bike", "lon": -77.02285883333333, "bike_id": "e4b4d7f76aac53e9e13e3b20afbc3728", "fusion_lat": 0.0, "name": "e4b4d7f76aac53e9e13e3b20afbc3728", "is_reserved": 0, "rental_uris": {"android": "https://dc.lft.to/lastmile_qr_scan", "ios": "https://dc.lft.to/lastmile_qr_scan"}, "fusion_lon": 0.0}, {"lat": 38.87582533333333, "is_disabled": 0, "type": "electric_bike", "lon": -77.10564933333333, "bike_id": "3613f664a5e39e1726951f76192db3dc", "fusion_lat": 0.0, "name": "3613f664a5e39e1726951f76192db3dc", "is_reserved": 0, "rental_uris": {"android": "https://dc.lft.to/lastmile_qr_scan", "ios": "https://dc.lft.to/lastmile_qr_scan"}, "fusion_lon": 0.0}, {"lat": 38.9323305, "is_disabled": 0, "type": "electric_scooter", "lon": -76.9960645, "bike_id": "1bddde0e503b6c278dd98f5940322c29", "fusion_lat": 0.0, "name": "1bddde0e503b6c278dd98f5940322c29", "is_reserved": 0, "rental_uris": {"android": "https://dc.lft.to/lastmile_qr_scan", "ios": "https://dc.lft.to/lastmile_qr_scan"}, "fusion_lon": 0.0}, {"lat": 38.843032, "is_disabled": 0, "type": "electric_scooter", "lon": -76.99938533333334, "bike_id": "ba80c038a90a2fdcd95b7fec38486fe5", "fusion_lat": 0.0, "name": "ba80c038a90a2fdcd95b7fec38486fe5", "is_reserved": 0, "rental_uris": {"android": "https://dc.lft.to/lastmile_qr_scan", "ios": "https://dc.lft.to/lastmile_qr_scan"}, "fusion_lon": 0.0}, {"lat": 38.942918166666665, "is_disabled": 0, "type": "electric_scooter", "lon": -77.02176933333334, "bike_id": "55da9f2b07b9ba46bb31357d0432b36f", "fusion_lat": 0.0, "name": "55da9f2b07b9ba46bb31357d0432b36f", "is_reserved": 0, "rental_uris": {"android": "https://dc.lft.to/lastmile_qr_scan", "ios": "https://dc.lft.to/lastmile_qr_scan"}, "fusion_lon": 0.0}, {"lat": 38.90880083333333, "is_disabled": 0, "type": "electric_scooter", "lon": -77.044036, "bike_id": "fd7634498a3fff065f3bc87f6eb85934", "fusion_lat": 0.0, "name": "fd7634498a3fff065f3bc87f6eb85934", "is_reserved": 0, "rental_uris": {"android": "https://dc.lft.to/lastmile_qr_scan", "ios": "https://dc.lft.to/lastmile_qr_scan"}, "fusion_lon": 0.0}, {"lat": 38.9133085, "is_disabled": 0, "type": "electric_scooter", "lon": -77.03262233333334, "bike_id": "2aafb80fae6beadd068d04957ddbf342", "fusion_lat": 0.0, "name": "2aafb80fae6beadd068d04957ddbf342", "is_reserved": 0, "rental_uris": {"android": "https://dc.lft.to/lastmile_qr_scan", "ios": "https://dc.lft.to/lastmile_qr_scan"}, "fusion_lon": 0.0}, {"lat": 38.920724166666666, "is_disabled": 0, "type": "electric_scooter", "lon": -77.04336433333333, "bike_id": "23d09e378e64c63a347ff6ec3ec713e6", "fusion_lat": 0.0, "name": "23d09e378e64c63a347ff6ec3ec713e6", "is_reserved": 0, "rental_uris": {"android": "https://dc.lft.to/lastmile_qr_scan", "ios": "https://dc.lft.to/lastmile_qr_scan"}, "fusion_lon": 0.0}, {"lat": 38.8934525, "is_disabled": 0, "type": "electric_scooter", "lon": -77.03202083333333, "bike_id": "abd4c2beec133f2e34499011d2d402c2", "fusion_lat": 0.0, "name": "abd4c2beec133f2e34499011d2d402c2", "is_reserved": 0, "rental_uris": {"android": "https://dc.lft.to/lastmile_qr_scan", "ios": "https://dc.lft.to/lastmile_qr_scan"}, "fusion_lon": 0.0}, {"lat": 38.91682316666667, "is_disabled": 0, "type": "electric_scooter", "lon": -77.0333345, "bike_id": "1572cf5e14ad61833c17e7d02c1f18e2", "fusion_lat": 0.0, "name": "1572cf5e14ad61833c17e7d02c1f18e2", "is_reserved": 0, "rental_uris": {"android": "https://dc.lft.to/lastmile_qr_scan", "ios": "https://dc.lft.to/lastmile_qr_scan"}, "fusion_lon": 0.0}, {"lat": 38.8922715, "is_disabled": 0, "type": "electric_scooter", "lon": -77.04877, "bike_id": "1fcf8bd89e24a3a94e4de36419a95328", "fusion_lat": 0.0, "name": "1fcf8bd89e24a3a94e4de36419a95328", "is_reserved": 0, "rental_uris": {"android": "https://dc.lft.to/lastmile_qr_scan", "ios": "https://dc.lft.to/lastmile_qr_scan"}, "fusion_lon": 0.0}, {"lat": 38.91922116666667, "is_disabled": 0, "type": "electric_scooter", "lon": -77.04805433333334, "bike_id": "a25cf8de21a2bdd9731e697aef55c648", "fusion_lat": 0.0, "name": "a25cf8de21a2bdd9731e697aef55c648", "is_reserved": 0, "rental_uris": {"android": "https://dc.lft.to/lastmile_qr_scan", "ios": "https://dc.lft.to/lastmile_qr_scan"}, "fusion_lon": 0.0}, {"lat": 38.866236, "is_disabled": 0, "type": "electric_bike", "lon": -76.94574683333333, "bike_id": "dfa3fa1e09eeea58882e81e60ee52c59", "fusion_lat": 0.0, "name": "dfa3fa1e09eeea58882e81e60ee52c59", "is_reserved": 0, "rental_uris": {"android": "https://dc.lft.to/lastmile_qr_scan", "ios": "https://dc.lft.to/lastmile_qr_scan"}, "fusion_lon": 0.0}, {"lat": 38.919527333333335, "is_disabled": 0, "type": "electric_scooter", "lon": -77.032085, "bike_id": "b49113ba9a931e1adecbbcab6590f145", "fusion_lat": 0.0, "name": "b49113ba9a931e1adecbbcab6590f145", "is_reserved": 0, "rental_uris": {"android": "https://dc.lft.to/lastmile_qr_scan", "ios": "https://dc.lft.to/lastmile_qr_scan"}, "fusion_lon": 0.0}, {"lat": 38.91492183333333, "is_disabled": 0, "type": "electric_scooter", "lon": -77.0326805, "bike_id": "37cbd969dcf5a97145341bc014cbac55", "fusion_lat": 0.0, "name": "37cbd969dcf5a97145341bc014cbac55", "is_reserved": 0, "rental_uris": {"android": "https://dc.lft.to/lastmile_qr_scan", "ios": "https://dc.lft.to/lastmile_qr_scan"}, "fusion_lon": 0.0}, {"lat": 38.896902, "is_disabled": 0, "type": "electric_scooter", "lon": -76.935424, "bike_id": "e539c933f42e46809e532cd7521c6c65", "fusion_lat": 0.0, "name": "e539c933f42e46809e532cd7521c6c65", "is_reserved": 0, "rental_uris": {"android": "https://dc.lft.to/lastmile_qr_scan", "ios": "https://dc.lft.to/lastmile_qr_scan"}, "fusion_lon": 0.0}, {"lat": 38.89853316666667, "is_disabled": 0, "type": "electric_scooter", "lon": -77.02908366666666, "bike_id": "2413eaf5e142980b5b29af0572fe9739", "fusion_lat": 0.0, "name": "2413eaf5e142980b5b29af0572fe9739", "is_reserved": 0, "rental_uris": {"android": "https://dc.lft.to/lastmile_qr_scan", "ios": "https://dc.lft.to/lastmile_qr_scan"}, "fusion_lon": 0.0}, {"lat": 38.959608333333335, "is_disabled": 0, "type": "electric_scooter", "lon": -77.03310516666667, "bike_id": "f8743c34a86de43e182f660e1c73a37c", "fusion_lat": 0.0, "name": "f8743c34a86de43e182f660e1c73a37c", "is_reserved": 0, "rental_uris": {"android": "https://dc.lft.to/lastmile_qr_scan", "ios": "https://dc.lft.to/lastmile_qr_scan"}, "fusion_lon": 0.0}, {"lat": 38.959655833333336, "is_disabled": 0, "type": "electric_bike", "lon": -77.10094166666667, "bike_id": "ad02e7fd410b4da55ce363b3f3f4b1f8", "fusion_lat": 0.0, "name": "ad02e7fd410b4da55ce363b3f3f4b1f8", "is_reserved": 0, "rental_uris": {"android": "https://dc.lft.to/lastmile_qr_scan", "ios": "https://dc.lft.to/lastmile_qr_scan"}, "fusion_lon": 0.0}, {"lat": 38.900705333333335, "is_disabled": 0, "type": "electric_scooter", "lon": -77.00236966666667, "bike_id": "76b65aeaaaf60e51fde580b339951158", "fusion_lat": 0.0, "name": "76b65aeaaaf60e51fde580b339951158", "is_reserved": 0, "rental_uris": {"android": "https://dc.lft.to/lastmile_qr_scan", "ios": "https://dc.lft.to/lastmile_qr_scan"}, "fusion_lon": 0.0}, {"lat": 38.96154416666667, "is_disabled": 0, "type": "electric_scooter", "lon": -77.02798766666666, "bike_id": "8a897f054b8d66f7a9a8bccd3c9fb9bb", "fusion_lat": 0.0, "name": "8a897f054b8d66f7a9a8bccd3c9fb9bb", "is_reserved": 0, "rental_uris": {"android": "https://dc.lft.to/lastmile_qr_scan", "ios": "https://dc.lft.to/lastmile_qr_scan"}, "fusion_lon": 0.0}, {"lat": 38.89902266666667, "is_disabled": 0, "type": "electric_scooter", "lon": -76.99732733333333, "bike_id": "498217ed512f5df384c87031f19682f6", "fusion_lat": 0.0, "name": "498217ed512f5df384c87031f19682f6", "is_reserved": 0, "rental_uris": {"android": "https://dc.lft.to/lastmile_qr_scan", "ios": "https://dc.lft.to/lastmile_qr_scan"}, "fusion_lon": 0.0}, {"lat": 38.905757666666666, "is_disabled": 0, "type": "electric_scooter", "lon": -77.00865483333334, "bike_id": "598a4578c98c1bc880b43efe049ca692", "fusion_lat": 0.0, "name": "598a4578c98c1bc880b43efe049ca692", "is_reserved": 0, "rental_uris": {"android": "https://dc.lft.to/lastmile_qr_scan", "ios": "https://dc.lft.to/lastmile_qr_scan"}, "fusion_lon": 0.0}, {"lat": 38.897350333333335, "is_disabled": 0, "type": "electric_scooter", "lon": -77.02325383333333, "bike_id": "4c92f63a8bdff35dc81ead1e89032293", "fusion_lat": 0.0, "name": "4c92f63a8bdff35dc81ead1e89032293", "is_reserved": 0, "rental_uris": {"android": "https://dc.lft.to/lastmile_qr_scan", "ios": "https://dc.lft.to/lastmile_qr_scan"}, "fusion_lon": 0.0}, {"lat": 38.9005415, "is_disabled": 0, "type": "electric_scooter", "lon": -77.01333683333333, "bike_id": "67dab0de8b0c36e566b21d2e8c947c5b", "fusion_lat": 0.0, "name": "67dab0de8b0c36e566b21d2e8c947c5b", "is_reserved": 0, "rental_uris": {"android": "https://dc.lft.to/lastmile_qr_scan", "ios": "https://dc.lft.to/lastmile_qr_scan"}, "fusion_lon": 0.0}, {"lat": 38.9030645, "is_disabled": 0, "type": "electric_scooter", "lon": -77.0021915, "bike_id": "cbe22cd898e9f07d2b0bdc6dbd46de17", "fusion_lat": 0.0, "name": "cbe22cd898e9f07d2b0bdc6dbd46de17", "is_reserved": 0, "rental_uris": {"android": "https://dc.lft.to/lastmile_qr_scan", "ios": "https://dc.lft.to/lastmile_qr_scan"}, "fusion_lon": 0.0}, {"lat": 38.90543516666666, "is_disabled": 0, "type": "electric_scooter", "lon": -77.041874, "bike_id": "2f271195f85a73190fb0492ce070ce32", "fusion_lat": 0.0, "name": "2f271195f85a73190fb0492ce070ce32", "is_reserved": 0, "rental_uris": {"android": "https://dc.lft.to/lastmile_qr_scan", "ios": "https://dc.lft.to/lastmile_qr_scan"}, "fusion_lon": 0.0}, {"lat": 38.90981633333333, "is_disabled": 0, "type": "electric_scooter", "lon": -77.03191333333334, "bike_id": "c059c546ff3ee9ad5a5abee63f0ce00f", "fusion_lat": 0.0, "name": "c059c546ff3ee9ad5a5abee63f0ce00f", "is_reserved": 0, "rental_uris": {"android": "https://dc.lft.to/lastmile_qr_scan", "ios": "https://dc.lft.to/lastmile_qr_scan"}, "fusion_lon": 0.0}, {"lat": 38.90273966666667, "is_disabled": 0, "type": "electric_scooter", "lon": -77.01904233333333, "bike_id": "f041e2b031ec8922d3cd09e5d2756c6b", "fusion_lat": 0.0, "name": "f041e2b031ec8922d3cd09e5d2756c6b", "is_reserved": 0, "rental_uris": {"android": "https://dc.lft.to/lastmile_qr_scan", "ios": "https://dc.lft.to/lastmile_qr_scan"}, "fusion_lon": 0.0}, {"lat": 38.96202483333333, "is_disabled": 0, "type": "electric_bike", "lon": -77.018851, "bike_id": "b654a067b690f2ff67a3da6780318739", "fusion_lat": 0.0, "name": "b654a067b690f2ff67a3da6780318739", "is_reserved": 0, "rental_uris": {"android": "https://dc.lft.to/lastmile_qr_scan", "ios": "https://dc.lft.to/lastmile_qr_scan"}, "fusion_lon": 0.0}, {"lat": 38.907861833333335, "is_disabled": 0, "type": "electric_scooter", "lon": -77.03861716666667, "bike_id": "904554128bb69ff1eeb2ab5762f7dd30", "fusion_lat": 0.0, "name": "904554128bb69ff1eeb2ab5762f7dd30", "is_reserved": 0, "rental_uris": {"android": "https://dc.lft.to/lastmile_qr_scan", "ios": "https://dc.lft.to/lastmile_qr_scan"}, "fusion_lon": 0.0}, {"lat": 38.86895283333333, "is_disabled": 0, "type": "electric_scooter", "lon": -76.9831305, "bike_id": "da0530bdd31f5d373d7855b7cbc77afa", "fusion_lat": 0.0, "name": "da0530bdd31f5d373d7855b7cbc77afa", "is_reserved": 0, "rental_uris": {"android": "https://dc.lft.to/lastmile_qr_scan", "ios": "https://dc.lft.to/lastmile_qr_scan"}, "fusion_lon": 0.0}, {"lat": 38.882596666666664, "is_disabled": 0, "type": "electric_scooter", "lon": -77.00432433333333, "bike_id": "5364eb608fc5a20072de075af97060d1", "fusion_lat": 0.0, "name": "5364eb608fc5a20072de075af97060d1", "is_reserved": 0, "rental_uris": {"android": "https://dc.lft.to/lastmile_qr_scan", "ios": "https://dc.lft.to/lastmile_qr_scan"}, "fusion_lon": 0.0}, {"lat": 38.92252583333333, "is_disabled": 0, "type": "electric_scooter", "lon": -77.0306535, "bike_id": "6980e1988b703a1f0468e6a36d2e8c9c", "fusion_lat": 0.0, "name": "6980e1988b703a1f0468e6a36d2e8c9c", "is_reserved": 0, "rental_uris": {"android": "https://dc.lft.to/lastmile_qr_scan", "ios": "https://dc.lft.to/lastmile_qr_scan"}, "fusion_lon": 0.0}, {"lat": 38.93015283333333, "is_disabled": 0, "type": "electric_bike", "lon": -77.216513, "bike_id": "2bcf492d8e43cc0a945c64e48f3d1ef4", "fusion_lat": 0.0, "name": "2bcf492d8e43cc0a945c64e48f3d1ef4", "is_reserved": 0, "rental_uris": {"android": "https://dc.lft.to/lastmile_qr_scan", "ios": "https://dc.lft.to/lastmile_qr_scan"}, "fusion_lon": 0.0}, {"lat": 38.919701, "is_disabled": 0, "type": "electric_bike", "lon": -76.97265666666667, "bike_id": "eb73708dadfc0801f97218e252dcba07", "fusion_lat": 0.0, "name": "eb73708dadfc0801f97218e252dcba07", "is_reserved": 0, "rental_uris": {"android": "https://dc.lft.to/lastmile_qr_scan", "ios": "https://dc.lft.to/lastmile_qr_scan"}, "fusion_lon": 0.0}, {"lat": 38.928628833333335, "is_disabled": 0, "type": "electric_scooter", "lon": -77.054331, "bike_id": "ce9580b73ec54477250cddb165e1af1e", "fusion_lat": 0.0, "name": "ce9580b73ec54477250cddb165e1af1e", "is_reserved": 0, "rental_uris": {"android": "https://dc.lft.to/lastmile_qr_scan", "ios": "https://dc.lft.to/lastmile_qr_scan"}, "fusion_lon": 0.0}, {"lat": 38.90223133333333, "is_disabled": 0, "type": "electric_scooter", "lon": -76.94590533333333, "bike_id": "81934305c93acb7b3babb34ef5aa1b06", "fusion_lat": 0.0, "name": "81934305c93acb7b3babb34ef5aa1b06", "is_reserved": 0, "rental_uris": {"android": "https://dc.lft.to/lastmile_qr_scan", "ios": "https://dc.lft.to/lastmile_qr_scan"}, "fusion_lon": 0.0}, {"lat": 38.9098545, "is_disabled": 0, "type": "electric_scooter", "lon": -77.03444883333333, "bike_id": "33bcf1250b6d1273592aa4bdfd8ee655", "fusion_lat": 0.0, "name": "33bcf1250b6d1273592aa4bdfd8ee655", "is_reserved": 0, "rental_uris": {"android": "https://dc.lft.to/lastmile_qr_scan", "ios": "https://dc.lft.to/lastmile_qr_scan"}, "fusion_lon": 0.0}, {"lat": 38.901439833333335, "is_disabled": 0, "type": "electric_bike", "lon": -76.98651016666666, "bike_id": "b250f417cfd58d3871e98b917c549aa1", "fusion_lat": 0.0, "name": "b250f417cfd58d3871e98b917c549aa1", "is_reserved": 0, "rental_uris": {"android": "https://dc.lft.to/lastmile_qr_scan", "ios": "https://dc.lft.to/lastmile_qr_scan"}, "fusion_lon": 0.0}, {"lat": 38.897972333333335, "is_disabled": 0, "type": "electric_scooter", "lon": -77.04366633333333, "bike_id": "94aa905e1c156b98b55e19548da2c6b8", "fusion_lat": 0.0, "name": "94aa905e1c156b98b55e19548da2c6b8", "is_reserved": 0, "rental_uris": {"android": "https://dc.lft.to/lastmile_qr_scan", "ios": "https://dc.lft.to/lastmile_qr_scan"}, "fusion_lon": 0.0}, {"lat": 38.933835333333334, "is_disabled": 0, "type": "electric_scooter", "lon": -77.03800883333334, "bike_id": "2a49b2d70e791be366d50fd3a6a238dc", "fusion_lat": 0.0, "name": "2a49b2d70e791be366d50fd3a6a238dc", "is_reserved": 0, "rental_uris": {"android": "https://dc.lft.to/lastmile_qr_scan", "ios": "https://dc.lft.to/lastmile_qr_scan"}, "fusion_lon": 0.0}, {"lat": 38.904618, "is_disabled": 0, "type": "electric_scooter", "lon": -76.99457, "bike_id": "152047456caada5782cca91b299da155", "fusion_lat": 0.0, "name": "152047456caada5782cca91b299da155", "is_reserved": 0, "rental_uris": {"android": "https://dc.lft.to/lastmile_qr_scan", "ios": "https://dc.lft.to/lastmile_qr_scan"}, "fusion_lon": 0.0}, {"lat": 38.90611116666667, "is_disabled": 0, "type": "electric_scooter", "lon": -77.06346, "bike_id": "8c2c12b8731916e7555adc547f084764", "fusion_lat": 0.0, "name": "8c2c12b8731916e7555adc547f084764", "is_reserved": 0, "rental_uris": {"android": "https://dc.lft.to/lastmile_qr_scan", "ios": "https://dc.lft.to/lastmile_qr_scan"}, "fusion_lon": 0.0}, {"lat": 38.92086116666667, "is_disabled": 0, "type": "electric_bike", "lon": -76.99187633333334, "bike_id": "d157da9d4462b06e042dc869a89144fe", "fusion_lat": 0.0, "name": "d157da9d4462b06e042dc869a89144fe", "is_reserved": 0, "rental_uris": {"android": "https://dc.lft.to/lastmile_qr_scan", "ios": "https://dc.lft.to/lastmile_qr_scan"}, "fusion_lon": 0.0}, {"lat": 38.90994883333333, "is_disabled": 0, "type": "electric_scooter", "lon": -77.04498716666667, "bike_id": "5c8a75bdafd47a1fe7275ec2ce0dcb6f", "fusion_lat": 0.0, "name": "5c8a75bdafd47a1fe7275ec2ce0dcb6f", "is_reserved": 0, "rental_uris": {"android": "https://dc.lft.to/lastmile_qr_scan", "ios": "https://dc.lft.to/lastmile_qr_scan"}, "fusion_lon": 0.0}, {"lat": 38.931007666666666, "is_disabled": 0, "type": "electric_scooter", "lon": -77.02560366666667, "bike_id": "789f7c1a7ad6d0d1c9cd764964611a38", "fusion_lat": 0.0, "name": "789f7c1a7ad6d0d1c9cd764964611a38", "is_reserved": 0, "rental_uris": {"android": "https://dc.lft.to/lastmile_qr_scan", "ios": "https://dc.lft.to/lastmile_qr_scan"}, "fusion_lon": 0.0}, {"lat": 38.892519666666665, "is_disabled": 0, "type": "electric_scooter", "lon": -77.04895133333333, "bike_id": "5bbc58b99f57da3a164f28d11f57b930", "fusion_lat": 0.0, "name": "5bbc58b99f57da3a164f28d11f57b930", "is_reserved": 0, "rental_uris": {"android": "https://dc.lft.to/lastmile_qr_scan", "ios": "https://dc.lft.to/lastmile_qr_scan"}, "fusion_lon": 0.0}, {"lat": 38.93363766666667, "is_disabled": 0, "type": "electric_scooter", "lon": -77.07367716666667, "bike_id": "badf562464729f68d8710fc9b0f4d266", "fusion_lat": 0.0, "name": "badf562464729f68d8710fc9b0f4d266", "is_reserved": 0, "rental_uris": {"android": "https://dc.lft.to/lastmile_qr_scan", "ios": "https://dc.lft.to/lastmile_qr_scan"}, "fusion_lon": 0.0}, {"lat": 38.89834616666667, "is_disabled": 0, "type": "electric_scooter", "lon": -76.93108216666667, "bike_id": "d0b8767d52ea4401e5eab9be19a05fc6", "fusion_lat": 0.0, "name": "d0b8767d52ea4401e5eab9be19a05fc6", "is_reserved": 0, "rental_uris": {"android": "https://dc.lft.to/lastmile_qr_scan", "ios": "https://dc.lft.to/lastmile_qr_scan"}, "fusion_lon": 0.0}, {"lat": 38.969309333333335, "is_disabled": 0, "type": "electric_bike", "lon": -77.026193, "bike_id": "a037e0402f1e857de216a6868eb8cc65", "fusion_lat": 0.0, "name": "a037e0402f1e857de216a6868eb8cc65", "is_reserved": 0, "rental_uris": {"android": "https://dc.lft.to/lastmile_qr_scan", "ios": "https://dc.lft.to/lastmile_qr_scan"}, "fusion_lon": 0.0}, {"lat": 38.90866666666667, "is_disabled": 0, "type": "electric_bike", "lon": -76.9316135, "bike_id": "9867fbfc1e7dc20a8fb3e4d726ede6cf", "fusion_lat": 0.0, "name": "9867fbfc1e7dc20a8fb3e4d726ede6cf", "is_reserved": 0, "rental_uris": {"android": "https://dc.lft.to/lastmile_qr_scan", "ios": "https://dc.lft.to/lastmile_qr_scan"}, "fusion_lon": 0.0}, {"lat": 38.90754066666667, "is_disabled": 0, "type": "electric_scooter", "lon": -77.0320965, "bike_id": "6b686f0b4cee1995d1f62d62f00705b9", "fusion_lat": 0.0, "name": "6b686f0b4cee1995d1f62d62f00705b9", "is_reserved": 0, "rental_uris": {"android": "https://dc.lft.to/lastmile_qr_scan", "ios": "https://dc.lft.to/lastmile_qr_scan"}, "fusion_lon": 0.0}, {"lat": 38.903208666666664, "is_disabled": 0, "type": "electric_scooter", "lon": -76.99004366666666, "bike_id": "06e468e37c64cc6b1b61128bdd8b13bc", "fusion_lat": 0.0, "name": "06e468e37c64cc6b1b61128bdd8b13bc", "is_reserved": 0, "rental_uris": {"android": "https://dc.lft.to/lastmile_qr_scan", "ios": "https://dc.lft.to/lastmile_qr_scan"}, "fusion_lon": 0.0}, {"lat": 38.832357, "is_disabled": 0, "type": "electric_bike", "lon": -77.04975683333333, "bike_id": "a19a2175dd84dc4c24e0bc5117819a03", "fusion_lat": 0.0, "name": "a19a2175dd84dc4c24e0bc5117819a03", "is_reserved": 0, "rental_uris": {"android": "https://dc.lft.to/lastmile_qr_scan", "ios": "https://dc.lft.to/lastmile_qr_scan"}, "fusion_lon": 0.0}, {"lat": 38.916827166666664, "is_disabled": 0, "type": "electric_scooter", "lon": -77.02406716666667, "bike_id": "800b0face4c3b188b8ea72cc02756af0", "fusion_lat": 0.0, "name": "800b0face4c3b188b8ea72cc02756af0", "is_reserved": 0, "rental_uris": {"android": "https://dc.lft.to/lastmile_qr_scan", "ios": "https://dc.lft.to/lastmile_qr_scan"}, "fusion_lon": 0.0}, {"lat": 38.86679266666667, "is_disabled": 0, "type": "electric_scooter", "lon": -76.98543566666666, "bike_id": "05ecd445117bf0cdd6a9aaa22bd70190", "fusion_lat": 0.0, "name": "05ecd445117bf0cdd6a9aaa22bd70190", "is_reserved": 0, "rental_uris": {"android": "https://dc.lft.to/lastmile_qr_scan", "ios": "https://dc.lft.to/lastmile_qr_scan"}, "fusion_lon": 0.0}, {"lat": 38.91771466666667, "is_disabled": 0, "type": "electric_scooter", "lon": -77.0282415, "bike_id": "246439e8be2c510fd88fb5448d8482e6", "fusion_lat": 0.0, "name": "246439e8be2c510fd88fb5448d8482e6", "is_reserved": 0, "rental_uris": {"android": "https://dc.lft.to/lastmile_qr_scan", "ios": "https://dc.lft.to/lastmile_qr_scan"}, "fusion_lon": 0.0}, {"lat": 38.897445, "is_disabled": 0, "type": "electric_scooter", "lon": -77.00076966666667, "bike_id": "a9ced46524ae7e5c2015781f85e87e38", "fusion_lat": 0.0, "name": "a9ced46524ae7e5c2015781f85e87e38", "is_reserved": 0, "rental_uris": {"android": "https://dc.lft.to/lastmile_qr_scan", "ios": "https://dc.lft.to/lastmile_qr_scan"}, "fusion_lon": 0.0}, {"lat": 38.9169505, "is_disabled": 0, "type": "electric_scooter", "lon": -77.03772183333334, "bike_id": "607174f2e62fde96da98866eec743a31", "fusion_lat": 0.0, "name": "607174f2e62fde96da98866eec743a31", "is_reserved": 0, "rental_uris": {"android": "https://dc.lft.to/lastmile_qr_scan", "ios": "https://dc.lft.to/lastmile_qr_scan"}, "fusion_lon": 0.0}, {"lat": 38.9001995, "is_disabled": 0, "type": "electric_scooter", "lon": -77.01203566666666, "bike_id": "48cc96faf0a454af85b628deb9afcc46", "fusion_lat": 0.0, "name": "48cc96faf0a454af85b628deb9afcc46", "is_reserved": 0, "rental_uris": {"android": "https://dc.lft.to/lastmile_qr_scan", "ios": "https://dc.lft.to/lastmile_qr_scan"}, "fusion_lon": 0.0}, {"lat": 38.933141, "is_disabled": 0, "type": "electric_scooter", "lon": -77.0452355, "bike_id": "a835afed399adba5564039fb1cd23e14", "fusion_lat": 0.0, "name": "a835afed399adba5564039fb1cd23e14", "is_reserved": 0, "rental_uris": {"android": "https://dc.lft.to/lastmile_qr_scan", "ios": "https://dc.lft.to/lastmile_qr_scan"}, "fusion_lon": 0.0}, {"lat": 38.9072225, "is_disabled": 0, "type": "electric_scooter", "lon": -77.04350416666666, "bike_id": "1ea952c2e70bd19ab5a819eb48eba713", "fusion_lat": 0.0, "name": "1ea952c2e70bd19ab5a819eb48eba713", "is_reserved": 0, "rental_uris": {"android": "https://dc.lft.to/lastmile_qr_scan", "ios": "https://dc.lft.to/lastmile_qr_scan"}, "fusion_lon": 0.0}, {"lat": 38.9097565, "is_disabled": 0, "type": "electric_scooter", "lon": -77.03945116666667, "bike_id": "986f9c78ab94b0f279aa0ae61a629d06", "fusion_lat": 0.0, "name": "986f9c78ab94b0f279aa0ae61a629d06", "is_reserved": 0, "rental_uris": {"android": "https://dc.lft.to/lastmile_qr_scan", "ios": "https://dc.lft.to/lastmile_qr_scan"}, "fusion_lon": 0.0}, {"lat": 38.909582666666665, "is_disabled": 0, "type": "electric_scooter", "lon": -77.03379583333333, "bike_id": "c9a680ac0d306e009710851fdfb6a0a1", "fusion_lat": 0.0, "name": "c9a680ac0d306e009710851fdfb6a0a1", "is_reserved": 0, "rental_uris": {"android": "https://dc.lft.to/lastmile_qr_scan", "ios": "https://dc.lft.to/lastmile_qr_scan"}, "fusion_lon": 0.0}, {"lat": 38.878765666666666, "is_disabled": 0, "type": "electric_scooter", "lon": -77.00763283333333, "bike_id": "0805ea1c389765284eb442fd9576151c", "fusion_lat": 0.0, "name": "0805ea1c389765284eb442fd9576151c", "is_reserved": 0, "rental_uris": {"android": "https://dc.lft.to/lastmile_qr_scan", "ios": "https://dc.lft.to/lastmile_qr_scan"}, "fusion_lon": 0.0}, {"lat": 38.877376166666664, "is_disabled": 0, "type": "electric_bike", "lon": -76.98110733333333, "bike_id": "7f97005830357fe4981a915dd697ad8f", "fusion_lat": 0.0, "name": "7f97005830357fe4981a915dd697ad8f", "is_reserved": 0, "rental_uris": {"android": "https://dc.lft.to/lastmile_qr_scan", "ios": "https://dc.lft.to/lastmile_qr_scan"}, "fusion_lon": 0.0}, {"lat": 38.898867333333335, "is_disabled": 0, "type": "electric_scooter", "lon": -77.02023466666667, "bike_id": "c17fd7482df2747c19be92a1692b7f20", "fusion_lat": 0.0, "name": "c17fd7482df2747c19be92a1692b7f20", "is_reserved": 0, "rental_uris": {"android": "https://dc.lft.to/lastmile_qr_scan", "ios": "https://dc.lft.to/lastmile_qr_scan"}, "fusion_lon": 0.0}, {"lat": 38.907759666666664, "is_disabled": 0, "type": "electric_scooter", "lon": -77.06070116666666, "bike_id": "6c2c49650f69d3f44fcbf86e7cdf6b56", "fusion_lat": 0.0, "name": "6c2c49650f69d3f44fcbf86e7cdf6b56", "is_reserved": 0, "rental_uris": {"android": "https://dc.lft.to/lastmile_qr_scan", "ios": "https://dc.lft.to/lastmile_qr_scan"}, "fusion_lon": 0.0}, {"lat": 38.8652345, "is_disabled": 0, "type": "electric_scooter", "lon": -76.990293, "bike_id": "4f0953b6320f2bdd77fa4237f40a7f7c", "fusion_lat": 0.0, "name": "4f0953b6320f2bdd77fa4237f40a7f7c", "is_reserved": 0, "rental_uris": {"android": "https://dc.lft.to/lastmile_qr_scan", "ios": "https://dc.lft.to/lastmile_qr_scan"}, "fusion_lon": 0.0}, {"lat": 38.932115333333336, "is_disabled": 0, "type": "electric_scooter", "lon": -76.9777155, "bike_id": "9686173c8340910d7842f4541259e7ee", "fusion_lat": 0.0, "name": "9686173c8340910d7842f4541259e7ee", "is_reserved": 0, "rental_uris": {"android": "https://dc.lft.to/lastmile_qr_scan", "ios": "https://dc.lft.to/lastmile_qr_scan"}, "fusion_lon": 0.0}, {"lat": 38.91425616666667, "is_disabled": 0, "type": "electric_scooter", "lon": -77.03184733333333, "bike_id": "02e67296a2d912bade0e7021c9cf4751", "fusion_lat": 0.0, "name": "02e67296a2d912bade0e7021c9cf4751", "is_reserved": 0, "rental_uris": {"android": "https://dc.lft.to/lastmile_qr_scan", "ios": "https://dc.lft.to/lastmile_qr_scan"}, "fusion_lon": 0.0}, {"lat": 38.902934333333334, "is_disabled": 0, "type": "electric_scooter", "lon": -77.03666733333333, "bike_id": "f524ab8935514b877c9f7e4371b0782f", "fusion_lat": 0.0, "name": "f524ab8935514b877c9f7e4371b0782f", "is_reserved": 0, "rental_uris": {"android": "https://dc.lft.to/lastmile_qr_scan", "ios": "https://dc.lft.to/lastmile_qr_scan"}, "fusion_lon": 0.0}, {"lat": 38.89582133333333, "is_disabled": 0, "type": "electric_bike", "lon": -77.12712116666667, "bike_id": "86eac8e37079786a7eb43ea93bf86fe3", "fusion_lat": 0.0, "name": "86eac8e37079786a7eb43ea93bf86fe3", "is_reserved": 0, "rental_uris": {"android": "https://dc.lft.to/lastmile_qr_scan", "ios": "https://dc.lft.to/lastmile_qr_scan"}, "fusion_lon": 0.0}, {"lat": 38.9276455, "is_disabled": 0, "type": "electric_scooter", "lon": -77.027864, "bike_id": "42fe31866312f015f4ef9be0fb4fd6b7", "fusion_lat": 0.0, "name": "42fe31866312f015f4ef9be0fb4fd6b7", "is_reserved": 0, "rental_uris": {"android": "https://dc.lft.to/lastmile_qr_scan", "ios": "https://dc.lft.to/lastmile_qr_scan"}, "fusion_lon": 0.0}, {"lat": 38.91009833333333, "is_disabled": 0, "type": "electric_scooter", "lon": -77.044242, "bike_id": "60bd0969ef1d6a37e3a91fb9153d85f4", "fusion_lat": 0.0, "name": "60bd0969ef1d6a37e3a91fb9153d85f4", "is_reserved": 0, "rental_uris": {"android": "https://dc.lft.to/lastmile_qr_scan", "ios": "https://dc.lft.to/lastmile_qr_scan"}, "fusion_lon": 0.0}, {"lat": 38.9067425, "is_disabled": 0, "type": "electric_scooter", "lon": -77.0386395, "bike_id": "1deaff1b8538ea72b6c15593b0551d8c", "fusion_lat": 0.0, "name": "1deaff1b8538ea72b6c15593b0551d8c", "is_reserved": 0, "rental_uris": {"android": "https://dc.lft.to/lastmile_qr_scan", "ios": "https://dc.lft.to/lastmile_qr_scan"}, "fusion_lon": 0.0}, {"lat": 38.91012633333333, "is_disabled": 0, "type": "electric_scooter", "lon": -77.04442433333334, "bike_id": "9f2bcd935e4d3c1ee47f7a29cc3ea763", "fusion_lat": 0.0, "name": "9f2bcd935e4d3c1ee47f7a29cc3ea763", "is_reserved": 0, "rental_uris": {"android": "https://dc.lft.to/lastmile_qr_scan", "ios": "https://dc.lft.to/lastmile_qr_scan"}, "fusion_lon": 0.0}, {"lat": 38.933615333333336, "is_disabled": 0, "type": "electric_bike", "lon": -77.09961933333334, "bike_id": "292d698f20cade1caecab88ac1b0cc35", "fusion_lat": 0.0, "name": "292d698f20cade1caecab88ac1b0cc35", "is_reserved": 0, "rental_uris": {"android": "https://dc.lft.to/lastmile_qr_scan", "ios": "https://dc.lft.to/lastmile_qr_scan"}, "fusion_lon": 0.0}, {"lat": 38.90849816666667, "is_disabled": 0, "type": "electric_scooter", "lon": -77.03474933333334, "bike_id": "4595a6eed860585ed8752429a7e61ec0", "fusion_lat": 0.0, "name": "4595a6eed860585ed8752429a7e61ec0", "is_reserved": 0, "rental_uris": {"android": "https://dc.lft.to/lastmile_qr_scan", "ios": "https://dc.lft.to/lastmile_qr_scan"}, "fusion_lon": 0.0}, {"lat": 38.944358333333334, "is_disabled": 0, "type": "electric_scooter", "lon": -77.0627635, "bike_id": "9a5a4a9efcdb78786b2618b0f36dc614", "fusion_lat": 0.0, "name": "9a5a4a9efcdb78786b2618b0f36dc614", "is_reserved": 0, "rental_uris": {"android": "https://dc.lft.to/lastmile_qr_scan", "ios": "https://dc.lft.to/lastmile_qr_scan"}, "fusion_lon": 0.0}, {"lat": 38.92034733333333, "is_disabled": 0, "type": "electric_scooter", "lon": -77.01325933333334, "bike_id": "7ecb79750cfb75de28cc21caa0fdbf78", "fusion_lat": 0.0, "name": "7ecb79750cfb75de28cc21caa0fdbf78", "is_reserved": 0, "rental_uris": {"android": "https://dc.lft.to/lastmile_qr_scan", "ios": "https://dc.lft.to/lastmile_qr_scan"}, "fusion_lon": 0.0}, {"lat": 38.90161716666667, "is_disabled": 0, "type": "electric_scooter", "lon": -77.024886, "bike_id": "594004baebcbce106505765f5f9b60ae", "fusion_lat": 0.0, "name": "594004baebcbce106505765f5f9b60ae", "is_reserved": 0, "rental_uris": {"android": "https://dc.lft.to/lastmile_qr_scan", "ios": "https://dc.lft.to/lastmile_qr_scan"}, "fusion_lon": 0.0}, {"lat": 38.89498533333333, "is_disabled": 0, "type": "electric_scooter", "lon": -77.002133, "bike_id": "1405c62322b544e168b8dc070ace702f", "fusion_lat": 0.0, "name": "1405c62322b544e168b8dc070ace702f", "is_reserved": 0, "rental_uris": {"android": "https://dc.lft.to/lastmile_qr_scan", "ios": "https://dc.lft.to/lastmile_qr_scan"}, "fusion_lon": 0.0}, {"lat": 38.92615883333333, "is_disabled": 0, "type": "electric_scooter", "lon": -77.04189383333333, "bike_id": "6769e812b8a1f42a176d9cce5d9583b5", "fusion_lat": 0.0, "name": "6769e812b8a1f42a176d9cce5d9583b5", "is_reserved": 0, "rental_uris": {"android": "https://dc.lft.to/lastmile_qr_scan", "ios": "https://dc.lft.to/lastmile_qr_scan"}, "fusion_lon": 0.0}, {"lat": 38.93601533333333, "is_disabled": 0, "type": "electric_scooter", "lon": -77.03175083333333, "bike_id": "fc41353913df7894e3ea879e78dd090a", "fusion_lat": 0.0, "name": "fc41353913df7894e3ea879e78dd090a", "is_reserved": 0, "rental_uris": {"android": "https://dc.lft.to/lastmile_qr_scan", "ios": "https://dc.lft.to/lastmile_qr_scan"}, "fusion_lon": 0.0}, {"lat": 38.90694633333333, "is_disabled": 0, "type": "electric_scooter", "lon": -77.02960316666666, "bike_id": "19e9d4ab82ae0887a2967faf3b976b11", "fusion_lat": 0.0, "name": "19e9d4ab82ae0887a2967faf3b976b11", "is_reserved": 0, "rental_uris": {"android": "https://dc.lft.to/lastmile_qr_scan", "ios": "https://dc.lft.to/lastmile_qr_scan"}, "fusion_lon": 0.0}, {"lat": 38.896650666666666, "is_disabled": 0, "type": "electric_scooter", "lon": -77.0240455, "bike_id": "c352a8187f3c277bf00c60ddddd22871", "fusion_lat": 0.0, "name": "c352a8187f3c277bf00c60ddddd22871", "is_reserved": 0, "rental_uris": {"android": "https://dc.lft.to/lastmile_qr_scan", "ios": "https://dc.lft.to/lastmile_qr_scan"}, "fusion_lon": 0.0}, {"lat": 38.86655916666667, "is_disabled": 0, "type": "electric_scooter", "lon": -76.98884583333333, "bike_id": "c04d476f23a36fef6aacfdf76c2436c6", "fusion_lat": 0.0, "name": "c04d476f23a36fef6aacfdf76c2436c6", "is_reserved": 0, "rental_uris": {"android": "https://dc.lft.to/lastmile_qr_scan", "ios": "https://dc.lft.to/lastmile_qr_scan"}, "fusion_lon": 0.0}, {"lat": 38.952959666666665, "is_disabled": 0, "type": "electric_scooter", "lon": -77.08153, "bike_id": "bccd0854067fc3178a27c9b2ed911702", "fusion_lat": 0.0, "name": "bccd0854067fc3178a27c9b2ed911702", "is_reserved": 0, "rental_uris": {"android": "https://dc.lft.to/lastmile_qr_scan", "ios": "https://dc.lft.to/lastmile_qr_scan"}, "fusion_lon": 0.0}, {"lat": 38.910356166666666, "is_disabled": 0, "type": "electric_scooter", "lon": -77.04259916666666, "bike_id": "c34a28fe08016997be9353b89118b2a0", "fusion_lat": 0.0, "name": "c34a28fe08016997be9353b89118b2a0", "is_reserved": 0, "rental_uris": {"android": "https://dc.lft.to/lastmile_qr_scan", "ios": "https://dc.lft.to/lastmile_qr_scan"}, "fusion_lon": 0.0}, {"lat": 38.9388435, "is_disabled": 0, "type": "electric_scooter", "lon": -77.03130516666667, "bike_id": "51b35e4840a69bbe1606b17d00d5e4fb", "fusion_lat": 0.0, "name": "51b35e4840a69bbe1606b17d00d5e4fb", "is_reserved": 0, "rental_uris": {"android": "https://dc.lft.to/lastmile_qr_scan", "ios": "https://dc.lft.to/lastmile_qr_scan"}, "fusion_lon": 0.0}, {"lat": 38.938667333333335, "is_disabled": 0, "type": "electric_scooter", "lon": -77.0265515, "bike_id": "ea703acae87f8006d597cdb9656d96c8", "fusion_lat": 0.0, "name": "ea703acae87f8006d597cdb9656d96c8", "is_reserved": 0, "rental_uris": {"android": "https://dc.lft.to/lastmile_qr_scan", "ios": "https://dc.lft.to/lastmile_qr_scan"}, "fusion_lon": 0.0}, {"lat": 38.9192245, "is_disabled": 0, "type": "electric_scooter", "lon": -77.02487066666667, "bike_id": "9b7f3a69b6bc960c8dec67bfc00ce706", "fusion_lat": 0.0, "name": "9b7f3a69b6bc960c8dec67bfc00ce706", "is_reserved": 0, "rental_uris": {"android": "https://dc.lft.to/lastmile_qr_scan", "ios": "https://dc.lft.to/lastmile_qr_scan"}, "fusion_lon": 0.0}, {"lat": 38.920649166666664, "is_disabled": 0, "type": "electric_scooter", "lon": -77.04375983333334, "bike_id": "1e45f4972520b3a487c80a711c73d9dc", "fusion_lat": 0.0, "name": "1e45f4972520b3a487c80a711c73d9dc", "is_reserved": 0, "rental_uris": {"android": "https://dc.lft.to/lastmile_qr_scan", "ios": "https://dc.lft.to/lastmile_qr_scan"}, "fusion_lon": 0.0}, {"lat": 38.89787583333333, "is_disabled": 0, "type": "electric_scooter", "lon": -77.009232, "bike_id": "b6185a15655790d26ff15812c06a9d0d", "fusion_lat": 0.0, "name": "b6185a15655790d26ff15812c06a9d0d", "is_reserved": 0, "rental_uris": {"android": "https://dc.lft.to/lastmile_qr_scan", "ios": "https://dc.lft.to/lastmile_qr_scan"}, "fusion_lon": 0.0}, {"lat": 38.8876555, "is_disabled": 0, "type": "electric_scooter", "lon": -76.95606016666666, "bike_id": "6b0be065b159f44b633c7e5c17c8e895", "fusion_lat": 0.0, "name": "6b0be065b159f44b633c7e5c17c8e895", "is_reserved": 0, "rental_uris": {"android": "https://dc.lft.to/lastmile_qr_scan", "ios": "https://dc.lft.to/lastmile_qr_scan"}, "fusion_lon": 0.0}, {"lat": 38.865573499999996, "is_disabled": 0, "type": "electric_bike", "lon": -76.97365816666667, "bike_id": "8557f74731f368f308bc9560e88b61e2", "fusion_lat": 0.0, "name": "8557f74731f368f308bc9560e88b61e2", "is_reserved": 0, "rental_uris": {"android": "https://dc.lft.to/lastmile_qr_scan", "ios": "https://dc.lft.to/lastmile_qr_scan"}, "fusion_lon": 0.0}, {"lat": 38.89040683333333, "is_disabled": 0, "type": "electric_scooter", "lon": -77.0297965, "bike_id": "9f95aa03b2f80034d6396bf8293fd8f4", "fusion_lat": 0.0, "name": "9f95aa03b2f80034d6396bf8293fd8f4", "is_reserved": 0, "rental_uris": {"android": "https://dc.lft.to/lastmile_qr_scan", "ios": "https://dc.lft.to/lastmile_qr_scan"}, "fusion_lon": 0.0}, {"lat": 38.943063333333335, "is_disabled": 0, "type": "electric_scooter", "lon": -77.05930333333333, "bike_id": "460e25a1ba5e924912edfa38003cea12", "fusion_lat": 0.0, "name": "460e25a1ba5e924912edfa38003cea12", "is_reserved": 0, "rental_uris": {"android": "https://dc.lft.to/lastmile_qr_scan", "ios": "https://dc.lft.to/lastmile_qr_scan"}, "fusion_lon": 0.0}, {"lat": 38.885121, "is_disabled": 0, "type": "electric_scooter", "lon": -77.0056755, "bike_id": "48889a08281718d900ba21a0c9de690c", "fusion_lat": 0.0, "name": "48889a08281718d900ba21a0c9de690c", "is_reserved": 0, "rental_uris": {"android": "https://dc.lft.to/lastmile_qr_scan", "ios": "https://dc.lft.to/lastmile_qr_scan"}, "fusion_lon": 0.0}, {"lat": 38.90968933333333, "is_disabled": 0, "type": "electric_scooter", "lon": -77.03567583333333, "bike_id": "f249beffef8e667285b0ca584e7824a3", "fusion_lat": 0.0, "name": "f249beffef8e667285b0ca584e7824a3", "is_reserved": 0, "rental_uris": {"android": "https://dc.lft.to/lastmile_qr_scan", "ios": "https://dc.lft.to/lastmile_qr_scan"}, "fusion_lon": 0.0}, {"lat": 38.85466016666667, "is_disabled": 0, "type": "electric_scooter", "lon": -76.97237666666666, "bike_id": "163dd1b5a04f5bd2d64048193b2ea106", "fusion_lat": 0.0, "name": "163dd1b5a04f5bd2d64048193b2ea106", "is_reserved": 0, "rental_uris": {"android": "https://dc.lft.to/lastmile_qr_scan", "ios": "https://dc.lft.to/lastmile_qr_scan"}, "fusion_lon": 0.0}, {"lat": 38.92358816666667, "is_disabled": 0, "type": "electric_scooter", "lon": -77.04383716666666, "bike_id": "a32509794e50233307b4563bd1f44b5f", "fusion_lat": 0.0, "name": "a32509794e50233307b4563bd1f44b5f", "is_reserved": 0, "rental_uris": {"android": "https://dc.lft.to/lastmile_qr_scan", "ios": "https://dc.lft.to/lastmile_qr_scan"}, "fusion_lon": 0.0}, {"lat": 38.91794733333333, "is_disabled": 0, "type": "electric_scooter", "lon": -77.04419483333334, "bike_id": "a53c1a9d094c8461bbd076b8312164ba", "fusion_lat": 0.0, "name": "a53c1a9d094c8461bbd076b8312164ba", "is_reserved": 0, "rental_uris": {"android": "https://dc.lft.to/lastmile_qr_scan", "ios": "https://dc.lft.to/lastmile_qr_scan"}, "fusion_lon": 0.0}, {"lat": 38.92790316666667, "is_disabled": 0, "type": "electric_bike", "lon": -76.97223283333334, "bike_id": "aea5f924815a72a25e7ea64055cf0045", "fusion_lat": 0.0, "name": "aea5f924815a72a25e7ea64055cf0045", "is_reserved": 0, "rental_uris": {"android": "https://dc.lft.to/lastmile_qr_scan", "ios": "https://dc.lft.to/lastmile_qr_scan"}, "fusion_lon": 0.0}, {"lat": 38.85520733333333, "is_disabled": 0, "type": "electric_bike", "lon": -77.12039283333333, "bike_id": "4e4f40069217b5128914ec7f888edfc8", "fusion_lat": 0.0, "name": "4e4f40069217b5128914ec7f888edfc8", "is_reserved": 0, "rental_uris": {"android": "https://dc.lft.to/lastmile_qr_scan", "ios": "https://dc.lft.to/lastmile_qr_scan"}, "fusion_lon": 0.0}, {"lat": 38.9784275, "is_disabled": 0, "type": "electric_bike", "lon": -77.02654416666667, "bike_id": "f9004974b7181aedc2f667f01a78fa6e", "fusion_lat": 0.0, "name": "f9004974b7181aedc2f667f01a78fa6e", "is_reserved": 0, "rental_uris": {"android": "https://dc.lft.to/lastmile_qr_scan", "ios": "https://dc.lft.to/lastmile_qr_scan"}, "fusion_lon": 0.0}, {"lat": 38.863852, "is_disabled": 0, "type": "electric_scooter", "lon": -76.99256233333334, "bike_id": "bcb42749f3b5e176de328f4462f4781a", "fusion_lat": 0.0, "name": "bcb42749f3b5e176de328f4462f4781a", "is_reserved": 0, "rental_uris": {"android": "https://dc.lft.to/lastmile_qr_scan", "ios": "https://dc.lft.to/lastmile_qr_scan"}, "fusion_lon": 0.0}, {"lat": 38.918650166666666, "is_disabled": 0, "type": "electric_scooter", "lon": -77.040263, "bike_id": "5da9bf09cc6fa8b55fe52a91d1cbb1e7", "fusion_lat": 0.0, "name": "5da9bf09cc6fa8b55fe52a91d1cbb1e7", "is_reserved": 0, "rental_uris": {"android": "https://dc.lft.to/lastmile_qr_scan", "ios": "https://dc.lft.to/lastmile_qr_scan"}, "fusion_lon": 0.0}, {"lat": 38.91753533333333, "is_disabled": 0, "type": "electric_scooter", "lon": -77.0366055, "bike_id": "5247163124304ccb53b93a1b931ec5fc", "fusion_lat": 0.0, "name": "5247163124304ccb53b93a1b931ec5fc", "is_reserved": 0, "rental_uris": {"android": "https://dc.lft.to/lastmile_qr_scan", "ios": "https://dc.lft.to/lastmile_qr_scan"}, "fusion_lon": 0.0}, {"lat": 38.90796516666666, "is_disabled": 0, "type": "electric_scooter", "lon": -76.9969955, "bike_id": "004d1a05f3759ebb141e2aeee0e3f303", "fusion_lat": 0.0, "name": "004d1a05f3759ebb141e2aeee0e3f303", "is_reserved": 0, "rental_uris": {"android": "https://dc.lft.to/lastmile_qr_scan", "ios": "https://dc.lft.to/lastmile_qr_scan"}, "fusion_lon": 0.0}, {"lat": 38.91540716666667, "is_disabled": 0, "type": "electric_scooter", "lon": -77.038478, "bike_id": "6b0043195846515a07da3fcce2ea582b", "fusion_lat": 0.0, "name": "6b0043195846515a07da3fcce2ea582b", "is_reserved": 0, "rental_uris": {"android": "https://dc.lft.to/lastmile_qr_scan", "ios": "https://dc.lft.to/lastmile_qr_scan"}, "fusion_lon": 0.0}, {"lat": 38.91265816666667, "is_disabled": 0, "type": "electric_scooter", "lon": -77.038151, "bike_id": "a48f262f005cf0057cea4f28d326f55e", "fusion_lat": 0.0, "name": "a48f262f005cf0057cea4f28d326f55e", "is_reserved": 0, "rental_uris": {"android": "https://dc.lft.to/lastmile_qr_scan", "ios": "https://dc.lft.to/lastmile_qr_scan"}, "fusion_lon": 0.0}, {"lat": 38.916952333333334, "is_disabled": 0, "type": "electric_scooter", "lon": -77.02959066666666, "bike_id": "1b8bea02456bf79cf11869e1d2167d1e", "fusion_lat": 0.0, "name": "1b8bea02456bf79cf11869e1d2167d1e", "is_reserved": 0, "rental_uris": {"android": "https://dc.lft.to/lastmile_qr_scan", "ios": "https://dc.lft.to/lastmile_qr_scan"}, "fusion_lon": 0.0}, {"lat": 38.91687116666667, "is_disabled": 0, "type": "electric_scooter", "lon": -77.02913133333334, "bike_id": "f4cb2b7451ed90cfc4d582dab2ba3948", "fusion_lat": 0.0, "name": "f4cb2b7451ed90cfc4d582dab2ba3948", "is_reserved": 0, "rental_uris": {"android": "https://dc.lft.to/lastmile_qr_scan", "ios": "https://dc.lft.to/lastmile_qr_scan"}, "fusion_lon": 0.0}, {"lat": 38.9314595, "is_disabled": 0, "type": "electric_scooter", "lon": -77.04145333333334, "bike_id": "b1f14a3e911a093a2e0af8f0f2a0f80e", "fusion_lat": 0.0, "name": "b1f14a3e911a093a2e0af8f0f2a0f80e", "is_reserved": 0, "rental_uris": {"android": "https://dc.lft.to/lastmile_qr_scan", "ios": "https://dc.lft.to/lastmile_qr_scan"}, "fusion_lon": 0.0}, {"lat": 38.86655433333333, "is_disabled": 0, "type": "electric_scooter", "lon": -76.98883816666667, "bike_id": "ec2929c0b1efeb24fc0d0120bd06131a", "fusion_lat": 0.0, "name": "ec2929c0b1efeb24fc0d0120bd06131a", "is_reserved": 0, "rental_uris": {"android": "https://dc.lft.to/lastmile_qr_scan", "ios": "https://dc.lft.to/lastmile_qr_scan"}, "fusion_lon": 0.0}, {"lat": 38.913618, "is_disabled": 0, "type": "electric_scooter", "lon": -77.0693305, "bike_id": "4b4d20073316eebe4f5200c928a72357", "fusion_lat": 0.0, "name": "4b4d20073316eebe4f5200c928a72357", "is_reserved": 0, "rental_uris": {"android": "https://dc.lft.to/lastmile_qr_scan", "ios": "https://dc.lft.to/lastmile_qr_scan"}, "fusion_lon": 0.0}, {"lat": 38.91421783333333, "is_disabled": 0, "type": "electric_scooter", "lon": -77.029248, "bike_id": "63d1641f575d3c4012e1c1800c35bbdc", "fusion_lat": 0.0, "name": "63d1641f575d3c4012e1c1800c35bbdc", "is_reserved": 0, "rental_uris": {"android": "https://dc.lft.to/lastmile_qr_scan", "ios": "https://dc.lft.to/lastmile_qr_scan"}, "fusion_lon": 0.0}, {"lat": 38.921600833333336, "is_disabled": 0, "type": "electric_scooter", "lon": -77.03350666666667, "bike_id": "aeb825d1912b3a88449022b1fd29e84d", "fusion_lat": 0.0, "name": "aeb825d1912b3a88449022b1fd29e84d", "is_reserved": 0, "rental_uris": {"android": "https://dc.lft.to/lastmile_qr_scan", "ios": "https://dc.lft.to/lastmile_qr_scan"}, "fusion_lon": 0.0}, {"lat": 38.92320266666667, "is_disabled": 0, "type": "electric_scooter", "lon": -77.03969616666667, "bike_id": "80483b95fbb5e56c504cafb8c6335310", "fusion_lat": 0.0, "name": "80483b95fbb5e56c504cafb8c6335310", "is_reserved": 0, "rental_uris": {"android": "https://dc.lft.to/lastmile_qr_scan", "ios": "https://dc.lft.to/lastmile_qr_scan"}, "fusion_lon": 0.0}, {"lat": 38.9063485, "is_disabled": 0, "type": "electric_scooter", "lon": -77.026935, "bike_id": "3091beb1bbbda682e438df4638b12445", "fusion_lat": 0.0, "name": "3091beb1bbbda682e438df4638b12445", "is_reserved": 0, "rental_uris": {"android": "https://dc.lft.to/lastmile_qr_scan", "ios": "https://dc.lft.to/lastmile_qr_scan"}, "fusion_lon": 0.0}, {"lat": 38.89919483333333, "is_disabled": 0, "type": "electric_scooter", "lon": -76.9338415, "bike_id": "b4dafc628dfcb687cfa6e73141775820", "fusion_lat": 0.0, "name": "b4dafc628dfcb687cfa6e73141775820", "is_reserved": 0, "rental_uris": {"android": "https://dc.lft.to/lastmile_qr_scan", "ios": "https://dc.lft.to/lastmile_qr_scan"}, "fusion_lon": 0.0}, {"lat": 38.955099, "is_disabled": 0, "type": "electric_bike", "lon": -77.0699975, "bike_id": "b8556c00cea7887cbb334e732fe506c5", "fusion_lat": 0.0, "name": "b8556c00cea7887cbb334e732fe506c5", "is_reserved": 0, "rental_uris": {"android": "https://dc.lft.to/lastmile_qr_scan", "ios": "https://dc.lft.to/lastmile_qr_scan"}, "fusion_lon": 0.0}, {"lat": 38.86352316666667, "is_disabled": 0, "type": "electric_scooter", "lon": -76.99000166666667, "bike_id": "3722ac6fe269026fa00d9ebe8d53db02", "fusion_lat": 0.0, "name": "3722ac6fe269026fa00d9ebe8d53db02", "is_reserved": 0, "rental_uris": {"android": "https://dc.lft.to/lastmile_qr_scan", "ios": "https://dc.lft.to/lastmile_qr_scan"}, "fusion_lon": 0.0}, {"lat": 38.91558883333333, "is_disabled": 0, "type": "electric_scooter", "lon": -77.02431583333333, "bike_id": "a88823c11e13a2b16c4bf05910769826", "fusion_lat": 0.0, "name": "a88823c11e13a2b16c4bf05910769826", "is_reserved": 0, "rental_uris": {"android": "https://dc.lft.to/lastmile_qr_scan", "ios": "https://dc.lft.to/lastmile_qr_scan"}, "fusion_lon": 0.0}, {"lat": 38.912614833333336, "is_disabled": 0, "type": "electric_scooter", "lon": -77.04766083333334, "bike_id": "a82ef09aac4a1f03c296635cb898d9fd", "fusion_lat": 0.0, "name": "a82ef09aac4a1f03c296635cb898d9fd", "is_reserved": 0, "rental_uris": {"android": "https://dc.lft.to/lastmile_qr_scan", "ios": "https://dc.lft.to/lastmile_qr_scan"}, "fusion_lon": 0.0}, {"lat": 38.84871066666667, "is_disabled": 0, "type": "electric_scooter", "lon": -76.97694616666666, "bike_id": "36e870959df723b9b722dd34cafd9ba3", "fusion_lat": 0.0, "name": "36e870959df723b9b722dd34cafd9ba3", "is_reserved": 0, "rental_uris": {"android": "https://dc.lft.to/lastmile_qr_scan", "ios": "https://dc.lft.to/lastmile_qr_scan"}, "fusion_lon": 0.0}, {"lat": 38.95563, "is_disabled": 0, "type": "electric_bike", "lon": -76.93545466666667, "bike_id": "e77e257b0e2f0668f95e7ba740d5f180", "fusion_lat": 0.0, "name": "e77e257b0e2f0668f95e7ba740d5f180", "is_reserved": 0, "rental_uris": {"android": "https://dc.lft.to/lastmile_qr_scan", "ios": "https://dc.lft.to/lastmile_qr_scan"}, "fusion_lon": 0.0}, {"lat": 38.898830833333335, "is_disabled": 0, "type": "electric_scooter", "lon": -77.05341283333334, "bike_id": "03f61aca2a574d39f6ec84625517e95f", "fusion_lat": 0.0, "name": "03f61aca2a574d39f6ec84625517e95f", "is_reserved": 0, "rental_uris": {"android": "https://dc.lft.to/lastmile_qr_scan", "ios": "https://dc.lft.to/lastmile_qr_scan"}, "fusion_lon": 0.0}, {"lat": 38.90611533333333, "is_disabled": 0, "type": "electric_scooter", "lon": -77.06353083333333, "bike_id": "e012e7f241481a9f369a1d304ae0b8d6", "fusion_lat": 0.0, "name": "e012e7f241481a9f369a1d304ae0b8d6", "is_reserved": 0, "rental_uris": {"android": "https://dc.lft.to/lastmile_qr_scan", "ios": "https://dc.lft.to/lastmile_qr_scan"}, "fusion_lon": 0.0},