{"data": {"bikes": [{"type": "electric_bike", "rental_uris": {"ios": "https://dc.lft.to/lastmile_qr_scan", "android": "https://dc.lft.to/lastmile_qr_scan"}, "lon": -77.03211383333333, "fusion_lon": 0.0, "is_disabled": 0, "lat": 38.9155855, "bike_id": "ba5f52070f9e6af4019e3ff3372797bb", "name": "ba5f52070f9e6af4019e3ff3372797bb", "is_reserved": 0, "fusion_lat": 0.0}, {"type": "electric_scooter", "rental_uris": {"ios": "https://dc.lft.to/lastmile_qr_scan", "android": "https://dc.lft.to/lastmile_qr_scan"}, "lon": -77.0385635, "fusion_lon": 0.0, "is_disabled": 0, "lat": 38.91546816666666, "bike_id": "439d29631bd6335e97cad870e5f86a87", "name": "439d29631bd6335e97cad870e5f86a87", "is_reserved": 0, "fusion_lat": 0.0}, {"type": "electric_scooter", "rental_uris": {"ios": "https://dc.lft.to/lastmile_qr_scan", "android": "https://dc.lft.to/lastmile_qr_scan"}, "lon": -77.04007616666667, "fusion_lon": 0.0, "is_disabled": 0, "lat": 38.91008333333333, "bike_id": "0cecef9e4200e202ae81290b7dce5555", "name": "0cecef9e4200e202ae81290b7dce5555", "is_reserved": 0, "fusion_lat": 0.0}, {"type": "electric_scooter", "rental_uris": {"ios": "https://dc.lft.to/lastmile_qr_scan", "android": "https://dc.lft.to/lastmile_qr_scan"}, "lon": -77.0413135, "fusion_lon": 0.0, "is_disabled": 0, "lat": 38.933977666666664, "bike_id": "455fbaf85f607e44a7555b1cac46ac71", "name": "455fbaf85f607e44a7555b1cac46ac71", "is_reserved": 0, "fusion_lat": 0.0}, {"type": "electric_scooter", "rental_uris": {"ios": "https://dc.lft.to/lastmile_qr_scan", "android": "https://dc.lft.to/lastmile_qr_scan"}, "lon": -77.03973816666667, "fusion_lon": 0.0, "is_disabled": 0, "lat": 38.89884683333333, "bike_id": "8bf6790bc7a1824d394a56780a368332", "name": "8bf6790bc7a1824d394a56780a368332", "is_reserved": 0, "fusion_lat": 0.0}, {"type": "electric_scooter", "rental_uris": {"ios": "https://dc.lft.to/lastmile_qr_scan", "android": "https://dc.lft.to/lastmile_qr_scan"}, "lon": -77.07710033333333, "fusion_lon": 0.0, "is_disabled": 0, "lat": 38.92971466666667, "bike_id": "33242ac66c524b76ac02660907161c2a", "name": "33242ac66c524b76ac02660907161c2a", "is_reserved": 0, "fusion_lat": 0.0}, {"type": "electric_bike", "rental_uris": {"ios": "https://dc.lft.to/lastmile_qr_scan", "android": "https://dc.lft.to/lastmile_qr_scan"}, "lon": -77.0282645, "fusion_lon": 0.0, "is_disabled": 0, "lat": 38.96502566666667, "bike_id": "7415a14fe793d7aa92584ded0413d2a4", "name": "7415a14fe793d7aa92584ded0413d2a4", "is_reserved": 0, "fusion_lat": 0.0}, {"type": "electric_bike", "rental_uris": {"ios": "https://dc.lft.to/lastmile_qr_scan", "android": "https://dc.lft.to/lastmile_qr_scan"}, "lon": -77.04496566666667, "fusion_lon": 0.0, "is_disabled": 0, "lat": 38.84286566666667, "bike_id": "f9fbbd306509aee96dd79e7b01ea6f62", "name": "f9fbbd306509aee96dd79e7b01ea6f62", "is_reserved": 0, "fusion_lat": 0.0}, {"type": "electric_scooter", "rental_uris": {"ios": "https://dc.lft.to/lastmile_qr_scan", "android": "https://dc.lft.to/lastmile_qr_scan"}, "lon": -76.99845533333334, "fusion_lon": 0.0, "is_disabled": 0, "lat": 38.900012333333336, "bike_id": "f97474b834c54bb20f7da21d72d6490c", "name": "f97474b834c54bb20f7da21d72d6490c", "is_reserved": 0, "fusion_lat": 0.0}, {"type": "electric_scooter", "rental_uris": {"ios": "https://dc.lft.to/lastmile_qr_scan", "android": "https://dc.lft.to/lastmile_qr_scan"}, "lon": -77.02221366666667, "fusion_lon": 0.0, "is_disabled": 0, "lat": 38.8922155, "bike_id": "be3a25529c700afa19cdcad47ba8d4bd", "name": "be3a25529c700afa19cdcad47ba8d4bd", "is_reserved": 0, "fusion_lat": 0.0}, {"type": "electric_scooter", "rental_uris": {"ios": "https://dc.lft.to/lastmile_qr_scan", "android": "https://dc.lft.to/lastmile_qr_scan"}, "lon": -77.0318805, "fusion_lon": 0.0, "is_disabled": 0, "lat": 38.913341, "bike_id": "f75556a5ec60f524bf2ee19466e6f68d", "name": "f75556a5ec60f524bf2ee19466e6f68d", "is_reserved": 0, "fusion_lat": 0.0}, {"type": "electric_scooter", "rental_uris": {"ios": "https://dc.lft.to/lastmile_qr_scan", "android": "https://dc.lft.to/lastmile_qr_scan"}, "lon": -77.02140133333333, "fusion_lon": 0.0, "is_disabled": 0, "lat": 38.92593083333333, "bike_id": "9390ff6e94df547701031cea4b772756", "name": "9390ff6e94df547701031cea4b772756", "is_reserved": 0, "fusion_lat": 0.0}, {"type": "electric_scooter", "rental_uris": {"ios": "https://dc.lft.to/lastmile_qr_scan", "android": "https://dc.lft.to/lastmile_qr_scan"}, "lon": -77.032913, "fusion_lon": 0.0, "is_disabled": 0, "lat": 38.947146000000004, "bike_id": "05f04798c6dd6e4d4e34c08ce61a4993", "name": "05f04798c6dd6e4d4e34c08ce61a4993", "is_reserved": 0, "fusion_lat": 0.0}, {"type": "electric_scooter", "rental_uris": {"ios": "https://dc.lft.to/lastmile_qr_scan", "android": "https://dc.lft.to/lastmile_qr_scan"}, "lon": -77.0443665, "fusion_lon": 0.0, "is_disabled": 0, "lat": 38.912681166666665, "bike_id": "08e3b121fac92e23eb1a6bd6f0a95e9e", "name": "08e3b121fac92e23eb1a6bd6f0a95e9e", "is_reserved": 0, "fusion_lat": 0.0}, {"type": "electric_scooter", "rental_uris": {"ios": "https://dc.lft.to/lastmile_qr_scan", "android": "https://dc.lft.to/lastmile_qr_scan"}, "lon": -77.02463133333333, "fusion_lon": 0.0, "is_disabled": 0, "lat": 38.933012833333336, "bike_id": "12737ccbbf2ab7715961d2ad790ebc68", "name": "12737ccbbf2ab7715961d2ad790ebc68", "is_reserved": 0, "fusion_lat": 0.0}, {"type": "electric_scooter", "rental_uris": {"ios": "https://dc.lft.to/lastmile_qr_scan", "android": "https://dc.lft.to/lastmile_qr_scan"}, "lon": -77.06980316666667, "fusion_lon": 0.0, "is_disabled": 0, "lat": 38.95245, "bike_id": "b9361db37d344042eaa63e2e7f1777bd", "name": "b9361db37d344042eaa63e2e7f1777bd", "is_reserved": 0, "fusion_lat": 0.0}, {"type": "electric_scooter", "rental_uris": {"ios": "https://dc.lft.to/lastmile_qr_scan", "android": "https://dc.lft.to/lastmile_qr_scan"}, "lon": -77.03160316666667, "fusion_lon": 0.0, "is_disabled": 0, "lat": 38.8922385, "bike_id": "3fff52995818fcee7ba578947bba13bb", "name": "3fff52995818fcee7ba578947bba13bb", "is_reserved": 0, "fusion_lat": 0.0}, {"type": "electric_scooter", "rental_uris": {"ios": "https://dc.lft.to/lastmile_qr_scan", "android": "https://dc.lft.to/lastmile_qr_scan"}, "lon": -77.04448433333333, "fusion_lon": 0.0, "is_disabled": 0, "lat": 38.93020466666667, "bike_id": "64d4ae3c2d9df2e629aa96b21089b5d5", "name": "64d4ae3c2d9df2e629aa96b21089b5d5", "is_reserved": 0, "fusion_lat": 0.0}, {"type": "electric_scooter", "rental_uris": {"ios": "https://dc.lft.to/lastmile_qr_scan", "android": "https://dc.lft.to/lastmile_qr_scan"}, "lon": -76.9898695, "fusion_lon": 0.0, "is_disabled": 0, "lat": 38.86497833333333, "bike_id": "836db84c7da1b6d47acab4359175f1f4", "name": "836db84c7da1b6d47acab4359175f1f4", "is_reserved": 0, "fusion_lat": 0.0}, {"type": "electric_scooter", "rental_uris": {"ios": "https://dc.lft.to/lastmile_qr_scan", "android": "https://dc.lft.to/lastmile_qr_scan"}, "lon": -77.03164433333333, "fusion_lon": 0.0, "is_disabled": 0, "lat": 38.89223916666667, "bike_id": "baf6e7be098350a379fa54f3156f3cb6", "name": "baf6e7be098350a379fa54f3156f3cb6", "is_reserved": 0, "fusion_lat": 0.0}, {"type": "electric_scooter", "rental_uris": {"ios": "https://dc.lft.to/lastmile_qr_scan", "android": "https://dc.lft.to/lastmile_qr_scan"}, "lon": -77.0320985, "fusion_lon": 0.0, "is_disabled": 0, "lat": 38.9171755, "bike_id": "d437291a0b373cf06208746e27720851", "name": "d437291a0b373cf06208746e27720851", "is_reserved": 0, "fusion_lat": 0.0}, {"type": "electric_scooter", "rental_uris": {"ios": "https://dc.lft.to/lastmile_qr_scan", "android": "https://dc.lft.to/lastmile_qr_scan"}, "lon": -76.939877, "fusion_lon": 0.0, "is_disabled": 0, "lat": 38.8997915, "bike_id": "095394a204001f027c3681e22fd19bfa", "name": "095394a204001f027c3681e22fd19bfa", "is_reserved": 0, "fusion_lat": 0.0}, {"type": "electric_bike", "rental_uris": {"ios": "https://dc.lft.to/lastmile_qr_scan", "android": "https://dc.lft.to/lastmile_qr_scan"}, "lon": -77.11222233333334, "fusion_lon": 0.0, "is_disabled": 0, "lat": 38.828746, "bike_id": "b42816766fb2e5ccff556ea71f13076e", "name": "b42816766fb2e5ccff556ea71f13076e", "is_reserved": 0, "fusion_lat": 0.0}, {"type": "electric_scooter", "rental_uris": {"ios": "https://dc.lft.to/lastmile_qr_scan", "android": "https://dc.lft.to/lastmile_qr_scan"}, "lon": -77.00454166666667, "fusion_lon": 0.0, "is_disabled": 0, "lat": 38.9117575, "bike_id": "4193246ce34dcb81cc57753575466ce8", "name": "4193246ce34dcb81cc57753575466ce8", "is_reserved": 0, "fusion_lat": 0.0}, {"type": "electric_bike", "rental_uris": {"ios": "https://dc.lft.to/lastmile_qr_scan", "android": "https://dc.lft.to/lastmile_qr_scan"}, "lon": -77.03646033333334, "fusion_lon": 0.0, "is_disabled": 0, "lat": 38.92801733333334, "bike_id": "4ee96c0ac8ae7e85ac884c22cfa93872", "name": "4ee96c0ac8ae7e85ac884c22cfa93872", "is_reserved": 0, "fusion_lat": 0.0}, {"type": "electric_scooter", "rental_uris": {"ios": "https://dc.lft.to/lastmile_qr_scan", "android": "https://dc.lft.to/lastmile_qr_scan"}, "lon": -77.032516, "fusion_lon": 0.0, "is_disabled": 0, "lat": 38.939703, "bike_id": "59f1ba6c2dc1701e610d69d181d5f861", "name": "59f1ba6c2dc1701e610d69d181d5f861", "is_reserved": 0, "fusion_lat": 0.0}, {"type": "electric_bike", "rental_uris": {"ios": "https://dc.lft.to/lastmile_qr_scan", "android": "https://dc.lft.to/lastmile_qr_scan"}, "lon": -76.99348, "fusion_lon": 0.0, "is_disabled": 0, "lat": 38.972262666666666, "bike_id": "1c2e4c5d6ff700ea62c28b2062a021b2", "name": "1c2e4c5d6ff700ea62c28b2062a021b2", "is_reserved": 0, "fusion_lat": 0.0}, {"type": "electric_scooter", "rental_uris": {"ios": "https://dc.lft.to/lastmile_qr_scan", "android": "https://dc.lft.to/lastmile_qr_scan"}, "lon": -76.99696883333333, "fusion_lon": 0.0, "is_disabled": 0, "lat": 38.90840683333333, "bike_id": "e0f04155f732a046cf8f7d7b9c69b8b0", "name": "e0f04155f732a046cf8f7d7b9c69b8b0", "is_reserved": 0, "fusion_lat": 0.0}, {"type": "electric_scooter", "rental_uris": {"ios": "https://dc.lft.to/lastmile_qr_scan", "android": "https://dc.lft.to/lastmile_qr_scan"}, "lon": -77.003104, "fusion_lon": 0.0, "is_disabled": 0, "lat": 38.82596133333333, "bike_id": "3b92fc6e1077de0fe3c8e1bb1c111e93", "name": "3b92fc6e1077de0fe3c8e1bb1c111e93", "is_reserved": 0, "fusion_lat": 0.0}, {"type": "electric_scooter", "rental_uris": {"ios": "https://dc.lft.to/lastmile_qr_scan", "android": "https://dc.lft.to/lastmile_qr_scan"}, "lon": -77.0436355, "fusion_lon": 0.0, "is_disabled": 0, "lat": 38.89224183333333, "bike_id": "c2d65a5f06976a03935ee35df856050a", "name": "c2d65a5f06976a03935ee35df856050a", "is_reserved": 0, "fusion_lat": 0.0}, {"type": "electric_scooter", "rental_uris": {"ios": "https://dc.lft.to/lastmile_qr_scan", "android": "https://dc.lft.to/lastmile_qr_scan"}, "lon": -76.99507333333334, "fusion_lon": 0.0, "is_disabled": 0, "lat": 38.88363716666667, "bike_id": "5fe665e26330cca6bde025d92ac61244", "name": "5fe665e26330cca6bde025d92ac61244", "is_reserved": 0, "fusion_lat": 0.0}, {"type": "electric_scooter", "rental_uris": {"ios": "https://dc.lft.to/lastmile_qr_scan", "android": "https://dc.lft.to/lastmile_qr_scan"}, "lon": -77.03666116666666, "fusion_lon": 0.0, "is_disabled": 0, "lat": 38.917069166666664, "bike_id": "5c31b37051ee594ca1ee8ee1bf05494a", "name": "5c31b37051ee594ca1ee8ee1bf05494a", "is_reserved": 0, "fusion_lat": 0.0}, {"type": "electric_scooter", "rental_uris": {"ios": "https://dc.lft.to/lastmile_qr_scan", "android": "https://dc.lft.to/lastmile_qr_scan"}, "lon": -77.02834416666667, "fusion_lon": 0.0, "is_disabled": 0, "lat": 38.90258133333333, "bike_id": "562f501a3e0c66cd81f4b5e391e97fca", "name": "562f501a3e0c66cd81f4b5e391e97fca", "is_reserved": 0, "fusion_lat": 0.0}, {"type": "electric_scooter", "rental_uris": {"ios": "https://dc.lft.to/lastmile_qr_scan", "android": "https://dc.lft.to/lastmile_qr_scan"}, "lon": -77.0318225, "fusion_lon": 0.0, "is_disabled": 0, "lat": 38.91329833333333, "bike_id": "37f57c365ad9fe56ad646b22bc3df2b6", "name": "37f57c365ad9fe56ad646b22bc3df2b6", "is_reserved": 0, "fusion_lat": 0.0}, {"type": "electric_scooter", "rental_uris": {"ios": "https://dc.lft.to/lastmile_qr_scan", "android": "https://dc.lft.to/lastmile_qr_scan"}, "lon": -76.932996, "fusion_lon": 0.0, "is_disabled": 0, "lat": 38.88136166666666, "bike_id": "83c31aa54cce7859bb71e8525c3c8165", "name": "83c31aa54cce7859bb71e8525c3c8165", "is_reserved": 0, "fusion_lat": 0.0}, {"type": "electric_scooter", "rental_uris": {"ios": "https://dc.lft.to/lastmile_qr_scan", "android": "https://dc.lft.to/lastmile_qr_scan"}, "lon": -77.03951733333334, "fusion_lon": 0.0, "is_disabled": 0, "lat": 38.9245785, "bike_id": "3ebce05558a82bc140cf19d9813b9622", "name": "3ebce05558a82bc140cf19d9813b9622", "is_reserved": 0, "fusion_lat": 0.0}, {"type": "electric_scooter", "rental_uris": {"ios": "https://dc.lft.to/lastmile_qr_scan", "android": "https://dc.lft.to/lastmile_qr_scan"}, "lon": -77.01866966666667, "fusion_lon": 0.0, "is_disabled": 0, "lat": 38.93151683333333, "bike_id": "01de5c6eb642d957f9e5eec9c45b3411", "name": "01de5c6eb642d957f9e5eec9c45b3411", "is_reserved": 0, "fusion_lat": 0.0}, {"type": "electric_scooter", "rental_uris": {"ios": "https://dc.lft.to/lastmile_qr_scan", "android": "https://dc.lft.to/lastmile_qr_scan"}, "lon": -76.94633666666667, "fusion_lon": 0.0, "is_disabled": 0, "lat": 38.8984335, "bike_id": "4528069ca5056b723f7b66a9fb9b5b33", "name": "4528069ca5056b723f7b66a9fb9b5b33", "is_reserved": 0, "fusion_lat": 0.0}, {"type": "electric_scooter", "rental_uris": {"ios": "https://dc.lft.to/lastmile_qr_scan", "android": "https://dc.lft.to/lastmile_qr_scan"}, "lon": -77.026081, "fusion_lon": 0.0, "is_disabled": 0, "lat": 38.91416683333333, "bike_id": "5f0810f2b6e1853744c581027deefe2f", "name": "5f0810f2b6e1853744c581027deefe2f", "is_reserved": 0, "fusion_lat": 0.0}, {"type": "electric_scooter", "rental_uris": {"ios": "https://dc.lft.to/lastmile_qr_scan", "android": "https://dc.lft.to/lastmile_qr_scan"}, "lon": -77.02591933333333, "fusion_lon": 0.0, "is_disabled": 0, "lat": 38.90526083333334, "bike_id": "7db0bda15d9f94e9c50a973b36f5159d", "name": "7db0bda15d9f94e9c50a973b36f5159d", "is_reserved": 0, "fusion_lat": 0.0}, {"type": "electric_scooter", "rental_uris": {"ios": "https://dc.lft.to/lastmile_qr_scan", "android": "https://dc.lft.to/lastmile_qr_scan"}, "lon": -77.04027216666667, "fusion_lon": 0.0, "is_disabled": 0, "lat": 38.91806833333333, "bike_id": "a0a2418fbcf2a5c49deeec945bfe872f", "name": "a0a2418fbcf2a5c49deeec945bfe872f", "is_reserved": 0, "fusion_lat": 0.0}, {"type": "electric_scooter", "rental_uris": {"ios": "https://dc.lft.to/lastmile_qr_scan", "android": "https://dc.lft.to/lastmile_qr_scan"}, "lon": -77.02667083333333, "fusion_lon": 0.0, "is_disabled": 0, "lat": 38.899356, "bike_id": "8e662ea9c59154bde4ff36236193e680", "name": "8e662ea9c59154bde4ff36236193e680", "is_reserved": 0, "fusion_lat": 0.0}, {"type": "electric_scooter", "rental_uris": {"ios": "https://dc.lft.to/lastmile_qr_scan", "android": "https://dc.lft.to/lastmile_qr_scan"}, "lon": -77.0130365, "fusion_lon": 0.0, "is_disabled": 0, "lat": 38.88134016666667, "bike_id": "6feae3cbdbafc4cff73ee3a513fe45bf", "name": "6feae3cbdbafc4cff73ee3a513fe45bf", "is_reserved": 0, "fusion_lat": 0.0}, {"type": "electric_scooter", "rental_uris": {"ios": "https://dc.lft.to/lastmile_qr_scan", "android": "https://dc.lft.to/lastmile_qr_scan"}, "lon": -77.04365716666666, "fusion_lon": 0.0, "is_disabled": 0, "lat": 38.89222216666667, "bike_id": "2deb56f16ae6068f8135b1a3d94d71c2", "name": "2deb56f16ae6068f8135b1a3d94d71c2", "is_reserved": 0, "fusion_lat": 0.0}, {"type": "electric_scooter", "rental_uris": {"ios": "https://dc.lft.to/lastmile_qr_scan", "android": "https://dc.lft.to/lastmile_qr_scan"}, "lon": -77.02688, "fusion_lon": 0.0, "is_disabled": 0, "lat": 38.916904833333334, "bike_id": "fd699774f74b7234adabf9c675241aaa", "name": "fd699774f74b7234adabf9c675241aaa", "is_reserved": 0, "fusion_lat": 0.0}, {"type": "electric_scooter", "rental_uris": {"ios": "https://dc.lft.to/lastmile_qr_scan", "android": "https://dc.lft.to/lastmile_qr_scan"}, "lon": -77.0278375, "fusion_lon": 0.0, "is_disabled": 0, "lat": 38.96129066666666, "bike_id": "4df03b1db06bb725d4415fe4acb0ec2a", "name": "4df03b1db06bb725d4415fe4acb0ec2a", "is_reserved": 0, "fusion_lat": 0.0}, {"type": "electric_scooter", "rental_uris": {"ios": "https://dc.lft.to/lastmile_qr_scan", "android": "https://dc.lft.to/lastmile_qr_scan"}, "lon": -77.03076033333333, "fusion_lon": 0.0, "is_disabled": 0, "lat": 38.911078, "bike_id": "920459c1ed6bef716fb7026d992b603f", "name": "920459c1ed6bef716fb7026d992b603f", "is_reserved": 0, "fusion_lat": 0.0}, {"type": "electric_scooter", "rental_uris": {"ios": "https://dc.lft.to/lastmile_qr_scan", "android": "https://dc.lft.to/lastmile_qr_scan"}, "lon": -77.023346, "fusion_lon": 0.0, "is_disabled": 0, "lat": 38.917714333333336, "bike_id": "eecf4d000b03ae5431923a96943ab816", "name": "eecf4d000b03ae5431923a96943ab816", "is_reserved": 0, "fusion_lat": 0.0}, {"type": "electric_scooter", "rental_uris": {"ios": "https://dc.lft.to/lastmile_qr_scan", "android": "https://dc.lft.to/lastmile_qr_scan"}, "lon": -77.04248416666667, "fusion_lon": 0.0, "is_disabled": 0, "lat": 38.907748166666664, "bike_id": "7603640495bd2350b245419ae0b1d96b", "name": "7603640495bd2350b245419ae0b1d96b", "is_reserved": 0, "fusion_lat": 0.0}, {"type": "electric_scooter", "rental_uris": {"ios": "https://dc.lft.to/lastmile_qr_scan", "android": "https://dc.lft.to/lastmile_qr_scan"}, "lon": -77.04469716666667, "fusion_lon": 0.0, "is_disabled": 0, "lat": 38.91534566666667, "bike_id": "62a3e03074b127c51ec499afe16a303c", "name": "62a3e03074b127c51ec499afe16a303c", "is_reserved": 0, "fusion_lat": 0.0}, {"type": "electric_bike", "rental_uris": {"ios": "https://dc.lft.to/lastmile_qr_scan", "android": "https://dc.lft.to/lastmile_qr_scan"}, "lon": -77.1874155, "fusion_lon": 0.0, "is_disabled": 0, "lat": 38.893542833333335, "bike_id": "219541e4baaa5ae4e28cf53f6579a190", "name": "219541e4baaa5ae4e28cf53f6579a190", "is_reserved": 0, "fusion_lat": 0.0}, {"type": "electric_scooter", "rental_uris": {"ios": "https://dc.lft.to/lastmile_qr_scan", "android": "https://dc.lft.to/lastmile_qr_scan"}, "lon": -77.040139, "fusion_lon": 0.0, "is_disabled": 0, "lat": 38.92206083333333, "bike_id": "cd6bb7f356480b155ea48afb2ad805e8", "name": "cd6bb7f356480b155ea48afb2ad805e8", "is_reserved": 0, "fusion_lat": 0.0}, {"type": "electric_scooter", "rental_uris": {"ios": "https://dc.lft.to/lastmile_qr_scan", "android": "https://dc.lft.to/lastmile_qr_scan"}, "lon": -77.0450355, "fusion_lon": 0.0, "is_disabled": 0, "lat": 38.9120195, "bike_id": "f08f5ee11e9dffc30687e10fe67172ed", "name": "f08f5ee11e9dffc30687e10fe67172ed", "is_reserved": 0, "fusion_lat": 0.0}, {"type": "electric_bike", "rental_uris": {"ios": "https://dc.lft.to/lastmile_qr_scan", "android": "https://dc.lft.to/lastmile_qr_scan"}, "lon": -77.04413016666666, "fusion_lon": 0.0, "is_disabled": 0, "lat": 39.01564883333333, "bike_id": "a79eb8b9b994b2152a9e4e6bf1caede9", "name": "a79eb8b9b994b2152a9e4e6bf1caede9", "is_reserved": 0, "fusion_lat": 0.0}, {"type": "electric_scooter", "rental_uris": {"ios": "https://dc.lft.to/lastmile_qr_scan", "android": "https://dc.lft.to/lastmile_qr_scan"}, "lon": -77.032868, "fusion_lon": 0.0, "is_disabled": 0, "lat": 38.899367833333336, "bike_id": "76552298f62179f096a5f97db73a12cd", "name": "76552298f62179f096a5f97db73a12cd", "is_reserved": 0, "fusion_lat": 0.0}, {"type": "electric_scooter", "rental_uris": {"ios": "https://dc.lft.to/lastmile_qr_scan", "android": "https://dc.lft.to/lastmile_qr_scan"}, "lon": -77.036627, "fusion_lon": 0.0, "is_disabled": 0, "lat": 38.917266833333336, "bike_id": "27b3933d3193a86fd89720c02d16a43d", "name": "27b3933d3193a86fd89720c02d16a43d", "is_reserved": 0, "fusion_lat": 0.0}, {"type": "electric_scooter", "rental_uris": {"ios": "https://dc.lft.to/lastmile_qr_scan", "android": "https://dc.lft.to/lastmile_qr_scan"}, "lon": -77.03169583333333, "fusion_lon": 0.0, "is_disabled": 0, "lat": 38.8962235, "bike_id": "f98ae51cf93e6b6db4292864adfc4de2", "name": "f98ae51cf93e6b6db4292864adfc4de2", "is_reserved": 0, "fusion_lat": 0.0}, {"type": "electric_scooter", "rental_uris": {"ios": "https://dc.lft.to/lastmile_qr_scan", "android": "https://dc.lft.to/lastmile_qr_scan"}, "lon": -77.0060705, "fusion_lon": 0.0, "is_disabled": 0, "lat": 38.90640616666666, "bike_id": "7de11de293e8cb066b79dce32906a723", "name": "7de11de293e8cb066b79dce32906a723", "is_reserved": 0, "fusion_lat": 0.0}, {"type": "electric_scooter", "rental_uris": {"ios": "https://dc.lft.to/lastmile_qr_scan", "android": "https://dc.lft.to/lastmile_qr_scan"}, "lon": -77.03275566666667, "fusion_lon": 0.0, "is_disabled": 0, "lat": 38.9293355, "bike_id": "41c65d49c3aa59084009ad65f4b105c4", "name": "41c65d49c3aa59084009ad65f4b105c4", "is_reserved": 0, "fusion_lat": 0.0}, {"type": "electric_scooter", "rental_uris": {"ios": "https://dc.lft.to/lastmile_qr_scan", "android": "https://dc.lft.to/lastmile_qr_scan"}, "lon": -77.01158616666666, "fusion_lon": 0.0, "is_disabled": 0, "lat": 38.903106, "bike_id": "d564dfb43745dcdd029af84c3e693c05", "name": "d564dfb43745dcdd029af84c3e693c05", "is_reserved": 0, "fusion_lat": 0.0}, {"type": "electric_scooter", "rental_uris": {"ios": "https://dc.lft.to/lastmile_qr_scan", "android": "https://dc.lft.to/lastmile_qr_scan"}, "lon": -77.01367283333333, "fusion_lon": 0.0, "is_disabled": 0, "lat": 38.89229433333333, "bike_id": "fb1e9a233ac5b297d837c868b96d6083", "name": "fb1e9a233ac5b297d837c868b96d6083", "is_reserved": 0, "fusion_lat": 0.0}, {"type": "electric_bike", "rental_uris": {"ios": "https://dc.lft.to/lastmile_qr_scan", "android": "https://dc.lft.to/lastmile_qr_scan"}, "lon": -77.04976883333333, "fusion_lon": 0.0, "is_disabled": 0, "lat": 39.062938333333335, "bike_id": "10accad1bf3a79bcf05f86ab89529430", "name": "10accad1bf3a79bcf05f86ab89529430", "is_reserved": 0, "fusion_lat": 0.0}, {"type": "electric_scooter", "rental_uris": {"ios": "https://dc.lft.to/lastmile_qr_scan", "android": "https://dc.lft.to/lastmile_qr_scan"}, "lon": -77.01803766666667, "fusion_lon": 0.0, "is_disabled": 0, "lat": 38.92145716666667, "bike_id": "1caadf2d0144830793a89e3ea7ac9393", "name": "1caadf2d0144830793a89e3ea7ac9393", "is_reserved": 0, "fusion_lat": 0.0}, {"type": "electric_scooter", "rental_uris": {"ios": "https://dc.lft.to/lastmile_qr_scan", "android": "https://dc.lft.to/lastmile_qr_scan"}, "lon": -77.03733483333333, "fusion_lon": 0.0, "is_disabled": 0, "lat": 38.928497166666666, "bike_id": "1c8aa92d467e90394a7ad7ba0badfc5c", "name": "1c8aa92d467e90394a7ad7ba0badfc5c", "is_reserved": 0, "fusion_lat": 0.0}, {"type": "electric_scooter", "rental_uris": {"ios": "https://dc.lft.to/lastmile_qr_scan", "android": "https://dc.lft.to/lastmile_qr_scan"}, "lon": -77.03149, "fusion_lon": 0.0, "is_disabled": 0, "lat": 38.915614833333336, "bike_id": "7335b3167356357fbf073f31db774daa", "name": "7335b3167356357fbf073f31db774daa", "is_reserved": 0, "fusion_lat": 0.0}, {"type": "electric_scooter", "rental_uris": {"ios": "https://dc.lft.to/lastmile_qr_scan", "android": "https://dc.lft.to/lastmile_qr_scan"}, "lon": -77.03955733333333, "fusion_lon": 0.0, "is_disabled": 0, "lat": 38.919776666666664, "bike_id": "7fb2bfbbbb4ba77f0821d5ae5df6012c", "name": "7fb2bfbbbb4ba77f0821d5ae5df6012c", "is_reserved": 0, "fusion_lat": 0.0}, {"type": "electric_scooter", "rental_uris": {"ios": "https://dc.lft.to/lastmile_qr_scan", "android": "https://dc.lft.to/lastmile_qr_scan"}, "lon": -76.999046, "fusion_lon": 0.0, "is_disabled": 0, "lat": 38.94826966666667, "bike_id": "7293cd4abcc174dd8f38fcd7333287e7", "name": "7293cd4abcc174dd8f38fcd7333287e7", "is_reserved": 0, "fusion_lat": 0.0}, {"type": "electric_scooter", "rental_uris": {"ios": "https://dc.lft.to/lastmile_qr_scan", "android": "https://dc.lft.to/lastmile_qr_scan"}, "lon": -77.05226433333333, "fusion_lon": 0.0, "is_disabled": 0, "lat": 38.9249985, "bike_id": "8200d159ba8fca16c948fc527042dab7", "name": "8200d159ba8fca16c948fc527042dab7", "is_reserved": 0, "fusion_lat": 0.0}, {"type": "electric_scooter", "rental_uris": {"ios": "https://dc.lft.to/lastmile_qr_scan", "android": "https://dc.lft.to/lastmile_qr_scan"}, "lon": -77.0318945, "fusion_lon": 0.0, "is_disabled": 0, "lat": 38.91745733333333, "bike_id": "9f80235de8223ac251a65fee7f046509", "name": "9f80235de8223ac251a65fee7f046509", "is_reserved": 0, "fusion_lat": 0.0}, {"type": "electric_scooter", "rental_uris": {"ios": "https://dc.lft.to/lastmile_qr_scan", "android": "https://dc.lft.to/lastmile_qr_scan"}, "lon": -76.93607183333333, "fusion_lon": 0.0, "is_disabled": 0, "lat": 38.89683016666667, "bike_id": "45301ca6773cb9d3e7e0f4975670bda5", "name": "45301ca6773cb9d3e7e0f4975670bda5", "is_reserved": 0, "fusion_lat": 0.0}, {"type": "electric_scooter", "rental_uris": {"ios": "https://dc.lft.to/lastmile_qr_scan", "android": "https://dc.lft.to/lastmile_qr_scan"}, "lon": -77.0212995, "fusion_lon": 0.0, "is_disabled": 0, "lat": 38.8874355, "bike_id": "9b6d94e387aeaf4480fc7a5497f652d2", "name": "9b6d94e387aeaf4480fc7a5497f652d2", "is_reserved": 0, "fusion_lat": 0.0}, {"type": "electric_scooter", "rental_uris": {"ios": "https://dc.lft.to/lastmile_qr_scan", "android": "https://dc.lft.to/lastmile_qr_scan"}, "lon": -77.02178, "fusion_lon": 0.0, "is_disabled": 0, "lat": 38.9148435, "bike_id": "ea32f3bc10b8777f7eabe47bbc395280", "name": "ea32f3bc10b8777f7eabe47bbc395280", "is_reserved": 0, "fusion_lat": 0.0}, {"type": "electric_scooter", "rental_uris": {"ios": "https://dc.lft.to/lastmile_qr_scan", "android": "https://dc.lft.to/lastmile_qr_scan"}, "lon": -77.06052333333334, "fusion_lon": 0.0, "is_disabled": 0, "lat": 38.9445845, "bike_id": "f1cfdcc58cc23774521def442c8a5213", "name": "f1cfdcc58cc23774521def442c8a5213", "is_reserved": 0, "fusion_lat": 0.0}, {"type": "electric_scooter", "rental_uris": {"ios": "https://dc.lft.to/lastmile_qr_scan", "android": "https://dc.lft.to/lastmile_qr_scan"}, "lon": -77.06047133333334, "fusion_lon": 0.0, "is_disabled": 0, "lat": 38.902258333333336, "bike_id": "e5463ad5b93b640cc26ebfabdf3a0540", "name": "e5463ad5b93b640cc26ebfabdf3a0540", "is_reserved": 0, "fusion_lat": 0.0}, {"type": "electric_scooter", "rental_uris": {"ios": "https://dc.lft.to/lastmile_qr_scan", "android": "https://dc.lft.to/lastmile_qr_scan"}, "lon": -77.04686066666666, "fusion_lon": 0.0, "is_disabled": 0, "lat": 38.897329166666665, "bike_id": "d63758522262450561cf7fa4e3f8278e", "name": "d63758522262450561cf7fa4e3f8278e", "is_reserved": 0, "fusion_lat": 0.0}, {"type": "electric_scooter", "rental_uris": {"ios": "https://dc.lft.to/lastmile_qr_scan", "android": "https://dc.lft.to/lastmile_qr_scan"}, "lon": -77.03244516666666, "fusion_lon": 0.0, "is_disabled": 0, "lat": 38.9087235, "bike_id": "d5a15522cdbc7dd8d9edf302b8182f4a", "name": "d5a15522cdbc7dd8d9edf302b8182f4a", "is_reserved": 0, "fusion_lat": 0.0}, {"type": "electric_scooter", "rental_uris": {"ios": "https://dc.lft.to/lastmile_qr_scan", "android": "https://dc.lft.to/lastmile_qr_scan"}, "lon": -77.04846383333333, "fusion_lon": 0.0, "is_disabled": 0, "lat": 38.90471766666667, "bike_id": "136ffb7eafa2667d2f9d19750d72765d", "name": "136ffb7eafa2667d2f9d19750d72765d", "is_reserved": 0, "fusion_lat": 0.0}, {"type": "electric_scooter", "rental_uris": {"ios": "https://dc.lft.to/lastmile_qr_scan", "android": "https://dc.lft.to/lastmile_qr_scan"}, "lon": -77.02701716666667, "fusion_lon": 0.0, "is_disabled": 0, "lat": 38.90146, "bike_id": "a2ebe4857515674abfa676fd3e8dc669", "name": "a2ebe4857515674abfa676fd3e8dc669", "is_reserved": 0, "fusion_lat": 0.0}, {"type": "electric_scooter", "rental_uris": {"ios": "https://dc.lft.to/lastmile_qr_scan", "android": "https://dc.lft.to/lastmile_qr_scan"}, "lon": -77.03220066666667, "fusion_lon": 0.0, "is_disabled": 0, "lat": 38.909753333333335, "bike_id": "0c86c02cb9783cb5e31eca2c553db949", "name": "0c86c02cb9783cb5e31eca2c553db949", "is_reserved": 0, "fusion_lat": 0.0}, {"type": "electric_scooter", "rental_uris": {"ios": "https://dc.lft.to/lastmile_qr_scan", "android": "https://dc.lft.to/lastmile_qr_scan"}, "lon": -77.02694383333333, "fusion_lon": 0.0, "is_disabled": 0, "lat": 38.91124666666666, "bike_id": "3c5bece33e13c32d0343ad8b2f4406c5", "name": "3c5bece33e13c32d0343ad8b2f4406c5", "is_reserved": 0, "fusion_lat": 0.0}, {"type": "electric_scooter", "rental_uris": {"ios": "https://dc.lft.to/lastmile_qr_scan", "android": "https://dc.lft.to/lastmile_qr_scan"}, "lon": -77.03486, "fusion_lon": 0.0, "is_disabled": 0, "lat": 38.919282, "bike_id": "cb17ab49c5d6d848d2288efa2118fce1", "name": "cb17ab49c5d6d848d2288efa2118fce1", "is_reserved": 0, "fusion_lat": 0.0}, {"type": "electric_bike", "rental_uris": {"ios": "https://dc.lft.to/lastmile_qr_scan", "android": "https://dc.lft.to/lastmile_qr_scan"}, "lon": -76.98763966666667, "fusion_lon": 0.0, "is_disabled": 0, "lat": 38.8576875, "bike_id": "56b453e7805a7602755dbe761514c557", "name": "56b453e7805a7602755dbe761514c557", "is_reserved": 0, "fusion_lat": 0.0}, {"type": "electric_scooter", "rental_uris": {"ios": "https://dc.lft.to/lastmile_qr_scan", "android": "https://dc.lft.to/lastmile_qr_scan"}, "lon": -77.05749916666667, "fusion_lon": 0.0, "is_disabled": 0, "lat": 38.93363516666667, "bike_id": "183252a522411e0cf6883343674d4244", "name": "183252a522411e0cf6883343674d4244", "is_reserved": 0, "fusion_lat": 0.0}, {"type": "electric_scooter", "rental_uris": {"ios": "https://dc.lft.to/lastmile_qr_scan", "android": "https://dc.lft.to/lastmile_qr_scan"}, "lon": -77.036781, "fusion_lon": 0.0, "is_disabled": 0, "lat": 38.918068166666664, "bike_id": "91b283514a7583c29f838a3566407784", "name": "91b283514a7583c29f838a3566407784", "is_reserved": 0, "fusion_lat": 0.0}, {"type": "electric_scooter", "rental_uris": {"ios": "https://dc.lft.to/lastmile_qr_scan", "android": "https://dc.lft.to/lastmile_qr_scan"}, "lon": -77.0315695, "fusion_lon": 0.0, "is_disabled": 0, "lat": 38.91552016666667, "bike_id": "3c856c5851e7231a4d10857b0fae30d5", "name": "3c856c5851e7231a4d10857b0fae30d5", "is_reserved": 0, "fusion_lat": 0.0}, {"type": "electric_scooter", "rental_uris": {"ios": "https://dc.lft.to/lastmile_qr_scan", "android": "https://dc.lft.to/lastmile_qr_scan"}, "lon": -77.027651, "fusion_lon": 0.0, "is_disabled": 0, "lat": 38.90733683333333, "bike_id": "c5e145f2708236014cc77331d79e40bc", "name": "c5e145f2708236014cc77331d79e40bc", "is_reserved": 0, "fusion_lat": 0.0}, {"type": "electric_scooter", "rental_uris": {"ios": "https://dc.lft.to/lastmile_qr_scan", "android": "https://dc.lft.to/lastmile_qr_scan"}, "lon": -77.00201716666666, "fusion_lon": 0.0, "is_disabled": 0, "lat": 38.90032933333333, "bike_id": "ddc0493aafa474e910902cbeb432361e", "name": "ddc0493aafa474e910902cbeb432361e", "is_reserved": 0, "fusion_lat": 0.0}, {"type": "electric_bike", "rental_uris": {"ios": "https://dc.lft.to/lastmile_qr_scan", "android": "https://dc.lft.to/lastmile_qr_scan"}, "lon": -77.04927866666667, "fusion_lon": 0.0, "is_disabled": 0, "lat": 38.81342566666667, "bike_id": "d005685942c58ee91def3faf8a3e0516", "name": "d005685942c58ee91def3faf8a3e0516", "is_reserved": 0, "fusion_lat": 0.0}, {"type": "electric_scooter", "rental_uris": {"ios": "https://dc.lft.to/lastmile_qr_scan", "android": "https://dc.lft.to/lastmile_qr_scan"}, "lon": -77.06311183333334, "fusion_lon": 0.0, "is_disabled": 0, "lat": 38.90332083333333, "bike_id": "c3e4e51240c7edd2b7c5b4690e288cdc", "name": "c3e4e51240c7edd2b7c5b4690e288cdc", "is_reserved": 0, "fusion_lat": 0.0}, {"type": "electric_scooter", "rental_uris": {"ios": "https://dc.lft.to/lastmile_qr_scan", "android": "https://dc.lft.to/lastmile_qr_scan"}, "lon": -77.03650766666667, "fusion_lon": 0.0, "is_disabled": 0, "lat": 38.922922, "bike_id": "d6ec6926c8b6fe7aeb5ed849ad67d22a", "name": "d6ec6926c8b6fe7aeb5ed849ad67d22a", "is_reserved": 0, "fusion_lat": 0.0}, {"type": "electric_scooter", "rental_uris": {"ios": "https://dc.lft.to/lastmile_qr_scan", "android": "https://dc.lft.to/lastmile_qr_scan"}, "lon": -77.05232866666667, "fusion_lon": 0.0, "is_disabled": 0, "lat": 38.92469233333333, "bike_id": "c3845c327327ac306aea2a166dad17bf", "name": "c3845c327327ac306aea2a166dad17bf", "is_reserved": 0, "fusion_lat": 0.0}, {"type": "electric_scooter", "rental_uris": {"ios": "https://dc.lft.to/lastmile_qr_scan", "android": "https://dc.lft.to/lastmile_qr_scan"}, "lon": -77.00458, "fusion_lon": 0.0, "is_disabled": 0, "lat": 38.911475, "bike_id": "500791e478c9bd73b4fc0cbc7de052bd", "name": "500791e478c9bd73b4fc0cbc7de052bd", "is_reserved": 0, "fusion_lat": 0.0}, {"type": "electric_scooter", "rental_uris": {"ios": "https://dc.lft.to/lastmile_qr_scan", "android": "https://dc.lft.to/lastmile_qr_scan"}, "lon": -77.05548216666666, "fusion_lon": 0.0, "is_disabled": 0, "lat": 38.93422666666667, "bike_id": "9a089779c3c73b430af96c97ccb66211", "name": "9a089779c3c73b430af96c97ccb66211", "is_reserved": 0, "fusion_lat": 0.0}, {"type": "electric_scooter", "rental_uris": {"ios": "https://dc.lft.to/lastmile_qr_scan", "android": "https://dc.lft.to/lastmile_qr_scan"}, "lon": -77.02792416666666, "fusion_lon": 0.0, "is_disabled": 0, "lat": 38.95400566666667, "bike_id": "55986e5e2a97bc59c95d259de6988164", "name": "55986e5e2a97bc59c95d259de6988164", "is_reserved": 0, "fusion_lat": 0.0}, {"type": "electric_scooter", "rental_uris": {"ios": "https://dc.lft.to/lastmile_qr_scan", "android": "https://dc.lft.to/lastmile_qr_scan"}, "lon": -77.04150916666667, "fusion_lon": 0.0, "is_disabled": 0, "lat": 38.90525516666666, "bike_id": "f852aa997764e90bb9bea503655f29d5", "name": "f852aa997764e90bb9bea503655f29d5", "is_reserved": 0, "fusion_lat": 0.0}, {"type": "electric_scooter", "rental_uris": {"ios": "https://dc.lft.to/lastmile_qr_scan", "android": "https://dc.lft.to/lastmile_qr_scan"}, "lon": -77.0274975, "fusion_lon": 0.0, "is_disabled": 0, "lat": 38.9578395, "bike_id": "1eba8940aee3ac90233778bb2cdffdd9", "name": "1eba8940aee3ac90233778bb2cdffdd9", "is_reserved": 0, "fusion_lat": 0.0}, {"type": "electric_scooter", "rental_uris": {"ios": "https://dc.lft.to/lastmile_qr_scan", "android": "https://dc.lft.to/lastmile_qr_scan"}, "lon": -77.04170383333333, "fusion_lon": 0.0, "is_disabled": 0, "lat": 38.920075833333335, "bike_id": "33970137d5dcbd83fd2a37c119d0069a", "name": "33970137d5dcbd83fd2a37c119d0069a", "is_reserved": 0, "fusion_lat": 0.0}, {"type": "electric_scooter", "rental_uris": {"ios": "https://dc.lft.to/lastmile_qr_scan", "android": "https://dc.lft.to/lastmile_qr_scan"}, "lon": -77.04145783333334, "fusion_lon": 0.0, "is_disabled": 0, "lat": 38.89221783333333, "bike_id": "46f4e22e818c8b434ad32e29941d2a94", "name": "46f4e22e818c8b434ad32e29941d2a94", "is_reserved": 0, "fusion_lat": 0.0}, {"type": "electric_scooter", "rental_uris": {"ios": "https://dc.lft.to/lastmile_qr_scan", "android": "https://dc.lft.to/lastmile_qr_scan"}, "lon": -76.96524316666667, "fusion_lon": 0.0, "is_disabled": 0, "lat": 38.876275, "bike_id": "011c062b531ce892e7f580febf04f42e", "name": "011c062b531ce892e7f580febf04f42e", "is_reserved": 0, "fusion_lat": 0.0}, {"type": "electric_scooter", "rental_uris": {"ios": "https://dc.lft.to/lastmile_qr_scan", "android": "https://dc.lft.to/lastmile_qr_scan"}, "lon": -77.03643466666666, "fusion_lon": 0.0, "is_disabled": 0, "lat": 38.923461833333334, "bike_id": "0ea924e421f96904bd88f0e262b1b61d", "name": "0ea924e421f96904bd88f0e262b1b61d", "is_reserved": 0, "fusion_lat": 0.0}, {"type": "electric_scooter", "rental_uris": {"ios": "https://dc.lft.to/lastmile_qr_scan", "android": "https://dc.lft.to/lastmile_qr_scan"}, "lon": -76.99517316666666, "fusion_lon": 0.0, "is_disabled": 0, "lat": 38.88373416666667, "bike_id": "8257e708fd5b2a83ad84b040c92a6392", "name": "8257e708fd5b2a83ad84b040c92a6392", "is_reserved": 0, "fusion_lat": 0.0}, {"type": "electric_scooter", "rental_uris": {"ios": "https://dc.lft.to/lastmile_qr_scan", "android": "https://dc.lft.to/lastmile_qr_scan"}, "lon": -76.98184133333334, "fusion_lon": 0.0, "is_disabled": 0, "lat": 38.89578266666667, "bike_id": "97ba62c99ca8c6b1afef7f9fa1715197", "name": "97ba62c99ca8c6b1afef7f9fa1715197", "is_reserved": 0, "fusion_lat": 0.0}, {"type": "electric_bike", "rental_uris": {"ios": "https://dc.lft.to/lastmile_qr_scan", "android": "https://dc.lft.to/lastmile_qr_scan"}, "lon": -77.12483566666667, "fusion_lon": 0.0, "is_disabled": 0, "lat": 38.853941, "bike_id": "13739ab76d3f02d130ec93ac02ff859c", "name": "13739ab76d3f02d130ec93ac02ff859c", "is_reserved": 0, "fusion_lat": 0.0}, {"type": "electric_bike", "rental_uris": {"ios": "https://dc.lft.to/lastmile_qr_scan", "android": "https://dc.lft.to/lastmile_qr_scan"}, "lon": -76.975294, "fusion_lon": 0.0, "is_disabled": 0, "lat": 38.840121333333336, "bike_id": "67697ea4760a58c1945e64595e5369fc", "name": "67697ea4760a58c1945e64595e5369fc", "is_reserved": 0, "fusion_lat": 0.0}, {"type": "electric_scooter", "rental_uris": {"ios": "https://dc.lft.to/lastmile_qr_scan", "android": "https://dc.lft.to/lastmile_qr_scan"}, "lon": -77.04690466666666, "fusion_lon": 0.0, "is_disabled": 0, "lat": 38.897281166666666, "bike_id": "8db3c3ffa8ba70271e1cd2afab4b6977", "name": "8db3c3ffa8ba70271e1cd2afab4b6977", "is_reserved": 0, "fusion_lat": 0.0}, {"type": "electric_scooter", "rental_uris": {"ios": "https://dc.lft.to/lastmile_qr_scan", "android": "https://dc.lft.to/lastmile_qr_scan"}, "lon": -77.0319335, "fusion_lon": 0.0, "is_disabled": 0, "lat": 38.896209166666665, "bike_id": "02fa3ad28e744742c7d941845786f18c", "name": "02fa3ad28e744742c7d941845786f18c", "is_reserved": 0, "fusion_lat": 0.0}, {"type": "electric_scooter", "rental_uris": {"ios": "https://dc.lft.to/lastmile_qr_scan", "android": "https://dc.lft.to/lastmile_qr_scan"}, "lon": -77.03028116666667, "fusion_lon": 0.0, "is_disabled": 0, "lat": 38.931084166666665, "bike_id": "5387e72e43d027704646dd8610675595", "name": "5387e72e43d027704646dd8610675595", "is_reserved": 0, "fusion_lat": 0.0}, {"type": "electric_bike", "rental_uris": {"ios": "https://dc.lft.to/lastmile_qr_scan", "android": "https://dc.lft.to/lastmile_qr_scan"}, "lon": -77.02415666666667, "fusion_lon": 0.0, "is_disabled": 0, "lat": 38.8968415, "bike_id": "78b6bdcc57d3ba467c30ee559517cb67", "name": "78b6bdcc57d3ba467c30ee559517cb67", "is_reserved": 0, "fusion_lat": 0.0}, {"type": "electric_scooter", "rental_uris": {"ios": "https://dc.lft.to/lastmile_qr_scan", "android": "https://dc.lft.to/lastmile_qr_scan"}, "lon": -77.03480783333333, "fusion_lon": 0.0, "is_disabled": 0, "lat": 38.90959383333333, "bike_id": "1a4656e895c5a76cb38f2e043659f294", "name": "1a4656e895c5a76cb38f2e043659f294", "is_reserved": 0, "fusion_lat": 0.0}, {"type": "electric_scooter", "rental_uris": {"ios": "https://dc.lft.to/lastmile_qr_scan", "android": "https://dc.lft.to/lastmile_qr_scan"}, "lon": -77.04005533333333, "fusion_lon": 0.0, "is_disabled": 0, "lat": 38.907771, "bike_id": "6befe111ad772043caad6d9ed0483f44", "name": "6befe111ad772043caad6d9ed0483f44", "is_reserved": 0, "fusion_lat": 0.0}, {"type": "electric_scooter", "rental_uris": {"ios": "https://dc.lft.to/lastmile_qr_scan", "android": "https://dc.lft.to/lastmile_qr_scan"}, "lon": -77.0011425, "fusion_lon": 0.0, "is_disabled": 0, "lat": 38.917015666666664, "bike_id": "a716bd4ca5316a8bb2974b80aef497dd", "name": "a716bd4ca5316a8bb2974b80aef497dd", "is_reserved": 0, "fusion_lat": 0.0}, {"type": "electric_scooter", "rental_uris": {"ios": "https://dc.lft.to/lastmile_qr_scan", "android": "https://dc.lft.to/lastmile_qr_scan"}, "lon": -77.02284366666666, "fusion_lon": 0.0, "is_disabled": 0, "lat": 38.916471333333334, "bike_id": "3a54c710c480c104c7e0e8c792b0cfd4", "name": "3a54c710c480c104c7e0e8c792b0cfd4", "is_reserved": 0, "fusion_lat": 0.0}, {"type": "electric_bike", "rental_uris": {"ios": "https://dc.lft.to/lastmile_qr_scan", "android": "https://dc.lft.to/lastmile_qr_scan"}, "lon": -77.13467883333334, "fusion_lon": 0.0, "is_disabled": 0, "lat": 38.853525, "bike_id": "54c76c9699b93dc950787a561b19afdb", "name": "54c76c9699b93dc950787a561b19afdb", "is_reserved": 0, "fusion_lat": 0.0}, {"type": "electric_scooter", "rental_uris": {"ios": "https://dc.lft.to/lastmile_qr_scan", "android": "https://dc.lft.to/lastmile_qr_scan"}, "lon": -77.03414616666667, "fusion_lon": 0.0, "is_disabled": 0, "lat": 38.919222500000004, "bike_id": "4928e1eefcaf3cd9d4bb6b5c324ff231", "name": "4928e1eefcaf3cd9d4bb6b5c324ff231", "is_reserved": 0, "fusion_lat": 0.0}, {"type": "electric_scooter", "rental_uris": {"ios": "https://dc.lft.to/lastmile_qr_scan", "android": "https://dc.lft.to/lastmile_qr_scan"}, "lon": -77.03179666666666, "fusion_lon": 0.0, "is_disabled": 0, "lat": 38.919111, "bike_id": "588d7f83e57c6e8afa69216ab26e327c", "name": "588d7f83e57c6e8afa69216ab26e327c", "is_reserved": 0, "fusion_lat": 0.0}, {"type": "electric_scooter", "rental_uris": {"ios": "https://dc.lft.to/lastmile_qr_scan", "android": "https://dc.lft.to/lastmile_qr_scan"}, "lon": -77.03345566666667, "fusion_lon": 0.0, "is_disabled": 0, "lat": 38.887552, "bike_id": "5c26d0d534ee11af84efb0a08b03bdfd", "name": "5c26d0d534ee11af84efb0a08b03bdfd", "is_reserved": 0, "fusion_lat": 0.0}, {"type": "electric_bike", "rental_uris": {"ios": "https://dc.lft.to/lastmile_qr_scan", "android": "https://dc.lft.to/lastmile_qr_scan"}, "lon": -76.92474166666666, "fusion_lon": 0.0, "is_disabled": 0, "lat": 38.958991, "bike_id": "1105aaad28875b0189e772c7f7172cd6", "name": "1105aaad28875b0189e772c7f7172cd6", "is_reserved": 0, "fusion_lat": 0.0}, {"type": "electric_scooter", "rental_uris": {"ios": "https://dc.lft.to/lastmile_qr_scan", "android": "https://dc.lft.to/lastmile_qr_scan"}, "lon": -77.02494583333333, "fusion_lon": 0.0, "is_disabled": 0, "lat": 38.9180595, "bike_id": "a6a497e71b26af2498e2d6574daedb47", "name": "a6a497e71b26af2498e2d6574daedb47", "is_reserved": 0, "fusion_lat": 0.0}, {"type": "electric_scooter", "rental_uris": {"ios": "https://dc.lft.to/lastmile_qr_scan", "android": "https://dc.lft.to/lastmile_qr_scan"}, "lon": -77.02711933333333, "fusion_lon": 0.0, "is_disabled": 0, "lat": 38.904828, "bike_id": "148f803e97709ce6c1a97c109c8e75ee", "name": "148f803e97709ce6c1a97c109c8e75ee", "is_reserved": 0, "fusion_lat": 0.0}, {"type": "electric_bike", "rental_uris": {"ios": "https://dc.lft.to/lastmile_qr_scan", "android": "https://dc.lft.to/lastmile_qr_scan"}, "lon": -76.9802335, "fusion_lon": 0.0, "is_disabled": 0, "lat": 38.95754483333333, "bike_id": "9c68374a0bfaacf34179e6da6b753474", "name": "9c68374a0bfaacf34179e6da6b753474", "is_reserved": 0, "fusion_lat": 0.0}, {"type": "electric_scooter", "rental_uris": {"ios": "https://dc.lft.to/lastmile_qr_scan", "android": "https://dc.lft.to/lastmile_qr_scan"}, "lon": -77.03208933333333, "fusion_lon": 0.0, "is_disabled": 0, "lat": 38.908975166666664, "bike_id": "251cb8e3b3798a6be8a1bec395799ecf", "name": "251cb8e3b3798a6be8a1bec395799ecf", "is_reserved": 0, "fusion_lat": 0.0}, {"type": "electric_scooter", "rental_uris": {"ios": "https://dc.lft.to/lastmile_qr_scan", "android": "https://dc.lft.to/lastmile_qr_scan"}, "lon": -77.03257183333334, "fusion_lon": 0.0, "is_disabled": 0, "lat": 38.9071845, "bike_id": "8829a57001d9c67dda55c3894a583478", "name": "8829a57001d9c67dda55c3894a583478", "is_reserved": 0, "fusion_lat": 0.0}, {"type": "electric_scooter", "rental_uris": {"ios": "https://dc.lft.to/lastmile_qr_scan", "android": "https://dc.lft.to/lastmile_qr_scan"}, "lon": -77.01650616666667, "fusion_lon": 0.0, "is_disabled": 0, "lat": 38.910552833333334, "bike_id": "23e3eda9dd96828f388735b1a24e3b4f", "name": "23e3eda9dd96828f388735b1a24e3b4f", "is_reserved": 0, "fusion_lat": 0.0}, {"type": "electric_scooter", "rental_uris": {"ios": "https://dc.lft.to/lastmile_qr_scan", "android": "https://dc.lft.to/lastmile_qr_scan"}, "lon": -76.93175266666667, "fusion_lon": 0.0, "is_disabled": 0, "lat": 38.898864, "bike_id": "67f428f445e888b0cd8e52888e7ff446", "name": "67f428f445e888b0cd8e52888e7ff446", "is_reserved": 0, "fusion_lat": 0.0}, {"type": "electric_scooter", "rental_uris": {"ios": "https://dc.lft.to/lastmile_qr_scan", "android": "https://dc.lft.to/lastmile_qr_scan"}, "lon": -76.986984, "fusion_lon": 0.0, "is_disabled": 0, "lat": 38.902595833333336, "bike_id": "12852c566e8e91c15633ddfe2c3f7fc9", "name": "12852c566e8e91c15633ddfe2c3f7fc9", "is_reserved": 0, "fusion_lat": 0.0}, {"type": "electric_scooter", "rental_uris": {"ios": "https://dc.lft.to/lastmile_qr_scan", "android": "https://dc.lft.to/lastmile_qr_scan"}, "lon": -77.03406316666667, "fusion_lon": 0.0, "is_disabled": 0, "lat": 38.931250166666665, "bike_id": "6a12414e584f612fc669c354d76cbbbb", "name": "6a12414e584f612fc669c354d76cbbbb", "is_reserved": 0, "fusion_lat": 0.0}, {"type": "electric_scooter", "rental_uris": {"ios": "https://dc.lft.to/lastmile_qr_scan", "android": "https://dc.lft.to/lastmile_qr_scan"}, "lon": -77.01223983333334, "fusion_lon": 0.0, "is_disabled": 0, "lat": 38.91499366666667, "bike_id": "b485a732324f8e2f9672412d2d2f7b0a", "name": "b485a732324f8e2f9672412d2d2f7b0a", "is_reserved": 0, "fusion_lat": 0.0}, {"type": "electric_scooter", "rental_uris": {"ios": "https://dc.lft.to/lastmile_qr_scan", "android": "https://dc.lft.to/lastmile_qr_scan"}, "lon": -77.02336683333333, "fusion_lon": 0.0, "is_disabled": 0, "lat": 38.917866, "bike_id": "4a37adf8332cd61b8f9d4994fb1fc4f7", "name": "4a37adf8332cd61b8f9d4994fb1fc4f7", "is_reserved": 0, "fusion_lat": 0.0}, {"type": "electric_scooter", "rental_uris": {"ios": "https://dc.lft.to/lastmile_qr_scan", "android": "https://dc.lft.to/lastmile_qr_scan"}, "lon": -76.9888435, "fusion_lon": 0.0, "is_disabled": 0, "lat": 38.8664895, "bike_id": "0e47730a16ac21171597da9048bd217e", "name": "0e47730a16ac21171597da9048bd217e", "is_reserved": 0, "fusion_lat": 0.0}, {"type": "electric_scooter", "rental_uris": {"ios": "https://dc.lft.to/lastmile_qr_scan", "android": "https://dc.lft.to/lastmile_qr_scan"}, "lon": -77.03187783333334, "fusion_lon": 0.0, "is_disabled": 0, "lat": 38.917458, "bike_id": "1347f910e7f0144bfb9f198fe746da11", "name": "1347f910e7f0144bfb9f198fe746da11", "is_reserved": 0, "fusion_lat": 0.0}, {"type": "electric_scooter", "rental_uris": {"ios": "https://dc.lft.to/lastmile_qr_scan", "android": "https://dc.lft.to/lastmile_qr_scan"}, "lon": -76.93370866666666, "fusion_lon": 0.0, "is_disabled": 0, "lat": 38.89902283333333, "bike_id": "234224a631dd21046b71a32eadacff33", "name": "234224a631dd21046b71a32eadacff33", "is_reserved": 0, "fusion_lat": 0.0}, {"type": "electric_scooter", "rental_uris": {"ios": "https://dc.lft.to/lastmile_qr_scan", "android": "https://dc.lft.to/lastmile_qr_scan"}, "lon": -77.0365415, "fusion_lon": 0.0, "is_disabled": 0, "lat": 38.93631383333334, "bike_id": "105d5914c8d78e38acce907ae99247dc", "name": "105d5914c8d78e38acce907ae99247dc", "is_reserved": 0, "fusion_lat": 0.0}, {"type": "electric_scooter", "rental_uris": {"ios": "https://dc.lft.to/lastmile_qr_scan", "android": "https://dc.lft.to/lastmile_qr_scan"}, "lon": -77.04350983333333, "fusion_lon": 0.0, "is_disabled": 0, "lat": 38.91301166666667, "bike_id": "c7ab7cf06a24a160d14b5e79f3d46de1", "name": "c7ab7cf06a24a160d14b5e79f3d46de1", "is_reserved": 0, "fusion_lat": 0.0}, {"type": "electric_scooter", "rental_uris": {"ios": "https://dc.lft.to/lastmile_qr_scan", "android": "https://dc.lft.to/lastmile_qr_scan"}, "lon": -77.03226466666666, "fusion_lon": 0.0, "is_disabled": 0, "lat": 38.9235615, "bike_id": "f389dfd82795956b0e63800fe57a8129", "name": "f389dfd82795956b0e63800fe57a8129", "is_reserved": 0, "fusion_lat": 0.0}, {"type": "electric_scooter", "rental_uris": {"ios": "https://dc.lft.to/lastmile_qr_scan", "android": "https://dc.lft.to/lastmile_qr_scan"}, "lon": -77.02495466666667, "fusion_lon": 0.0, "is_disabled": 0, "lat": 38.918073666666665, "bike_id": "52c1da6e3e412d215e229be874abca27", "name": "52c1da6e3e412d215e229be874abca27", "is_reserved": 0, "fusion_lat": 0.0}, {"type": "electric_scooter", "rental_uris": {"ios": "https://dc.lft.to/lastmile_qr_scan", "android": "https://dc.lft.to/lastmile_qr_scan"}, "lon": -77.02858233333333, "fusion_lon": 0.0, "is_disabled": 0, "lat": 38.91702316666667, "bike_id": "cce51741d77772abfb21977c36fe40df", "name": "cce51741d77772abfb21977c36fe40df", "is_reserved": 0, "fusion_lat": 0.0}, {"type": "electric_scooter", "rental_uris": {"ios": "https://dc.lft.to/lastmile_qr_scan", "android": "https://dc.lft.to/lastmile_qr_scan"}, "lon": -77.02426566666666, "fusion_lon": 0.0, "is_disabled": 0, "lat": 38.956233166666664, "bike_id": "bb0e3297d62078b1244ca7d440b7f8b7", "name": "bb0e3297d62078b1244ca7d440b7f8b7", "is_reserved": 0, "fusion_lat": 0.0}, {"type": "electric_scooter", "rental_uris": {"ios": "https://dc.lft.to/lastmile_qr_scan", "android": "https://dc.lft.to/lastmile_qr_scan"}, "lon": -77.0730445, "fusion_lon": 0.0, "is_disabled": 0, "lat": 38.928759166666666, "bike_id": "cf75ad9ce1770070e8a4c341640f03d5", "name": "cf75ad9ce1770070e8a4c341640f03d5", "is_reserved": 0, "fusion_lat": 0.0}, {"type": "electric_scooter", "rental_uris": {"ios": "https://dc.lft.to/lastmile_qr_scan", "android": "https://dc.lft.to/lastmile_qr_scan"}, "lon": -77.03753316666666, "fusion_lon": 0.0, "is_disabled": 0, "lat": 38.912750333333335, "bike_id": "e25d9517d1847241bee532fa6ad181b8", "name": "e25d9517d1847241bee532fa6ad181b8", "is_reserved": 0, "fusion_lat": 0.0}, {"type": "electric_scooter", "rental_uris": {"ios": "https://dc.lft.to/lastmile_qr_scan", "android": "https://dc.lft.to/lastmile_qr_scan"}, "lon": -77.01134166666667, "fusion_lon": 0.0, "is_disabled": 0, "lat": 38.885274, "bike_id": "a27ee0eabb87197b380f24bccb8bc848", "name": "a27ee0eabb87197b380f24bccb8bc848", "is_reserved": 0, "fusion_lat": 0.0}, {"type": "electric_scooter", "rental_uris": {"ios": "https://dc.lft.to/lastmile_qr_scan", "android": "https://dc.lft.to/lastmile_qr_scan"}, "lon": -76.98075766666666, "fusion_lon": 0.0, "is_disabled": 0, "lat": 38.919504833333335, "bike_id": "4bad72cd783e23d30979177752dd9ee6", "name": "4bad72cd783e23d30979177752dd9ee6", "is_reserved": 0, "fusion_lat": 0.0}, {"type": "electric_scooter", "rental_uris": {"ios": "https://dc.lft.to/lastmile_qr_scan", "android": "https://dc.lft.to/lastmile_qr_scan"}, "lon": -77.034216, "fusion_lon": 0.0, "is_disabled": 0, "lat": 38.930806, "bike_id": "30520649e7e8fdc1626ed18085a0ec9b", "name": "30520649e7e8fdc1626ed18085a0ec9b", "is_reserved": 0, "fusion_lat": 0.0}, {"type": "electric_scooter", "rental_uris": {"ios": "https://dc.lft.to/lastmile_qr_scan", "android": "https://dc.lft.to/lastmile_qr_scan"}, "lon": -77.02982016666667, "fusion_lon": 0.0, "is_disabled": 0, "lat": 38.90506833333333, "bike_id": "6c7aa0089cd9f780f42d2e4537a55696", "name": "6c7aa0089cd9f780f42d2e4537a55696", "is_reserved": 0, "fusion_lat": 0.0}, {"type": "electric_scooter", "rental_uris": {"ios": "https://dc.lft.to/lastmile_qr_scan", "android": "https://dc.lft.to/lastmile_qr_scan"}, "lon": -77.01737716666666, "fusion_lon": 0.0, "is_disabled": 0, "lat": 38.920382000000004, "bike_id": "c7a4fa46485d5998dbbc2b5fd5758cbd", "name": "c7a4fa46485d5998dbbc2b5fd5758cbd", "is_reserved": 0, "fusion_lat": 0.0}, {"type": "electric_bike", "rental_uris": {"ios": "https://dc.lft.to/lastmile_qr_scan", "android": "https://dc.lft.to/lastmile_qr_scan"}, "lon": -77.01015, "fusion_lon": 0.0, "is_disabled": 0, "lat": 38.955956666666665, "bike_id": "61a2519471b39afef81cd6b3336e8db2", "name": "61a2519471b39afef81cd6b3336e8db2", "is_reserved": 0, "fusion_lat": 0.0}, {"type": "electric_scooter", "rental_uris": {"ios": "https://dc.lft.to/lastmile_qr_scan", "android": "https://dc.lft.to/lastmile_qr_scan"}, "lon": -77.02726, "fusion_lon": 0.0, "is_disabled": 0, "lat": 38.932535, "bike_id": "cf1a80f07cbb4222771536e28cdf813f", "name": "cf1a80f07cbb4222771536e28cdf813f", "is_reserved": 0, "fusion_lat": 0.0}, {"type": "electric_bike", "rental_uris": {"ios": "https://dc.lft.to/lastmile_qr_scan", "android": "https://dc.lft.to/lastmile_qr_scan"}, "lon": -77.03313933333334, "fusion_lon": 0.0, "is_disabled": 0, "lat": 38.92624966666666, "bike_id": "944f1567f49293f964f9eb3f5647e486", "name": "944f1567f49293f964f9eb3f5647e486", "is_reserved": 0, "fusion_lat": 0.0}, {"type": "electric_bike", "rental_uris": {"ios": "https://dc.lft.to/lastmile_qr_scan", "android": "https://dc.lft.to/lastmile_qr_scan"}, "lon": -77.086105, "fusion_lon": 0.0, "is_disabled": 0, "lat": 38.85941416666667, "bike_id": "84e74e031832b2537af25ead79e2dad3", "name": "84e74e031832b2537af25ead79e2dad3", "is_reserved": 0, "fusion_lat": 0.0}, {"type": "electric_scooter", "rental_uris": {"ios": "https://dc.lft.to/lastmile_qr_scan", "android": "https://dc.lft.to/lastmile_qr_scan"}, "lon": -76.97703166666666, "fusion_lon": 0.0, "is_disabled": 0, "lat": 38.902528833333335, "bike_id": "d2063ad8fad8c6e34f295b618caba974", "name": "d2063ad8fad8c6e34f295b618caba974", "is_reserved": 0, "fusion_lat": 0.0}, {"type": "electric_scooter", "rental_uris": {"ios": "https://dc.lft.to/lastmile_qr_scan", "android": "https://dc.lft.to/lastmile_qr_scan"}, "lon": -77.04226633333333, "fusion_lon": 0.0, "is_disabled": 0, "lat": 38.92172, "bike_id": "8b43ebbe3d3ffd94447fd2afd1993195", "name": "8b43ebbe3d3ffd94447fd2afd1993195", "is_reserved": 0, "fusion_lat": 0.0}, {"type": "electric_scooter", "rental_uris": {"ios": "https://dc.lft.to/lastmile_qr_scan", "android": "https://dc.lft.to/lastmile_qr_scan"}, "lon": -77.04366133333333, "fusion_lon": 0.0, "is_disabled": 0, "lat": 38.933232833333335, "bike_id": "c275983acec306598638dee06eaf827d", "name": "c275983acec306598638dee06eaf827d", "is_reserved": 0, "fusion_lat": 0.0}, {"type": "electric_scooter", "rental_uris": {"ios": "https://dc.lft.to/lastmile_qr_scan", "android": "https://dc.lft.to/lastmile_qr_scan"}, "lon": -77.0388375, "fusion_lon": 0.0, "is_disabled": 0, "lat": 38.902501, "bike_id": "4b8b0f08bf6994d8a926322f5a085e33", "name": "4b8b0f08bf6994d8a926322f5a085e33", "is_reserved": 0, "fusion_lat": 0.0}, {"type": "electric_scooter", "rental_uris": {"ios": "https://dc.lft.to/lastmile_qr_scan", "android": "https://dc.lft.to/lastmile_qr_scan"}, "lon": -77.039529, "fusion_lon": 0.0, "is_disabled": 0, "lat": 38.89239166666667, "bike_id": "e62fa1ec19033a6d7ca353f5791f333d", "name": "e62fa1ec19033a6d7ca353f5791f333d", "is_reserved": 0, "fusion_lat": 0.0}, {"type": "electric_scooter", "rental_uris": {"ios": "https://dc.lft.to/lastmile_qr_scan", "android": "https://dc.lft.to/lastmile_qr_scan"}, "lon": -77.02192833333334, "fusion_lon": 0.0, "is_disabled": 0, "lat": 38.91663233333333, "bike_id": "aa6927d6a938a92f40e4a1d475eb6e47", "name": "aa6927d6a938a92f40e4a1d475eb6e47", "is_reserved": 0, "fusion_lat": 0.0}, {"type": "electric_scooter", "rental_uris": {"ios": "https://dc.lft.to/lastmile_qr_scan", "android": "https://dc.lft.to/lastmile_qr_scan"}, "lon": -77.02382883333334, "fusion_lon": 0.0, "is_disabled": 0, "lat": 38.90615833333333, "bike_id": "c821bef970fc9295dc25a06f6116e965", "name": "c821bef970fc9295dc25a06f6116e965", "is_reserved": 0, "fusion_lat": 0.0}, {"type": "electric_scooter", "rental_uris": {"ios": "https://dc.lft.to/lastmile_qr_scan", "android": "https://dc.lft.to/lastmile_qr_scan"}, "lon": -77.01762133333334, "fusion_lon": 0.0, "is_disabled": 0, "lat": 38.877246, "bike_id": "734c1b5b18c5afaf5a070b4a9d6c74a0", "name": "734c1b5b18c5afaf5a070b4a9d6c74a0", "is_reserved": 0, "fusion_lat": 0.0}, {"type": "electric_scooter", "rental_uris": {"ios": "https://dc.lft.to/lastmile_qr_scan", "android": "https://dc.lft.to/lastmile_qr_scan"}, "lon": -76.992465, "fusion_lon": 0.0, "is_disabled": 0, "lat": 38.86381816666667, "bike_id": "b6e532c32e31fe443e96101acffe89a2", "name": "b6e532c32e31fe443e96101acffe89a2", "is_reserved": 0, "fusion_lat": 0.0}, {"type": "electric_scooter", "rental_uris": {"ios": "https://dc.lft.to/lastmile_qr_scan", "android": "https://dc.lft.to/lastmile_qr_scan"}, "lon": -77.03256466666667, "fusion_lon": 0.0, "is_disabled": 0, "lat": 38.93969366666666, "bike_id": "af9092d137111f8e6afb1deae3b98f12", "name": "af9092d137111f8e6afb1deae3b98f12", "is_reserved": 0, "fusion_lat": 0.0}, {"type": "electric_scooter", "rental_uris": {"ios": "https://dc.lft.to/lastmile_qr_scan", "android": "https://dc.lft.to/lastmile_qr_scan"}, "lon": -77.02800316666666, "fusion_lon": 0.0, "is_disabled": 0, "lat": 38.93101566666667, "bike_id": "777bf95b4e155f4b4e141e4d621f3517", "name": "777bf95b4e155f4b4e141e4d621f3517", "is_reserved": 0, "fusion_lat": 0.0}, {"type": "electric_scooter", "rental_uris": {"ios": "https://dc.lft.to/lastmile_qr_scan", "android": "https://dc.lft.to/lastmile_qr_scan"}, "lon": -77.03467266666667, "fusion_lon": 0.0, "is_disabled": 0, "lat": 38.909600833333336, "bike_id": "ba3b1990535f20a292c07834a428787b", "name": "ba3b1990535f20a292c07834a428787b", "is_reserved": 0, "fusion_lat": 0.0}, {"type": "electric_scooter", "rental_uris": {"ios": "https://dc.lft.to/lastmile_qr_scan", "android": "https://dc.lft.to/lastmile_qr_scan"}, "lon": -76.98374466666667, "fusion_lon": 0.0, "is_disabled": 0, "lat": 38.86108616666667, "bike_id": "9696533ab2bbd3b5fc2fd356b3e069bb", "name": "9696533ab2bbd3b5fc2fd356b3e069bb", "is_reserved": 0, "fusion_lat": 0.0}, {"type": "electric_scooter", "rental_uris": {"ios": "https://dc.lft.to/lastmile_qr_scan", "android": "https://dc.lft.to/lastmile_qr_scan"}, "lon": -77.034496, "fusion_lon": 0.0, "is_disabled": 0, "lat": 38.9062645, "bike_id": "82410ee4ab97eeecb0f3345588d276a8", "name": "82410ee4ab97eeecb0f3345588d276a8", "is_reserved": 0, "fusion_lat": 0.0}, {"type": "electric_scooter", "rental_uris": {"ios": "https://dc.lft.to/lastmile_qr_scan", "android": "https://dc.lft.to/lastmile_qr_scan"}, "lon": -77.02634933333333, "fusion_lon": 0.0, "is_disabled": 0, "lat": 38.91064183333334, "bike_id": "719c991a52977e999ffc7837a010e39b", "name": "719c991a52977e999ffc7837a010e39b", "is_reserved": 0, "fusion_lat": 0.0}, {"type": "electric_scooter", "rental_uris": {"ios": "https://dc.lft.to/lastmile_qr_scan", "android": "https://dc.lft.to/lastmile_qr_scan"}, "lon": -77.04407183333333, "fusion_lon": 0.0, "is_disabled": 0, "lat": 38.9244585, "bike_id": "a98e51679bb2e0425306dd0b9ee9f4f1", "name": "a98e51679bb2e0425306dd0b9ee9f4f1", "is_reserved": 0, "fusion_lat": 0.0}, {"type": "electric_scooter", "rental_uris": {"ios": "https://dc.lft.to/lastmile_qr_scan", "android": "https://dc.lft.to/lastmile_qr_scan"}, "lon": -76.9723445, "fusion_lon": 0.0, "is_disabled": 0, "lat": 38.8545595, "bike_id": "cc77f989dd47ad1f2684a939643d367b", "name": "cc77f989dd47ad1f2684a939643d367b", "is_reserved": 0, "fusion_lat": 0.0}, {"type": "electric_scooter", "rental_uris": {"ios": "https://dc.lft.to/lastmile_qr_scan", "android": "https://dc.lft.to/lastmile_qr_scan"}, "lon": -77.04037483333333, "fusion_lon": 0.0, "is_disabled": 0, "lat": 38.91857316666667, "bike_id": "61c051e191ed536f848ea2e3c8a4a364", "name": "61c051e191ed536f848ea2e3c8a4a364", "is_reserved": 0, "fusion_lat": 0.0}, {"type": "electric_scooter", "rental_uris": {"ios": "https://dc.lft.to/lastmile_qr_scan", "android": "https://dc.lft.to/lastmile_qr_scan"}, "lon": -76.99215616666666, "fusion_lon": 0.0, "is_disabled": 0, "lat": 38.903644166666666, "bike_id": "90350b4aa975cb0df077e12a6281dcb2", "name": "90350b4aa975cb0df077e12a6281dcb2", "is_reserved": 0, "fusion_lat": 0.0}, {"type": "electric_scooter", "rental_uris": {"ios": "https://dc.lft.to/lastmile_qr_scan", "android": "https://dc.lft.to/lastmile_qr_scan"}, "lon": -77.00910333333333, "fusion_lon": 0.0, "is_disabled": 0, "lat": 38.895463166666666, "bike_id": "f6b4a204ac59c7f6956b717f0fca9432", "name": "f6b4a204ac59c7f6956b717f0fca9432", "is_reserved": 0, "fusion_lat": 0.0}, {"type": "electric_scooter", "rental_uris": {"ios": "https://dc.lft.to/lastmile_qr_scan", "android": "https://dc.lft.to/lastmile_qr_scan"}, "lon": -77.02157966666667, "fusion_lon": 0.0, "is_disabled": 0, "lat": 38.9307105, "bike_id": "1fca62ecbd905ee1973dd20eb9c2ec3c", "name": "1fca62ecbd905ee1973dd20eb9c2ec3c", "is_reserved": 0, "fusion_lat": 0.0}, {"type": "electric_scooter", "rental_uris": {"ios": "https://dc.lft.to/lastmile_qr_scan", "android": "https://dc.lft.to/lastmile_qr_scan"}, "lon": -77.075199, "fusion_lon": 0.0, "is_disabled": 0, "lat": 38.9394065, "bike_id": "5ae676af00dbe3ed7866821593146e30", "name": "5ae676af00dbe3ed7866821593146e30", "is_reserved": 0, "fusion_lat": 0.0}, {"type": "electric_scooter", "rental_uris": {"ios": "https://dc.lft.to/lastmile_qr_scan", "android": "https://dc.lft.to/lastmile_qr_scan"}, "lon": -77.02693783333333, "fusion_lon": 0.0, "is_disabled": 0, "lat": 38.9259235, "bike_id": "f3beaf295d1d5b2a1cc589a0a3c27bf5", "name": "f3beaf295d1d5b2a1cc589a0a3c27bf5", "is_reserved": 0, "fusion_lat": 0.0}, {"type": "electric_scooter", "rental_uris": {"ios": "https://dc.lft.to/lastmile_qr_scan", "android": "https://dc.lft.to/lastmile_qr_scan"}, "lon": -77.04453166666667, "fusion_lon": 0.0, "is_disabled": 0, "lat": 38.9242005, "bike_id": "3a3950371ce837511b3864775dacca4d", "name": "3a3950371ce837511b3864775dacca4d", "is_reserved": 0, "fusion_lat": 0.0}, {"type": "electric_bike", "rental_uris": {"ios": "https://dc.lft.to/lastmile_qr_scan", "android": "https://dc.lft.to/lastmile_qr_scan"}, "lon": -76.93543433333333, "fusion_lon": 0.0, "is_disabled": 0, "lat": 38.95184066666667, "bike_id": "6d9b1f81c28142b8b8ff4b3cc673c90a", "name": "6d9b1f81c28142b8b8ff4b3cc673c90a", "is_reserved": 0, "fusion_lat": 0.0}, {"type": "electric_bike", "rental_uris": {"ios": "https://dc.lft.to/lastmile_qr_scan", "android": "https://dc.lft.to/lastmile_qr_scan"}, "lon": -77.11853666666667, "fusion_lon": 0.0, "is_disabled": 0, "lat": 38.87732783333333, "bike_id": "584a8b14a212c650cd14b48d472f7b3c", "name": "584a8b14a212c650cd14b48d472f7b3c", "is_reserved": 0, "fusion_lat": 0.0}, {"type": "electric_scooter", "rental_uris": {"ios": "https://dc.lft.to/lastmile_qr_scan", "android": "https://dc.lft.to/lastmile_qr_scan"}, "lon": -77.08028633333333, "fusion_lon": 0.0, "is_disabled": 0, "lat": 38.90923016666667, "bike_id": "80c4becc9c84422fc328c270d9a7fdba", "name": "80c4becc9c84422fc328c270d9a7fdba", "is_reserved": 0, "fusion_lat": 0.0}, {"type": "electric_scooter", "rental_uris": {"ios": "https://dc.lft.to/lastmile_qr_scan", "android": "https://dc.lft.to/lastmile_qr_scan"}, "lon": -77.04462283333334, "fusion_lon": 0.0, "is_disabled": 0, "lat": 38.91916633333334, "bike_id": "031a2ae5b10fbcdce3d30259a5c2fe10", "name": "031a2ae5b10fbcdce3d30259a5c2fe10", "is_reserved": 0, "fusion_lat": 0.0}, {"type": "electric_scooter", "rental_uris": {"ios": "https://dc.lft.to/lastmile_qr_scan", "android": "https://dc.lft.to/lastmile_qr_scan"}, "lon": -77.0451375, "fusion_lon": 0.0, "is_disabled": 0, "lat": 38.91813716666667, "bike_id": "1260df861b82a226e4bbb79613e06bfd", "name": "1260df861b82a226e4bbb79613e06bfd", "is_reserved": 0, "fusion_lat": 0.0}, {"type": "electric_scooter", "rental_uris": {"ios": "https://dc.lft.to/lastmile_qr_scan", "android": "https://dc.lft.to/lastmile_qr_scan"}, "lon": -77.0184115, "fusion_lon": 0.0, "is_disabled": 0, "lat": 38.94631366666667, "bike_id": "e6c1287bea48ddcfd64ca26ebb213479", "name": "e6c1287bea48ddcfd64ca26ebb213479", "is_reserved": 0, "fusion_lat": 0.0}, {"type": "electric_scooter", "rental_uris": {"ios": "https://dc.lft.to/lastmile_qr_scan", "android": "https://dc.lft.to/lastmile_qr_scan"}, "lon": -77.03136366666666, "fusion_lon": 0.0, "is_disabled": 0, "lat": 38.8922705, "bike_id": "2b46a9627610032fb9089182045b2494", "name": "2b46a9627610032fb9089182045b2494", "is_reserved": 0, "fusion_lat": 0.0}, {"type": "electric_scooter", "rental_uris": {"ios": "https://dc.lft.to/lastmile_qr_scan", "android": "https://dc.lft.to/lastmile_qr_scan"}, "lon": -77.02764533333334, "fusion_lon": 0.0, "is_disabled": 0, "lat": 38.907333, "bike_id": "305e2a7655d5c4af39ea22b6289a650f", "name": "305e2a7655d5c4af39ea22b6289a650f", "is_reserved": 0, "fusion_lat": 0.0}, {"type": "electric_scooter", "rental_uris": {"ios": "https://dc.lft.to/lastmile_qr_scan", "android": "https://dc.lft.to/lastmile_qr_scan"}, "lon": -77.02586016666666, "fusion_lon": 0.0, "is_disabled": 0, "lat": 38.90410333333333, "bike_id": "ddb7f6a098d0da4def20d42d6a514b3f", "name": "ddb7f6a098d0da4def20d42d6a514b3f", "is_reserved": 0, "fusion_lat": 0.0}, {"type": "electric_scooter", "rental_uris": {"ios": "https://dc.lft.to/lastmile_qr_scan", "android": "https://dc.lft.to/lastmile_qr_scan"}, "lon": -77.02767216666666, "fusion_lon": 0.0, "is_disabled": 0, "lat": 38.90733016666667, "bike_id": "d3ec344b115ce884c855881486b82dd0", "name": "d3ec344b115ce884c855881486b82dd0", "is_reserved": 0, "fusion_lat": 0.0}, {"type": "electric_bike", "rental_uris": {"ios": "https://dc.lft.to/lastmile_qr_scan", "android": "https://dc.lft.to/lastmile_qr_scan"}, "lon": -76.98294716666666, "fusion_lon": 0.0, "is_disabled": 0, "lat": 38.96283016666667, "bike_id": "00ce54b0131fb6d5b26627cd1f52481c", "name": "00ce54b0131fb6d5b26627cd1f52481c", "is_reserved": 0, "fusion_lat": 0.0}, {"type": "electric_scooter", "rental_uris": {"ios": "https://dc.lft.to/lastmile_qr_scan", "android": "https://dc.lft.to/lastmile_qr_scan"}, "lon": -77.028267, "fusion_lon": 0.0, "is_disabled": 0, "lat": 38.887310166666666, "bike_id": "25eb67bb532b239b2aad0e90c57a57d4", "name": "25eb67bb532b239b2aad0e90c57a57d4", "is_reserved": 0, "fusion_lat": 0.0}, {"type": "electric_scooter", "rental_uris": {"ios": "https://dc.lft.to/lastmile_qr_scan", "android": "https://dc.lft.to/lastmile_qr_scan"}, "lon": -77.00750866666667, "fusion_lon": 0.0, "is_disabled": 0, "lat": 38.90054883333333, "bike_id": "de7d2c36291a1c9dc509b60143cd28f6", "name": "de7d2c36291a1c9dc509b60143cd28f6", "is_reserved": 0, "fusion_lat": 0.0}, {"type": "electric_bike", "rental_uris": {"ios": "https://dc.lft.to/lastmile_qr_scan", "android": "https://dc.lft.to/lastmile_qr_scan"}, "lon": -76.98992133333333, "fusion_lon": 0.0, "is_disabled": 0, "lat": 38.86390933333333, "bike_id": "ea9d86a39c19e00b76f8fceca41d6243", "name": "ea9d86a39c19e00b76f8fceca41d6243", "is_reserved": 0, "fusion_lat": 0.0}, {"type": "electric_scooter", "rental_uris": {"ios": "https://dc.lft.to/lastmile_qr_scan", "android": "https://dc.lft.to/lastmile_qr_scan"}, "lon": -77.033107, "fusion_lon": 0.0, "is_disabled": 0, "lat": 38.93195933333333, "bike_id": "5e79977c1adf1f91bc0b4c9a9c976f59", "name": "5e79977c1adf1f91bc0b4c9a9c976f59", "is_reserved": 0, "fusion_lat": 0.0}, {"type": "electric_scooter", "rental_uris": {"ios": "https://dc.lft.to/lastmile_qr_scan", "android": "https://dc.lft.to/lastmile_qr_scan"}, "lon": -77.026943, "fusion_lon": 0.0, "is_disabled": 0, "lat": 38.90685966666667, "bike_id": "89e335761995cc66a845d04037f47a72", "name": "89e335761995cc66a845d04037f47a72", "is_reserved": 0, "fusion_lat": 0.0}, {"type": "electric_scooter", "rental_uris": {"ios": "https://dc.lft.to/lastmile_qr_scan", "android": "https://dc.lft.to/lastmile_qr_scan"}, "lon": -77.02223033333334, "fusion_lon": 0.0, "is_disabled": 0, "lat": 38.93552233333333, "bike_id": "4dc8777ea9e051835fc7d3a47c024b97", "name": "4dc8777ea9e051835fc7d3a47c024b97", "is_reserved": 0, "fusion_lat": 0.0}, {"type": "electric_scooter", "rental_uris": {"ios": "https://dc.lft.to/lastmile_qr_scan", "android": "https://dc.lft.to/lastmile_qr_scan"}, "lon": -76.98022883333333, "fusion_lon": 0.0, "is_disabled": 0, "lat": 38.865990333333336, "bike_id": "e0ff9a91d4ff67594a02b8515097473f", "name": "e0ff9a91d4ff67594a02b8515097473f", "is_reserved": 0, "fusion_lat": 0.0}, {"type": "electric_bike", "rental_uris": {"ios": "https://dc.lft.to/lastmile_qr_scan", "android": "https://dc.lft.to/lastmile_qr_scan"}, "lon": -76.92482583333333, "fusion_lon": 0.0, "is_disabled": 0, "lat": 38.95887833333333, "bike_id": "c90dc101aa94afe62f6b8c1520d701c0", "name": "c90dc101aa94afe62f6b8c1520d701c0", "is_reserved": 0, "fusion_lat": 0.0}, {"type": "electric_scooter", "rental_uris": {"ios": "https://dc.lft.to/lastmile_qr_scan", "android": "https://dc.lft.to/lastmile_qr_scan"}, "lon": -77.05857566666667, "fusion_lon": 0.0, "is_disabled": 0, "lat": 38.9360965, "bike_id": "a6ad7ef7a50f99c170a47bd59bde922e", "name": "a6ad7ef7a50f99c170a47bd59bde922e", "is_reserved": 0, "fusion_lat": 0.0}, {"type": "electric_scooter", "rental_uris": {"ios": "https://dc.lft.to/lastmile_qr_scan", "android": "https://dc.lft.to/lastmile_qr_scan"}, "lon": -76.97625216666667, "fusion_lon": 0.0, "is_disabled": 0, "lat": 38.898764166666666, "bike_id": "533faa1b517f9a1e8704c69fc0ae65e9", "name": "533faa1b517f9a1e8704c69fc0ae65e9", "is_reserved": 0, "fusion_lat": 0.0}, {"type": "electric_scooter", "rental_uris": {"ios": "https://dc.lft.to/lastmile_qr_scan", "android": "https://dc.lft.to/lastmile_qr_scan"}, "lon": -76.941541, "fusion_lon": 0.0, "is_disabled": 0, "lat": 38.883639333333335, "bike_id": "95cc9dbc9b7c38fc9f26b44a43fff172", "name": "95cc9dbc9b7c38fc9f26b44a43fff172", "is_reserved": 0, "fusion_lat": 0.0}, {"type": "electric_scooter", "rental_uris": {"ios": "https://dc.lft.to/lastmile_qr_scan", "android": "https://dc.lft.to/lastmile_qr_scan"}, "lon": -76.96525, "fusion_lon": 0.0, "is_disabled": 0, "lat": 38.87625583333333, "bike_id": "8a7d2dd2f735d6d09f14c4ac82cefc42", "name": "8a7d2dd2f735d6d09f14c4ac82cefc42", "is_reserved": 0, "fusion_lat": 0.0}, {"type": "electric_scooter", "rental_uris": {"ios": "https://dc.lft.to/lastmile_qr_scan", "android": "https://dc.lft.to/lastmile_qr_scan"}, "lon": -77.03972833333333, "fusion_lon": 0.0, "is_disabled": 0, "lat": 38.898879666666666, "bike_id": "cf324feaae06b7070545c170acea0220", "name": "cf324feaae06b7070545c170acea0220", "is_reserved": 0, "fusion_lat": 0.0}, {"type": "electric_scooter", "rental_uris": {"ios": "https://dc.lft.to/lastmile_qr_scan", "android": "https://dc.lft.to/lastmile_qr_scan"}, "lon": -77.02626983333333, "fusion_lon": 0.0, "is_disabled": 0, "lat": 38.925354666666664, "bike_id": "eab8f5e30fe7da13222cdea75ae2e25d", "name": "eab8f5e30fe7da13222cdea75ae2e25d", "is_reserved": 0, "fusion_lat": 0.0}, {"type": "electric_scooter", "rental_uris": {"ios": "https://dc.lft.to/lastmile_qr_scan", "android": "https://dc.lft.to/lastmile_qr_scan"}, "lon": -77.07884766666666, "fusion_lon": 0.0, "is_disabled": 0, "lat": 38.920645666666665, "bike_id": "1f51d2b6cce14b5d71788e2748e23985", "name": "1f51d2b6cce14b5d71788e2748e23985", "is_reserved": 0, "fusion_lat": 0.0}, {"type": "electric_scooter", "rental_uris": {"ios": "https://dc.lft.to/lastmile_qr_scan", "android": "https://dc.lft.to/lastmile_qr_scan"}, "lon": -77.00586333333334, "fusion_lon": 0.0, "is_disabled": 0, "lat": 38.90563933333333, "bike_id": "ab03ace247095d2f799e7807971230d5", "name": "ab03ace247095d2f799e7807971230d5", "is_reserved": 0, "fusion_lat": 0.0}, {"type": "electric_scooter", "rental_uris": {"ios": "https://dc.lft.to/lastmile_qr_scan", "android": "https://dc.lft.to/lastmile_qr_scan"}, "lon": -77.02170866666667, "fusion_lon": 0.0, "is_disabled": 0, "lat": 38.94287216666667, "bike_id": "f15a5f2c7f5f496d8126dade8bb1a68e", "name": "f15a5f2c7f5f496d8126dade8bb1a68e", "is_reserved": 0, "fusion_lat": 0.0}, {"type": "electric_scooter", "rental_uris": {"ios": "https://dc.lft.to/lastmile_qr_scan", "android": "https://dc.lft.to/lastmile_qr_scan"}, "lon": -77.050725, "fusion_lon": 0.0, "is_disabled": 0, "lat": 38.90425033333333, "bike_id": "09dcd712ac0221eae0f3a14ac2d70082", "name": "09dcd712ac0221eae0f3a14ac2d70082", "is_reserved": 0, "fusion_lat": 0.0}, {"type": "electric_scooter", "rental_uris": {"ios": "https://dc.lft.to/lastmile_qr_scan", "android": "https://dc.lft.to/lastmile_qr_scan"}, "lon": -77.020035, "fusion_lon": 0.0, "is_disabled": 0, "lat": 38.908302, "bike_id": "f56776a84d1460eeb3393781bae1fae7", "name": "f56776a84d1460eeb3393781bae1fae7", "is_reserved": 0, "fusion_lat": 0.0}, {"type": "electric_scooter", "rental_uris": {"ios": "https://dc.lft.to/lastmile_qr_scan", "android": "https://dc.lft.to/lastmile_qr_scan"}, "lon": -77.03178666666666, "fusion_lon": 0.0, "is_disabled": 0, "lat": 38.919155333333336, "bike_id": "ab66978e92b0593de8db11833fe65410", "name": "ab66978e92b0593de8db11833fe65410", "is_reserved": 0, "fusion_lat": 0.0}, {"type": "electric_scooter", "rental_uris": {"ios": "https://dc.lft.to/lastmile_qr_scan", "android": "https://dc.lft.to/lastmile_qr_scan"}, "lon": -77.02598316666666, "fusion_lon": 0.0, "is_disabled": 0, "lat": 38.90127416666667, "bike_id": "c80a6888a81e349640124fcea255806f", "name": "c80a6888a81e349640124fcea255806f", "is_reserved": 0, "fusion_lat": 0.0}, {"type": "electric_scooter", "rental_uris": {"ios": "https://dc.lft.to/lastmile_qr_scan", "android": "https://dc.lft.to/lastmile_qr_scan"}, "lon": -76.999039, "fusion_lon": 0.0, "is_disabled": 0, "lat": 38.948159, "bike_id": "f9d0aafa5130858b6d177a2c8cea7e86", "name": "f9d0aafa5130858b6d177a2c8cea7e86", "is_reserved": 0, "fusion_lat": 0.0}, {"type": "electric_bike", "rental_uris": {"ios": "https://dc.lft.to/lastmile_qr_scan", "android": "https://dc.lft.to/lastmile_qr_scan"}, "lon": -77.012834, "fusion_lon": 0.0, "is_disabled": 0, "lat": 38.9566865, "bike_id": "85480f21733f75d49cc8f55bb7a70cf4", "name": "85480f21733f75d49cc8f55bb7a70cf4", "is_reserved": 0, "fusion_lat": 0.0}, {"type": "electric_scooter", "rental_uris": {"ios": "https://dc.lft.to/lastmile_qr_scan", "android": "https://dc.lft.to/lastmile_qr_scan"}, "lon": -77.01614366666666, "fusion_lon": 0.0, "is_disabled": 0, "lat": 38.91596783333333, "bike_id": "d6122ac7f9679862b14531b974f18994", "name": "d6122ac7f9679862b14531b974f18994", "is_reserved": 0, "fusion_lat": 0.0}, {"type": "electric_bike", "rental_uris": {"ios": "https://dc.lft.to/lastmile_qr_scan", "android": "https://dc.lft.to/lastmile_qr_scan"}, "lon": -77.11058366666667, "fusion_lon": 0.0, "is_disabled": 0, "lat": 38.87071533333334, "bike_id": "49835573f2aead71444281abf24b14b0", "name": "49835573f2aead71444281abf24b14b0", "is_reserved": 0, "fusion_lat": 0.0}, {"type": "electric_scooter", "rental_uris": {"ios": "https://dc.lft.to/lastmile_qr_scan", "android": "https://dc.lft.to/lastmile_qr_scan"}, "lon": -77.04894616666667, "fusion_lon": 0.0, "is_disabled": 0, "lat": 38.89223916666667, "bike_id": "6a811ce31ff46c2f8ff175899ff1f397", "name": "6a811ce31ff46c2f8ff175899ff1f397", "is_reserved": 0, "fusion_lat": 0.0}, {"type": "electric_scooter", "rental_uris": {"ios": "https://dc.lft.to/lastmile_qr_scan", "android": "https://dc.lft.to/lastmile_qr_scan"}, "lon": -76.9794565, "fusion_lon": 0.0, "is_disabled": 0, "lat": 38.91692333333334, "bike_id": "aebbc9936db3d75da151c272d0451c64", "name": "aebbc9936db3d75da151c272d0451c64", "is_reserved": 0, "fusion_lat": 0.0}, {"type": "electric_scooter", "rental_uris": {"ios": "https://dc.lft.to/lastmile_qr_scan", "android": "https://dc.lft.to/lastmile_qr_scan"}, "lon": -77.0272015, "fusion_lon": 0.0, "is_disabled": 0, "lat": 38.951843, "bike_id": "1f32eaae4f91ad93950cfd2ab61c81f6", "name": "1f32eaae4f91ad93950cfd2ab61c81f6", "is_reserved": 0, "fusion_lat": 0.0}, {"type": "electric_scooter", "rental_uris": {"ios": "https://dc.lft.to/lastmile_qr_scan", "android": "https://dc.lft.to/lastmile_qr_scan"}, "lon": -77.00338416666666, "fusion_lon": 0.0, "is_disabled": 0, "lat": 38.88743933333333, "bike_id": "7b6eec7ef6af8b564c731c77d5c7c0d8", "name": "7b6eec7ef6af8b564c731c77d5c7c0d8", "is_reserved": 0, "fusion_lat": 0.0}, {"type": "electric_scooter", "rental_uris": {"ios": "https://dc.lft.to/lastmile_qr_scan", "android": "https://dc.lft.to/lastmile_qr_scan"}, "lon": -77.03659316666666, "fusion_lon": 0.0, "is_disabled": 0, "lat": 38.9172385, "bike_id": "9c4bd02b714cb9d78611b515fbe0260a", "name": "9c4bd02b714cb9d78611b515fbe0260a", "is_reserved": 0, "fusion_lat": 0.0}, {"type": "electric_scooter", "rental_uris": {"ios": "https://dc.lft.to/lastmile_qr_scan", "android": "https://dc.lft.to/lastmile_qr_scan"}, "lon": -77.04064683333333, "fusion_lon": 0.0, "is_disabled": 0, "lat": 38.899103833333335, "bike_id": "2ba097a08c28819cd5ffb15321222d98", "name": "2ba097a08c28819cd5ffb15321222d98", "is_reserved": 0, "fusion_lat": 0.0}, {"type": "electric_scooter", "rental_uris": {"ios": "https://dc.lft.to/lastmile_qr_scan", "android": "https://dc.lft.to/lastmile_qr_scan"}, "lon": -77.03933766666667, "fusion_lon": 0.0, "is_disabled": 0, "lat": 38.91552333333333, "bike_id": "5f39ac00f7fd8b1366eba88b8884e8f2", "name": "5f39ac00f7fd8b1366eba88b8884e8f2", "is_reserved": 0, "fusion_lat": 0.0}, {"type": "electric_scooter", "rental_uris": {"ios": "https://dc.lft.to/lastmile_qr_scan", "android": "https://dc.lft.to/lastmile_qr_scan"}, "lon": -77.03637616666667, "fusion_lon": 0.0, "is_disabled": 0, "lat": 38.902812833333336, "bike_id": "a9bbfd2960443be9911da4a5c52dbd4b", "name": "a9bbfd2960443be9911da4a5c52dbd4b", "is_reserved": 0, "fusion_lat": 0.0}, {"type": "electric_scooter", "rental_uris": {"ios": "https://dc.lft.to/lastmile_qr_scan", "android": "https://dc.lft.to/lastmile_qr_scan"}, "lon": -77.02163233333333, "fusion_lon": 0.0, "is_disabled": 0, "lat": 38.926154333333336, "bike_id": "7053ebc3c71f6a17eb0796e5637d760e", "name": "7053ebc3c71f6a17eb0796e5637d760e", "is_reserved": 0, "fusion_lat": 0.0}, {"type": "electric_scooter", "rental_uris": {"ios": "https://dc.lft.to/lastmile_qr_scan", "android": "https://dc.lft.to/lastmile_qr_scan"}, "lon": -77.02801716666667, "fusion_lon": 0.0, "is_disabled": 0, "lat": 38.91706283333333, "bike_id": "d34c4a12cbec6010876037225c5fabdf", "name": "d34c4a12cbec6010876037225c5fabdf", "is_reserved": 0, "fusion_lat": 0.0}, {"type": "electric_scooter", "rental_uris": {"ios": "https://dc.lft.to/lastmile_qr_scan", "android": "https://dc.lft.to/lastmile_qr_scan"}, "lon": -77.0733215, "fusion_lon": 0.0, "is_disabled": 0, "lat": 38.92496383333334, "bike_id": "1009f2cc3fb76c1e7a82585ceadadbe4", "name": "1009f2cc3fb76c1e7a82585ceadadbe4", "is_reserved": 0, "fusion_lat": 0.0}, {"type": "electric_scooter", "rental_uris": {"ios": "https://dc.lft.to/lastmile_qr_scan", "android": "https://dc.lft.to/lastmile_qr_scan"}, "lon": -77.03182433333333, "fusion_lon": 0.0, "is_disabled": 0, "lat": 38.91329316666667, "bike_id": "eada268b618cd244f35e6d13b13849c7", "name": "eada268b618cd244f35e6d13b13849c7", "is_reserved": 0, "fusion_lat": 0.0}, {"type": "electric_scooter", "rental_uris": {"ios": "https://dc.lft.to/lastmile_qr_scan", "android": "https://dc.lft.to/lastmile_qr_scan"}, "lon": -77.05495816666667, "fusion_lon": 0.0, "is_disabled": 0, "lat": 38.936621333333335, "bike_id": "39c358f1cf6df4df1bd03c710ab5942a", "name": "39c358f1cf6df4df1bd03c710ab5942a", "is_reserved": 0, "fusion_lat": 0.0}, {"type": "electric_scooter", "rental_uris": {"ios": "https://dc.lft.to/lastmile_qr_scan", "android": "https://dc.lft.to/lastmile_qr_scan"}, "lon": -77.02625833333333, "fusion_lon": 0.0, "is_disabled": 0, "lat": 38.887485166666664, "bike_id": "bb3d9d7ecdcf3429bb19722c59f20d7d", "name": "bb3d9d7ecdcf3429bb19722c59f20d7d", "is_reserved": 0, "fusion_lat": 0.0}, {"type": "electric_scooter", "rental_uris": {"ios": "https://dc.lft.to/lastmile_qr_scan", "android": "https://dc.lft.to/lastmile_qr_scan"}, "lon": -77.02493, "fusion_lon": 0.0, "is_disabled": 0, "lat": 38.94183366666667, "bike_id": "effa8a99aee477709ab5d74d22ca24e1", "name": "effa8a99aee477709ab5d74d22ca24e1", "is_reserved": 0, "fusion_lat": 0.0}, {"type": "electric_scooter", "rental_uris": {"ios": "https://dc.lft.to/lastmile_qr_scan", "android": "https://dc.lft.to/lastmile_qr_scan"}, "lon": -77.02690283333334, "fusion_lon": 0.0, "is_disabled": 0, "lat": 38.90678833333333, "bike_id": "1e23fa04f50129f0ceb5992096ec10ef", "name": "1e23fa04f50129f0ceb5992096ec10ef", "is_reserved": 0, "fusion_lat": 0.0}, {"type": "electric_scooter", "rental_uris": {"ios": "https://dc.lft.to/lastmile_qr_scan", "android": "https://dc.lft.to/lastmile_qr_scan"}, "lon": -77.017718, "fusion_lon": 0.0, "is_disabled": 0, "lat": 38.90560216666667, "bike_id": "5f71dbc74f5d98b44c29a37ff3459ba8", "name": "5f71dbc74f5d98b44c29a37ff3459ba8", "is_reserved": 0, "fusion_lat": 0.0}, {"type": "electric_scooter", "rental_uris": {"ios": "https://dc.lft.to/lastmile_qr_scan", "android": "https://dc.lft.to/lastmile_qr_scan"}, "lon": -76.98701416666667, "fusion_lon": 0.0, "is_disabled": 0, "lat": 38.86533133333333, "bike_id": "3a4c6b20ba83d9102d823d38847f04f9", "name": "3a4c6b20ba83d9102d823d38847f04f9", "is_reserved": 0, "fusion_lat": 0.0}, {"type": "electric_scooter", "rental_uris": {"ios": "https://dc.lft.to/lastmile_qr_scan", "android": "https://dc.lft.to/lastmile_qr_scan"}, "lon": -77.04159966666667, "fusion_lon": 0.0, "is_disabled": 0, "lat": 38.91613016666667, "bike_id": "1d00b6c27b6c7384ffb65095c591db54", "name": "1d00b6c27b6c7384ffb65095c591db54", "is_reserved": 0, "fusion_lat": 0.0}, {"type": "electric_scooter", "rental_uris": {"ios": "https://dc.lft.to/lastmile_qr_scan", "android": "https://dc.lft.to/lastmile_qr_scan"}, "lon": -77.03508433333333, "fusion_lon": 0.0, "is_disabled": 0, "lat": 38.9215195, "bike_id": "2dba75cbf769d0bae61012794889cf41", "name": "2dba75cbf769d0bae61012794889cf41", "is_reserved": 0, "fusion_lat": 0.0}, {"type": "electric_scooter", "rental_uris": {"ios": "https://dc.lft.to/lastmile_qr_scan", "android": "https://dc.lft.to/lastmile_qr_scan"}, "lon": -77.011333, "fusion_lon": 0.0, "is_disabled": 0, "lat": 38.8852815, "bike_id": "165394f7ff5fa317a0946ee8f71d4856", "name": "165394f7ff5fa317a0946ee8f71d4856", "is_reserved": 0, "fusion_lat": 0.0}, {"type": "electric_scooter", "rental_uris": {"ios": "https://dc.lft.to/lastmile_qr_scan", "android": "https://dc.lft.to/lastmile_qr_scan"}, "lon": -77.02964733333333, "fusion_lon": 0.0, "is_disabled": 0, "lat": 38.9346855, "bike_id": "a4cdaffea8db5d237c20b5a0e1739185", "name": "a4cdaffea8db5d237c20b5a0e1739185", "is_reserved": 0, "fusion_lat": 0.0}, {"type": "electric_bike", "rental_uris": {"ios": "https://dc.lft.to/lastmile_qr_scan", "android": "https://dc.lft.to/lastmile_qr_scan"}, "lon": -77.13144116666666, "fusion_lon": 0.0, "is_disabled": 0, "lat": 38.86168633333333, "bike_id": "07a01cd56bdaaf3e49cb23a378430c6e", "name": "07a01cd56bdaaf3e49cb23a378430c6e", "is_reserved": 0, "fusion_lat": 0.0}, {"type": "electric_bike", "rental_uris": {"ios": "https://dc.lft.to/lastmile_qr_scan", "android": "https://dc.lft.to/lastmile_qr_scan"}, "lon": -77.02774, "fusion_lon": 0.0, "is_disabled": 0, "lat": 38.929293666666666, "bike_id": "5840332db905f5a16525c470209cabe4", "name": "5840332db905f5a16525c470209cabe4", "is_reserved": 0, "fusion_lat": 0.0}, {"type": "electric_scooter", "rental_uris": {"ios": "https://dc.lft.to/lastmile_qr_scan", "android": "https://dc.lft.to/lastmile_qr_scan"}, "lon": -77.024137, "fusion_lon": 0.0, "is_disabled": 0, "lat": 38.891960166666664, "bike_id": "081b8635bbacc1bb9c74b577f321d618", "name": "081b8635bbacc1bb9c74b577f321d618", "is_reserved": 0, "fusion_lat": 0.0}, {"type": "electric_scooter", "rental_uris": {"ios": "https://dc.lft.to/lastmile_qr_scan", "android": "https://dc.lft.to/lastmile_qr_scan"}, "lon": -77.0219735, "fusion_lon": 0.0, "is_disabled": 0, "lat": 38.910668333333334, "bike_id": "0f5c5651a2923bd384599691f5033ed7", "name": "0f5c5651a2923bd384599691f5033ed7", "is_reserved": 0, "fusion_lat": 0.0}, {"type": "electric_bike", "rental_uris": {"ios": "https://dc.lft.to/lastmile_qr_scan", "android": "https://dc.lft.to/lastmile_qr_scan"}, "lon": -76.9853085, "fusion_lon": 0.0, "is_disabled": 0, "lat": 38.88082283333333, "bike_id": "cef2e302534e436752b2bb7be89c6f03", "name": "cef2e302534e436752b2bb7be89c6f03", "is_reserved": 0, "fusion_lat": 0.0}, {"type": "electric_bike", "rental_uris": {"ios": "https://dc.lft.to/lastmile_qr_scan", "android": "https://dc.lft.to/lastmile_qr_scan"}, "lon": -76.97182733333334, "fusion_lon": 0.0, "is_disabled": 0, "lat": 38.917872, "bike_id": "23b11a27b1d4eddc013764aed1bd86a2", "name": "23b11a27b1d4eddc013764aed1bd86a2", "is_reserved": 0, "fusion_lat": 0.0}, {"type": "electric_scooter", "rental_uris": {"ios": "https://dc.lft.to/lastmile_qr_scan", "android": "https://dc.lft.to/lastmile_qr_scan"}, "lon": -77.05126916666667, "fusion_lon": 0.0, "is_disabled": 0, "lat": 38.92363183333333, "bike_id": "82a9fef66f860f7cc53b7edb9bcdf378", "name": "82a9fef66f860f7cc53b7edb9bcdf378", "is_reserved": 0, "fusion_lat": 0.0}, {"type": "electric_scooter", "rental_uris": {"ios": "https://dc.lft.to/lastmile_qr_scan", "android": "https://dc.lft.to/lastmile_qr_scan"}, "lon": -77.0276175, "fusion_lon": 0.0, "is_disabled": 0, "lat": 38.95613066666667, "bike_id": "f330b9d3bf48ff5f2fafe8ff417229e9", "name": "f330b9d3bf48ff5f2fafe8ff417229e9", "is_reserved": 0, "fusion_lat": 0.0}, {"type": "electric_scooter", "rental_uris": {"ios": "https://dc.lft.to/lastmile_qr_scan", "android": "https://dc.lft.to/lastmile_qr_scan"}, "lon": -77.01101233333333, "fusion_lon": 0.0, "is_disabled": 0, "lat": 38.89351333333333, "bike_id": "d9d58768a6b911e4d6ba9748f078eeb1", "name": "d9d58768a6b911e4d6ba9748f078eeb1", "is_reserved": 0, "fusion_lat": 0.0}, {"type": "electric_scooter", "rental_uris": {"ios": "https://dc.lft.to/lastmile_qr_scan", "android": "https://dc.lft.to/lastmile_qr_scan"}, "lon": -76.99207683333333, "fusion_lon": 0.0, "is_disabled": 0, "lat": 38.89519883333333, "bike_id": "c27b08533c7aa413a8986446dfa56ae8", "name": "c27b08533c7aa413a8986446dfa56ae8", "is_reserved": 0, "fusion_lat": 0.0}, {"type": "electric_scooter", "rental_uris": {"ios": "https://dc.lft.to/lastmile_qr_scan", "android": "https://dc.lft.to/lastmile_qr_scan"}, "lon": -76.98314116666667, "fusion_lon": 0.0, "is_disabled": 0, "lat": 38.86889633333333, "bike_id": "242d9f26021c4294feef4fcfdb560e60", "name": "242d9f26021c4294feef4fcfdb560e60", "is_reserved": 0, "fusion_lat": 0.0}, {"type": "electric_scooter", "rental_uris": {"ios": "https://dc.lft.to/lastmile_qr_scan", "android": "https://dc.lft.to/lastmile_qr_scan"}, "lon": -77.01750716666666, "fusion_lon": 0.0, "is_disabled": 0, "lat": 38.902637666666664, "bike_id": "24bbe1484533eb2d0907765df6ad22a4", "name": "24bbe1484533eb2d0907765df6ad22a4", "is_reserved": 0, "fusion_lat": 0.0}, {"type": "electric_scooter", "rental_uris": {"ios": "https://dc.lft.to/lastmile_qr_scan", "android": "https://dc.lft.to/lastmile_qr_scan"}, "lon": -77.02166216666667, "fusion_lon": 0.0, "is_disabled": 0, "lat": 38.91438633333333, "bike_id": "6ee122fddd91891dc841653be6e5374d", "name": "6ee122fddd91891dc841653be6e5374d", "is_reserved": 0, "fusion_lat": 0.0}, {"type": "electric_scooter", "rental_uris": {"ios": "https://dc.lft.to/lastmile_qr_scan", "android": "https://dc.lft.to/lastmile_qr_scan"}, "lon": -76.990323, "fusion_lon": 0.0, "is_disabled": 0, "lat": 38.898519, "bike_id": "011c4c89ac0dcdfe47bde1f64ae7b36b", "name": "011c4c89ac0dcdfe47bde1f64ae7b36b", "is_reserved": 0, "fusion_lat": 0.0}, {"type": "electric_scooter", "rental_uris": {"ios": "https://dc.lft.to/lastmile_qr_scan", "android": "https://dc.lft.to/lastmile_qr_scan"}, "lon": -77.028232, "fusion_lon": 0.0, "is_disabled": 0, "lat": 38.88731933333333, "bike_id": "426bb3196382fabb65496a69ce709754", "name": "426bb3196382fabb65496a69ce709754", "is_reserved": 0, "fusion_lat": 0.0}, {"type": "electric_scooter", "rental_uris": {"ios": "https://dc.lft.to/lastmile_qr_scan", "android": "https://dc.lft.to/lastmile_qr_scan"}, "lon": -76.997781, "fusion_lon": 0.0, "is_disabled": 0, "lat": 38.8443355, "bike_id": "2da16b1b665c707c5cb8a403cb085238", "name": "2da16b1b665c707c5cb8a403cb085238", "is_reserved": 0, "fusion_lat": 0.0}, {"type": "electric_scooter", "rental_uris": {"ios": "https://dc.lft.to/lastmile_qr_scan", "android": "https://dc.lft.to/lastmile_qr_scan"}, "lon": -76.93175716666667, "fusion_lon": 0.0, "is_disabled": 0, "lat": 38.898835, "bike_id": "f7007f587e2494bb0c465195d4643bce", "name": "f7007f587e2494bb0c465195d4643bce", "is_reserved": 0, "fusion_lat": 0.0}, {"type": "electric_scooter", "rental_uris": {"ios": "https://dc.lft.to/lastmile_qr_scan", "android": "https://dc.lft.to/lastmile_qr_scan"}, "lon": -77.0798255, "fusion_lon": 0.0, "is_disabled": 0, "lat": 38.91952116666667, "bike_id": "e0c45bc01df4444832d32ae41259baa3", "name": "e0c45bc01df4444832d32ae41259baa3", "is_reserved": 0, "fusion_lat": 0.0}, {"type": "electric_scooter", "rental_uris": {"ios": "https://dc.lft.to/lastmile_qr_scan", "android": "https://dc.lft.to/lastmile_qr_scan"}, "lon": -77.0299085, "fusion_lon": 0.0, "is_disabled": 0, "lat": 38.920412, "bike_id": "02c1d82568ccdb97d20c1afb9e772916", "name": "02c1d82568ccdb97d20c1afb9e772916", "is_reserved": 0, "fusion_lat": 0.0}, {"type": "electric_scooter", "rental_uris": {"ios": "https://dc.lft.to/lastmile_qr_scan", "android": "https://dc.lft.to/lastmile_qr_scan"}, "lon": -77.0320155, "fusion_lon": 0.0, "is_disabled": 0, "lat": 38.924672, "bike_id": "86ab5acbd083e6c3465d85d3f3dc7b17", "name": "86ab5acbd083e6c3465d85d3f3dc7b17", "is_reserved": 0, "fusion_lat": 0.0}, {"type": "electric_bike", "rental_uris": {"ios": "https://dc.lft.to/lastmile_qr_scan", "android": "https://dc.lft.to/lastmile_qr_scan"}, "lon": -77.00918566666667, "fusion_lon": 0.0, "is_disabled": 0, "lat": 38.8278655, "bike_id": "6be679fc69e2ab966e36510592c140e8", "name": "6be679fc69e2ab966e36510592c140e8", "is_reserved": 0, "fusion_lat": 0.0}, {"type": "electric_bike", "rental_uris": {"ios": "https://dc.lft.to/lastmile_qr_scan", "android": "https://dc.lft.to/lastmile_qr_scan"}, "lon": -77.03687666666667, "fusion_lon": 0.0, "is_disabled": 0, "lat": 38.936483833333334, "bike_id": "a5f757e59a5db6dbefd5e15d9c5ac2d3", "name": "a5f757e59a5db6dbefd5e15d9c5ac2d3", "is_reserved": 0, "fusion_lat": 0.0}, {"type": "electric_scooter", "rental_uris": {"ios": "https://dc.lft.to/lastmile_qr_scan", "android": "https://dc.lft.to/lastmile_qr_scan"}, "lon": -77.03480133333333, "fusion_lon": 0.0, "is_disabled": 0, "lat": 38.929095833333335, "bike_id": "fdf9a9318ca7805fa1182dc57e4c6cf6", "name": "fdf9a9318ca7805fa1182dc57e4c6cf6", "is_reserved": 0, "fusion_lat": 0.0}, {"type": "electric_scooter", "rental_uris": {"ios": "https://dc.lft.to/lastmile_qr_scan", "android": "https://dc.lft.to/lastmile_qr_scan"}, "lon": -77.0092445, "fusion_lon": 0.0, "is_disabled": 0, "lat": 38.88334316666667, "bike_id": "99014e92ffaab87378a7ee6c003c81e3", "name": "99014e92ffaab87378a7ee6c003c81e3", "is_reserved": 0, "fusion_lat": 0.0}, {"type": "electric_bike", "rental_uris": {"ios": "https://dc.lft.to/lastmile_qr_scan", "android": "https://dc.lft.to/lastmile_qr_scan"}, "lon": -76.9723665, "fusion_lon": 0.0, "is_disabled": 0, "lat": 38.949049333333335, "bike_id": "259b24667d5ad1e19f1883c0a22ff6c5", "name": "259b24667d5ad1e19f1883c0a22ff6c5", "is_reserved": 0, "fusion_lat": 0.0}, {"type": "electric_scooter", "rental_uris": {"ios": "https://dc.lft.to/lastmile_qr_scan", "android": "https://dc.lft.to/lastmile_qr_scan"}, "lon": -77.02692933333333, "fusion_lon": 0.0, "is_disabled": 0, "lat": 38.90684266666667, "bike_id": "d5afb9ff849f8e983b191faefd1a80b8", "name": "d5afb9ff849f8e983b191faefd1a80b8", "is_reserved": 0, "fusion_lat": 0.0}, {"type": "electric_scooter", "rental_uris": {"ios": "https://dc.lft.to/lastmile_qr_scan", "android": "https://dc.lft.to/lastmile_qr_scan"}, "lon": -77.03191133333333, "fusion_lon": 0.0, "is_disabled": 0, "lat": 38.9142155, "bike_id": "c04ca97260879112f2c0b47a43c540a3", "name": "c04ca97260879112f2c0b47a43c540a3", "is_reserved": 0, "fusion_lat": 0.0}, {"type": "electric_scooter", "rental_uris": {"ios": "https://dc.lft.to/lastmile_qr_scan", "android": "https://dc.lft.to/lastmile_qr_scan"}, "lon": -77.02625133333333, "fusion_lon": 0.0, "is_disabled": 0, "lat": 38.892199833333336, "bike_id": "a2f934dfa3bd18c61135271710462f00", "name": "a2f934dfa3bd18c61135271710462f00", "is_reserved": 0, "fusion_lat": 0.0}, {"type": "electric_bike", "rental_uris": {"ios": "https://dc.lft.to/lastmile_qr_scan", "android": "https://dc.lft.to/lastmile_qr_scan"}, "lon": -77.11803666666667, "fusion_lon": 0.0, "is_disabled": 0, "lat": 38.8737195, "bike_id": "fc1f2b4358fedd96a398d3ef952045c7", "name": "fc1f2b4358fedd96a398d3ef952045c7", "is_reserved": 0, "fusion_lat": 0.0}, {"type": "electric_bike", "rental_uris": {"ios": "https://dc.lft.to/lastmile_qr_scan", "android": "https://dc.lft.to/lastmile_qr_scan"}, "lon": -77.0401675, "fusion_lon": 0.0, "is_disabled": 0, "lat": 38.7932245, "bike_id": "6d863a19f8b400bdba55e9f4cb20e2fa", "name": "6d863a19f8b400bdba55e9f4cb20e2fa", "is_reserved": 0, "fusion_lat": 0.0}, {"type": "electric_scooter", "rental_uris": {"ios": "https://dc.lft.to/lastmile_qr_scan", "android": "https://dc.lft.to/lastmile_qr_scan"}, "lon": -77.03262716666667, "fusion_lon": 0.0, "is_disabled": 0, "lat": 38.898917, "bike_id": "4acb7c7f1ca9605a7825ed4f55a8bd3c", "name": "4acb7c7f1ca9605a7825ed4f55a8bd3c", "is_reserved": 0, "fusion_lat": 0.0}, {"type": "electric_scooter", "rental_uris": {"ios": "https://dc.lft.to/lastmile_qr_scan", "android": "https://dc.lft.to/lastmile_qr_scan"}, "lon": -77.02109316666666, "fusion_lon": 0.0, "is_disabled": 0, "lat": 38.9409845, "bike_id": "2e793bafdef577c8cb30145d784a0cbb", "name": "2e793bafdef577c8cb30145d784a0cbb", "is_reserved": 0, "fusion_lat": 0.0}, {"type": "electric_scooter", "rental_uris": {"ios": "https://dc.lft.to/lastmile_qr_scan", "android": "https://dc.lft.to/lastmile_qr_scan"}, "lon": -76.99512966666667, "fusion_lon": 0.0, "is_disabled": 0, "lat": 38.897304166666665, "bike_id": "06d4d5d854505bd2958947c9db852ac3", "name": "06d4d5d854505bd2958947c9db852ac3", "is_reserved": 0, "fusion_lat": 0.0}, {"type": "electric_scooter", "rental_uris": {"ios": "https://dc.lft.to/lastmile_qr_scan", "android": "https://dc.lft.to/lastmile_qr_scan"}, "lon": -77.0318085, "fusion_lon": 0.0, "is_disabled": 0, "lat": 38.91324616666667, "bike_id": "929fd360ba1ebae5ae7867d7ae6f9e59", "name": "929fd360ba1ebae5ae7867d7ae6f9e59", "is_reserved": 0, "fusion_lat": 0.0}, {"type": "electric_scooter", "rental_uris": {"ios": "https://dc.lft.to/lastmile_qr_scan", "android": "https://dc.lft.to/lastmile_qr_scan"}, "lon": -77.02834283333334, "fusion_lon": 0.0, "is_disabled": 0, "lat": 38.9319185, "bike_id": "b3c35fd8838603a5cd94ab9295133818", "name": "b3c35fd8838603a5cd94ab9295133818", "is_reserved": 0, "fusion_lat": 0.0}, {"type": "electric_bike", "rental_uris": {"ios": "https://dc.lft.to/lastmile_qr_scan", "android": "https://dc.lft.to/lastmile_qr_scan"}, "lon": -76.94798083333333, "fusion_lon": 0.0, "is_disabled": 0, "lat": 38.893955, "bike_id": "1f1dd037b4c5562fc3708bfc76862f84", "name": "1f1dd037b4c5562fc3708bfc76862f84", "is_reserved": 0, "fusion_lat": 0.0}, {"type": "electric_scooter", "rental_uris": {"ios": "https://dc.lft.to/lastmile_qr_scan", "android": "https://dc.lft.to/lastmile_qr_scan"}, "lon": -77.00609566666667, "fusion_lon": 0.0, "is_disabled": 0, "lat": 38.87182883333333, "bike_id": "5b84806745f7e6c2cb56e33622650d47", "name": "5b84806745f7e6c2cb56e33622650d47", "is_reserved": 0, "fusion_lat": 0.0}, {"type": "electric_bike", "rental_uris": {"ios": "https://dc.lft.to/lastmile_qr_scan", "android": "https://dc.lft.to/lastmile_qr_scan"}, "lon": -76.99015066666666, "fusion_lon": 0.0, "is_disabled": 0, "lat": 38.954786, "bike_id": "816bc71e5d6e4a45521ccd5917d6237d", "name": "816bc71e5d6e4a45521ccd5917d6237d", "is_reserved": 0, "fusion_lat": 0.0}, {"type": "electric_scooter", "rental_uris": {"ios": "https://dc.lft.to/lastmile_qr_scan", "android": "https://dc.lft.to/lastmile_qr_scan"}, "lon": -77.02228283333334, "fusion_lon": 0.0, "is_disabled": 0, "lat": 38.912560166666665, "bike_id": "1f057fdc3b9c54b2b1e7bde7e270dd7a", "name": "1f057fdc3b9c54b2b1e7bde7e270dd7a", "is_reserved": 0, "fusion_lat": 0.0}, {"type": "electric_scooter", "rental_uris": {"ios": "https://dc.lft.to/lastmile_qr_scan", "android": "https://dc.lft.to/lastmile_qr_scan"}, "lon": -76.98339683333333, "fusion_lon": 0.0, "is_disabled": 0, "lat": 38.90745733333333, "bike_id": "230dc0ebdad67b5c6d1ca68bd7a01c30", "name": "230dc0ebdad67b5c6d1ca68bd7a01c30", "is_reserved": 0, "fusion_lat": 0.0}, {"type": "electric_scooter", "rental_uris": {"ios": "https://dc.lft.to/lastmile_qr_scan", "android": "https://dc.lft.to/lastmile_qr_scan"}, "lon": -77.03430716666666, "fusion_lon": 0.0, "is_disabled": 0, "lat": 38.90726033333333, "bike_id": "b13d132d9fc18c2f897e81ce980de0f6", "name": "b13d132d9fc18c2f897e81ce980de0f6", "is_reserved": 0, "fusion_lat": 0.0}, {"type": "electric_bike", "rental_uris": {"ios": "https://dc.lft.to/lastmile_qr_scan", "android": "https://dc.lft.to/lastmile_qr_scan"}, "lon": -76.96263033333334, "fusion_lon": 0.0, "is_disabled": 0, "lat": 38.8824705, "bike_id": "34f3b98c3687daa0a0a8c6579104d18d", "name": "34f3b98c3687daa0a0a8c6579104d18d", "is_reserved": 0, "fusion_lat": 0.0}, {"type": "electric_bike", "rental_uris": {"ios": "https://dc.lft.to/lastmile_qr_scan", "android": "https://dc.lft.to/lastmile_qr_scan"}, "lon": -77.00671166666666, "fusion_lon": 0.0, "is_disabled": 0, "lat": 38.94508, "bike_id": "bcbe69c6e5b1bf986e72f1e0d0a83331", "name": "bcbe69c6e5b1bf986e72f1e0d0a83331", "is_reserved": 0, "fusion_lat": 0.0}, {"type": "electric_scooter", "rental_uris": {"ios": "https://dc.lft.to/lastmile_qr_scan", "android": "https://dc.lft.to/lastmile_qr_scan"}, "lon": -77.0438865, "fusion_lon": 0.0, "is_disabled": 0, "lat": 38.9107375, "bike_id": "5f436cdec968d58d22accf4a0e29808b", "name": "5f436cdec968d58d22accf4a0e29808b", "is_reserved": 0, "fusion_lat": 0.0}, {"type": "electric_scooter", "rental_uris": {"ios": "https://dc.lft.to/lastmile_qr_scan", "android": "https://dc.lft.to/lastmile_qr_scan"}, "lon": -77.03835, "fusion_lon": 0.0, "is_disabled": 0, "lat": 38.912328, "bike_id": "bc11a08a6190c8e8a1105ab52352599f", "name": "bc11a08a6190c8e8a1105ab52352599f", "is_reserved": 0, "fusion_lat": 0.0}, {"type": "electric_scooter", "rental_uris": {"ios": "https://dc.lft.to/lastmile_qr_scan", "android": "https://dc.lft.to/lastmile_qr_scan"}, "lon": -77.03854133333333, "fusion_lon": 0.0, "is_disabled": 0, "lat": 38.8675185, "bike_id": "721259b88bf4829f7ebc6f0e86374bb5", "name": "721259b88bf4829f7ebc6f0e86374bb5", "is_reserved": 0, "fusion_lat": 0.0}, {"type": "electric_scooter", "rental_uris": {"ios": "https://dc.lft.to/lastmile_qr_scan", "android": "https://dc.lft.to/lastmile_qr_scan"}, "lon": -76.9541125, "fusion_lon": 0.0, "is_disabled": 0, "lat": 38.890640833333336, "bike_id": "3a2bfa324b74781167b93212578bb660", "name": "3a2bfa324b74781167b93212578bb660", "is_reserved": 0, "fusion_lat": 0.0}, {"type": "electric_bike", "rental_uris": {"ios": "https://dc.lft.to/lastmile_qr_scan", "android": "https://dc.lft.to/lastmile_qr_scan"}, "lon": -76.9783185, "fusion_lon": 0.0, "is_disabled": 0, "lat": 38.870724333333335, "bike_id": "0553e0acca6f1ea0ba509ae7672e2b7a", "name": "0553e0acca6f1ea0ba509ae7672e2b7a", "is_reserved": 0, "fusion_lat": 0.0}, {"type": "electric_scooter", "rental_uris": {"ios": "https://dc.lft.to/lastmile_qr_scan", "android": "https://dc.lft.to/lastmile_qr_scan"}, "lon": -77.0296565, "fusion_lon": 0.0, "is_disabled": 0, "lat": 38.92587533333333, "bike_id": "99a19ead5ac1e6cd8ce55d35053af061", "name": "99a19ead5ac1e6cd8ce55d35053af061", "is_reserved": 0, "fusion_lat": 0.0}, {"type": "electric_bike", "rental_uris": {"ios": "https://dc.lft.to/lastmile_qr_scan", "android": "https://dc.lft.to/lastmile_qr_scan"}, "lon": -76.993526, "fusion_lon": 0.0, "is_disabled": 0, "lat": 38.8450615, "bike_id": "732aa43c6848e93ac66078a53d08525d", "name": "732aa43c6848e93ac66078a53d08525d", "is_reserved": 0, "fusion_lat": 0.0}, {"type": "electric_bike", "rental_uris": {"ios": "https://dc.lft.to/lastmile_qr_scan", "android": "https://dc.lft.to/lastmile_qr_scan"}, "lon": -77.02225, "fusion_lon": 0.0, "is_disabled": 0, "lat": 38.95688766666667, "bike_id": "a885a08b6163ed38455af9a776a4c057", "name": "a885a08b6163ed38455af9a776a4c057", "is_reserved": 0, "fusion_lat": 0.0}, {"type": "electric_scooter", "rental_uris": {"ios": "https://dc.lft.to/lastmile_qr_scan", "android": "https://dc.lft.to/lastmile_qr_scan"}, "lon": -77.027139, "fusion_lon": 0.0, "is_disabled": 0, "lat": 38.90685633333333, "bike_id": "7413d9cf0724051af77a35189878f013", "name": "7413d9cf0724051af77a35189878f013", "is_reserved": 0, "fusion_lat": 0.0}, {"type": "electric_scooter", "rental_uris": {"ios": "https://dc.lft.to/lastmile_qr_scan", "android": "https://dc.lft.to/lastmile_qr_scan"},