{"data": {"bikes": [{"rental_uris": {"ios": "https://dc.lft.to/lastmile_qr_scan", "android": "https://dc.lft.to/lastmile_qr_scan"}, "lon": -77.02581583333334, "type": "electric_scooter", "fusion_lat": 0.0, "lat": 38.920319166666665, "name": "96289426852c24d28a6dc7be67f5bb11", "fusion_lon": 0.0, "bike_id": "96289426852c24d28a6dc7be67f5bb11", "is_disabled": 0, "is_reserved": 0}, {"rental_uris": {"ios": "https://dc.lft.to/lastmile_qr_scan", "android": "https://dc.lft.to/lastmile_qr_scan"}, "lon": -77.058801, "type": "electric_scooter", "fusion_lat": 0.0, "lat": 38.9363315, "name": "be342a24c1ef9557e9107e458d3c674f", "fusion_lon": 0.0, "bike_id": "be342a24c1ef9557e9107e458d3c674f", "is_disabled": 0, "is_reserved": 0}, {"rental_uris": {"ios": "https://dc.lft.to/lastmile_qr_scan", "android": "https://dc.lft.to/lastmile_qr_scan"}, "lon": -77.00669016666667, "type": "electric_bike", "fusion_lat": 0.0, "lat": 38.9451165, "name": "00567beda6704aed3c44cd37a34d46c5", "fusion_lon": 0.0, "bike_id": "00567beda6704aed3c44cd37a34d46c5", "is_disabled": 0, "is_reserved": 0}, {"rental_uris": {"ios": "https://dc.lft.to/lastmile_qr_scan", "android": "https://dc.lft.to/lastmile_qr_scan"}, "lon": -77.0020595, "type": "electric_scooter", "fusion_lat": 0.0, "lat": 38.900542333333334, "name": "22a455844dea8591deb56874e3b87602", "fusion_lon": 0.0, "bike_id": "22a455844dea8591deb56874e3b87602", "is_disabled": 0, "is_reserved": 0}, {"rental_uris": {"ios": "https://dc.lft.to/lastmile_qr_scan", "android": "https://dc.lft.to/lastmile_qr_scan"}, "lon": -77.06948883333334, "type": "electric_bike", "fusion_lat": 0.0, "lat": 38.99040033333333, "name": "17463ae200ab5c83ea552fc2e7ce9363", "fusion_lon": 0.0, "bike_id": "17463ae200ab5c83ea552fc2e7ce9363", "is_disabled": 0, "is_reserved": 0}, {"rental_uris": {"ios": "https://dc.lft.to/lastmile_qr_scan", "android": "https://dc.lft.to/lastmile_qr_scan"}, "lon": -77.04736383333334, "type": "electric_scooter", "fusion_lat": 0.0, "lat": 38.911112333333335, "name": "9bdf6efff6ec6038657501671da03a27", "fusion_lon": 0.0, "bike_id": "9bdf6efff6ec6038657501671da03a27", "is_disabled": 0, "is_reserved": 0}, {"rental_uris": {"ios": "https://dc.lft.to/lastmile_qr_scan", "android": "https://dc.lft.to/lastmile_qr_scan"}, "lon": -77.029669, "type": "electric_scooter", "fusion_lat": 0.0, "lat": 38.95424083333333, "name": "d8fec5ea3cb0ba84fdefe76eea674ebb", "fusion_lon": 0.0, "bike_id": "d8fec5ea3cb0ba84fdefe76eea674ebb", "is_disabled": 0, "is_reserved": 0}, {"rental_uris": {"ios": "https://dc.lft.to/lastmile_qr_scan", "android": "https://dc.lft.to/lastmile_qr_scan"}, "lon": -77.0356385, "type": "electric_scooter", "fusion_lat": 0.0, "lat": 38.91808266666666, "name": "16d0aae9e864e1b6c5d921dc81a024d4", "fusion_lon": 0.0, "bike_id": "16d0aae9e864e1b6c5d921dc81a024d4", "is_disabled": 0, "is_reserved": 0}, {"rental_uris": {"ios": "https://dc.lft.to/lastmile_qr_scan", "android": "https://dc.lft.to/lastmile_qr_scan"}, "lon": -77.0294965, "type": "electric_scooter", "fusion_lat": 0.0, "lat": 38.916898333333336, "name": "9e91c3460aeb485da1c9e0cadd439793", "fusion_lon": 0.0, "bike_id": "9e91c3460aeb485da1c9e0cadd439793", "is_disabled": 0, "is_reserved": 0}, {"rental_uris": {"ios": "https://dc.lft.to/lastmile_qr_scan", "android": "https://dc.lft.to/lastmile_qr_scan"}, "lon": -77.00712283333333, "type": "electric_scooter", "fusion_lat": 0.0, "lat": 38.884873166666665, "name": "37170285387e46ae75beaa91e87192f5", "fusion_lon": 0.0, "bike_id": "37170285387e46ae75beaa91e87192f5", "is_disabled": 0, "is_reserved": 0}, {"rental_uris": {"ios": "https://dc.lft.to/lastmile_qr_scan", "android": "https://dc.lft.to/lastmile_qr_scan"}, "lon": -77.0293645, "type": "electric_scooter", "fusion_lat": 0.0, "lat": 38.9110875, "name": "5644a08b4e9dab6de833433beda4ec5e", "fusion_lon": 0.0, "bike_id": "5644a08b4e9dab6de833433beda4ec5e", "is_disabled": 0, "is_reserved": 0}, {"rental_uris": {"ios": "https://dc.lft.to/lastmile_qr_scan", "android": "https://dc.lft.to/lastmile_qr_scan"}, "lon": -77.0353165, "type": "electric_scooter", "fusion_lat": 0.0, "lat": 38.923388833333334, "name": "8f174767c759c789e13b32d6d3af7917", "fusion_lon": 0.0, "bike_id": "8f174767c759c789e13b32d6d3af7917", "is_disabled": 0, "is_reserved": 0}, {"rental_uris": {"ios": "https://dc.lft.to/lastmile_qr_scan", "android": "https://dc.lft.to/lastmile_qr_scan"}, "lon": -77.00333933333333, "type": "electric_scooter", "fusion_lat": 0.0, "lat": 38.893552666666665, "name": "3e35f6f639836d5e7856ca2b157ec832", "fusion_lon": 0.0, "bike_id": "3e35f6f639836d5e7856ca2b157ec832", "is_disabled": 0, "is_reserved": 0}, {"rental_uris": {"ios": "https://dc.lft.to/lastmile_qr_scan", "android": "https://dc.lft.to/lastmile_qr_scan"}, "lon": -76.985464, "type": "electric_scooter", "fusion_lat": 0.0, "lat": 38.89952433333333, "name": "22cafcdbf643093863af81563a0e7711", "fusion_lon": 0.0, "bike_id": "22cafcdbf643093863af81563a0e7711", "is_disabled": 0, "is_reserved": 0}, {"rental_uris": {"ios": "https://dc.lft.to/lastmile_qr_scan", "android": "https://dc.lft.to/lastmile_qr_scan"}, "lon": -76.988805, "type": "electric_scooter", "fusion_lat": 0.0, "lat": 38.86660716666667, "name": "7105e1378d61625e2511549909a65b52", "fusion_lon": 0.0, "bike_id": "7105e1378d61625e2511549909a65b52", "is_disabled": 0, "is_reserved": 0}, {"rental_uris": {"ios": "https://dc.lft.to/lastmile_qr_scan", "android": "https://dc.lft.to/lastmile_qr_scan"}, "lon": -77.02704533333333, "type": "electric_scooter", "fusion_lat": 0.0, "lat": 38.900619, "name": "63bd26255b35eb06ddf33df888224eec", "fusion_lon": 0.0, "bike_id": "63bd26255b35eb06ddf33df888224eec", "is_disabled": 0, "is_reserved": 0}, {"rental_uris": {"ios": "https://dc.lft.to/lastmile_qr_scan", "android": "https://dc.lft.to/lastmile_qr_scan"}, "lon": -77.0201525, "type": "electric_scooter", "fusion_lat": 0.0, "lat": 38.90156833333333, "name": "2ce10a49afd475f53b85ff2b72133397", "fusion_lon": 0.0, "bike_id": "2ce10a49afd475f53b85ff2b72133397", "is_disabled": 0, "is_reserved": 0}, {"rental_uris": {"ios": "https://dc.lft.to/lastmile_qr_scan", "android": "https://dc.lft.to/lastmile_qr_scan"}, "lon": -77.04327966666666, "type": "electric_scooter", "fusion_lat": 0.0, "lat": 38.908363333333334, "name": "3155a9716e1f2db0055efbb45aa78a62", "fusion_lon": 0.0, "bike_id": "3155a9716e1f2db0055efbb45aa78a62", "is_disabled": 0, "is_reserved": 0}, {"rental_uris": {"ios": "https://dc.lft.to/lastmile_qr_scan", "android": "https://dc.lft.to/lastmile_qr_scan"}, "lon": -77.02085916666667, "type": "electric_scooter", "fusion_lat": 0.0, "lat": 38.931127333333336, "name": "5d4a2dda6f463db2c56c4cf3c218ff81", "fusion_lon": 0.0, "bike_id": "5d4a2dda6f463db2c56c4cf3c218ff81", "is_disabled": 0, "is_reserved": 0}, {"rental_uris": {"ios": "https://dc.lft.to/lastmile_qr_scan", "android": "https://dc.lft.to/lastmile_qr_scan"}, "lon": -76.979409, "type": "electric_scooter", "fusion_lat": 0.0, "lat": 38.902333166666665, "name": "7506b872f537a18ef2bd838592e70924", "fusion_lon": 0.0, "bike_id": "7506b872f537a18ef2bd838592e70924", "is_disabled": 0, "is_reserved": 0}, {"rental_uris": {"ios": "https://dc.lft.to/lastmile_qr_scan", "android": "https://dc.lft.to/lastmile_qr_scan"}, "lon": -76.94719633333334, "type": "electric_scooter", "fusion_lat": 0.0, "lat": 38.8973485, "name": "122be028dd656b49a3cd645f89b99428", "fusion_lon": 0.0, "bike_id": "122be028dd656b49a3cd645f89b99428", "is_disabled": 0, "is_reserved": 0}, {"rental_uris": {"ios": "https://dc.lft.to/lastmile_qr_scan", "android": "https://dc.lft.to/lastmile_qr_scan"}, "lon": -77.0276095, "type": "electric_scooter", "fusion_lat": 0.0, "lat": 38.894734166666666, "name": "4114ce11d136a80a894d5709e8e2913d", "fusion_lon": 0.0, "bike_id": "4114ce11d136a80a894d5709e8e2913d", "is_disabled": 0, "is_reserved": 0}, {"rental_uris": {"ios": "https://dc.lft.to/lastmile_qr_scan", "android": "https://dc.lft.to/lastmile_qr_scan"}, "lon": -77.02221583333333, "type": "electric_scooter", "fusion_lat": 0.0, "lat": 38.89355883333333, "name": "1bc017e7dfd409c1472fb16ed0dbc49d", "fusion_lon": 0.0, "bike_id": "1bc017e7dfd409c1472fb16ed0dbc49d", "is_disabled": 0, "is_reserved": 0}, {"rental_uris": {"ios": "https://dc.lft.to/lastmile_qr_scan", "android": "https://dc.lft.to/lastmile_qr_scan"}, "lon": -77.0118105, "type": "electric_scooter", "fusion_lat": 0.0, "lat": 38.9154965, "name": "5245d277d8d7e8d2fd230bfbd12e59fe", "fusion_lon": 0.0, "bike_id": "5245d277d8d7e8d2fd230bfbd12e59fe", "is_disabled": 0, "is_reserved": 0}, {"rental_uris": {"ios": "https://dc.lft.to/lastmile_qr_scan", "android": "https://dc.lft.to/lastmile_qr_scan"}, "lon": -76.98712216666667, "type": "electric_scooter", "fusion_lat": 0.0, "lat": 38.862606, "name": "d03c3c1f99eae741aac672d3adb4ebde", "fusion_lon": 0.0, "bike_id": "d03c3c1f99eae741aac672d3adb4ebde", "is_disabled": 0, "is_reserved": 0}, {"rental_uris": {"ios": "https://dc.lft.to/lastmile_qr_scan", "android": "https://dc.lft.to/lastmile_qr_scan"}, "lon": -77.04606733333334, "type": "electric_scooter", "fusion_lat": 0.0, "lat": 38.9221545, "name": "e9bf0c86a1f96309983df787a3284903", "fusion_lon": 0.0, "bike_id": "e9bf0c86a1f96309983df787a3284903", "is_disabled": 0, "is_reserved": 0}, {"rental_uris": {"ios": "https://dc.lft.to/lastmile_qr_scan", "android": "https://dc.lft.to/lastmile_qr_scan"}, "lon": -77.05920366666666, "type": "electric_scooter", "fusion_lat": 0.0, "lat": 38.909545333333334, "name": "49557a27116ced57e50add3f8b059085", "fusion_lon": 0.0, "bike_id": "49557a27116ced57e50add3f8b059085", "is_disabled": 0, "is_reserved": 0}, {"rental_uris": {"ios": "https://dc.lft.to/lastmile_qr_scan", "android": "https://dc.lft.to/lastmile_qr_scan"}, "lon": -77.0584325, "type": "electric_scooter", "fusion_lat": 0.0, "lat": 38.93423633333333, "name": "0a4317b6441405ae2e5f74b56bdf600f", "fusion_lon": 0.0, "bike_id": "0a4317b6441405ae2e5f74b56bdf600f", "is_disabled": 0, "is_reserved": 0}, {"rental_uris": {"ios": "https://dc.lft.to/lastmile_qr_scan", "android": "https://dc.lft.to/lastmile_qr_scan"}, "lon": -77.03193883333333, "type": "electric_scooter", "fusion_lat": 0.0, "lat": 38.9210275, "name": "ddc2b2bec010e6610eebcb3c8603dac9", "fusion_lon": 0.0, "bike_id": "ddc2b2bec010e6610eebcb3c8603dac9", "is_disabled": 0, "is_reserved": 0}, {"rental_uris": {"ios": "https://dc.lft.to/lastmile_qr_scan", "android": "https://dc.lft.to/lastmile_qr_scan"}, "lon": -77.02167366666667, "type": "electric_scooter", "fusion_lat": 0.0, "lat": 38.89908116666667, "name": "d470c1b405dde7a9fd554b73c7509f20", "fusion_lon": 0.0, "bike_id": "d470c1b405dde7a9fd554b73c7509f20", "is_disabled": 0, "is_reserved": 0}, {"rental_uris": {"ios": "https://dc.lft.to/lastmile_qr_scan", "android": "https://dc.lft.to/lastmile_qr_scan"}, "lon": -76.937353, "type": "electric_scooter", "fusion_lat": 0.0, "lat": 38.8901555, "name": "bb1ba553b7e0b4c193c62e5aef231ce6", "fusion_lon": 0.0, "bike_id": "bb1ba553b7e0b4c193c62e5aef231ce6", "is_disabled": 0, "is_reserved": 0}, {"rental_uris": {"ios": "https://dc.lft.to/lastmile_qr_scan", "android": "https://dc.lft.to/lastmile_qr_scan"}, "lon": -77.02016566666667, "type": "electric_scooter", "fusion_lat": 0.0, "lat": 38.94977633333333, "name": "a44b80fe914b7ff0022fff66a389dba5", "fusion_lon": 0.0, "bike_id": "a44b80fe914b7ff0022fff66a389dba5", "is_disabled": 0, "is_reserved": 0}, {"rental_uris": {"ios": "https://dc.lft.to/lastmile_qr_scan", "android": "https://dc.lft.to/lastmile_qr_scan"}, "lon": -77.014176, "type": "electric_scooter", "fusion_lat": 0.0, "lat": 38.928093, "name": "06af89f17e75a437e7b69748599ad173", "fusion_lon": 0.0, "bike_id": "06af89f17e75a437e7b69748599ad173", "is_disabled": 0, "is_reserved": 0}, {"rental_uris": {"ios": "https://dc.lft.to/lastmile_qr_scan", "android": "https://dc.lft.to/lastmile_qr_scan"}, "lon": -77.03799866666667, "type": "electric_scooter", "fusion_lat": 0.0, "lat": 38.9299445, "name": "6d4f34d5ccdd8d5a080635d7ef90d39e", "fusion_lon": 0.0, "bike_id": "6d4f34d5ccdd8d5a080635d7ef90d39e", "is_disabled": 0, "is_reserved": 0}, {"rental_uris": {"ios": "https://dc.lft.to/lastmile_qr_scan", "android": "https://dc.lft.to/lastmile_qr_scan"}, "lon": -77.06919166666667, "type": "electric_bike", "fusion_lat": 0.0, "lat": 38.9097705, "name": "773ebfb223769d323c850a52b2825ff2", "fusion_lon": 0.0, "bike_id": "773ebfb223769d323c850a52b2825ff2", "is_disabled": 0, "is_reserved": 0}, {"rental_uris": {"ios": "https://dc.lft.to/lastmile_qr_scan", "android": "https://dc.lft.to/lastmile_qr_scan"}, "lon": -76.948434, "type": "electric_scooter", "fusion_lat": 0.0, "lat": 38.89484616666667, "name": "cca44b549ed07787def7102b3463b74d", "fusion_lon": 0.0, "bike_id": "cca44b549ed07787def7102b3463b74d", "is_disabled": 0, "is_reserved": 0}, {"rental_uris": {"ios": "https://dc.lft.to/lastmile_qr_scan", "android": "https://dc.lft.to/lastmile_qr_scan"}, "lon": -76.94853866666666, "type": "electric_scooter", "fusion_lat": 0.0, "lat": 38.883023666666666, "name": "74ff8243eccd0f2e95badda0ccf7a85d", "fusion_lon": 0.0, "bike_id": "74ff8243eccd0f2e95badda0ccf7a85d", "is_disabled": 0, "is_reserved": 0}, {"rental_uris": {"ios": "https://dc.lft.to/lastmile_qr_scan", "android": "https://dc.lft.to/lastmile_qr_scan"}, "lon": -77.015093, "type": "electric_scooter", "fusion_lat": 0.0, "lat": 38.907216, "name": "37f8ec783235468c8c8f3ebe006ff13a", "fusion_lon": 0.0, "bike_id": "37f8ec783235468c8c8f3ebe006ff13a", "is_disabled": 0, "is_reserved": 0}, {"rental_uris": {"ios": "https://dc.lft.to/lastmile_qr_scan", "android": "https://dc.lft.to/lastmile_qr_scan"}, "lon": -77.05312516666666, "type": "electric_scooter", "fusion_lat": 0.0, "lat": 38.902517333333336, "name": "e318d6c65c965e049776bcce3a3d87d1", "fusion_lon": 0.0, "bike_id": "e318d6c65c965e049776bcce3a3d87d1", "is_disabled": 0, "is_reserved": 0}, {"rental_uris": {"ios": "https://dc.lft.to/lastmile_qr_scan", "android": "https://dc.lft.to/lastmile_qr_scan"}, "lon": -77.01510733333333, "type": "electric_scooter", "fusion_lat": 0.0, "lat": 38.887325, "name": "e6add5f04aaf000840ce93db9ff4c2de", "fusion_lon": 0.0, "bike_id": "e6add5f04aaf000840ce93db9ff4c2de", "is_disabled": 0, "is_reserved": 0}, {"rental_uris": {"ios": "https://dc.lft.to/lastmile_qr_scan", "android": "https://dc.lft.to/lastmile_qr_scan"}, "lon": -77.0320275, "type": "electric_scooter", "fusion_lat": 0.0, "lat": 38.911570166666664, "name": "02348e3d4e1b68adc8389b36d5753fa1", "fusion_lon": 0.0, "bike_id": "02348e3d4e1b68adc8389b36d5753fa1", "is_disabled": 0, "is_reserved": 0}, {"rental_uris": {"ios": "https://dc.lft.to/lastmile_qr_scan", "android": "https://dc.lft.to/lastmile_qr_scan"}, "lon": -77.10717333333334, "type": "electric_bike", "fusion_lat": 0.0, "lat": 38.855448, "name": "95e015aaf4dc70613bf2f664a6b1322f", "fusion_lon": 0.0, "bike_id": "95e015aaf4dc70613bf2f664a6b1322f", "is_disabled": 0, "is_reserved": 0}, {"rental_uris": {"ios": "https://dc.lft.to/lastmile_qr_scan", "android": "https://dc.lft.to/lastmile_qr_scan"}, "lon": -76.9927065, "type": "electric_scooter", "fusion_lat": 0.0, "lat": 38.896904, "name": "8231863c8e646cbbfc64e22c97d702c5", "fusion_lon": 0.0, "bike_id": "8231863c8e646cbbfc64e22c97d702c5", "is_disabled": 0, "is_reserved": 0}, {"rental_uris": {"ios": "https://dc.lft.to/lastmile_qr_scan", "android": "https://dc.lft.to/lastmile_qr_scan"}, "lon": -77.03351983333333, "type": "electric_scooter", "fusion_lat": 0.0, "lat": 38.88505933333333, "name": "1f6f5cc707362469558d1c83575d44f1", "fusion_lon": 0.0, "bike_id": "1f6f5cc707362469558d1c83575d44f1", "is_disabled": 0, "is_reserved": 0}, {"rental_uris": {"ios": "https://dc.lft.to/lastmile_qr_scan", "android": "https://dc.lft.to/lastmile_qr_scan"}, "lon": -77.06531533333333, "type": "electric_scooter", "fusion_lat": 0.0, "lat": 38.911259666666666, "name": "fb0bc99739aa892c358fcc8589b8fb21", "fusion_lon": 0.0, "bike_id": "fb0bc99739aa892c358fcc8589b8fb21", "is_disabled": 0, "is_reserved": 0}, {"rental_uris": {"ios": "https://dc.lft.to/lastmile_qr_scan", "android": "https://dc.lft.to/lastmile_qr_scan"}, "lon": -77.02331433333333, "type": "electric_scooter", "fusion_lat": 0.0, "lat": 38.92888466666667, "name": "f596f90d0047d8c49a963512fc7c4b18", "fusion_lon": 0.0, "bike_id": "f596f90d0047d8c49a963512fc7c4b18", "is_disabled": 0, "is_reserved": 0}, {"rental_uris": {"ios": "https://dc.lft.to/lastmile_qr_scan", "android": "https://dc.lft.to/lastmile_qr_scan"}, "lon": -77.0317225, "type": "electric_scooter", "fusion_lat": 0.0, "lat": 38.91265666666666, "name": "20dadc7cb2138837c969144e3b232fdc", "fusion_lon": 0.0, "bike_id": "20dadc7cb2138837c969144e3b232fdc", "is_disabled": 0, "is_reserved": 0}, {"rental_uris": {"ios": "https://dc.lft.to/lastmile_qr_scan", "android": "https://dc.lft.to/lastmile_qr_scan"}, "lon": -76.9951635, "type": "electric_scooter", "fusion_lat": 0.0, "lat": 38.894849, "name": "c116c4c75ddf22402f1a516aa7f8f095", "fusion_lon": 0.0, "bike_id": "c116c4c75ddf22402f1a516aa7f8f095", "is_disabled": 0, "is_reserved": 0}, {"rental_uris": {"ios": "https://dc.lft.to/lastmile_qr_scan", "android": "https://dc.lft.to/lastmile_qr_scan"}, "lon": -77.04188766666667, "type": "electric_scooter", "fusion_lat": 0.0, "lat": 38.90554, "name": "9283ba4e32230f313cfb836097b086f5", "fusion_lon": 0.0, "bike_id": "9283ba4e32230f313cfb836097b086f5", "is_disabled": 0, "is_reserved": 0}, {"rental_uris": {"ios": "https://dc.lft.to/lastmile_qr_scan", "android": "https://dc.lft.to/lastmile_qr_scan"}, "lon": -77.03653416666667, "type": "electric_scooter", "fusion_lat": 0.0, "lat": 38.9080095, "name": "1b7b6fb58a85f1166a4b16c98b4d5a06", "fusion_lon": 0.0, "bike_id": "1b7b6fb58a85f1166a4b16c98b4d5a06", "is_disabled": 0, "is_reserved": 0}, {"rental_uris": {"ios": "https://dc.lft.to/lastmile_qr_scan", "android": "https://dc.lft.to/lastmile_qr_scan"}, "lon": -77.02831816666666, "type": "electric_scooter", "fusion_lat": 0.0, "lat": 38.9248005, "name": "6e09b9dd719c527c417bf2027d5b226d", "fusion_lon": 0.0, "bike_id": "6e09b9dd719c527c417bf2027d5b226d", "is_disabled": 0, "is_reserved": 0}, {"rental_uris": {"ios": "https://dc.lft.to/lastmile_qr_scan", "android": "https://dc.lft.to/lastmile_qr_scan"}, "lon": -77.02102966666666, "type": "electric_scooter", "fusion_lat": 0.0, "lat": 38.8996545, "name": "ebb3a8a6bfaf494eab915010172f95ff", "fusion_lon": 0.0, "bike_id": "ebb3a8a6bfaf494eab915010172f95ff", "is_disabled": 0, "is_reserved": 0}, {"rental_uris": {"ios": "https://dc.lft.to/lastmile_qr_scan", "android": "https://dc.lft.to/lastmile_qr_scan"}, "lon": -77.04814966666666, "type": "electric_scooter", "fusion_lat": 0.0, "lat": 38.91329133333333, "name": "073c9cbf6a5150f1b6bf7d60b87aa498", "fusion_lon": 0.0, "bike_id": "073c9cbf6a5150f1b6bf7d60b87aa498", "is_disabled": 0, "is_reserved": 0}, {"rental_uris": {"ios": "https://dc.lft.to/lastmile_qr_scan", "android": "https://dc.lft.to/lastmile_qr_scan"}, "lon": -77.01325216666666, "type": "electric_scooter", "fusion_lat": 0.0, "lat": 38.89242466666666, "name": "dd652c084212d05dfc72eb0ddd9741b4", "fusion_lon": 0.0, "bike_id": "dd652c084212d05dfc72eb0ddd9741b4", "is_disabled": 0, "is_reserved": 0}, {"rental_uris": {"ios": "https://dc.lft.to/lastmile_qr_scan", "android": "https://dc.lft.to/lastmile_qr_scan"}, "lon": -77.09561733333334, "type": "electric_bike", "fusion_lat": 0.0, "lat": 38.91701833333333, "name": "8d476911a42541c68594d7de3dba504b", "fusion_lon": 0.0, "bike_id": "8d476911a42541c68594d7de3dba504b", "is_disabled": 0, "is_reserved": 0}, {"rental_uris": {"ios": "https://dc.lft.to/lastmile_qr_scan", "android": "https://dc.lft.to/lastmile_qr_scan"}, "lon": -76.90815183333333, "type": "electric_bike", "fusion_lat": 0.0, "lat": 38.9945555, "name": "3adac44c6da2aa9659a283e18efed293", "fusion_lon": 0.0, "bike_id": "3adac44c6da2aa9659a283e18efed293", "is_disabled": 0, "is_reserved": 0}, {"rental_uris": {"ios": "https://dc.lft.to/lastmile_qr_scan", "android": "https://dc.lft.to/lastmile_qr_scan"}, "lon": -77.02531366666666, "type": "electric_scooter", "fusion_lat": 0.0, "lat": 38.9181805, "name": "44408b3d6c0759df1e3e016645dc944e", "fusion_lon": 0.0, "bike_id": "44408b3d6c0759df1e3e016645dc944e", "is_disabled": 0, "is_reserved": 0}, {"rental_uris": {"ios": "https://dc.lft.to/lastmile_qr_scan", "android": "https://dc.lft.to/lastmile_qr_scan"}, "lon": -76.9843125, "type": "electric_scooter", "fusion_lat": 0.0, "lat": 38.914266166666664, "name": "4a56c5af0eaa41edc818a538e0782f2f", "fusion_lon": 0.0, "bike_id": "4a56c5af0eaa41edc818a538e0782f2f", "is_disabled": 0, "is_reserved": 0}, {"rental_uris": {"ios": "https://dc.lft.to/lastmile_qr_scan", "android": "https://dc.lft.to/lastmile_qr_scan"}, "lon": -77.00052116666667, "type": "electric_bike", "fusion_lat": 0.0, "lat": 38.87445833333334, "name": "9eb760d01c2b72dbbfa6327bd17b96de", "fusion_lon": 0.0, "bike_id": "9eb760d01c2b72dbbfa6327bd17b96de", "is_disabled": 0, "is_reserved": 0}, {"rental_uris": {"ios": "https://dc.lft.to/lastmile_qr_scan", "android": "https://dc.lft.to/lastmile_qr_scan"}, "lon": -77.06527983333334, "type": "electric_scooter", "fusion_lat": 0.0, "lat": 38.934657333333334, "name": "f00fd2cfe427af92ab4e89f14e39dc40", "fusion_lon": 0.0, "bike_id": "f00fd2cfe427af92ab4e89f14e39dc40", "is_disabled": 0, "is_reserved": 0}, {"rental_uris": {"ios": "https://dc.lft.to/lastmile_qr_scan", "android": "https://dc.lft.to/lastmile_qr_scan"}, "lon": -77.0269615, "type": "electric_scooter", "fusion_lat": 0.0, "lat": 38.90364666666667, "name": "2c0b3ea9325ddb9c8b08d9c542f5a29b", "fusion_lon": 0.0, "bike_id": "2c0b3ea9325ddb9c8b08d9c542f5a29b", "is_disabled": 0, "is_reserved": 0}, {"rental_uris": {"ios": "https://dc.lft.to/lastmile_qr_scan", "android": "https://dc.lft.to/lastmile_qr_scan"}, "lon": -77.03189116666667, "type": "electric_scooter", "fusion_lat": 0.0, "lat": 38.900288333333336, "name": "0afdee4229bdfb3e5a506a4a19aa1380", "fusion_lon": 0.0, "bike_id": "0afdee4229bdfb3e5a506a4a19aa1380", "is_disabled": 0, "is_reserved": 0}, {"rental_uris": {"ios": "https://dc.lft.to/lastmile_qr_scan", "android": "https://dc.lft.to/lastmile_qr_scan"}, "lon": -77.03854066666666, "type": "electric_scooter", "fusion_lat": 0.0, "lat": 38.926428, "name": "43d9fbf4e65461c591e56073c6008d88", "fusion_lon": 0.0, "bike_id": "43d9fbf4e65461c591e56073c6008d88", "is_disabled": 0, "is_reserved": 0}, {"rental_uris": {"ios": "https://dc.lft.to/lastmile_qr_scan", "android": "https://dc.lft.to/lastmile_qr_scan"}, "lon": -77.02949433333333, "type": "electric_scooter", "fusion_lat": 0.0, "lat": 38.904065333333335, "name": "8fc259a1f82fffdb3280f6acc7a10ed0", "fusion_lon": 0.0, "bike_id": "8fc259a1f82fffdb3280f6acc7a10ed0", "is_disabled": 0, "is_reserved": 0}, {"rental_uris": {"ios": "https://dc.lft.to/lastmile_qr_scan", "android": "https://dc.lft.to/lastmile_qr_scan"}, "lon": -77.0551285, "type": "electric_scooter", "fusion_lat": 0.0, "lat": 38.900031166666665, "name": "ae3ba41246ee85fff3463ce0e87066b6", "fusion_lon": 0.0, "bike_id": "ae3ba41246ee85fff3463ce0e87066b6", "is_disabled": 0, "is_reserved": 0}, {"rental_uris": {"ios": "https://dc.lft.to/lastmile_qr_scan", "android": "https://dc.lft.to/lastmile_qr_scan"}, "lon": -77.0454085, "type": "electric_scooter", "fusion_lat": 0.0, "lat": 38.8948055, "name": "0339235db10b2b7d0e8896ad338e54af", "fusion_lon": 0.0, "bike_id": "0339235db10b2b7d0e8896ad338e54af", "is_disabled": 0, "is_reserved": 0}, {"rental_uris": {"ios": "https://dc.lft.to/lastmile_qr_scan", "android": "https://dc.lft.to/lastmile_qr_scan"}, "lon": -77.031835, "type": "electric_scooter", "fusion_lat": 0.0, "lat": 38.898288, "name": "168f9afb1206dc1982b626303e5a9b2c", "fusion_lon": 0.0, "bike_id": "168f9afb1206dc1982b626303e5a9b2c", "is_disabled": 0, "is_reserved": 0}, {"rental_uris": {"ios": "https://dc.lft.to/lastmile_qr_scan", "android": "https://dc.lft.to/lastmile_qr_scan"}, "lon": -76.98343316666667, "type": "electric_scooter", "fusion_lat": 0.0, "lat": 38.915337666666666, "name": "f698e5b0dfbb3c4a16697bc917b717d0", "fusion_lon": 0.0, "bike_id": "f698e5b0dfbb3c4a16697bc917b717d0", "is_disabled": 0, "is_reserved": 0}, {"rental_uris": {"ios": "https://dc.lft.to/lastmile_qr_scan", "android": "https://dc.lft.to/lastmile_qr_scan"}, "lon": -77.0269895, "type": "electric_scooter", "fusion_lat": 0.0, "lat": 38.90947383333334, "name": "3160d35f2c2200bc4afacacd8006686b", "fusion_lon": 0.0, "bike_id": "3160d35f2c2200bc4afacacd8006686b", "is_disabled": 0, "is_reserved": 0}, {"rental_uris": {"ios": "https://dc.lft.to/lastmile_qr_scan", "android": "https://dc.lft.to/lastmile_qr_scan"}, "lon": -77.026829, "type": "electric_scooter", "fusion_lat": 0.0, "lat": 38.906614833333336, "name": "fbf9edf027ebd8401db5d731d7075e08", "fusion_lon": 0.0, "bike_id": "fbf9edf027ebd8401db5d731d7075e08", "is_disabled": 0, "is_reserved": 0}, {"rental_uris": {"ios": "https://dc.lft.to/lastmile_qr_scan", "android": "https://dc.lft.to/lastmile_qr_scan"}, "lon": -77.02644, "type": "electric_scooter", "fusion_lat": 0.0, "lat": 38.88116933333333, "name": "3dd57c00516a4e9cf00a2cd10d55f31b", "fusion_lon": 0.0, "bike_id": "3dd57c00516a4e9cf00a2cd10d55f31b", "is_disabled": 0, "is_reserved": 0}, {"rental_uris": {"ios": "https://dc.lft.to/lastmile_qr_scan", "android": "https://dc.lft.to/lastmile_qr_scan"}, "lon": -77.00676466666667, "type": "electric_scooter", "fusion_lat": 0.0, "lat": 38.87634333333333, "name": "7e1aecf0f12f7b3939c657f43d7ff28b", "fusion_lon": 0.0, "bike_id": "7e1aecf0f12f7b3939c657f43d7ff28b", "is_disabled": 0, "is_reserved": 0}, {"rental_uris": {"ios": "https://dc.lft.to/lastmile_qr_scan", "android": "https://dc.lft.to/lastmile_qr_scan"}, "lon": -77.07306483333333, "type": "electric_scooter", "fusion_lat": 0.0, "lat": 38.9361255, "name": "6dcc4c3ad1e194b98f39fd154610abcd", "fusion_lon": 0.0, "bike_id": "6dcc4c3ad1e194b98f39fd154610abcd", "is_disabled": 0, "is_reserved": 0}, {"rental_uris": {"ios": "https://dc.lft.to/lastmile_qr_scan", "android": "https://dc.lft.to/lastmile_qr_scan"}, "lon": -77.03299483333333, "type": "electric_scooter", "fusion_lat": 0.0, "lat": 38.909042, "name": "1b141db27a836c3bdde261b1d0f8022a", "fusion_lon": 0.0, "bike_id": "1b141db27a836c3bdde261b1d0f8022a", "is_disabled": 0, "is_reserved": 0}, {"rental_uris": {"ios": "https://dc.lft.to/lastmile_qr_scan", "android": "https://dc.lft.to/lastmile_qr_scan"}, "lon": -76.99061566666667, "type": "electric_scooter", "fusion_lat": 0.0, "lat": 38.86355616666667, "name": "5b050d468feaff01d228f0d2e6953dcc", "fusion_lon": 0.0, "bike_id": "5b050d468feaff01d228f0d2e6953dcc", "is_disabled": 0, "is_reserved": 0}, {"rental_uris": {"ios": "https://dc.lft.to/lastmile_qr_scan", "android": "https://dc.lft.to/lastmile_qr_scan"}, "lon": -77.03639883333334, "type": "electric_scooter", "fusion_lat": 0.0, "lat": 38.912920666666665, "name": "6b98f60ab81784b80a5f06d0c734529a", "fusion_lon": 0.0, "bike_id": "6b98f60ab81784b80a5f06d0c734529a", "is_disabled": 0, "is_reserved": 0}, {"rental_uris": {"ios": "https://dc.lft.to/lastmile_qr_scan", "android": "https://dc.lft.to/lastmile_qr_scan"}, "lon": -77.0238065, "type": "electric_scooter", "fusion_lat": 0.0, "lat": 38.95243466666667, "name": "d0e49c346207fe8378786fe0520be763", "fusion_lon": 0.0, "bike_id": "d0e49c346207fe8378786fe0520be763", "is_disabled": 0, "is_reserved": 0}, {"rental_uris": {"ios": "https://dc.lft.to/lastmile_qr_scan", "android": "https://dc.lft.to/lastmile_qr_scan"}, "lon": -77.00203133333333, "type": "electric_scooter", "fusion_lat": 0.0, "lat": 38.900589833333335, "name": "a4f831a4a7be66d612d2dea5c1a5951a", "fusion_lon": 0.0, "bike_id": "a4f831a4a7be66d612d2dea5c1a5951a", "is_disabled": 0, "is_reserved": 0}, {"rental_uris": {"ios": "https://dc.lft.to/lastmile_qr_scan", "android": "https://dc.lft.to/lastmile_qr_scan"}, "lon": -76.99760533333334, "type": "electric_scooter", "fusion_lat": 0.0, "lat": 38.900338, "name": "890b2b1e65a14d14a0514f48bf90d1ee", "fusion_lon": 0.0, "bike_id": "890b2b1e65a14d14a0514f48bf90d1ee", "is_disabled": 0, "is_reserved": 0}, {"rental_uris": {"ios": "https://dc.lft.to/lastmile_qr_scan", "android": "https://dc.lft.to/lastmile_qr_scan"}, "lon": -77.03077233333333, "type": "electric_scooter", "fusion_lat": 0.0, "lat": 38.90567333333333, "name": "09e26b782a1c879aa6c595c1ac8a277d", "fusion_lon": 0.0, "bike_id": "09e26b782a1c879aa6c595c1ac8a277d", "is_disabled": 0, "is_reserved": 0}, {"rental_uris": {"ios": "https://dc.lft.to/lastmile_qr_scan", "android": "https://dc.lft.to/lastmile_qr_scan"}, "lon": -77.03189633333334, "type": "electric_scooter", "fusion_lat": 0.0, "lat": 38.919198, "name": "9dfacb7f50c7cdfd313f630761e628a3", "fusion_lon": 0.0, "bike_id": "9dfacb7f50c7cdfd313f630761e628a3", "is_disabled": 0, "is_reserved": 0}, {"rental_uris": {"ios": "https://dc.lft.to/lastmile_qr_scan", "android": "https://dc.lft.to/lastmile_qr_scan"}, "lon": -77.0277715, "type": "electric_scooter", "fusion_lat": 0.0, "lat": 38.9267525, "name": "07a26303018d9e6bfec1e63404d3c8cd", "fusion_lon": 0.0, "bike_id": "07a26303018d9e6bfec1e63404d3c8cd", "is_disabled": 0, "is_reserved": 0}, {"rental_uris": {"ios": "https://dc.lft.to/lastmile_qr_scan", "android": "https://dc.lft.to/lastmile_qr_scan"}, "lon": -76.94759183333333, "type": "electric_scooter", "fusion_lat": 0.0, "lat": 38.900541833333335, "name": "86e29e85c2f16dbff27ef0d0de8651c5", "fusion_lon": 0.0, "bike_id": "86e29e85c2f16dbff27ef0d0de8651c5", "is_disabled": 0, "is_reserved": 0}, {"rental_uris": {"ios": "https://dc.lft.to/lastmile_qr_scan", "android": "https://dc.lft.to/lastmile_qr_scan"}, "lon": -77.04669233333334, "type": "electric_scooter", "fusion_lat": 0.0, "lat": 38.89726066666667, "name": "0980ed3da9b3fbeb6f4866a9afbe5751", "fusion_lon": 0.0, "bike_id": "0980ed3da9b3fbeb6f4866a9afbe5751", "is_disabled": 0, "is_reserved": 0}, {"rental_uris": {"ios": "https://dc.lft.to/lastmile_qr_scan", "android": "https://dc.lft.to/lastmile_qr_scan"}, "lon": -77.021337, "type": "electric_scooter", "fusion_lat": 0.0, "lat": 38.93762133333333, "name": "a006b723e1af1c6090369d8616119cdb", "fusion_lon": 0.0, "bike_id": "a006b723e1af1c6090369d8616119cdb", "is_disabled": 0, "is_reserved": 0}, {"rental_uris": {"ios": "https://dc.lft.to/lastmile_qr_scan", "android": "https://dc.lft.to/lastmile_qr_scan"}, "lon": -77.03302, "type": "electric_scooter", "fusion_lat": 0.0, "lat": 38.9264055, "name": "6700f9fe93538f16747e448b1d6d0844", "fusion_lon": 0.0, "bike_id": "6700f9fe93538f16747e448b1d6d0844", "is_disabled": 0, "is_reserved": 0}, {"rental_uris": {"ios": "https://dc.lft.to/lastmile_qr_scan", "android": "https://dc.lft.to/lastmile_qr_scan"}, "lon": -76.99995616666666, "type": "electric_scooter", "fusion_lat": 0.0, "lat": 38.876506666666664, "name": "50832fda1f025813542872d8d49b001e", "fusion_lon": 0.0, "bike_id": "50832fda1f025813542872d8d49b001e", "is_disabled": 0, "is_reserved": 0}, {"rental_uris": {"ios": "https://dc.lft.to/lastmile_qr_scan", "android": "https://dc.lft.to/lastmile_qr_scan"}, "lon": -76.980017, "type": "electric_bike", "fusion_lat": 0.0, "lat": 38.902297, "name": "448809eb589dc08eceed9161ba946eed", "fusion_lon": 0.0, "bike_id": "448809eb589dc08eceed9161ba946eed", "is_disabled": 0, "is_reserved": 0}, {"rental_uris": {"ios": "https://dc.lft.to/lastmile_qr_scan", "android": "https://dc.lft.to/lastmile_qr_scan"}, "lon": -76.97675316666667, "type": "electric_scooter", "fusion_lat": 0.0, "lat": 38.898803, "name": "294fa3eafbab436e7eb079c3506844a9", "fusion_lon": 0.0, "bike_id": "294fa3eafbab436e7eb079c3506844a9", "is_disabled": 0, "is_reserved": 0}, {"rental_uris": {"ios": "https://dc.lft.to/lastmile_qr_scan", "android": "https://dc.lft.to/lastmile_qr_scan"}, "lon": -76.9902035, "type": "electric_scooter", "fusion_lat": 0.0, "lat": 38.86103266666667, "name": "2a151223f7f2b5f7cd187a262ec129a9", "fusion_lon": 0.0, "bike_id": "2a151223f7f2b5f7cd187a262ec129a9", "is_disabled": 0, "is_reserved": 0}, {"rental_uris": {"ios": "https://dc.lft.to/lastmile_qr_scan", "android": "https://dc.lft.to/lastmile_qr_scan"}, "lon": -77.026264, "type": "electric_bike", "fusion_lat": 0.0, "lat": 38.962203833333334, "name": "66e84094f10a5e24d564a03ea6e6a22e", "fusion_lon": 0.0, "bike_id": "66e84094f10a5e24d564a03ea6e6a22e", "is_disabled": 0, "is_reserved": 0}, {"rental_uris": {"ios": "https://dc.lft.to/lastmile_qr_scan", "android": "https://dc.lft.to/lastmile_qr_scan"}, "lon": -77.04104483333333, "type": "electric_scooter", "fusion_lat": 0.0, "lat": 38.918525, "name": "f0a8b68bc782a889b43e6e00787c896f", "fusion_lon": 0.0, "bike_id": "f0a8b68bc782a889b43e6e00787c896f", "is_disabled": 0, "is_reserved": 0}, {"rental_uris": {"ios": "https://dc.lft.to/lastmile_qr_scan", "android": "https://dc.lft.to/lastmile_qr_scan"}, "lon": -77.04421433333333, "type": "electric_scooter", "fusion_lat": 0.0, "lat": 38.8921945, "name": "6819daeba9c9624d3efa4d37906c9447", "fusion_lon": 0.0, "bike_id": "6819daeba9c9624d3efa4d37906c9447", "is_disabled": 0, "is_reserved": 0}, {"rental_uris": {"ios": "https://dc.lft.to/lastmile_qr_scan", "android": "https://dc.lft.to/lastmile_qr_scan"}, "lon": -77.03825783333333, "type": "electric_scooter", "fusion_lat": 0.0, "lat": 38.91105683333333, "name": "7658992c706ab5cfe1a5be9d58d0bd16", "fusion_lon": 0.0, "bike_id": "7658992c706ab5cfe1a5be9d58d0bd16", "is_disabled": 0, "is_reserved": 0}, {"rental_uris": {"ios": "https://dc.lft.to/lastmile_qr_scan", "android": "https://dc.lft.to/lastmile_qr_scan"}, "lon": -77.00726516666667, "type": "electric_scooter", "fusion_lat": 0.0, "lat": 38.88493533333333, "name": "392ef0ecbc1c6449066f42d8ee10081b", "fusion_lon": 0.0, "bike_id": "392ef0ecbc1c6449066f42d8ee10081b", "is_disabled": 0, "is_reserved": 0}, {"rental_uris": {"ios": "https://dc.lft.to/lastmile_qr_scan", "android": "https://dc.lft.to/lastmile_qr_scan"}, "lon": -77.00206983333334, "type": "electric_scooter", "fusion_lat": 0.0, "lat": 38.9001795, "name": "ee8d5c2c4ce8a873eb7ee162c6edce86", "fusion_lon": 0.0, "bike_id": "ee8d5c2c4ce8a873eb7ee162c6edce86", "is_disabled": 0, "is_reserved": 0}, {"rental_uris": {"ios": "https://dc.lft.to/lastmile_qr_scan", "android": "https://dc.lft.to/lastmile_qr_scan"}, "lon": -77.0346165, "type": "electric_scooter", "fusion_lat": 0.0, "lat": 38.934472666666665, "name": "99c34350f9755540830139dec1b9ed51", "fusion_lon": 0.0, "bike_id": "99c34350f9755540830139dec1b9ed51", "is_disabled": 0, "is_reserved": 0}, {"rental_uris": {"ios": "https://dc.lft.to/lastmile_qr_scan", "android": "https://dc.lft.to/lastmile_qr_scan"}, "lon": -77.0478355, "type": "electric_scooter", "fusion_lat": 0.0, "lat": 38.89224383333333, "name": "5f176ddd3271f675837052c30c70e72f", "fusion_lon": 0.0, "bike_id": "5f176ddd3271f675837052c30c70e72f", "is_disabled": 0, "is_reserved": 0}, {"rental_uris": {"ios": "https://dc.lft.to/lastmile_qr_scan", "android": "https://dc.lft.to/lastmile_qr_scan"}, "lon": -77.02095233333333, "type": "electric_scooter", "fusion_lat": 0.0, "lat": 38.93111283333333, "name": "056bab5a0a2dea3db164a7d2fcdc6947", "fusion_lon": 0.0, "bike_id": "056bab5a0a2dea3db164a7d2fcdc6947", "is_disabled": 0, "is_reserved": 0}, {"rental_uris": {"ios": "https://dc.lft.to/lastmile_qr_scan", "android": "https://dc.lft.to/lastmile_qr_scan"}, "lon": -77.03344816666667, "type": "electric_scooter", "fusion_lat": 0.0, "lat": 38.8851215, "name": "73ee5f7145de8027b5a55babb6e0f386", "fusion_lon": 0.0, "bike_id": "73ee5f7145de8027b5a55babb6e0f386", "is_disabled": 0, "is_reserved": 0}, {"rental_uris": {"ios": "https://dc.lft.to/lastmile_qr_scan", "android": "https://dc.lft.to/lastmile_qr_scan"}, "lon": -77.1784245, "type": "electric_bike", "fusion_lat": 0.0, "lat": 39.088961833333336, "name": "3a126147bf9e2f898cd362a59d6f18a3", "fusion_lon": 0.0, "bike_id": "3a126147bf9e2f898cd362a59d6f18a3", "is_disabled": 0, "is_reserved": 0}, {"rental_uris": {"ios": "https://dc.lft.to/lastmile_qr_scan", "android": "https://dc.lft.to/lastmile_qr_scan"}, "lon": -77.0065805, "type": "electric_scooter", "fusion_lat": 0.0, "lat": 38.874648666666666, "name": "a67f79f954006fb5bfc7a145f736dad5", "fusion_lon": 0.0, "bike_id": "a67f79f954006fb5bfc7a145f736dad5", "is_disabled": 0, "is_reserved": 0}, {"rental_uris": {"ios": "https://dc.lft.to/lastmile_qr_scan", "android": "https://dc.lft.to/lastmile_qr_scan"}, "lon": -77.02978316666666, "type": "electric_scooter", "fusion_lat": 0.0, "lat": 38.96226816666667, "name": "e144b18edf8010e2b76a9d0052632629", "fusion_lon": 0.0, "bike_id": "e144b18edf8010e2b76a9d0052632629", "is_disabled": 0, "is_reserved": 0}, {"rental_uris": {"ios": "https://dc.lft.to/lastmile_qr_scan", "android": "https://dc.lft.to/lastmile_qr_scan"}, "lon": -77.08541783333334, "type": "electric_bike", "fusion_lat": 0.0, "lat": 38.8561985, "name": "d97a2601541d73c82b098a31b7a72249", "fusion_lon": 0.0, "bike_id": "d97a2601541d73c82b098a31b7a72249", "is_disabled": 0, "is_reserved": 0}, {"rental_uris": {"ios": "https://dc.lft.to/lastmile_qr_scan", "android": "https://dc.lft.to/lastmile_qr_scan"}, "lon": -77.04307083333333, "type": "electric_scooter", "fusion_lat": 0.0, "lat": 38.9225375, "name": "54e6bb7a62b1d34557889cb31daa16c6", "fusion_lon": 0.0, "bike_id": "54e6bb7a62b1d34557889cb31daa16c6", "is_disabled": 0, "is_reserved": 0}, {"rental_uris": {"ios": "https://dc.lft.to/lastmile_qr_scan", "android": "https://dc.lft.to/lastmile_qr_scan"}, "lon": -77.05245683333334, "type": "electric_scooter", "fusion_lat": 0.0, "lat": 38.923729333333334, "name": "dd54a594c91d6e2730f240f40e09f2c9", "fusion_lon": 0.0, "bike_id": "dd54a594c91d6e2730f240f40e09f2c9", "is_disabled": 0, "is_reserved": 0}, {"rental_uris": {"ios": "https://dc.lft.to/lastmile_qr_scan", "android": "https://dc.lft.to/lastmile_qr_scan"}, "lon": -76.98632766666667, "type": "electric_scooter", "fusion_lat": 0.0, "lat": 38.8681605, "name": "d2621a4d74a3c53b4e992c7f92961664", "fusion_lon": 0.0, "bike_id": "d2621a4d74a3c53b4e992c7f92961664", "is_disabled": 0, "is_reserved": 0}, {"rental_uris": {"ios": "https://dc.lft.to/lastmile_qr_scan", "android": "https://dc.lft.to/lastmile_qr_scan"}, "lon": -77.01150266666667, "type": "electric_scooter", "fusion_lat": 0.0, "lat": 38.897102, "name": "1733577c5de26501da81c7bc8d9485a3", "fusion_lon": 0.0, "bike_id": "1733577c5de26501da81c7bc8d9485a3", "is_disabled": 0, "is_reserved": 0}, {"rental_uris": {"ios": "https://dc.lft.to/lastmile_qr_scan", "android": "https://dc.lft.to/lastmile_qr_scan"}, "lon": -77.03644233333333, "type": "electric_scooter", "fusion_lat": 0.0, "lat": 38.913070166666664, "name": "d455f451f57235613031f764da3e480d", "fusion_lon": 0.0, "bike_id": "d455f451f57235613031f764da3e480d", "is_disabled": 0, "is_reserved": 0}, {"rental_uris": {"ios": "https://dc.lft.to/lastmile_qr_scan", "android": "https://dc.lft.to/lastmile_qr_scan"}, "lon": -77.04493166666667, "type": "electric_scooter", "fusion_lat": 0.0, "lat": 38.90679633333333, "name": "ec63877628f0c9b882e817cbd8a270b6", "fusion_lon": 0.0, "bike_id": "ec63877628f0c9b882e817cbd8a270b6", "is_disabled": 0, "is_reserved": 0}, {"rental_uris": {"ios": "https://dc.lft.to/lastmile_qr_scan", "android": "https://dc.lft.to/lastmile_qr_scan"}, "lon": -77.03615933333333, "type": "electric_scooter", "fusion_lat": 0.0, "lat": 38.92915883333333, "name": "48e734e08521b46e3e5bbc8a6af5cb75", "fusion_lon": 0.0, "bike_id": "48e734e08521b46e3e5bbc8a6af5cb75", "is_disabled": 0, "is_reserved": 0}, {"rental_uris": {"ios": "https://dc.lft.to/lastmile_qr_scan", "android": "https://dc.lft.to/lastmile_qr_scan"}, "lon": -77.135962, "type": "electric_bike", "fusion_lat": 0.0, "lat": 39.0534795, "name": "d61be50022a35a5c117b00173077ab7b", "fusion_lon": 0.0, "bike_id": "d61be50022a35a5c117b00173077ab7b", "is_disabled": 0, "is_reserved": 0}, {"rental_uris": {"ios": "https://dc.lft.to/lastmile_qr_scan", "android": "https://dc.lft.to/lastmile_qr_scan"}, "lon": -77.01256633333334, "type": "electric_scooter", "fusion_lat": 0.0, "lat": 38.899671166666664, "name": "28023a5c06d51f1ccce057c3a3280138", "fusion_lon": 0.0, "bike_id": "28023a5c06d51f1ccce057c3a3280138", "is_disabled": 0, "is_reserved": 0}, {"rental_uris": {"ios": "https://dc.lft.to/lastmile_qr_scan", "android": "https://dc.lft.to/lastmile_qr_scan"}, "lon": -77.01439833333333, "type": "electric_scooter", "fusion_lat": 0.0, "lat": 38.877674666666664, "name": "110f17db976675761d1d88f97467b174", "fusion_lon": 0.0, "bike_id": "110f17db976675761d1d88f97467b174", "is_disabled": 0, "is_reserved": 0}, {"rental_uris": {"ios": "https://dc.lft.to/lastmile_qr_scan", "android": "https://dc.lft.to/lastmile_qr_scan"}, "lon": -77.00338033333334, "type": "electric_bike", "fusion_lat": 0.0, "lat": 38.87651983333333, "name": "35d550c7bae1489e95d76a175c207837", "fusion_lon": 0.0, "bike_id": "35d550c7bae1489e95d76a175c207837", "is_disabled": 0, "is_reserved": 0}, {"rental_uris": {"ios": "https://dc.lft.to/lastmile_qr_scan", "android": "https://dc.lft.to/lastmile_qr_scan"}, "lon": -77.0111545, "type": "electric_scooter", "fusion_lat": 0.0, "lat": 38.870879, "name": "dcf46cbbe61866ae303b8d1d848c01f7", "fusion_lon": 0.0, "bike_id": "dcf46cbbe61866ae303b8d1d848c01f7", "is_disabled": 0, "is_reserved": 0}, {"rental_uris": {"ios": "https://dc.lft.to/lastmile_qr_scan", "android": "https://dc.lft.to/lastmile_qr_scan"}, "lon": -76.928467, "type": "electric_scooter", "fusion_lat": 0.0, "lat": 38.883585333333336, "name": "a320fdb9bf5e4dc02aaa563de6912dc8", "fusion_lon": 0.0, "bike_id": "a320fdb9bf5e4dc02aaa563de6912dc8", "is_disabled": 0, "is_reserved": 0}, {"rental_uris": {"ios": "https://dc.lft.to/lastmile_qr_scan", "android": "https://dc.lft.to/lastmile_qr_scan"}, "lon": -77.03153766666667, "type": "electric_scooter", "fusion_lat": 0.0, "lat": 38.893593833333334, "name": "f28de7f26d8c1ce4651eb710f62bfd22", "fusion_lon": 0.0, "bike_id": "f28de7f26d8c1ce4651eb710f62bfd22", "is_disabled": 0, "is_reserved": 0}, {"rental_uris": {"ios": "https://dc.lft.to/lastmile_qr_scan", "android": "https://dc.lft.to/lastmile_qr_scan"}, "lon": -76.99458183333333, "type": "electric_scooter", "fusion_lat": 0.0, "lat": 38.85163816666667, "name": "d42b2300b195ed4af522618fe2d2a5ff", "fusion_lon": 0.0, "bike_id": "d42b2300b195ed4af522618fe2d2a5ff", "is_disabled": 0, "is_reserved": 0}, {"rental_uris": {"ios": "https://dc.lft.to/lastmile_qr_scan", "android": "https://dc.lft.to/lastmile_qr_scan"}, "lon": -77.03927066666667, "type": "electric_scooter", "fusion_lat": 0.0, "lat": 38.902764833333336, "name": "36c6cba99892d8bac449e87374540948", "fusion_lon": 0.0, "bike_id": "36c6cba99892d8bac449e87374540948", "is_disabled": 0, "is_reserved": 0}, {"rental_uris": {"ios": "https://dc.lft.to/lastmile_qr_scan", "android": "https://dc.lft.to/lastmile_qr_scan"}, "lon": -77.0390255, "type": "electric_scooter", "fusion_lat": 0.0, "lat": 38.922483666666665, "name": "36b35147a4dab131c91ab2a5bd5f8b09", "fusion_lon": 0.0, "bike_id": "36b35147a4dab131c91ab2a5bd5f8b09", "is_disabled": 0, "is_reserved": 0}, {"rental_uris": {"ios": "https://dc.lft.to/lastmile_qr_scan", "android": "https://dc.lft.to/lastmile_qr_scan"}, "lon": -77.035793, "type": "electric_scooter", "fusion_lat": 0.0, "lat": 38.9398005, "name": "5d96f685677f20a6ff8c467e292c4982", "fusion_lon": 0.0, "bike_id": "5d96f685677f20a6ff8c467e292c4982", "is_disabled": 0, "is_reserved": 0}, {"rental_uris": {"ios": "https://dc.lft.to/lastmile_qr_scan", "android": "https://dc.lft.to/lastmile_qr_scan"}, "lon": -76.93160366666666, "type": "electric_scooter", "fusion_lat": 0.0, "lat": 38.89877383333334, "name": "d0f5ee48e3851ed8b1bfd560e3fb74c1", "fusion_lon": 0.0, "bike_id": "d0f5ee48e3851ed8b1bfd560e3fb74c1", "is_disabled": 0, "is_reserved": 0}, {"rental_uris": {"ios": "https://dc.lft.to/lastmile_qr_scan", "android": "https://dc.lft.to/lastmile_qr_scan"}, "lon": -77.04588966666667, "type": "electric_scooter", "fusion_lat": 0.0, "lat": 38.9104975, "name": "14b9d0ab641d15f9f78330cb305ea9cf", "fusion_lon": 0.0, "bike_id": "14b9d0ab641d15f9f78330cb305ea9cf", "is_disabled": 0, "is_reserved": 0}, {"rental_uris": {"ios": "https://dc.lft.to/lastmile_qr_scan", "android": "https://dc.lft.to/lastmile_qr_scan"}, "lon": -77.04821666666666, "type": "electric_scooter", "fusion_lat": 0.0, "lat": 38.909580166666665, "name": "a2b1948b769e07c56788b7e23438f1f6", "fusion_lon": 0.0, "bike_id": "a2b1948b769e07c56788b7e23438f1f6", "is_disabled": 0, "is_reserved": 0}, {"rental_uris": {"ios": "https://dc.lft.to/lastmile_qr_scan", "android": "https://dc.lft.to/lastmile_qr_scan"}, "lon": -76.94838766666666, "type": "electric_scooter", "fusion_lat": 0.0, "lat": 38.884092333333335, "name": "361fdc8cc1f5aca3ac4080f03db99f7b", "fusion_lon": 0.0, "bike_id": "361fdc8cc1f5aca3ac4080f03db99f7b", "is_disabled": 0, "is_reserved": 0}, {"rental_uris": {"ios": "https://dc.lft.to/lastmile_qr_scan", "android": "https://dc.lft.to/lastmile_qr_scan"}, "lon": -76.92877116666666, "type": "electric_scooter", "fusion_lat": 0.0, "lat": 38.884411, "name": "d69ee9bce3149f4d326fe934d8aafb9a", "fusion_lon": 0.0, "bike_id": "d69ee9bce3149f4d326fe934d8aafb9a", "is_disabled": 0, "is_reserved": 0}, {"rental_uris": {"ios": "https://dc.lft.to/lastmile_qr_scan", "android": "https://dc.lft.to/lastmile_qr_scan"}, "lon": -77.03642683333334, "type": "electric_scooter", "fusion_lat": 0.0, "lat": 38.90270566666667, "name": "49400799d6fee1b358e7318485bf9ca4", "fusion_lon": 0.0, "bike_id": "49400799d6fee1b358e7318485bf9ca4", "is_disabled": 0, "is_reserved": 0}, {"rental_uris": {"ios": "https://dc.lft.to/lastmile_qr_scan", "android": "https://dc.lft.to/lastmile_qr_scan"}, "lon": -76.956766, "type": "electric_bike", "fusion_lat": 0.0, "lat": 38.947264, "name": "2d8325cf3f0bd84d2bf93aef64c1ae97", "fusion_lon": 0.0, "bike_id": "2d8325cf3f0bd84d2bf93aef64c1ae97", "is_disabled": 0, "is_reserved": 0}, {"rental_uris": {"ios": "https://dc.lft.to/lastmile_qr_scan", "android": "https://dc.lft.to/lastmile_qr_scan"}, "lon": -77.02012216666667, "type": "electric_bike", "fusion_lat": 0.0, "lat": 38.93722966666667, "name": "fedba08b0163956e9c773060d5063fd7", "fusion_lon": 0.0, "bike_id": "fedba08b0163956e9c773060d5063fd7", "is_disabled": 0, "is_reserved": 0}, {"rental_uris": {"ios": "https://dc.lft.to/lastmile_qr_scan", "android": "https://dc.lft.to/lastmile_qr_scan"}, "lon": -77.08046766666666, "type": "electric_bike", "fusion_lat": 0.0, "lat": 38.84841866666667, "name": "1e4c636448b232fe36c08d4552db91d9", "fusion_lon": 0.0, "bike_id": "1e4c636448b232fe36c08d4552db91d9", "is_disabled": 0, "is_reserved": 0}, {"rental_uris": {"ios": "https://dc.lft.to/lastmile_qr_scan", "android": "https://dc.lft.to/lastmile_qr_scan"}, "lon": -77.03863516666667, "type": "electric_scooter", "fusion_lat": 0.0, "lat": 38.915567833333334, "name": "804c38ca2537a4396f15fb41f56f724f", "fusion_lon": 0.0, "bike_id": "804c38ca2537a4396f15fb41f56f724f", "is_disabled": 0, "is_reserved": 0}, {"rental_uris": {"ios": "https://dc.lft.to/lastmile_qr_scan", "android": "https://dc.lft.to/lastmile_qr_scan"}, "lon": -77.038374, "type": "electric_scooter", "fusion_lat": 0.0, "lat": 38.90750383333334, "name": "22f9b037b0dcb9689cd9a125f6d5a520", "fusion_lon": 0.0, "bike_id": "22f9b037b0dcb9689cd9a125f6d5a520", "is_disabled": 0, "is_reserved": 0}, {"rental_uris": {"ios": "https://dc.lft.to/lastmile_qr_scan", "android": "https://dc.lft.to/lastmile_qr_scan"}, "lon": -76.97416283333334, "type": "electric_scooter", "fusion_lat": 0.0, "lat": 38.90237833333333, "name": "9d79c5cf759954b6136e36189cee1972", "fusion_lon": 0.0, "bike_id": "9d79c5cf759954b6136e36189cee1972", "is_disabled": 0, "is_reserved": 0}, {"rental_uris": {"ios": "https://dc.lft.to/lastmile_qr_scan", "android": "https://dc.lft.to/lastmile_qr_scan"}, "lon": -76.98516416666666, "type": "electric_scooter", "fusion_lat": 0.0, "lat": 38.910006333333335, "name": "9bf7ab1e076e36bb0d5371288002fd3c", "fusion_lon": 0.0, "bike_id": "9bf7ab1e076e36bb0d5371288002fd3c", "is_disabled": 0, "is_reserved": 0}, {"rental_uris": {"ios": "https://dc.lft.to/lastmile_qr_scan", "android": "https://dc.lft.to/lastmile_qr_scan"}, "lon": -77.03408766666666, "type": "electric_scooter", "fusion_lat": 0.0, "lat": 38.92427883333333, "name": "5275f86fa36d0252d0638158d3bef22c", "fusion_lon": 0.0, "bike_id": "5275f86fa36d0252d0638158d3bef22c", "is_disabled": 0, "is_reserved": 0}, {"rental_uris": {"ios": "https://dc.lft.to/lastmile_qr_scan", "android": "https://dc.lft.to/lastmile_qr_scan"}, "lon": -76.986043, "type": "electric_scooter", "fusion_lat": 0.0, "lat": 38.878364, "name": "8dc1cd7afa84ec752efe894b4c53cd0a", "fusion_lon": 0.0, "bike_id": "8dc1cd7afa84ec752efe894b4c53cd0a", "is_disabled": 0, "is_reserved": 0}, {"rental_uris": {"ios": "https://dc.lft.to/lastmile_qr_scan", "android": "https://dc.lft.to/lastmile_qr_scan"}, "lon": -76.99870416666667, "type": "electric_scooter", "fusion_lat": 0.0, "lat": 38.90020716666667, "name": "323e864871fbc779707567ae2069857a", "fusion_lon": 0.0, "bike_id": "323e864871fbc779707567ae2069857a", "is_disabled": 0, "is_reserved": 0}, {"rental_uris": {"ios": "https://dc.lft.to/lastmile_qr_scan", "android": "https://dc.lft.to/lastmile_qr_scan"}, "lon": -76.973235, "type": "electric_scooter", "fusion_lat": 0.0, "lat": 38.93026783333333, "name": "d9b8aa8188fde6ef9af0000c47d46f0c", "fusion_lon": 0.0, "bike_id": "d9b8aa8188fde6ef9af0000c47d46f0c", "is_disabled": 0, "is_reserved": 0}, {"rental_uris": {"ios": "https://dc.lft.to/lastmile_qr_scan", "android": "https://dc.lft.to/lastmile_qr_scan"}, "lon": -76.97563233333334, "type": "electric_scooter", "fusion_lat": 0.0, "lat": 38.9044365, "name": "fef0f1500b9ceefc49252ef67feeff71", "fusion_lon": 0.0, "bike_id": "fef0f1500b9ceefc49252ef67feeff71", "is_disabled": 0, "is_reserved": 0}, {"rental_uris": {"ios": "https://dc.lft.to/lastmile_qr_scan", "android": "https://dc.lft.to/lastmile_qr_scan"}, "lon": -77.04316866666667, "type": "electric_scooter", "fusion_lat": 0.0, "lat": 38.9261655, "name": "1cb3895e057e12832cf4c440c0e75a0b", "fusion_lon": 0.0, "bike_id": "1cb3895e057e12832cf4c440c0e75a0b", "is_disabled": 0, "is_reserved": 0}, {"rental_uris": {"ios": "https://dc.lft.to/lastmile_qr_scan", "android": "https://dc.lft.to/lastmile_qr_scan"}, "lon": -77.04663, "type": "electric_scooter", "fusion_lat": 0.0, "lat": 38.89646466666667, "name": "448b2765e6eba2ce1f6fbaa6e48761ae", "fusion_lon": 0.0, "bike_id": "448b2765e6eba2ce1f6fbaa6e48761ae", "is_disabled": 0, "is_reserved": 0}, {"rental_uris": {"ios": "https://dc.lft.to/lastmile_qr_scan", "android": "https://dc.lft.to/lastmile_qr_scan"}, "lon": -77.0448855, "type": "electric_scooter", "fusion_lat": 0.0, "lat": 38.91512866666667, "name": "1278f694140886752e4bb70c4eb04e88", "fusion_lon": 0.0, "bike_id": "1278f694140886752e4bb70c4eb04e88", "is_disabled": 0, "is_reserved": 0}, {"rental_uris": {"ios": "https://dc.lft.to/lastmile_qr_scan", "android": "https://dc.lft.to/lastmile_qr_scan"}, "lon": -76.99608933333333, "type": "electric_scooter", "fusion_lat": 0.0, "lat": 38.88623, "name": "e525b2821f4f866cfe9354b3c28731db", "fusion_lon": 0.0, "bike_id": "e525b2821f4f866cfe9354b3c28731db", "is_disabled": 0, "is_reserved": 0}, {"rental_uris": {"ios": "https://dc.lft.to/lastmile_qr_scan", "android": "https://dc.lft.to/lastmile_qr_scan"}, "lon": -77.01094983333333, "type": "electric_scooter", "fusion_lat": 0.0, "lat": 38.91558216666667, "name": "c154c37fbe3bbcc38c90bb09930813fd", "fusion_lon": 0.0, "bike_id": "c154c37fbe3bbcc38c90bb09930813fd", "is_disabled": 0, "is_reserved": 0}, {"rental_uris": {"ios": "https://dc.lft.to/lastmile_qr_scan", "android": "https://dc.lft.to/lastmile_qr_scan"}, "lon": -76.98566916666667, "type": "electric_scooter", "fusion_lat": 0.0, "lat": 38.861491666666666, "name": "6344fbcaf70ead587e87512a2025f69a", "fusion_lon": 0.0, "bike_id": "6344fbcaf70ead587e87512a2025f69a", "is_disabled": 0, "is_reserved": 0}, {"rental_uris": {"ios": "https://dc.lft.to/lastmile_qr_scan", "android": "https://dc.lft.to/lastmile_qr_scan"}, "lon": -77.02691083333333, "type": "electric_scooter", "fusion_lat": 0.0, "lat": 38.905801, "name": "811bcdeecbf5eeb07f6f4ed0ecb2b8cf", "fusion_lon": 0.0, "bike_id": "811bcdeecbf5eeb07f6f4ed0ecb2b8cf", "is_disabled": 0, "is_reserved": 0}, {"rental_uris": {"ios": "https://dc.lft.to/lastmile_qr_scan", "android": "https://dc.lft.to/lastmile_qr_scan"}, "lon": -76.97498683333333, "type": "electric_bike", "fusion_lat": 0.0, "lat": 38.91934466666667, "name": "f19e3e99ed8cfc85ee8dcde239f3191f", "fusion_lon": 0.0, "bike_id": "f19e3e99ed8cfc85ee8dcde239f3191f", "is_disabled": 0, "is_reserved": 0}, {"rental_uris": {"ios": "https://dc.lft.to/lastmile_qr_scan", "android": "https://dc.lft.to/lastmile_qr_scan"}, "lon": -77.04194733333334, "type": "electric_scooter", "fusion_lat": 0.0, "lat": 38.926232666666664, "name": "64da6a7061f960f4b139b3ed86723a9e", "fusion_lon": 0.0, "bike_id": "64da6a7061f960f4b139b3ed86723a9e", "is_disabled": 0, "is_reserved": 0}, {"rental_uris": {"ios": "https://dc.lft.to/lastmile_qr_scan", "android": "https://dc.lft.to/lastmile_qr_scan"}, "lon": -77.01108883333333, "type": "electric_scooter", "fusion_lat": 0.0, "lat": 38.89519933333333, "name": "c157076ec28363782660f10902500256", "fusion_lon": 0.0, "bike_id": "c157076ec28363782660f10902500256", "is_disabled": 0, "is_reserved": 0}, {"rental_uris": {"ios": "https://dc.lft.to/lastmile_qr_scan", "android": "https://dc.lft.to/lastmile_qr_scan"}, "lon": -77.04153783333334, "type": "electric_scooter", "fusion_lat": 0.0, "lat": 38.919146, "name": "b4b94417f050adf8cb3191462f4a979c", "fusion_lon": 0.0, "bike_id": "b4b94417f050adf8cb3191462f4a979c", "is_disabled": 0, "is_reserved": 0}, {"rental_uris": {"ios": "https://dc.lft.to/lastmile_qr_scan", "android": "https://dc.lft.to/lastmile_qr_scan"}, "lon": -77.025586, "type": "electric_scooter", "fusion_lat": 0.0, "lat": 38.92533433333333, "name": "ed60bda6ad878769f2be3771ecf90c95", "fusion_lon": 0.0, "bike_id": "ed60bda6ad878769f2be3771ecf90c95", "is_disabled": 0, "is_reserved": 0}, {"rental_uris": {"ios": "https://dc.lft.to/lastmile_qr_scan", "android": "https://dc.lft.to/lastmile_qr_scan"}, "lon": -77.01849, "type": "electric_scooter", "fusion_lat": 0.0, "lat": 38.91985583333334, "name": "a814c30158ba8d1d18ebe61c5bf8e169", "fusion_lon": 0.0, "bike_id": "a814c30158ba8d1d18ebe61c5bf8e169", "is_disabled": 0, "is_reserved": 0}, {"rental_uris": {"ios": "https://dc.lft.to/lastmile_qr_scan", "android": "https://dc.lft.to/lastmile_qr_scan"}, "lon": -77.02723283333333, "type": "electric_scooter", "fusion_lat": 0.0, "lat": 38.92478116666667, "name": "2741c74bb6e8c4ff0f679eb5eff06577", "fusion_lon": 0.0, "bike_id": "2741c74bb6e8c4ff0f679eb5eff06577", "is_disabled": 0, "is_reserved": 0}, {"rental_uris": {"ios": "https://dc.lft.to/lastmile_qr_scan", "android": "https://dc.lft.to/lastmile_qr_scan"}, "lon": -76.94725733333334, "type": "electric_scooter", "fusion_lat": 0.0, "lat": 38.896691833333335, "name": "807a52bd8ce0d753e3de18135d22ed2a", "fusion_lon": 0.0, "bike_id": "807a52bd8ce0d753e3de18135d22ed2a", "is_disabled": 0, "is_reserved": 0}, {"rental_uris": {"ios": "https://dc.lft.to/lastmile_qr_scan", "android": "https://dc.lft.to/lastmile_qr_scan"}, "lon": -77.0272695, "type": "electric_scooter", "fusion_lat": 0.0, "lat": 38.9247945, "name": "0768ed269ab44eeeb5919b1f00cdb49c", "fusion_lon": 0.0, "bike_id": "0768ed269ab44eeeb5919b1f00cdb49c", "is_disabled": 0, "is_reserved": 0}, {"rental_uris": {"ios": "https://dc.lft.to/lastmile_qr_scan", "android": "https://dc.lft.to/lastmile_qr_scan"}, "lon": -77.04380016666667, "type": "electric_scooter", "fusion_lat": 0.0, "lat": 38.917838333333336, "name": "eb55e69507e58f2f5807cfe3217d8936", "fusion_lon": 0.0, "bike_id": "eb55e69507e58f2f5807cfe3217d8936", "is_disabled": 0, "is_reserved": 0}, {"rental_uris": {"ios": "https://dc.lft.to/lastmile_qr_scan", "android": "https://dc.lft.to/lastmile_qr_scan"}, "lon": -77.04644933333333, "type": "electric_bike", "fusion_lat": 0.0, "lat": 38.85209033333334, "name": "a8cf260d855ef6f44f05c12fea4f4098", "fusion_lon": 0.0, "bike_id": "a8cf260d855ef6f44f05c12fea4f4098", "is_disabled": 0, "is_reserved": 0}, {"rental_uris": {"ios": "https://dc.lft.to/lastmile_qr_scan", "android": "https://dc.lft.to/lastmile_qr_scan"}, "lon": -77.033124, "type": "electric_scooter", "fusion_lat": 0.0, "lat": 38.90043466666667, "name": "6301ecf015e50919bc6484901e1e932b", "fusion_lon": 0.0, "bike_id": "6301ecf015e50919bc6484901e1e932b", "is_disabled": 0, "is_reserved": 0}, {"rental_uris": {"ios": "https://dc.lft.to/lastmile_qr_scan", "android": "https://dc.lft.to/lastmile_qr_scan"}, "lon": -77.01840983333334, "type": "electric_scooter", "fusion_lat": 0.0, "lat": 38.877100166666665, "name": "0fc9c50757b83203733076d5dad484f0", "fusion_lon": 0.0, "bike_id": "0fc9c50757b83203733076d5dad484f0", "is_disabled": 0, "is_reserved": 0}, {"rental_uris": {"ios": "https://dc.lft.to/lastmile_qr_scan", "android": "https://dc.lft.to/lastmile_qr_scan"}, "lon": -77.04882083333334, "type": "electric_scooter", "fusion_lat": 0.0, "lat": 38.905951, "name": "396bdd3133e874581c631c5b88aaa09a", "fusion_lon": 0.0, "bike_id": "396bdd3133e874581c631c5b88aaa09a", "is_disabled": 0, "is_reserved": 0}, {"rental_uris": {"ios": "https://dc.lft.to/lastmile_qr_scan", "android": "https://dc.lft.to/lastmile_qr_scan"}, "lon": -77.0425165, "type": "electric_scooter", "fusion_lat": 0.0, "lat": 38.92059316666667, "name": "a1cdb33da7684168c3f500f8a3d7f498", "fusion_lon": 0.0, "bike_id": "a1cdb33da7684168c3f500f8a3d7f498", "is_disabled": 0, "is_reserved": 0}, {"rental_uris": {"ios": "https://dc.lft.to/lastmile_qr_scan", "android": "https://dc.lft.to/lastmile_qr_scan"}, "lon": -77.00781616666667, "type": "electric_scooter", "fusion_lat": 0.0, "lat": 38.8973195, "name": "4e529b28f4dd7addacb7f424eddc6253", "fusion_lon": 0.0, "bike_id": "4e529b28f4dd7addacb7f424eddc6253", "is_disabled": 0, "is_reserved": 0}, {"rental_uris": {"ios": "https://dc.lft.to/lastmile_qr_scan", "android": "https://dc.lft.to/lastmile_qr_scan"}, "lon": -77.03387083333334, "type": "electric_scooter", "fusion_lat": 0.0, "lat": 38.88656233333333, "name": "8bbaa32906be2eb572c62f17bb97bff2", "fusion_lon": 0.0, "bike_id": "8bbaa32906be2eb572c62f17bb97bff2", "is_disabled": 0, "is_reserved": 0}, {"rental_uris": {"ios": "https://dc.lft.to/lastmile_qr_scan", "android": "https://dc.lft.to/lastmile_qr_scan"}, "lon": -77.12900966666666, "type": "electric_bike", "fusion_lat": 0.0, "lat": 38.863751666666666, "name": "696a7efaea83eed5011e1e42d2420f98", "fusion_lon": 0.0, "bike_id": "696a7efaea83eed5011e1e42d2420f98", "is_disabled": 0, "is_reserved": 0}, {"rental_uris": {"ios": "https://dc.lft.to/lastmile_qr_scan", "android": "https://dc.lft.to/lastmile_qr_scan"}, "lon": -77.02087433333334, "type": "electric_scooter", "fusion_lat": 0.0, "lat": 38.881826, "name": "7d58cd9cd947427e52e2fd586a60e227", "fusion_lon": 0.0, "bike_id": "7d58cd9cd947427e52e2fd586a60e227", "is_disabled": 0, "is_reserved": 0}, {"rental_uris": {"ios": "https://dc.lft.to/lastmile_qr_scan", "android": "https://dc.lft.to/lastmile_qr_scan"}, "lon": -77.052917, "type": "electric_scooter", "fusion_lat": 0.0, "lat": 38.92789116666667, "name": "2687168dffac08a31179c19e001d1bc2", "fusion_lon": 0.0, "bike_id": "2687168dffac08a31179c19e001d1bc2", "is_disabled": 0, "is_reserved": 0}, {"rental_uris": {"ios": "https://dc.lft.to/lastmile_qr_scan", "android": "https://dc.lft.to/lastmile_qr_scan"}, "lon": -77.021095, "type": "electric_scooter", "fusion_lat": 0.0, "lat": 38.89479333333333, "name": "275f6dfb4c87b2de026279080b697ed5", "fusion_lon": 0.0, "bike_id": "275f6dfb4c87b2de026279080b697ed5", "is_disabled": 0, "is_reserved": 0}, {"rental_uris": {"ios": "https://dc.lft.to/lastmile_qr_scan", "android": "https://dc.lft.to/lastmile_qr_scan"}, "lon": -77.02601466666667, "type": "electric_scooter", "fusion_lat": 0.0, "lat": 38.97588433333333, "name": "93f725833746102fe55eef8621d77f4b", "fusion_lon": 0.0, "bike_id": "93f725833746102fe55eef8621d77f4b", "is_disabled": 0, "is_reserved": 0}, {"rental_uris": {"ios": "https://dc.lft.to/lastmile_qr_scan", "android": "https://dc.lft.to/lastmile_qr_scan"}, "lon": -77.02685783333334, "type": "electric_scooter", "fusion_lat": 0.0, "lat": 38.906393333333334, "name": "c425307a554a9b6941104354f0c73005", "fusion_lon": 0.0, "bike_id": "c425307a554a9b6941104354f0c73005", "is_disabled": 0, "is_reserved": 0}, {"rental_uris": {"ios": "https://dc.lft.to/lastmile_qr_scan", "android": "https://dc.lft.to/lastmile_qr_scan"}, "lon": -77.02395966666667, "type": "electric_scooter", "fusion_lat": 0.0, "lat": 38.915999166666666, "name": "80f3ec70ae0da8b09f07294c37a7d3cc", "fusion_lon": 0.0, "bike_id": "80f3ec70ae0da8b09f07294c37a7d3cc", "is_disabled": 0, "is_reserved": 0}, {"rental_uris": {"ios": "https://dc.lft.to/lastmile_qr_scan", "android": "https://dc.lft.to/lastmile_qr_scan"}, "lon": -77.0535425, "type": "electric_scooter", "fusion_lat": 0.0, "lat": 38.92793316666667, "name": "982faf91fc80a605e845fdd3d4cb6437", "fusion_lon": 0.0, "bike_id": "982faf91fc80a605e845fdd3d4cb6437", "is_disabled": 0, "is_reserved": 0}, {"rental_uris": {"ios": "https://dc.lft.to/lastmile_qr_scan", "android": "https://dc.lft.to/lastmile_qr_scan"}, "lon": -77.052213, "type": "electric_scooter", "fusion_lat": 0.0, "lat": 38.924927833333335, "name": "828298641eb629760b664d8ec35001f0", "fusion_lon": 0.0, "bike_id": "828298641eb629760b664d8ec35001f0", "is_disabled": 0, "is_reserved": 0}, {"rental_uris": {"ios": "https://dc.lft.to/lastmile_qr_scan", "android": "https://dc.lft.to/lastmile_qr_scan"}, "lon": -77.026954, "type": "electric_scooter", "fusion_lat": 0.0, "lat": 38.908716, "name": "b1e692beeb568d10ddf88808b6a6d851", "fusion_lon": 0.0, "bike_id": "b1e692beeb568d10ddf88808b6a6d851", "is_disabled": 0, "is_reserved": 0}, {"rental_uris": {"ios": "https://dc.lft.to/lastmile_qr_scan", "android": "https://dc.lft.to/lastmile_qr_scan"}, "lon": -77.0515125, "type": "electric_scooter", "fusion_lat": 0.0, "lat": 38.89764183333333, "name": "20c7bdbb4bbb7e9c83af74a3a9cd0859", "fusion_lon": 0.0, "bike_id": "20c7bdbb4bbb7e9c83af74a3a9cd0859", "is_disabled": 0, "is_reserved": 0}, {"rental_uris": {"ios": "https://dc.lft.to/lastmile_qr_scan", "android": "https://dc.lft.to/lastmile_qr_scan"}, "lon": -77.022221, "type": "electric_scooter", "fusion_lat": 0.0, "lat": 38.89353916666666, "name": "837d4dfe7696eb9b4d557ad1e85e27fb", "fusion_lon": 0.0, "bike_id": "837d4dfe7696eb9b4d557ad1e85e27fb", "is_disabled": 0, "is_reserved": 0}, {"rental_uris": {"ios": "https://dc.lft.to/lastmile_qr_scan", "android": "https://dc.lft.to/lastmile_qr_scan"}, "lon": -77.04002916666667, "type": "electric_scooter", "fusion_lat": 0.0, "lat": 38.90994666666667, "name": "29098bfd62061f8ee53fb7636f63974b", "fusion_lon": 0.0, "bike_id": "29098bfd62061f8ee53fb7636f63974b", "is_disabled": 0, "is_reserved": 0}, {"rental_uris": {"ios": "https://dc.lft.to/lastmile_qr_scan", "android": "https://dc.lft.to/lastmile_qr_scan"}, "lon": -77.06394383333334, "type": "electric_scooter", "fusion_lat": 0.0, "lat": 38.9290765, "name": "4f3148024426120eaed4b5eed2f1cbf4", "fusion_lon": 0.0, "bike_id": "4f3148024426120eaed4b5eed2f1cbf4", "is_disabled": 0, "is_reserved": 0}, {"rental_uris": {"ios": "https://dc.lft.to/lastmile_qr_scan", "android": "https://dc.lft.to/lastmile_qr_scan"}, "lon": -77.024727, "type": "electric_scooter", "fusion_lat": 0.0, "lat": 38.91812933333333, "name": "8d8fa2918d85d8e9ce38ae83a90d948a", "fusion_lon": 0.0, "bike_id": "8d8fa2918d85d8e9ce38ae83a90d948a", "is_disabled": 0, "is_reserved": 0}, {"rental_uris": {"ios": "https://dc.lft.to/lastmile_qr_scan", "android": "https://dc.lft.to/lastmile_qr_scan"}, "lon": -76.91600133333333, "type": "electric_bike", "fusion_lat": 0.0, "lat": 38.879811, "name": "842306a6891369077b3468c0c91a5b1f", "fusion_lon": 0.0, "bike_id": "842306a6891369077b3468c0c91a5b1f", "is_disabled": 0, "is_reserved": 0}, {"rental_uris": {"ios": "https://dc.lft.to/lastmile_qr_scan", "android": "https://dc.lft.to/lastmile_qr_scan"}, "lon": -77.12979233333333, "type": "electric_bike", "fusion_lat": 0.0, "lat": 38.79981333333333, "name": "6744ccaaae91d0e61152c47bfce4ca7a", "fusion_lon": 0.0, "bike_id": "6744ccaaae91d0e61152c47bfce4ca7a", "is_disabled": 0, "is_reserved": 0}, {"rental_uris": {"ios": "https://dc.lft.to/lastmile_qr_scan", "android": "https://dc.lft.to/lastmile_qr_scan"}, "lon": -77.05021333333333, "type": "electric_scooter", "fusion_lat": 0.0, "lat": 38.9235135, "name": "3bd0f4dc728e2b01dd273a4bfb049b28", "fusion_lon": 0.0, "bike_id": "3bd0f4dc728e2b01dd273a4bfb049b28", "is_disabled": 0, "is_reserved": 0}, {"rental_uris": {"ios": "https://dc.lft.to/lastmile_qr_scan", "android": "https://dc.lft.to/lastmile_qr_scan"}, "lon": -77.03962716666666, "type": "electric_scooter", "fusion_lat": 0.0, "lat": 38.9026945, "name": "81277be10785c13c4aabbf3085ed92ab", "fusion_lon": 0.0, "bike_id": "81277be10785c13c4aabbf3085ed92ab", "is_disabled": 0, "is_reserved": 0}, {"rental_uris": {"ios": "https://dc.lft.to/lastmile_qr_scan", "android": "https://dc.lft.to/lastmile_qr_scan"}, "lon": -77.02427466666667, "type": "electric_bike", "fusion_lat": 0.0, "lat": 38.9941915, "name": "234450dcefbd13feafbde1cf19423132", "fusion_lon": 0.0, "bike_id": "234450dcefbd13feafbde1cf19423132", "is_disabled": 0, "is_reserved": 0}, {"rental_uris": {"ios": "https://dc.lft.to/lastmile_qr_scan", "android": "https://dc.lft.to/lastmile_qr_scan"}, "lon": -77.05754216666666, "type": "electric_bike", "fusion_lat": 0.0, "lat": 38.924843, "name": "f0f05a8e29a6c8b9c21725c9a0e85ac6", "fusion_lon": 0.0, "bike_id": "f0f05a8e29a6c8b9c21725c9a0e85ac6", "is_disabled": 0, "is_reserved": 0}, {"rental_uris": {"ios": "https://dc.lft.to/lastmile_qr_scan", "android": "https://dc.lft.to/lastmile_qr_scan"}, "lon": -77.07042683333333, "type": "electric_bike", "fusion_lat": 0.0, "lat": 38.82445533333333, "name": "933fd4d142c59c43b799bcbf2a732232", "fusion_lon": 0.0, "bike_id": "933fd4d142c59c43b799bcbf2a732232", "is_disabled": 0, "is_reserved": 0}, {"rental_uris": {"ios": "https://dc.lft.to/lastmile_qr_scan", "android": "https://dc.lft.to/lastmile_qr_scan"}, "lon": -77.01750716666666, "type": "electric_scooter", "fusion_lat": 0.0, "lat": 38.87731983333333, "name": "e2e12f2ee373a730b980cc049a95339d", "fusion_lon": 0.0, "bike_id": "e2e12f2ee373a730b980cc049a95339d", "is_disabled": 0, "is_reserved": 0}, {"rental_uris": {"ios": "https://dc.lft.to/lastmile_qr_scan", "android": "https://dc.lft.to/lastmile_qr_scan"}, "lon": -77.02950883333334, "type": "electric_scooter", "fusion_lat": 0.0, "lat": 38.9049775, "name": "e73283ce26e87b460cec467f06953f24", "fusion_lon": 0.0, "bike_id": "e73283ce26e87b460cec467f06953f24", "is_disabled": 0, "is_reserved": 0}, {"rental_uris": {"ios": "https://dc.lft.to/lastmile_qr_scan", "android": "https://dc.lft.to/lastmile_qr_scan"}, "lon": -77.03113833333333, "type": "electric_scooter", "fusion_lat": 0.0, "lat": 38.91179833333333, "name": "b84fb74bb3a50f5171923d8c28d938ee", "fusion_lon": 0.0, "bike_id": "b84fb74bb3a50f5171923d8c28d938ee", "is_disabled": 0, "is_reserved": 0}, {"rental_uris": {"ios": "https://dc.lft.to/lastmile_qr_scan", "android": "https://dc.lft.to/lastmile_qr_scan"}, "lon": -77.0688745, "type": "electric_scooter", "fusion_lat": 0.0, "lat": 38.940302833333334, "name": "913761c10cce0455bb1e6bcb17828ee8", "fusion_lon": 0.0, "bike_id": "913761c10cce0455bb1e6bcb17828ee8", "is_disabled": 0, "is_reserved": 0}, {"rental_uris": {"ios": "https://dc.lft.to/lastmile_qr_scan", "android": "https://dc.lft.to/lastmile_qr_scan"}, "lon": -77.12817383333334, "type": "electric_bike", "fusion_lat": 0.0, "lat": 38.86525433333333, "name": "89a964bf92bb0b8c25e8138ab5277ead", "fusion_lon": 0.0, "bike_id": "89a964bf92bb0b8c25e8138ab5277ead", "is_disabled": 0, "is_reserved": 0}, {"rental_uris": {"ios": "https://dc.lft.to/lastmile_qr_scan", "android": "https://dc.lft.to/lastmile_qr_scan"}, "lon": -77.35305966666667, "type": "electric_bike", "fusion_lat": 0.0, "lat": 38.9499875, "name": "c682c8c906de3b7629e677432f6a203a", "fusion_lon": 0.0, "bike_id": "c682c8c906de3b7629e677432f6a203a", "is_disabled": 0, "is_reserved": 0}, {"rental_uris": {"ios": "https://dc.lft.to/lastmile_qr_scan", "android": "https://dc.lft.to/lastmile_qr_scan"}, "lon": -77.02841216666667, "type": "electric_scooter", "fusion_lat": 0.0, "lat": 38.942600666666664, "name": "fab1cb69442a698b1f4e69ae56d5129c", "fusion_lon": 0.0, "bike_id": "fab1cb69442a698b1f4e69ae56d5129c", "is_disabled": 0, "is_reserved": 0}, {"rental_uris": {"ios": "https://dc.lft.to/lastmile_qr_scan", "android": "https://dc.lft.to/lastmile_qr_scan"}, "lon": -77.0072685, "type": "electric_scooter", "fusion_lat": 0.0, "lat": 38.88492633333333, "name": "a7e3e5c896117a248ef8c8eae464a6dd", "fusion_lon": 0.0, "bike_id": "a7e3e5c896117a248ef8c8eae464a6dd", "is_disabled": 0, "is_reserved": 0}, {"rental_uris": {"ios": "https://dc.lft.to/lastmile_qr_scan", "android": "https://dc.lft.to/lastmile_qr_scan"}, "lon": -77.04746616666667, "type": "electric_scooter", "fusion_lat": 0.0, "lat": 38.9177625, "name": "8aef1d89f2c2c65f242e620d0dbbc39b", "fusion_lon": 0.0, "bike_id": "8aef1d89f2c2c65f242e620d0dbbc39b", "is_disabled": 0, "is_reserved": 0}, {"rental_uris": {"ios": "https://dc.lft.to/lastmile_qr_scan", "android": "https://dc.lft.to/lastmile_qr_scan"}, "lon": -77.03315116666667, "type": "electric_scooter", "fusion_lat": 0.0, "lat": 38.901546833333335, "name": "86b06539842527da7c15ae5a7337bf29", "fusion_lon": 0.0, "bike_id": "86b06539842527da7c15ae5a7337bf29", "is_disabled": 0, "is_reserved": 0}, {"rental_uris": {"ios": "https://dc.lft.to/lastmile_qr_scan", "android": "https://dc.lft.to/lastmile_qr_scan"}, "lon": -77.03179616666667, "type": "electric_scooter", "fusion_lat": 0.0, "lat": 38.9191995, "name": "144834727cc6c287cd46cc232184e4de", "fusion_lon": 0.0, "bike_id": "144834727cc6c287cd46cc232184e4de", "is_disabled": 0, "is_reserved": 0}, {"rental_uris": {"ios": "https://dc.lft.to/lastmile_qr_scan", "android": "https://dc.lft.to/lastmile_qr_scan"}, "lon": -76.9948535, "type": "electric_scooter", "fusion_lat": 0.0, "lat": 38.86237166666667, "name": "b230c26275e3197be3840b1bdba5053e", "fusion_lon": 0.0, "bike_id": "b230c26275e3197be3840b1bdba5053e", "is_disabled": 0, "is_reserved": 0}, {"rental_uris": {"ios": "https://dc.lft.to/lastmile_qr_scan", "android": "https://dc.lft.to/lastmile_qr_scan"}, "lon": -76.9317545, "type": "electric_scooter", "fusion_lat": 0.0, "lat": 38.89883616666667, "name": "fc0eb7b82926a751b6779272e6292bcd", "fusion_lon": 0.0, "bike_id": "fc0eb7b82926a751b6779272e6292bcd", "is_disabled": 0, "is_reserved": 0}, {"rental_uris": {"ios": "https://dc.lft.to/lastmile_qr_scan", "android": "https://dc.lft.to/lastmile_qr_scan"}, "lon": -76.99825583333333, "type": "electric_scooter", "fusion_lat": 0.0, "lat": 38.9000875, "name": "1063edcb61643e059bd88c38a29c3835", "fusion_lon": 0.0, "bike_id": "1063edcb61643e059bd88c38a29c3835", "is_disabled": 0, "is_reserved": 0}, {"rental_uris": {"ios": "https://dc.lft.to/lastmile_qr_scan", "android": "https://dc.lft.to/lastmile_qr_scan"}, "lon": -77.04984966666666, "type": "electric_scooter", "fusion_lat": 0.0, "lat": 38.901136666666666, "name": "a43f09a8f9077224f65f4ddcccde3a46", "fusion_lon": 0.0, "bike_id": "a43f09a8f9077224f65f4ddcccde3a46", "is_disabled": 0, "is_reserved": 0}, {"rental_uris": {"ios": "https://dc.lft.to/lastmile_qr_scan", "android": "https://dc.lft.to/lastmile_qr_scan"}, "lon": -76.948912, "type": "electric_scooter", "fusion_lat": 0.0, "lat": 38.89525883333334, "name": "cfb5d3a002882be12622e8193b98968c", "fusion_lon": 0.0, "bike_id": "cfb5d3a002882be12622e8193b98968c", "is_disabled": 0, "is_reserved": 0}, {"rental_uris": {"ios": "https://dc.lft.to/lastmile_qr_scan", "android": "https://dc.lft.to/lastmile_qr_scan"}, "lon": -77.0321055, "type": "electric_scooter", "fusion_lat": 0.0, "lat": 38.925799, "name": "037907940e737c433bdcd1ba4428e92c", "fusion_lon": 0.0, "bike_id": "037907940e737c433bdcd1ba4428e92c", "is_disabled": 0, "is_reserved": 0}, {"rental_uris": {"ios": "https://dc.lft.to/lastmile_qr_scan", "android": "https://dc.lft.to/lastmile_qr_scan"}, "lon": -77.003702, "type": "electric_scooter", "fusion_lat": 0.0, "lat": 38.87661283333333, "name": "5dc1ccf9ab9f920fb09d6668ab7dc63a", "fusion_lon": 0.0, "bike_id": "5dc1ccf9ab9f920fb09d6668ab7dc63a", "is_disabled": 0, "is_reserved": 0}, {"rental_uris": {"ios": "https://dc.lft.to/lastmile_qr_scan", "android": "https://dc.lft.to/lastmile_qr_scan"}, "lon": -77.02603016666667, "type": "electric_scooter", "fusion_lat": 0.0, "lat": 38.90367833333333, "name": "8a8815bbe02f3b1c9afaf450d730e06e", "fusion_lon": 0.0, "bike_id": "8a8815bbe02f3b1c9afaf450d730e06e", "is_disabled": 0, "is_reserved": 0}, {"rental_uris": {"ios": "https://dc.lft.to/lastmile_qr_scan", "android": "https://dc.lft.to/lastmile_qr_scan"}, "lon": -77.00997283333334, "type": "electric_scooter", "fusion_lat": 0.0, "lat": 38.896042666666666, "name": "0c2756b890cc81a881142cf04439faba", "fusion_lon": 0.0, "bike_id": "0c2756b890cc81a881142cf04439faba", "is_disabled": 0, "is_reserved": 0}, {"rental_uris": {"ios": "https://dc.lft.to/lastmile_qr_scan", "android": "https://dc.lft.to/lastmile_qr_scan"}, "lon": -77.03178266666667, "type": "electric_scooter", "fusion_lat": 0.0, "lat": 38.901585833333336, "name": "5f2c6be04654f9d5a00f342d9c22a478", "fusion_lon": 0.0, "bike_id": "5f2c6be04654f9d5a00f342d9c22a478", "is_disabled": 0, "is_reserved": 0}, {"rental_uris": {"ios": "https://dc.lft.to/lastmile_qr_scan", "android": "https://dc.lft.to/lastmile_qr_scan"}, "lon": -77.019462, "type": "electric_scooter", "fusion_lat": 0.0, "lat": 38.92413033333333, "name": "7b35dff932b084a75cdb5dd0e6a5b26b", "fusion_lon": 0.0, "bike_id": "7b35dff932b084a75cdb5dd0e6a5b26b", "is_disabled": 0, "is_reserved": 0}, {"rental_uris": {"ios": "https://dc.lft.to/lastmile_qr_scan", "android": "https://dc.lft.to/lastmile_qr_scan"}, "lon": -77.00861416666666, "type": "electric_bike", "fusion_lat": 0.0, "lat": 38.827307833333336, "name": "ad8257c89bf04804e78e6bc035c0ecdc", "fusion_lon": 0.0, "bike_id": "ad8257c89bf04804e78e6bc035c0ecdc", "is_disabled": 0, "is_reserved": 0}, {"rental_uris": {"ios": "https://dc.lft.to/lastmile_qr_scan", "android": "https://dc.lft.to/lastmile_qr_scan"}, "lon": -76.98562333333334, "type": "electric_scooter", "fusion_lat": 0.0, "lat": 38.855877, "name": "8800a95cfe54f93e1ca18704005e8b13", "fusion_lon": 0.0, "bike_id": "8800a95cfe54f93e1ca18704005e8b13", "is_disabled": 0, "is_reserved": 0}, {"rental_uris": {"ios": "https://dc.lft.to/lastmile_qr_scan", "android": "https://dc.lft.to/lastmile_qr_scan"}, "lon": -77.044887, "type": "electric_scooter", "fusion_lat": 0.0, "lat": 38.919517166666665, "name": "0506b5bf7bdec092dc105db60272efbe", "fusion_lon": 0.0, "bike_id": "0506b5bf7bdec092dc105db60272efbe", "is_disabled": 0, "is_reserved": 0}, {"rental_uris": {"ios": "https://dc.lft.to/lastmile_qr_scan", "android": "https://dc.lft.to/lastmile_qr_scan"}, "lon": -77.04166166666667, "type": "electric_scooter", "fusion_lat": 0.0, "lat": 38.903339833333334, "name": "38a7f2b68e6ac95aab8d803495cb5069", "fusion_lon": 0.0, "bike_id": "38a7f2b68e6ac95aab8d803495cb5069", "is_disabled": 0, "is_reserved": 0}, {"rental_uris": {"ios": "https://dc.lft.to/lastmile_qr_scan", "android": "https://dc.lft.to/lastmile_qr_scan"}, "lon": -77.0257215, "type": "electric_scooter", "fusion_lat": 0.0, "lat": 38.89249083333333, "name": "f79c3455b1c485e33618b5ffd0b71187", "fusion_lon": 0.0, "bike_id": "f79c3455b1c485e33618b5ffd0b71187", "is_disabled": 0, "is_reserved": 0}, {"rental_uris": {"ios": "https://dc.lft.to/lastmile_qr_scan", "android": "https://dc.lft.to/lastmile_qr_scan"}, "lon": -77.07906916666667, "type": "electric_scooter", "fusion_lat": 0.0, "lat": 38.94804216666667, "name": "2e8e7ed028c550263fb2983deb2d3cee", "fusion_lon": 0.0, "bike_id": "2e8e7ed028c550263fb2983deb2d3cee", "is_disabled": 0, "is_reserved": 0}, {"rental_uris": {"ios": "https://dc.lft.to/lastmile_qr_scan", "android": "https://dc.lft.to/lastmile_qr_scan"}, "lon": -77.0319295, "type": "electric_scooter", "fusion_lat": 0.0, "lat": 38.916339, "name": "e9ab31723d1400d30c91a54cdfb6ae9b", "fusion_lon": 0.0, "bike_id": "e9ab31723d1400d30c91a54cdfb6ae9b", "is_disabled": 0, "is_reserved": 0}, {"rental_uris": {"ios": "https://dc.lft.to/lastmile_qr_scan", "android": "https://dc.lft.to/lastmile_qr_scan"}, "lon": -77.03192583333333, "type": "electric_scooter", "fusion_lat": 0.0, "lat": 38.91568783333334, "name": "ce5247a067d4da2bc04df5c5b57f6479", "fusion_lon": 0.0, "bike_id": "ce5247a067d4da2bc04df5c5b57f6479", "is_disabled": 0, "is_reserved": 0}, {"rental_uris": {"ios": "https://dc.lft.to/lastmile_qr_scan", "android": "https://dc.lft.to/lastmile_qr_scan"}, "lon": -77.04711966666666, "type": "electric_scooter", "fusion_lat": 0.0, "lat": 38.92231866666667, "name": "9b482888f551ee5b1537c429f6d86320", "fusion_lon": 0.0, "bike_id": "9b482888f551ee5b1537c429f6d86320", "is_disabled": 0, "is_reserved": 0}, {"rental_uris": {"ios": "https://dc.lft.to/lastmile_qr_scan", "android": "https://dc.lft.to/lastmile_qr_scan"}, "lon": -77.00772383333333, "type": "electric_scooter", "fusion_lat": 0.0, "lat": 38.907394833333335, "name": "f48544efbdb082457130d029e5ecf213", "fusion_lon": 0.0, "bike_id": "f48544efbdb082457130d029e5ecf213", "is_disabled": 0, "is_reserved": 0}, {"rental_uris": {"ios": "https://dc.lft.to/lastmile_qr_scan", "android": "https://dc.lft.to/lastmile_qr_scan"}, "lon": -76.935375, "type": "electric_scooter", "fusion_lat": 0.0, "lat": 38.89680933333333, "name": "77a852c6961f51c0482b3fdaee9e00a2", "fusion_lon": 0.0, "bike_id": "77a852c6961f51c0482b3fdaee9e00a2", "is_disabled": 0, "is_reserved": 0}, {"rental_uris": {"ios": "https://dc.lft.to/lastmile_qr_scan", "android": "https://dc.lft.to/lastmile_qr_scan"}, "lon": -77.03193583333334, "type": "electric_scooter", "fusion_lat": 0.0, "lat": 38.91995983333333, "name": "1d3473eeb78709def9df26d6da30102d", "fusion_lon": 0.0, "bike_id": "1d3473eeb78709def9df26d6da30102d", "is_disabled": 0, "is_reserved": 0}, {"rental_uris": {"ios": "https://dc.lft.to/lastmile_qr_scan", "android": "https://dc.lft.to/lastmile_qr_scan"}, "lon": -77.06096016666666, "type": "electric_scooter", "fusion_lat": 0.0, "lat": 38.9121795, "name": "b0f8da4d65a27556e27d8754966eb6ed", "fusion_lon": 0.0, "bike_id": "b0f8da4d65a27556e27d8754966eb6ed", "is_disabled": 0, "is_reserved": 0}, {"rental_uris": {"ios": "https://dc.lft.to/lastmile_qr_scan", "android": "https://dc.lft.to/lastmile_qr_scan"}, "lon": -77.008947, "type": "electric_scooter", "fusion_lat": 0.0, "lat": 38.9241755, "name": "287824ad3681a38699ea97f8f6b0747e", "fusion_lon": 0.0, "bike_id": "287824ad3681a38699ea97f8f6b0747e", "is_disabled": 0, "is_reserved": 0}, {"rental_uris": {"ios": "https://dc.lft.to/lastmile_qr_scan", "android": "https://dc.lft.to/lastmile_qr_scan"}, "lon": -77.04539233333334, "type": "electric_scooter", "fusion_lat": 0.0, "lat": 38.91937733333334, "name": "3a2113ebc27f9649397277f064ece3fb", "fusion_lon": 0.0, "bike_id": "3a2113ebc27f9649397277f064ece3fb", "is_disabled": 0, "is_reserved": 0}, {"rental_uris": {"ios": "https://dc.lft.to/lastmile_qr_scan", "android": "https://dc.lft.to/lastmile_qr_scan"}, "lon": -77.00589666666667, "type": "electric_scooter", "fusion_lat": 0.0, "lat": 38.90554266666667, "name": "3257ef5c865f9c341a4a0c0fde97df2e", "fusion_lon": 0.0, "bike_id": "3257ef5c865f9c341a4a0c0fde97df2e", "is_disabled": 0, "is_reserved": 0}, {"rental_uris": {"ios": "https://dc.lft.to/lastmile_qr_scan", "android": "https://dc.lft.to/lastmile_qr_scan"}, "lon": -77.02632866666667, "type": "electric_scooter", "fusion_lat": 0.0, "lat": 38.884091, "name": "ae2fcb1f7cba6116b22c7b5fa5e80e5b", "fusion_lon": 0.0, "bike_id": "ae2fcb1f7cba6116b22c7b5fa5e80e5b", "is_disabled": 0, "is_reserved": 0}, {"rental_uris": {"ios": "https://dc.lft.to/lastmile_qr_scan", "android": "https://dc.lft.to/lastmile_qr_scan"}, "lon": -77.05263733333334, "type": "electric_scooter", "fusion_lat": 0.0, "lat": 38.910095166666665, "name": "1e4311b367d8c8bce15e6dbb47dad093", "fusion_lon": 0.0, "bike_id": "1e4311b367d8c8bce15e6dbb47dad093", "is_disabled": 0, "is_reserved": 0}, {"rental_uris": {"ios": "https://dc.lft.to/lastmile_qr_scan", "android": "https://dc.lft.to/lastmile_qr_scan"}, "lon": -77.03972983333334, "type": "electric_scooter", "fusion_lat": 0.0, "lat": 38.90274983333333, "name": "f2a4fbaa48946e2587c59fea95ed6c79", "fusion_lon": 0.0, "bike_id": "f2a4fbaa48946e2587c59fea95ed6c79", "is_disabled": 0, "is_reserved": 0}, {"rental_uris": {"ios": "https://dc.lft.to/lastmile_qr_scan", "android": "https://dc.lft.to/lastmile_qr_scan"}, "lon": -76.9732995, "type": "electric_bike", "fusion_lat": 0.0, "lat": 38.85058016666667, "name": "98d2346bea48a1ffcbef38f612c9a9cf", "fusion_lon": 0.0, "bike_id": "98d2346bea48a1ffcbef38f612c9a9cf", "is_disabled": 0, "is_reserved": 0}, {"rental_uris": {"ios": "https://dc.lft.to/lastmile_qr_scan", "android": "https://dc.lft.to/lastmile_qr_scan"}, "lon": -77.03196266666667, "type": "electric_scooter", "fusion_lat": 0.0, "lat": 38.9170705, "name": "3bd3f7c1901880140d72b2d5d331b6cc", "fusion_lon": 0.0, "bike_id": "3bd3f7c1901880140d72b2d5d331b6cc", "is_disabled": 0, "is_reserved": 0}, {"rental_uris": {"ios": "https://dc.lft.to/lastmile_qr_scan", "android": "https://dc.lft.to/lastmile_qr_scan"}, "lon": -77.04733933333333, "type": "electric_scooter", "fusion_lat": 0.0, "lat": 38.90720316666667, "name": "efea2d74dd2bdccc0c03779217090f1a", "fusion_lon": 0.0, "bike_id": "efea2d74dd2bdccc0c03779217090f1a", "is_disabled": 0, "is_reserved": 0}, {"rental_uris": {"ios": "https://dc.lft.to/lastmile_qr_scan", "android": "https://dc.lft.to/lastmile_qr_scan"}, "lon": -77.02725483333333, "type": "electric_scooter", "fusion_lat": 0.0, "lat": 38.92480666666667, "name": "36b0faf17c734eca3174c87e5081a927", "fusion_lon": 0.0, "bike_id": "36b0faf17c734eca3174c87e5081a927", "is_disabled": 0, "is_reserved": 0}, {"rental_uris": {"ios": "https://dc.lft.to/lastmile_qr_scan", "android": "https://dc.lft.to/lastmile_qr_scan"}, "lon": -77.03183683333333, "type": "electric_scooter", "fusion_lat": 0.0, "lat": 38.9132185, "name": "c808ed7faa4a873108340a895a756da7", "fusion_lon": 0.0, "bike_id": "c808ed7faa4a873108340a895a756da7", "is_disabled": 0, "is_reserved": 0}, {"rental_uris": {"ios": "https://dc.lft.to/lastmile_qr_scan", "android": "https://dc.lft.to/lastmile_qr_scan"}, "lon": -76.98179916666666, "type": "electric_scooter", "fusion_lat": 0.0, "lat": 38.895814, "name": "8ba466b0609bb2bcbc699896c0185c59", "fusion_lon": 0.0, "bike_id": "8ba466b0609bb2bcbc699896c0185c59", "is_disabled": 0, "is_reserved": 0}, {"rental_uris": {"ios": "https://dc.lft.to/lastmile_qr_scan", "android": "https://dc.lft.to/lastmile_qr_scan"}, "lon": -76.90960183333334, "type": "electric_bike", "fusion_lat": 0.0, "lat": 38.854324, "name": "83ab1acf9fbe7392553075eb94e8d298", "fusion_lon": 0.0, "bike_id": "83ab1acf9fbe7392553075eb94e8d298", "is_disabled": 0, "is_reserved": 0}, {"rental_uris": {"ios": "https://dc.lft.to/lastmile_qr_scan", "android": "https://dc.lft.to/lastmile_qr_scan"}, "lon": -76.982553, "type": "electric_scooter", "fusion_lat": 0.0, "lat": 38.90866333333334, "name": "af407fbd08aa294ad8ec059bb72d4e88", "fusion_lon": 0.0, "bike_id": "af407fbd08aa294ad8ec059bb72d4e88", "is_disabled": 0, "is_reserved": 0}, {"rental_uris": {"ios": "https://dc.lft.to/lastmile_qr_scan", "android": "https://dc.lft.to/lastmile_qr_scan"}, "lon": -77.01931833333333, "type": "electric_scooter", "fusion_lat": 0.0, "lat": 38.902384833333336, "name": "e5edb939b7b478c90f484a1cfdab310a", "fusion_lon": 0.0, "bike_id": "e5edb939b7b478c90f484a1cfdab310a", "is_disabled": 0, "is_reserved": 0}, {"rental_uris": {"ios": "https://dc.lft.to/lastmile_qr_scan", "android": "https://dc.lft.to/lastmile_qr_scan"}, "lon": -77.01869483333333, "type": "electric_scooter", "fusion_lat": 0.0, "lat": 38.887443166666664, "name": "6f077f9c10a645c0e96634109f92ae1e", "fusion_lon": 0.0, "bike_id": "6f077f9c10a645c0e96634109f92ae1e", "is_disabled": 0, "is_reserved": 0}, {"rental_uris": {"ios": "https://dc.lft.to/lastmile_qr_scan", "android": "https://dc.lft.to/lastmile_qr_scan"}, "lon": -77.00974616666667, "type": "electric_scooter", "fusion_lat": 0.0, "lat": 38.91921033333333, "name": "987cf5bfe0d4c46e55dc54650a55a7c4", "fusion_lon": 0.0, "bike_id": "987cf5bfe0d4c46e55dc54650a55a7c4", "is_disabled": 0, "is_reserved": 0}, {"rental_uris": {"ios": "https://dc.lft.to/lastmile_qr_scan", "android": "https://dc.lft.to/lastmile_qr_scan"}, "lon": -77.0418085, "type": "electric_scooter", "fusion_lat": 0.0, "lat": 38.92007866666667, "name": "7dbf0dd3c6047394e060ee3312e5e777", "fusion_lon": 0.0, "bike_id": "7dbf0dd3c6047394e060ee3312e5e777", "is_disabled": 0, "is_reserved": 0}, {"rental_uris": {"ios": "https://dc.lft.to/lastmile_qr_scan", "android": "https://dc.lft.to/lastmile_qr_scan"}, "lon": -77.0218595, "type": "electric_scooter", "fusion_lat": 0.0, "lat": 38.93952933333333, "name": "cb2cc66ab91a4993fb280dd973d20318", "fusion_lon": 0.0, "bike_id": "cb2cc66ab91a4993fb280dd973d20318", "is_disabled": 0, "is_reserved": 0}, {"rental_uris": {"ios": "https://dc.lft.to/lastmile_qr_scan", "android": "https://dc.lft.to/lastmile_qr_scan"}, "lon": -77.04542566666667, "type": "electric_scooter", "fusion_lat": 0.0, "lat": 38.933881, "name": "29441aa7e6a1a49ea98c98b31ffbd027", "fusion_lon": 0.0, "bike_id": "29441aa7e6a1a49ea98c98b31ffbd027", "is_disabled": 0, "is_reserved": 0}, {"rental_uris": {"ios": "https://dc.lft.to/lastmile_qr_scan", "android": "https://dc.lft.to/lastmile_qr_scan"}, "lon": -77.0302, "type": "electric_scooter", "fusion_lat": 0.0, "lat": 38.91009833333333, "name": "6041ca84554ac111a000a577b230b918", "fusion_lon": 0.0, "bike_id": "6041ca84554ac111a000a577b230b918", "is_disabled": 0, "is_reserved": 0}, {"rental_uris": {"ios": "https://dc.lft.to/lastmile_qr_scan", "android": "https://dc.lft.to/lastmile_qr_scan"}, "lon": -77.02554066666667, "type": "electric_scooter", "fusion_lat": 0.0, "lat": 38.92469333333333, "name": "df0425d1976f57dbe3e050866a282e17", "fusion_lon": 0.0, "bike_id": "df0425d1976f57dbe3e050866a282e17", "is_disabled": 0, "is_reserved": 0}, {"rental_uris": {"ios": "https://dc.lft.to/lastmile_qr_scan", "android": "https://dc.lft.to/lastmile_qr_scan"}, "lon": -76.94887233333333, "type": "electric_scooter", "fusion_lat": 0.0, "lat": 38.89525883333334, "name": "e6bf08a9c960984c30376eecb5473f23", "fusion_lon": 0.0, "bike_id": "e6bf08a9c960984c30376eecb5473f23", "is_disabled": 0, "is_reserved": 0}, {"rental_uris": {"ios": "https://dc.lft.to/lastmile_qr_scan", "android": "https://dc.lft.to/lastmile_qr_scan"}, "lon": -77.04009316666667, "type": "electric_scooter", "fusion_lat": 0.0, "lat": 38.8888695, "name": "8c48d7ad4e203c53636cc93b6ddb8aff", "fusion_lon": 0.0, "bike_id": "8c48d7ad4e203c53636cc93b6ddb8aff", "is_disabled": 0, "is_reserved": 0}, {"rental_uris": {"ios": "https://dc.lft.to/lastmile_qr_scan", "android": "https://dc.lft.to/lastmile_qr_scan"}, "lon": -77.00372783333333, "type": "electric_bike", "fusion_lat": 0.0, "lat": 38.8359815, "name": "3a3bde460f082b0f62bc3e0e31d796cb", "fusion_lon": 0.0, "bike_id": "3a3bde460f082b0f62bc3e0e31d796cb", "is_disabled": 0, "is_reserved": 0}, {"rental_uris": {"ios": "https://dc.lft.to/lastmile_qr_scan", "android": "https://dc.lft.to/lastmile_qr_scan"}, "lon": -77.02785416666667, "type": "electric_scooter", "fusion_lat": 0.0, "lat": 38.961949, "name": "46a0706ebdd76944e5c88b89143e07ba", "fusion_lon": 0.0, "bike_id": "46a0706ebdd76944e5c88b89143e07ba", "is_disabled": 0, "is_reserved": 0}, {"rental_uris": {"ios": "https://dc.lft.to/lastmile_qr_scan", "android": "https://dc.lft.to/lastmile_qr_scan"}, "lon": -77.03779516666667, "type": "electric_scooter", "fusion_lat": 0.0, "lat": 38.922182166666666, "name": "52039c0c72df6517ac6045e4029314c5", "fusion_lon": 0.0, "bike_id": "52039c0c72df6517ac6045e4029314c5", "is_disabled": 0, "is_reserved": 0}, {"rental_uris": {"ios": "https://dc.lft.to/lastmile_qr_scan", "android": "https://dc.lft.to/lastmile_qr_scan"}, "lon": -77.00364133333333, "type": "electric_scooter", "fusion_lat": 0.0, "lat": 38.8380155, "name": "0781b9a2e7ee5e44d1c972d3d8a84ffc", "fusion_lon": 0.0, "bike_id": "0781b9a2e7ee5e44d1c972d3d8a84ffc", "is_disabled": 0, "is_reserved": 0}, {"rental_uris": {"ios": "https://dc.lft.to/lastmile_qr_scan", "android": "https://dc.lft.to/lastmile_qr_scan"}, "lon": -77.05058533333333, "type": "electric_scooter", "fusion_lat": 0.0, "lat": 38.905393833333335, "name": "6d0207c128c373d3d5354ed0af831be0", "fusion_lon": 0.0, "bike_id": "6d0207c128c373d3d5354ed0af831be0", "is_disabled": 0, "is_reserved": 0}, {"rental_uris": {"ios": "https://dc.lft.to/lastmile_qr_scan", "android": "https://dc.lft.to/lastmile_qr_scan"}, "lon": -77.03250666666666, "type": "electric_bike", "fusion_lat": 0.0, "lat": 38.933804, "name": "ba5db15578e73992cfa07e1f16c42f1a", "fusion_lon": 0.0, "bike_id": "ba5db15578e73992cfa07e1f16c42f1a", "is_disabled": 0, "is_reserved": 0}, {"rental_uris": {"ios": "https://dc.lft.to/lastmile_qr_scan", "android": "https://dc.lft.to/lastmile_qr_scan"}, "lon": -76.946338, "type": "electric_scooter", "fusion_lat": 0.0, "lat": 38.898319666666666, "name": "28e8000e48d2b382149b224e654f02c6", "fusion_lon": 0.0, "bike_id": "28e8000e48d2b382149b224e654f02c6", "is_disabled": 0, "is_reserved": 0}, {"rental_uris": {"ios": "https://dc.lft.to/lastmile_qr_scan", "android": "https://dc.lft.to/lastmile_qr_scan"}, "lon": -77.0385595, "type": "electric_scooter", "fusion_lat": 0.0, "lat": 38.91557366666667, "name": "de8b09b5943ad462cee1a0c00e5da258", "fusion_lon": 0.0, "bike_id": "de8b09b5943ad462cee1a0c00e5da258", "is_disabled": 0, "is_reserved": 0}, {"rental_uris": {"ios": "https://dc.lft.to/lastmile_qr_scan", "android": "https://dc.lft.to/lastmile_qr_scan"}, "lon": -77.0217185, "type": "electric_scooter", "fusion_lat": 0.0, "lat": 38.897155166666664, "name": "79a91c6bb88345dfc5b4fdd72aa0ac39", "fusion_lon": 0.0, "bike_id": "79a91c6bb88345dfc5b4fdd72aa0ac39", "is_disabled": 0, "is_reserved": 0}, {"rental_uris": {"ios": "https://dc.lft.to/lastmile_qr_scan", "android": "https://dc.lft.to/lastmile_qr_scan"}, "lon": -77.095494, "type": "electric_bike", "fusion_lat": 0.0, "lat": 38.837325666666665, "name": "ba016132fadb7670f530905bf2139618", "fusion_lon": 0.0, "bike_id": "ba016132fadb7670f530905bf2139618", "is_disabled": 0, "is_reserved": 0}, {"rental_uris": {"ios": "https://dc.lft.to/lastmile_qr_scan", "android": "https://dc.lft.to/lastmile_qr_scan"}, "lon": -76.99865733333333, "type": "electric_scooter", "fusion_lat": 0.0, "lat": 38.90021016666667, "name": "7d33a86eae9381dbe535750033423b8f", "fusion_lon": 0.0, "bike_id": "7d33a86eae9381dbe535750033423b8f", "is_disabled": 0, "is_reserved": 0}, {"rental_uris": {"ios": "https://dc.lft.to/lastmile_qr_scan", "android": "https://dc.lft.to/lastmile_qr_scan"}, "lon": -77.05079516666666, "type": "electric_scooter", "fusion_lat": 0.0, "lat": 38.924539833333334, "name": "b152f7872876fa4122cd635be6940d82", "fusion_lon": 0.0, "bike_id": "b152f7872876fa4122cd635be6940d82", "is_disabled": 0, "is_reserved": 0}, {"rental_uris": {"ios": "https://dc.lft.to/lastmile_qr_scan", "android": "https://dc.lft.to/lastmile_qr_scan"}, "lon": -77.02197533333333, "type": "electric_scooter", "fusion_lat": 0.0, "lat": 38.908411, "name": "881349ec037902f7b4febf389ee81621", "fusion_lon": 0.0, "bike_id": "881349ec037902f7b4febf389ee81621", "is_disabled": 0, "is_reserved": 0}, {"rental_uris": {"ios": "https://dc.lft.to/lastmile_qr_scan", "android": "https://dc.lft.to/lastmile_qr_scan"}, "lon": -76.995137, "type": "electric_scooter", "fusion_lat": 0.0, "lat": 38.8836955, "name": "7749fe5316cdd748c06ddd1e6cd85e32", "fusion_lon": 0.0, "bike_id": "7749fe5316cdd748c06ddd1e6cd85e32", "is_disabled": 0, "is_reserved": 0}, {"rental_uris": {"ios": "https://dc.lft.to/lastmile_qr_scan", "android": "https://dc.lft.to/lastmile_qr_scan"}, "lon": -77.03540083333333, "type": "electric_scooter", "fusion_lat": 0.0, "lat": 38.92334966666667, "name": "ab5df718c90f0a98d01d975eb7ef4427", "fusion_lon": 0.0, "bike_id": "ab5df718c90f0a98d01d975eb7ef4427", "is_disabled": 0, "is_reserved": 0}, {"rental_uris": {"ios": "https://dc.lft.to/lastmile_qr_scan", "android": "https://dc.lft.to/lastmile_qr_scan"}, "lon": -77.11230416666666, "type": "electric_bike", "fusion_lat": 0.0, "lat": 38.8286455, "name": "b905780790eb45fcb8bebacbeb568367", "fusion_lon": 0.0, "bike_id": "b905780790eb45fcb8bebacbeb568367", "is_disabled": 0, "is_reserved": 0}, {"rental_uris": {"ios": "https://dc.lft.to/lastmile_qr_scan", "android": "https://dc.lft.to/lastmile_qr_scan"}, "lon": -76.99180266666667, "type": "electric_scooter", "fusion_lat": 0.0, "lat": 38.9045075, "name": "34a8ee672ca26ad9a5dac773a4723265", "fusion_lon": 0.0, "bike_id": "34a8ee672ca26ad9a5dac773a4723265", "is_disabled": 0, "is_reserved": 0}, {"rental_uris": {"ios": "https://dc.lft.to/lastmile_qr_scan", "android": "https://dc.lft.to/lastmile_qr_scan"}, "lon": -77.01999183333334, "type": "electric_scooter", "fusion_lat": 0.0, "lat": 38.897375, "name": "1460180f767d9cf2c6b329ad43255481", "fusion_lon": 0.0, "bike_id": "1460180f767d9cf2c6b329ad43255481", "is_disabled": 0, "is_reserved": 0}, {"rental_uris": {"ios": "https://dc.lft.to/lastmile_qr_scan", "android": "https://dc.lft.to/lastmile_qr_scan"}, "lon": -77.02085283333334, "type": "electric_scooter", "fusion_lat": 0.0, "lat": 38.88187533333333, "name": "22bea79b0ae4fac95ca3b5a7ad9d5211", "fusion_lon": 0.0, "bike_id": "22bea79b0ae4fac95ca3b5a7ad9d5211", "is_disabled": 0, "is_reserved": 0}, {"rental_uris": {"ios": "https://dc.lft.to/lastmile_qr_scan", "android": "https://dc.lft.to/lastmile_qr_scan"}, "lon": -77.01986533333333, "type": "electric_scooter", "fusion_lat": 0.0, "lat": 38.90025133333333, "name": "1df461f8c35149e080b5f41b9e140fad", "fusion_lon": 0.0, "bike_id": "1df461f8c35149e080b5f41b9e140fad", "is_disabled": 0, "is_reserved": 0}, {"rental_uris": {"ios": "https://dc.lft.to/lastmile_qr_scan", "android": "https://dc.lft.to/lastmile_qr_scan"}, "lon": -77.04821266666667, "type": "electric_scooter", "fusion_lat": 0.0, "lat": 38.90729733333333, "name": "9053c2fa9fc00e52ab627d9b94ddc623", "fusion_lon": 0.0, "bike_id": "9053c2fa9fc00e52ab627d9b94ddc623", "is_disabled": 0, "is_reserved": 0}, {"rental_uris": {"ios": "https://dc.lft.to/lastmile_qr_scan", "android": "https://dc.lft.to/lastmile_qr_scan"}, "lon": -77.03263783333334, "type": "electric_scooter", "fusion_lat": 0.0, "lat": 38.9478795, "name": "a964583189c41d45a6764c6cf8701147", "fusion_lon": 0.0, "bike_id": "a964583189c41d45a6764c6cf8701147", "is_disabled": 0, "is_reserved": 0}, {"rental_uris": {"ios": "https://dc.lft.to/lastmile_qr_scan", "android": "https://dc.lft.to/lastmile_qr_scan"}, "lon": -77.03280516666666, "type": "electric_scooter", "fusion_lat": 0.0, "lat": 38.939837, "name": "f0a2448f55921fa1d30e9b7b245f496e", "fusion_lon": 0.0, "bike_id": "f0a2448f55921fa1d30e9b7b245f496e", "is_disabled": 0, "is_reserved": 0}, {"rental_uris": {"ios": "https://dc.lft.to/lastmile_qr_scan", "android": "https://dc.lft.to/lastmile_qr_scan"}, "lon": -76.98684266666666, "type": "electric_scooter", "fusion_lat": 0.0, "lat": 38.882102833333335, "name": "f0324a4da2aba365e1d2bdaa2d3fc247", "fusion_lon": 0.0, "bike_id": "f0324a4da2aba365e1d2bdaa2d3fc247", "is_disabled": 0, "is_reserved": 0}, {"rental_uris": {"ios": "https://dc.lft.to/lastmile_qr_scan", "android": "https://dc.lft.to/lastmile_qr_scan"}, "lon": -76.99655466666667, "type": "electric_scooter", "fusion_lat": 0.0, "lat": 38.93221316666666, "name": "2da9b91bf5b7e17404cb1a633363481c", "fusion_lon": 0.0, "bike_id": "2da9b91bf5b7e17404cb1a633363481c", "is_disabled": 0, "is_reserved": 0}, {"rental_uris": {"ios": "https://dc.lft.to/lastmile_qr_scan", "android": "https://dc.lft.to/lastmile_qr_scan"}, "lon": -77.02213783333333, "type": "electric_scooter", "fusion_lat": 0.0, "lat": 38.91265466666667, "name": "b79855393cab802a41b5ec030c531468", "fusion_lon": 0.0, "bike_id": "b79855393cab802a41b5ec030c531468", "is_disabled": 0, "is_reserved": 0}, {"rental_uris": {"ios": "https://dc.lft.to/lastmile_qr_scan", "android": "https://dc.lft.to/lastmile_qr_scan"}, "lon": -77.02981133333333, "type": "electric_scooter", "fusion_lat": 0.0, "lat": 38.908964166666664, "name": "9a6174ef7f813ec72a3209b9cba5029a", "fusion_lon": 0.0, "bike_id": "9a6174ef7f813ec72a3209b9cba5029a", "is_disabled": 0, "is_reserved": 0}, {"rental_uris": {"ios": "https://dc.lft.to/lastmile_qr_scan", "android": "https://dc.lft.to/lastmile_qr_scan"}, "lon": -77.02178533333333, "type": "electric_bike", "fusion_lat": 0.0, "lat": 38.883319666666665, "name": "a29adc6553e4f79f7287c15e148be985", "fusion_lon": 0.0, "bike_id": "a29adc6553e4f79f7287c15e148be985", "is_disabled": 0, "is_reserved": 0}, {"rental_uris": {"ios": "https://dc.lft.to/lastmile_qr_scan", "android": "https://dc.lft.to/lastmile_qr_scan"}, "lon": -77.049811, "type": "electric_scooter", "fusion_lat": 0.0, "lat": 38.901155833333334, "name": "46dadfe8b00dcc658e6e2d0639299a82", "fusion_lon": 0.0, "bike_id": "46dadfe8b00dcc658e6e2d0639299a82", "is_disabled": 0, "is_reserved": 0}, {"rental_uris": {"ios": "https://dc.lft.to/lastmile_qr_scan", "android": "https://dc.lft.to/lastmile_qr_scan"}, "lon": -77.05680783333334, "type": "electric_scooter", "fusion_lat": 0.0, "lat": 38.9232965, "name": "e9607d468fc144bc3b381761026109d3", "fusion_lon": 0.0, "bike_id": "e9607d468fc144bc3b381761026109d3", "is_disabled": 0, "is_reserved": 0}, {"rental_uris": {"ios": "https://dc.lft.to/lastmile_qr_scan", "android": "https://dc.lft.to/lastmile_qr_scan"}, "lon": -76.9795805, "type": "electric_scooter", "fusion_lat": 0.0, "lat": 38.9037785, "name": "8a1cfb5437b61506159f515e3b7211ee", "fusion_lon": 0.0, "bike_id": "8a1cfb5437b61506159f515e3b7211ee", "is_disabled": 0, "is_reserved": 0}, {"rental_uris": {"ios": "https://dc.lft.to/lastmile_qr_scan", "android": "https://dc.lft.to/lastmile_qr_scan"}, "lon": -77.03847483333334, "type": "electric_scooter", "fusion_lat": 0.0, "lat": 38.915456, "name": "4382aff159e968b1d1fa31ede38fb9d2", "fusion_lon": 0.0, "bike_id": "4382aff159e968b1d1fa31ede38fb9d2", "is_disabled": 0, "is_reserved": 0}, {"rental_uris": {"ios": "https://dc.lft.to/lastmile_qr_scan", "android": "https://dc.lft.to/lastmile_qr_scan"}, "lon": -77.08185483333334, "type": "electric_bike", "fusion_lat": 0.0, "lat": 38.92207066666667, "name": "64a0f7ac7b9adbfff4529515ec6a8c56", "fusion_lon": 0.0, "bike_id": "64a0f7ac7b9adbfff4529515ec6a8c56", "is_disabled": 0, "is_reserved": 0}, {"rental_uris": {"ios": "https://dc.lft.to/lastmile_qr_scan", "android": "https://dc.lft.to/lastmile_qr_scan"}, "lon": -77.0285765, "type": "electric_scooter", "fusion_lat": 0.0, "lat": 38.907121, "name": "99a227263a7429959e447917b316406d", "fusion_lon": 0.0, "bike_id": "99a227263a7429959e447917b316406d", "is_disabled": 0, "is_reserved": 0}, {"rental_uris": {"ios": "https://dc.lft.to/lastmile_qr_scan", "android": "https://dc.lft.to/lastmile_qr_scan"}, "lon": -77.19910533333334, "type": "electric_bike", "fusion_lat": 0.0, "lat": 38.87530783333333, "name": "82836637a75e8ae83f5fc77b5d4e918c", "fusion_lon": 0.0, "bike_id": "82836637a75e8ae83f5fc77b5d4e918c", "is_disabled": 0, "is_reserved": 0}, {"rental_uris": {"ios": "https://dc.lft.to/lastmile_qr_scan", "android": "https://dc.lft.to/lastmile_qr_scan"}, "lon": -77.02215316666667, "type": "electric_scooter", "fusion_lat": 0.0, "lat": 38.912689, "name": "f281c1689db852cef7481075088d6419", "fusion_lon": 0.0, "bike_id": "f281c1689db852cef7481075088d6419", "is_disabled": 0, "is_reserved": 0}, {"rental_uris": {"ios": "https://dc.lft.to/lastmile_qr_scan", "android": "https://dc.lft.to/lastmile_qr_scan"}, "lon": -77.0505845, "type": "electric_scooter", "fusion_lat": 0.0, "lat": 38.9054315, "name": "20f4e1c51d9090768c5387136e2cd3a2", "fusion_lon": 0.0, "bike_id": "20f4e1c51d9090768c5387136e2cd3a2", "is_disabled": 0, "is_reserved": 0}, {"rental_uris": {"ios": "https://dc.lft.to/lastmile_qr_scan", "android": "https://dc.lft.to/lastmile_qr_scan"},