{"data": {"bikes": [{"rental_uris": {"ios": "https://dc.lft.to/lastmile_qr_scan", "android": "https://dc.lft.to/lastmile_qr_scan"}, "lon": -77.00659766666666, "type": "electric_scooter", "fusion_lat": 0.0, "lat": 38.912002, "name": "01a6725bcdd6858dd446e171854a376c", "fusion_lon": 0.0, "bike_id": "01a6725bcdd6858dd446e171854a376c", "is_disabled": 0, "is_reserved": 0}, {"rental_uris": {"ios": "https://dc.lft.to/lastmile_qr_scan", "android": "https://dc.lft.to/lastmile_qr_scan"}, "lon": -77.06101133333334, "type": "electric_scooter", "fusion_lat": 0.0, "lat": 38.937098666666664, "name": "6a084170ba5bc17131dee915b7a79225", "fusion_lon": 0.0, "bike_id": "6a084170ba5bc17131dee915b7a79225", "is_disabled": 0, "is_reserved": 0}, {"rental_uris": {"ios": "https://dc.lft.to/lastmile_qr_scan", "android": "https://dc.lft.to/lastmile_qr_scan"}, "lon": -76.9967595, "type": "electric_scooter", "fusion_lat": 0.0, "lat": 38.91001816666667, "name": "f33206665f3dc251bb1670eadd9fccf4", "fusion_lon": 0.0, "bike_id": "f33206665f3dc251bb1670eadd9fccf4", "is_disabled": 0, "is_reserved": 0}, {"rental_uris": {"ios": "https://dc.lft.to/lastmile_qr_scan", "android": "https://dc.lft.to/lastmile_qr_scan"}, "lon": -76.995182, "type": "electric_scooter", "fusion_lat": 0.0, "lat": 38.894863666666666, "name": "0321fa04ec310fe90d9141d0a3e9e1bb", "fusion_lon": 0.0, "bike_id": "0321fa04ec310fe90d9141d0a3e9e1bb", "is_disabled": 0, "is_reserved": 0}, {"rental_uris": {"ios": "https://dc.lft.to/lastmile_qr_scan", "android": "https://dc.lft.to/lastmile_qr_scan"}, "lon": -77.02719766666667, "type": "electric_scooter", "fusion_lat": 0.0, "lat": 38.934333333333335, "name": "70f28690cfe0c444b254086495e33663", "fusion_lon": 0.0, "bike_id": "70f28690cfe0c444b254086495e33663", "is_disabled": 0, "is_reserved": 0}, {"rental_uris": {"ios": "https://dc.lft.to/lastmile_qr_scan", "android": "https://dc.lft.to/lastmile_qr_scan"}, "lon": -76.99561916666667, "type": "electric_scooter", "fusion_lat": 0.0, "lat": 38.92879533333333, "name": "c6aedf5c4b4ce386b14f9f553d550886", "fusion_lon": 0.0, "bike_id": "c6aedf5c4b4ce386b14f9f553d550886", "is_disabled": 0, "is_reserved": 0}, {"rental_uris": {"ios": "https://dc.lft.to/lastmile_qr_scan", "android": "https://dc.lft.to/lastmile_qr_scan"}, "lon": -77.02619116666666, "type": "electric_scooter", "fusion_lat": 0.0, "lat": 38.91692583333333, "name": "58aba9e421fb43cd246aa72d225dde5b", "fusion_lon": 0.0, "bike_id": "58aba9e421fb43cd246aa72d225dde5b", "is_disabled": 0, "is_reserved": 0}, {"rental_uris": {"ios": "https://dc.lft.to/lastmile_qr_scan", "android": "https://dc.lft.to/lastmile_qr_scan"}, "lon": -76.93865433333333, "type": "electric_scooter", "fusion_lat": 0.0, "lat": 38.900823, "name": "ed8d541d0584a6ca1350615da6eb2530", "fusion_lon": 0.0, "bike_id": "ed8d541d0584a6ca1350615da6eb2530", "is_disabled": 0, "is_reserved": 0}, {"rental_uris": {"ios": "https://dc.lft.to/lastmile_qr_scan", "android": "https://dc.lft.to/lastmile_qr_scan"}, "lon": -76.9865465, "type": "electric_scooter", "fusion_lat": 0.0, "lat": 38.85806266666667, "name": "b1f7f65c1b71291f53d3b826269b0f4b", "fusion_lon": 0.0, "bike_id": "b1f7f65c1b71291f53d3b826269b0f4b", "is_disabled": 0, "is_reserved": 0}, {"rental_uris": {"ios": "https://dc.lft.to/lastmile_qr_scan", "android": "https://dc.lft.to/lastmile_qr_scan"}, "lon": -76.99612516666667, "type": "electric_scooter", "fusion_lat": 0.0, "lat": 38.89745116666667, "name": "0bd9ca682051a8bd086dc78b802f3aaf", "fusion_lon": 0.0, "bike_id": "0bd9ca682051a8bd086dc78b802f3aaf", "is_disabled": 0, "is_reserved": 0}, {"rental_uris": {"ios": "https://dc.lft.to/lastmile_qr_scan", "android": "https://dc.lft.to/lastmile_qr_scan"}, "lon": -77.04669933333334, "type": "electric_scooter", "fusion_lat": 0.0, "lat": 38.90754033333333, "name": "f3154f2fab7a10a0055123dd2723a717", "fusion_lon": 0.0, "bike_id": "f3154f2fab7a10a0055123dd2723a717", "is_disabled": 0, "is_reserved": 0}, {"rental_uris": {"ios": "https://dc.lft.to/lastmile_qr_scan", "android": "https://dc.lft.to/lastmile_qr_scan"}, "lon": -77.04513133333333, "type": "electric_scooter", "fusion_lat": 0.0, "lat": 38.9002815, "name": "cda890743cb89c24319719bf4fce7290", "fusion_lon": 0.0, "bike_id": "cda890743cb89c24319719bf4fce7290", "is_disabled": 0, "is_reserved": 0}, {"rental_uris": {"ios": "https://dc.lft.to/lastmile_qr_scan", "android": "https://dc.lft.to/lastmile_qr_scan"}, "lon": -77.043406, "type": "electric_scooter", "fusion_lat": 0.0, "lat": 38.89649133333333, "name": "266949eb11c4ad03c6a74d2b8bbf7587", "fusion_lon": 0.0, "bike_id": "266949eb11c4ad03c6a74d2b8bbf7587", "is_disabled": 0, "is_reserved": 0}, {"rental_uris": {"ios": "https://dc.lft.to/lastmile_qr_scan", "android": "https://dc.lft.to/lastmile_qr_scan"}, "lon": -77.02331866666667, "type": "electric_scooter", "fusion_lat": 0.0, "lat": 38.937860666666666, "name": "98adf1752d7a8321f2e4e3b870f05b46", "fusion_lon": 0.0, "bike_id": "98adf1752d7a8321f2e4e3b870f05b46", "is_disabled": 0, "is_reserved": 0}, {"rental_uris": {"ios": "https://dc.lft.to/lastmile_qr_scan", "android": "https://dc.lft.to/lastmile_qr_scan"}, "lon": -77.03676816666666, "type": "electric_scooter", "fusion_lat": 0.0, "lat": 38.90283516666667, "name": "e0b89f53903fc8d6abfa8ece2a26297e", "fusion_lon": 0.0, "bike_id": "e0b89f53903fc8d6abfa8ece2a26297e", "is_disabled": 0, "is_reserved": 0}, {"rental_uris": {"ios": "https://dc.lft.to/lastmile_qr_scan", "android": "https://dc.lft.to/lastmile_qr_scan"}, "lon": -77.07167233333334, "type": "electric_scooter", "fusion_lat": 0.0, "lat": 38.91457316666666, "name": "0e12a932bd5357ef43eacbd0211b5f59", "fusion_lon": 0.0, "bike_id": "0e12a932bd5357ef43eacbd0211b5f59", "is_disabled": 0, "is_reserved": 0}, {"rental_uris": {"ios": "https://dc.lft.to/lastmile_qr_scan", "android": "https://dc.lft.to/lastmile_qr_scan"}, "lon": -77.0334385, "type": "electric_scooter", "fusion_lat": 0.0, "lat": 38.8990285, "name": "ebdb6ec42d6264e06af7266bc4cf9727", "fusion_lon": 0.0, "bike_id": "ebdb6ec42d6264e06af7266bc4cf9727", "is_disabled": 0, "is_reserved": 0}, {"rental_uris": {"ios": "https://dc.lft.to/lastmile_qr_scan", "android": "https://dc.lft.to/lastmile_qr_scan"}, "lon": -77.02912516666666, "type": "electric_scooter", "fusion_lat": 0.0, "lat": 38.886021666666664, "name": "a38d4e5d64e0a63ffb8304cf95bce6b2", "fusion_lon": 0.0, "bike_id": "a38d4e5d64e0a63ffb8304cf95bce6b2", "is_disabled": 0, "is_reserved": 0}, {"rental_uris": {"ios": "https://dc.lft.to/lastmile_qr_scan", "android": "https://dc.lft.to/lastmile_qr_scan"}, "lon": -77.007669, "type": "electric_scooter", "fusion_lat": 0.0, "lat": 38.90660733333333, "name": "44b7fced6ab739477213e8318c35063c", "fusion_lon": 0.0, "bike_id": "44b7fced6ab739477213e8318c35063c", "is_disabled": 0, "is_reserved": 0}, {"rental_uris": {"ios": "https://dc.lft.to/lastmile_qr_scan", "android": "https://dc.lft.to/lastmile_qr_scan"}, "lon": -77.013656, "type": "electric_scooter", "fusion_lat": 0.0, "lat": 38.863722333333335, "name": "fcb09531a33da72f098cb1a746155a92", "fusion_lon": 0.0, "bike_id": "fcb09531a33da72f098cb1a746155a92", "is_disabled": 0, "is_reserved": 0}, {"rental_uris": {"ios": "https://dc.lft.to/lastmile_qr_scan", "android": "https://dc.lft.to/lastmile_qr_scan"}, "lon": -77.0694615, "type": "electric_scooter", "fusion_lat": 0.0, "lat": 38.9051495, "name": "83532469776723d2611005990c23cee8", "fusion_lon": 0.0, "bike_id": "83532469776723d2611005990c23cee8", "is_disabled": 0, "is_reserved": 0}, {"rental_uris": {"ios": "https://dc.lft.to/lastmile_qr_scan", "android": "https://dc.lft.to/lastmile_qr_scan"}, "lon": -77.04202916666667, "type": "electric_scooter", "fusion_lat": 0.0, "lat": 38.911058833333335, "name": "a5f364eff0da0041ab3cf58a3a242ae5", "fusion_lon": 0.0, "bike_id": "a5f364eff0da0041ab3cf58a3a242ae5", "is_disabled": 0, "is_reserved": 0}, {"rental_uris": {"ios": "https://dc.lft.to/lastmile_qr_scan", "android": "https://dc.lft.to/lastmile_qr_scan"}, "lon": -77.03556483333334, "type": "electric_scooter", "fusion_lat": 0.0, "lat": 38.918021, "name": "f85eb8223eaa2d525bcffe5e33c6c3c3", "fusion_lon": 0.0, "bike_id": "f85eb8223eaa2d525bcffe5e33c6c3c3", "is_disabled": 0, "is_reserved": 0}, {"rental_uris": {"ios": "https://dc.lft.to/lastmile_qr_scan", "android": "https://dc.lft.to/lastmile_qr_scan"}, "lon": -77.02714833333333, "type": "electric_scooter", "fusion_lat": 0.0, "lat": 38.9346375, "name": "f9f1f86d200a87c4dcd99d942c3f312a", "fusion_lon": 0.0, "bike_id": "f9f1f86d200a87c4dcd99d942c3f312a", "is_disabled": 0, "is_reserved": 0}, {"rental_uris": {"ios": "https://dc.lft.to/lastmile_qr_scan", "android": "https://dc.lft.to/lastmile_qr_scan"}, "lon": -77.032345, "type": "electric_scooter", "fusion_lat": 0.0, "lat": 38.92763583333333, "name": "95ef73acb7c5151a1ced614cc7555c32", "fusion_lon": 0.0, "bike_id": "95ef73acb7c5151a1ced614cc7555c32", "is_disabled": 0, "is_reserved": 0}, {"rental_uris": {"ios": "https://dc.lft.to/lastmile_qr_scan", "android": "https://dc.lft.to/lastmile_qr_scan"}, "lon": -77.04794516666666, "type": "electric_scooter", "fusion_lat": 0.0, "lat": 38.916341, "name": "a1ea49da6842f7bdf52fd9625d5e7527", "fusion_lon": 0.0, "bike_id": "a1ea49da6842f7bdf52fd9625d5e7527", "is_disabled": 0, "is_reserved": 0}, {"rental_uris": {"ios": "https://dc.lft.to/lastmile_qr_scan", "android": "https://dc.lft.to/lastmile_qr_scan"}, "lon": -77.00732833333333, "type": "electric_scooter", "fusion_lat": 0.0, "lat": 38.8783625, "name": "375f68d4d12599053c89277fc4917aab", "fusion_lon": 0.0, "bike_id": "375f68d4d12599053c89277fc4917aab", "is_disabled": 0, "is_reserved": 0}, {"rental_uris": {"ios": "https://dc.lft.to/lastmile_qr_scan", "android": "https://dc.lft.to/lastmile_qr_scan"}, "lon": -76.9925805, "type": "electric_scooter", "fusion_lat": 0.0, "lat": 38.919723833333336, "name": "af47439a3f7093155e52f776a58c5b54", "fusion_lon": 0.0, "bike_id": "af47439a3f7093155e52f776a58c5b54", "is_disabled": 0, "is_reserved": 0}, {"rental_uris": {"ios": "https://dc.lft.to/lastmile_qr_scan", "android": "https://dc.lft.to/lastmile_qr_scan"}, "lon": -77.018066, "type": "electric_scooter", "fusion_lat": 0.0, "lat": 38.90423783333333, "name": "1a27ad0f4ccee5a0bb092cf829917300", "fusion_lon": 0.0, "bike_id": "1a27ad0f4ccee5a0bb092cf829917300", "is_disabled": 0, "is_reserved": 0}, {"rental_uris": {"ios": "https://dc.lft.to/lastmile_qr_scan", "android": "https://dc.lft.to/lastmile_qr_scan"}, "lon": -77.02385783333334, "type": "electric_scooter", "fusion_lat": 0.0, "lat": 38.937641166666666, "name": "adc1f9eb95fd76e840e8d1656e079d4b", "fusion_lon": 0.0, "bike_id": "adc1f9eb95fd76e840e8d1656e079d4b", "is_disabled": 0, "is_reserved": 0}, {"rental_uris": {"ios": "https://dc.lft.to/lastmile_qr_scan", "android": "https://dc.lft.to/lastmile_qr_scan"}, "lon": -77.11525016666667, "type": "electric_bike", "fusion_lat": 0.0, "lat": 38.8549345, "name": "1c51a63df343adbac668436591835102", "fusion_lon": 0.0, "bike_id": "1c51a63df343adbac668436591835102", "is_disabled": 0, "is_reserved": 0}, {"rental_uris": {"ios": "https://dc.lft.to/lastmile_qr_scan", "android": "https://dc.lft.to/lastmile_qr_scan"}, "lon": -77.057453, "type": "electric_scooter", "fusion_lat": 0.0, "lat": 38.934019, "name": "7031afd5938dc7316c480aabf391e8a0", "fusion_lon": 0.0, "bike_id": "7031afd5938dc7316c480aabf391e8a0", "is_disabled": 0, "is_reserved": 0}, {"rental_uris": {"ios": "https://dc.lft.to/lastmile_qr_scan", "android": "https://dc.lft.to/lastmile_qr_scan"}, "lon": -77.01207966666666, "type": "electric_scooter", "fusion_lat": 0.0, "lat": 38.92122833333333, "name": "e7213f9954e02e86c5267eaf7259f0c3", "fusion_lon": 0.0, "bike_id": "e7213f9954e02e86c5267eaf7259f0c3", "is_disabled": 0, "is_reserved": 0}, {"rental_uris": {"ios": "https://dc.lft.to/lastmile_qr_scan", "android": "https://dc.lft.to/lastmile_qr_scan"}, "lon": -77.03177966666667, "type": "electric_scooter", "fusion_lat": 0.0, "lat": 38.91490133333333, "name": "47c9bc5074d3b77450e79bbfc8e605af", "fusion_lon": 0.0, "bike_id": "47c9bc5074d3b77450e79bbfc8e605af", "is_disabled": 0, "is_reserved": 0}, {"rental_uris": {"ios": "https://dc.lft.to/lastmile_qr_scan", "android": "https://dc.lft.to/lastmile_qr_scan"}, "lon": -77.032176, "type": "electric_scooter", "fusion_lat": 0.0, "lat": 38.92000183333333, "name": "6a5f9bade0c493f303f431486c422c65", "fusion_lon": 0.0, "bike_id": "6a5f9bade0c493f303f431486c422c65", "is_disabled": 0, "is_reserved": 0}, {"rental_uris": {"ios": "https://dc.lft.to/lastmile_qr_scan", "android": "https://dc.lft.to/lastmile_qr_scan"}, "lon": -77.03199666666667, "type": "electric_scooter", "fusion_lat": 0.0, "lat": 38.885611, "name": "ad86b25c035768a1cf73ab6a9c458dfa", "fusion_lon": 0.0, "bike_id": "ad86b25c035768a1cf73ab6a9c458dfa", "is_disabled": 0, "is_reserved": 0}, {"rental_uris": {"ios": "https://dc.lft.to/lastmile_qr_scan", "android": "https://dc.lft.to/lastmile_qr_scan"}, "lon": -76.982002, "type": "electric_scooter", "fusion_lat": 0.0, "lat": 38.9039205, "name": "4ab3b014ffbcd02529416d61cd9507b4", "fusion_lon": 0.0, "bike_id": "4ab3b014ffbcd02529416d61cd9507b4", "is_disabled": 0, "is_reserved": 0}, {"rental_uris": {"ios": "https://dc.lft.to/lastmile_qr_scan", "android": "https://dc.lft.to/lastmile_qr_scan"}, "lon": -77.03135216666666, "type": "electric_scooter", "fusion_lat": 0.0, "lat": 38.92368916666667, "name": "989d6d3918a456297b2ca40b0e4a810e", "fusion_lon": 0.0, "bike_id": "989d6d3918a456297b2ca40b0e4a810e", "is_disabled": 0, "is_reserved": 0}, {"rental_uris": {"ios": "https://dc.lft.to/lastmile_qr_scan", "android": "https://dc.lft.to/lastmile_qr_scan"}, "lon": -77.02593966666667, "type": "electric_scooter", "fusion_lat": 0.0, "lat": 38.92033133333334, "name": "1ec96b942f2a672ddcf56e3e3abc39f6", "fusion_lon": 0.0, "bike_id": "1ec96b942f2a672ddcf56e3e3abc39f6", "is_disabled": 0, "is_reserved": 0}, {"rental_uris": {"ios": "https://dc.lft.to/lastmile_qr_scan", "android": "https://dc.lft.to/lastmile_qr_scan"}, "lon": -77.04140066666666, "type": "electric_scooter", "fusion_lat": 0.0, "lat": 38.922991833333334, "name": "566749f1840800fc8ecb70697e2831a8", "fusion_lon": 0.0, "bike_id": "566749f1840800fc8ecb70697e2831a8", "is_disabled": 0, "is_reserved": 0}, {"rental_uris": {"ios": "https://dc.lft.to/lastmile_qr_scan", "android": "https://dc.lft.to/lastmile_qr_scan"}, "lon": -77.064946, "type": "electric_bike", "fusion_lat": 0.0, "lat": 38.964922, "name": "2f618c34716e5701cf3302ceeef729b4", "fusion_lon": 0.0, "bike_id": "2f618c34716e5701cf3302ceeef729b4", "is_disabled": 0, "is_reserved": 0}, {"rental_uris": {"ios": "https://dc.lft.to/lastmile_qr_scan", "android": "https://dc.lft.to/lastmile_qr_scan"}, "lon": -77.03226583333333, "type": "electric_scooter", "fusion_lat": 0.0, "lat": 38.92670866666667, "name": "b98aab501f1453297d460d25fc763c17", "fusion_lon": 0.0, "bike_id": "b98aab501f1453297d460d25fc763c17", "is_disabled": 0, "is_reserved": 0}, {"rental_uris": {"ios": "https://dc.lft.to/lastmile_qr_scan", "android": "https://dc.lft.to/lastmile_qr_scan"}, "lon": -76.99381383333333, "type": "electric_scooter", "fusion_lat": 0.0, "lat": 38.88747516666667, "name": "7d0320f9636d89d80761cea9ca5c4b4a", "fusion_lon": 0.0, "bike_id": "7d0320f9636d89d80761cea9ca5c4b4a", "is_disabled": 0, "is_reserved": 0}, {"rental_uris": {"ios": "https://dc.lft.to/lastmile_qr_scan", "android": "https://dc.lft.to/lastmile_qr_scan"}, "lon": -77.04224683333334, "type": "electric_scooter", "fusion_lat": 0.0, "lat": 38.921147, "name": "8d517b2d8c41b9da5bd00a7825c90e7f", "fusion_lon": 0.0, "bike_id": "8d517b2d8c41b9da5bd00a7825c90e7f", "is_disabled": 0, "is_reserved": 0}, {"rental_uris": {"ios": "https://dc.lft.to/lastmile_qr_scan", "android": "https://dc.lft.to/lastmile_qr_scan"}, "lon": -77.00139166666666, "type": "electric_scooter", "fusion_lat": 0.0, "lat": 38.91907333333333, "name": "9e575211840106809bf82f26a3b56198", "fusion_lon": 0.0, "bike_id": "9e575211840106809bf82f26a3b56198", "is_disabled": 0, "is_reserved": 0}, {"rental_uris": {"ios": "https://dc.lft.to/lastmile_qr_scan", "android": "https://dc.lft.to/lastmile_qr_scan"}, "lon": -76.944204, "type": "electric_scooter", "fusion_lat": 0.0, "lat": 38.89794783333333, "name": "683e181335b5857d2e1c21781783fbad", "fusion_lon": 0.0, "bike_id": "683e181335b5857d2e1c21781783fbad", "is_disabled": 0, "is_reserved": 0}, {"rental_uris": {"ios": "https://dc.lft.to/lastmile_qr_scan", "android": "https://dc.lft.to/lastmile_qr_scan"}, "lon": -76.9834815, "type": "electric_scooter", "fusion_lat": 0.0, "lat": 38.91538466666667, "name": "bc3d51823009c73ac77e003b4ac0b95c", "fusion_lon": 0.0, "bike_id": "bc3d51823009c73ac77e003b4ac0b95c", "is_disabled": 0, "is_reserved": 0}, {"rental_uris": {"ios": "https://dc.lft.to/lastmile_qr_scan", "android": "https://dc.lft.to/lastmile_qr_scan"}, "lon": -77.03446066666666, "type": "electric_scooter", "fusion_lat": 0.0, "lat": 38.902997666666664, "name": "b168b3604ab6cb7fee50cf7b43107fcf", "fusion_lon": 0.0, "bike_id": "b168b3604ab6cb7fee50cf7b43107fcf", "is_disabled": 0, "is_reserved": 0}, {"rental_uris": {"ios": "https://dc.lft.to/lastmile_qr_scan", "android": "https://dc.lft.to/lastmile_qr_scan"}, "lon": -77.03450166666667, "type": "electric_scooter", "fusion_lat": 0.0, "lat": 38.91878666666667, "name": "0ccb577aef230bbd9840549a68ca6f73", "fusion_lon": 0.0, "bike_id": "0ccb577aef230bbd9840549a68ca6f73", "is_disabled": 0, "is_reserved": 0}, {"rental_uris": {"ios": "https://dc.lft.to/lastmile_qr_scan", "android": "https://dc.lft.to/lastmile_qr_scan"}, "lon": -77.0350875, "type": "electric_scooter", "fusion_lat": 0.0, "lat": 38.92153, "name": "13b56249527cea920e0fd88139c914d2", "fusion_lon": 0.0, "bike_id": "13b56249527cea920e0fd88139c914d2", "is_disabled": 0, "is_reserved": 0}, {"rental_uris": {"ios": "https://dc.lft.to/lastmile_qr_scan", "android": "https://dc.lft.to/lastmile_qr_scan"}, "lon": -77.02473383333333, "type": "electric_scooter", "fusion_lat": 0.0, "lat": 38.91816083333333, "name": "09353576a991879a674d96f7946d53cc", "fusion_lon": 0.0, "bike_id": "09353576a991879a674d96f7946d53cc", "is_disabled": 0, "is_reserved": 0}, {"rental_uris": {"ios": "https://dc.lft.to/lastmile_qr_scan", "android": "https://dc.lft.to/lastmile_qr_scan"}, "lon": -77.03860533333334, "type": "electric_scooter", "fusion_lat": 0.0, "lat": 38.92015966666666, "name": "a3ad874d2c69f9d6742fdb0c7359faaa", "fusion_lon": 0.0, "bike_id": "a3ad874d2c69f9d6742fdb0c7359faaa", "is_disabled": 0, "is_reserved": 0}, {"rental_uris": {"ios": "https://dc.lft.to/lastmile_qr_scan", "android": "https://dc.lft.to/lastmile_qr_scan"}, "lon": -77.03609616666667, "type": "electric_scooter", "fusion_lat": 0.0, "lat": 38.923314833333336, "name": "de48bfc6a7ae57467de6c93d3ddcfa20", "fusion_lon": 0.0, "bike_id": "de48bfc6a7ae57467de6c93d3ddcfa20", "is_disabled": 0, "is_reserved": 0}, {"rental_uris": {"ios": "https://dc.lft.to/lastmile_qr_scan", "android": "https://dc.lft.to/lastmile_qr_scan"}, "lon": -77.03511416666667, "type": "electric_bike", "fusion_lat": 0.0, "lat": 38.965272, "name": "cddeaab849c1e12e07bcd47a02d62adc", "fusion_lon": 0.0, "bike_id": "cddeaab849c1e12e07bcd47a02d62adc", "is_disabled": 0, "is_reserved": 0}, {"rental_uris": {"ios": "https://dc.lft.to/lastmile_qr_scan", "android": "https://dc.lft.to/lastmile_qr_scan"}, "lon": -76.97884283333333, "type": "electric_scooter", "fusion_lat": 0.0, "lat": 38.8851415, "name": "3d677b8a3af8fea0f84ef4b6b30bae0b", "fusion_lon": 0.0, "bike_id": "3d677b8a3af8fea0f84ef4b6b30bae0b", "is_disabled": 0, "is_reserved": 0}, {"rental_uris": {"ios": "https://dc.lft.to/lastmile_qr_scan", "android": "https://dc.lft.to/lastmile_qr_scan"}, "lon": -76.986976, "type": "electric_scooter", "fusion_lat": 0.0, "lat": 38.907045833333335, "name": "aa3204a49ec7e8cf04e63e0252564202", "fusion_lon": 0.0, "bike_id": "aa3204a49ec7e8cf04e63e0252564202", "is_disabled": 0, "is_reserved": 0}, {"rental_uris": {"ios": "https://dc.lft.to/lastmile_qr_scan", "android": "https://dc.lft.to/lastmile_qr_scan"}, "lon": -77.01484, "type": "electric_scooter", "fusion_lat": 0.0, "lat": 38.881234, "name": "e840a22724f9c1dee5a24b902e7cbdb6", "fusion_lon": 0.0, "bike_id": "e840a22724f9c1dee5a24b902e7cbdb6", "is_disabled": 0, "is_reserved": 0}, {"rental_uris": {"ios": "https://dc.lft.to/lastmile_qr_scan", "android": "https://dc.lft.to/lastmile_qr_scan"}, "lon": -77.02619883333334, "type": "electric_scooter", "fusion_lat": 0.0, "lat": 38.905628666666665, "name": "1845fb365013d88323bd761f9900eab4", "fusion_lon": 0.0, "bike_id": "1845fb365013d88323bd761f9900eab4", "is_disabled": 0, "is_reserved": 0}, {"rental_uris": {"ios": "https://dc.lft.to/lastmile_qr_scan", "android": "https://dc.lft.to/lastmile_qr_scan"}, "lon": -77.04050966666667, "type": "electric_scooter", "fusion_lat": 0.0, "lat": 38.902716, "name": "581e1ca1ef30d155c9aa6318af7dfa59", "fusion_lon": 0.0, "bike_id": "581e1ca1ef30d155c9aa6318af7dfa59", "is_disabled": 0, "is_reserved": 0}, {"rental_uris": {"ios": "https://dc.lft.to/lastmile_qr_scan", "android": "https://dc.lft.to/lastmile_qr_scan"}, "lon": -77.0005625, "type": "electric_scooter", "fusion_lat": 0.0, "lat": 38.90728033333333, "name": "31d3c85b2d18d60e2fcce9d69ab62c93", "fusion_lon": 0.0, "bike_id": "31d3c85b2d18d60e2fcce9d69ab62c93", "is_disabled": 0, "is_reserved": 0}, {"rental_uris": {"ios": "https://dc.lft.to/lastmile_qr_scan", "android": "https://dc.lft.to/lastmile_qr_scan"}, "lon": -77.010903, "type": "electric_scooter", "fusion_lat": 0.0, "lat": 38.894953666666666, "name": "e1e1e39a91d05582ebaae611163f5800", "fusion_lon": 0.0, "bike_id": "e1e1e39a91d05582ebaae611163f5800", "is_disabled": 0, "is_reserved": 0}, {"rental_uris": {"ios": "https://dc.lft.to/lastmile_qr_scan", "android": "https://dc.lft.to/lastmile_qr_scan"}, "lon": -76.9982135, "type": "electric_bike", "fusion_lat": 0.0, "lat": 38.84436, "name": "a7513d8248be454b7733a4368510b256", "fusion_lon": 0.0, "bike_id": "a7513d8248be454b7733a4368510b256", "is_disabled": 0, "is_reserved": 0}, {"rental_uris": {"ios": "https://dc.lft.to/lastmile_qr_scan", "android": "https://dc.lft.to/lastmile_qr_scan"}, "lon": -77.00070716666667, "type": "electric_scooter", "fusion_lat": 0.0, "lat": 38.925520666666664, "name": "5d9a13910d698d3aee9d1f84ead7cff3", "fusion_lon": 0.0, "bike_id": "5d9a13910d698d3aee9d1f84ead7cff3", "is_disabled": 0, "is_reserved": 0}, {"rental_uris": {"ios": "https://dc.lft.to/lastmile_qr_scan", "android": "https://dc.lft.to/lastmile_qr_scan"}, "lon": -77.0400815, "type": "electric_scooter", "fusion_lat": 0.0, "lat": 38.932551, "name": "fe5c2d81beaadb114b0ba0129e5d5fef", "fusion_lon": 0.0, "bike_id": "fe5c2d81beaadb114b0ba0129e5d5fef", "is_disabled": 0, "is_reserved": 0}, {"rental_uris": {"ios": "https://dc.lft.to/lastmile_qr_scan", "android": "https://dc.lft.to/lastmile_qr_scan"}, "lon": -77.00566666666667, "type": "electric_scooter", "fusion_lat": 0.0, "lat": 38.905686833333334, "name": "ca6a5495f85a601095fbbc64c13879ef", "fusion_lon": 0.0, "bike_id": "ca6a5495f85a601095fbbc64c13879ef", "is_disabled": 0, "is_reserved": 0}, {"rental_uris": {"ios": "https://dc.lft.to/lastmile_qr_scan", "android": "https://dc.lft.to/lastmile_qr_scan"}, "lon": -77.03719866666667, "type": "electric_scooter", "fusion_lat": 0.0, "lat": 38.910432, "name": "1f2af7c7bf14e5147db883e7ca5ad53b", "fusion_lon": 0.0, "bike_id": "1f2af7c7bf14e5147db883e7ca5ad53b", "is_disabled": 0, "is_reserved": 0}, {"rental_uris": {"ios": "https://dc.lft.to/lastmile_qr_scan", "android": "https://dc.lft.to/lastmile_qr_scan"}, "lon": -77.02335866666667, "type": "electric_scooter", "fusion_lat": 0.0, "lat": 38.930545, "name": "32eb0c1f7c77ce2487f5b6591d047a8e", "fusion_lon": 0.0, "bike_id": "32eb0c1f7c77ce2487f5b6591d047a8e", "is_disabled": 0, "is_reserved": 0}, {"rental_uris": {"ios": "https://dc.lft.to/lastmile_qr_scan", "android": "https://dc.lft.to/lastmile_qr_scan"}, "lon": -76.99669583333333, "type": "electric_scooter", "fusion_lat": 0.0, "lat": 38.900353333333335, "name": "889377b85678658bcdd552a335282e4f", "fusion_lon": 0.0, "bike_id": "889377b85678658bcdd552a335282e4f", "is_disabled": 0, "is_reserved": 0}, {"rental_uris": {"ios": "https://dc.lft.to/lastmile_qr_scan", "android": "https://dc.lft.to/lastmile_qr_scan"}, "lon": -76.98585316666667, "type": "electric_scooter", "fusion_lat": 0.0, "lat": 38.899233833333334, "name": "76dd68b1d685eeda511ad13c2dc79839", "fusion_lon": 0.0, "bike_id": "76dd68b1d685eeda511ad13c2dc79839", "is_disabled": 0, "is_reserved": 0}, {"rental_uris": {"ios": "https://dc.lft.to/lastmile_qr_scan", "android": "https://dc.lft.to/lastmile_qr_scan"}, "lon": -77.04813533333333, "type": "electric_scooter", "fusion_lat": 0.0, "lat": 38.9203235, "name": "6e3d9817c752b4c8d882d1aaa3c6177d", "fusion_lon": 0.0, "bike_id": "6e3d9817c752b4c8d882d1aaa3c6177d", "is_disabled": 0, "is_reserved": 0}, {"rental_uris": {"ios": "https://dc.lft.to/lastmile_qr_scan", "android": "https://dc.lft.to/lastmile_qr_scan"}, "lon": -77.02981966666667, "type": "electric_scooter", "fusion_lat": 0.0, "lat": 38.90736533333333, "name": "4674638b2e2fb60b777667c1a1fbc599", "fusion_lon": 0.0, "bike_id": "4674638b2e2fb60b777667c1a1fbc599", "is_disabled": 0, "is_reserved": 0}, {"rental_uris": {"ios": "https://dc.lft.to/lastmile_qr_scan", "android": "https://dc.lft.to/lastmile_qr_scan"}, "lon": -77.0295905, "type": "electric_scooter", "fusion_lat": 0.0, "lat": 38.9051445, "name": "b55933ce74e5e042d0b922f3aa37da03", "fusion_lon": 0.0, "bike_id": "b55933ce74e5e042d0b922f3aa37da03", "is_disabled": 0, "is_reserved": 0}, {"rental_uris": {"ios": "https://dc.lft.to/lastmile_qr_scan", "android": "https://dc.lft.to/lastmile_qr_scan"}, "lon": -77.04254216666666, "type": "electric_scooter", "fusion_lat": 0.0, "lat": 38.902792166666664, "name": "4dc7beea561d86f70509fe02cb79cf4d", "fusion_lon": 0.0, "bike_id": "4dc7beea561d86f70509fe02cb79cf4d", "is_disabled": 0, "is_reserved": 0}, {"rental_uris": {"ios": "https://dc.lft.to/lastmile_qr_scan", "android": "https://dc.lft.to/lastmile_qr_scan"}, "lon": -77.00658966666667, "type": "electric_scooter", "fusion_lat": 0.0, "lat": 38.944668666666665, "name": "2e485090e31ed3cd6954067cbd715707", "fusion_lon": 0.0, "bike_id": "2e485090e31ed3cd6954067cbd715707", "is_disabled": 0, "is_reserved": 0}, {"rental_uris": {"ios": "https://dc.lft.to/lastmile_qr_scan", "android": "https://dc.lft.to/lastmile_qr_scan"}, "lon": -77.03862566666666, "type": "electric_scooter", "fusion_lat": 0.0, "lat": 38.90775166666667, "name": "8c82a3ff075e0d7edf51a3abe54a52f1", "fusion_lon": 0.0, "bike_id": "8c82a3ff075e0d7edf51a3abe54a52f1", "is_disabled": 0, "is_reserved": 0}, {"rental_uris": {"ios": "https://dc.lft.to/lastmile_qr_scan", "android": "https://dc.lft.to/lastmile_qr_scan"}, "lon": -77.04331283333333, "type": "electric_scooter", "fusion_lat": 0.0, "lat": 38.89588033333333, "name": "ddfcf6f2ca3ee93d2bed753a5c0d9672", "fusion_lon": 0.0, "bike_id": "ddfcf6f2ca3ee93d2bed753a5c0d9672", "is_disabled": 0, "is_reserved": 0}, {"rental_uris": {"ios": "https://dc.lft.to/lastmile_qr_scan", "android": "https://dc.lft.to/lastmile_qr_scan"}, "lon": -77.04030466666667, "type": "electric_scooter", "fusion_lat": 0.0, "lat": 38.91809333333333, "name": "92503f5db2560fc971a428cb6a5731cf", "fusion_lon": 0.0, "bike_id": "92503f5db2560fc971a428cb6a5731cf", "is_disabled": 0, "is_reserved": 0}, {"rental_uris": {"ios": "https://dc.lft.to/lastmile_qr_scan", "android": "https://dc.lft.to/lastmile_qr_scan"}, "lon": -77.03179966666667, "type": "electric_scooter", "fusion_lat": 0.0, "lat": 38.919315, "name": "5fe05b900bab5f90a3ef30f504b11532", "fusion_lon": 0.0, "bike_id": "5fe05b900bab5f90a3ef30f504b11532", "is_disabled": 0, "is_reserved": 0}, {"rental_uris": {"ios": "https://dc.lft.to/lastmile_qr_scan", "android": "https://dc.lft.to/lastmile_qr_scan"}, "lon": -77.03264566666667, "type": "electric_scooter", "fusion_lat": 0.0, "lat": 38.925601, "name": "309f7eff855546f58c229c865641dcf0", "fusion_lon": 0.0, "bike_id": "309f7eff855546f58c229c865641dcf0", "is_disabled": 0, "is_reserved": 0}, {"rental_uris": {"ios": "https://dc.lft.to/lastmile_qr_scan", "android": "https://dc.lft.to/lastmile_qr_scan"}, "lon": -77.03187483333333, "type": "electric_scooter", "fusion_lat": 0.0, "lat": 38.91799566666667, "name": "102a71a5d6839b150d6e34a90e09d846", "fusion_lon": 0.0, "bike_id": "102a71a5d6839b150d6e34a90e09d846", "is_disabled": 0, "is_reserved": 0}, {"rental_uris": {"ios": "https://dc.lft.to/lastmile_qr_scan", "android": "https://dc.lft.to/lastmile_qr_scan"}, "lon": -77.04670783333333, "type": "electric_scooter", "fusion_lat": 0.0, "lat": 38.914822, "name": "6bb4a8dbdb9076785e5f9644b602b2eb", "fusion_lon": 0.0, "bike_id": "6bb4a8dbdb9076785e5f9644b602b2eb", "is_disabled": 0, "is_reserved": 0}, {"rental_uris": {"ios": "https://dc.lft.to/lastmile_qr_scan", "android": "https://dc.lft.to/lastmile_qr_scan"}, "lon": -77.034622, "type": "electric_scooter", "fusion_lat": 0.0, "lat": 38.91693816666667, "name": "fd34d818c466c88dcb2a536867cb042a", "fusion_lon": 0.0, "bike_id": "fd34d818c466c88dcb2a536867cb042a", "is_disabled": 0, "is_reserved": 0}, {"rental_uris": {"ios": "https://dc.lft.to/lastmile_qr_scan", "android": "https://dc.lft.to/lastmile_qr_scan"}, "lon": -77.0919155, "type": "electric_scooter", "fusion_lat": 0.0, "lat": 38.9136865, "name": "7155281e2a91a7765c584802e8bad2ae", "fusion_lon": 0.0, "bike_id": "7155281e2a91a7765c584802e8bad2ae", "is_disabled": 0, "is_reserved": 0}, {"rental_uris": {"ios": "https://dc.lft.to/lastmile_qr_scan", "android": "https://dc.lft.to/lastmile_qr_scan"}, "lon": -76.94879483333334, "type": "electric_scooter", "fusion_lat": 0.0, "lat": 38.89502066666667, "name": "71df7972e706cbcc117c6d66df4df81e", "fusion_lon": 0.0, "bike_id": "71df7972e706cbcc117c6d66df4df81e", "is_disabled": 0, "is_reserved": 0}, {"rental_uris": {"ios": "https://dc.lft.to/lastmile_qr_scan", "android": "https://dc.lft.to/lastmile_qr_scan"}, "lon": -77.1068555, "type": "electric_bike", "fusion_lat": 0.0, "lat": 38.935817666666665, "name": "ac9b32906651e059231aa3b397302e4d", "fusion_lon": 0.0, "bike_id": "ac9b32906651e059231aa3b397302e4d", "is_disabled": 0, "is_reserved": 0}, {"rental_uris": {"ios": "https://dc.lft.to/lastmile_qr_scan", "android": "https://dc.lft.to/lastmile_qr_scan"}, "lon": -77.035096, "type": "electric_scooter", "fusion_lat": 0.0, "lat": 38.921538166666664, "name": "021976f7a6bac8fddf2da0a72a09ff89", "fusion_lon": 0.0, "bike_id": "021976f7a6bac8fddf2da0a72a09ff89", "is_disabled": 0, "is_reserved": 0}, {"rental_uris": {"ios": "https://dc.lft.to/lastmile_qr_scan", "android": "https://dc.lft.to/lastmile_qr_scan"}, "lon": -77.08052966666666, "type": "electric_bike", "fusion_lat": 0.0, "lat": 38.8484575, "name": "ffd60f2b87a1fd4dcada2dfa60082e9a", "fusion_lon": 0.0, "bike_id": "ffd60f2b87a1fd4dcada2dfa60082e9a", "is_disabled": 0, "is_reserved": 0}, {"rental_uris": {"ios": "https://dc.lft.to/lastmile_qr_scan", "android": "https://dc.lft.to/lastmile_qr_scan"}, "lon": -76.95751866666667, "type": "electric_scooter", "fusion_lat": 0.0, "lat": 38.8842515, "name": "fc06fa59c83620f58fe2dfa74f8a0c5a", "fusion_lon": 0.0, "bike_id": "fc06fa59c83620f58fe2dfa74f8a0c5a", "is_disabled": 0, "is_reserved": 0}, {"rental_uris": {"ios": "https://dc.lft.to/lastmile_qr_scan", "android": "https://dc.lft.to/lastmile_qr_scan"}, "lon": -76.98611633333333, "type": "electric_scooter", "fusion_lat": 0.0, "lat": 38.878358666666664, "name": "001bae4515a8b45aedd7c0873a0bd6bb", "fusion_lon": 0.0, "bike_id": "001bae4515a8b45aedd7c0873a0bd6bb", "is_disabled": 0, "is_reserved": 0}, {"rental_uris": {"ios": "https://dc.lft.to/lastmile_qr_scan", "android": "https://dc.lft.to/lastmile_qr_scan"}, "lon": -76.939665, "type": "electric_scooter", "fusion_lat": 0.0, "lat": 38.89969933333333, "name": "987c734aca7f161a0b8a38b4adb8af06", "fusion_lon": 0.0, "bike_id": "987c734aca7f161a0b8a38b4adb8af06", "is_disabled": 0, "is_reserved": 0}, {"rental_uris": {"ios": "https://dc.lft.to/lastmile_qr_scan", "android": "https://dc.lft.to/lastmile_qr_scan"}, "lon": -77.05546766666667, "type": "electric_scooter", "fusion_lat": 0.0, "lat": 38.925273, "name": "c5e1e5adeb7e9f8b451449d4d298bc31", "fusion_lon": 0.0, "bike_id": "c5e1e5adeb7e9f8b451449d4d298bc31", "is_disabled": 0, "is_reserved": 0}, {"rental_uris": {"ios": "https://dc.lft.to/lastmile_qr_scan", "android": "https://dc.lft.to/lastmile_qr_scan"}, "lon": -77.03639333333334, "type": "electric_scooter", "fusion_lat": 0.0, "lat": 38.92424, "name": "dab07262d7eb82f9383901b4750f9905", "fusion_lon": 0.0, "bike_id": "dab07262d7eb82f9383901b4750f9905", "is_disabled": 0, "is_reserved": 0}, {"rental_uris": {"ios": "https://dc.lft.to/lastmile_qr_scan", "android": "https://dc.lft.to/lastmile_qr_scan"}, "lon": -77.03517316666667, "type": "electric_scooter", "fusion_lat": 0.0, "lat": 38.92339416666667, "name": "e2ffb36ed502e95bc69868c4093a6caf", "fusion_lon": 0.0, "bike_id": "e2ffb36ed502e95bc69868c4093a6caf", "is_disabled": 0, "is_reserved": 0}, {"rental_uris": {"ios": "https://dc.lft.to/lastmile_qr_scan", "android": "https://dc.lft.to/lastmile_qr_scan"}, "lon": -77.02621466666666, "type": "electric_scooter", "fusion_lat": 0.0, "lat": 38.91528616666667, "name": "dd8ef9fc20b5dbda714e62503d33eca9", "fusion_lon": 0.0, "bike_id": "dd8ef9fc20b5dbda714e62503d33eca9", "is_disabled": 0, "is_reserved": 0}, {"rental_uris": {"ios": "https://dc.lft.to/lastmile_qr_scan", "android": "https://dc.lft.to/lastmile_qr_scan"}, "lon": -76.9813095, "type": "electric_scooter", "fusion_lat": 0.0, "lat": 38.857141666666664, "name": "a4e358461c41d32b99bb32142e5fd778", "fusion_lon": 0.0, "bike_id": "a4e358461c41d32b99bb32142e5fd778", "is_disabled": 0, "is_reserved": 0}, {"rental_uris": {"ios": "https://dc.lft.to/lastmile_qr_scan", "android": "https://dc.lft.to/lastmile_qr_scan"}, "lon": -77.03847366666666, "type": "electric_scooter", "fusion_lat": 0.0, "lat": 38.907939166666665, "name": "6345ccae4f1e918497f0669efd5b89ab", "fusion_lon": 0.0, "bike_id": "6345ccae4f1e918497f0669efd5b89ab", "is_disabled": 0, "is_reserved": 0}, {"rental_uris": {"ios": "https://dc.lft.to/lastmile_qr_scan", "android": "https://dc.lft.to/lastmile_qr_scan"}, "lon": -76.98749066666667, "type": "electric_scooter", "fusion_lat": 0.0, "lat": 38.91016183333333, "name": "6bbd2d3e81edc075175b2196c5eea76f", "fusion_lon": 0.0, "bike_id": "6bbd2d3e81edc075175b2196c5eea76f", "is_disabled": 0, "is_reserved": 0}, {"rental_uris": {"ios": "https://dc.lft.to/lastmile_qr_scan", "android": "https://dc.lft.to/lastmile_qr_scan"}, "lon": -76.93869933333333, "type": "electric_scooter", "fusion_lat": 0.0, "lat": 38.900811166666664, "name": "bf08de0b0660eb1095b2c0326bde9ac9", "fusion_lon": 0.0, "bike_id": "bf08de0b0660eb1095b2c0326bde9ac9", "is_disabled": 0, "is_reserved": 0}, {"rental_uris": {"ios": "https://dc.lft.to/lastmile_qr_scan", "android": "https://dc.lft.to/lastmile_qr_scan"}, "lon": -77.055258, "type": "electric_scooter", "fusion_lat": 0.0, "lat": 38.900142, "name": "35103445a0c04fda8ec2f189801e6ab4", "fusion_lon": 0.0, "bike_id": "35103445a0c04fda8ec2f189801e6ab4", "is_disabled": 0, "is_reserved": 0}, {"rental_uris": {"ios": "https://dc.lft.to/lastmile_qr_scan", "android": "https://dc.lft.to/lastmile_qr_scan"}, "lon": -77.03556516666667, "type": "electric_scooter", "fusion_lat": 0.0, "lat": 38.93982533333333, "name": "75d46749ea8efeb2db1f5ccffc6dd680", "fusion_lon": 0.0, "bike_id": "75d46749ea8efeb2db1f5ccffc6dd680", "is_disabled": 0, "is_reserved": 0}, {"rental_uris": {"ios": "https://dc.lft.to/lastmile_qr_scan", "android": "https://dc.lft.to/lastmile_qr_scan"}, "lon": -77.0547715, "type": "electric_scooter", "fusion_lat": 0.0, "lat": 38.910652666666664, "name": "4ba03af776cfefea1d97cd500499b54d", "fusion_lon": 0.0, "bike_id": "4ba03af776cfefea1d97cd500499b54d", "is_disabled": 0, "is_reserved": 0}, {"rental_uris": {"ios": "https://dc.lft.to/lastmile_qr_scan", "android": "https://dc.lft.to/lastmile_qr_scan"}, "lon": -76.99459216666666, "type": "electric_scooter", "fusion_lat": 0.0, "lat": 38.8516245, "name": "4b18fb213df0940ca14d422a8122083d", "fusion_lon": 0.0, "bike_id": "4b18fb213df0940ca14d422a8122083d", "is_disabled": 0, "is_reserved": 0}, {"rental_uris": {"ios": "https://dc.lft.to/lastmile_qr_scan", "android": "https://dc.lft.to/lastmile_qr_scan"}, "lon": -77.02225066666666, "type": "electric_scooter", "fusion_lat": 0.0, "lat": 38.9127115, "name": "ebf6fcf0edc2ab2cf89fe510097402ba", "fusion_lon": 0.0, "bike_id": "ebf6fcf0edc2ab2cf89fe510097402ba", "is_disabled": 0, "is_reserved": 0}, {"rental_uris": {"ios": "https://dc.lft.to/lastmile_qr_scan", "android": "https://dc.lft.to/lastmile_qr_scan"}, "lon": -77.03903316666667, "type": "electric_scooter", "fusion_lat": 0.0, "lat": 38.91848316666667, "name": "2135074828d5288293f6511a7b4daad3", "fusion_lon": 0.0, "bike_id": "2135074828d5288293f6511a7b4daad3", "is_disabled": 0, "is_reserved": 0}, {"rental_uris": {"ios": "https://dc.lft.to/lastmile_qr_scan", "android": "https://dc.lft.to/lastmile_qr_scan"}, "lon": -77.0420405, "type": "electric_scooter", "fusion_lat": 0.0, "lat": 38.8993155, "name": "9bfd65a130ff1595f95c4ee3a4242ce3", "fusion_lon": 0.0, "bike_id": "9bfd65a130ff1595f95c4ee3a4242ce3", "is_disabled": 0, "is_reserved": 0}, {"rental_uris": {"ios": "https://dc.lft.to/lastmile_qr_scan", "android": "https://dc.lft.to/lastmile_qr_scan"}, "lon": -77.0396165, "type": "electric_scooter", "fusion_lat": 0.0, "lat": 38.92324466666667, "name": "77ffb3a3cc5ac0388581f84ed8e0b979", "fusion_lon": 0.0, "bike_id": "77ffb3a3cc5ac0388581f84ed8e0b979", "is_disabled": 0, "is_reserved": 0}, {"rental_uris": {"ios": "https://dc.lft.to/lastmile_qr_scan", "android": "https://dc.lft.to/lastmile_qr_scan"}, "lon": -77.02317066666667, "type": "electric_scooter", "fusion_lat": 0.0, "lat": 38.88191366666667, "name": "825ca2011ab9fa785d3ae6160ae0551a", "fusion_lon": 0.0, "bike_id": "825ca2011ab9fa785d3ae6160ae0551a", "is_disabled": 0, "is_reserved": 0}, {"rental_uris": {"ios": "https://dc.lft.to/lastmile_qr_scan", "android": "https://dc.lft.to/lastmile_qr_scan"}, "lon": -77.02462633333333, "type": "electric_scooter", "fusion_lat": 0.0, "lat": 38.90848416666667, "name": "5bcf460b2af66e5758ea2f9789aaf5f0", "fusion_lon": 0.0, "bike_id": "5bcf460b2af66e5758ea2f9789aaf5f0", "is_disabled": 0, "is_reserved": 0}, {"rental_uris": {"ios": "https://dc.lft.to/lastmile_qr_scan", "android": "https://dc.lft.to/lastmile_qr_scan"}, "lon": -77.07725033333334, "type": "electric_scooter", "fusion_lat": 0.0, "lat": 38.9470385, "name": "66aad257281a154a8dd6216a4e6a91c9", "fusion_lon": 0.0, "bike_id": "66aad257281a154a8dd6216a4e6a91c9", "is_disabled": 0, "is_reserved": 0}, {"rental_uris": {"ios": "https://dc.lft.to/lastmile_qr_scan", "android": "https://dc.lft.to/lastmile_qr_scan"}, "lon": -76.99371933333333, "type": "electric_scooter", "fusion_lat": 0.0, "lat": 38.879743, "name": "5eae4c253a608d99767ec9936111ad5d", "fusion_lon": 0.0, "bike_id": "5eae4c253a608d99767ec9936111ad5d", "is_disabled": 0, "is_reserved": 0}, {"rental_uris": {"ios": "https://dc.lft.to/lastmile_qr_scan", "android": "https://dc.lft.to/lastmile_qr_scan"}, "lon": -77.05552183333333, "type": "electric_scooter", "fusion_lat": 0.0, "lat": 38.89886833333333, "name": "3bad9fd07a111383e5018dead5d4ee32", "fusion_lon": 0.0, "bike_id": "3bad9fd07a111383e5018dead5d4ee32", "is_disabled": 0, "is_reserved": 0}, {"rental_uris": {"ios": "https://dc.lft.to/lastmile_qr_scan", "android": "https://dc.lft.to/lastmile_qr_scan"}, "lon": -76.98093666666666, "type": "electric_bike", "fusion_lat": 0.0, "lat": 38.881339, "name": "b06d62304ab73eb2c8e0bfb8691382e0", "fusion_lon": 0.0, "bike_id": "b06d62304ab73eb2c8e0bfb8691382e0", "is_disabled": 0, "is_reserved": 0}, {"rental_uris": {"ios": "https://dc.lft.to/lastmile_qr_scan", "android": "https://dc.lft.to/lastmile_qr_scan"}, "lon": -77.00195583333333, "type": "electric_scooter", "fusion_lat": 0.0, "lat": 38.90037433333333, "name": "a0cced7e69df75078e92479aa530c63b", "fusion_lon": 0.0, "bike_id": "a0cced7e69df75078e92479aa530c63b", "is_disabled": 0, "is_reserved": 0}, {"rental_uris": {"ios": "https://dc.lft.to/lastmile_qr_scan", "android": "https://dc.lft.to/lastmile_qr_scan"}, "lon": -77.01128916666667, "type": "electric_scooter", "fusion_lat": 0.0, "lat": 38.9035305, "name": "0c6d90b80bb698535b690b4f6b4b45d0", "fusion_lon": 0.0, "bike_id": "0c6d90b80bb698535b690b4f6b4b45d0", "is_disabled": 0, "is_reserved": 0}, {"rental_uris": {"ios": "https://dc.lft.to/lastmile_qr_scan", "android": "https://dc.lft.to/lastmile_qr_scan"}, "lon": -77.03895966666667, "type": "electric_scooter", "fusion_lat": 0.0, "lat": 38.921918833333336, "name": "3159b2cba53fe7c399ebc1472f0aa5ee", "fusion_lon": 0.0, "bike_id": "3159b2cba53fe7c399ebc1472f0aa5ee", "is_disabled": 0, "is_reserved": 0}, {"rental_uris": {"ios": "https://dc.lft.to/lastmile_qr_scan", "android": "https://dc.lft.to/lastmile_qr_scan"}, "lon": -77.01346533333333, "type": "electric_bike", "fusion_lat": 0.0, "lat": 38.99998433333333, "name": "5c0fc72595b597751a4d77e1a0db0ef2", "fusion_lon": 0.0, "bike_id": "5c0fc72595b597751a4d77e1a0db0ef2", "is_disabled": 0, "is_reserved": 0}, {"rental_uris": {"ios": "https://dc.lft.to/lastmile_qr_scan", "android": "https://dc.lft.to/lastmile_qr_scan"}, "lon": -77.03468583333333, "type": "electric_scooter", "fusion_lat": 0.0, "lat": 38.9215375, "name": "9fe24ddca30a5755b6dc4b3331160af1", "fusion_lon": 0.0, "bike_id": "9fe24ddca30a5755b6dc4b3331160af1", "is_disabled": 0, "is_reserved": 0}, {"rental_uris": {"ios": "https://dc.lft.to/lastmile_qr_scan", "android": "https://dc.lft.to/lastmile_qr_scan"}, "lon": -77.01901383333333, "type": "electric_scooter", "fusion_lat": 0.0, "lat": 38.876680666666665, "name": "79cc5bedab4b893e21923b6307197536", "fusion_lon": 0.0, "bike_id": "79cc5bedab4b893e21923b6307197536", "is_disabled": 0, "is_reserved": 0}, {"rental_uris": {"ios": "https://dc.lft.to/lastmile_qr_scan", "android": "https://dc.lft.to/lastmile_qr_scan"}, "lon": -77.0288135, "type": "electric_scooter", "fusion_lat": 0.0, "lat": 38.9044025, "name": "c2bd628a280f5dbf8ed5d8b6833dc2b4", "fusion_lon": 0.0, "bike_id": "c2bd628a280f5dbf8ed5d8b6833dc2b4", "is_disabled": 0, "is_reserved": 0}, {"rental_uris": {"ios": "https://dc.lft.to/lastmile_qr_scan", "android": "https://dc.lft.to/lastmile_qr_scan"}, "lon": -77.05530083333333, "type": "electric_scooter", "fusion_lat": 0.0, "lat": 38.9279385, "name": "24729363e9792324b1ba44bfbdd28d54", "fusion_lon": 0.0, "bike_id": "24729363e9792324b1ba44bfbdd28d54", "is_disabled": 0, "is_reserved": 0}, {"rental_uris": {"ios": "https://dc.lft.to/lastmile_qr_scan", "android": "https://dc.lft.to/lastmile_qr_scan"}, "lon": -77.02739116666666, "type": "electric_scooter", "fusion_lat": 0.0, "lat": 38.881551, "name": "2b37c0c3fe01c25b4064ae0c8c66aa35", "fusion_lon": 0.0, "bike_id": "2b37c0c3fe01c25b4064ae0c8c66aa35", "is_disabled": 0, "is_reserved": 0}, {"rental_uris": {"ios": "https://dc.lft.to/lastmile_qr_scan", "android": "https://dc.lft.to/lastmile_qr_scan"}, "lon": -77.03470616666667, "type": "electric_scooter", "fusion_lat": 0.0, "lat": 38.917163333333335, "name": "cc71697e8ceec352c7183f440864c34e", "fusion_lon": 0.0, "bike_id": "cc71697e8ceec352c7183f440864c34e", "is_disabled": 0, "is_reserved": 0}, {"rental_uris": {"ios": "https://dc.lft.to/lastmile_qr_scan", "android": "https://dc.lft.to/lastmile_qr_scan"}, "lon": -76.99179233333334, "type": "electric_scooter", "fusion_lat": 0.0, "lat": 38.904584166666666, "name": "79316b937acd34b058c4b37771c8578f", "fusion_lon": 0.0, "bike_id": "79316b937acd34b058c4b37771c8578f", "is_disabled": 0, "is_reserved": 0}, {"rental_uris": {"ios": "https://dc.lft.to/lastmile_qr_scan", "android": "https://dc.lft.to/lastmile_qr_scan"}, "lon": -77.03920616666667, "type": "electric_scooter", "fusion_lat": 0.0, "lat": 38.921068166666664, "name": "9cc56e0a0ce03441f2886550ad873070", "fusion_lon": 0.0, "bike_id": "9cc56e0a0ce03441f2886550ad873070", "is_disabled": 0, "is_reserved": 0}, {"rental_uris": {"ios": "https://dc.lft.to/lastmile_qr_scan", "android": "https://dc.lft.to/lastmile_qr_scan"}, "lon": -77.11215583333333, "type": "electric_bike", "fusion_lat": 0.0, "lat": 38.82879366666667, "name": "706edfd9696106c47fe6604079696fd3", "fusion_lon": 0.0, "bike_id": "706edfd9696106c47fe6604079696fd3", "is_disabled": 0, "is_reserved": 0}, {"rental_uris": {"ios": "https://dc.lft.to/lastmile_qr_scan", "android": "https://dc.lft.to/lastmile_qr_scan"}, "lon": -77.02358833333334, "type": "electric_scooter", "fusion_lat": 0.0, "lat": 38.920032166666665, "name": "420f9cfaaa064213ff967be3ec2e108a", "fusion_lon": 0.0, "bike_id": "420f9cfaaa064213ff967be3ec2e108a", "is_disabled": 0, "is_reserved": 0}, {"rental_uris": {"ios": "https://dc.lft.to/lastmile_qr_scan", "android": "https://dc.lft.to/lastmile_qr_scan"}, "lon": -77.04016183333333, "type": "electric_scooter", "fusion_lat": 0.0, "lat": 38.915693833333336, "name": "1c77040d53f9b39a220217150013e0c9", "fusion_lon": 0.0, "bike_id": "1c77040d53f9b39a220217150013e0c9", "is_disabled": 0, "is_reserved": 0}, {"rental_uris": {"ios": "https://dc.lft.to/lastmile_qr_scan", "android": "https://dc.lft.to/lastmile_qr_scan"}, "lon": -76.87495416666667, "type": "electric_bike", "fusion_lat": 0.0, "lat": 38.990913, "name": "97e90a22f504e2344b0f79cb3465d0df", "fusion_lon": 0.0, "bike_id": "97e90a22f504e2344b0f79cb3465d0df", "is_disabled": 0, "is_reserved": 0}, {"rental_uris": {"ios": "https://dc.lft.to/lastmile_qr_scan", "android": "https://dc.lft.to/lastmile_qr_scan"}, "lon": -77.02450033333334, "type": "electric_scooter", "fusion_lat": 0.0, "lat": 38.93820566666667, "name": "9535bc3384cdd13f782bc50e14aa83d4", "fusion_lon": 0.0, "bike_id": "9535bc3384cdd13f782bc50e14aa83d4", "is_disabled": 0, "is_reserved": 0}, {"rental_uris": {"ios": "https://dc.lft.to/lastmile_qr_scan", "android": "https://dc.lft.to/lastmile_qr_scan"}, "lon": -77.0415655, "type": "electric_scooter", "fusion_lat": 0.0, "lat": 38.91418216666667, "name": "65420fe9528460667e1ee3d21a855cbc", "fusion_lon": 0.0, "bike_id": "65420fe9528460667e1ee3d21a855cbc", "is_disabled": 0, "is_reserved": 0}, {"rental_uris": {"ios": "https://dc.lft.to/lastmile_qr_scan", "android": "https://dc.lft.to/lastmile_qr_scan"}, "lon": -77.0116165, "type": "electric_scooter", "fusion_lat": 0.0, "lat": 38.9002755, "name": "761cd0276e59c006abb6aefe640f7601", "fusion_lon": 0.0, "bike_id": "761cd0276e59c006abb6aefe640f7601", "is_disabled": 0, "is_reserved": 0}, {"rental_uris": {"ios": "https://dc.lft.to/lastmile_qr_scan", "android": "https://dc.lft.to/lastmile_qr_scan"}, "lon": -77.03418066666667, "type": "electric_scooter", "fusion_lat": 0.0, "lat": 38.91926016666667, "name": "34f66598c7c19a59f0b9cd714d69d61f", "fusion_lon": 0.0, "bike_id": "34f66598c7c19a59f0b9cd714d69d61f", "is_disabled": 0, "is_reserved": 0}, {"rental_uris": {"ios": "https://dc.lft.to/lastmile_qr_scan", "android": "https://dc.lft.to/lastmile_qr_scan"}, "lon": -77.03832366666667, "type": "electric_scooter", "fusion_lat": 0.0, "lat": 38.908346, "name": "72f17b176be3cf43c23cf8896420a2cf", "fusion_lon": 0.0, "bike_id": "72f17b176be3cf43c23cf8896420a2cf", "is_disabled": 0, "is_reserved": 0}, {"rental_uris": {"ios": "https://dc.lft.to/lastmile_qr_scan", "android": "https://dc.lft.to/lastmile_qr_scan"}, "lon": -77.02227416666666, "type": "electric_scooter", "fusion_lat": 0.0, "lat": 38.89223033333333, "name": "0fe3439d8ced6c5bc2fec93b06315092", "fusion_lon": 0.0, "bike_id": "0fe3439d8ced6c5bc2fec93b06315092", "is_disabled": 0, "is_reserved": 0}, {"rental_uris": {"ios": "https://dc.lft.to/lastmile_qr_scan", "android": "https://dc.lft.to/lastmile_qr_scan"}, "lon": -76.98884466666667, "type": "electric_scooter", "fusion_lat": 0.0, "lat": 38.86660166666667, "name": "0159d977e44ebbfe129cbf8f40b03ba8", "fusion_lon": 0.0, "bike_id": "0159d977e44ebbfe129cbf8f40b03ba8", "is_disabled": 0, "is_reserved": 0}, {"rental_uris": {"ios": "https://dc.lft.to/lastmile_qr_scan", "android": "https://dc.lft.to/lastmile_qr_scan"}, "lon": -77.08540433333333, "type": "electric_bike", "fusion_lat": 0.0, "lat": 38.8561915, "name": "c9f40cca5a1faa763783ae85d5da0434", "fusion_lon": 0.0, "bike_id": "c9f40cca5a1faa763783ae85d5da0434", "is_disabled": 0, "is_reserved": 0}, {"rental_uris": {"ios": "https://dc.lft.to/lastmile_qr_scan", "android": "https://dc.lft.to/lastmile_qr_scan"}, "lon": -77.07322216666667, "type": "electric_scooter", "fusion_lat": 0.0, "lat": 38.92494666666666, "name": "75f4f221c87ed2b84dd40c6639e580cc", "fusion_lon": 0.0, "bike_id": "75f4f221c87ed2b84dd40c6639e580cc", "is_disabled": 0, "is_reserved": 0}, {"rental_uris": {"ios": "https://dc.lft.to/lastmile_qr_scan", "android": "https://dc.lft.to/lastmile_qr_scan"}, "lon": -77.017481, "type": "electric_scooter", "fusion_lat": 0.0, "lat": 38.915867, "name": "ecb2ceec952dc21cb1d88cc924d5b05b", "fusion_lon": 0.0, "bike_id": "ecb2ceec952dc21cb1d88cc924d5b05b", "is_disabled": 0, "is_reserved": 0}, {"rental_uris": {"ios": "https://dc.lft.to/lastmile_qr_scan", "android": "https://dc.lft.to/lastmile_qr_scan"}, "lon": -77.044912, "type": "electric_scooter", "fusion_lat": 0.0, "lat": 38.91103483333333, "name": "e44ee9a46189e71129bd36a6621eae63", "fusion_lon": 0.0, "bike_id": "e44ee9a46189e71129bd36a6621eae63", "is_disabled": 0, "is_reserved": 0}, {"rental_uris": {"ios": "https://dc.lft.to/lastmile_qr_scan", "android": "https://dc.lft.to/lastmile_qr_scan"}, "lon": -77.02815683333333, "type": "electric_scooter", "fusion_lat": 0.0, "lat": 38.8963745, "name": "cf21b3c21da18853a8a6ce4d4c6ff126", "fusion_lon": 0.0, "bike_id": "cf21b3c21da18853a8a6ce4d4c6ff126", "is_disabled": 0, "is_reserved": 0}, {"rental_uris": {"ios": "https://dc.lft.to/lastmile_qr_scan", "android": "https://dc.lft.to/lastmile_qr_scan"}, "lon": -77.03637933333333, "type": "electric_scooter", "fusion_lat": 0.0, "lat": 38.929226, "name": "28f9891b185c9da04622eaf2211d7bbc", "fusion_lon": 0.0, "bike_id": "28f9891b185c9da04622eaf2211d7bbc", "is_disabled": 0, "is_reserved": 0}, {"rental_uris": {"ios": "https://dc.lft.to/lastmile_qr_scan", "android": "https://dc.lft.to/lastmile_qr_scan"}, "lon": -77.038338, "type": "electric_scooter", "fusion_lat": 0.0, "lat": 38.91120466666667, "name": "5a687c369233746b763e6814d7ce3d1a", "fusion_lon": 0.0, "bike_id": "5a687c369233746b763e6814d7ce3d1a", "is_disabled": 0, "is_reserved": 0}, {"rental_uris": {"ios": "https://dc.lft.to/lastmile_qr_scan", "android": "https://dc.lft.to/lastmile_qr_scan"}, "lon": -77.02230633333333, "type": "electric_scooter", "fusion_lat": 0.0, "lat": 38.891962166666666, "name": "783b5d8886feb15a9fa4567544437ba6", "fusion_lon": 0.0, "bike_id": "783b5d8886feb15a9fa4567544437ba6", "is_disabled": 0, "is_reserved": 0}, {"rental_uris": {"ios": "https://dc.lft.to/lastmile_qr_scan", "android": "https://dc.lft.to/lastmile_qr_scan"}, "lon": -77.01937183333334, "type": "electric_scooter", "fusion_lat": 0.0, "lat": 38.94928816666667, "name": "6ea5bd0adb93cfd710dae2182e0af208", "fusion_lon": 0.0, "bike_id": "6ea5bd0adb93cfd710dae2182e0af208", "is_disabled": 0, "is_reserved": 0}, {"rental_uris": {"ios": "https://dc.lft.to/lastmile_qr_scan", "android": "https://dc.lft.to/lastmile_qr_scan"}, "lon": -77.07561183333334, "type": "electric_scooter", "fusion_lat": 0.0, "lat": 38.91433333333333, "name": "ebada137ce68fd01de9001fcaa7edf03", "fusion_lon": 0.0, "bike_id": "ebada137ce68fd01de9001fcaa7edf03", "is_disabled": 0, "is_reserved": 0}, {"rental_uris": {"ios": "https://dc.lft.to/lastmile_qr_scan", "android": "https://dc.lft.to/lastmile_qr_scan"}, "lon": -77.0426035, "type": "electric_scooter", "fusion_lat": 0.0, "lat": 38.90870233333333, "name": "b916877023ca85185f8ce45a72922040", "fusion_lon": 0.0, "bike_id": "b916877023ca85185f8ce45a72922040", "is_disabled": 0, "is_reserved": 0}, {"rental_uris": {"ios": "https://dc.lft.to/lastmile_qr_scan", "android": "https://dc.lft.to/lastmile_qr_scan"}, "lon": -76.95818783333333, "type": "electric_scooter", "fusion_lat": 0.0, "lat": 38.890577666666665, "name": "eb1083465a1ab816b09e058423e50bcc", "fusion_lon": 0.0, "bike_id": "eb1083465a1ab816b09e058423e50bcc", "is_disabled": 0, "is_reserved": 0}, {"rental_uris": {"ios": "https://dc.lft.to/lastmile_qr_scan", "android": "https://dc.lft.to/lastmile_qr_scan"}, "lon": -77.02135466666667, "type": "electric_scooter", "fusion_lat": 0.0, "lat": 38.915540666666665, "name": "169c96a8291959ded0ebddf1c1b210fe", "fusion_lon": 0.0, "bike_id": "169c96a8291959ded0ebddf1c1b210fe", "is_disabled": 0, "is_reserved": 0}, {"rental_uris": {"ios": "https://dc.lft.to/lastmile_qr_scan", "android": "https://dc.lft.to/lastmile_qr_scan"}, "lon": -77.041233, "type": "electric_scooter", "fusion_lat": 0.0, "lat": 38.921551666666666, "name": "4e1e6cb1a14b1200801861a367f31812", "fusion_lon": 0.0, "bike_id": "4e1e6cb1a14b1200801861a367f31812", "is_disabled": 0, "is_reserved": 0}, {"rental_uris": {"ios": "https://dc.lft.to/lastmile_qr_scan", "android": "https://dc.lft.to/lastmile_qr_scan"}, "lon": -77.0449895, "type": "electric_scooter", "fusion_lat": 0.0, "lat": 38.91285033333333, "name": "f5f2b1d15dc2ff2d59dedf40f3b62047", "fusion_lon": 0.0, "bike_id": "f5f2b1d15dc2ff2d59dedf40f3b62047", "is_disabled": 0, "is_reserved": 0}, {"rental_uris": {"ios": "https://dc.lft.to/lastmile_qr_scan", "android": "https://dc.lft.to/lastmile_qr_scan"}, "lon": -77.01757283333333, "type": "electric_scooter", "fusion_lat": 0.0, "lat": 38.90382566666667, "name": "14975649d24aebbf4b2f520d21386117", "fusion_lon": 0.0, "bike_id": "14975649d24aebbf4b2f520d21386117", "is_disabled": 0, "is_reserved": 0}, {"rental_uris": {"ios": "https://dc.lft.to/lastmile_qr_scan", "android": "https://dc.lft.to/lastmile_qr_scan"}, "lon": -76.98619766666667, "type": "electric_scooter", "fusion_lat": 0.0, "lat": 38.868164166666666, "name": "a96215cbe6defb2597f724682e9bef52", "fusion_lon": 0.0, "bike_id": "a96215cbe6defb2597f724682e9bef52", "is_disabled": 0, "is_reserved": 0}, {"rental_uris": {"ios": "https://dc.lft.to/lastmile_qr_scan", "android": "https://dc.lft.to/lastmile_qr_scan"}, "lon": -77.03256483333334, "type": "electric_scooter", "fusion_lat": 0.0, "lat": 38.925526, "name": "133752434ee765c914ee45e8e788a9bd", "fusion_lon": 0.0, "bike_id": "133752434ee765c914ee45e8e788a9bd", "is_disabled": 0, "is_reserved": 0}, {"rental_uris": {"ios": "https://dc.lft.to/lastmile_qr_scan", "android": "https://dc.lft.to/lastmile_qr_scan"}, "lon": -77.09523566666667, "type": "electric_bike", "fusion_lat": 0.0, "lat": 38.838117833333335, "name": "c329295cf7ed68a1e1881229866bc17d", "fusion_lon": 0.0, "bike_id": "c329295cf7ed68a1e1881229866bc17d", "is_disabled": 0, "is_reserved": 0}, {"rental_uris": {"ios": "https://dc.lft.to/lastmile_qr_scan", "android": "https://dc.lft.to/lastmile_qr_scan"}, "lon": -77.06375033333333, "type": "electric_bike", "fusion_lat": 0.0, "lat": 38.905133666666664, "name": "9550cb00a550c529375ccc0bcc4485fc", "fusion_lon": 0.0, "bike_id": "9550cb00a550c529375ccc0bcc4485fc", "is_disabled": 0, "is_reserved": 0}, {"rental_uris": {"ios": "https://dc.lft.to/lastmile_qr_scan", "android": "https://dc.lft.to/lastmile_qr_scan"}, "lon": -77.03890733333333, "type": "electric_scooter", "fusion_lat": 0.0, "lat": 38.9326635, "name": "30e4c5caa6b18239da91e0ea81985365", "fusion_lon": 0.0, "bike_id": "30e4c5caa6b18239da91e0ea81985365", "is_disabled": 0, "is_reserved": 0}, {"rental_uris": {"ios": "https://dc.lft.to/lastmile_qr_scan", "android": "https://dc.lft.to/lastmile_qr_scan"}, "lon": -77.05824033333333, "type": "electric_scooter", "fusion_lat": 0.0, "lat": 38.9341875, "name": "2c65453e7b92cf04400989f406678cd3", "fusion_lon": 0.0, "bike_id": "2c65453e7b92cf04400989f406678cd3", "is_disabled": 0, "is_reserved": 0}, {"rental_uris": {"ios": "https://dc.lft.to/lastmile_qr_scan", "android": "https://dc.lft.to/lastmile_qr_scan"}, "lon": -77.055945, "type": "electric_scooter", "fusion_lat": 0.0, "lat": 38.927705, "name": "e5f73fb74e43b5e18419abbc52c2fb14", "fusion_lon": 0.0, "bike_id": "e5f73fb74e43b5e18419abbc52c2fb14", "is_disabled": 0, "is_reserved": 0}, {"rental_uris": {"ios": "https://dc.lft.to/lastmile_qr_scan", "android": "https://dc.lft.to/lastmile_qr_scan"}, "lon": -77.0356775, "type": "electric_scooter", "fusion_lat": 0.0, "lat": 38.91812633333333, "name": "4e1add8d2febad92cd16691f55d8b778", "fusion_lon": 0.0, "bike_id": "4e1add8d2febad92cd16691f55d8b778", "is_disabled": 0, "is_reserved": 0}, {"rental_uris": {"ios": "https://dc.lft.to/lastmile_qr_scan", "android": "https://dc.lft.to/lastmile_qr_scan"}, "lon": -77.022135, "type": "electric_scooter", "fusion_lat": 0.0, "lat": 38.9126935, "name": "fafee7f93d2c280458bcf723a9751828", "fusion_lon": 0.0, "bike_id": "fafee7f93d2c280458bcf723a9751828", "is_disabled": 0, "is_reserved": 0}, {"rental_uris": {"ios": "https://dc.lft.to/lastmile_qr_scan", "android": "https://dc.lft.to/lastmile_qr_scan"}, "lon": -77.03346366666666, "type": "electric_scooter", "fusion_lat": 0.0, "lat": 38.919175, "name": "ca0622682e6a8bda3b8999b9e4504502", "fusion_lon": 0.0, "bike_id": "ca0622682e6a8bda3b8999b9e4504502", "is_disabled": 0, "is_reserved": 0}, {"rental_uris": {"ios": "https://dc.lft.to/lastmile_qr_scan", "android": "https://dc.lft.to/lastmile_qr_scan"}, "lon": -76.87822283333334, "type": "electric_bike", "fusion_lat": 0.0, "lat": 38.99237016666667, "name": "886cac1f815594e9e5f90758f2e6e764", "fusion_lon": 0.0, "bike_id": "886cac1f815594e9e5f90758f2e6e764", "is_disabled": 0, "is_reserved": 0}, {"rental_uris": {"ios": "https://dc.lft.to/lastmile_qr_scan", "android": "https://dc.lft.to/lastmile_qr_scan"}, "lon": -77.00297616666667, "type": "electric_bike", "fusion_lat": 0.0, "lat": 38.916193, "name": "4461d7b55b907954279a5717feecd710", "fusion_lon": 0.0, "bike_id": "4461d7b55b907954279a5717feecd710", "is_disabled": 0, "is_reserved": 0}, {"rental_uris": {"ios": "https://dc.lft.to/lastmile_qr_scan", "android": "https://dc.lft.to/lastmile_qr_scan"}, "lon": -76.97744416666667, "type": "electric_scooter", "fusion_lat": 0.0, "lat": 38.900080833333334, "name": "bc0acfea213e4d9ac0957c2dd33f1267", "fusion_lon": 0.0, "bike_id": "bc0acfea213e4d9ac0957c2dd33f1267", "is_disabled": 0, "is_reserved": 0}, {"rental_uris": {"ios": "https://dc.lft.to/lastmile_qr_scan", "android": "https://dc.lft.to/lastmile_qr_scan"}, "lon": -76.97614283333333, "type": "electric_scooter", "fusion_lat": 0.0, "lat": 38.90386616666667, "name": "75cf616f88d6ba49f6a5986ed0098fa9", "fusion_lon": 0.0, "bike_id": "75cf616f88d6ba49f6a5986ed0098fa9", "is_disabled": 0, "is_reserved": 0}, {"rental_uris": {"ios": "https://dc.lft.to/lastmile_qr_scan", "android": "https://dc.lft.to/lastmile_qr_scan"}, "lon": -77.03238633333333, "type": "electric_scooter", "fusion_lat": 0.0, "lat": 38.928862333333335, "name": "71fe0fe1327c36b27f0f60667acbf6bb", "fusion_lon": 0.0, "bike_id": "71fe0fe1327c36b27f0f60667acbf6bb", "is_disabled": 0, "is_reserved": 0}, {"rental_uris": {"ios": "https://dc.lft.to/lastmile_qr_scan", "android": "https://dc.lft.to/lastmile_qr_scan"}, "lon": -77.028822, "type": "electric_scooter", "fusion_lat": 0.0, "lat": 38.90444316666667, "name": "656c45ec1e25fc382d405eaaaf384205", "fusion_lon": 0.0, "bike_id": "656c45ec1e25fc382d405eaaaf384205", "is_disabled": 0, "is_reserved": 0}, {"rental_uris": {"ios": "https://dc.lft.to/lastmile_qr_scan", "android": "https://dc.lft.to/lastmile_qr_scan"}, "lon": -77.02744, "type": "electric_scooter", "fusion_lat": 0.0, "lat": 38.89990733333333, "name": "a600d3314fe857e38529e3d3c37d95cf", "fusion_lon": 0.0, "bike_id": "a600d3314fe857e38529e3d3c37d95cf", "is_disabled": 0, "is_reserved": 0}, {"rental_uris": {"ios": "https://dc.lft.to/lastmile_qr_scan", "android": "https://dc.lft.to/lastmile_qr_scan"}, "lon": -77.03790983333333, "type": "electric_scooter", "fusion_lat": 0.0, "lat": 38.926283166666664, "name": "f2f05b5f959be6f64f3efeb392c37ba1", "fusion_lon": 0.0, "bike_id": "f2f05b5f959be6f64f3efeb392c37ba1", "is_disabled": 0, "is_reserved": 0}, {"rental_uris": {"ios": "https://dc.lft.to/lastmile_qr_scan", "android": "https://dc.lft.to/lastmile_qr_scan"}, "lon": -76.9576275, "type": "electric_bike", "fusion_lat": 0.0, "lat": 38.884222, "name": "f09ee8f762b48b1a787293bbcd98252c", "fusion_lon": 0.0, "bike_id": "f09ee8f762b48b1a787293bbcd98252c", "is_disabled": 0, "is_reserved": 0}, {"rental_uris": {"ios": "https://dc.lft.to/lastmile_qr_scan", "android": "https://dc.lft.to/lastmile_qr_scan"}, "lon": -76.99519566666666, "type": "electric_scooter", "fusion_lat": 0.0, "lat": 38.894831833333335, "name": "8b02db5213361b0af99be4ca0ede162a", "fusion_lon": 0.0, "bike_id": "8b02db5213361b0af99be4ca0ede162a", "is_disabled": 0, "is_reserved": 0}, {"rental_uris": {"ios": "https://dc.lft.to/lastmile_qr_scan", "android": "https://dc.lft.to/lastmile_qr_scan"}, "lon": -76.99359633333333, "type": "electric_scooter", "fusion_lat": 0.0, "lat": 38.90039983333333, "name": "cdd578c17b7447f9e8f6ab8d0ba2f095", "fusion_lon": 0.0, "bike_id": "cdd578c17b7447f9e8f6ab8d0ba2f095", "is_disabled": 0, "is_reserved": 0}, {"rental_uris": {"ios": "https://dc.lft.to/lastmile_qr_scan", "android": "https://dc.lft.to/lastmile_qr_scan"}, "lon": -76.931738, "type": "electric_scooter", "fusion_lat": 0.0, "lat": 38.898847, "name": "5129dff71c488054137818018cad9ad9", "fusion_lon": 0.0, "bike_id": "5129dff71c488054137818018cad9ad9", "is_disabled": 0, "is_reserved": 0}, {"rental_uris": {"ios": "https://dc.lft.to/lastmile_qr_scan", "android": "https://dc.lft.to/lastmile_qr_scan"}, "lon": -77.01092783333333, "type": "electric_scooter", "fusion_lat": 0.0, "lat": 38.894942, "name": "7ed7bd136a1b5d75cc9723ce8282dc9b", "fusion_lon": 0.0, "bike_id": "7ed7bd136a1b5d75cc9723ce8282dc9b", "is_disabled": 0, "is_reserved": 0}, {"rental_uris": {"ios": "https://dc.lft.to/lastmile_qr_scan", "android": "https://dc.lft.to/lastmile_qr_scan"}, "lon": -76.95753883333333, "type": "electric_scooter", "fusion_lat": 0.0, "lat": 38.884305166666664, "name": "5f0a27eab6347cd100effd07f79738b2", "fusion_lon": 0.0, "bike_id": "5f0a27eab6347cd100effd07f79738b2", "is_disabled": 0, "is_reserved": 0}, {"rental_uris": {"ios": "https://dc.lft.to/lastmile_qr_scan", "android": "https://dc.lft.to/lastmile_qr_scan"}, "lon": -77.0308305, "type": "electric_scooter", "fusion_lat": 0.0, "lat": 38.88035466666667, "name": "e7a98ea0067944fbafc04851b93313a1", "fusion_lon": 0.0, "bike_id": "e7a98ea0067944fbafc04851b93313a1", "is_disabled": 0, "is_reserved": 0}, {"rental_uris": {"ios": "https://dc.lft.to/lastmile_qr_scan", "android": "https://dc.lft.to/lastmile_qr_scan"}, "lon": -76.96507583333333, "type": "electric_scooter", "fusion_lat": 0.0, "lat": 38.87649316666667, "name": "b649721b98604387af95c52b76ff09ba", "fusion_lon": 0.0, "bike_id": "b649721b98604387af95c52b76ff09ba", "is_disabled": 0, "is_reserved": 0}, {"rental_uris": {"ios": "https://dc.lft.to/lastmile_qr_scan", "android": "https://dc.lft.to/lastmile_qr_scan"}, "lon": -77.02490683333333, "type": "electric_scooter", "fusion_lat": 0.0, "lat": 38.9418575, "name": "6cbfd9a3795256b8254dfd7f01f950ac", "fusion_lon": 0.0, "bike_id": "6cbfd9a3795256b8254dfd7f01f950ac", "is_disabled": 0, "is_reserved": 0}, {"rental_uris": {"ios": "https://dc.lft.to/lastmile_qr_scan", "android": "https://dc.lft.to/lastmile_qr_scan"}, "lon": -77.031734, "type": "electric_scooter", "fusion_lat": 0.0, "lat": 38.89937533333333, "name": "432aed4f822516b2869d249e405743de", "fusion_lon": 0.0, "bike_id": "432aed4f822516b2869d249e405743de", "is_disabled": 0, "is_reserved": 0}, {"rental_uris": {"ios": "https://dc.lft.to/lastmile_qr_scan", "android": "https://dc.lft.to/lastmile_qr_scan"}, "lon": -77.15267583333333, "type": "electric_bike", "fusion_lat": 0.0, "lat": 39.1056705, "name": "3aa7769386a82be23b54f5a1b11ce50e", "fusion_lon": 0.0, "bike_id": "3aa7769386a82be23b54f5a1b11ce50e", "is_disabled": 0, "is_reserved": 0}, {"rental_uris": {"ios": "https://dc.lft.to/lastmile_qr_scan", "android": "https://dc.lft.to/lastmile_qr_scan"}, "lon": -77.01716633333334, "type": "electric_scooter", "fusion_lat": 0.0, "lat": 38.9117385, "name": "83d36a34ec6d6e879dbc068cedafde8f", "fusion_lon": 0.0, "bike_id": "83d36a34ec6d6e879dbc068cedafde8f", "is_disabled": 0, "is_reserved": 0}, {"rental_uris": {"ios": "https://dc.lft.to/lastmile_qr_scan", "android": "https://dc.lft.to/lastmile_qr_scan"}, "lon": -76.93793583333333, "type": "electric_scooter", "fusion_lat": 0.0, "lat": 38.89083333333333, "name": "1e2c819c62c57357364fa6db081b77f9", "fusion_lon": 0.0, "bike_id": "1e2c819c62c57357364fa6db081b77f9", "is_disabled": 0, "is_reserved": 0}, {"rental_uris": {"ios": "https://dc.lft.to/lastmile_qr_scan", "android": "https://dc.lft.to/lastmile_qr_scan"}, "lon": -77.02222733333333, "type": "electric_scooter", "fusion_lat": 0.0, "lat": 38.8935345, "name": "c8e9c62bc3f3d1a0d7987e812a524daf", "fusion_lon": 0.0, "bike_id": "c8e9c62bc3f3d1a0d7987e812a524daf", "is_disabled": 0, "is_reserved": 0}, {"rental_uris": {"ios": "https://dc.lft.to/lastmile_qr_scan", "android": "https://dc.lft.to/lastmile_qr_scan"}, "lon": -77.0389635, "type": "electric_scooter", "fusion_lat": 0.0, "lat": 38.921865333333336, "name": "21acd6bb184696a0aa841a6d298d6584", "fusion_lon": 0.0, "bike_id": "21acd6bb184696a0aa841a6d298d6584", "is_disabled": 0, "is_reserved": 0}, {"rental_uris": {"ios": "https://dc.lft.to/lastmile_qr_scan", "android": "https://dc.lft.to/lastmile_qr_scan"}, "lon": -77.0298365, "type": "electric_scooter", "fusion_lat": 0.0, "lat": 38.907179, "name": "b5985c86af90c460e49bce81d78bc252", "fusion_lon": 0.0, "bike_id": "b5985c86af90c460e49bce81d78bc252", "is_disabled": 0, "is_reserved": 0}, {"rental_uris": {"ios": "https://dc.lft.to/lastmile_qr_scan", "android": "https://dc.lft.to/lastmile_qr_scan"}, "lon": -76.98021416666667, "type": "electric_scooter", "fusion_lat": 0.0, "lat": 38.88768483333333, "name": "acaa1433d840a61da80cf69c9c9bbbbe", "fusion_lon": 0.0, "bike_id": "acaa1433d840a61da80cf69c9c9bbbbe", "is_disabled": 0, "is_reserved": 0}, {"rental_uris": {"ios": "https://dc.lft.to/lastmile_qr_scan", "android": "https://dc.lft.to/lastmile_qr_scan"}, "lon": -77.00739433333334, "type": "electric_scooter", "fusion_lat": 0.0, "lat": 38.916251, "name": "47c53cfdff1f0c15fff358b6ea881aeb", "fusion_lon": 0.0, "bike_id": "47c53cfdff1f0c15fff358b6ea881aeb", "is_disabled": 0, "is_reserved": 0}, {"rental_uris": {"ios": "https://dc.lft.to/lastmile_qr_scan", "android": "https://dc.lft.to/lastmile_qr_scan"}, "lon": -77.0068865, "type": "electric_scooter", "fusion_lat": 0.0, "lat": 38.90661933333333, "name": "9fb3996a42f07abe18685beea2ceb94f", "fusion_lon": 0.0, "bike_id": "9fb3996a42f07abe18685beea2ceb94f", "is_disabled": 0, "is_reserved": 0}, {"rental_uris": {"ios": "https://dc.lft.to/lastmile_qr_scan", "android": "https://dc.lft.to/lastmile_qr_scan"}, "lon": -77.01754616666666, "type": "electric_scooter", "fusion_lat": 0.0, "lat": 38.877072166666665, "name": "bf6a505f51300c70192b53a4500a3005", "fusion_lon": 0.0, "bike_id": "bf6a505f51300c70192b53a4500a3005", "is_disabled": 0, "is_reserved": 0}, {"rental_uris": {"ios": "https://dc.lft.to/lastmile_qr_scan", "android": "https://dc.lft.to/lastmile_qr_scan"}, "lon": -77.022293, "type": "electric_bike", "fusion_lat": 0.0, "lat": 38.95692283333333, "name": "e67a2ab60c2b283f7ba45db57caa0007", "fusion_lon": 0.0, "bike_id": "e67a2ab60c2b283f7ba45db57caa0007", "is_disabled": 0, "is_reserved": 0}, {"rental_uris": {"ios": "https://dc.lft.to/lastmile_qr_scan", "android": "https://dc.lft.to/lastmile_qr_scan"}, "lon": -76.99250333333333, "type": "electric_bike", "fusion_lat": 0.0, "lat": 38.9254865, "name": "2f259ba4adcd96887458b2521db3ca7a", "fusion_lon": 0.0, "bike_id": "2f259ba4adcd96887458b2521db3ca7a", "is_disabled": 0, "is_reserved": 0}, {"rental_uris": {"ios": "https://dc.lft.to/lastmile_qr_scan", "android": "https://dc.lft.to/lastmile_qr_scan"}, "lon": -77.0635355, "type": "electric_scooter", "fusion_lat": 0.0, "lat": 38.944476333333334, "name": "9a5cf2472ae7dbba4c180c5fa18dc0a2", "fusion_lon": 0.0, "bike_id": "9a5cf2472ae7dbba4c180c5fa18dc0a2", "is_disabled": 0, "is_reserved": 0}, {"rental_uris": {"ios": "https://dc.lft.to/lastmile_qr_scan", "android": "https://dc.lft.to/lastmile_qr_scan"}, "lon": -76.9727185, "type": "electric_bike", "fusion_lat": 0.0, "lat": 38.9197505, "name": "f87b45bed259606f930a1f8a5d4bcaac", "fusion_lon": 0.0, "bike_id": "f87b45bed259606f930a1f8a5d4bcaac", "is_disabled": 0, "is_reserved": 0}, {"rental_uris": {"ios": "https://dc.lft.to/lastmile_qr_scan", "android": "https://dc.lft.to/lastmile_qr_scan"}, "lon": -77.0318845, "type": "electric_scooter", "fusion_lat": 0.0, "lat": 38.92957166666667, "name": "35baf239f33522c6c0ab5c390d75ed78", "fusion_lon": 0.0, "bike_id": "35baf239f33522c6c0ab5c390d75ed78", "is_disabled": 0, "is_reserved": 0}, {"rental_uris": {"ios": "https://dc.lft.to/lastmile_qr_scan", "android": "https://dc.lft.to/lastmile_qr_scan"}, "lon": -77.0329545, "type": "electric_scooter", "fusion_lat": 0.0, "lat": 38.9288335, "name": "51e307f371dc767d6743597a75ffb27f", "fusion_lon": 0.0, "bike_id": "51e307f371dc767d6743597a75ffb27f", "is_disabled": 0, "is_reserved": 0}, {"rental_uris": {"ios": "https://dc.lft.to/lastmile_qr_scan", "android": "https://dc.lft.to/lastmile_qr_scan"}, "lon": -77.0403775, "type": "electric_scooter", "fusion_lat": 0.0, "lat": 38.924728, "name": "724babd6347aba83b90804282288f2e8", "fusion_lon": 0.0, "bike_id": "724babd6347aba83b90804282288f2e8", "is_disabled": 0, "is_reserved": 0}, {"rental_uris": {"ios": "https://dc.lft.to/lastmile_qr_scan", "android": "https://dc.lft.to/lastmile_qr_scan"}, "lon": -77.03148316666666, "type": "electric_scooter", "fusion_lat": 0.0, "lat": 38.915628, "name": "f166f7c92ca00e3d64d673de0388051d", "fusion_lon": 0.0, "bike_id": "f166f7c92ca00e3d64d673de0388051d", "is_disabled": 0, "is_reserved": 0}, {"rental_uris": {"ios": "https://dc.lft.to/lastmile_qr_scan", "android": "https://dc.lft.to/lastmile_qr_scan"}, "lon": -77.02370533333334, "type": "electric_scooter", "fusion_lat": 0.0, "lat": 38.936969500000004, "name": "edbfaa1fb0e725432375323b918ef5fc", "fusion_lon": 0.0, "bike_id": "edbfaa1fb0e725432375323b918ef5fc", "is_disabled": 0, "is_reserved": 0}, {"rental_uris": {"ios": "https://dc.lft.to/lastmile_qr_scan", "android": "https://dc.lft.to/lastmile_qr_scan"}, "lon": -77.110345, "type": "electric_bike", "fusion_lat": 0.0, "lat": 38.8708335, "name": "aedded8b5196598df6e070c5ae57f1fb", "fusion_lon": 0.0, "bike_id": "aedded8b5196598df6e070c5ae57f1fb", "is_disabled": 0, "is_reserved": 0}, {"rental_uris": {"ios": "https://dc.lft.to/lastmile_qr_scan", "android": "https://dc.lft.to/lastmile_qr_scan"}, "lon": -76.99001666666666, "type": "electric_scooter", "fusion_lat": 0.0, "lat": 38.86505666666667, "name": "906f989aafd5756743d8983fb37cf1c0", "fusion_lon": 0.0, "bike_id": "906f989aafd5756743d8983fb37cf1c0", "is_disabled": 0, "is_reserved": 0}, {"rental_uris": {"ios": "https://dc.lft.to/lastmile_qr_scan", "android": "https://dc.lft.to/lastmile_qr_scan"}, "lon": -77.042517, "type": "electric_scooter", "fusion_lat": 0.0, "lat": 38.922016166666666, "name": "0cbaf0f1cddb69a2b12a6682bd58ef7b", "fusion_lon": 0.0, "bike_id": "0cbaf0f1cddb69a2b12a6682bd58ef7b", "is_disabled": 0, "is_reserved": 0}, {"rental_uris": {"ios": "https://dc.lft.to/lastmile_qr_scan", "android": "https://dc.lft.to/lastmile_qr_scan"}, "lon": -77.01277683333333, "type": "electric_scooter", "fusion_lat": 0.0, "lat": 38.90615616666667, "name": "e589ff90f616f0653dcc658348544134", "fusion_lon": 0.0, "bike_id": "e589ff90f616f0653dcc658348544134", "is_disabled": 0, "is_reserved": 0}, {"rental_uris": {"ios": "https://dc.lft.to/lastmile_qr_scan", "android": "https://dc.lft.to/lastmile_qr_scan"}, "lon": -77.03167183333333, "type": "electric_scooter", "fusion_lat": 0.0, "lat": 38.907685666666666, "name": "8fc9a0f484038eec0737a7267ae3753c", "fusion_lon": 0.0, "bike_id": "8fc9a0f484038eec0737a7267ae3753c", "is_disabled": 0, "is_reserved": 0}, {"rental_uris": {"ios": "https://dc.lft.to/lastmile_qr_scan", "android": "https://dc.lft.to/lastmile_qr_scan"}, "lon": -76.98841666666667, "type": "electric_bike", "fusion_lat": 0.0, "lat": 38.84277683333333, "name": "ddd46f4566a065d4c920c3f7af1d7831", "fusion_lon": 0.0, "bike_id": "ddd46f4566a065d4c920c3f7af1d7831", "is_disabled": 0, "is_reserved": 0}, {"rental_uris": {"ios": "https://dc.lft.to/lastmile_qr_scan", "android": "https://dc.lft.to/lastmile_qr_scan"}, "lon": -77.01878366666666, "type": "electric_scooter", "fusion_lat": 0.0, "lat": 38.917443166666665, "name": "8449d4e67309999e4ecdef9e99290190", "fusion_lon": 0.0, "bike_id": "8449d4e67309999e4ecdef9e99290190", "is_disabled": 0, "is_reserved": 0}, {"rental_uris": {"ios": "https://dc.lft.to/lastmile_qr_scan", "android": "https://dc.lft.to/lastmile_qr_scan"}, "lon": -77.077777, "type": "electric_scooter", "fusion_lat": 0.0, "lat": 38.945590333333335, "name": "bf30421b5247be52c654174144572f1f", "fusion_lon": 0.0, "bike_id": "bf30421b5247be52c654174144572f1f", "is_disabled": 0, "is_reserved": 0}, {"rental_uris": {"ios": "https://dc.lft.to/lastmile_qr_scan", "android": "https://dc.lft.to/lastmile_qr_scan"}, "lon": -77.00567583333333, "type": "electric_scooter", "fusion_lat": 0.0, "lat": 38.879202, "name": "a9c550254ffe3480b4262057fbbda2f5", "fusion_lon": 0.0, "bike_id": "a9c550254ffe3480b4262057fbbda2f5", "is_disabled": 0, "is_reserved": 0}, {"rental_uris": {"ios": "https://dc.lft.to/lastmile_qr_scan", "android": "https://dc.lft.to/lastmile_qr_scan"}, "lon": -77.03290283333334, "type": "electric_scooter", "fusion_lat": 0.0, "lat": 38.934898833333335, "name": "cb30fdc03e9a36c8e5dc56af03acb0ac", "fusion_lon": 0.0, "bike_id": "cb30fdc03e9a36c8e5dc56af03acb0ac", "is_disabled": 0, "is_reserved": 0}, {"rental_uris": {"ios": "https://dc.lft.to/lastmile_qr_scan", "android": "https://dc.lft.to/lastmile_qr_scan"}, "lon": -77.00263816666667, "type": "electric_scooter", "fusion_lat": 0.0, "lat": 38.89895683333334, "name": "9cae6f84becbc37a33f0ced66728dc4a", "fusion_lon": 0.0, "bike_id": "9cae6f84becbc37a33f0ced66728dc4a", "is_disabled": 0, "is_reserved": 0}, {"rental_uris": {"ios": "https://dc.lft.to/lastmile_qr_scan", "android": "https://dc.lft.to/lastmile_qr_scan"}, "lon": -77.03796516666667, "type": "electric_scooter", "fusion_lat": 0.0, "lat": 38.926269, "name": "6347ac2ae6546cbf6b1893fe366314af", "fusion_lon": 0.0, "bike_id": "6347ac2ae6546cbf6b1893fe366314af", "is_disabled": 0, "is_reserved": 0}, {"rental_uris": {"ios": "https://dc.lft.to/lastmile_qr_scan", "android": "https://dc.lft.to/lastmile_qr_scan"}, "lon": -77.01079766666666, "type": "electric_bike", "fusion_lat": 0.0, "lat": 38.956556666666664, "name": "1bd65b394bbca8417f28b32673915d60", "fusion_lon": 0.0, "bike_id": "1bd65b394bbca8417f28b32673915d60", "is_disabled": 0, "is_reserved": 0}, {"rental_uris": {"ios": "https://dc.lft.to/lastmile_qr_scan", "android": "https://dc.lft.to/lastmile_qr_scan"}, "lon": -76.99621966666666, "type": "electric_scooter", "fusion_lat": 0.0, "lat": 38.877298333333336, "name": "a2fea571050da8beff65866aa26571f7", "fusion_lon": 0.0, "bike_id": "a2fea571050da8beff65866aa26571f7", "is_disabled": 0, "is_reserved": 0}, {"rental_uris": {"ios": "https://dc.lft.to/lastmile_qr_scan", "android": "https://dc.lft.to/lastmile_qr_scan"}, "lon": -77.04836033333333, "type": "electric_scooter", "fusion_lat": 0.0, "lat": 38.909738833333336, "name": "25a14bd03bcd433e6f1d724d5773f589", "fusion_lon": 0.0, "bike_id": "25a14bd03bcd433e6f1d724d5773f589", "is_disabled": 0, "is_reserved": 0}, {"rental_uris": {"ios": "https://dc.lft.to/lastmile_qr_scan", "android": "https://dc.lft.to/lastmile_qr_scan"}, "lon": -77.03385016666667, "type": "electric_scooter", "fusion_lat": 0.0, "lat": 38.90612016666667, "name": "f987b2a9e20c7186e0b7d1de8d248565", "fusion_lon": 0.0, "bike_id": "f987b2a9e20c7186e0b7d1de8d248565", "is_disabled": 0, "is_reserved": 0}, {"rental_uris": {"ios": "https://dc.lft.to/lastmile_qr_scan", "android": "https://dc.lft.to/lastmile_qr_scan"}, "lon": -76.98949133333333, "type": "electric_scooter", "fusion_lat": 0.0, "lat": 38.90139883333333, "name": "d71f7fd97001c2410316e4e918d93afb", "fusion_lon": 0.0, "bike_id": "d71f7fd97001c2410316e4e918d93afb", "is_disabled": 0, "is_reserved": 0}, {"rental_uris": {"ios": "https://dc.lft.to/lastmile_qr_scan", "android": "https://dc.lft.to/lastmile_qr_scan"}, "lon": -76.98441016666666, "type": "electric_scooter", "fusion_lat": 0.0, "lat": 38.9146135, "name": "019b43a4cd71c1215bfb87b85c8a3755", "fusion_lon": 0.0, "bike_id": "019b43a4cd71c1215bfb87b85c8a3755", "is_disabled": 0, "is_reserved": 0}, {"rental_uris": {"ios": "https://dc.lft.to/lastmile_qr_scan", "android": "https://dc.lft.to/lastmile_qr_scan"}, "lon": -76.99364033333333, "type": "electric_scooter", "fusion_lat": 0.0, "lat": 38.9004235, "name": "dae5b450e982278560a5e8c97c5771fb", "fusion_lon": 0.0, "bike_id": "dae5b450e982278560a5e8c97c5771fb", "is_disabled": 0, "is_reserved": 0}, {"rental_uris": {"ios": "https://dc.lft.to/lastmile_qr_scan", "android": "https://dc.lft.to/lastmile_qr_scan"}, "lon": -76.9981035, "type": "electric_scooter", "fusion_lat": 0.0, "lat": 38.900222166666666, "name": "b8b621c371290d2cdff4028e4181c99b", "fusion_lon": 0.0, "bike_id": "b8b621c371290d2cdff4028e4181c99b", "is_disabled": 0, "is_reserved": 0}, {"rental_uris": {"ios": "https://dc.lft.to/lastmile_qr_scan", "android": "https://dc.lft.to/lastmile_qr_scan"}, "lon": -77.0575755, "type": "electric_scooter", "fusion_lat": 0.0, "lat": 38.924660333333335, "name": "07491479e9195cf5dc61ed25954a0f53", "fusion_lon": 0.0, "bike_id": "07491479e9195cf5dc61ed25954a0f53", "is_disabled": 0, "is_reserved": 0}, {"rental_uris": {"ios": "https://dc.lft.to/lastmile_qr_scan", "android": "https://dc.lft.to/lastmile_qr_scan"}, "lon": -77.02711466666666, "type": "electric_scooter", "fusion_lat": 0.0, "lat": 38.91808316666667, "name": "42cacd9c60d95b54e38038b5d5cc6fd2", "fusion_lon": 0.0, "bike_id": "42cacd9c60d95b54e38038b5d5cc6fd2", "is_disabled": 0, "is_reserved": 0}, {"rental_uris": {"ios": "https://dc.lft.to/lastmile_qr_scan", "android": "https://dc.lft.to/lastmile_qr_scan"}, "lon": -77.0245895, "type": "electric_scooter", "fusion_lat": 0.0, "lat": 38.90245183333333, "name": "dc7492213b3f5f4419af6614f47bbc77", "fusion_lon": 0.0, "bike_id": "dc7492213b3f5f4419af6614f47bbc77", "is_disabled": 0, "is_reserved": 0}, {"rental_uris": {"ios": "https://dc.lft.to/lastmile_qr_scan", "android": "https://dc.lft.to/lastmile_qr_scan"}, "lon": -77.04444083333334, "type": "electric_scooter", "fusion_lat": 0.0, "lat": 38.90565466666666, "name": "25777d763ee50981b6fc4af095746810", "fusion_lon": 0.0, "bike_id": "25777d763ee50981b6fc4af095746810", "is_disabled": 0, "is_reserved": 0}, {"rental_uris": {"ios": "https://dc.lft.to/lastmile_qr_scan", "android": "https://dc.lft.to/lastmile_qr_scan"}, "lon": -77.01120483333334, "type": "electric_scooter", "fusion_lat": 0.0, "lat": 38.91184916666667, "name": "7f90db8ab35463ac6c36f70fe9be3c51", "fusion_lon": 0.0, "bike_id": "7f90db8ab35463ac6c36f70fe9be3c51", "is_disabled": 0, "is_reserved": 0}, {"rental_uris": {"ios": "https://dc.lft.to/lastmile_qr_scan", "android": "https://dc.lft.to/lastmile_qr_scan"}, "lon": -77.04873633333334, "type": "electric_scooter", "fusion_lat": 0.0, "lat": 38.90952633333333, "name": "8d40993f2d45702400baca657152018f", "fusion_lon": 0.0, "bike_id": "8d40993f2d45702400baca657152018f", "is_disabled": 0, "is_reserved": 0}, {"rental_uris": {"ios": "https://dc.lft.to/lastmile_qr_scan", "android": "https://dc.lft.to/lastmile_qr_scan"}, "lon": -77.0270225, "type": "electric_scooter", "fusion_lat": 0.0, "lat": 38.918729, "name": "e52622bd2b293672432cf140e0e456d7", "fusion_lon": 0.0, "bike_id": "e52622bd2b293672432cf140e0e456d7", "is_disabled": 0, "is_reserved": 0}, {"rental_uris": {"ios": "https://dc.lft.to/lastmile_qr_scan", "android": "https://dc.lft.to/lastmile_qr_scan"}, "lon": -76.89536566666666, "type": "electric_bike", "fusion_lat": 0.0, "lat": 38.945532, "name": "46aec6db4889a75eacf8da32325eb2ce", "fusion_lon": 0.0, "bike_id": "46aec6db4889a75eacf8da32325eb2ce", "is_disabled": 0, "is_reserved": 0}, {"rental_uris": {"ios": "https://dc.lft.to/lastmile_qr_scan", "android": "https://dc.lft.to/lastmile_qr_scan"}, "lon": -77.0296295, "type": "electric_scooter", "fusion_lat": 0.0, "lat": 38.92524516666667, "name": "5ff0be9d8795937a58ea2813eac5e371", "fusion_lon": 0.0, "bike_id": "5ff0be9d8795937a58ea2813eac5e371", "is_disabled": 0, "is_reserved": 0}, {"rental_uris": {"ios": "https://dc.lft.to/lastmile_qr_scan", "android": "https://dc.lft.to/lastmile_qr_scan"}, "lon": -77.02763583333333, "type": "electric_scooter", "fusion_lat": 0.0, "lat": 38.916945, "name": "eb83fdfdf42380eb0e64336d7e64075d", "fusion_lon": 0.0, "bike_id": "eb83fdfdf42380eb0e64336d7e64075d", "is_disabled": 0, "is_reserved": 0}, {"rental_uris": {"ios": "https://dc.lft.to/lastmile_qr_scan", "android": "https://dc.lft.to/lastmile_qr_scan"}, "lon": -77.0453665, "type": "electric_scooter", "fusion_lat": 0.0, "lat": 38.903922666666666, "name": "9c925428bf594c593f84323c4d5d1bda", "fusion_lon": 0.0, "bike_id": "9c925428bf594c593f84323c4d5d1bda", "is_disabled": 0, "is_reserved": 0}, {"rental_uris": {"ios": "https://dc.lft.to/lastmile_qr_scan", "android": "https://dc.lft.to/lastmile_qr_scan"}, "lon": -77.04811233333334, "type": "electric_scooter", "fusion_lat": 0.0, "lat": 38.897374166666665, "name": "fd52a14ad65bf3218446a810205474c3", "fusion_lon": 0.0, "bike_id": "fd52a14ad65bf3218446a810205474c3", "is_disabled": 0, "is_reserved": 0}, {"rental_uris": {"ios": "https://dc.lft.to/lastmile_qr_scan", "android": "https://dc.lft.to/lastmile_qr_scan"}, "lon": -77.01219466666667, "type": "electric_scooter", "fusion_lat": 0.0, "lat": 38.92037583333333, "name": "28ae52169c76aba1b629b11f1333f84e", "fusion_lon": 0.0, "bike_id": "28ae52169c76aba1b629b11f1333f84e", "is_disabled": 0, "is_reserved": 0}, {"rental_uris": {"ios": "https://dc.lft.to/lastmile_qr_scan", "android": "https://dc.lft.to/lastmile_qr_scan"}, "lon": -77.023851, "type": "electric_scooter", "fusion_lat": 0.0, "lat": 38.9196385, "name": "76d944295434da4a65523db9b1eb072f", "fusion_lon": 0.0, "bike_id": "76d944295434da4a65523db9b1eb072f", "is_disabled": 0, "is_reserved": 0}, {"rental_uris": {"ios": "https://dc.lft.to/lastmile_qr_scan", "android": "https://dc.lft.to/lastmile_qr_scan"}, "lon": -76.99160016666667, "type": "electric_scooter", "fusion_lat": 0.0, "lat": 38.8934555, "name": "364d66b16254c8832997ce0c65072a4a", "fusion_lon": 0.0, "bike_id": "364d66b16254c8832997ce0c65072a4a", "is_disabled": 0, "is_reserved": 0}, {"rental_uris": {"ios": "https://dc.lft.to/lastmile_qr_scan", "android": "https://dc.lft.to/lastmile_qr_scan"}, "lon": -77.05518966666666, "type": "electric_scooter", "fusion_lat": 0.0, "lat": 38.910632, "name": "241929b203d260fa7e46a986c5b0c87d", "fusion_lon": 0.0, "bike_id": "241929b203d260fa7e46a986c5b0c87d", "is_disabled": 0, "is_reserved": 0}, {"rental_uris": {"ios": "https://dc.lft.to/lastmile_qr_scan", "android": "https://dc.lft.to/lastmile_qr_scan"}, "lon": -77.02984483333333, "type": "electric_scooter", "fusion_lat": 0.0, "lat": 38.91624683333333, "name": "5755d479d35905b8cff7f16a2707a761", "fusion_lon": 0.0, "bike_id": "5755d479d35905b8cff7f16a2707a761", "is_disabled": 0, "is_reserved": 0}, {"rental_uris": {"ios": "https://dc.lft.to/lastmile_qr_scan", "android": "https://dc.lft.to/lastmile_qr_scan"}, "lon": -77.03898583333333, "type": "electric_scooter", "fusion_lat": 0.0, "lat": 38.918417166666664, "name": "650eb1779b3d1a3f0eb0a306c8b4bd48", "fusion_lon": 0.0, "bike_id": "650eb1779b3d1a3f0eb0a306c8b4bd48", "is_disabled": 0, "is_reserved": 0}, {"rental_uris": {"ios": "https://dc.lft.to/lastmile_qr_scan", "android": "https://dc.lft.to/lastmile_qr_scan"}, "lon": -77.04870283333334, "type": "electric_scooter", "fusion_lat": 0.0, "lat": 38.90076716666667, "name": "bd9c48bafd25a81415a0321bd1dcd3a7", "fusion_lon": 0.0, "bike_id": "bd9c48bafd25a81415a0321bd1dcd3a7", "is_disabled": 0, "is_reserved": 0}, {"rental_uris": {"ios": "https://dc.lft.to/lastmile_qr_scan", "android": "https://dc.lft.to/lastmile_qr_scan"}, "lon": -77.10699, "type": "electric_bike", "fusion_lat": 0.0, "lat": 38.85542866666667, "name": "cf5dce099830ce8e79404496a2ae7d09", "fusion_lon": 0.0, "bike_id": "cf5dce099830ce8e79404496a2ae7d09", "is_disabled": 0, "is_reserved": 0}, {"rental_uris": {"ios": "https://dc.lft.to/lastmile_qr_scan", "android": "https://dc.lft.to/lastmile_qr_scan"}, "lon": -77.04196216666666, "type": "electric_scooter", "fusion_lat": 0.0, "lat": 38.906052333333335, "name": "c4970d73fcb728d2517d706922669994", "fusion_lon": 0.0, "bike_id": "c4970d73fcb728d2517d706922669994", "is_disabled": 0, "is_reserved": 0}, {"rental_uris": {"ios": "https://dc.lft.to/lastmile_qr_scan", "android": "https://dc.lft.to/lastmile_qr_scan"}, "lon": -77.02363966666667, "type": "electric_scooter", "fusion_lat": 0.0, "lat": 38.93769666666667, "name": "0c4dba9c7db5a627833cac891323a1c9", "fusion_lon": 0.0, "bike_id": "0c4dba9c7db5a627833cac891323a1c9", "is_disabled": 0, "is_reserved": 0}, {"rental_uris": {"ios": "https://dc.lft.to/lastmile_qr_scan", "android": "https://dc.lft.to/lastmile_qr_scan"}, "lon": -77.00767066666667, "type": "electric_scooter", "fusion_lat": 0.0, "lat": 38.90750166666667, "name": "dcdd3ff53cc432158d7ea11d9294c0ae", "fusion_lon": 0.0, "bike_id": "dcdd3ff53cc432158d7ea11d9294c0ae", "is_disabled": 0, "is_reserved": 0}, {"rental_uris": {"ios": "https://dc.lft.to/lastmile_qr_scan", "android": "https://dc.lft.to/lastmile_qr_scan"}, "lon": -77.0364755, "type": "electric_scooter", "fusion_lat": 0.0, "lat": 38.90795583333333, "name": "d8436588baf5b2ded107715cba9bff78", "fusion_lon": 0.0, "bike_id": "d8436588baf5b2ded107715cba9bff78", "is_disabled": 0, "is_reserved": 0}, {"rental_uris": {"ios": "https://dc.lft.to/lastmile_qr_scan", "android": "https://dc.lft.to/lastmile_qr_scan"}, "lon": -77.023158, "type": "electric_scooter", "fusion_lat": 0.0, "lat": 38.927265166666665, "name": "26b6f3721c01670118f46e8bf85bd4f5", "fusion_lon": 0.0, "bike_id": "26b6f3721c01670118f46e8bf85bd4f5", "is_disabled": 0, "is_reserved": 0}, {"rental_uris": {"ios": "https://dc.lft.to/lastmile_qr_scan", "android": "https://dc.lft.to/lastmile_qr_scan"}, "lon": -77.021843, "type": "electric_scooter", "fusion_lat": 0.0, "lat": 38.905462166666666, "name": "33ef1b54086c3bba4eee66c1cf7b336a", "fusion_lon": 0.0, "bike_id": "33ef1b54086c3bba4eee66c1cf7b336a", "is_disabled": 0, "is_reserved": 0}, {"rental_uris": {"ios": "https://dc.lft.to/lastmile_qr_scan", "android": "https://dc.lft.to/lastmile_qr_scan"}, "lon": -76.95413066666667, "type": "electric_scooter", "fusion_lat": 0.0, "lat": 38.89000466666667, "name": "3e4d7b54d07da84a6d20a9f76e670afc", "fusion_lon": 0.0, "bike_id": "3e4d7b54d07da84a6d20a9f76e670afc", "is_disabled": 0, "is_reserved": 0}, {"rental_uris": {"ios": "https://dc.lft.to/lastmile_qr_scan", "android": "https://dc.lft.to/lastmile_qr_scan"}, "lon": -77.01660183333334, "type": "electric_bike", "fusion_lat": 0.0, "lat": 38.88113216666667, "name": "f5a2324bef9a2f7d1eacfa090b2c65db", "fusion_lon": 0.0, "bike_id": "f5a2324bef9a2f7d1eacfa090b2c65db", "is_disabled": 0, "is_reserved": 0}, {"rental_uris": {"ios": "https://dc.lft.to/lastmile_qr_scan", "android": "https://dc.lft.to/lastmile_qr_scan"}, "lon": -77.071189, "type": "electric_scooter", "fusion_lat": 0.0, "lat": 38.91467566666667, "name": "2e4e6ec74284c74fb54468c304b548fe", "fusion_lon": 0.0, "bike_id": "2e4e6ec74284c74fb54468c304b548fe", "is_disabled": 0, "is_reserved": 0}, {"rental_uris": {"ios": "https://dc.lft.to/lastmile_qr_scan", "android": "https://dc.lft.to/lastmile_qr_scan"}, "lon": -77.02450633333333, "type": "electric_scooter", "fusion_lat": 0.0, "lat": 38.9365455, "name": "e36089dba6b62db88f5d4b9d013136a2", "fusion_lon": 0.0, "bike_id": "e36089dba6b62db88f5d4b9d013136a2", "is_disabled": 0, "is_reserved": 0}, {"rental_uris": {"ios": "https://dc.lft.to/lastmile_qr_scan", "android": "https://dc.lft.to/lastmile_qr_scan"}, "lon": -77.038623, "type": "electric_scooter", "fusion_lat": 0.0, "lat": 38.90972383333333, "name": "f319e6ca86f2d1797947b0748bf80a16", "fusion_lon": 0.0, "bike_id": "f319e6ca86f2d1797947b0748bf80a16", "is_disabled": 0, "is_reserved": 0}, {"rental_uris": {"ios": "https://dc.lft.to/lastmile_qr_scan", "android": "https://dc.lft.to/lastmile_qr_scan"}, "lon": -77.01604416666666, "type": "electric_scooter", "fusion_lat": 0.0, "lat": 38.910107333333336, "name": "853e1c78ec960144e3c7d5234a4f95da", "fusion_lon": 0.0, "bike_id": "853e1c78ec960144e3c7d5234a4f95da", "is_disabled": 0, "is_reserved": 0}, {"rental_uris": {"ios": "https://dc.lft.to/lastmile_qr_scan", "android": "https://dc.lft.to/lastmile_qr_scan"}, "lon": -77.10507683333333, "type": "electric_bike", "fusion_lat": 0.0, "lat": 38.92847166666667, "name": "27a57dd49255d25ab06e9c4028b792cb", "fusion_lon": 0.0, "bike_id": "27a57dd49255d25ab06e9c4028b792cb", "is_disabled": 0, "is_reserved": 0}, {"rental_uris": {"ios": "https://dc.lft.to/lastmile_qr_scan", "android": "https://dc.lft.to/lastmile_qr_scan"}, "lon": -76.96975833333333, "type": "electric_scooter", "fusion_lat": 0.0, "lat": 38.86167283333333, "name": "429c6e4424ea2b585ef7694c2a7b6923", "fusion_lon": 0.0, "bike_id": "429c6e4424ea2b585ef7694c2a7b6923", "is_disabled": 0, "is_reserved": 0}, {"rental_uris": {"ios": "https://dc.lft.to/lastmile_qr_scan", "android": "https://dc.lft.to/lastmile_qr_scan"}, "lon": -76.99962166666667, "type": "electric_scooter", "fusion_lat": 0.0, "lat": 38.90867166666666, "name": "051074eb9694b69d33f4103479fc1826", "fusion_lon": 0.0, "bike_id": "051074eb9694b69d33f4103479fc1826", "is_disabled": 0, "is_reserved": 0}, {"rental_uris": {"ios": "https://dc.lft.to/lastmile_qr_scan", "android": "https://dc.lft.to/lastmile_qr_scan"}, "lon": -77.0274135, "type": "electric_scooter", "fusion_lat": 0.0, "lat": 38.927762, "name": "904de4a3fb53246aef8dde32c44bce96", "fusion_lon": 0.0, "bike_id": "904de4a3fb53246aef8dde32c44bce96", "is_disabled": 0, "is_reserved": 0}, {"rental_uris": {"ios": "https://dc.lft.to/lastmile_qr_scan", "android": "https://dc.lft.to/lastmile_qr_scan"}, "lon": -77.01534033333333, "type": "electric_scooter", "fusion_lat": 0.0, "lat": 38.8874385, "name": "3a385348eac891d1b80311e621f22095", "fusion_lon": 0.0, "bike_id": "3a385348eac891d1b80311e621f22095", "is_disabled": 0, "is_reserved": 0}, {"rental_uris": {"ios": "https://dc.lft.to/lastmile_qr_scan", "android": "https://dc.lft.to/lastmile_qr_scan"}, "lon": -77.014005, "type": "electric_scooter", "fusion_lat": 0.0, "lat": 38.919508666666665, "name": "2672e5757d9476abe0326cea261dccc5", "fusion_lon": 0.0, "bike_id": "2672e5757d9476abe0326cea261dccc5", "is_disabled": 0, "is_reserved": 0}, {"rental_uris": {"ios": "https://dc.lft.to/lastmile_qr_scan", "android": "https://dc.lft.to/lastmile_qr_scan"}, "lon": -77.03070133333334, "type": "electric_scooter", "fusion_lat": 0.0, "lat": 38.923826166666665, "name": "755b23a905ff5f2bc6411eb26946ccf7", "fusion_lon": 0.0, "bike_id": "755b23a905ff5f2bc6411eb26946ccf7", "is_disabled": 0, "is_reserved": 0}, {"rental_uris": {"ios": "https://dc.lft.to/lastmile_qr_scan", "android": "https://dc.lft.to/lastmile_qr_scan"}, "lon": -77.0534345, "type": "electric_scooter", "fusion_lat": 0.0, "lat": 38.92724783333333, "name": "0701b4f750338320d82474e0cd882624", "fusion_lon": 0.0, "bike_id": "0701b4f750338320d82474e0cd882624", "is_disabled": 0, "is_reserved": 0}, {"rental_uris": {"ios": "https://dc.lft.to/lastmile_qr_scan", "android": "https://dc.lft.to/lastmile_qr_scan"}, "lon": -77.0413035, "type": "electric_scooter", "fusion_lat": 0.0, "lat": 38.9243385, "name": "f6d4ca8d5899dd57493bce51026586a0", "fusion_lon": 0.0, "bike_id": "f6d4ca8d5899dd57493bce51026586a0", "is_disabled": 0, "is_reserved": 0}, {"rental_uris": {"ios": "https://dc.lft.to/lastmile_qr_scan", "android": "https://dc.lft.to/lastmile_qr_scan"}, "lon": -77.02951466666667, "type": "electric_scooter", "fusion_lat": 0.0, "lat": 38.93243016666667, "name": "ed9c45fb9b1fd6b1d3218cabcf4c6062", "fusion_lon": 0.0, "bike_id": "ed9c45fb9b1fd6b1d3218cabcf4c6062", "is_disabled": 0, "is_reserved": 0}, {"rental_uris": {"ios": "https://dc.lft.to/lastmile_qr_scan", "android": "https://dc.lft.to/lastmile_qr_scan"}, "lon": -77.02837766666667, "type": "electric_scooter", "fusion_lat": 0.0, "lat": 38.928607, "name": "b06b1aaff1f47c457538d562f6ace8da", "fusion_lon": 0.0, "bike_id": "b06b1aaff1f47c457538d562f6ace8da", "is_disabled": 0, "is_reserved": 0}, {"rental_uris": {"ios": "https://dc.lft.to/lastmile_qr_scan", "android": "https://dc.lft.to/lastmile_qr_scan"}, "lon": -77.03082883333333, "type": "electric_scooter", "fusion_lat": 0.0, "lat": 38.894595833333334, "name": "1b8527b24c3e89ca698ec76ae7d28b15", "fusion_lon": 0.0, "bike_id": "1b8527b24c3e89ca698ec76ae7d28b15", "is_disabled": 0, "is_reserved": 0}, {"rental_uris": {"ios": "https://dc.lft.to/lastmile_qr_scan", "android": "https://dc.lft.to/lastmile_qr_scan"}, "lon": -77.07367833333333, "type": "electric_bike", "fusion_lat": 0.0, "lat": 38.9619435, "name": "2430014f02f6fbc995ee88cd6b8dfe10", "fusion_lon": 0.0, "bike_id": "2430014f02f6fbc995ee88cd6b8dfe10", "is_disabled": 0, "is_reserved": 0}, {"rental_uris": {"ios": "https://dc.lft.to/lastmile_qr_scan", "android": "https://dc.lft.to/lastmile_qr_scan"}, "lon": -77.03619766666667, "type": "electric_scooter", "fusion_lat": 0.0, "lat": 38.906841, "name": "cdd7330842130278d99d0e419d50e30e", "fusion_lon": 0.0, "bike_id": "cdd7330842130278d99d0e419d50e30e", "is_disabled": 0, "is_reserved": 0}, {"rental_uris": {"ios": "https://dc.lft.to/lastmile_qr_scan", "android": "https://dc.lft.to/lastmile_qr_scan"}, "lon": -77.0593055, "type": "electric_scooter", "fusion_lat": 0.0, "lat": 38.90915666666667, "name": "ee948376da23d8c1c022d40b75bd087d", "fusion_lon": 0.0, "bike_id": "ee948376da23d8c1c022d40b75bd087d", "is_disabled": 0, "is_reserved": 0}, {"rental_uris": {"ios": "https://dc.lft.to/lastmile_qr_scan", "android": "https://dc.lft.to/lastmile_qr_scan"}, "lon": -77.047932, "type": "electric_scooter", "fusion_lat": 0.0, "lat": 38.8977275, "name": "af7043f1e518db9888f5b428df8966c1", "fusion_lon": 0.0, "bike_id": "af7043f1e518db9888f5b428df8966c1", "is_disabled": 0, "is_reserved": 0}, {"rental_uris": {"ios": "https://dc.lft.to/lastmile_qr_scan", "android": "https://dc.lft.to/lastmile_qr_scan"}, "lon": -77.044948, "type": "electric_scooter", "fusion_lat": 0.0, "lat": 38.91862733333333, "name": "35ddf28036e9d465b014abe2edd47fc9", "fusion_lon": 0.0, "bike_id": "35ddf28036e9d465b014abe2edd47fc9", "is_disabled": 0, "is_reserved": 0}, {"rental_uris": {"ios": "https://dc.lft.to/lastmile_qr_scan", "android": "https://dc.lft.to/lastmile_qr_scan"}, "lon": -77.018686, "type": "electric_scooter", "fusion_lat": 0.0, "lat": 38.94894466666667, "name": "9784c66874e1accaca8c965bc7aae0b8", "fusion_lon": 0.0, "bike_id": "9784c66874e1accaca8c965bc7aae0b8", "is_disabled": 0, "is_reserved": 0}, {"rental_uris": {"ios": "https://dc.lft.to/lastmile_qr_scan", "android": "https://dc.lft.to/lastmile_qr_scan"}, "lon": -76.96523133333334, "type": "electric_scooter", "fusion_lat": 0.0, "lat": 38.87629183333333, "name": "d179173c9afdf33d8738decbe23cfc99", "fusion_lon": 0.0, "bike_id": "d179173c9afdf33d8738decbe23cfc99", "is_disabled": 0, "is_reserved": 0}, {"rental_uris": {"ios": "https://dc.lft.to/lastmile_qr_scan", "android": "https://dc.lft.to/lastmile_qr_scan"}, "lon": -76.99745916666667, "type": "electric_scooter", "fusion_lat": 0.0, "lat": 38.90931333333333, "name": "72017aae449353c4942a2f01b4899b1a", "fusion_lon": 0.0, "bike_id": "72017aae449353c4942a2f01b4899b1a", "is_disabled": 0, "is_reserved": 0}, {"rental_uris": {"ios": "https://dc.lft.to/lastmile_qr_scan", "android": "https://dc.lft.to/lastmile_qr_scan"}, "lon": -77.0660795, "type": "electric_scooter", "fusion_lat": 0.0, "lat": 38.9054295, "name": "fdadb2bc5adc41402416634a1d0e3050", "fusion_lon": 0.0, "bike_id": "fdadb2bc5adc41402416634a1d0e3050", "is_disabled": 0, "is_reserved": 0}, {"rental_uris": {"ios": "https://dc.lft.to/lastmile_qr_scan", "android": "https://dc.lft.to/lastmile_qr_scan"}, "lon": -77.08818133333334, "type": "electric_bike", "fusion_lat": 0.0, "lat": 38.911686833333334, "name": "1e7adb2fe53bc4135110d9164369ee33", "fusion_lon": 0.0, "bike_id": "1e7adb2fe53bc4135110d9164369ee33", "is_disabled": 0, "is_reserved": 0}, {"rental_uris": {"ios": "https://dc.lft.to/lastmile_qr_scan", "android": "https://dc.lft.to/lastmile_qr_scan"}, "lon": -77.0217255, "type": "electric_scooter", "fusion_lat": 0.0, "lat": 38.942924, "name": "73ee1131fd839edb809b46568e10917f", "fusion_lon": 0.0, "bike_id": "73ee1131fd839edb809b46568e10917f", "is_disabled": 0, "is_reserved": 0}, {"rental_uris": {"ios": "https://dc.lft.to/lastmile_qr_scan", "android": "https://dc.lft.to/lastmile_qr_scan"}, "lon": -76.94995633333333, "type": "electric_scooter", "fusion_lat": 0.0, "lat": 38.89376383333333, "name": "c5f2ec55b0b9f237bb79016d21253ab7", "fusion_lon": 0.0, "bike_id": "c5f2ec55b0b9f237bb79016d21253ab7", "is_disabled": 0, "is_reserved": 0}, {"rental_uris": {"ios": "https://dc.lft.to/lastmile_qr_scan", "android": "https://dc.lft.to/lastmile_qr_scan"}, "lon": -77.02531866666666, "type": "electric_scooter", "fusion_lat": 0.0, "lat": 38.94299783333334, "name": "197fd39371536702b1f1360d3d6b880d", "fusion_lon": 0.0, "bike_id": "197fd39371536702b1f1360d3d6b880d", "is_disabled": 0, "is_reserved": 0}, {"rental_uris": {"ios": "https://dc.lft.to/lastmile_qr_scan", "android": "https://dc.lft.to/lastmile_qr_scan"}, "lon": -77.03651333333333, "type": "electric_scooter", "fusion_lat": 0.0, "lat": 38.9028255, "name": "62420b710b2997a1db8da41dac8589d3", "fusion_lon": 0.0, "bike_id": "62420b710b2997a1db8da41dac8589d3", "is_disabled": 0, "is_reserved": 0}, {"rental_uris": {"ios": "https://dc.lft.to/lastmile_qr_scan", "android": "https://dc.lft.to/lastmile_qr_scan"}, "lon": -76.97881033333333, "type": "electric_scooter", "fusion_lat": 0.0, "lat": 38.8876905, "name": "3ade9d7d90ce5013abdf4fe383733919", "fusion_lon": 0.0, "bike_id": "3ade9d7d90ce5013abdf4fe383733919", "is_disabled": 0, "is_reserved": 0}, {"rental_uris": {"ios": "https://dc.lft.to/lastmile_qr_scan", "android": "https://dc.lft.to/lastmile_qr_scan"}, "lon": -76.94892016666667, "type": "electric_scooter", "fusion_lat": 0.0, "lat": 38.8953995, "name": "e9f6ea8e023de95c2136f437b43cbe90", "fusion_lon": 0.0, "bike_id": "e9f6ea8e023de95c2136f437b43cbe90", "is_disabled": 0, "is_reserved": 0}, {"rental_uris": {"ios": "https://dc.lft.to/lastmile_qr_scan", "android": "https://dc.lft.to/lastmile_qr_scan"}, "lon": -77.00482416666667, "type": "electric_scooter", "fusion_lat": 0.0, "lat": 38.94407433333333, "name": "bed2bea0f3f7d0a08b667c4ac96a32b9", "fusion_lon": 0.0, "bike_id": "bed2bea0f3f7d0a08b667c4ac96a32b9", "is_disabled": 0, "is_reserved": 0}, {"rental_uris": {"ios": "https://dc.lft.to/lastmile_qr_scan", "android": "https://dc.lft.to/lastmile_qr_scan"}, "lon": -76.9897165, "type": "electric_scooter", "fusion_lat": 0.0, "lat": 38.859222333333335, "name": "a0a928ffb1d8da6616a582634d965363", "fusion_lon": 0.0, "bike_id": "a0a928ffb1d8da6616a582634d965363", "is_disabled": 0, "is_reserved": 0}, {"rental_uris": {"ios": "https://dc.lft.to/lastmile_qr_scan", "android": "https://dc.lft.to/lastmile_qr_scan"}, "lon": -77.038089, "type": "electric_scooter", "fusion_lat": 0.0, "lat": 38.9339935, "name": "b6e509a3c899d914ea8998593c2896a9", "fusion_lon": 0.0, "bike_id": "b6e509a3c899d914ea8998593c2896a9", "is_disabled": 0, "is_reserved": 0}, {"rental_uris": {"ios": "https://dc.lft.to/lastmile_qr_scan", "android": "https://dc.lft.to/lastmile_qr_scan"}, "lon": -76.99554333333333, "type": "electric_scooter", "fusion_lat": 0.0, "lat": 38.92315983333334, "name": "d3b21536c61603ae7787d0837cd6cbda", "fusion_lon": 0.0, "bike_id": "d3b21536c61603ae7787d0837cd6cbda", "is_disabled": 0, "is_reserved": 0}, {"rental_uris": {"ios": "https://dc.lft.to/lastmile_qr_scan", "android": "https://dc.lft.to/lastmile_qr_scan"},