{"data": {"bikes": [{"rental_uris": {"ios": "https://dc.lft.to/lastmile_qr_scan", "android": "https://dc.lft.to/lastmile_qr_scan"}, "lon": -76.944388, "type": "electric_bike", "fusion_lat": 0.0, "lat": 38.902971, "name": "fc2adee27888bf423140b824ff7d301d", "fusion_lon": 0.0, "bike_id": "fc2adee27888bf423140b824ff7d301d", "is_disabled": 0, "is_reserved": 0}, {"rental_uris": {"ios": "https://dc.lft.to/lastmile_qr_scan", "android": "https://dc.lft.to/lastmile_qr_scan"}, "lon": -77.0638815, "type": "electric_bike", "fusion_lat": 0.0, "lat": 38.9051105, "name": "2908c93789b547df61576b39c1d5f903", "fusion_lon": 0.0, "bike_id": "2908c93789b547df61576b39c1d5f903", "is_disabled": 0, "is_reserved": 0}, {"rental_uris": {"ios": "https://dc.lft.to/lastmile_qr_scan", "android": "https://dc.lft.to/lastmile_qr_scan"}, "lon": -76.97220716666666, "type": "electric_bike", "fusion_lat": 0.0, "lat": 38.844807833333334, "name": "b878132056db95e1410ab87a552cf273", "fusion_lon": 0.0, "bike_id": "b878132056db95e1410ab87a552cf273", "is_disabled": 0, "is_reserved": 0}, {"rental_uris": {"ios": "https://dc.lft.to/lastmile_qr_scan", "android": "https://dc.lft.to/lastmile_qr_scan"}, "lon": -77.03334083333333, "type": "electric_scooter", "fusion_lat": 0.0, "lat": 38.901348666666664, "name": "2e9526a9e24fe193ee6b5ab3d5cbe1aa", "fusion_lon": 0.0, "bike_id": "2e9526a9e24fe193ee6b5ab3d5cbe1aa", "is_disabled": 0, "is_reserved": 0}, {"rental_uris": {"ios": "https://dc.lft.to/lastmile_qr_scan", "android": "https://dc.lft.to/lastmile_qr_scan"}, "lon": -77.01116366666666, "type": "electric_scooter", "fusion_lat": 0.0, "lat": 38.912709, "name": "739de48ba66da5b2d11bdf7ec86a0594", "fusion_lon": 0.0, "bike_id": "739de48ba66da5b2d11bdf7ec86a0594", "is_disabled": 0, "is_reserved": 0}, {"rental_uris": {"ios": "https://dc.lft.to/lastmile_qr_scan", "android": "https://dc.lft.to/lastmile_qr_scan"}, "lon": -77.02228083333334, "type": "electric_scooter", "fusion_lat": 0.0, "lat": 38.89219683333334, "name": "a1b82aacd7980832b1fe1c792069c32b", "fusion_lon": 0.0, "bike_id": "a1b82aacd7980832b1fe1c792069c32b", "is_disabled": 0, "is_reserved": 0}, {"rental_uris": {"ios": "https://dc.lft.to/lastmile_qr_scan", "android": "https://dc.lft.to/lastmile_qr_scan"}, "lon": -77.02332483333333, "type": "electric_scooter", "fusion_lat": 0.0, "lat": 38.91986983333334, "name": "9aab4acf8f62dd652709ee10a842fd74", "fusion_lon": 0.0, "bike_id": "9aab4acf8f62dd652709ee10a842fd74", "is_disabled": 0, "is_reserved": 0}, {"rental_uris": {"ios": "https://dc.lft.to/lastmile_qr_scan", "android": "https://dc.lft.to/lastmile_qr_scan"}, "lon": -77.04286516666667, "type": "electric_scooter", "fusion_lat": 0.0, "lat": 38.9065705, "name": "291ff412b5aa5f36185ccf96ff9c4629", "fusion_lon": 0.0, "bike_id": "291ff412b5aa5f36185ccf96ff9c4629", "is_disabled": 0, "is_reserved": 0}, {"rental_uris": {"ios": "https://dc.lft.to/lastmile_qr_scan", "android": "https://dc.lft.to/lastmile_qr_scan"}, "lon": -76.98997933333334, "type": "electric_scooter", "fusion_lat": 0.0, "lat": 38.903877333333334, "name": "be2a4ed50fb810dff121360b41a91403", "fusion_lon": 0.0, "bike_id": "be2a4ed50fb810dff121360b41a91403", "is_disabled": 0, "is_reserved": 0}, {"rental_uris": {"ios": "https://dc.lft.to/lastmile_qr_scan", "android": "https://dc.lft.to/lastmile_qr_scan"}, "lon": -77.05928, "type": "electric_scooter", "fusion_lat": 0.0, "lat": 38.9095345, "name": "29ff1f3b577535f7ab436a4b2ca0d097", "fusion_lon": 0.0, "bike_id": "29ff1f3b577535f7ab436a4b2ca0d097", "is_disabled": 0, "is_reserved": 0}, {"rental_uris": {"ios": "https://dc.lft.to/lastmile_qr_scan", "android": "https://dc.lft.to/lastmile_qr_scan"}, "lon": -76.99550216666667, "type": "electric_scooter", "fusion_lat": 0.0, "lat": 38.862343833333334, "name": "9ec408f4f5c8f8a99121a5f4b08d8904", "fusion_lon": 0.0, "bike_id": "9ec408f4f5c8f8a99121a5f4b08d8904", "is_disabled": 0, "is_reserved": 0}, {"rental_uris": {"ios": "https://dc.lft.to/lastmile_qr_scan", "android": "https://dc.lft.to/lastmile_qr_scan"}, "lon": -77.01990033333334, "type": "electric_scooter", "fusion_lat": 0.0, "lat": 38.93784266666667, "name": "70a04bd7457a476c1320ec7eb474f4ee", "fusion_lon": 0.0, "bike_id": "70a04bd7457a476c1320ec7eb474f4ee", "is_disabled": 0, "is_reserved": 0}, {"rental_uris": {"ios": "https://dc.lft.to/lastmile_qr_scan", "android": "https://dc.lft.to/lastmile_qr_scan"}, "lon": -77.02842033333333, "type": "electric_scooter", "fusion_lat": 0.0, "lat": 38.928588833333336, "name": "856e5524126db406865ee467aac33d3a", "fusion_lon": 0.0, "bike_id": "856e5524126db406865ee467aac33d3a", "is_disabled": 0, "is_reserved": 0}, {"rental_uris": {"ios": "https://dc.lft.to/lastmile_qr_scan", "android": "https://dc.lft.to/lastmile_qr_scan"}, "lon": -77.01015316666667, "type": "electric_scooter", "fusion_lat": 0.0, "lat": 38.91804833333333, "name": "6c1f0058550c245dab681cdfc4b0dae7", "fusion_lon": 0.0, "bike_id": "6c1f0058550c245dab681cdfc4b0dae7", "is_disabled": 0, "is_reserved": 0}, {"rental_uris": {"ios": "https://dc.lft.to/lastmile_qr_scan", "android": "https://dc.lft.to/lastmile_qr_scan"}, "lon": -77.042178, "type": "electric_scooter", "fusion_lat": 0.0, "lat": 38.9065905, "name": "d466c7592386b026614962b2a61be832", "fusion_lon": 0.0, "bike_id": "d466c7592386b026614962b2a61be832", "is_disabled": 0, "is_reserved": 0}, {"rental_uris": {"ios": "https://dc.lft.to/lastmile_qr_scan", "android": "https://dc.lft.to/lastmile_qr_scan"}, "lon": -76.9396055, "type": "electric_scooter", "fusion_lat": 0.0, "lat": 38.89421266666667, "name": "69a290b3c3c2c2ee2612476daeb35418", "fusion_lon": 0.0, "bike_id": "69a290b3c3c2c2ee2612476daeb35418", "is_disabled": 0, "is_reserved": 0}, {"rental_uris": {"ios": "https://dc.lft.to/lastmile_qr_scan", "android": "https://dc.lft.to/lastmile_qr_scan"}, "lon": -77.049277, "type": "electric_scooter", "fusion_lat": 0.0, "lat": 38.896077, "name": "ab470f550d621e95484a2e852a76ee52", "fusion_lon": 0.0, "bike_id": "ab470f550d621e95484a2e852a76ee52", "is_disabled": 0, "is_reserved": 0}, {"rental_uris": {"ios": "https://dc.lft.to/lastmile_qr_scan", "android": "https://dc.lft.to/lastmile_qr_scan"}, "lon": -77.03281766666667, "type": "electric_scooter", "fusion_lat": 0.0, "lat": 38.937712, "name": "de049e4a1623216f62ed8e2c9beaaf91", "fusion_lon": 0.0, "bike_id": "de049e4a1623216f62ed8e2c9beaaf91", "is_disabled": 0, "is_reserved": 0}, {"rental_uris": {"ios": "https://dc.lft.to/lastmile_qr_scan", "android": "https://dc.lft.to/lastmile_qr_scan"}, "lon": -77.027139, "type": "electric_scooter", "fusion_lat": 0.0, "lat": 38.906914666666665, "name": "313b1bffe9eb89aa258560e59ec2578b", "fusion_lon": 0.0, "bike_id": "313b1bffe9eb89aa258560e59ec2578b", "is_disabled": 0, "is_reserved": 0}, {"rental_uris": {"ios": "https://dc.lft.to/lastmile_qr_scan", "android": "https://dc.lft.to/lastmile_qr_scan"}, "lon": -77.01993966666667, "type": "electric_scooter", "fusion_lat": 0.0, "lat": 38.885856833333335, "name": "994e42ae767b6a757c44280e89b01bd2", "fusion_lon": 0.0, "bike_id": "994e42ae767b6a757c44280e89b01bd2", "is_disabled": 0, "is_reserved": 0}, {"rental_uris": {"ios": "https://dc.lft.to/lastmile_qr_scan", "android": "https://dc.lft.to/lastmile_qr_scan"}, "lon": -77.07787783333333, "type": "electric_scooter", "fusion_lat": 0.0, "lat": 38.940893333333335, "name": "30b21742b277835b66bdf45786e508d8", "fusion_lon": 0.0, "bike_id": "30b21742b277835b66bdf45786e508d8", "is_disabled": 0, "is_reserved": 0}, {"rental_uris": {"ios": "https://dc.lft.to/lastmile_qr_scan", "android": "https://dc.lft.to/lastmile_qr_scan"}, "lon": -77.007194, "type": "electric_scooter", "fusion_lat": 0.0, "lat": 38.913427, "name": "bb63b0e2a41280e5787f2c2d2d6a6017", "fusion_lon": 0.0, "bike_id": "bb63b0e2a41280e5787f2c2d2d6a6017", "is_disabled": 0, "is_reserved": 0}, {"rental_uris": {"ios": "https://dc.lft.to/lastmile_qr_scan", "android": "https://dc.lft.to/lastmile_qr_scan"}, "lon": -77.01594116666666, "type": "electric_scooter", "fusion_lat": 0.0, "lat": 38.896189166666666, "name": "d7fbb96febbec1d15b20784168dea98f", "fusion_lon": 0.0, "bike_id": "d7fbb96febbec1d15b20784168dea98f", "is_disabled": 0, "is_reserved": 0}, {"rental_uris": {"ios": "https://dc.lft.to/lastmile_qr_scan", "android": "https://dc.lft.to/lastmile_qr_scan"}, "lon": -76.92997533333333, "type": "electric_bike", "fusion_lat": 0.0, "lat": 38.887949, "name": "2d66b0ed9cc5e310fa0e3047f45afd2e", "fusion_lon": 0.0, "bike_id": "2d66b0ed9cc5e310fa0e3047f45afd2e", "is_disabled": 0, "is_reserved": 0}, {"rental_uris": {"ios": "https://dc.lft.to/lastmile_qr_scan", "android": "https://dc.lft.to/lastmile_qr_scan"}, "lon": -77.05266333333333, "type": "electric_scooter", "fusion_lat": 0.0, "lat": 38.91001266666667, "name": "30a1242516471b598e8d42a10c01db3e", "fusion_lon": 0.0, "bike_id": "30a1242516471b598e8d42a10c01db3e", "is_disabled": 0, "is_reserved": 0}, {"rental_uris": {"ios": "https://dc.lft.to/lastmile_qr_scan", "android": "https://dc.lft.to/lastmile_qr_scan"}, "lon": -77.06883333333333, "type": "electric_scooter", "fusion_lat": 0.0, "lat": 38.907689833333336, "name": "6673cd453c20b741c88b51270d5afdd9", "fusion_lon": 0.0, "bike_id": "6673cd453c20b741c88b51270d5afdd9", "is_disabled": 0, "is_reserved": 0}, {"rental_uris": {"ios": "https://dc.lft.to/lastmile_qr_scan", "android": "https://dc.lft.to/lastmile_qr_scan"}, "lon": -77.024216, "type": "electric_scooter", "fusion_lat": 0.0, "lat": 38.920418833333336, "name": "e8948b87e859a4fdede2b7fa84c4117e", "fusion_lon": 0.0, "bike_id": "e8948b87e859a4fdede2b7fa84c4117e", "is_disabled": 0, "is_reserved": 0}, {"rental_uris": {"ios": "https://dc.lft.to/lastmile_qr_scan", "android": "https://dc.lft.to/lastmile_qr_scan"}, "lon": -76.93174783333333, "type": "electric_scooter", "fusion_lat": 0.0, "lat": 38.898866166666664, "name": "82cc3d1676f48054e0a87156ae210041", "fusion_lon": 0.0, "bike_id": "82cc3d1676f48054e0a87156ae210041", "is_disabled": 0, "is_reserved": 0}, {"rental_uris": {"ios": "https://dc.lft.to/lastmile_qr_scan", "android": "https://dc.lft.to/lastmile_qr_scan"}, "lon": -76.9888905, "type": "electric_scooter", "fusion_lat": 0.0, "lat": 38.86658583333333, "name": "4bbfcb42e690aa01eb84321619bb55ab", "fusion_lon": 0.0, "bike_id": "4bbfcb42e690aa01eb84321619bb55ab", "is_disabled": 0, "is_reserved": 0}, {"rental_uris": {"ios": "https://dc.lft.to/lastmile_qr_scan", "android": "https://dc.lft.to/lastmile_qr_scan"}, "lon": -77.02973166666666, "type": "electric_scooter", "fusion_lat": 0.0, "lat": 38.93880133333333, "name": "28d5c4a39b5191209bf21b6391503e55", "fusion_lon": 0.0, "bike_id": "28d5c4a39b5191209bf21b6391503e55", "is_disabled": 0, "is_reserved": 0}, {"rental_uris": {"ios": "https://dc.lft.to/lastmile_qr_scan", "android": "https://dc.lft.to/lastmile_qr_scan"}, "lon": -76.92372783333333, "type": "electric_bike", "fusion_lat": 0.0, "lat": 38.883767, "name": "dd3af6fe18643b38fd2b0c2d9fce9ff3", "fusion_lon": 0.0, "bike_id": "dd3af6fe18643b38fd2b0c2d9fce9ff3", "is_disabled": 0, "is_reserved": 0}, {"rental_uris": {"ios": "https://dc.lft.to/lastmile_qr_scan", "android": "https://dc.lft.to/lastmile_qr_scan"}, "lon": -77.0265825, "type": "electric_scooter", "fusion_lat": 0.0, "lat": 38.895909, "name": "fca5dee7709df6184043aa5e302e128f", "fusion_lon": 0.0, "bike_id": "fca5dee7709df6184043aa5e302e128f", "is_disabled": 0, "is_reserved": 0}, {"rental_uris": {"ios": "https://dc.lft.to/lastmile_qr_scan", "android": "https://dc.lft.to/lastmile_qr_scan"}, "lon": -77.01185716666667, "type": "electric_scooter", "fusion_lat": 0.0, "lat": 38.911085666666665, "name": "e9a6b40a90aab72df232171a474927c1", "fusion_lon": 0.0, "bike_id": "e9a6b40a90aab72df232171a474927c1", "is_disabled": 0, "is_reserved": 0}, {"rental_uris": {"ios": "https://dc.lft.to/lastmile_qr_scan", "android": "https://dc.lft.to/lastmile_qr_scan"}, "lon": -77.11314433333334, "type": "electric_bike", "fusion_lat": 0.0, "lat": 38.855629, "name": "607f529a0f322a44044c89b88f3fc5a2", "fusion_lon": 0.0, "bike_id": "607f529a0f322a44044c89b88f3fc5a2", "is_disabled": 0, "is_reserved": 0}, {"rental_uris": {"ios": "https://dc.lft.to/lastmile_qr_scan", "android": "https://dc.lft.to/lastmile_qr_scan"}, "lon": -77.04064566666666, "type": "electric_scooter", "fusion_lat": 0.0, "lat": 38.923954, "name": "2e0c07a276c47a9eac96cbd1c1ee2e22", "fusion_lon": 0.0, "bike_id": "2e0c07a276c47a9eac96cbd1c1ee2e22", "is_disabled": 0, "is_reserved": 0}, {"rental_uris": {"ios": "https://dc.lft.to/lastmile_qr_scan", "android": "https://dc.lft.to/lastmile_qr_scan"}, "lon": -77.0708635, "type": "electric_bike", "fusion_lat": 0.0, "lat": 38.955588, "name": "7081ee1e82b337cbd4dae830d6be8f9f", "fusion_lon": 0.0, "bike_id": "7081ee1e82b337cbd4dae830d6be8f9f", "is_disabled": 0, "is_reserved": 0}, {"rental_uris": {"ios": "https://dc.lft.to/lastmile_qr_scan", "android": "https://dc.lft.to/lastmile_qr_scan"}, "lon": -77.04707783333333, "type": "electric_scooter", "fusion_lat": 0.0, "lat": 38.903585666666665, "name": "6eca488e9c40dd2950f2dfabbe519a29", "fusion_lon": 0.0, "bike_id": "6eca488e9c40dd2950f2dfabbe519a29", "is_disabled": 0, "is_reserved": 0}, {"rental_uris": {"ios": "https://dc.lft.to/lastmile_qr_scan", "android": "https://dc.lft.to/lastmile_qr_scan"}, "lon": -77.012179, "type": "electric_scooter", "fusion_lat": 0.0, "lat": 38.9128005, "name": "1326339508cd2278ffc33999defc375f", "fusion_lon": 0.0, "bike_id": "1326339508cd2278ffc33999defc375f", "is_disabled": 0, "is_reserved": 0}, {"rental_uris": {"ios": "https://dc.lft.to/lastmile_qr_scan", "android": "https://dc.lft.to/lastmile_qr_scan"}, "lon": -77.04013, "type": "electric_scooter", "fusion_lat": 0.0, "lat": 38.90384233333333, "name": "f44a90baf8ea000e93480a03ace3735b", "fusion_lon": 0.0, "bike_id": "f44a90baf8ea000e93480a03ace3735b", "is_disabled": 0, "is_reserved": 0}, {"rental_uris": {"ios": "https://dc.lft.to/lastmile_qr_scan", "android": "https://dc.lft.to/lastmile_qr_scan"}, "lon": -77.0385225, "type": "electric_scooter", "fusion_lat": 0.0, "lat": 38.9029625, "name": "51755e630dabf14c1db696862b9155c1", "fusion_lon": 0.0, "bike_id": "51755e630dabf14c1db696862b9155c1", "is_disabled": 0, "is_reserved": 0}, {"rental_uris": {"ios": "https://dc.lft.to/lastmile_qr_scan", "android": "https://dc.lft.to/lastmile_qr_scan"}, "lon": -77.02712, "type": "electric_scooter", "fusion_lat": 0.0, "lat": 38.90690933333333, "name": "19c75b0062ff5b077d4e57b78b3a2512", "fusion_lon": 0.0, "bike_id": "19c75b0062ff5b077d4e57b78b3a2512", "is_disabled": 0, "is_reserved": 0}, {"rental_uris": {"ios": "https://dc.lft.to/lastmile_qr_scan", "android": "https://dc.lft.to/lastmile_qr_scan"}, "lon": -77.030044, "type": "electric_scooter", "fusion_lat": 0.0, "lat": 38.91252816666667, "name": "0fa5c7040ceb17f1735e21d592f3717e", "fusion_lon": 0.0, "bike_id": "0fa5c7040ceb17f1735e21d592f3717e", "is_disabled": 0, "is_reserved": 0}, {"rental_uris": {"ios": "https://dc.lft.to/lastmile_qr_scan", "android": "https://dc.lft.to/lastmile_qr_scan"}, "lon": -77.03221883333333, "type": "electric_scooter", "fusion_lat": 0.0, "lat": 38.908645666666665, "name": "e5dc2f28162f7358b1354944de0906ab", "fusion_lon": 0.0, "bike_id": "e5dc2f28162f7358b1354944de0906ab", "is_disabled": 0, "is_reserved": 0}, {"rental_uris": {"ios": "https://dc.lft.to/lastmile_qr_scan", "android": "https://dc.lft.to/lastmile_qr_scan"}, "lon": -77.01054, "type": "electric_scooter", "fusion_lat": 0.0, "lat": 38.87933733333333, "name": "24de987b38d0fb8635bfcc9ecb855ab0", "fusion_lon": 0.0, "bike_id": "24de987b38d0fb8635bfcc9ecb855ab0", "is_disabled": 0, "is_reserved": 0}, {"rental_uris": {"ios": "https://dc.lft.to/lastmile_qr_scan", "android": "https://dc.lft.to/lastmile_qr_scan"}, "lon": -77.009857, "type": "electric_scooter", "fusion_lat": 0.0, "lat": 38.91488666666667, "name": "bfba5d86ce05f87c43524ba41a82ee19", "fusion_lon": 0.0, "bike_id": "bfba5d86ce05f87c43524ba41a82ee19", "is_disabled": 0, "is_reserved": 0}, {"rental_uris": {"ios": "https://dc.lft.to/lastmile_qr_scan", "android": "https://dc.lft.to/lastmile_qr_scan"}, "lon": -76.9289285, "type": "electric_scooter", "fusion_lat": 0.0, "lat": 38.893306333333335, "name": "8420ad907e795d3545b025ae97b2a842", "fusion_lon": 0.0, "bike_id": "8420ad907e795d3545b025ae97b2a842", "is_disabled": 0, "is_reserved": 0}, {"rental_uris": {"ios": "https://dc.lft.to/lastmile_qr_scan", "android": "https://dc.lft.to/lastmile_qr_scan"}, "lon": -77.02698466666666, "type": "electric_scooter", "fusion_lat": 0.0, "lat": 38.949791833333336, "name": "07b8b28d9c49183b70a0dab39c4ecffb", "fusion_lon": 0.0, "bike_id": "07b8b28d9c49183b70a0dab39c4ecffb", "is_disabled": 0, "is_reserved": 0}, {"rental_uris": {"ios": "https://dc.lft.to/lastmile_qr_scan", "android": "https://dc.lft.to/lastmile_qr_scan"}, "lon": -77.02612733333333, "type": "electric_scooter", "fusion_lat": 0.0, "lat": 38.92037233333333, "name": "f24d94c9ae4ee8f5c34fd3948edb9774", "fusion_lon": 0.0, "bike_id": "f24d94c9ae4ee8f5c34fd3948edb9774", "is_disabled": 0, "is_reserved": 0}, {"rental_uris": {"ios": "https://dc.lft.to/lastmile_qr_scan", "android": "https://dc.lft.to/lastmile_qr_scan"}, "lon": -77.03963166666666, "type": "electric_scooter", "fusion_lat": 0.0, "lat": 38.919761, "name": "e14f84f264e5ce9104d2eb487af21286", "fusion_lon": 0.0, "bike_id": "e14f84f264e5ce9104d2eb487af21286", "is_disabled": 0, "is_reserved": 0}, {"rental_uris": {"ios": "https://dc.lft.to/lastmile_qr_scan", "android": "https://dc.lft.to/lastmile_qr_scan"}, "lon": -76.96624866666667, "type": "electric_bike", "fusion_lat": 0.0, "lat": 38.942045666666665, "name": "36e756b670a54ebf58be90df0cbe8c40", "fusion_lon": 0.0, "bike_id": "36e756b670a54ebf58be90df0cbe8c40", "is_disabled": 0, "is_reserved": 0}, {"rental_uris": {"ios": "https://dc.lft.to/lastmile_qr_scan", "android": "https://dc.lft.to/lastmile_qr_scan"}, "lon": -77.02107566666666, "type": "electric_scooter", "fusion_lat": 0.0, "lat": 38.913160500000004, "name": "8e93ea5279d54c5e2deb8cccdd4fa7f8", "fusion_lon": 0.0, "bike_id": "8e93ea5279d54c5e2deb8cccdd4fa7f8", "is_disabled": 0, "is_reserved": 0}, {"rental_uris": {"ios": "https://dc.lft.to/lastmile_qr_scan", "android": "https://dc.lft.to/lastmile_qr_scan"}, "lon": -77.03787916666667, "type": "electric_scooter", "fusion_lat": 0.0, "lat": 38.92624333333333, "name": "555f3fd8148dc6309ecee9ceedd1ae95", "fusion_lon": 0.0, "bike_id": "555f3fd8148dc6309ecee9ceedd1ae95", "is_disabled": 0, "is_reserved": 0}, {"rental_uris": {"ios": "https://dc.lft.to/lastmile_qr_scan", "android": "https://dc.lft.to/lastmile_qr_scan"}, "lon": -76.996239, "type": "electric_scooter", "fusion_lat": 0.0, "lat": 38.8773065, "name": "ffc6c5122f714eeca24f55a7e916e00d", "fusion_lon": 0.0, "bike_id": "ffc6c5122f714eeca24f55a7e916e00d", "is_disabled": 0, "is_reserved": 0}, {"rental_uris": {"ios": "https://dc.lft.to/lastmile_qr_scan", "android": "https://dc.lft.to/lastmile_qr_scan"}, "lon": -77.03408016666667, "type": "electric_scooter", "fusion_lat": 0.0, "lat": 38.906151666666666, "name": "58b04efa2960fd6e351d41a74fa71a03", "fusion_lon": 0.0, "bike_id": "58b04efa2960fd6e351d41a74fa71a03", "is_disabled": 0, "is_reserved": 0}, {"rental_uris": {"ios": "https://dc.lft.to/lastmile_qr_scan", "android": "https://dc.lft.to/lastmile_qr_scan"}, "lon": -77.03220883333333, "type": "electric_scooter", "fusion_lat": 0.0, "lat": 38.90748, "name": "ef6430db2476ed478e43c5ee2a694db1", "fusion_lon": 0.0, "bike_id": "ef6430db2476ed478e43c5ee2a694db1", "is_disabled": 0, "is_reserved": 0}, {"rental_uris": {"ios": "https://dc.lft.to/lastmile_qr_scan", "android": "https://dc.lft.to/lastmile_qr_scan"}, "lon": -77.0127715, "type": "electric_scooter", "fusion_lat": 0.0, "lat": 38.906166999999996, "name": "3a92379a4f9944376b9224135fde1d0e", "fusion_lon": 0.0, "bike_id": "3a92379a4f9944376b9224135fde1d0e", "is_disabled": 0, "is_reserved": 0}, {"rental_uris": {"ios": "https://dc.lft.to/lastmile_qr_scan", "android": "https://dc.lft.to/lastmile_qr_scan"}, "lon": -77.01881016666667, "type": "electric_scooter", "fusion_lat": 0.0, "lat": 38.917458833333335, "name": "1d2876ce98be931ea6c1c389ca0bc24c", "fusion_lon": 0.0, "bike_id": "1d2876ce98be931ea6c1c389ca0bc24c", "is_disabled": 0, "is_reserved": 0}, {"rental_uris": {"ios": "https://dc.lft.to/lastmile_qr_scan", "android": "https://dc.lft.to/lastmile_qr_scan"}, "lon": -77.04253566666667, "type": "electric_scooter", "fusion_lat": 0.0, "lat": 38.92205966666667, "name": "bd6d42231c8f39e9fb00b8bfa7d003a9", "fusion_lon": 0.0, "bike_id": "bd6d42231c8f39e9fb00b8bfa7d003a9", "is_disabled": 0, "is_reserved": 0}, {"rental_uris": {"ios": "https://dc.lft.to/lastmile_qr_scan", "android": "https://dc.lft.to/lastmile_qr_scan"}, "lon": -77.07780183333334, "type": "electric_scooter", "fusion_lat": 0.0, "lat": 38.945599, "name": "a84592f325dafd8148f0c9b21102cb79", "fusion_lon": 0.0, "bike_id": "a84592f325dafd8148f0c9b21102cb79", "is_disabled": 0, "is_reserved": 0}, {"rental_uris": {"ios": "https://dc.lft.to/lastmile_qr_scan", "android": "https://dc.lft.to/lastmile_qr_scan"}, "lon": -77.048314, "type": "electric_scooter", "fusion_lat": 0.0, "lat": 38.90968433333333, "name": "89068cce0774310a30a2313db26a225c", "fusion_lon": 0.0, "bike_id": "89068cce0774310a30a2313db26a225c", "is_disabled": 0, "is_reserved": 0}, {"rental_uris": {"ios": "https://dc.lft.to/lastmile_qr_scan", "android": "https://dc.lft.to/lastmile_qr_scan"}, "lon": -77.00311316666667, "type": "electric_scooter", "fusion_lat": 0.0, "lat": 38.894992, "name": "debdd142505e34dce74a2ebe606931ea", "fusion_lon": 0.0, "bike_id": "debdd142505e34dce74a2ebe606931ea", "is_disabled": 0, "is_reserved": 0}, {"rental_uris": {"ios": "https://dc.lft.to/lastmile_qr_scan", "android": "https://dc.lft.to/lastmile_qr_scan"}, "lon": -77.00555916666667, "type": "electric_scooter", "fusion_lat": 0.0, "lat": 38.879201, "name": "70d108cc43b5170e86333abd2b458037", "fusion_lon": 0.0, "bike_id": "70d108cc43b5170e86333abd2b458037", "is_disabled": 0, "is_reserved": 0}, {"rental_uris": {"ios": "https://dc.lft.to/lastmile_qr_scan", "android": "https://dc.lft.to/lastmile_qr_scan"}, "lon": -77.01077816666667, "type": "electric_bike", "fusion_lat": 0.0, "lat": 38.9565295, "name": "3dca488e6b5c6a2aab0dc4ec008324b6", "fusion_lon": 0.0, "bike_id": "3dca488e6b5c6a2aab0dc4ec008324b6", "is_disabled": 0, "is_reserved": 0}, {"rental_uris": {"ios": "https://dc.lft.to/lastmile_qr_scan", "android": "https://dc.lft.to/lastmile_qr_scan"}, "lon": -77.002594, "type": "electric_scooter", "fusion_lat": 0.0, "lat": 38.89885316666667, "name": "809a08a13504915e221c8a55c8a0c7f4", "fusion_lon": 0.0, "bike_id": "809a08a13504915e221c8a55c8a0c7f4", "is_disabled": 0, "is_reserved": 0}, {"rental_uris": {"ios": "https://dc.lft.to/lastmile_qr_scan", "android": "https://dc.lft.to/lastmile_qr_scan"}, "lon": -76.988447, "type": "electric_bike", "fusion_lat": 0.0, "lat": 38.84276966666667, "name": "27d5c51fddc0e241dd30be6492d25b35", "fusion_lon": 0.0, "bike_id": "27d5c51fddc0e241dd30be6492d25b35", "is_disabled": 0, "is_reserved": 0}, {"rental_uris": {"ios": "https://dc.lft.to/lastmile_qr_scan", "android": "https://dc.lft.to/lastmile_qr_scan"}, "lon": -77.03314316666666, "type": "electric_scooter", "fusion_lat": 0.0, "lat": 38.91265283333333, "name": "6a21ccbde03ae746ecd3195478b1e919", "fusion_lon": 0.0, "bike_id": "6a21ccbde03ae746ecd3195478b1e919", "is_disabled": 0, "is_reserved": 0}, {"rental_uris": {"ios": "https://dc.lft.to/lastmile_qr_scan", "android": "https://dc.lft.to/lastmile_qr_scan"}, "lon": -77.02224516666666, "type": "electric_scooter", "fusion_lat": 0.0, "lat": 38.9126985, "name": "e85996f283583f1a6267d47251aa15e9", "fusion_lon": 0.0, "bike_id": "e85996f283583f1a6267d47251aa15e9", "is_disabled": 0, "is_reserved": 0}, {"rental_uris": {"ios": "https://dc.lft.to/lastmile_qr_scan", "android": "https://dc.lft.to/lastmile_qr_scan"}, "lon": -77.03146333333333, "type": "electric_scooter", "fusion_lat": 0.0, "lat": 38.937704333333336, "name": "31b4c9e509b874155581ff981d33244e", "fusion_lon": 0.0, "bike_id": "31b4c9e509b874155581ff981d33244e", "is_disabled": 0, "is_reserved": 0}, {"rental_uris": {"ios": "https://dc.lft.to/lastmile_qr_scan", "android": "https://dc.lft.to/lastmile_qr_scan"}, "lon": -77.01621416666667, "type": "electric_scooter", "fusion_lat": 0.0, "lat": 38.906052, "name": "190ff766caf23fb2df84a1dcac4ee859", "fusion_lon": 0.0, "bike_id": "190ff766caf23fb2df84a1dcac4ee859", "is_disabled": 0, "is_reserved": 0}, {"rental_uris": {"ios": "https://dc.lft.to/lastmile_qr_scan", "android": "https://dc.lft.to/lastmile_qr_scan"}, "lon": -77.04197966666666, "type": "electric_scooter", "fusion_lat": 0.0, "lat": 38.899287666666666, "name": "a214f21847412c1b97c0955ad5b27e36", "fusion_lon": 0.0, "bike_id": "a214f21847412c1b97c0955ad5b27e36", "is_disabled": 0, "is_reserved": 0}, {"rental_uris": {"ios": "https://dc.lft.to/lastmile_qr_scan", "android": "https://dc.lft.to/lastmile_qr_scan"}, "lon": -77.02314766666667, "type": "electric_scooter", "fusion_lat": 0.0, "lat": 38.881888000000004, "name": "71cac8e7afd2f236d945e01a7412ad9b", "fusion_lon": 0.0, "bike_id": "71cac8e7afd2f236d945e01a7412ad9b", "is_disabled": 0, "is_reserved": 0}, {"rental_uris": {"ios": "https://dc.lft.to/lastmile_qr_scan", "android": "https://dc.lft.to/lastmile_qr_scan"}, "lon": -76.98092716666666, "type": "electric_bike", "fusion_lat": 0.0, "lat": 38.88136633333333, "name": "ce43887551ab72859540564a43ea8a7a", "fusion_lon": 0.0, "bike_id": "ce43887551ab72859540564a43ea8a7a", "is_disabled": 0, "is_reserved": 0}, {"rental_uris": {"ios": "https://dc.lft.to/lastmile_qr_scan", "android": "https://dc.lft.to/lastmile_qr_scan"}, "lon": -77.0246225, "type": "electric_scooter", "fusion_lat": 0.0, "lat": 38.90851966666666, "name": "b852a856a7a72696131273002a9d4c3a", "fusion_lon": 0.0, "bike_id": "b852a856a7a72696131273002a9d4c3a", "is_disabled": 0, "is_reserved": 0}, {"rental_uris": {"ios": "https://dc.lft.to/lastmile_qr_scan", "android": "https://dc.lft.to/lastmile_qr_scan"}, "lon": -77.077242, "type": "electric_scooter", "fusion_lat": 0.0, "lat": 38.94704, "name": "7290ad83d9cfce0c58ecc9696f0f3885", "fusion_lon": 0.0, "bike_id": "7290ad83d9cfce0c58ecc9696f0f3885", "is_disabled": 0, "is_reserved": 0}, {"rental_uris": {"ios": "https://dc.lft.to/lastmile_qr_scan", "android": "https://dc.lft.to/lastmile_qr_scan"}, "lon": -76.99371716666667, "type": "electric_scooter", "fusion_lat": 0.0, "lat": 38.879726833333336, "name": "e9a59400f5dea68ea301d9e330d7d8ed", "fusion_lon": 0.0, "bike_id": "e9a59400f5dea68ea301d9e330d7d8ed", "is_disabled": 0, "is_reserved": 0}, {"rental_uris": {"ios": "https://dc.lft.to/lastmile_qr_scan", "android": "https://dc.lft.to/lastmile_qr_scan"}, "lon": -77.05545833333333, "type": "electric_scooter", "fusion_lat": 0.0, "lat": 38.89906, "name": "07c5375b69e405e50406f439509bd2b1", "fusion_lon": 0.0, "bike_id": "07c5375b69e405e50406f439509bd2b1", "is_disabled": 0, "is_reserved": 0}, {"rental_uris": {"ios": "https://dc.lft.to/lastmile_qr_scan", "android": "https://dc.lft.to/lastmile_qr_scan"}, "lon": -77.00129183333334, "type": "electric_scooter", "fusion_lat": 0.0, "lat": 38.8780155, "name": "bc6af32a1560d69f2c391987eb335794", "fusion_lon": 0.0, "bike_id": "bc6af32a1560d69f2c391987eb335794", "is_disabled": 0, "is_reserved": 0}, {"rental_uris": {"ios": "https://dc.lft.to/lastmile_qr_scan", "android": "https://dc.lft.to/lastmile_qr_scan"}, "lon": -77.04304283333333, "type": "electric_bike", "fusion_lat": 0.0, "lat": 39.054446, "name": "c8b19415d396ba8f2909d1d9c5f6b516", "fusion_lon": 0.0, "bike_id": "c8b19415d396ba8f2909d1d9c5f6b516", "is_disabled": 0, "is_reserved": 0}, {"rental_uris": {"ios": "https://dc.lft.to/lastmile_qr_scan", "android": "https://dc.lft.to/lastmile_qr_scan"}, "lon": -76.98902133333333, "type": "electric_scooter", "fusion_lat": 0.0, "lat": 38.86688916666667, "name": "45f76b6e5a20d51fdf5d79defd214a28", "fusion_lon": 0.0, "bike_id": "45f76b6e5a20d51fdf5d79defd214a28", "is_disabled": 0, "is_reserved": 0}, {"rental_uris": {"ios": "https://dc.lft.to/lastmile_qr_scan", "android": "https://dc.lft.to/lastmile_qr_scan"}, "lon": -77.03316766666667, "type": "electric_scooter", "fusion_lat": 0.0, "lat": 38.90291333333333, "name": "97d8ac2d2ac4fc67079151c94b9a41ea", "fusion_lon": 0.0, "bike_id": "97d8ac2d2ac4fc67079151c94b9a41ea", "is_disabled": 0, "is_reserved": 0}, {"rental_uris": {"ios": "https://dc.lft.to/lastmile_qr_scan", "android": "https://dc.lft.to/lastmile_qr_scan"}, "lon": -77.05693366666667, "type": "electric_scooter", "fusion_lat": 0.0, "lat": 38.9055725, "name": "903f2b41a61ef19dba56f5ebb0d2fd3e", "fusion_lon": 0.0, "bike_id": "903f2b41a61ef19dba56f5ebb0d2fd3e", "is_disabled": 0, "is_reserved": 0}, {"rental_uris": {"ios": "https://dc.lft.to/lastmile_qr_scan", "android": "https://dc.lft.to/lastmile_qr_scan"}, "lon": -76.95356233333334, "type": "electric_bike", "fusion_lat": 0.0, "lat": 38.939492, "name": "4e86e89dfb6e76e56b68cc9b0d0cca67", "fusion_lon": 0.0, "bike_id": "4e86e89dfb6e76e56b68cc9b0d0cca67", "is_disabled": 0, "is_reserved": 0}, {"rental_uris": {"ios": "https://dc.lft.to/lastmile_qr_scan", "android": "https://dc.lft.to/lastmile_qr_scan"}, "lon": -77.178435, "type": "electric_bike", "fusion_lat": 0.0, "lat": 39.08862966666667, "name": "67116e492cb3c1d0d13981c5ac50b5f7", "fusion_lon": 0.0, "bike_id": "67116e492cb3c1d0d13981c5ac50b5f7", "is_disabled": 0, "is_reserved": 0}, {"rental_uris": {"ios": "https://dc.lft.to/lastmile_qr_scan", "android": "https://dc.lft.to/lastmile_qr_scan"}, "lon": -76.98705366666667, "type": "electric_scooter", "fusion_lat": 0.0, "lat": 38.866967833333334, "name": "bdf169a6072f4c4c319ca3376ade632e", "fusion_lon": 0.0, "bike_id": "bdf169a6072f4c4c319ca3376ade632e", "is_disabled": 0, "is_reserved": 0}, {"rental_uris": {"ios": "https://dc.lft.to/lastmile_qr_scan", "android": "https://dc.lft.to/lastmile_qr_scan"}, "lon": -77.04133283333333, "type": "electric_scooter", "fusion_lat": 0.0, "lat": 38.9235035, "name": "79f591d9f2c08bcd9dd8e60aff88e7e4", "fusion_lon": 0.0, "bike_id": "79f591d9f2c08bcd9dd8e60aff88e7e4", "is_disabled": 0, "is_reserved": 0}, {"rental_uris": {"ios": "https://dc.lft.to/lastmile_qr_scan", "android": "https://dc.lft.to/lastmile_qr_scan"}, "lon": -77.00426333333333, "type": "electric_scooter", "fusion_lat": 0.0, "lat": 38.903935833333335, "name": "6a5c04b9c683672416ea3a0aa5924281", "fusion_lon": 0.0, "bike_id": "6a5c04b9c683672416ea3a0aa5924281", "is_disabled": 0, "is_reserved": 0}, {"rental_uris": {"ios": "https://dc.lft.to/lastmile_qr_scan", "android": "https://dc.lft.to/lastmile_qr_scan"}, "lon": -77.04875066666666, "type": "electric_scooter", "fusion_lat": 0.0, "lat": 38.90071966666667, "name": "cd16de537313b3f16bbcc4643b1db8b7", "fusion_lon": 0.0, "bike_id": "cd16de537313b3f16bbcc4643b1db8b7", "is_disabled": 0, "is_reserved": 0}, {"rental_uris": {"ios": "https://dc.lft.to/lastmile_qr_scan", "android": "https://dc.lft.to/lastmile_qr_scan"}, "lon": -76.96506266666667, "type": "electric_scooter", "fusion_lat": 0.0, "lat": 38.87647066666667, "name": "21c8486cfa0cb5f6995fdc4378ffc2d0", "fusion_lon": 0.0, "bike_id": "21c8486cfa0cb5f6995fdc4378ffc2d0", "is_disabled": 0, "is_reserved": 0}, {"rental_uris": {"ios": "https://dc.lft.to/lastmile_qr_scan", "android": "https://dc.lft.to/lastmile_qr_scan"}, "lon": -77.048795, "type": "electric_scooter", "fusion_lat": 0.0, "lat": 38.90529216666667, "name": "1383b337bf8b0a8b3eb7320b3b9754e4", "fusion_lon": 0.0, "bike_id": "1383b337bf8b0a8b3eb7320b3b9754e4", "is_disabled": 0, "is_reserved": 0}, {"rental_uris": {"ios": "https://dc.lft.to/lastmile_qr_scan", "android": "https://dc.lft.to/lastmile_qr_scan"}, "lon": -77.02853033333334, "type": "electric_scooter", "fusion_lat": 0.0, "lat": 38.950874, "name": "95df1b9a9a1c80cab5d53b275bee3075", "fusion_lon": 0.0, "bike_id": "95df1b9a9a1c80cab5d53b275bee3075", "is_disabled": 0, "is_reserved": 0}, {"rental_uris": {"ios": "https://dc.lft.to/lastmile_qr_scan", "android": "https://dc.lft.to/lastmile_qr_scan"}, "lon": -76.93833783333334, "type": "electric_scooter", "fusion_lat": 0.0, "lat": 38.89758416666667, "name": "b92e4a133eb9eea5768b331e6493f9c7", "fusion_lon": 0.0, "bike_id": "b92e4a133eb9eea5768b331e6493f9c7", "is_disabled": 0, "is_reserved": 0}, {"rental_uris": {"ios": "https://dc.lft.to/lastmile_qr_scan", "android": "https://dc.lft.to/lastmile_qr_scan"}, "lon": -77.0275945, "type": "electric_scooter", "fusion_lat": 0.0, "lat": 38.923126333333336, "name": "15dab51a9c2457cd4ba6d922361d89ad", "fusion_lon": 0.0, "bike_id": "15dab51a9c2457cd4ba6d922361d89ad", "is_disabled": 0, "is_reserved": 0}, {"rental_uris": {"ios": "https://dc.lft.to/lastmile_qr_scan", "android": "https://dc.lft.to/lastmile_qr_scan"}, "lon": -77.03508516666666, "type": "electric_scooter", "fusion_lat": 0.0, "lat": 38.921528333333335, "name": "b4c8fa4ba49e0f34cc8770be4794b08a", "fusion_lon": 0.0, "bike_id": "b4c8fa4ba49e0f34cc8770be4794b08a", "is_disabled": 0, "is_reserved": 0}, {"rental_uris": {"ios": "https://dc.lft.to/lastmile_qr_scan", "android": "https://dc.lft.to/lastmile_qr_scan"}, "lon": -77.043498, "type": "electric_scooter", "fusion_lat": 0.0, "lat": 38.9267265, "name": "938e888e011ffe9ab7c3faa5b2e54ccd", "fusion_lon": 0.0, "bike_id": "938e888e011ffe9ab7c3faa5b2e54ccd", "is_disabled": 0, "is_reserved": 0}, {"rental_uris": {"ios": "https://dc.lft.to/lastmile_qr_scan", "android": "https://dc.lft.to/lastmile_qr_scan"}, "lon": -77.03022466666667, "type": "electric_scooter", "fusion_lat": 0.0, "lat": 38.897546, "name": "ba3db3a95c6880e9d62e4bdc18453ef4", "fusion_lon": 0.0, "bike_id": "ba3db3a95c6880e9d62e4bdc18453ef4", "is_disabled": 0, "is_reserved": 0}, {"rental_uris": {"ios": "https://dc.lft.to/lastmile_qr_scan", "android": "https://dc.lft.to/lastmile_qr_scan"}, "lon": -77.028408, "type": "electric_scooter", "fusion_lat": 0.0, "lat": 38.92565833333333, "name": "f4aaed4debf1f53dbbae90b11d306e33", "fusion_lon": 0.0, "bike_id": "f4aaed4debf1f53dbbae90b11d306e33", "is_disabled": 0, "is_reserved": 0}, {"rental_uris": {"ios": "https://dc.lft.to/lastmile_qr_scan", "android": "https://dc.lft.to/lastmile_qr_scan"}, "lon": -77.04225616666666, "type": "electric_scooter", "fusion_lat": 0.0, "lat": 38.907226, "name": "816e7f7848472d9702e267b6ebca6f61", "fusion_lon": 0.0, "bike_id": "816e7f7848472d9702e267b6ebca6f61", "is_disabled": 0, "is_reserved": 0}, {"rental_uris": {"ios": "https://dc.lft.to/lastmile_qr_scan", "android": "https://dc.lft.to/lastmile_qr_scan"}, "lon": -77.03641033333334, "type": "electric_scooter", "fusion_lat": 0.0, "lat": 38.9068215, "name": "93feb007ca379835cf06c1e9a806cb6a", "fusion_lon": 0.0, "bike_id": "93feb007ca379835cf06c1e9a806cb6a", "is_disabled": 0, "is_reserved": 0}, {"rental_uris": {"ios": "https://dc.lft.to/lastmile_qr_scan", "android": "https://dc.lft.to/lastmile_qr_scan"}, "lon": -76.969744, "type": "electric_scooter", "fusion_lat": 0.0, "lat": 38.861668333333334, "name": "e8bb372214f46fa50af754cc6fd67bd3", "fusion_lon": 0.0, "bike_id": "e8bb372214f46fa50af754cc6fd67bd3", "is_disabled": 0, "is_reserved": 0}, {"rental_uris": {"ios": "https://dc.lft.to/lastmile_qr_scan", "android": "https://dc.lft.to/lastmile_qr_scan"}, "lon": -77.029433, "type": "electric_scooter", "fusion_lat": 0.0, "lat": 38.932409, "name": "4369574461b31302b4c9563bcafbd46f", "fusion_lon": 0.0, "bike_id": "4369574461b31302b4c9563bcafbd46f", "is_disabled": 0, "is_reserved": 0}, {"rental_uris": {"ios": "https://dc.lft.to/lastmile_qr_scan", "android": "https://dc.lft.to/lastmile_qr_scan"}, "lon": -77.01532483333334, "type": "electric_scooter", "fusion_lat": 0.0, "lat": 38.887373, "name": "cbb55209f80ca846bca376dd482bf334", "fusion_lon": 0.0, "bike_id": "cbb55209f80ca846bca376dd482bf334", "is_disabled": 0, "is_reserved": 0}, {"rental_uris": {"ios": "https://dc.lft.to/lastmile_qr_scan", "android": "https://dc.lft.to/lastmile_qr_scan"}, "lon": -77.02743216666667, "type": "electric_scooter", "fusion_lat": 0.0, "lat": 38.92770983333333, "name": "e827901d4974e80118a97124cd708f5f", "fusion_lon": 0.0, "bike_id": "e827901d4974e80118a97124cd708f5f", "is_disabled": 0, "is_reserved": 0}, {"rental_uris": {"ios": "https://dc.lft.to/lastmile_qr_scan", "android": "https://dc.lft.to/lastmile_qr_scan"}, "lon": -77.05366833333333, "type": "electric_scooter", "fusion_lat": 0.0, "lat": 38.9270375, "name": "57c46abdacc56eec2f6ea0f3052cdb62", "fusion_lon": 0.0, "bike_id": "57c46abdacc56eec2f6ea0f3052cdb62", "is_disabled": 0, "is_reserved": 0}, {"rental_uris": {"ios": "https://dc.lft.to/lastmile_qr_scan", "android": "https://dc.lft.to/lastmile_qr_scan"}, "lon": -77.04128083333333, "type": "electric_scooter", "fusion_lat": 0.0, "lat": 38.924346666666665, "name": "d4c52e7806898f2e00bd6e0e298a4bc3", "fusion_lon": 0.0, "bike_id": "d4c52e7806898f2e00bd6e0e298a4bc3", "is_disabled": 0, "is_reserved": 0}, {"rental_uris": {"ios": "https://dc.lft.to/lastmile_qr_scan", "android": "https://dc.lft.to/lastmile_qr_scan"}, "lon": -77.03077466666667, "type": "electric_scooter", "fusion_lat": 0.0, "lat": 38.89459166666666, "name": "a8d45aef0ffa50c521af6b9e0c2ee444", "fusion_lon": 0.0, "bike_id": "a8d45aef0ffa50c521af6b9e0c2ee444", "is_disabled": 0, "is_reserved": 0}, {"rental_uris": {"ios": "https://dc.lft.to/lastmile_qr_scan", "android": "https://dc.lft.to/lastmile_qr_scan"}, "lon": -77.03073883333333, "type": "electric_scooter", "fusion_lat": 0.0, "lat": 38.923884666666666, "name": "f9fb2a130abdf2ecdc29787f246c651a", "fusion_lon": 0.0, "bike_id": "f9fb2a130abdf2ecdc29787f246c651a", "is_disabled": 0, "is_reserved": 0}, {"rental_uris": {"ios": "https://dc.lft.to/lastmile_qr_scan", "android": "https://dc.lft.to/lastmile_qr_scan"}, "lon": -77.073597, "type": "electric_bike", "fusion_lat": 0.0, "lat": 38.9617535, "name": "5dabb8b7586cd78b7957775f8ad93a62", "fusion_lon": 0.0, "bike_id": "5dabb8b7586cd78b7957775f8ad93a62", "is_disabled": 0, "is_reserved": 0}, {"rental_uris": {"ios": "https://dc.lft.to/lastmile_qr_scan", "android": "https://dc.lft.to/lastmile_qr_scan"}, "lon": -77.00747233333334, "type": "electric_scooter", "fusion_lat": 0.0, "lat": 38.90630633333333, "name": "71c676f6442ff68b564a2eb2015b301a", "fusion_lon": 0.0, "bike_id": "71c676f6442ff68b564a2eb2015b301a", "is_disabled": 0, "is_reserved": 0}, {"rental_uris": {"ios": "https://dc.lft.to/lastmile_qr_scan", "android": "https://dc.lft.to/lastmile_qr_scan"}, "lon": -77.02401466666667, "type": "electric_scooter", "fusion_lat": 0.0, "lat": 38.91744833333333, "name": "aac042e1eae3e4987cb92c921651f3fa", "fusion_lon": 0.0, "bike_id": "aac042e1eae3e4987cb92c921651f3fa", "is_disabled": 0, "is_reserved": 0}, {"rental_uris": {"ios": "https://dc.lft.to/lastmile_qr_scan", "android": "https://dc.lft.to/lastmile_qr_scan"}, "lon": -77.10509466666667, "type": "electric_bike", "fusion_lat": 0.0, "lat": 38.928481833333336, "name": "a2129df61575334fa92ba256fdb86221", "fusion_lon": 0.0, "bike_id": "a2129df61575334fa92ba256fdb86221", "is_disabled": 0, "is_reserved": 0}, {"rental_uris": {"ios": "https://dc.lft.to/lastmile_qr_scan", "android": "https://dc.lft.to/lastmile_qr_scan"}, "lon": -77.02837816666667, "type": "electric_scooter", "fusion_lat": 0.0, "lat": 38.928563833333335, "name": "3f9f8919a9f184888320ac60e9db3a96", "fusion_lon": 0.0, "bike_id": "3f9f8919a9f184888320ac60e9db3a96", "is_disabled": 0, "is_reserved": 0}, {"rental_uris": {"ios": "https://dc.lft.to/lastmile_qr_scan", "android": "https://dc.lft.to/lastmile_qr_scan"}, "lon": -77.0881895, "type": "electric_bike", "fusion_lat": 0.0, "lat": 38.911686, "name": "f7289cbe79c11c792a0bf71e1b7fdced", "fusion_lon": 0.0, "bike_id": "f7289cbe79c11c792a0bf71e1b7fdced", "is_disabled": 0, "is_reserved": 0}, {"rental_uris": {"ios": "https://dc.lft.to/lastmile_qr_scan", "android": "https://dc.lft.to/lastmile_qr_scan"}, "lon": -77.0010455, "type": "electric_scooter", "fusion_lat": 0.0, "lat": 38.89429616666666, "name": "5eec3ee8778c4bab1cf3659c00f08fad", "fusion_lon": 0.0, "bike_id": "5eec3ee8778c4bab1cf3659c00f08fad", "is_disabled": 0, "is_reserved": 0}, {"rental_uris": {"ios": "https://dc.lft.to/lastmile_qr_scan", "android": "https://dc.lft.to/lastmile_qr_scan"}, "lon": -77.04503833333334, "type": "electric_scooter", "fusion_lat": 0.0, "lat": 38.91871316666667, "name": "30d4378734f73a4d8d868e8dff7e8af6", "fusion_lon": 0.0, "bike_id": "30d4378734f73a4d8d868e8dff7e8af6", "is_disabled": 0, "is_reserved": 0}, {"rental_uris": {"ios": "https://dc.lft.to/lastmile_qr_scan", "android": "https://dc.lft.to/lastmile_qr_scan"}, "lon": -77.04785916666667, "type": "electric_scooter", "fusion_lat": 0.0, "lat": 38.897682833333334, "name": "84d585527564eca6a7e13bc7eadf27e2", "fusion_lon": 0.0, "bike_id": "84d585527564eca6a7e13bc7eadf27e2", "is_disabled": 0, "is_reserved": 0}, {"rental_uris": {"ios": "https://dc.lft.to/lastmile_qr_scan", "android": "https://dc.lft.to/lastmile_qr_scan"}, "lon": -77.01864733333333, "type": "electric_scooter", "fusion_lat": 0.0, "lat": 38.948994166666665, "name": "7d1bd7d49f3af3e71f94d10e4caa04fa", "fusion_lon": 0.0, "bike_id": "7d1bd7d49f3af3e71f94d10e4caa04fa", "is_disabled": 0, "is_reserved": 0}, {"rental_uris": {"ios": "https://dc.lft.to/lastmile_qr_scan", "android": "https://dc.lft.to/lastmile_qr_scan"}, "lon": -76.96523933333333, "type": "electric_scooter", "fusion_lat": 0.0, "lat": 38.8762865, "name": "259cb6c4ac4f13481827fb1d81afc4d8", "fusion_lon": 0.0, "bike_id": "259cb6c4ac4f13481827fb1d81afc4d8", "is_disabled": 0, "is_reserved": 0}, {"rental_uris": {"ios": "https://dc.lft.to/lastmile_qr_scan", "android": "https://dc.lft.to/lastmile_qr_scan"}, "lon": -77.06614016666667, "type": "electric_scooter", "fusion_lat": 0.0, "lat": 38.905345833333335, "name": "4ba34fc4e888fd037a7ab2265519dfcf", "fusion_lon": 0.0, "bike_id": "4ba34fc4e888fd037a7ab2265519dfcf", "is_disabled": 0, "is_reserved": 0}, {"rental_uris": {"ios": "https://dc.lft.to/lastmile_qr_scan", "android": "https://dc.lft.to/lastmile_qr_scan"}, "lon": -76.99743883333333, "type": "electric_scooter", "fusion_lat": 0.0, "lat": 38.909390333333334, "name": "7bb809057c62a7b0ddf65e44c4fd81e5", "fusion_lon": 0.0, "bike_id": "7bb809057c62a7b0ddf65e44c4fd81e5", "is_disabled": 0, "is_reserved": 0}, {"rental_uris": {"ios": "https://dc.lft.to/lastmile_qr_scan", "android": "https://dc.lft.to/lastmile_qr_scan"}, "lon": -77.05927416666667, "type": "electric_scooter", "fusion_lat": 0.0, "lat": 38.9091695, "name": "91bf8d2158c3eef87451f05aaa8502db", "fusion_lon": 0.0, "bike_id": "91bf8d2158c3eef87451f05aaa8502db", "is_disabled": 0, "is_reserved": 0}, {"rental_uris": {"ios": "https://dc.lft.to/lastmile_qr_scan", "android": "https://dc.lft.to/lastmile_qr_scan"}, "lon": -77.01369033333333, "type": "electric_scooter", "fusion_lat": 0.0, "lat": 38.8637265, "name": "e0cc24ecfd5dea08b034f225eff0cd3b", "fusion_lon": 0.0, "bike_id": "e0cc24ecfd5dea08b034f225eff0cd3b", "is_disabled": 0, "is_reserved": 0}, {"rental_uris": {"ios": "https://dc.lft.to/lastmile_qr_scan", "android": "https://dc.lft.to/lastmile_qr_scan"}, "lon": -77.05860066666666, "type": "electric_scooter", "fusion_lat": 0.0, "lat": 38.936008666666666, "name": "2f70ed4204a3e038ce903120cb40446d", "fusion_lon": 0.0, "bike_id": "2f70ed4204a3e038ce903120cb40446d", "is_disabled": 0, "is_reserved": 0}, {"rental_uris": {"ios": "https://dc.lft.to/lastmile_qr_scan", "android": "https://dc.lft.to/lastmile_qr_scan"}, "lon": -77.08869266666666, "type": "electric_scooter", "fusion_lat": 0.0, "lat": 38.90987033333333, "name": "c3c197638059baea862194d3f28d084d", "fusion_lon": 0.0, "bike_id": "c3c197638059baea862194d3f28d084d", "is_disabled": 0, "is_reserved": 0}, {"rental_uris": {"ios": "https://dc.lft.to/lastmile_qr_scan", "android": "https://dc.lft.to/lastmile_qr_scan"}, "lon": -76.94628433333334, "type": "electric_scooter", "fusion_lat": 0.0, "lat": 38.89844016666667, "name": "0e5edc53dc5f1bb750aa622631bd5027", "fusion_lon": 0.0, "bike_id": "0e5edc53dc5f1bb750aa622631bd5027", "is_disabled": 0, "is_reserved": 0}, {"rental_uris": {"ios": "https://dc.lft.to/lastmile_qr_scan", "android": "https://dc.lft.to/lastmile_qr_scan"}, "lon": -77.0633155, "type": "electric_bike", "fusion_lat": 0.0, "lat": 38.9211025, "name": "1981773ec621b4b14c611385bd0f97d8", "fusion_lon": 0.0, "bike_id": "1981773ec621b4b14c611385bd0f97d8", "is_disabled": 0, "is_reserved": 0}, {"rental_uris": {"ios": "https://dc.lft.to/lastmile_qr_scan", "android": "https://dc.lft.to/lastmile_qr_scan"}, "lon": -77.04175766666667, "type": "electric_scooter", "fusion_lat": 0.0, "lat": 38.91986833333333, "name": "c219eda47a85e29e800a3f5a86769875", "fusion_lon": 0.0, "bike_id": "c219eda47a85e29e800a3f5a86769875", "is_disabled": 0, "is_reserved": 0}, {"rental_uris": {"ios": "https://dc.lft.to/lastmile_qr_scan", "android": "https://dc.lft.to/lastmile_qr_scan"}, "lon": -77.06042816666667, "type": "electric_scooter", "fusion_lat": 0.0, "lat": 38.939142333333336, "name": "b3b9dbe817088d3115322f86b828d7e9", "fusion_lon": 0.0, "bike_id": "b3b9dbe817088d3115322f86b828d7e9", "is_disabled": 0, "is_reserved": 0}, {"rental_uris": {"ios": "https://dc.lft.to/lastmile_qr_scan", "android": "https://dc.lft.to/lastmile_qr_scan"}, "lon": -77.01570083333333, "type": "electric_scooter", "fusion_lat": 0.0, "lat": 38.8997245, "name": "f5cdce187ed5f0f108cbf7c25e8aca66", "fusion_lon": 0.0, "bike_id": "f5cdce187ed5f0f108cbf7c25e8aca66", "is_disabled": 0, "is_reserved": 0}, {"rental_uris": {"ios": "https://dc.lft.to/lastmile_qr_scan", "android": "https://dc.lft.to/lastmile_qr_scan"}, "lon": -77.04818883333333, "type": "electric_scooter", "fusion_lat": 0.0, "lat": 38.90795583333333, "name": "3ef3024f02ee202f6b3b35959726bdfb", "fusion_lon": 0.0, "bike_id": "3ef3024f02ee202f6b3b35959726bdfb", "is_disabled": 0, "is_reserved": 0}, {"rental_uris": {"ios": "https://dc.lft.to/lastmile_qr_scan", "android": "https://dc.lft.to/lastmile_qr_scan"}, "lon": -77.02420516666666, "type": "electric_scooter", "fusion_lat": 0.0, "lat": 38.918222, "name": "313533d367ee998d175181444bf4c98a", "fusion_lon": 0.0, "bike_id": "313533d367ee998d175181444bf4c98a", "is_disabled": 0, "is_reserved": 0}, {"rental_uris": {"ios": "https://dc.lft.to/lastmile_qr_scan", "android": "https://dc.lft.to/lastmile_qr_scan"}, "lon": -76.90821966666667, "type": "electric_bike", "fusion_lat": 0.0, "lat": 39.0025185, "name": "89723656cd03081816d39f94cc9a48d4", "fusion_lon": 0.0, "bike_id": "89723656cd03081816d39f94cc9a48d4", "is_disabled": 0, "is_reserved": 0}, {"rental_uris": {"ios": "https://dc.lft.to/lastmile_qr_scan", "android": "https://dc.lft.to/lastmile_qr_scan"}, "lon": -77.032296, "type": "electric_scooter", "fusion_lat": 0.0, "lat": 38.91551583333333, "name": "59bc2e6fa6fe889606f254d902975c67", "fusion_lon": 0.0, "bike_id": "59bc2e6fa6fe889606f254d902975c67", "is_disabled": 0, "is_reserved": 0}, {"rental_uris": {"ios": "https://dc.lft.to/lastmile_qr_scan", "android": "https://dc.lft.to/lastmile_qr_scan"}, "lon": -77.03300916666667, "type": "electric_scooter", "fusion_lat": 0.0, "lat": 38.909598, "name": "2b03ab69d3625f7682240f62d4848f8c", "fusion_lon": 0.0, "bike_id": "2b03ab69d3625f7682240f62d4848f8c", "is_disabled": 0, "is_reserved": 0}, {"rental_uris": {"ios": "https://dc.lft.to/lastmile_qr_scan", "android": "https://dc.lft.to/lastmile_qr_scan"}, "lon": -77.112228, "type": "electric_bike", "fusion_lat": 0.0, "lat": 38.82871383333333, "name": "3469a1ddecf01c0cc088f5e6a21cdebd", "fusion_lon": 0.0, "bike_id": "3469a1ddecf01c0cc088f5e6a21cdebd", "is_disabled": 0, "is_reserved": 0}, {"rental_uris": {"ios": "https://dc.lft.to/lastmile_qr_scan", "android": "https://dc.lft.to/lastmile_qr_scan"}, "lon": -77.027396, "type": "electric_scooter", "fusion_lat": 0.0, "lat": 38.88146416666667, "name": "5fc33980f5881385b96c9c8a65068ba8", "fusion_lon": 0.0, "bike_id": "5fc33980f5881385b96c9c8a65068ba8", "is_disabled": 0, "is_reserved": 0}, {"rental_uris": {"ios": "https://dc.lft.to/lastmile_qr_scan", "android": "https://dc.lft.to/lastmile_qr_scan"}, "lon": -76.99947566666667, "type": "electric_scooter", "fusion_lat": 0.0, "lat": 38.842919333333334, "name": "ff643180c842e565b3cc8ee501a33d10", "fusion_lon": 0.0, "bike_id": "ff643180c842e565b3cc8ee501a33d10", "is_disabled": 0, "is_reserved": 0}, {"rental_uris": {"ios": "https://dc.lft.to/lastmile_qr_scan", "android": "https://dc.lft.to/lastmile_qr_scan"}, "lon": -77.03929683333334, "type": "electric_scooter", "fusion_lat": 0.0, "lat": 38.92116133333333, "name": "9db1dad19d0b7ec0c5d9db936ed70bd6", "fusion_lon": 0.0, "bike_id": "9db1dad19d0b7ec0c5d9db936ed70bd6", "is_disabled": 0, "is_reserved": 0}, {"rental_uris": {"ios": "https://dc.lft.to/lastmile_qr_scan", "android": "https://dc.lft.to/lastmile_qr_scan"}, "lon": -76.99180766666667, "type": "electric_scooter", "fusion_lat": 0.0, "lat": 38.90456233333333, "name": "6e492b987124b2b6843d990b603e246f", "fusion_lon": 0.0, "bike_id": "6e492b987124b2b6843d990b603e246f", "is_disabled": 0, "is_reserved": 0}, {"rental_uris": {"ios": "https://dc.lft.to/lastmile_qr_scan", "android": "https://dc.lft.to/lastmile_qr_scan"}, "lon": -77.02327166666667, "type": "electric_scooter", "fusion_lat": 0.0, "lat": 38.919933666666665, "name": "897ce04711fa1355e4051167c4185a14", "fusion_lon": 0.0, "bike_id": "897ce04711fa1355e4051167c4185a14", "is_disabled": 0, "is_reserved": 0}, {"rental_uris": {"ios": "https://dc.lft.to/lastmile_qr_scan", "android": "https://dc.lft.to/lastmile_qr_scan"}, "lon": -77.03412566666667, "type": "electric_scooter", "fusion_lat": 0.0, "lat": 38.935460666666664, "name": "86903e5cc323730ed69ac4de47400565", "fusion_lon": 0.0, "bike_id": "86903e5cc323730ed69ac4de47400565", "is_disabled": 0, "is_reserved": 0}, {"rental_uris": {"ios": "https://dc.lft.to/lastmile_qr_scan", "android": "https://dc.lft.to/lastmile_qr_scan"}, "lon": -77.03344816666667, "type": "electric_scooter", "fusion_lat": 0.0, "lat": 38.934174166666665, "name": "de25e11e30cffe5b07631af839a240b5", "fusion_lon": 0.0, "bike_id": "de25e11e30cffe5b07631af839a240b5", "is_disabled": 0, "is_reserved": 0}, {"rental_uris": {"ios": "https://dc.lft.to/lastmile_qr_scan", "android": "https://dc.lft.to/lastmile_qr_scan"}, "lon": -77.0128525, "type": "electric_scooter", "fusion_lat": 0.0, "lat": 38.900584333333335, "name": "028b6032148d82abde55eecf88f47ccb", "fusion_lon": 0.0, "bike_id": "028b6032148d82abde55eecf88f47ccb", "is_disabled": 0, "is_reserved": 0}, {"rental_uris": {"ios": "https://dc.lft.to/lastmile_qr_scan", "android": "https://dc.lft.to/lastmile_qr_scan"}, "lon": -77.0285945, "type": "electric_scooter", "fusion_lat": 0.0, "lat": 38.928168166666666, "name": "f506906ad9d0537b3e6422cec1a144fc", "fusion_lon": 0.0, "bike_id": "f506906ad9d0537b3e6422cec1a144fc", "is_disabled": 0, "is_reserved": 0}, {"rental_uris": {"ios": "https://dc.lft.to/lastmile_qr_scan", "android": "https://dc.lft.to/lastmile_qr_scan"}, "lon": -77.01702883333333, "type": "electric_scooter", "fusion_lat": 0.0, "lat": 38.920257666666664, "name": "86eccf1b27eb6bc1d5a4b92521562c8b", "fusion_lon": 0.0, "bike_id": "86eccf1b27eb6bc1d5a4b92521562c8b", "is_disabled": 0, "is_reserved": 0}, {"rental_uris": {"ios": "https://dc.lft.to/lastmile_qr_scan", "android": "https://dc.lft.to/lastmile_qr_scan"}, "lon": -77.02356966666666, "type": "electric_scooter", "fusion_lat": 0.0, "lat": 38.925003833333335, "name": "8a750c9d643134145d8d511578e1afeb", "fusion_lon": 0.0, "bike_id": "8a750c9d643134145d8d511578e1afeb", "is_disabled": 0, "is_reserved": 0}, {"rental_uris": {"ios": "https://dc.lft.to/lastmile_qr_scan", "android": "https://dc.lft.to/lastmile_qr_scan"}, "lon": -77.0224925, "type": "electric_scooter", "fusion_lat": 0.0, "lat": 38.924584, "name": "fdd8a9d62ffaa6d5072f5fc538cea4f5", "fusion_lon": 0.0, "bike_id": "fdd8a9d62ffaa6d5072f5fc538cea4f5", "is_disabled": 0, "is_reserved": 0}, {"rental_uris": {"ios": "https://dc.lft.to/lastmile_qr_scan", "android": "https://dc.lft.to/lastmile_qr_scan"}, "lon": -77.0423985, "type": "electric_scooter", "fusion_lat": 0.0, "lat": 38.9058595, "name": "eab6d68b1d40184ef5b7a4f3c0c5d74c", "fusion_lon": 0.0, "bike_id": "eab6d68b1d40184ef5b7a4f3c0c5d74c", "is_disabled": 0, "is_reserved": 0}, {"rental_uris": {"ios": "https://dc.lft.to/lastmile_qr_scan", "android": "https://dc.lft.to/lastmile_qr_scan"}, "lon": -77.02577716666667, "type": "electric_scooter", "fusion_lat": 0.0, "lat": 38.918176, "name": "dcf364de0da7b91fe6ffb42d1b95b35e", "fusion_lon": 0.0, "bike_id": "dcf364de0da7b91fe6ffb42d1b95b35e", "is_disabled": 0, "is_reserved": 0}, {"rental_uris": {"ios": "https://dc.lft.to/lastmile_qr_scan", "android": "https://dc.lft.to/lastmile_qr_scan"}, "lon": -77.023678, "type": "electric_scooter", "fusion_lat": 0.0, "lat": 38.903104166666665, "name": "93804eefc1d4b29efb5b96634ff48b46", "fusion_lon": 0.0, "bike_id": "93804eefc1d4b29efb5b96634ff48b46", "is_disabled": 0, "is_reserved": 0}, {"rental_uris": {"ios": "https://dc.lft.to/lastmile_qr_scan", "android": "https://dc.lft.to/lastmile_qr_scan"}, "lon": -77.011123, "type": "electric_scooter", "fusion_lat": 0.0, "lat": 38.907793833333336, "name": "2ac45c633ce913ae55d5a2c31bb0086b", "fusion_lon": 0.0, "bike_id": "2ac45c633ce913ae55d5a2c31bb0086b", "is_disabled": 0, "is_reserved": 0}, {"rental_uris": {"ios": "https://dc.lft.to/lastmile_qr_scan", "android": "https://dc.lft.to/lastmile_qr_scan"}, "lon": -76.99000333333333, "type": "electric_scooter", "fusion_lat": 0.0, "lat": 38.86503283333333, "name": "57f05b8f9fd7a6474552749b2ef15468", "fusion_lon": 0.0, "bike_id": "57f05b8f9fd7a6474552749b2ef15468", "is_disabled": 0, "is_reserved": 0}, {"rental_uris": {"ios": "https://dc.lft.to/lastmile_qr_scan", "android": "https://dc.lft.to/lastmile_qr_scan"}, "lon": -77.00626483333333, "type": "electric_scooter", "fusion_lat": 0.0, "lat": 38.82927566666667, "name": "c40010b51e815153f5646a331e65d661", "fusion_lon": 0.0, "bike_id": "c40010b51e815153f5646a331e65d661", "is_disabled": 0, "is_reserved": 0}, {"rental_uris": {"ios": "https://dc.lft.to/lastmile_qr_scan", "android": "https://dc.lft.to/lastmile_qr_scan"}, "lon": -77.01928566666666, "type": "electric_scooter", "fusion_lat": 0.0, "lat": 38.95685666666667, "name": "51ff47fcfe1ceee11eb26ceb8f835490", "fusion_lon": 0.0, "bike_id": "51ff47fcfe1ceee11eb26ceb8f835490", "is_disabled": 0, "is_reserved": 0}, {"rental_uris": {"ios": "https://dc.lft.to/lastmile_qr_scan", "android": "https://dc.lft.to/lastmile_qr_scan"}, "lon": -77.03593733333334, "type": "electric_scooter", "fusion_lat": 0.0, "lat": 38.90699466666667, "name": "47a7501ccefe8c26bf9303d4004d828f", "fusion_lon": 0.0, "bike_id": "47a7501ccefe8c26bf9303d4004d828f", "is_disabled": 0, "is_reserved": 0}, {"rental_uris": {"ios": "https://dc.lft.to/lastmile_qr_scan", "android": "https://dc.lft.to/lastmile_qr_scan"}, "lon": -77.02787533333333, "type": "electric_scooter", "fusion_lat": 0.0, "lat": 38.9308745, "name": "4a474bae43d06c3f8eabb42e35add746", "fusion_lon": 0.0, "bike_id": "4a474bae43d06c3f8eabb42e35add746", "is_disabled": 0, "is_reserved": 0}, {"rental_uris": {"ios": "https://dc.lft.to/lastmile_qr_scan", "android": "https://dc.lft.to/lastmile_qr_scan"}, "lon": -77.03076033333333, "type": "electric_scooter", "fusion_lat": 0.0, "lat": 38.89479383333333, "name": "b8bc6d6e4270adb019b7c1cfb46ad738", "fusion_lon": 0.0, "bike_id": "b8bc6d6e4270adb019b7c1cfb46ad738", "is_disabled": 0, "is_reserved": 0}, {"rental_uris": {"ios": "https://dc.lft.to/lastmile_qr_scan", "android": "https://dc.lft.to/lastmile_qr_scan"}, "lon": -77.04707866666666, "type": "electric_scooter", "fusion_lat": 0.0, "lat": 38.908634166666666, "name": "bb61b550548362be718d0f85458ac928", "fusion_lon": 0.0, "bike_id": "bb61b550548362be718d0f85458ac928", "is_disabled": 0, "is_reserved": 0}, {"rental_uris": {"ios": "https://dc.lft.to/lastmile_qr_scan", "android": "https://dc.lft.to/lastmile_qr_scan"}, "lon": -77.06693133333333, "type": "electric_scooter", "fusion_lat": 0.0, "lat": 38.9097065, "name": "2979862e03fd8df0e5a5fde553783d93", "fusion_lon": 0.0, "bike_id": "2979862e03fd8df0e5a5fde553783d93", "is_disabled": 0, "is_reserved": 0}, {"rental_uris": {"ios": "https://dc.lft.to/lastmile_qr_scan", "android": "https://dc.lft.to/lastmile_qr_scan"}, "lon": -77.04239816666667, "type": "electric_scooter", "fusion_lat": 0.0, "lat": 38.92275983333333, "name": "acbeeb91e9ae70c6e06870336d26aa03", "fusion_lon": 0.0, "bike_id": "acbeeb91e9ae70c6e06870336d26aa03", "is_disabled": 0, "is_reserved": 0}, {"rental_uris": {"ios": "https://dc.lft.to/lastmile_qr_scan", "android": "https://dc.lft.to/lastmile_qr_scan"}, "lon": -77.0396445, "type": "electric_scooter", "fusion_lat": 0.0, "lat": 38.916297, "name": "342e15710f5107e77fad8d2aa6430a0d", "fusion_lon": 0.0, "bike_id": "342e15710f5107e77fad8d2aa6430a0d", "is_disabled": 0, "is_reserved": 0}, {"rental_uris": {"ios": "https://dc.lft.to/lastmile_qr_scan", "android": "https://dc.lft.to/lastmile_qr_scan"}, "lon": -77.029522, "type": "electric_scooter", "fusion_lat": 0.0, "lat": 38.905202833333334, "name": "6e40514f2ad909478393fb2e49184182", "fusion_lon": 0.0, "bike_id": "6e40514f2ad909478393fb2e49184182", "is_disabled": 0, "is_reserved": 0}, {"rental_uris": {"ios": "https://dc.lft.to/lastmile_qr_scan", "android": "https://dc.lft.to/lastmile_qr_scan"}, "lon": -76.9903455, "type": "electric_scooter", "fusion_lat": 0.0, "lat": 38.858714, "name": "2e3aec12127f003d8540be9c406ed904", "fusion_lon": 0.0, "bike_id": "2e3aec12127f003d8540be9c406ed904", "is_disabled": 0, "is_reserved": 0}, {"rental_uris": {"ios": "https://dc.lft.to/lastmile_qr_scan", "android": "https://dc.lft.to/lastmile_qr_scan"}, "lon": -77.0091945, "type": "electric_scooter", "fusion_lat": 0.0, "lat": 38.912418333333335, "name": "03ea58a53987ce1e0bcc62ac1cac8931", "fusion_lon": 0.0, "bike_id": "03ea58a53987ce1e0bcc62ac1cac8931", "is_disabled": 0, "is_reserved": 0}, {"rental_uris": {"ios": "https://dc.lft.to/lastmile_qr_scan", "android": "https://dc.lft.to/lastmile_qr_scan"}, "lon": -77.04387883333334, "type": "electric_scooter", "fusion_lat": 0.0, "lat": 38.922782166666664, "name": "ffc3116cec8eb2767c7c5fd4b89324ff", "fusion_lon": 0.0, "bike_id": "ffc3116cec8eb2767c7c5fd4b89324ff", "is_disabled": 0, "is_reserved": 0}, {"rental_uris": {"ios": "https://dc.lft.to/lastmile_qr_scan", "android": "https://dc.lft.to/lastmile_qr_scan"}, "lon": -76.97610616666667, "type": "electric_bike", "fusion_lat": 0.0, "lat": 38.9131115, "name": "2ee3190311c0213cab4eef46588c4e5f", "fusion_lon": 0.0, "bike_id": "2ee3190311c0213cab4eef46588c4e5f", "is_disabled": 0, "is_reserved": 0}, {"rental_uris": {"ios": "https://dc.lft.to/lastmile_qr_scan", "android": "https://dc.lft.to/lastmile_qr_scan"}, "lon": -77.06612466666667, "type": "electric_bike", "fusion_lat": 0.0, "lat": 38.9112745, "name": "4c861395658c0c8f0a4f40b94ea47168", "fusion_lon": 0.0, "bike_id": "4c861395658c0c8f0a4f40b94ea47168", "is_disabled": 0, "is_reserved": 0}, {"rental_uris": {"ios": "https://dc.lft.to/lastmile_qr_scan", "android": "https://dc.lft.to/lastmile_qr_scan"}, "lon": -77.093567, "type": "electric_bike", "fusion_lat": 0.0, "lat": 38.80654666666667, "name": "e215ff678949564a59ee5d858c809d5d", "fusion_lon": 0.0, "bike_id": "e215ff678949564a59ee5d858c809d5d", "is_disabled": 0, "is_reserved": 0}, {"rental_uris": {"ios": "https://dc.lft.to/lastmile_qr_scan", "android": "https://dc.lft.to/lastmile_qr_scan"}, "lon": -77.03847683333333, "type": "electric_scooter", "fusion_lat": 0.0, "lat": 38.904846166666665, "name": "0ba294f6003d11a099842fda4e61ea36", "fusion_lon": 0.0, "bike_id": "0ba294f6003d11a099842fda4e61ea36", "is_disabled": 0, "is_reserved": 0}, {"rental_uris": {"ios": "https://dc.lft.to/lastmile_qr_scan", "android": "https://dc.lft.to/lastmile_qr_scan"}, "lon": -77.04327216666667, "type": "electric_scooter", "fusion_lat": 0.0, "lat": 38.895833833333334, "name": "283588c45eb453188b461921ae8d73d4", "fusion_lon": 0.0, "bike_id": "283588c45eb453188b461921ae8d73d4", "is_disabled": 0, "is_reserved": 0}, {"rental_uris": {"ios": "https://dc.lft.to/lastmile_qr_scan", "android": "https://dc.lft.to/lastmile_qr_scan"}, "lon": -77.02727966666667, "type": "electric_scooter", "fusion_lat": 0.0, "lat": 38.927941, "name": "50769551a076c2d5ea54a5c22f08cc78", "fusion_lon": 0.0, "bike_id": "50769551a076c2d5ea54a5c22f08cc78", "is_disabled": 0, "is_reserved": 0}, {"rental_uris": {"ios": "https://dc.lft.to/lastmile_qr_scan", "android": "https://dc.lft.to/lastmile_qr_scan"}, "lon": -77.0322115, "type": "electric_scooter", "fusion_lat": 0.0, "lat": 38.90745883333334, "name": "039b79f6c3bc74fc4fbfcbd51da2397a", "fusion_lon": 0.0, "bike_id": "039b79f6c3bc74fc4fbfcbd51da2397a", "is_disabled": 0, "is_reserved": 0}, {"rental_uris": {"ios": "https://dc.lft.to/lastmile_qr_scan", "android": "https://dc.lft.to/lastmile_qr_scan"}, "lon": -77.02867616666667, "type": "electric_scooter", "fusion_lat": 0.0, "lat": 38.88769766666667, "name": "a26e92d40d1635507a7fc72d99d29682", "fusion_lon": 0.0, "bike_id": "a26e92d40d1635507a7fc72d99d29682", "is_disabled": 0, "is_reserved": 0}, {"rental_uris": {"ios": "https://dc.lft.to/lastmile_qr_scan", "android": "https://dc.lft.to/lastmile_qr_scan"}, "lon": -76.9987885, "type": "electric_scooter", "fusion_lat": 0.0, "lat": 38.9075105, "name": "36a7cb2aaf1862bbb1333293f5237909", "fusion_lon": 0.0, "bike_id": "36a7cb2aaf1862bbb1333293f5237909", "is_disabled": 0, "is_reserved": 0}, {"rental_uris": {"ios": "https://dc.lft.to/lastmile_qr_scan", "android": "https://dc.lft.to/lastmile_qr_scan"}, "lon": -77.04479566666667, "type": "electric_scooter", "fusion_lat": 0.0, "lat": 38.918601, "name": "b7651e48dba3293fa21f354dcfe9db5d", "fusion_lon": 0.0, "bike_id": "b7651e48dba3293fa21f354dcfe9db5d", "is_disabled": 0, "is_reserved": 0}, {"rental_uris": {"ios": "https://dc.lft.to/lastmile_qr_scan", "android": "https://dc.lft.to/lastmile_qr_scan"}, "lon": -77.04392516666667, "type": "electric_scooter", "fusion_lat": 0.0, "lat": 38.90901733333333, "name": "5eb3034c8a564f3f2a878ebd7cb5f6e2", "fusion_lon": 0.0, "bike_id": "5eb3034c8a564f3f2a878ebd7cb5f6e2", "is_disabled": 0, "is_reserved": 0}, {"rental_uris": {"ios": "https://dc.lft.to/lastmile_qr_scan", "android": "https://dc.lft.to/lastmile_qr_scan"}, "lon": -77.062965, "type": "electric_scooter", "fusion_lat": 0.0, "lat": 38.903997833333335, "name": "c7960725c0bac17d99b7e14725384845", "fusion_lon": 0.0, "bike_id": "c7960725c0bac17d99b7e14725384845", "is_disabled": 0, "is_reserved": 0}, {"rental_uris": {"ios": "https://dc.lft.to/lastmile_qr_scan", "android": "https://dc.lft.to/lastmile_qr_scan"}, "lon": -77.01504883333334, "type": "electric_scooter", "fusion_lat": 0.0, "lat": 38.90147916666667, "name": "bafdd935668f745cf647c28806df2bfa", "fusion_lon": 0.0, "bike_id": "bafdd935668f745cf647c28806df2bfa", "is_disabled": 0, "is_reserved": 0}, {"rental_uris": {"ios": "https://dc.lft.to/lastmile_qr_scan", "android": "https://dc.lft.to/lastmile_qr_scan"}, "lon": -77.026345, "type": "electric_scooter", "fusion_lat": 0.0, "lat": 38.89609933333333, "name": "0e9a3f1f73951b7923bf4a5f5c403fd4", "fusion_lon": 0.0, "bike_id": "0e9a3f1f73951b7923bf4a5f5c403fd4", "is_disabled": 0, "is_reserved": 0}, {"rental_uris": {"ios": "https://dc.lft.to/lastmile_qr_scan", "android": "https://dc.lft.to/lastmile_qr_scan"}, "lon": -76.97209766666667, "type": "electric_scooter", "fusion_lat": 0.0, "lat": 38.8549825, "name": "43c06154fd8dec75218b73a90ea1455c", "fusion_lon": 0.0, "bike_id": "43c06154fd8dec75218b73a90ea1455c", "is_disabled": 0, "is_reserved": 0}, {"rental_uris": {"ios": "https://dc.lft.to/lastmile_qr_scan", "android": "https://dc.lft.to/lastmile_qr_scan"}, "lon": -76.9462855, "type": "electric_bike", "fusion_lat": 0.0, "lat": 38.94625083333333, "name": "564f9d035b12a2abfd5e5f323a6a7913", "fusion_lon": 0.0, "bike_id": "564f9d035b12a2abfd5e5f323a6a7913", "is_disabled": 0, "is_reserved": 0}, {"rental_uris": {"ios": "https://dc.lft.to/lastmile_qr_scan", "android": "https://dc.lft.to/lastmile_qr_scan"}, "lon": -77.03179533333333, "type": "electric_scooter", "fusion_lat": 0.0, "lat": 38.895960333333335, "name": "f5fc3deac76eceece725f434b4b6e099", "fusion_lon": 0.0, "bike_id": "f5fc3deac76eceece725f434b4b6e099", "is_disabled": 0, "is_reserved": 0}, {"rental_uris": {"ios": "https://dc.lft.to/lastmile_qr_scan", "android": "https://dc.lft.to/lastmile_qr_scan"}, "lon": -77.00901583333334, "type": "electric_scooter", "fusion_lat": 0.0, "lat": 38.912333833333335, "name": "5240fe5b247e3fe3a1739762484d4348", "fusion_lon": 0.0, "bike_id": "5240fe5b247e3fe3a1739762484d4348", "is_disabled": 0, "is_reserved": 0}, {"rental_uris": {"ios": "https://dc.lft.to/lastmile_qr_scan", "android": "https://dc.lft.to/lastmile_qr_scan"}, "lon": -77.03133383333333, "type": "electric_scooter", "fusion_lat": 0.0, "lat": 38.92375416666667, "name": "5fec1ae5c07833372644184ede72e9fe", "fusion_lon": 0.0, "bike_id": "5fec1ae5c07833372644184ede72e9fe", "is_disabled": 0, "is_reserved": 0}, {"rental_uris": {"ios": "https://dc.lft.to/lastmile_qr_scan", "android": "https://dc.lft.to/lastmile_qr_scan"}, "lon": -76.931763, "type": "electric_scooter", "fusion_lat": 0.0, "lat": 38.898863166666665, "name": "fad82013575b0c661202cc81e13e2a07", "fusion_lon": 0.0, "bike_id": "fad82013575b0c661202cc81e13e2a07", "is_disabled": 0, "is_reserved": 0}, {"rental_uris": {"ios": "https://dc.lft.to/lastmile_qr_scan", "android": "https://dc.lft.to/lastmile_qr_scan"}, "lon": -76.927113, "type": "electric_scooter", "fusion_lat": 0.0, "lat": 38.88768183333333, "name": "82880cb05c49d8c093a79f82be0f1964", "fusion_lon": 0.0, "bike_id": "82880cb05c49d8c093a79f82be0f1964", "is_disabled": 0, "is_reserved": 0}, {"rental_uris": {"ios": "https://dc.lft.to/lastmile_qr_scan", "android": "https://dc.lft.to/lastmile_qr_scan"}, "lon": -77.015771, "type": "electric_scooter", "fusion_lat": 0.0, "lat": 38.91681166666667, "name": "364b1bbf3e63e37932992855c0bb48af", "fusion_lon": 0.0, "bike_id": "364b1bbf3e63e37932992855c0bb48af", "is_disabled": 0, "is_reserved": 0}, {"rental_uris": {"ios": "https://dc.lft.to/lastmile_qr_scan", "android": "https://dc.lft.to/lastmile_qr_scan"}, "lon": -76.98706933333334, "type": "electric_scooter", "fusion_lat": 0.0, "lat": 38.86698666666667, "name": "df8227c8a9fa8f9fb8f79bc356ab6ade", "fusion_lon": 0.0, "bike_id": "df8227c8a9fa8f9fb8f79bc356ab6ade", "is_disabled": 0, "is_reserved": 0}, {"rental_uris": {"ios": "https://dc.lft.to/lastmile_qr_scan", "android": "https://dc.lft.to/lastmile_qr_scan"}, "lon": -77.032118, "type": "electric_scooter", "fusion_lat": 0.0, "lat": 38.91598183333333, "name": "cc74636ec6ac47993febdd0923dc0d0e", "fusion_lon": 0.0, "bike_id": "cc74636ec6ac47993febdd0923dc0d0e", "is_disabled": 0, "is_reserved": 0}, {"rental_uris": {"ios": "https://dc.lft.to/lastmile_qr_scan", "android": "https://dc.lft.to/lastmile_qr_scan"}, "lon": -77.00294183333334, "type": "electric_bike", "fusion_lat": 0.0, "lat": 38.91613533333334, "name": "15a85ad6a4ad98d6b22940efe1cf33f7", "fusion_lon": 0.0, "bike_id": "15a85ad6a4ad98d6b22940efe1cf33f7", "is_disabled": 0, "is_reserved": 0}, {"rental_uris": {"ios": "https://dc.lft.to/lastmile_qr_scan", "android": "https://dc.lft.to/lastmile_qr_scan"}, "lon": -76.99363066666666, "type": "electric_scooter", "fusion_lat": 0.0, "lat": 38.90038, "name": "ff0bdaffc07c9a8c0ded0b20790e23df", "fusion_lon": 0.0, "bike_id": "ff0bdaffc07c9a8c0ded0b20790e23df", "is_disabled": 0, "is_reserved": 0}, {"rental_uris": {"ios": "https://dc.lft.to/lastmile_qr_scan", "android": "https://dc.lft.to/lastmile_qr_scan"}, "lon": -76.97615416666666, "type": "electric_scooter", "fusion_lat": 0.0, "lat": 38.903819, "name": "3b8bab083d213f1caa06f2d49722efac", "fusion_lon": 0.0, "bike_id": "3b8bab083d213f1caa06f2d49722efac", "is_disabled": 0, "is_reserved": 0}, {"rental_uris": {"ios": "https://dc.lft.to/lastmile_qr_scan", "android": "https://dc.lft.to/lastmile_qr_scan"}, "lon": -76.9774185, "type": "electric_scooter", "fusion_lat": 0.0, "lat": 38.900104166666665, "name": "1a5ae0c793f10bd4a9ecbc1bb186b8a4", "fusion_lon": 0.0, "bike_id": "1a5ae0c793f10bd4a9ecbc1bb186b8a4", "is_disabled": 0, "is_reserved": 0}, {"rental_uris": {"ios": "https://dc.lft.to/lastmile_qr_scan", "android": "https://dc.lft.to/lastmile_qr_scan"}, "lon": -76.94632916666667, "type": "electric_scooter", "fusion_lat": 0.0, "lat": 38.8983395, "name": "ca7be89da0e51af3e9b5f1d626d6117f", "fusion_lon": 0.0, "bike_id": "ca7be89da0e51af3e9b5f1d626d6117f", "is_disabled": 0, "is_reserved": 0}, {"rental_uris": {"ios": "https://dc.lft.to/lastmile_qr_scan", "android": "https://dc.lft.to/lastmile_qr_scan"}, "lon": -77.107254, "type": "electric_bike", "fusion_lat": 0.0, "lat": 38.8552665, "name": "37a509c9a81d9e38702ccbf5e64bda8f", "fusion_lon": 0.0, "bike_id": "37a509c9a81d9e38702ccbf5e64bda8f", "is_disabled": 0, "is_reserved": 0}, {"rental_uris": {"ios": "https://dc.lft.to/lastmile_qr_scan", "android": "https://dc.lft.to/lastmile_qr_scan"}, "lon": -77.02368416666667, "type": "electric_scooter", "fusion_lat": 0.0, "lat": 38.90305516666667, "name": "6f15edad744b76be830746732d3bb347", "fusion_lon": 0.0, "bike_id": "6f15edad744b76be830746732d3bb347", "is_disabled": 0, "is_reserved": 0}, {"rental_uris": {"ios": "https://dc.lft.to/lastmile_qr_scan", "android": "https://dc.lft.to/lastmile_qr_scan"}, "lon": -77.03244466666666, "type": "electric_scooter", "fusion_lat": 0.0, "lat": 38.92891516666667, "name": "60a7e3ff35751c391950afc80621fc0e", "fusion_lon": 0.0, "bike_id": "60a7e3ff35751c391950afc80621fc0e", "is_disabled": 0, "is_reserved": 0}, {"rental_uris": {"ios": "https://dc.lft.to/lastmile_qr_scan", "android": "https://dc.lft.to/lastmile_qr_scan"}, "lon": -77.03786366666667, "type": "electric_scooter", "fusion_lat": 0.0, "lat": 38.9262655, "name": "95e323e2b659f50c92fba5aef2320a73", "fusion_lon": 0.0, "bike_id": "95e323e2b659f50c92fba5aef2320a73", "is_disabled": 0, "is_reserved": 0}, {"rental_uris": {"ios": "https://dc.lft.to/lastmile_qr_scan", "android": "https://dc.lft.to/lastmile_qr_scan"}, "lon": -77.0348405, "type": "electric_scooter", "fusion_lat": 0.0, "lat": 38.90508483333333, "name": "8be663fe2b4b2ead3d89a7c84c7cb563", "fusion_lon": 0.0, "bike_id": "8be663fe2b4b2ead3d89a7c84c7cb563", "is_disabled": 0, "is_reserved": 0}, {"rental_uris": {"ios": "https://dc.lft.to/lastmile_qr_scan", "android": "https://dc.lft.to/lastmile_qr_scan"}, "lon": -76.87819466666667, "type": "electric_bike", "fusion_lat": 0.0, "lat": 38.992331666666665, "name": "04b9c6a884f469c80bddf4729f770f20", "fusion_lon": 0.0, "bike_id": "04b9c6a884f469c80bddf4729f770f20", "is_disabled": 0, "is_reserved": 0}, {"rental_uris": {"ios": "https://dc.lft.to/lastmile_qr_scan", "android": "https://dc.lft.to/lastmile_qr_scan"}, "lon": -77.044161, "type": "electric_scooter", "fusion_lat": 0.0, "lat": 38.905828, "name": "66f0512713a0cedf83f454e73a7e0494", "fusion_lon": 0.0, "bike_id": "66f0512713a0cedf83f454e73a7e0494", "is_disabled": 0, "is_reserved": 0}, {"rental_uris": {"ios": "https://dc.lft.to/lastmile_qr_scan", "android": "https://dc.lft.to/lastmile_qr_scan"}, "lon": -77.01105, "type": "electric_scooter", "fusion_lat": 0.0, "lat": 38.900108, "name": "f529237e8e46c7c3fe11562669e0c699", "fusion_lon": 0.0, "bike_id": "f529237e8e46c7c3fe11562669e0c699", "is_disabled": 0, "is_reserved": 0}, {"rental_uris": {"ios": "https://dc.lft.to/lastmile_qr_scan", "android": "https://dc.lft.to/lastmile_qr_scan"}, "lon": -77.0543765, "type": "electric_scooter", "fusion_lat": 0.0, "lat": 38.896052833333336, "name": "80f54cb79b00cd495081b7eb7ae914c8", "fusion_lon": 0.0, "bike_id": "80f54cb79b00cd495081b7eb7ae914c8", "is_disabled": 0, "is_reserved": 0}, {"rental_uris": {"ios": "https://dc.lft.to/lastmile_qr_scan", "android": "https://dc.lft.to/lastmile_qr_scan"}, "lon": -77.04794633333333, "type": "electric_scooter", "fusion_lat": 0.0, "lat": 38.893697833333334, "name": "3400d815179b0c286b8208845459293d", "fusion_lon": 0.0, "bike_id": "3400d815179b0c286b8208845459293d", "is_disabled": 0, "is_reserved": 0}, {"rental_uris": {"ios": "https://dc.lft.to/lastmile_qr_scan", "android": "https://dc.lft.to/lastmile_qr_scan"}, "lon": -77.03479616666667, "type": "electric_scooter", "fusion_lat": 0.0, "lat": 38.919870333333336, "name": "c38dbd18072359220545d287866db0d1", "fusion_lon": 0.0, "bike_id": "c38dbd18072359220545d287866db0d1", "is_disabled": 0, "is_reserved": 0}, {"rental_uris": {"ios": "https://dc.lft.to/lastmile_qr_scan", "android": "https://dc.lft.to/lastmile_qr_scan"}, "lon": -77.016549, "type": "electric_scooter", "fusion_lat": 0.0, "lat": 38.9532325, "name": "4414019531b3a6a14c9be474f938183d", "fusion_lon": 0.0, "bike_id": "4414019531b3a6a14c9be474f938183d", "is_disabled": 0, "is_reserved": 0}, {"rental_uris": {"ios": "https://dc.lft.to/lastmile_qr_scan", "android": "https://dc.lft.to/lastmile_qr_scan"}, "lon": -76.99362333333333, "type": "electric_scooter", "fusion_lat": 0.0, "lat": 38.89743816666667, "name": "c96df9c35242ea9a80bc5391b543916e", "fusion_lon": 0.0, "bike_id": "c96df9c35242ea9a80bc5391b543916e", "is_disabled": 0, "is_reserved": 0}, {"rental_uris": {"ios": "https://dc.lft.to/lastmile_qr_scan", "android": "https://dc.lft.to/lastmile_qr_scan"}, "lon": -77.02022433333333, "type": "electric_scooter", "fusion_lat": 0.0, "lat": 38.916445, "name": "01f2d4dd22e10079ab1eff77a65fb6d4", "fusion_lon": 0.0, "bike_id": "01f2d4dd22e10079ab1eff77a65fb6d4", "is_disabled": 0, "is_reserved": 0}, {"rental_uris": {"ios": "https://dc.lft.to/lastmile_qr_scan", "android": "https://dc.lft.to/lastmile_qr_scan"}, "lon": -76.98262633333333, "type": "electric_scooter", "fusion_lat": 0.0, "lat": 38.86352466666666, "name": "1b2b206f186623ee83eb96041e11d7ee", "fusion_lon": 0.0, "bike_id": "1b2b206f186623ee83eb96041e11d7ee", "is_disabled": 0, "is_reserved": 0}, {"rental_uris": {"ios": "https://dc.lft.to/lastmile_qr_scan", "android": "https://dc.lft.to/lastmile_qr_scan"}, "lon": -77.04226183333333, "type": "electric_scooter", "fusion_lat": 0.0, "lat": 38.907286666666664, "name": "1fa1c8dae00b468d1a0a11407ea6d878", "fusion_lon": 0.0, "bike_id": "1fa1c8dae00b468d1a0a11407ea6d878", "is_disabled": 0, "is_reserved": 0}, {"rental_uris": {"ios": "https://dc.lft.to/lastmile_qr_scan", "android": "https://dc.lft.to/lastmile_qr_scan"}, "lon": -77.0347395, "type": "electric_scooter", "fusion_lat": 0.0, "lat": 38.917085, "name": "d73aaf0f5ea08a2fa7736814a91e80e3", "fusion_lon": 0.0, "bike_id": "d73aaf0f5ea08a2fa7736814a91e80e3", "is_disabled": 0, "is_reserved": 0}, {"rental_uris": {"ios": "https://dc.lft.to/lastmile_qr_scan", "android": "https://dc.lft.to/lastmile_qr_scan"}, "lon": -77.01383683333333, "type": "electric_scooter", "fusion_lat": 0.0, "lat": 38.919581666666666, "name": "fd824e49c8d2124603f1b317af8cb7b6", "fusion_lon": 0.0, "bike_id": "fd824e49c8d2124603f1b317af8cb7b6", "is_disabled": 0, "is_reserved": 0}, {"rental_uris": {"ios": "https://dc.lft.to/lastmile_qr_scan", "android": "https://dc.lft.to/lastmile_qr_scan"}, "lon": -77.02430583333333, "type": "electric_scooter", "fusion_lat": 0.0, "lat": 38.90713816666667, "name": "443b43b92949439a9cd6c4665a334f10", "fusion_lon": 0.0, "bike_id": "443b43b92949439a9cd6c4665a334f10", "is_disabled": 0, "is_reserved": 0}, {"rental_uris": {"ios": "https://dc.lft.to/lastmile_qr_scan", "android": "https://dc.lft.to/lastmile_qr_scan"}, "lon": -76.97696683333334, "type": "electric_scooter", "fusion_lat": 0.0, "lat": 38.89704166666667, "name": "72892a37a17802b69eda30a6b2373252", "fusion_lon": 0.0, "bike_id": "72892a37a17802b69eda30a6b2373252", "is_disabled": 0, "is_reserved": 0}, {"rental_uris": {"ios": "https://dc.lft.to/lastmile_qr_scan", "android": "https://dc.lft.to/lastmile_qr_scan"}, "lon": -76.94755133333334, "type": "electric_scooter", "fusion_lat": 0.0, "lat": 38.900512, "name": "9fb33e661b876a7f93f4ae815ca6664d", "fusion_lon": 0.0, "bike_id": "9fb33e661b876a7f93f4ae815ca6664d", "is_disabled": 0, "is_reserved": 0}, {"rental_uris": {"ios": "https://dc.lft.to/lastmile_qr_scan", "android": "https://dc.lft.to/lastmile_qr_scan"}, "lon": -77.02225566666667, "type": "electric_scooter", "fusion_lat": 0.0, "lat": 38.912704833333336, "name": "7bb6ca25a29a1a0b7566e1660f0974e7", "fusion_lon": 0.0, "bike_id": "7bb6ca25a29a1a0b7566e1660f0974e7", "is_disabled": 0, "is_reserved": 0}, {"rental_uris": {"ios": "https://dc.lft.to/lastmile_qr_scan", "android": "https://dc.lft.to/lastmile_qr_scan"}, "lon": -77.04888616666666, "type": "electric_scooter", "fusion_lat": 0.0, "lat": 38.896627, "name": "12530c6a6fae079a46f28982e0e97eff", "fusion_lon": 0.0, "bike_id": "12530c6a6fae079a46f28982e0e97eff", "is_disabled": 0, "is_reserved": 0}, {"rental_uris": {"ios": "https://dc.lft.to/lastmile_qr_scan", "android": "https://dc.lft.to/lastmile_qr_scan"}, "lon": -77.035105, "type": "electric_scooter", "fusion_lat": 0.0, "lat": 38.900309166666666, "name": "1f2853b63872deed643a2936bed871d4", "fusion_lon": 0.0, "bike_id": "1f2853b63872deed643a2936bed871d4", "is_disabled": 0, "is_reserved": 0}, {"rental_uris": {"ios": "https://dc.lft.to/lastmile_qr_scan", "android": "https://dc.lft.to/lastmile_qr_scan"}, "lon": -77.028109, "type": "electric_scooter", "fusion_lat": 0.0, "lat": 38.9176245, "name": "25eeb75c7167fc81c3b08b3d2266dcdb", "fusion_lon": 0.0, "bike_id": "25eeb75c7167fc81c3b08b3d2266dcdb", "is_disabled": 0, "is_reserved": 0}, {"rental_uris": {"ios": "https://dc.lft.to/lastmile_qr_scan", "android": "https://dc.lft.to/lastmile_qr_scan"}, "lon": -77.04645533333333, "type": "electric_bike", "fusion_lat": 0.0, "lat": 38.85209716666667, "name": "ac58d53dcc8115fd2a7ff6a03f209050", "fusion_lon": 0.0, "bike_id": "ac58d53dcc8115fd2a7ff6a03f209050", "is_disabled": 0, "is_reserved": 0}, {"rental_uris": {"ios": "https://dc.lft.to/lastmile_qr_scan", "android": "https://dc.lft.to/lastmile_qr_scan"}, "lon": -77.040365, "type": "electric_scooter", "fusion_lat": 0.0, "lat": 38.903727, "name": "c925a7ae6a8e38ceba4b0f533046b792", "fusion_lon": 0.0, "bike_id": "c925a7ae6a8e38ceba4b0f533046b792", "is_disabled": 0, "is_reserved": 0}, {"rental_uris": {"ios": "https://dc.lft.to/lastmile_qr_scan", "android": "https://dc.lft.to/lastmile_qr_scan"}, "lon": -77.036381, "type": "electric_scooter", "fusion_lat": 0.0, "lat": 38.9026875, "name": "2fdeacf5481123d64baa4007e6b82f67", "fusion_lon": 0.0, "bike_id": "2fdeacf5481123d64baa4007e6b82f67", "is_disabled": 0, "is_reserved": 0}, {"rental_uris": {"ios": "https://dc.lft.to/lastmile_qr_scan", "android": "https://dc.lft.to/lastmile_qr_scan"}, "lon": -77.12967183333333, "type": "electric_bike", "fusion_lat": 0.0, "lat": 38.807905, "name": "3cea3ec27a9b0997697d0283bfe394cc", "fusion_lon": 0.0, "bike_id": "3cea3ec27a9b0997697d0283bfe394cc", "is_disabled": 0, "is_reserved": 0}, {"rental_uris": {"ios": "https://dc.lft.to/lastmile_qr_scan", "android": "https://dc.lft.to/lastmile_qr_scan"}, "lon": -77.03200583333333, "type": "electric_scooter", "fusion_lat": 0.0, "lat": 38.89230716666667, "name": "410d5439a0fa4e5317e036b81d698a62", "fusion_lon": 0.0, "bike_id": "410d5439a0fa4e5317e036b81d698a62", "is_disabled": 0, "is_reserved": 0}, {"rental_uris": {"ios": "https://dc.lft.to/lastmile_qr_scan", "android": "https://dc.lft.to/lastmile_qr_scan"}, "lon": -77.044966, "type": "electric_scooter", "fusion_lat": 0.0, "lat": 38.911031333333334, "name": "e7bb4147db4fb525723020d722a6e4d1", "fusion_lon": 0.0, "bike_id": "e7bb4147db4fb525723020d722a6e4d1", "is_disabled": 0, "is_reserved": 0}, {"rental_uris": {"ios": "https://dc.lft.to/lastmile_qr_scan", "android": "https://dc.lft.to/lastmile_qr_scan"}, "lon": -77.01286733333333, "type": "electric_bike", "fusion_lat": 0.0, "lat": 39.003893166666664, "name": "9997f6bac30e87065ab343398c49473f", "fusion_lon": 0.0, "bike_id": "9997f6bac30e87065ab343398c49473f", "is_disabled": 0, "is_reserved": 0}, {"rental_uris": {"ios": "https://dc.lft.to/lastmile_qr_scan", "android": "https://dc.lft.to/lastmile_qr_scan"}, "lon": -77.03029733333334, "type": "electric_scooter", "fusion_lat": 0.0, "lat": 38.896037, "name": "1681646858e5342df89b19f6a5ec8271", "fusion_lon": 0.0, "bike_id": "1681646858e5342df89b19f6a5ec8271", "is_disabled": 0, "is_reserved": 0}, {"rental_uris": {"ios": "https://dc.lft.to/lastmile_qr_scan", "android": "https://dc.lft.to/lastmile_qr_scan"}, "lon": -77.02958433333333, "type": "electric_scooter", "fusion_lat": 0.0, "lat": 38.9162845, "name": "f36e309db17eb592d60778f0d6c5cbdd", "fusion_lon": 0.0, "bike_id": "f36e309db17eb592d60778f0d6c5cbdd", "is_disabled": 0, "is_reserved": 0}, {"rental_uris": {"ios": "https://dc.lft.to/lastmile_qr_scan", "android": "https://dc.lft.to/lastmile_qr_scan"}, "lon": -77.04889, "type": "electric_scooter", "fusion_lat": 0.0, "lat": 38.902074999999996, "name": "1bf1b1a76dbce2839dbc961df269ceb1", "fusion_lon": 0.0, "bike_id": "1bf1b1a76dbce2839dbc961df269ceb1", "is_disabled": 0, "is_reserved": 0}, {"rental_uris": {"ios": "https://dc.lft.to/lastmile_qr_scan", "android": "https://dc.lft.to/lastmile_qr_scan"}, "lon": -77.03930766666667, "type": "electric_scooter", "fusion_lat": 0.0, "lat": 38.92111116666667, "name": "c58f34c8becc0e7dfce6d80e89a81c95", "fusion_lon": 0.0, "bike_id": "c58f34c8becc0e7dfce6d80e89a81c95", "is_disabled": 0, "is_reserved": 0}, {"rental_uris": {"ios": "https://dc.lft.to/lastmile_qr_scan", "android": "https://dc.lft.to/lastmile_qr_scan"}, "lon": -77.01608483333334, "type": "electric_scooter", "fusion_lat": 0.0, "lat": 38.90208366666667, "name": "81817df0a6efb8ac4d9eb6cd783debef", "fusion_lon": 0.0, "bike_id": "81817df0a6efb8ac4d9eb6cd783debef", "is_disabled": 0, "is_reserved": 0}, {"rental_uris": {"ios": "https://dc.lft.to/lastmile_qr_scan", "android": "https://dc.lft.to/lastmile_qr_scan"}, "lon": -77.05521483333334, "type": "electric_scooter", "fusion_lat": 0.0, "lat": 38.89726666666667, "name": "293a2c00c1569f989562d8aee19a36a0", "fusion_lon": 0.0, "bike_id": "293a2c00c1569f989562d8aee19a36a0", "is_disabled": 0, "is_reserved": 0}, {"rental_uris": {"ios": "https://dc.lft.to/lastmile_qr_scan", "android": "https://dc.lft.to/lastmile_qr_scan"}, "lon": -77.04662566666667, "type": "electric_scooter", "fusion_lat": 0.0, "lat": 38.9329755, "name": "15cd70cc8d90e1a3322f5c04987869cd", "fusion_lon": 0.0, "bike_id": "15cd70cc8d90e1a3322f5c04987869cd", "is_disabled": 0, "is_reserved": 0}, {"rental_uris": {"ios": "https://dc.lft.to/lastmile_qr_scan", "android": "https://dc.lft.to/lastmile_qr_scan"}, "lon": -76.93241816666666, "type": "electric_scooter", "fusion_lat": 0.0, "lat": 38.8940425, "name": "0e50f4ca7ee37296d2b643707ac583cb", "fusion_lon": 0.0, "bike_id": "0e50f4ca7ee37296d2b643707ac583cb", "is_disabled": 0, "is_reserved": 0}, {"rental_uris": {"ios": "https://dc.lft.to/lastmile_qr_scan", "android": "https://dc.lft.to/lastmile_qr_scan"}, "lon": -76.99067816666667, "type": "electric_scooter", "fusion_lat": 0.0, "lat": 38.863518666666664, "name": "d1da7aa29d074e96ebade71506c8f0d1", "fusion_lon": 0.0, "bike_id": "d1da7aa29d074e96ebade71506c8f0d1", "is_disabled": 0, "is_reserved": 0}, {"rental_uris": {"ios": "https://dc.lft.to/lastmile_qr_scan", "android": "https://dc.lft.to/lastmile_qr_scan"}, "lon": -76.98957283333333, "type": "electric_scooter", "fusion_lat": 0.0, "lat": 38.90033283333333, "name": "74d87d201d5fc4d080f2373f5f4fc347", "fusion_lon": 0.0, "bike_id": "74d87d201d5fc4d080f2373f5f4fc347", "is_disabled": 0, "is_reserved": 0}, {"rental_uris": {"ios": "https://dc.lft.to/lastmile_qr_scan", "android": "https://dc.lft.to/lastmile_qr_scan"}, "lon": -77.00627083333333, "type": "electric_scooter", "fusion_lat": 0.0, "lat": 38.905853, "name": "16d300824476a88aa2e03cf3c91e4853", "fusion_lon": 0.0, "bike_id": "16d300824476a88aa2e03cf3c91e4853", "is_disabled": 0, "is_reserved": 0}, {"rental_uris": {"ios": "https://dc.lft.to/lastmile_qr_scan", "android": "https://dc.lft.to/lastmile_qr_scan"}, "lon": -77.05289733333333, "type": "electric_scooter", "fusion_lat": 0.0, "lat": 38.927917666666666, "name": "cbd24db3326745843aa05989dd378021", "fusion_lon": 0.0, "bike_id": "cbd24db3326745843aa05989dd378021", "is_disabled": 0, "is_reserved": 0}, {"rental_uris": {"ios": "https://dc.lft.to/lastmile_qr_scan", "android": "https://dc.lft.to/lastmile_qr_scan"}, "lon": -77.03662733333333, "type": "electric_bike", "fusion_lat": 0.0, "lat": 38.936332166666666, "name": "c994a3806c698aece339cd3952b3f527", "fusion_lon": 0.0, "bike_id": "c994a3806c698aece339cd3952b3f527", "is_disabled": 0, "is_reserved": 0}, {"rental_uris": {"ios": "https://dc.lft.to/lastmile_qr_scan", "android": "https://dc.lft.to/lastmile_qr_scan"}, "lon": -77.0379525, "type": "electric_scooter", "fusion_lat": 0.0, "lat": 38.9055895, "name": "ff2f3cfa792d76e4d41dd169eb027ce2", "fusion_lon": 0.0, "bike_id": "ff2f3cfa792d76e4d41dd169eb027ce2", "is_disabled": 0, "is_reserved": 0}, {"rental_uris": {"ios": "https://dc.lft.to/lastmile_qr_scan", "android": "https://dc.lft.to/lastmile_qr_scan"}, "lon": -77.03804783333334, "type": "electric_scooter", "fusion_lat": 0.0, "lat": 38.93589133333333, "name": "49aa391eb905285fdbbc87e9e6fff04f", "fusion_lon": 0.0, "bike_id": "49aa391eb905285fdbbc87e9e6fff04f", "is_disabled": 0, "is_reserved": 0}, {"rental_uris": {"ios": "https://dc.lft.to/lastmile_qr_scan", "android": "https://dc.lft.to/lastmile_qr_scan"}, "lon": -77.128987, "type": "electric_bike", "fusion_lat": 0.0, "lat": 38.86375483333333, "name": "bf63daf297daf77718c0a0eb3b0747bd", "fusion_lon": 0.0, "bike_id": "bf63daf297daf77718c0a0eb3b0747bd", "is_disabled": 0, "is_reserved": 0}, {"rental_uris": {"ios": "https://dc.lft.to/lastmile_qr_scan", "android": "https://dc.lft.to/lastmile_qr_scan"}, "lon": -77.03266333333333, "type": "electric_scooter", "fusion_lat": 0.0, "lat": 38.932347166666666, "name": "9c416c60c067b948a086fe9cad59ff5f", "fusion_lon": 0.0, "bike_id": "9c416c60c067b948a086fe9cad59ff5f", "is_disabled": 0, "is_reserved": 0}, {"rental_uris": {"ios": "https://dc.lft.to/lastmile_qr_scan", "android": "https://dc.lft.to/lastmile_qr_scan"}, "lon": -77.042589, "type": "electric_scooter", "fusion_lat": 0.0, "lat": 38.9055885, "name": "f4d106c3205d8ec475bc578c9e7cc94d", "fusion_lon": 0.0, "bike_id": "f4d106c3205d8ec475bc578c9e7cc94d", "is_disabled": 0, "is_reserved": 0}, {"rental_uris": {"ios": "https://dc.lft.to/lastmile_qr_scan", "android": "https://dc.lft.to/lastmile_qr_scan"}, "lon": -76.93625466666667, "type": "electric_scooter", "fusion_lat": 0.0, "lat": 38.889825, "name": "b46854d7497be359274ae76fc150195c", "fusion_lon": 0.0, "bike_id": "b46854d7497be359274ae76fc150195c", "is_disabled": 0, "is_reserved": 0}, {"rental_uris": {"ios": "https://dc.lft.to/lastmile_qr_scan", "android": "https://dc.lft.to/lastmile_qr_scan"}, "lon": -77.01419766666666, "type": "electric_scooter", "fusion_lat": 0.0, "lat": 38.91709383333333, "name": "b9e5f4a8d7648725981b2b22f0c7314b", "fusion_lon": 0.0, "bike_id": "b9e5f4a8d7648725981b2b22f0c7314b", "is_disabled": 0, "is_reserved": 0}, {"rental_uris": {"ios": "https://dc.lft.to/lastmile_qr_scan", "android": "https://dc.lft.to/lastmile_qr_scan"}, "lon": -77.02795083333334, "type": "electric_scooter", "fusion_lat": 0.0, "lat": 38.92970783333333, "name": "2374677eb9e0bdbc592406154886e178", "fusion_lon": 0.0, "bike_id": "2374677eb9e0bdbc592406154886e178", "is_disabled": 0, "is_reserved": 0}, {"rental_uris": {"ios": "https://dc.lft.to/lastmile_qr_scan", "android": "https://dc.lft.to/lastmile_qr_scan"}, "lon": -76.93370166666666, "type": "electric_scooter", "fusion_lat": 0.0, "lat": 38.89917833333333, "name": "44ec110181691f67df09321989148539", "fusion_lon": 0.0, "bike_id": "44ec110181691f67df09321989148539", "is_disabled": 0, "is_reserved": 0}, {"rental_uris": {"ios": "https://dc.lft.to/lastmile_qr_scan", "android": "https://dc.lft.to/lastmile_qr_scan"}, "lon": -76.93961683333333, "type": "electric_scooter", "fusion_lat": 0.0, "lat": 38.89965733333333, "name": "56b25b46e0ade7765ac2f88420cf685b", "fusion_lon": 0.0, "bike_id": "56b25b46e0ade7765ac2f88420cf685b", "is_disabled": 0, "is_reserved": 0}, {"rental_uris": {"ios": "https://dc.lft.to/lastmile_qr_scan", "android": "https://dc.lft.to/lastmile_qr_scan"}, "lon": -76.99460033333334, "type": "electric_scooter", "fusion_lat": 0.0, "lat": 38.8516205, "name": "ffb767b9b332b8ee2c4c97323e6c996e", "fusion_lon": 0.0, "bike_id": "ffb767b9b332b8ee2c4c97323e6c996e", "is_disabled": 0, "is_reserved": 0}, {"rental_uris": {"ios": "https://dc.lft.to/lastmile_qr_scan", "android": "https://dc.lft.to/lastmile_qr_scan"}, "lon": -76.9860925, "type": "electric_scooter", "fusion_lat": 0.0, "lat": 38.878304666666665, "name": "d8fe64abf382e14e97607e7a4358a7e8", "fusion_lon": 0.0, "bike_id": "d8fe64abf382e14e97607e7a4358a7e8", "is_disabled": 0, "is_reserved": 0}, {"rental_uris": {"ios": "https://dc.lft.to/lastmile_qr_scan", "android": "https://dc.lft.to/lastmile_qr_scan"}, "lon": -77.0481405, "type": "electric_scooter", "fusion_lat": 0.0, "lat": 38.910944666666666, "name": "a6542fd19df575dbd52716428c6f7612", "fusion_lon": 0.0, "bike_id": "a6542fd19df575dbd52716428c6f7612", "is_disabled": 0, "is_reserved": 0}, {"rental_uris": {"ios": "https://dc.lft.to/lastmile_qr_scan", "android": "https://dc.lft.to/lastmile_qr_scan"}, "lon": -77.05545883333333, "type": "electric_scooter", "fusion_lat": 0.0, "lat": 38.925282, "name": "8c005165021b8da44737ba15237d716d", "fusion_lon": 0.0, "bike_id": "8c005165021b8da44737ba15237d716d", "is_disabled": 0, "is_reserved": 0}, {"rental_uris": {"ios": "https://dc.lft.to/lastmile_qr_scan", "android": "https://dc.lft.to/lastmile_qr_scan"}, "lon": -76.95754133333334, "type": "electric_scooter", "fusion_lat": 0.0, "lat": 38.884289833333334, "name": "5829e2c009f4d478501bcf7841395c99", "fusion_lon": 0.0, "bike_id": "5829e2c009f4d478501bcf7841395c99", "is_disabled": 0, "is_reserved": 0}, {"rental_uris": {"ios": "https://dc.lft.to/lastmile_qr_scan", "android": "https://dc.lft.to/lastmile_qr_scan"}, "lon": -77.035265, "type": "electric_scooter", "fusion_lat": 0.0, "lat": 38.923750166666665, "name": "614f61971b84f5364b78c7a528d7edb2", "fusion_lon": 0.0, "bike_id": "614f61971b84f5364b78c7a528d7edb2", "is_disabled": 0, "is_reserved": 0}, {"rental_uris": {"ios": "https://dc.lft.to/lastmile_qr_scan", "android": "https://dc.lft.to/lastmile_qr_scan"}, "lon": -77.03928866666666, "type": "electric_scooter", "fusion_lat": 0.0, "lat": 38.9211255, "name": "550d835162f41c219288934c86dbfcdb", "fusion_lon": 0.0, "bike_id": "550d835162f41c219288934c86dbfcdb", "is_disabled": 0, "is_reserved": 0}, {"rental_uris": {"ios": "https://dc.lft.to/lastmile_qr_scan", "android": "https://dc.lft.to/lastmile_qr_scan"}, "lon": -77.035662, "type": "electric_scooter", "fusion_lat": 0.0, "lat": 38.9398255, "name": "4d515197191413dba03812339c8bea4c", "fusion_lon": 0.0, "bike_id": "4d515197191413dba03812339c8bea4c", "is_disabled": 0, "is_reserved": 0}, {"rental_uris": {"ios": "https://dc.lft.to/lastmile_qr_scan", "android": "https://dc.lft.to/lastmile_qr_scan"}, "lon": -77.02619166666666, "type": "electric_scooter", "fusion_lat": 0.0, "lat": 38.91526, "name": "3973528f879738cc34452c7a6e7c68cf", "fusion_lon": 0.0, "bike_id": "3973528f879738cc34452c7a6e7c68cf", "is_disabled": 0, "is_reserved": 0}, {"rental_uris": {"ios": "https://dc.lft.to/lastmile_qr_scan", "android": "https://dc.lft.to/lastmile_qr_scan"}, "lon": -76.93876966666667, "type": "electric_scooter", "fusion_lat": 0.0, "lat": 38.900733, "name": "42ed1a62a4403d3246d755cfcc20f45f", "fusion_lon": 0.0, "bike_id": "42ed1a62a4403d3246d755cfcc20f45f", "is_disabled": 0, "is_reserved": 0}, {"rental_uris": {"ios": "https://dc.lft.to/lastmile_qr_scan", "android": "https://dc.lft.to/lastmile_qr_scan"}, "lon": -77.03825266666666, "type": "electric_scooter", "fusion_lat": 0.0, "lat": 38.907661, "name": "3bb200c5ab6288cf03e38c6dfef0ef44", "fusion_lon": 0.0, "bike_id": "3bb200c5ab6288cf03e38c6dfef0ef44", "is_disabled": 0, "is_reserved": 0}, {"rental_uris": {"ios": "https://dc.lft.to/lastmile_qr_scan", "android": "https://dc.lft.to/lastmile_qr_scan"}, "lon": -76.9874655, "type": "electric_scooter", "fusion_lat": 0.0, "lat": 38.91017766666667, "name": "5f03a0f664b8acec9f4e0dcc1aee21ed", "fusion_lon": 0.0, "bike_id": "5f03a0f664b8acec9f4e0dcc1aee21ed", "is_disabled": 0, "is_reserved": 0}, {"rental_uris": {"ios": "https://dc.lft.to/lastmile_qr_scan", "android": "https://dc.lft.to/lastmile_qr_scan"}, "lon": -76.98129966666667, "type": "electric_scooter", "fusion_lat": 0.0, "lat": 38.85708116666667, "name": "f6dd5646247fdd86afc56958ce3b451b", "fusion_lon": 0.0, "bike_id": "f6dd5646247fdd86afc56958ce3b451b", "is_disabled": 0, "is_reserved": 0}, {"rental_uris": {"ios": "https://dc.lft.to/lastmile_qr_scan", "android": "https://dc.lft.to/lastmile_qr_scan"}, "lon": -77.055714, "type": "electric_scooter", "fusion_lat": 0.0, "lat": 38.89994083333333, "name": "43955f9c05e93a412a89cf538767cba5", "fusion_lon": 0.0, "bike_id": "43955f9c05e93a412a89cf538767cba5", "is_disabled": 0, "is_reserved": 0}, {"rental_uris": {"ios": "https://dc.lft.to/lastmile_qr_scan", "android": "https://dc.lft.to/lastmile_qr_scan"}, "lon": -77.08054983333334, "type": "electric_bike", "fusion_lat": 0.0, "lat": 38.84848983333333, "name": "f156306e09843bf45d591377c4c0f5a1", "fusion_lon": 0.0, "bike_id": "f156306e09843bf45d591377c4c0f5a1", "is_disabled": 0, "is_reserved": 0}, {"rental_uris": {"ios": "https://dc.lft.to/lastmile_qr_scan", "android": "https://dc.lft.to/lastmile_qr_scan"}, "lon": -76.9865465, "type": "electric_scooter", "fusion_lat": 0.0, "lat": 38.8580385, "name": "5f0b32d350c22d66cd951cea05297946", "fusion_lon": 0.0, "bike_id": "5f0b32d350c22d66cd951cea05297946", "is_disabled": 0, "is_reserved": 0}, {"rental_uris": {"ios": "https://dc.lft.to/lastmile_qr_scan", "android": "https://dc.lft.to/lastmile_qr_scan"}, "lon": -77.04483383333333, "type": "electric_scooter", "fusion_lat": 0.0, "lat": 38.89999233333333, "name": "7592b506eca5dc2d4e1156d5fe52b225", "fusion_lon": 0.0, "bike_id": "7592b506eca5dc2d4e1156d5fe52b225", "is_disabled": 0, "is_reserved": 0}, {"rental_uris": {"ios": "https://dc.lft.to/lastmile_qr_scan", "android": "https://dc.lft.to/lastmile_qr_scan"}, "lon": -77.04663, "type": "electric_scooter", "fusion_lat": 0.0, "lat": 38.907508166666666, "name": "d06a968198135ca9a1c8339d71a58383", "fusion_lon": 0.0, "bike_id": "d06a968198135ca9a1c8339d71a58383", "is_disabled": 0, "is_reserved": 0}, {"rental_uris": {"ios": "https://dc.lft.to/lastmile_qr_scan", "android": "https://dc.lft.to/lastmile_qr_scan"}, "lon": -77.03997683333333, "type": "electric_scooter", "fusion_lat": 0.0, "lat": 38.9083395, "name": "9ffc7cecc6ecf6692b0517d0ec8b1ebc", "fusion_lon": 0.0, "bike_id": "9ffc7cecc6ecf6692b0517d0ec8b1ebc", "is_disabled": 0, "is_reserved": 0}, {"rental_uris": {"ios": "https://dc.lft.to/lastmile_qr_scan", "android": "https://dc.lft.to/lastmile_qr_scan"}, "lon": -77.006615, "type": "electric_scooter", "fusion_lat": 0.0, "lat": 38.911992166666664, "name": "e37d28c670d6beaea511bfcb3e0927ca", "fusion_lon": 0.0, "bike_id": "e37d28c670d6beaea511bfcb3e0927ca", "is_disabled": 0, "is_reserved": 0}, {"rental_uris": {"ios": "https://dc.lft.to/lastmile_qr_scan", "android": "https://dc.lft.to/lastmile_qr_scan"}, "lon": -76.99675733333333, "type": "electric_scooter", "fusion_lat": 0.0, "lat": 38.91009233333333, "name": "688f6dede145676166d5ae03d97aaf28", "fusion_lon": 0.0, "bike_id": "688f6dede145676166d5ae03d97aaf28", "is_disabled": 0, "is_reserved": 0}, {"rental_uris": {"ios": "https://dc.lft.to/lastmile_qr_scan", "android": "https://dc.lft.to/lastmile_qr_scan"}, "lon": -77.061033, "type": "electric_scooter", "fusion_lat": 0.0, "lat": 38.937057833333334, "name": "d03b56dcef39852ffa264d87881cebc2", "fusion_lon": 0.0, "bike_id": "d03b56dcef39852ffa264d87881cebc2", "is_disabled": 0, "is_reserved": 0}, {"rental_uris": {"ios": "https://dc.lft.to/lastmile_qr_scan", "android": "https://dc.lft.to/lastmile_qr_scan"}, "lon": -77.02367216666667, "type": "electric_scooter", "fusion_lat": 0.0, "lat": 38.903047, "name": "e6437f72c132c0aa50b17c48aa9f4bf3", "fusion_lon": 0.0, "bike_id": "e6437f72c132c0aa50b17c48aa9f4bf3", "is_disabled": 0, "is_reserved": 0}, {"rental_uris": {"ios": "https://dc.lft.to/lastmile_qr_scan", "android": "https://dc.lft.to/lastmile_qr_scan"}, "lon": -76.99147833333333, "type": "electric_scooter", "fusion_lat": 0.0, "lat": 38.90040666666667, "name": "f824debbb1958056188e1e654bea5739", "fusion_lon": 0.0, "bike_id": "f824debbb1958056188e1e654bea5739", "is_disabled": 0, "is_reserved": 0}, {"rental_uris": {"ios": "https://dc.lft.to/lastmile_qr_scan", "android": "https://dc.lft.to/lastmile_qr_scan"}, "lon": -76.995624, "type": "electric_scooter", "fusion_lat": 0.0, "lat": 38.928703666666664, "name": "99d3043bd53f79757554e3eb7e0f61f4", "fusion_lon": 0.0, "bike_id": "99d3043bd53f79757554e3eb7e0f61f4", "is_disabled": 0, "is_reserved": 0}, {"rental_uris": {"ios": "https://dc.lft.to/lastmile_qr_scan", "android": "https://dc.lft.to/lastmile_qr_scan"}, "lon": -76.93875766666666, "type": "electric_scooter", "fusion_lat": 0.0, "lat": 38.90080783333333, "name": "d67df23b6a2da72555c177c97a63e91a", "fusion_lon": 0.0, "bike_id": "d67df23b6a2da72555c177c97a63e91a", "is_disabled": 0, "is_reserved": 0}, {"rental_uris": {"ios": "https://dc.lft.to/lastmile_qr_scan", "android": "https://dc.lft.to/lastmile_qr_scan"}, "lon": -77.05511433333334, "type": "electric_scooter", "fusion_lat": 0.0, "lat": 38.92969216666667, "name": "d5c3664266fcff7eb34b68174cee69d7", "fusion_lon": 0.0, "bike_id": "d5c3664266fcff7eb34b68174cee69d7", "is_disabled": 0, "is_reserved": 0}, {"rental_uris": {"ios": "https://dc.lft.to/lastmile_qr_scan", "android": "https://dc.lft.to/lastmile_qr_scan"}, "lon": -77.02782433333333, "type": "electric_scooter", "fusion_lat": 0.0, "lat": 38.96132633333333, "name": "780d34f441c42812ecc12b074527b6f2", "fusion_lon": 0.0, "bike_id": "780d34f441c42812ecc12b074527b6f2", "is_disabled": 0, "is_reserved": 0}, {"rental_uris": {"ios": "https://dc.lft.to/lastmile_qr_scan", "android": "https://dc.lft.to/lastmile_qr_scan"}, "lon": -77.03212733333334, "type": "electric_scooter", "fusion_lat": 0.0, "lat": 38.9206715, "name": "1f95eef3d2a3aae8f13fa23f64da189b", "fusion_lon": 0.0, "bike_id": "1f95eef3d2a3aae8f13fa23f64da189b", "is_disabled": 0, "is_reserved": 0}, {"rental_uris": {"ios": "https://dc.lft.to/lastmile_qr_scan", "android": "https://dc.lft.to/lastmile_qr_scan"}, "lon": -77.03637283333333, "type": "electric_scooter", "fusion_lat": 0.0, "lat": 38.90325983333334, "name": "4eb684ab6d3650e1accb977d4dc0e67d", "fusion_lon": 0.0, "bike_id": "4eb684ab6d3650e1accb977d4dc0e67d", "is_disabled": 0, "is_reserved": 0}, {"rental_uris": {"ios": "https://dc.lft.to/lastmile_qr_scan", "android": "https://dc.lft.to/lastmile_qr_scan"}, "lon": -77.0395075, "type": "electric_scooter", "fusion_lat": 0.0, "lat": 38.92606033333333, "name": "62ca182f590165c4c6700e1b4a7211e3", "fusion_lon": 0.0, "bike_id": "62ca182f590165c4c6700e1b4a7211e3", "is_disabled": 0, "is_reserved": 0}, {"rental_uris": {"ios": "https://dc.lft.to/lastmile_qr_scan", "android": "https://dc.lft.to/lastmile_qr_scan"}, "lon": -77.041843, "type": "electric_scooter", "fusion_lat": 0.0, "lat": 38.922198, "name": "6ee01aa05c102904b6bf5d6bfcd64830", "fusion_lon": 0.0, "bike_id": "6ee01aa05c102904b6bf5d6bfcd64830", "is_disabled": 0, "is_reserved": 0}, {"rental_uris": {"ios": "https://dc.lft.to/lastmile_qr_scan", "android": "https://dc.lft.to/lastmile_qr_scan"}, "lon": -77.05315933333333, "type": "electric_scooter", "fusion_lat": 0.0, "lat": 38.901857666666665, "name": "6d304c3c72fd9e1dc74473e6da3599a5", "fusion_lon": 0.0, "bike_id": "6d304c3c72fd9e1dc74473e6da3599a5", "is_disabled": 0, "is_reserved": 0}, {"rental_uris": {"ios": "https://dc.lft.to/lastmile_qr_scan", "android": "https://dc.lft.to/lastmile_qr_scan"}, "lon": -76.991506, "type": "electric_scooter", "fusion_lat": 0.0, "lat": 38.900408666666664, "name": "70957976aa461eb39ab8bd7c3dd5e5ab", "fusion_lon": 0.0, "bike_id": "70957976aa461eb39ab8bd7c3dd5e5ab", "is_disabled": 0, "is_reserved": 0}, {"rental_uris": {"ios": "https://dc.lft.to/lastmile_qr_scan", "android": "https://dc.lft.to/lastmile_qr_scan"},