{"data": {"bikes": [{"fusion_lat": 0.0, "name": "cb9576efd37fccc7861569951f0ed7b2", "is_disabled": 0, "rental_uris": {"android": "https://dc.lft.to/lastmile_qr_scan", "ios": "https://dc.lft.to/lastmile_qr_scan"}, "fusion_lon": 0.0, "lat": 38.89683316666667, "bike_id": "cb9576efd37fccc7861569951f0ed7b2", "type": "electric_scooter", "is_reserved": 0, "lon": -76.93713466666667}, {"fusion_lat": 0.0, "name": "e07e66f9b4fca85a9f63199fd39e0242", "is_disabled": 0, "rental_uris": {"android": "https://dc.lft.to/lastmile_qr_scan", "ios": "https://dc.lft.to/lastmile_qr_scan"}, "fusion_lon": 0.0, "lat": 38.904439333333336, "bike_id": "e07e66f9b4fca85a9f63199fd39e0242", "type": "electric_scooter", "is_reserved": 0, "lon": -77.043396}, {"fusion_lat": 0.0, "name": "7bd292616897ea2409ff2516b3d31859", "is_disabled": 0, "rental_uris": {"android": "https://dc.lft.to/lastmile_qr_scan", "ios": "https://dc.lft.to/lastmile_qr_scan"}, "fusion_lon": 0.0, "lat": 38.927099166666665, "bike_id": "7bd292616897ea2409ff2516b3d31859", "type": "electric_scooter", "is_reserved": 0, "lon": -77.03772716666667}, {"fusion_lat": 0.0, "name": "c2f6b1d7c4676547f5980c2892dfafc9", "is_disabled": 0, "rental_uris": {"android": "https://dc.lft.to/lastmile_qr_scan", "ios": "https://dc.lft.to/lastmile_qr_scan"}, "fusion_lon": 0.0, "lat": 38.906169166666665, "bike_id": "c2f6b1d7c4676547f5980c2892dfafc9", "type": "electric_scooter", "is_reserved": 0, "lon": -77.0240965}, {"fusion_lat": 0.0, "name": "f4538fb7e0ed782091c0ed384043a201", "is_disabled": 0, "rental_uris": {"android": "https://dc.lft.to/lastmile_qr_scan", "ios": "https://dc.lft.to/lastmile_qr_scan"}, "fusion_lon": 0.0, "lat": 38.906046, "bike_id": "f4538fb7e0ed782091c0ed384043a201", "type": "electric_scooter", "is_reserved": 0, "lon": -77.0088625}, {"fusion_lat": 0.0, "name": "cc792f21f3141fb5b7e3cd655f8f2b04", "is_disabled": 0, "rental_uris": {"android": "https://dc.lft.to/lastmile_qr_scan", "ios": "https://dc.lft.to/lastmile_qr_scan"}, "fusion_lon": 0.0, "lat": 38.884549666666665, "bike_id": "cc792f21f3141fb5b7e3cd655f8f2b04", "type": "electric_scooter", "is_reserved": 0, "lon": -76.99841266666667}, {"fusion_lat": 0.0, "name": "c4dd30367e94951d56b0ce681b93b82c", "is_disabled": 0, "rental_uris": {"android": "https://dc.lft.to/lastmile_qr_scan", "ios": "https://dc.lft.to/lastmile_qr_scan"}, "fusion_lon": 0.0, "lat": 38.923452, "bike_id": "c4dd30367e94951d56b0ce681b93b82c", "type": "electric_scooter", "is_reserved": 0, "lon": -77.056241}, {"fusion_lat": 0.0, "name": "9b185c095433241995e5e135eac31c0a", "is_disabled": 0, "rental_uris": {"android": "https://dc.lft.to/lastmile_qr_scan", "ios": "https://dc.lft.to/lastmile_qr_scan"}, "fusion_lon": 0.0, "lat": 38.900355833333336, "bike_id": "9b185c095433241995e5e135eac31c0a", "type": "electric_scooter", "is_reserved": 0, "lon": -77.01197166666667}, {"fusion_lat": 0.0, "name": "bdb96df6d1c461ac59c0a1baee1f07f5", "is_disabled": 0, "rental_uris": {"android": "https://dc.lft.to/lastmile_qr_scan", "ios": "https://dc.lft.to/lastmile_qr_scan"}, "fusion_lon": 0.0, "lat": 38.939320333333335, "bike_id": "bdb96df6d1c461ac59c0a1baee1f07f5", "type": "electric_scooter", "is_reserved": 0, "lon": -77.07477516666667}, {"fusion_lat": 0.0, "name": "6775b29504db82bc546be5d88c7641ba", "is_disabled": 0, "rental_uris": {"android": "https://dc.lft.to/lastmile_qr_scan", "ios": "https://dc.lft.to/lastmile_qr_scan"}, "fusion_lon": 0.0, "lat": 38.9039665, "bike_id": "6775b29504db82bc546be5d88c7641ba", "type": "electric_scooter", "is_reserved": 0, "lon": -77.05016583333334}, {"fusion_lat": 0.0, "name": "774cf167b3ab8267becff5e5eab8118e", "is_disabled": 0, "rental_uris": {"android": "https://dc.lft.to/lastmile_qr_scan", "ios": "https://dc.lft.to/lastmile_qr_scan"}, "fusion_lon": 0.0, "lat": 38.80297366666667, "bike_id": "774cf167b3ab8267becff5e5eab8118e", "type": "electric_bike", "is_reserved": 0, "lon": -77.05939433333333}, {"fusion_lat": 0.0, "name": "b040910e9b030feaa0cbc65ecfee3580", "is_disabled": 0, "rental_uris": {"android": "https://dc.lft.to/lastmile_qr_scan", "ios": "https://dc.lft.to/lastmile_qr_scan"}, "fusion_lon": 0.0, "lat": 38.96127666666667, "bike_id": "b040910e9b030feaa0cbc65ecfee3580", "type": "electric_bike", "is_reserved": 0, "lon": -77.03279816666667}, {"fusion_lat": 0.0, "name": "4c0acb38c1ee0434049fab0f44c91a48", "is_disabled": 0, "rental_uris": {"android": "https://dc.lft.to/lastmile_qr_scan", "ios": "https://dc.lft.to/lastmile_qr_scan"}, "fusion_lon": 0.0, "lat": 38.927420166666664, "bike_id": "4c0acb38c1ee0434049fab0f44c91a48", "type": "electric_scooter", "is_reserved": 0, "lon": -77.042135}, {"fusion_lat": 0.0, "name": "b359ee0488b5c3c17310935bd745e565", "is_disabled": 0, "rental_uris": {"android": "https://dc.lft.to/lastmile_qr_scan", "ios": "https://dc.lft.to/lastmile_qr_scan"}, "fusion_lon": 0.0, "lat": 38.89613083333333, "bike_id": "b359ee0488b5c3c17310935bd745e565", "type": "electric_scooter", "is_reserved": 0, "lon": -76.948138}, {"fusion_lat": 0.0, "name": "d02dc04244d515774953261a47e0a9a4", "is_disabled": 0, "rental_uris": {"android": "https://dc.lft.to/lastmile_qr_scan", "ios": "https://dc.lft.to/lastmile_qr_scan"}, "fusion_lon": 0.0, "lat": 38.907007166666666, "bike_id": "d02dc04244d515774953261a47e0a9a4", "type": "electric_scooter", "is_reserved": 0, "lon": -77.06522766666667}, {"fusion_lat": 0.0, "name": "6b425d5a45d9777dec846d79ffcf68aa", "is_disabled": 0, "rental_uris": {"android": "https://dc.lft.to/lastmile_qr_scan", "ios": "https://dc.lft.to/lastmile_qr_scan"}, "fusion_lon": 0.0, "lat": 38.9182585, "bike_id": "6b425d5a45d9777dec846d79ffcf68aa", "type": "electric_scooter", "is_reserved": 0, "lon": -77.02612516666667}, {"fusion_lat": 0.0, "name": "370806376ed2e2fb182292d5002c8b8d", "is_disabled": 0, "rental_uris": {"android": "https://dc.lft.to/lastmile_qr_scan", "ios": "https://dc.lft.to/lastmile_qr_scan"}, "fusion_lon": 0.0, "lat": 38.91733133333334, "bike_id": "370806376ed2e2fb182292d5002c8b8d", "type": "electric_scooter", "is_reserved": 0, "lon": -77.036581}, {"fusion_lat": 0.0, "name": "65afd45071b94763b7e1b31589d930a7", "is_disabled": 0, "rental_uris": {"android": "https://dc.lft.to/lastmile_qr_scan", "ios": "https://dc.lft.to/lastmile_qr_scan"}, "fusion_lon": 0.0, "lat": 38.92388833333333, "bike_id": "65afd45071b94763b7e1b31589d930a7", "type": "electric_scooter", "is_reserved": 0, "lon": -77.04024583333333}, {"fusion_lat": 0.0, "name": "d283b832f1150e98049f8a5f3d45f71b", "is_disabled": 0, "rental_uris": {"android": "https://dc.lft.to/lastmile_qr_scan", "ios": "https://dc.lft.to/lastmile_qr_scan"}, "fusion_lon": 0.0, "lat": 38.90958783333333, "bike_id": "d283b832f1150e98049f8a5f3d45f71b", "type": "electric_scooter", "is_reserved": 0, "lon": -77.04862333333334}, {"fusion_lat": 0.0, "name": "a0d66bd2c3a7c18f4a1b1c6da7525827", "is_disabled": 0, "rental_uris": {"android": "https://dc.lft.to/lastmile_qr_scan", "ios": "https://dc.lft.to/lastmile_qr_scan"}, "fusion_lon": 0.0, "lat": 38.8044915, "bike_id": "a0d66bd2c3a7c18f4a1b1c6da7525827", "type": "electric_bike", "is_reserved": 0, "lon": -77.1322685}, {"fusion_lat": 0.0, "name": "7cc07c2da76b9fc75a0053fdfb3d3094", "is_disabled": 0, "rental_uris": {"android": "https://dc.lft.to/lastmile_qr_scan", "ios": "https://dc.lft.to/lastmile_qr_scan"}, "fusion_lon": 0.0, "lat": 38.90854433333333, "bike_id": "7cc07c2da76b9fc75a0053fdfb3d3094", "type": "electric_scooter", "is_reserved": 0, "lon": -77.047382}, {"fusion_lat": 0.0, "name": "4346adc8a5223600114f78daf0b2d70c", "is_disabled": 0, "rental_uris": {"android": "https://dc.lft.to/lastmile_qr_scan", "ios": "https://dc.lft.to/lastmile_qr_scan"}, "fusion_lon": 0.0, "lat": 38.91728333333333, "bike_id": "4346adc8a5223600114f78daf0b2d70c", "type": "electric_scooter", "is_reserved": 0, "lon": -77.02808616666667}, {"fusion_lat": 0.0, "name": "ba66f10aebca0f211e9b3bab71b344a2", "is_disabled": 0, "rental_uris": {"android": "https://dc.lft.to/lastmile_qr_scan", "ios": "https://dc.lft.to/lastmile_qr_scan"}, "fusion_lon": 0.0, "lat": 39.01417633333333, "bike_id": "ba66f10aebca0f211e9b3bab71b344a2", "type": "electric_bike", "is_reserved": 0, "lon": -77.044989}, {"fusion_lat": 0.0, "name": "f057720afac34b2025b6a1815e9559ae", "is_disabled": 0, "rental_uris": {"android": "https://dc.lft.to/lastmile_qr_scan", "ios": "https://dc.lft.to/lastmile_qr_scan"}, "fusion_lon": 0.0, "lat": 38.8956215, "bike_id": "f057720afac34b2025b6a1815e9559ae", "type": "electric_scooter", "is_reserved": 0, "lon": -76.994259}, {"fusion_lat": 0.0, "name": "fc1ae8bab02f068753a30ecc46b1406e", "is_disabled": 0, "rental_uris": {"android": "https://dc.lft.to/lastmile_qr_scan", "ios": "https://dc.lft.to/lastmile_qr_scan"}, "fusion_lon": 0.0, "lat": 38.921589166666664, "bike_id": "fc1ae8bab02f068753a30ecc46b1406e", "type": "electric_scooter", "is_reserved": 0, "lon": -77.02094483333333}, {"fusion_lat": 0.0, "name": "968d003866661ce278891cff8e71c41c", "is_disabled": 0, "rental_uris": {"android": "https://dc.lft.to/lastmile_qr_scan", "ios": "https://dc.lft.to/lastmile_qr_scan"}, "fusion_lon": 0.0, "lat": 38.90065516666667, "bike_id": "968d003866661ce278891cff8e71c41c", "type": "electric_scooter", "is_reserved": 0, "lon": -76.9868565}, {"fusion_lat": 0.0, "name": "229ee875434631bad6dd6a6b95bdb961", "is_disabled": 0, "rental_uris": {"android": "https://dc.lft.to/lastmile_qr_scan", "ios": "https://dc.lft.to/lastmile_qr_scan"}, "fusion_lon": 0.0, "lat": 38.8850425, "bike_id": "229ee875434631bad6dd6a6b95bdb961", "type": "electric_scooter", "is_reserved": 0, "lon": -76.99754966666667}, {"fusion_lat": 0.0, "name": "498927ae8fc9e426a0ddbc74cb3bafe0", "is_disabled": 0, "rental_uris": {"android": "https://dc.lft.to/lastmile_qr_scan", "ios": "https://dc.lft.to/lastmile_qr_scan"}, "fusion_lon": 0.0, "lat": 38.926838333333336, "bike_id": "498927ae8fc9e426a0ddbc74cb3bafe0", "type": "electric_scooter", "is_reserved": 0, "lon": -77.0278645}, {"fusion_lat": 0.0, "name": "03d599b6172495c25ff84bab5259fc5d", "is_disabled": 0, "rental_uris": {"android": "https://dc.lft.to/lastmile_qr_scan", "ios": "https://dc.lft.to/lastmile_qr_scan"}, "fusion_lon": 0.0, "lat": 38.839364833333335, "bike_id": "03d599b6172495c25ff84bab5259fc5d", "type": "electric_bike", "is_reserved": 0, "lon": -77.07895283333333}, {"fusion_lat": 0.0, "name": "a94d98d4f63c6898df790047b744a0e7", "is_disabled": 0, "rental_uris": {"android": "https://dc.lft.to/lastmile_qr_scan", "ios": "https://dc.lft.to/lastmile_qr_scan"}, "fusion_lon": 0.0, "lat": 38.9036165, "bike_id": "a94d98d4f63c6898df790047b744a0e7", "type": "electric_scooter", "is_reserved": 0, "lon": -76.97241316666667}, {"fusion_lat": 0.0, "name": "d601d05e7dbf8cc6776a6c3b721077db", "is_disabled": 0, "rental_uris": {"android": "https://dc.lft.to/lastmile_qr_scan", "ios": "https://dc.lft.to/lastmile_qr_scan"}, "fusion_lon": 0.0, "lat": 38.9097405, "bike_id": "d601d05e7dbf8cc6776a6c3b721077db", "type": "electric_scooter", "is_reserved": 0, "lon": -77.008942}, {"fusion_lat": 0.0, "name": "821147c8bd6816f3e58b18053477b9cf", "is_disabled": 0, "rental_uris": {"android": "https://dc.lft.to/lastmile_qr_scan", "ios": "https://dc.lft.to/lastmile_qr_scan"}, "fusion_lon": 0.0, "lat": 38.939670666666665, "bike_id": "821147c8bd6816f3e58b18053477b9cf", "type": "electric_bike", "is_reserved": 0, "lon": -76.99382316666667}, {"fusion_lat": 0.0, "name": "294204015cf6ee7689535f65e9c66b76", "is_disabled": 0, "rental_uris": {"android": "https://dc.lft.to/lastmile_qr_scan", "ios": "https://dc.lft.to/lastmile_qr_scan"}, "fusion_lon": 0.0, "lat": 38.90104316666667, "bike_id": "294204015cf6ee7689535f65e9c66b76", "type": "electric_scooter", "is_reserved": 0, "lon": -77.051414}, {"fusion_lat": 0.0, "name": "5b6f75f638c8ae18ac87254807563c92", "is_disabled": 0, "rental_uris": {"android": "https://dc.lft.to/lastmile_qr_scan", "ios": "https://dc.lft.to/lastmile_qr_scan"}, "fusion_lon": 0.0, "lat": 38.905815833333335, "bike_id": "5b6f75f638c8ae18ac87254807563c92", "type": "electric_scooter", "is_reserved": 0, "lon": -77.00887516666667}, {"fusion_lat": 0.0, "name": "fdc259186a9bf1e8fd15e749a01fc632", "is_disabled": 0, "rental_uris": {"android": "https://dc.lft.to/lastmile_qr_scan", "ios": "https://dc.lft.to/lastmile_qr_scan"}, "fusion_lon": 0.0, "lat": 38.941350666666665, "bike_id": "fdc259186a9bf1e8fd15e749a01fc632", "type": "electric_scooter", "is_reserved": 0, "lon": -77.006107}, {"fusion_lat": 0.0, "name": "410bb76c6a0fb061ff61753e35ee484d", "is_disabled": 0, "rental_uris": {"android": "https://dc.lft.to/lastmile_qr_scan", "ios": "https://dc.lft.to/lastmile_qr_scan"}, "fusion_lon": 0.0, "lat": 38.933687, "bike_id": "410bb76c6a0fb061ff61753e35ee484d", "type": "electric_scooter", "is_reserved": 0, "lon": -77.03881833333334}, {"fusion_lat": 0.0, "name": "0a41b2ee048573055706e1bf426dc211", "is_disabled": 0, "rental_uris": {"android": "https://dc.lft.to/lastmile_qr_scan", "ios": "https://dc.lft.to/lastmile_qr_scan"}, "fusion_lon": 0.0, "lat": 38.897393666666666, "bike_id": "0a41b2ee048573055706e1bf426dc211", "type": "electric_scooter", "is_reserved": 0, "lon": -77.03227333333334}, {"fusion_lat": 0.0, "name": "b3546d7104a556d5beccc973b1680a49", "is_disabled": 0, "rental_uris": {"android": "https://dc.lft.to/lastmile_qr_scan", "ios": "https://dc.lft.to/lastmile_qr_scan"}, "fusion_lon": 0.0, "lat": 38.937749833333335, "bike_id": "b3546d7104a556d5beccc973b1680a49", "type": "electric_scooter", "is_reserved": 0, "lon": -77.03261833333333}, {"fusion_lat": 0.0, "name": "8a6b2bc99d7186f20123461f5dec7b75", "is_disabled": 0, "rental_uris": {"android": "https://dc.lft.to/lastmile_qr_scan", "ios": "https://dc.lft.to/lastmile_qr_scan"}, "fusion_lon": 0.0, "lat": 38.884009, "bike_id": "8a6b2bc99d7186f20123461f5dec7b75", "type": "electric_scooter", "is_reserved": 0, "lon": -76.985831}, {"fusion_lat": 0.0, "name": "74428e0b3f6f20bafa10ee4df6e8114b", "is_disabled": 0, "rental_uris": {"android": "https://dc.lft.to/lastmile_qr_scan", "ios": "https://dc.lft.to/lastmile_qr_scan"}, "fusion_lon": 0.0, "lat": 38.900638666666666, "bike_id": "74428e0b3f6f20bafa10ee4df6e8114b", "type": "electric_scooter", "is_reserved": 0, "lon": -76.933816}, {"fusion_lat": 0.0, "name": "db8ee3ffa7daaf3c97510162ac927c2e", "is_disabled": 0, "rental_uris": {"android": "https://dc.lft.to/lastmile_qr_scan", "ios": "https://dc.lft.to/lastmile_qr_scan"}, "fusion_lon": 0.0, "lat": 38.9326335, "bike_id": "db8ee3ffa7daaf3c97510162ac927c2e", "type": "electric_scooter", "is_reserved": 0, "lon": -77.034472}, {"fusion_lat": 0.0, "name": "b7ed6d08a75321554fe68e6f5c2369d7", "is_disabled": 0, "rental_uris": {"android": "https://dc.lft.to/lastmile_qr_scan", "ios": "https://dc.lft.to/lastmile_qr_scan"}, "fusion_lon": 0.0, "lat": 38.87885516666667, "bike_id": "b7ed6d08a75321554fe68e6f5c2369d7", "type": "electric_bike", "is_reserved": 0, "lon": -77.00591466666667}, {"fusion_lat": 0.0, "name": "58df814c8c0771ab1527eda54b6c3bd5", "is_disabled": 0, "rental_uris": {"android": "https://dc.lft.to/lastmile_qr_scan", "ios": "https://dc.lft.to/lastmile_qr_scan"}, "fusion_lon": 0.0, "lat": 38.91112566666666, "bike_id": "58df814c8c0771ab1527eda54b6c3bd5", "type": "electric_scooter", "is_reserved": 0, "lon": -77.04497283333333}, {"fusion_lat": 0.0, "name": "7acfe534140b1f36771005f0412a159b", "is_disabled": 0, "rental_uris": {"android": "https://dc.lft.to/lastmile_qr_scan", "ios": "https://dc.lft.to/lastmile_qr_scan"}, "fusion_lon": 0.0, "lat": 38.948563666666665, "bike_id": "7acfe534140b1f36771005f0412a159b", "type": "electric_scooter", "is_reserved": 0, "lon": -77.02568583333333}, {"fusion_lat": 0.0, "name": "8bde26cbabea623c69cf5d2ea8bfed33", "is_disabled": 0, "rental_uris": {"android": "https://dc.lft.to/lastmile_qr_scan", "ios": "https://dc.lft.to/lastmile_qr_scan"}, "fusion_lon": 0.0, "lat": 38.915481166666666, "bike_id": "8bde26cbabea623c69cf5d2ea8bfed33", "type": "electric_scooter", "is_reserved": 0, "lon": -77.011295}, {"fusion_lat": 0.0, "name": "7c5a03b7ff86ad6388f4f9e3257064d7", "is_disabled": 0, "rental_uris": {"android": "https://dc.lft.to/lastmile_qr_scan", "ios": "https://dc.lft.to/lastmile_qr_scan"}, "fusion_lon": 0.0, "lat": 38.83518133333333, "bike_id": "7c5a03b7ff86ad6388f4f9e3257064d7", "type": "electric_bike", "is_reserved": 0, "lon": -76.98670233333333}, {"fusion_lat": 0.0, "name": "6b01f7e4a5882e8ade2a97a0f8b7b290", "is_disabled": 0, "rental_uris": {"android": "https://dc.lft.to/lastmile_qr_scan", "ios": "https://dc.lft.to/lastmile_qr_scan"}, "fusion_lon": 0.0, "lat": 38.900409333333336, "bike_id": "6b01f7e4a5882e8ade2a97a0f8b7b290", "type": "electric_scooter", "is_reserved": 0, "lon": -77.00183733333333}, {"fusion_lat": 0.0, "name": "828cbda99d5c14c1a6f6c8debecf2de8", "is_disabled": 0, "rental_uris": {"android": "https://dc.lft.to/lastmile_qr_scan", "ios": "https://dc.lft.to/lastmile_qr_scan"}, "fusion_lon": 0.0, "lat": 38.90368316666667, "bike_id": "828cbda99d5c14c1a6f6c8debecf2de8", "type": "electric_scooter", "is_reserved": 0, "lon": -77.05487116666667}, {"fusion_lat": 0.0, "name": "15fd0caca3527ff7ddc44c8b4e912b9c", "is_disabled": 0, "rental_uris": {"android": "https://dc.lft.to/lastmile_qr_scan", "ios": "https://dc.lft.to/lastmile_qr_scan"}, "fusion_lon": 0.0, "lat": 38.94011666666667, "bike_id": "15fd0caca3527ff7ddc44c8b4e912b9c", "type": "electric_scooter", "is_reserved": 0, "lon": -77.08416833333334}, {"fusion_lat": 0.0, "name": "76b24d9919a1553dacc78fefe0725a7c", "is_disabled": 0, "rental_uris": {"android": "https://dc.lft.to/lastmile_qr_scan", "ios": "https://dc.lft.to/lastmile_qr_scan"}, "fusion_lon": 0.0, "lat": 38.886780333333334, "bike_id": "76b24d9919a1553dacc78fefe0725a7c", "type": "electric_scooter", "is_reserved": 0, "lon": -77.01379616666667}, {"fusion_lat": 0.0, "name": "2966ea905c6cd83cb9292e0c6fed646e", "is_disabled": 0, "rental_uris": {"android": "https://dc.lft.to/lastmile_qr_scan", "ios": "https://dc.lft.to/lastmile_qr_scan"}, "fusion_lon": 0.0, "lat": 38.89667083333333, "bike_id": "2966ea905c6cd83cb9292e0c6fed646e", "type": "electric_scooter", "is_reserved": 0, "lon": -77.033573}, {"fusion_lat": 0.0, "name": "6f5943829ff12daf328c58b350ee295a", "is_disabled": 0, "rental_uris": {"android": "https://dc.lft.to/lastmile_qr_scan", "ios": "https://dc.lft.to/lastmile_qr_scan"}, "fusion_lon": 0.0, "lat": 38.9002845, "bike_id": "6f5943829ff12daf328c58b350ee295a", "type": "electric_scooter", "is_reserved": 0, "lon": -76.9947575}, {"fusion_lat": 0.0, "name": "b348588b320be3289c5dab8cf9205868", "is_disabled": 0, "rental_uris": {"android": "https://dc.lft.to/lastmile_qr_scan", "ios": "https://dc.lft.to/lastmile_qr_scan"}, "fusion_lon": 0.0, "lat": 38.90766, "bike_id": "b348588b320be3289c5dab8cf9205868", "type": "electric_scooter", "is_reserved": 0, "lon": -77.05591066666666}, {"fusion_lat": 0.0, "name": "b5f133caeee77ae448798b7299ec0ac7", "is_disabled": 0, "rental_uris": {"android": "https://dc.lft.to/lastmile_qr_scan", "ios": "https://dc.lft.to/lastmile_qr_scan"}, "fusion_lon": 0.0, "lat": 38.932264833333335, "bike_id": "b5f133caeee77ae448798b7299ec0ac7", "type": "electric_scooter", "is_reserved": 0, "lon": -77.04406083333333}, {"fusion_lat": 0.0, "name": "191015fd5c3704063868911d22570c10", "is_disabled": 0, "rental_uris": {"android": "https://dc.lft.to/lastmile_qr_scan", "ios": "https://dc.lft.to/lastmile_qr_scan"}, "fusion_lon": 0.0, "lat": 38.920851166666665, "bike_id": "191015fd5c3704063868911d22570c10", "type": "electric_scooter", "is_reserved": 0, "lon": -77.01217633333333}, {"fusion_lat": 0.0, "name": "427ccb2475809d1f5c259437471f8386", "is_disabled": 0, "rental_uris": {"android": "https://dc.lft.to/lastmile_qr_scan", "ios": "https://dc.lft.to/lastmile_qr_scan"}, "fusion_lon": 0.0, "lat": 38.89983, "bike_id": "427ccb2475809d1f5c259437471f8386", "type": "electric_scooter", "is_reserved": 0, "lon": -77.04059616666666}, {"fusion_lat": 0.0, "name": "64c64ebbb18dc85cf74041960b102e05", "is_disabled": 0, "rental_uris": {"android": "https://dc.lft.to/lastmile_qr_scan", "ios": "https://dc.lft.to/lastmile_qr_scan"}, "fusion_lon": 0.0, "lat": 38.84508, "bike_id": "64c64ebbb18dc85cf74041960b102e05", "type": "electric_bike", "is_reserved": 0, "lon": -76.99355316666667}, {"fusion_lat": 0.0, "name": "a585e1fec80c392e61f11d1c9ad20bbc", "is_disabled": 0, "rental_uris": {"android": "https://dc.lft.to/lastmile_qr_scan", "ios": "https://dc.lft.to/lastmile_qr_scan"}, "fusion_lon": 0.0, "lat": 38.92945683333333, "bike_id": "a585e1fec80c392e61f11d1c9ad20bbc", "type": "electric_scooter", "is_reserved": 0, "lon": -77.02342483333334}, {"fusion_lat": 0.0, "name": "eca2c269282c95a1f13d2059fafeea99", "is_disabled": 0, "rental_uris": {"android": "https://dc.lft.to/lastmile_qr_scan", "ios": "https://dc.lft.to/lastmile_qr_scan"}, "fusion_lon": 0.0, "lat": 38.895554833333335, "bike_id": "eca2c269282c95a1f13d2059fafeea99", "type": "electric_scooter", "is_reserved": 0, "lon": -76.998354}, {"fusion_lat": 0.0, "name": "dce7c52b71185d4bc2612f3f05cbf68a", "is_disabled": 0, "rental_uris": {"android": "https://dc.lft.to/lastmile_qr_scan", "ios": "https://dc.lft.to/lastmile_qr_scan"}, "fusion_lon": 0.0, "lat": 38.919220833333334, "bike_id": "dce7c52b71185d4bc2612f3f05cbf68a", "type": "electric_scooter", "is_reserved": 0, "lon": -77.01440883333333}, {"fusion_lat": 0.0, "name": "09946d6a8e1c25bb8a68fcbc5e408a12", "is_disabled": 0, "rental_uris": {"android": "https://dc.lft.to/lastmile_qr_scan", "ios": "https://dc.lft.to/lastmile_qr_scan"}, "fusion_lon": 0.0, "lat": 38.92317, "bike_id": "09946d6a8e1c25bb8a68fcbc5e408a12", "type": "electric_scooter", "is_reserved": 0, "lon": -77.04375683333333}, {"fusion_lat": 0.0, "name": "ca13b89f94c78896081d32a7d565369f", "is_disabled": 0, "rental_uris": {"android": "https://dc.lft.to/lastmile_qr_scan", "ios": "https://dc.lft.to/lastmile_qr_scan"}, "fusion_lon": 0.0, "lat": 38.9096565, "bike_id": "ca13b89f94c78896081d32a7d565369f", "type": "electric_scooter", "is_reserved": 0, "lon": -77.039475}, {"fusion_lat": 0.0, "name": "79b0645ae3bcf1716957a7b627a10cc5", "is_disabled": 0, "rental_uris": {"android": "https://dc.lft.to/lastmile_qr_scan", "ios": "https://dc.lft.to/lastmile_qr_scan"}, "fusion_lon": 0.0, "lat": 38.90607266666667, "bike_id": "79b0645ae3bcf1716957a7b627a10cc5", "type": "electric_scooter", "is_reserved": 0, "lon": -77.046948}, {"fusion_lat": 0.0, "name": "7c7437729f0d90e37b62e413d2bd3922", "is_disabled": 0, "rental_uris": {"android": "https://dc.lft.to/lastmile_qr_scan", "ios": "https://dc.lft.to/lastmile_qr_scan"}, "fusion_lon": 0.0, "lat": 38.884513, "bike_id": "7c7437729f0d90e37b62e413d2bd3922", "type": "electric_scooter", "is_reserved": 0, "lon": -76.99389933333333}, {"fusion_lat": 0.0, "name": "e80af919592043ea966882d039243707", "is_disabled": 0, "rental_uris": {"android": "https://dc.lft.to/lastmile_qr_scan", "ios": "https://dc.lft.to/lastmile_qr_scan"}, "fusion_lon": 0.0, "lat": 38.91121116666667, "bike_id": "e80af919592043ea966882d039243707", "type": "electric_scooter", "is_reserved": 0, "lon": -77.020842}, {"fusion_lat": 0.0, "name": "9ad2c2bb510a67f7aa967d63fc9a45ec", "is_disabled": 0, "rental_uris": {"android": "https://dc.lft.to/lastmile_qr_scan", "ios": "https://dc.lft.to/lastmile_qr_scan"}, "fusion_lon": 0.0, "lat": 38.80681916666666, "bike_id": "9ad2c2bb510a67f7aa967d63fc9a45ec", "type": "electric_bike", "is_reserved": 0, "lon": -77.06918766666666}, {"fusion_lat": 0.0, "name": "6145398c66042ee78ec852733454e5eb", "is_disabled": 0, "rental_uris": {"android": "https://dc.lft.to/lastmile_qr_scan", "ios": "https://dc.lft.to/lastmile_qr_scan"}, "fusion_lon": 0.0, "lat": 38.90865933333333, "bike_id": "6145398c66042ee78ec852733454e5eb", "type": "electric_scooter", "is_reserved": 0, "lon": -77.04743733333333}, {"fusion_lat": 0.0, "name": "4cb4a259481c3bb088e620f189d0c5c8", "is_disabled": 0, "rental_uris": {"android": "https://dc.lft.to/lastmile_qr_scan", "ios": "https://dc.lft.to/lastmile_qr_scan"}, "fusion_lon": 0.0, "lat": 38.9072925, "bike_id": "4cb4a259481c3bb088e620f189d0c5c8", "type": "electric_scooter", "is_reserved": 0, "lon": -77.05054783333334}, {"fusion_lat": 0.0, "name": "7bed23cc820d13c706e08d0663aed7b9", "is_disabled": 0, "rental_uris": {"android": "https://dc.lft.to/lastmile_qr_scan", "ios": "https://dc.lft.to/lastmile_qr_scan"}, "fusion_lon": 0.0, "lat": 38.924590333333335, "bike_id": "7bed23cc820d13c706e08d0663aed7b9", "type": "electric_scooter", "is_reserved": 0, "lon": -76.999116}, {"fusion_lat": 0.0, "name": "7352bfd68f35a22aaaecaef7bebd0719", "is_disabled": 0, "rental_uris": {"android": "https://dc.lft.to/lastmile_qr_scan", "ios": "https://dc.lft.to/lastmile_qr_scan"}, "fusion_lon": 0.0, "lat": 38.89217133333333, "bike_id": "7352bfd68f35a22aaaecaef7bebd0719", "type": "electric_scooter", "is_reserved": 0, "lon": -77.02373233333333}, {"fusion_lat": 0.0, "name": "e86fb7b645f38a8aaf4f5af7bb66dfde", "is_disabled": 0, "rental_uris": {"android": "https://dc.lft.to/lastmile_qr_scan", "ios": "https://dc.lft.to/lastmile_qr_scan"}, "fusion_lon": 0.0, "lat": 38.918221833333334, "bike_id": "e86fb7b645f38a8aaf4f5af7bb66dfde", "type": "electric_scooter", "is_reserved": 0, "lon": -77.003768}, {"fusion_lat": 0.0, "name": "38e5fdc1a9ed6595c982a46249462ac7", "is_disabled": 0, "rental_uris": {"android": "https://dc.lft.to/lastmile_qr_scan", "ios": "https://dc.lft.to/lastmile_qr_scan"}, "fusion_lon": 0.0, "lat": 38.928723166666664, "bike_id": "38e5fdc1a9ed6595c982a46249462ac7", "type": "electric_scooter", "is_reserved": 0, "lon": -77.05653933333333}, {"fusion_lat": 0.0, "name": "66a877d71262a53f652cc30dcae154a0", "is_disabled": 0, "rental_uris": {"android": "https://dc.lft.to/lastmile_qr_scan", "ios": "https://dc.lft.to/lastmile_qr_scan"}, "fusion_lon": 0.0, "lat": 38.91404966666666, "bike_id": "66a877d71262a53f652cc30dcae154a0", "type": "electric_scooter", "is_reserved": 0, "lon": -77.03217483333333}, {"fusion_lat": 0.0, "name": "92c766acf62b9b4907f3ea4b40ba390a", "is_disabled": 0, "rental_uris": {"android": "https://dc.lft.to/lastmile_qr_scan", "ios": "https://dc.lft.to/lastmile_qr_scan"}, "fusion_lon": 0.0, "lat": 38.92853, "bike_id": "92c766acf62b9b4907f3ea4b40ba390a", "type": "electric_scooter", "is_reserved": 0, "lon": -77.03635233333334}, {"fusion_lat": 0.0, "name": "0312ff083d90d1325caa20c5d1532ef4", "is_disabled": 0, "rental_uris": {"android": "https://dc.lft.to/lastmile_qr_scan", "ios": "https://dc.lft.to/lastmile_qr_scan"}, "fusion_lon": 0.0, "lat": 38.90085116666667, "bike_id": "0312ff083d90d1325caa20c5d1532ef4", "type": "electric_scooter", "is_reserved": 0, "lon": -77.04948083333333}, {"fusion_lat": 0.0, "name": "91e23b6885b03572a6f6b75d3c0655ce", "is_disabled": 0, "rental_uris": {"android": "https://dc.lft.to/lastmile_qr_scan", "ios": "https://dc.lft.to/lastmile_qr_scan"}, "fusion_lon": 0.0, "lat": 38.92466533333333, "bike_id": "91e23b6885b03572a6f6b75d3c0655ce", "type": "electric_scooter", "is_reserved": 0, "lon": -77.0207335}, {"fusion_lat": 0.0, "name": "3bf4ed4e7f602410bc263019765bf3b3", "is_disabled": 0, "rental_uris": {"android": "https://dc.lft.to/lastmile_qr_scan", "ios": "https://dc.lft.to/lastmile_qr_scan"}, "fusion_lon": 0.0, "lat": 38.88320566666667, "bike_id": "3bf4ed4e7f602410bc263019765bf3b3", "type": "electric_scooter", "is_reserved": 0, "lon": -77.01919966666667}, {"fusion_lat": 0.0, "name": "c19f417392c1d761d6605830799624cd", "is_disabled": 0, "rental_uris": {"android": "https://dc.lft.to/lastmile_qr_scan", "ios": "https://dc.lft.to/lastmile_qr_scan"}, "fusion_lon": 0.0, "lat": 38.9073375, "bike_id": "c19f417392c1d761d6605830799624cd", "type": "electric_scooter", "is_reserved": 0, "lon": -77.0475575}, {"fusion_lat": 0.0, "name": "129c7efa2b37e5bfaf1e42a0761238d5", "is_disabled": 0, "rental_uris": {"android": "https://dc.lft.to/lastmile_qr_scan", "ios": "https://dc.lft.to/lastmile_qr_scan"}, "fusion_lon": 0.0, "lat": 38.89881883333334, "bike_id": "129c7efa2b37e5bfaf1e42a0761238d5", "type": "electric_scooter", "is_reserved": 0, "lon": -76.93185416666667}, {"fusion_lat": 0.0, "name": "b0ae4e1d92fdd98c7d520fdcc26a327f", "is_disabled": 0, "rental_uris": {"android": "https://dc.lft.to/lastmile_qr_scan", "ios": "https://dc.lft.to/lastmile_qr_scan"}, "fusion_lon": 0.0, "lat": 38.91624266666667, "bike_id": "b0ae4e1d92fdd98c7d520fdcc26a327f", "type": "electric_scooter", "is_reserved": 0, "lon": -77.02384916666666}, {"fusion_lat": 0.0, "name": "5986e84b4e0c83505ee35b997e2bbade", "is_disabled": 0, "rental_uris": {"android": "https://dc.lft.to/lastmile_qr_scan", "ios": "https://dc.lft.to/lastmile_qr_scan"}, "fusion_lon": 0.0, "lat": 38.9287005, "bike_id": "5986e84b4e0c83505ee35b997e2bbade", "type": "electric_scooter", "is_reserved": 0, "lon": -77.03499183333334}, {"fusion_lat": 0.0, "name": "08200c9f7f46ca0517921273928886be", "is_disabled": 0, "rental_uris": {"android": "https://dc.lft.to/lastmile_qr_scan", "ios": "https://dc.lft.to/lastmile_qr_scan"}, "fusion_lon": 0.0, "lat": 38.90588416666667, "bike_id": "08200c9f7f46ca0517921273928886be", "type": "electric_scooter", "is_reserved": 0, "lon": -77.0049905}, {"fusion_lat": 0.0, "name": "0483b2f042effeac2569c8f34fc95201", "is_disabled": 0, "rental_uris": {"android": "https://dc.lft.to/lastmile_qr_scan", "ios": "https://dc.lft.to/lastmile_qr_scan"}, "fusion_lon": 0.0, "lat": 38.939047, "bike_id": "0483b2f042effeac2569c8f34fc95201", "type": "electric_scooter", "is_reserved": 0, "lon": -77.03265183333333}, {"fusion_lat": 0.0, "name": "e11e78d09adc4f624d2e02471071b0a2", "is_disabled": 0, "rental_uris": {"android": "https://dc.lft.to/lastmile_qr_scan", "ios": "https://dc.lft.to/lastmile_qr_scan"}, "fusion_lon": 0.0, "lat": 38.9353115, "bike_id": "e11e78d09adc4f624d2e02471071b0a2", "type": "electric_scooter", "is_reserved": 0, "lon": -77.02842716666666}, {"fusion_lat": 0.0, "name": "5b07661cb48d3d88e28d9a7579756bdc", "is_disabled": 0, "rental_uris": {"android": "https://dc.lft.to/lastmile_qr_scan", "ios": "https://dc.lft.to/lastmile_qr_scan"}, "fusion_lon": 0.0, "lat": 38.9039645, "bike_id": "5b07661cb48d3d88e28d9a7579756bdc", "type": "electric_scooter", "is_reserved": 0, "lon": -77.03519433333334}, {"fusion_lat": 0.0, "name": "6c4088c6e7eb897cb4ad3c64138bccb6", "is_disabled": 0, "rental_uris": {"android": "https://dc.lft.to/lastmile_qr_scan", "ios": "https://dc.lft.to/lastmile_qr_scan"}, "fusion_lon": 0.0, "lat": 38.91349966666667, "bike_id": "6c4088c6e7eb897cb4ad3c64138bccb6", "type": "electric_scooter", "is_reserved": 0, "lon": -77.031426}, {"fusion_lat": 0.0, "name": "db0c149d339186c4c6ff57b3a30f7dda", "is_disabled": 0, "rental_uris": {"android": "https://dc.lft.to/lastmile_qr_scan", "ios": "https://dc.lft.to/lastmile_qr_scan"}, "fusion_lon": 0.0, "lat": 38.866285, "bike_id": "db0c149d339186c4c6ff57b3a30f7dda", "type": "electric_bike", "is_reserved": 0, "lon": -76.94569183333333}, {"fusion_lat": 0.0, "name": "bf0d0d6f59702d9e6561095ce9129209", "is_disabled": 0, "rental_uris": {"android": "https://dc.lft.to/lastmile_qr_scan", "ios": "https://dc.lft.to/lastmile_qr_scan"}, "fusion_lon": 0.0, "lat": 38.911918666666665, "bike_id": "bf0d0d6f59702d9e6561095ce9129209", "type": "electric_scooter", "is_reserved": 0, "lon": -77.04543116666666}, {"fusion_lat": 0.0, "name": "851c55a0c9b11a2894454977b9eb0ed3", "is_disabled": 0, "rental_uris": {"android": "https://dc.lft.to/lastmile_qr_scan", "ios": "https://dc.lft.to/lastmile_qr_scan"}, "fusion_lon": 0.0, "lat": 38.96121816666667, "bike_id": "851c55a0c9b11a2894454977b9eb0ed3", "type": "electric_bike", "is_reserved": 0, "lon": -77.08472416666666}, {"fusion_lat": 0.0, "name": "70428bdd03c8541c60d1fb7a5b4dae21", "is_disabled": 0, "rental_uris": {"android": "https://dc.lft.to/lastmile_qr_scan", "ios": "https://dc.lft.to/lastmile_qr_scan"}, "fusion_lon": 0.0, "lat": 38.9140805, "bike_id": "70428bdd03c8541c60d1fb7a5b4dae21", "type": "electric_scooter", "is_reserved": 0, "lon": -77.0456655}, {"fusion_lat": 0.0, "name": "3d197d58e85ed30a9da7589538bac792", "is_disabled": 0, "rental_uris": {"android": "https://dc.lft.to/lastmile_qr_scan", "ios": "https://dc.lft.to/lastmile_qr_scan"}, "fusion_lon": 0.0, "lat": 38.9225705, "bike_id": "3d197d58e85ed30a9da7589538bac792", "type": "electric_scooter", "is_reserved": 0, "lon": -77.074837}, {"fusion_lat": 0.0, "name": "5cb478cfc6136e29b38b00180c519848", "is_disabled": 0, "rental_uris": {"android": "https://dc.lft.to/lastmile_qr_scan", "ios": "https://dc.lft.to/lastmile_qr_scan"}, "fusion_lon": 0.0, "lat": 38.9196585, "bike_id": "5cb478cfc6136e29b38b00180c519848", "type": "electric_scooter", "is_reserved": 0, "lon": -77.0250505}, {"fusion_lat": 0.0, "name": "be8f446bdeebff862f72472aaf285bce", "is_disabled": 0, "rental_uris": {"android": "https://dc.lft.to/lastmile_qr_scan", "ios": "https://dc.lft.to/lastmile_qr_scan"}, "fusion_lon": 0.0, "lat": 38.9191535, "bike_id": "be8f446bdeebff862f72472aaf285bce", "type": "electric_scooter", "is_reserved": 0, "lon": -77.03461816666666}, {"fusion_lat": 0.0, "name": "e7159df98a6567d19791f5014d0a0792", "is_disabled": 0, "rental_uris": {"android": "https://dc.lft.to/lastmile_qr_scan", "ios": "https://dc.lft.to/lastmile_qr_scan"}, "fusion_lon": 0.0, "lat": 38.908719, "bike_id": "e7159df98a6567d19791f5014d0a0792", "type": "electric_scooter", "is_reserved": 0, "lon": -77.00920516666666}, {"fusion_lat": 0.0, "name": "00dc411b3d7a8329e62888b85c315018", "is_disabled": 0, "rental_uris": {"android": "https://dc.lft.to/lastmile_qr_scan", "ios": "https://dc.lft.to/lastmile_qr_scan"}, "fusion_lon": 0.0, "lat": 38.906771166666665, "bike_id": "00dc411b3d7a8329e62888b85c315018", "type": "electric_scooter", "is_reserved": 0, "lon": -77.027219}, {"fusion_lat": 0.0, "name": "cda3f75efaff0d52a2ba593174475b9d", "is_disabled": 0, "rental_uris": {"android": "https://dc.lft.to/lastmile_qr_scan", "ios": "https://dc.lft.to/lastmile_qr_scan"}, "fusion_lon": 0.0, "lat": 38.92250516666667, "bike_id": "cda3f75efaff0d52a2ba593174475b9d", "type": "electric_scooter", "is_reserved": 0, "lon": -76.98408766666667}, {"fusion_lat": 0.0, "name": "9189bb7e5d6504caac53dc8e74e71c52", "is_disabled": 0, "rental_uris": {"android": "https://dc.lft.to/lastmile_qr_scan", "ios": "https://dc.lft.to/lastmile_qr_scan"}, "fusion_lon": 0.0, "lat": 38.91490533333333, "bike_id": "9189bb7e5d6504caac53dc8e74e71c52", "type": "electric_scooter", "is_reserved": 0, "lon": -77.01232483333334}, {"fusion_lat": 0.0, "name": "09573a123b0fc3b562ffcf1c33612b5c", "is_disabled": 0, "rental_uris": {"android": "https://dc.lft.to/lastmile_qr_scan", "ios": "https://dc.lft.to/lastmile_qr_scan"}, "fusion_lon": 0.0, "lat": 38.9358475, "bike_id": "09573a123b0fc3b562ffcf1c33612b5c", "type": "electric_scooter", "is_reserved": 0, "lon": -77.02845666666667}, {"fusion_lat": 0.0, "name": "ca643d486015b06a6c50d7a36546c0d1", "is_disabled": 0, "rental_uris": {"android": "https://dc.lft.to/lastmile_qr_scan", "ios": "https://dc.lft.to/lastmile_qr_scan"}, "fusion_lon": 0.0, "lat": 38.91959083333333, "bike_id": "ca643d486015b06a6c50d7a36546c0d1", "type": "electric_bike", "is_reserved": 0, "lon": -77.10105216666666}, {"fusion_lat": 0.0, "name": "4a7a8e31b655bf9cb7c59df18c4e9d8f", "is_disabled": 0, "rental_uris": {"android": "https://dc.lft.to/lastmile_qr_scan", "ios": "https://dc.lft.to/lastmile_qr_scan"}, "fusion_lon": 0.0, "lat": 38.8974325, "bike_id": "4a7a8e31b655bf9cb7c59df18c4e9d8f", "type": "electric_scooter", "is_reserved": 0, "lon": -77.04629}, {"fusion_lat": 0.0, "name": "49864c46b0b52c7b187864529c33040e", "is_disabled": 0, "rental_uris": {"android": "https://dc.lft.to/lastmile_qr_scan", "ios": "https://dc.lft.to/lastmile_qr_scan"}, "fusion_lon": 0.0, "lat": 38.876623, "bike_id": "49864c46b0b52c7b187864529c33040e", "type": "electric_scooter", "is_reserved": 0, "lon": -77.0011625}, {"fusion_lat": 0.0, "name": "1cb2aa66f0d629cbe3fbec7910123ac7", "is_disabled": 0, "rental_uris": {"android": "https://dc.lft.to/lastmile_qr_scan", "ios": "https://dc.lft.to/lastmile_qr_scan"}, "fusion_lon": 0.0, "lat": 38.921429333333336, "bike_id": "1cb2aa66f0d629cbe3fbec7910123ac7", "type": "electric_scooter", "is_reserved": 0, "lon": -77.01800616666667}, {"fusion_lat": 0.0, "name": "bc7bcd0f03c521b40a686473d49bd282", "is_disabled": 0, "rental_uris": {"android": "https://dc.lft.to/lastmile_qr_scan", "ios": "https://dc.lft.to/lastmile_qr_scan"}, "fusion_lon": 0.0, "lat": 38.90788666666667, "bike_id": "bc7bcd0f03c521b40a686473d49bd282", "type": "electric_scooter", "is_reserved": 0, "lon": -77.0434755}, {"fusion_lat": 0.0, "name": "fda9cb62e7963f0c2a35a9f6e3e1281a", "is_disabled": 0, "rental_uris": {"android": "https://dc.lft.to/lastmile_qr_scan", "ios": "https://dc.lft.to/lastmile_qr_scan"}, "fusion_lon": 0.0, "lat": 38.930649833333334, "bike_id": "fda9cb62e7963f0c2a35a9f6e3e1281a", "type": "electric_scooter", "is_reserved": 0, "lon": -77.04056166666666}, {"fusion_lat": 0.0, "name": "bacfac7cfb593f79b60dc1bb6ade32d4", "is_disabled": 0, "rental_uris": {"android": "https://dc.lft.to/lastmile_qr_scan", "ios": "https://dc.lft.to/lastmile_qr_scan"}, "fusion_lon": 0.0, "lat": 38.904832166666665, "bike_id": "bacfac7cfb593f79b60dc1bb6ade32d4", "type": "electric_scooter", "is_reserved": 0, "lon": -77.04860583333334}, {"fusion_lat": 0.0, "name": "84f2a1542036b76a997db6d0f6de685a", "is_disabled": 0, "rental_uris": {"android": "https://dc.lft.to/lastmile_qr_scan", "ios": "https://dc.lft.to/lastmile_qr_scan"}, "fusion_lon": 0.0, "lat": 38.91108666666667, "bike_id": "84f2a1542036b76a997db6d0f6de685a", "type": "electric_scooter", "is_reserved": 0, "lon": -77.02925366666666}, {"fusion_lat": 0.0, "name": "20bd2cb59723272aeed90e7402f8e22e", "is_disabled": 0, "rental_uris": {"android": "https://dc.lft.to/lastmile_qr_scan", "ios": "https://dc.lft.to/lastmile_qr_scan"}, "fusion_lon": 0.0, "lat": 38.8976405, "bike_id": "20bd2cb59723272aeed90e7402f8e22e", "type": "electric_scooter", "is_reserved": 0, "lon": -77.02490916666666}, {"fusion_lat": 0.0, "name": "a3f48b8b41580af67b917c5650e8aeda", "is_disabled": 0, "rental_uris": {"android": "https://dc.lft.to/lastmile_qr_scan", "ios": "https://dc.lft.to/lastmile_qr_scan"}, "fusion_lon": 0.0, "lat": 38.92432516666667, "bike_id": "a3f48b8b41580af67b917c5650e8aeda", "type": "electric_scooter", "is_reserved": 0, "lon": -77.0448725}, {"fusion_lat": 0.0, "name": "b32bc98d5999c75a6953e5ce91243fe2", "is_disabled": 0, "rental_uris": {"android": "https://dc.lft.to/lastmile_qr_scan", "ios": "https://dc.lft.to/lastmile_qr_scan"}, "fusion_lon": 0.0, "lat": 38.9618585, "bike_id": "b32bc98d5999c75a6953e5ce91243fe2", "type": "electric_bike", "is_reserved": 0, "lon": -77.05267216666667}, {"fusion_lat": 0.0, "name": "4134bc3b7b224a39f382e304cf9d3f14", "is_disabled": 0, "rental_uris": {"android": "https://dc.lft.to/lastmile_qr_scan", "ios": "https://dc.lft.to/lastmile_qr_scan"}, "fusion_lon": 0.0, "lat": 38.9042545, "bike_id": "4134bc3b7b224a39f382e304cf9d3f14", "type": "electric_scooter", "is_reserved": 0, "lon": -77.0188045}, {"fusion_lat": 0.0, "name": "71c80509109b04ef0dfad1c39cd3e9fb", "is_disabled": 0, "rental_uris": {"android": "https://dc.lft.to/lastmile_qr_scan", "ios": "https://dc.lft.to/lastmile_qr_scan"}, "fusion_lon": 0.0, "lat": 38.97379383333333, "bike_id": "71c80509109b04ef0dfad1c39cd3e9fb", "type": "electric_scooter", "is_reserved": 0, "lon": -77.01286083333333}, {"fusion_lat": 0.0, "name": "468c6ae007cf64035423795f226c863d", "is_disabled": 0, "rental_uris": {"android": "https://dc.lft.to/lastmile_qr_scan", "ios": "https://dc.lft.to/lastmile_qr_scan"}, "fusion_lon": 0.0, "lat": 38.902889333333334, "bike_id": "468c6ae007cf64035423795f226c863d", "type": "electric_scooter", "is_reserved": 0, "lon": -77.03646516666667}, {"fusion_lat": 0.0, "name": "a32bbca725d505f3b466aeb12f05c113", "is_disabled": 0, "rental_uris": {"android": "https://dc.lft.to/lastmile_qr_scan", "ios": "https://dc.lft.to/lastmile_qr_scan"}, "fusion_lon": 0.0, "lat": 38.96992816666667, "bike_id": "a32bbca725d505f3b466aeb12f05c113", "type": "electric_scooter", "is_reserved": 0, "lon": -77.01158583333333}, {"fusion_lat": 0.0, "name": "f6eae724454ea059429d56b58e147416", "is_disabled": 0, "rental_uris": {"android": "https://dc.lft.to/lastmile_qr_scan", "ios": "https://dc.lft.to/lastmile_qr_scan"}, "fusion_lon": 0.0, "lat": 38.93250716666667, "bike_id": "f6eae724454ea059429d56b58e147416", "type": "electric_scooter", "is_reserved": 0, "lon": -77.03858183333334}, {"fusion_lat": 0.0, "name": "df6bc3736c2b962106ac5f58df67df3c", "is_disabled": 0, "rental_uris": {"android": "https://dc.lft.to/lastmile_qr_scan", "ios": "https://dc.lft.to/lastmile_qr_scan"}, "fusion_lon": 0.0, "lat": 38.8924235, "bike_id": "df6bc3736c2b962106ac5f58df67df3c", "type": "electric_scooter", "is_reserved": 0, "lon": -77.03348566666666}, {"fusion_lat": 0.0, "name": "be4a54bf3ba12db117eefd1883e07708", "is_disabled": 0, "rental_uris": {"android": "https://dc.lft.to/lastmile_qr_scan", "ios": "https://dc.lft.to/lastmile_qr_scan"}, "fusion_lon": 0.0, "lat": 38.891161333333336, "bike_id": "be4a54bf3ba12db117eefd1883e07708", "type": "electric_scooter", "is_reserved": 0, "lon": -76.94381166666666}, {"fusion_lat": 0.0, "name": "357799b99fdf99b548c175d9ca17251a", "is_disabled": 0, "rental_uris": {"android": "https://dc.lft.to/lastmile_qr_scan", "ios": "https://dc.lft.to/lastmile_qr_scan"}, "fusion_lon": 0.0, "lat": 38.91194983333333, "bike_id": "357799b99fdf99b548c175d9ca17251a", "type": "electric_scooter", "is_reserved": 0, "lon": -77.01197466666666}, {"fusion_lat": 0.0, "name": "da3bd5b966dc227178484f288c40bbcf", "is_disabled": 0, "rental_uris": {"android": "https://dc.lft.to/lastmile_qr_scan", "ios": "https://dc.lft.to/lastmile_qr_scan"}, "fusion_lon": 0.0, "lat": 38.95333983333333, "bike_id": "da3bd5b966dc227178484f288c40bbcf", "type": "electric_bike", "is_reserved": 0, "lon": -76.98248233333334}, {"fusion_lat": 0.0, "name": "9997d49910ca670251975f03f9795957", "is_disabled": 0, "rental_uris": {"android": "https://dc.lft.to/lastmile_qr_scan", "ios": "https://dc.lft.to/lastmile_qr_scan"}, "fusion_lon": 0.0, "lat": 38.92619283333333, "bike_id": "9997d49910ca670251975f03f9795957", "type": "electric_scooter", "is_reserved": 0, "lon": -77.04328083333333}, {"fusion_lat": 0.0, "name": "73df9a04b14b1b705c7c56235c5cb6db", "is_disabled": 0, "rental_uris": {"android": "https://dc.lft.to/lastmile_qr_scan", "ios": "https://dc.lft.to/lastmile_qr_scan"}, "fusion_lon": 0.0, "lat": 38.874685666666664, "bike_id": "73df9a04b14b1b705c7c56235c5cb6db", "type": "electric_scooter", "is_reserved": 0, "lon": -77.0003865}, {"fusion_lat": 0.0, "name": "420098babd29f681c918dc71fe1544d3", "is_disabled": 0, "rental_uris": {"android": "https://dc.lft.to/lastmile_qr_scan", "ios": "https://dc.lft.to/lastmile_qr_scan"}, "fusion_lon": 0.0, "lat": 38.89520133333333, "bike_id": "420098babd29f681c918dc71fe1544d3", "type": "electric_scooter", "is_reserved": 0, "lon": -76.9995715}, {"fusion_lat": 0.0, "name": "e54581c0f0b763dd4adabd7591e6fcc2", "is_disabled": 0, "rental_uris": {"android": "https://dc.lft.to/lastmile_qr_scan", "ios": "https://dc.lft.to/lastmile_qr_scan"}, "fusion_lon": 0.0, "lat": 38.942046166666664, "bike_id": "e54581c0f0b763dd4adabd7591e6fcc2", "type": "electric_scooter", "is_reserved": 0, "lon": -77.02588416666667}, {"fusion_lat": 0.0, "name": "9bb1578006ceeb0b4c9f853c65fb582e", "is_disabled": 0, "rental_uris": {"android": "https://dc.lft.to/lastmile_qr_scan", "ios": "https://dc.lft.to/lastmile_qr_scan"}, "fusion_lon": 0.0, "lat": 38.83936416666667, "bike_id": "9bb1578006ceeb0b4c9f853c65fb582e", "type": "electric_bike", "is_reserved": 0, "lon": -77.07906666666666}, {"fusion_lat": 0.0, "name": "408f6d6e5894e4147729092343bdb256", "is_disabled": 0, "rental_uris": {"android": "https://dc.lft.to/lastmile_qr_scan", "ios": "https://dc.lft.to/lastmile_qr_scan"}, "fusion_lon": 0.0, "lat": 38.97880383333333, "bike_id": "408f6d6e5894e4147729092343bdb256", "type": "electric_bike", "is_reserved": 0, "lon": -77.06026483333333}, {"fusion_lat": 0.0, "name": "f847b7ec000ba84b53a50cffe073df42", "is_disabled": 0, "rental_uris": {"android": "https://dc.lft.to/lastmile_qr_scan", "ios": "https://dc.lft.to/lastmile_qr_scan"}, "fusion_lon": 0.0, "lat": 38.910680166666666, "bike_id": "f847b7ec000ba84b53a50cffe073df42", "type": "electric_scooter", "is_reserved": 0, "lon": -77.03662566666667}, {"fusion_lat": 0.0, "name": "9b6941f5830a3d2cb7133f9f06463ef1", "is_disabled": 0, "rental_uris": {"android": "https://dc.lft.to/lastmile_qr_scan", "ios": "https://dc.lft.to/lastmile_qr_scan"}, "fusion_lon": 0.0, "lat": 38.90137983333334, "bike_id": "9b6941f5830a3d2cb7133f9f06463ef1", "type": "electric_scooter", "is_reserved": 0, "lon": -76.9864835}, {"fusion_lat": 0.0, "name": "160705debde893d006376bad9df8378c", "is_disabled": 0, "rental_uris": {"android": "https://dc.lft.to/lastmile_qr_scan", "ios": "https://dc.lft.to/lastmile_qr_scan"}, "fusion_lon": 0.0, "lat": 38.92748066666667, "bike_id": "160705debde893d006376bad9df8378c", "type": "electric_scooter", "is_reserved": 0, "lon": -77.0363895}, {"fusion_lat": 0.0, "name": "ed3569a6165d81298e8d5705b2ce7071", "is_disabled": 0, "rental_uris": {"android": "https://dc.lft.to/lastmile_qr_scan", "ios": "https://dc.lft.to/lastmile_qr_scan"}, "fusion_lon": 0.0, "lat": 38.902348833333335, "bike_id": "ed3569a6165d81298e8d5705b2ce7071", "type": "electric_scooter", "is_reserved": 0, "lon": -77.04904583333334}, {"fusion_lat": 0.0, "name": "5b0551a186b6a2b0b4b989360b9500f0", "is_disabled": 0, "rental_uris": {"android": "https://dc.lft.to/lastmile_qr_scan", "ios": "https://dc.lft.to/lastmile_qr_scan"}, "fusion_lon": 0.0, "lat": 38.959663166666665, "bike_id": "5b0551a186b6a2b0b4b989360b9500f0", "type": "electric_bike", "is_reserved": 0, "lon": -76.98155166666666}, {"fusion_lat": 0.0, "name": "778cf1d2f61b6c5c1f1727a6dc4601d4", "is_disabled": 0, "rental_uris": {"android": "https://dc.lft.to/lastmile_qr_scan", "ios": "https://dc.lft.to/lastmile_qr_scan"}, "fusion_lon": 0.0, "lat": 38.9039765, "bike_id": "778cf1d2f61b6c5c1f1727a6dc4601d4", "type": "electric_scooter", "is_reserved": 0, "lon": -77.04662733333333}, {"fusion_lat": 0.0, "name": "db66e5cb07e20b75031f4a25a6125ae1", "is_disabled": 0, "rental_uris": {"android": "https://dc.lft.to/lastmile_qr_scan", "ios": "https://dc.lft.to/lastmile_qr_scan"}, "fusion_lon": 0.0, "lat": 38.927007, "bike_id": "db66e5cb07e20b75031f4a25a6125ae1", "type": "electric_scooter", "is_reserved": 0, "lon": -77.0242615}, {"fusion_lat": 0.0, "name": "2add92a8d56fe6934960781fceca2f9d", "is_disabled": 0, "rental_uris": {"android": "https://dc.lft.to/lastmile_qr_scan", "ios": "https://dc.lft.to/lastmile_qr_scan"}, "fusion_lon": 0.0, "lat": 38.95740933333333, "bike_id": "2add92a8d56fe6934960781fceca2f9d", "type": "electric_bike", "is_reserved": 0, "lon": -76.98085833333333}, {"fusion_lat": 0.0, "name": "c6e248c03743e422e19a6953bb279923", "is_disabled": 0, "rental_uris": {"android": "https://dc.lft.to/lastmile_qr_scan", "ios": "https://dc.lft.to/lastmile_qr_scan"}, "fusion_lon": 0.0, "lat": 38.932218, "bike_id": "c6e248c03743e422e19a6953bb279923", "type": "electric_scooter", "is_reserved": 0, "lon": -77.03351066666667}, {"fusion_lat": 0.0, "name": "2d37e4db2362e680edeb9976c6094c93", "is_disabled": 0, "rental_uris": {"android": "https://dc.lft.to/lastmile_qr_scan", "ios": "https://dc.lft.to/lastmile_qr_scan"}, "fusion_lon": 0.0, "lat": 38.9507395, "bike_id": "2d37e4db2362e680edeb9976c6094c93", "type": "electric_bike", "is_reserved": 0, "lon": -77.01196283333333}, {"fusion_lat": 0.0, "name": "09b8bf87816b1947d13a05e634549c25", "is_disabled": 0, "rental_uris": {"android": "https://dc.lft.to/lastmile_qr_scan", "ios": "https://dc.lft.to/lastmile_qr_scan"}, "fusion_lon": 0.0, "lat": 38.89911983333333, "bike_id": "09b8bf87816b1947d13a05e634549c25", "type": "electric_scooter", "is_reserved": 0, "lon": -76.93353416666666}, {"fusion_lat": 0.0, "name": "1dfdf4a04ef90383c81b5579262414b6", "is_disabled": 0, "rental_uris": {"android": "https://dc.lft.to/lastmile_qr_scan", "ios": "https://dc.lft.to/lastmile_qr_scan"}, "fusion_lon": 0.0, "lat": 38.93608533333333, "bike_id": "1dfdf4a04ef90383c81b5579262414b6", "type": "electric_scooter", "is_reserved": 0, "lon": -77.0319095}, {"fusion_lat": 0.0, "name": "10ff51745737ad2dd41a5464eb6c158a", "is_disabled": 0, "rental_uris": {"android": "https://dc.lft.to/lastmile_qr_scan", "ios": "https://dc.lft.to/lastmile_qr_scan"}, "fusion_lon": 0.0, "lat": 38.921953333333335, "bike_id": "10ff51745737ad2dd41a5464eb6c158a", "type": "electric_scooter", "is_reserved": 0, "lon": -77.08086983333334}, {"fusion_lat": 0.0, "name": "d71587000036b7d654a7ca7118bc1dc0", "is_disabled": 0, "rental_uris": {"android": "https://dc.lft.to/lastmile_qr_scan", "ios": "https://dc.lft.to/lastmile_qr_scan"}, "fusion_lon": 0.0, "lat": 38.9147075, "bike_id": "d71587000036b7d654a7ca7118bc1dc0", "type": "electric_scooter", "is_reserved": 0, "lon": -77.0389985}, {"fusion_lat": 0.0, "name": "caa8bdc50385533aaab1dcd14213ab26", "is_disabled": 0, "rental_uris": {"android": "https://dc.lft.to/lastmile_qr_scan", "ios": "https://dc.lft.to/lastmile_qr_scan"}, "fusion_lon": 0.0, "lat": 38.93859633333334, "bike_id": "caa8bdc50385533aaab1dcd14213ab26", "type": "electric_scooter", "is_reserved": 0, "lon": -77.02454833333333}, {"fusion_lat": 0.0, "name": "d04e6e885f26240e29fac70257fe2c47", "is_disabled": 0, "rental_uris": {"android": "https://dc.lft.to/lastmile_qr_scan", "ios": "https://dc.lft.to/lastmile_qr_scan"}, "fusion_lon": 0.0, "lat": 38.9210915, "bike_id": "d04e6e885f26240e29fac70257fe2c47", "type": "electric_scooter", "is_reserved": 0, "lon": -77.07473833333333}, {"fusion_lat": 0.0, "name": "e4e219321471f24c188017f2772693e8", "is_disabled": 0, "rental_uris": {"android": "https://dc.lft.to/lastmile_qr_scan", "ios": "https://dc.lft.to/lastmile_qr_scan"}, "fusion_lon": 0.0, "lat": 38.898739166666665, "bike_id": "e4e219321471f24c188017f2772693e8", "type": "electric_scooter", "is_reserved": 0, "lon": -77.02042266666666}, {"fusion_lat": 0.0, "name": "763b2891e46b4dc9eb42e793489f837d", "is_disabled": 0, "rental_uris": {"android": "https://dc.lft.to/lastmile_qr_scan", "ios": "https://dc.lft.to/lastmile_qr_scan"}, "fusion_lon": 0.0, "lat": 38.919295166666664, "bike_id": "763b2891e46b4dc9eb42e793489f837d", "type": "electric_scooter", "is_reserved": 0, "lon": -77.04504916666667}, {"fusion_lat": 0.0, "name": "63942f911157b87f7104a6cdc3822604", "is_disabled": 0, "rental_uris": {"android": "https://dc.lft.to/lastmile_qr_scan", "ios": "https://dc.lft.to/lastmile_qr_scan"}, "fusion_lon": 0.0, "lat": 38.8737115, "bike_id": "63942f911157b87f7104a6cdc3822604", "type": "electric_scooter", "is_reserved": 0, "lon": -77.00167183333333}, {"fusion_lat": 0.0, "name": "321b34030811a371db8e6b191b028066", "is_disabled": 0, "rental_uris": {"android": "https://dc.lft.to/lastmile_qr_scan", "ios": "https://dc.lft.to/lastmile_qr_scan"}, "fusion_lon": 0.0, "lat": 38.91507033333333, "bike_id": "321b34030811a371db8e6b191b028066", "type": "electric_scooter", "is_reserved": 0, "lon": -77.00920716666667}, {"fusion_lat": 0.0, "name": "16d641e2a74d127a3e98a5ff705cb346", "is_disabled": 0, "rental_uris": {"android": "https://dc.lft.to/lastmile_qr_scan", "ios": "https://dc.lft.to/lastmile_qr_scan"}, "fusion_lon": 0.0, "lat": 38.900467, "bike_id": "16d641e2a74d127a3e98a5ff705cb346", "type": "electric_scooter", "is_reserved": 0, "lon": -77.0038535}, {"fusion_lat": 0.0, "name": "96965aaa63806ea3176109e683dc10e0", "is_disabled": 0, "rental_uris": {"android": "https://dc.lft.to/lastmile_qr_scan", "ios": "https://dc.lft.to/lastmile_qr_scan"}, "fusion_lon": 0.0, "lat": 38.906719833333334, "bike_id": "96965aaa63806ea3176109e683dc10e0", "type": "electric_scooter", "is_reserved": 0, "lon": -77.02707766666667}, {"fusion_lat": 0.0, "name": "bbc0c29e47ace4ee51f5d1af7a5aa72e", "is_disabled": 0, "rental_uris": {"android": "https://dc.lft.to/lastmile_qr_scan", "ios": "https://dc.lft.to/lastmile_qr_scan"}, "fusion_lon": 0.0, "lat": 38.92880066666667, "bike_id": "bbc0c29e47ace4ee51f5d1af7a5aa72e", "type": "electric_scooter", "is_reserved": 0, "lon": -77.03481483333333}, {"fusion_lat": 0.0, "name": "4eac1c7d7634eb078fbf66d7c4414b79", "is_disabled": 0, "rental_uris": {"android": "https://dc.lft.to/lastmile_qr_scan", "ios": "https://dc.lft.to/lastmile_qr_scan"}, "fusion_lon": 0.0, "lat": 38.932416833333335, "bike_id": "4eac1c7d7634eb078fbf66d7c4414b79", "type": "electric_bike", "is_reserved": 0, "lon": -76.9742085}, {"fusion_lat": 0.0, "name": "beb36c5e495ff79e09646c956046a689", "is_disabled": 0, "rental_uris": {"android": "https://dc.lft.to/lastmile_qr_scan", "ios": "https://dc.lft.to/lastmile_qr_scan"}, "fusion_lon": 0.0, "lat": 38.8662995, "bike_id": "beb36c5e495ff79e09646c956046a689", "type": "electric_scooter", "is_reserved": 0, "lon": -76.9871535}, {"fusion_lat": 0.0, "name": "bcca3a71c4603f28abd1ed492dd7d661", "is_disabled": 0, "rental_uris": {"android": "https://dc.lft.to/lastmile_qr_scan", "ios": "https://dc.lft.to/lastmile_qr_scan"}, "fusion_lon": 0.0, "lat": 38.8797635, "bike_id": "bcca3a71c4603f28abd1ed492dd7d661", "type": "electric_bike", "is_reserved": 0, "lon": -77.17839983333333}, {"fusion_lat": 0.0, "name": "2a39ade5a6ff4974990aa278cbb23e32", "is_disabled": 0, "rental_uris": {"android": "https://dc.lft.to/lastmile_qr_scan", "ios": "https://dc.lft.to/lastmile_qr_scan"}, "fusion_lon": 0.0, "lat": 38.91176466666667, "bike_id": "2a39ade5a6ff4974990aa278cbb23e32", "type": "electric_scooter", "is_reserved": 0, "lon": -77.036632}, {"fusion_lat": 0.0, "name": "bfd9f05db4868f7a2bf4bc4c64b988fe", "is_disabled": 0, "rental_uris": {"android": "https://dc.lft.to/lastmile_qr_scan", "ios": "https://dc.lft.to/lastmile_qr_scan"}, "fusion_lon": 0.0, "lat": 38.9170915, "bike_id": "bfd9f05db4868f7a2bf4bc4c64b988fe", "type": "electric_scooter", "is_reserved": 0, "lon": -77.03715633333333}, {"fusion_lat": 0.0, "name": "ac30d91a4906dfa71e369167a938d938", "is_disabled": 0, "rental_uris": {"android": "https://dc.lft.to/lastmile_qr_scan", "ios": "https://dc.lft.to/lastmile_qr_scan"}, "fusion_lon": 0.0, "lat": 38.954747, "bike_id": "ac30d91a4906dfa71e369167a938d938", "type": "electric_scooter", "is_reserved": 0, "lon": -77.077752}, {"fusion_lat": 0.0, "name": "f3c2b3a41d9d05d0957da5a4417ecfcb", "is_disabled": 0, "rental_uris": {"android": "https://dc.lft.to/lastmile_qr_scan", "ios": "https://dc.lft.to/lastmile_qr_scan"}, "fusion_lon": 0.0, "lat": 38.92245, "bike_id": "f3c2b3a41d9d05d0957da5a4417ecfcb", "type": "electric_scooter", "is_reserved": 0, "lon": -77.03887183333333}, {"fusion_lat": 0.0, "name": "1b8415fc171ee42bc69ea9258603270d", "is_disabled": 0, "rental_uris": {"android": "https://dc.lft.to/lastmile_qr_scan", "ios": "https://dc.lft.to/lastmile_qr_scan"}, "fusion_lon": 0.0, "lat": 38.95113116666667, "bike_id": "1b8415fc171ee42bc69ea9258603270d", "type": "electric_scooter", "is_reserved": 0, "lon": -77.05863983333333}, {"fusion_lat": 0.0, "name": "6d352983e2d392b780d25a6ec4e0daa1", "is_disabled": 0, "rental_uris": {"android": "https://dc.lft.to/lastmile_qr_scan", "ios": "https://dc.lft.to/lastmile_qr_scan"}, "fusion_lon": 0.0, "lat": 38.90859066666667, "bike_id": "6d352983e2d392b780d25a6ec4e0daa1", "type": "electric_scooter", "is_reserved": 0, "lon": -77.0271715}, {"fusion_lat": 0.0, "name": "bebf178c6232b0bff171ef705d7a1923", "is_disabled": 0, "rental_uris": {"android": "https://dc.lft.to/lastmile_qr_scan", "ios": "https://dc.lft.to/lastmile_qr_scan"}, "fusion_lon": 0.0, "lat": 38.8745055, "bike_id": "bebf178c6232b0bff171ef705d7a1923", "type": "electric_bike", "is_reserved": 0, "lon": -76.99953183333334}, {"fusion_lat": 0.0, "name": "14e35fbf574205678c467d6ab6441450", "is_disabled": 0, "rental_uris": {"android": "https://dc.lft.to/lastmile_qr_scan", "ios": "https://dc.lft.to/lastmile_qr_scan"}, "fusion_lon": 0.0, "lat": 38.88223816666667, "bike_id": "14e35fbf574205678c467d6ab6441450", "type": "electric_scooter", "is_reserved": 0, "lon": -77.02937633333333}, {"fusion_lat": 0.0, "name": "699f287e3d080950b5167b684ad34812", "is_disabled": 0, "rental_uris": {"android": "https://dc.lft.to/lastmile_qr_scan", "ios": "https://dc.lft.to/lastmile_qr_scan"}, "fusion_lon": 0.0, "lat": 38.919982, "bike_id": "699f287e3d080950b5167b684ad34812", "type": "electric_scooter", "is_reserved": 0, "lon": -77.071906}, {"fusion_lat": 0.0, "name": "de03ee87184fb6f727e273d30a4c016f", "is_disabled": 0, "rental_uris": {"android": "https://dc.lft.to/lastmile_qr_scan", "ios": "https://dc.lft.to/lastmile_qr_scan"}, "fusion_lon": 0.0, "lat": 38.94862066666666, "bike_id": "de03ee87184fb6f727e273d30a4c016f", "type": "electric_scooter", "is_reserved": 0, "lon": -77.02569833333334}, {"fusion_lat": 0.0, "name": "1d40dd878864f40eee8d805553743e27", "is_disabled": 0, "rental_uris": {"android": "https://dc.lft.to/lastmile_qr_scan", "ios": "https://dc.lft.to/lastmile_qr_scan"}, "fusion_lon": 0.0, "lat": 38.883031333333335, "bike_id": "1d40dd878864f40eee8d805553743e27", "type": "electric_scooter", "is_reserved": 0, "lon": -76.94856283333333}, {"fusion_lat": 0.0, "name": "e1fe435bce8721cb794ad825d0aeb10f", "is_disabled": 0, "rental_uris": {"android": "https://dc.lft.to/lastmile_qr_scan", "ios": "https://dc.lft.to/lastmile_qr_scan"}, "fusion_lon": 0.0, "lat": 38.854256166666666, "bike_id": "e1fe435bce8721cb794ad825d0aeb10f", "type": "electric_bike", "is_reserved": 0, "lon": -77.1207675}, {"fusion_lat": 0.0, "name": "153c59152456acd0b9a149a4fa14b189", "is_disabled": 0, "rental_uris": {"android": "https://dc.lft.to/lastmile_qr_scan", "ios": "https://dc.lft.to/lastmile_qr_scan"}, "fusion_lon": 0.0, "lat": 38.912597166666664, "bike_id": "153c59152456acd0b9a149a4fa14b189", "type": "electric_scooter", "is_reserved": 0, "lon": -77.00629816666667}, {"fusion_lat": 0.0, "name": "40953abafe8b7544de07323ebe22520e", "is_disabled": 0, "rental_uris": {"android": "https://dc.lft.to/lastmile_qr_scan", "ios": "https://dc.lft.to/lastmile_qr_scan"}, "fusion_lon": 0.0, "lat": 38.920849833333335, "bike_id": "40953abafe8b7544de07323ebe22520e", "type": "electric_scooter", "is_reserved": 0, "lon": -76.99446983333333}, {"fusion_lat": 0.0, "name": "07d56d6c8f93cfecea35502ba86ff43d", "is_disabled": 0, "rental_uris": {"android": "https://dc.lft.to/lastmile_qr_scan", "ios": "https://dc.lft.to/lastmile_qr_scan"}, "fusion_lon": 0.0, "lat": 38.924245666666664, "bike_id": "07d56d6c8f93cfecea35502ba86ff43d", "type": "electric_scooter", "is_reserved": 0, "lon": -77.025453}, {"fusion_lat": 0.0, "name": "2432811b0c56bf39244a1d690ab87f58", "is_disabled": 0, "rental_uris": {"android": "https://dc.lft.to/lastmile_qr_scan", "ios": "https://dc.lft.to/lastmile_qr_scan"}, "fusion_lon": 0.0, "lat": 38.935810333333336, "bike_id": "2432811b0c56bf39244a1d690ab87f58", "type": "electric_scooter", "is_reserved": 0, "lon": -77.02845366666666}, {"fusion_lat": 0.0, "name": "36209f5b489f604591d3656692e83534", "is_disabled": 0, "rental_uris": {"android": "https://dc.lft.to/lastmile_qr_scan", "ios": "https://dc.lft.to/lastmile_qr_scan"}, "fusion_lon": 0.0, "lat": 38.952240833333335, "bike_id": "36209f5b489f604591d3656692e83534", "type": "electric_scooter", "is_reserved": 0, "lon": -77.08217483333334}, {"fusion_lat": 0.0, "name": "0806ef2dc8f47070dcb21b14be546776", "is_disabled": 0, "rental_uris": {"android": "https://dc.lft.to/lastmile_qr_scan", "ios": "https://dc.lft.to/lastmile_qr_scan"}, "fusion_lon": 0.0, "lat": 38.902575, "bike_id": "0806ef2dc8f47070dcb21b14be546776", "type": "electric_scooter", "is_reserved": 0, "lon": -76.9744735}, {"fusion_lat": 0.0, "name": "b08b6c74f37f1b16c3c1206a256160da", "is_disabled": 0, "rental_uris": {"android": "https://dc.lft.to/lastmile_qr_scan", "ios": "https://dc.lft.to/lastmile_qr_scan"}, "fusion_lon": 0.0, "lat": 38.929304, "bike_id": "b08b6c74f37f1b16c3c1206a256160da", "type": "electric_scooter", "is_reserved": 0, "lon": -77.02337766666666}, {"fusion_lat": 0.0, "name": "c81501d98bb5af9bddbfff2269424d48", "is_disabled": 0, "rental_uris": {"android": "https://dc.lft.to/lastmile_qr_scan", "ios": "https://dc.lft.to/lastmile_qr_scan"}, "fusion_lon": 0.0, "lat": 38.93077383333333, "bike_id": "c81501d98bb5af9bddbfff2269424d48", "type": "electric_scooter", "is_reserved": 0, "lon": -77.07766433333333}, {"fusion_lat": 0.0, "name": "4d0e166b6e06c01e6123793253233925", "is_disabled": 0, "rental_uris": {"android": "https://dc.lft.to/lastmile_qr_scan", "ios": "https://dc.lft.to/lastmile_qr_scan"}, "fusion_lon": 0.0, "lat": 38.923198666666664, "bike_id": "4d0e166b6e06c01e6123793253233925", "type": "electric_scooter", "is_reserved": 0, "lon": -77.0203515}, {"fusion_lat": 0.0, "name": "065cdb78a7f89a372f72709256ea6a09", "is_disabled": 0, "rental_uris": {"android": "https://dc.lft.to/lastmile_qr_scan", "ios": "https://dc.lft.to/lastmile_qr_scan"}, "fusion_lon": 0.0, "lat": 38.907218666666665, "bike_id": "065cdb78a7f89a372f72709256ea6a09", "type": "electric_scooter", "is_reserved": 0, "lon": -77.02891516666666}, {"fusion_lat": 0.0, "name": "d12e3dc9e856662e19bb5dc04838c023", "is_disabled": 0, "rental_uris": {"android": "https://dc.lft.to/lastmile_qr_scan", "ios": "https://dc.lft.to/lastmile_qr_scan"}, "fusion_lon": 0.0, "lat": 38.952365, "bike_id": "d12e3dc9e856662e19bb5dc04838c023", "type": "electric_scooter", "is_reserved": 0, "lon": -76.99007983333334}, {"fusion_lat": 0.0, "name": "6bf96173b6c61b9eef4ec562530da453", "is_disabled": 0, "rental_uris": {"android": "https://dc.lft.to/lastmile_qr_scan", "ios": "https://dc.lft.to/lastmile_qr_scan"}, "fusion_lon": 0.0, "lat": 38.922130833333334, "bike_id": "6bf96173b6c61b9eef4ec562530da453", "type": "electric_scooter", "is_reserved": 0, "lon": -77.04253866666667}, {"fusion_lat": 0.0, "name": "71e8f56eb12028a182dc9280f63e2baa", "is_disabled": 0, "rental_uris": {"android": "https://dc.lft.to/lastmile_qr_scan", "ios": "https://dc.lft.to/lastmile_qr_scan"}, "fusion_lon": 0.0, "lat": 38.9073375, "bike_id": "71e8f56eb12028a182dc9280f63e2baa", "type": "electric_scooter", "is_reserved": 0, "lon": -77.01227166666666}, {"fusion_lat": 0.0, "name": "c91a6a503c4eb4f48402a1b8bc5d367a", "is_disabled": 0, "rental_uris": {"android": "https://dc.lft.to/lastmile_qr_scan", "ios": "https://dc.lft.to/lastmile_qr_scan"}, "fusion_lon": 0.0, "lat": 38.903975333333335, "bike_id": "c91a6a503c4eb4f48402a1b8bc5d367a", "type": "electric_scooter", "is_reserved": 0, "lon": -76.99008}, {"fusion_lat": 0.0, "name": "67d0f33cf05d93f11b14fb2d31078642", "is_disabled": 0, "rental_uris": {"android": "https://dc.lft.to/lastmile_qr_scan", "ios": "https://dc.lft.to/lastmile_qr_scan"}, "fusion_lon": 0.0, "lat": 38.860209833333336, "bike_id": "67d0f33cf05d93f11b14fb2d31078642", "type": "electric_bike", "is_reserved": 0, "lon": -77.128084}, {"fusion_lat": 0.0, "name": "f111cf899088e4de372f39e9380650ca", "is_disabled": 0, "rental_uris": {"android": "https://dc.lft.to/lastmile_qr_scan", "ios": "https://dc.lft.to/lastmile_qr_scan"}, "fusion_lon": 0.0, "lat": 38.90411833333334, "bike_id": "f111cf899088e4de372f39e9380650ca", "type": "electric_scooter", "is_reserved": 0, "lon": -76.973308}, {"fusion_lat": 0.0, "name": "ab28892907ab1e953226d382855cd455", "is_disabled": 0, "rental_uris": {"android": "https://dc.lft.to/lastmile_qr_scan", "ios": "https://dc.lft.to/lastmile_qr_scan"}, "fusion_lon": 0.0, "lat": 38.93524766666667, "bike_id": "ab28892907ab1e953226d382855cd455", "type": "electric_scooter", "is_reserved": 0, "lon": -77.03263583333333}, {"fusion_lat": 0.0, "name": "21c6523c8dbaa63219fc70ef04d68a09", "is_disabled": 0, "rental_uris": {"android": "https://dc.lft.to/lastmile_qr_scan", "ios": "https://dc.lft.to/lastmile_qr_scan"}, "fusion_lon": 0.0, "lat": 38.922977, "bike_id": "21c6523c8dbaa63219fc70ef04d68a09", "type": "electric_scooter", "is_reserved": 0, "lon": -77.07310933333333}, {"fusion_lat": 0.0, "name": "2d0fad8a2c26d7019bd3800d96a0d719", "is_disabled": 0, "rental_uris": {"android": "https://dc.lft.to/lastmile_qr_scan", "ios": "https://dc.lft.to/lastmile_qr_scan"}, "fusion_lon": 0.0, "lat": 38.995241, "bike_id": "2d0fad8a2c26d7019bd3800d96a0d719", "type": "electric_bike", "is_reserved": 0, "lon": -77.029024}, {"fusion_lat": 0.0, "name": "046f779275e6da1dae3e43952de5f8be", "is_disabled": 0, "rental_uris": {"android": "https://dc.lft.to/lastmile_qr_scan", "ios": "https://dc.lft.to/lastmile_qr_scan"}, "fusion_lon": 0.0, "lat": 38.89948916666667, "bike_id": "046f779275e6da1dae3e43952de5f8be", "type": "electric_scooter", "is_reserved": 0, "lon": -77.04528633333334}, {"fusion_lat": 0.0, "name": "3e07d953ce355f0746de922cd14ec2b3", "is_disabled": 0, "rental_uris": {"android": "https://dc.lft.to/lastmile_qr_scan", "ios": "https://dc.lft.to/lastmile_qr_scan"}, "fusion_lon": 0.0, "lat": 38.9376355, "bike_id": "3e07d953ce355f0746de922cd14ec2b3", "type": "electric_scooter", "is_reserved": 0, "lon": -77.07602683333333}, {"fusion_lat": 0.0, "name": "67f83b956cfdcffb9c603cf053685479", "is_disabled": 0, "rental_uris": {"android": "https://dc.lft.to/lastmile_qr_scan", "ios": "https://dc.lft.to/lastmile_qr_scan"}, "fusion_lon": 0.0, "lat": 38.90735933333333, "bike_id": "67f83b956cfdcffb9c603cf053685479", "type": "electric_scooter", "is_reserved": 0, "lon": -76.9983285}, {"fusion_lat": 0.0, "name": "e2edccaaadd9b37b15989e198765f1b3", "is_disabled": 0, "rental_uris": {"android": "https://dc.lft.to/lastmile_qr_scan", "ios": "https://dc.lft.to/lastmile_qr_scan"}, "fusion_lon": 0.0, "lat": 38.902908833333335, "bike_id": "e2edccaaadd9b37b15989e198765f1b3", "type": "electric_scooter", "is_reserved": 0, "lon": -76.99032283333334}, {"fusion_lat": 0.0, "name": "39eb77cb080a2cc785597ee51c39d79e", "is_disabled": 0, "rental_uris": {"android": "https://dc.lft.to/lastmile_qr_scan", "ios": "https://dc.lft.to/lastmile_qr_scan"}, "fusion_lon": 0.0, "lat": 38.9165695, "bike_id": "39eb77cb080a2cc785597ee51c39d79e", "type": "electric_scooter", "is_reserved": 0, "lon": -77.02395616666666}, {"fusion_lat": 0.0, "name": "ed0666cd938b7caf8254599c96ecb534", "is_disabled": 0, "rental_uris": {"android": "https://dc.lft.to/lastmile_qr_scan", "ios": "https://dc.lft.to/lastmile_qr_scan"}, "fusion_lon": 0.0, "lat": 38.92423016666667, "bike_id": "ed0666cd938b7caf8254599c96ecb534", "type": "electric_scooter", "is_reserved": 0, "lon": -77.02012066666667}, {"fusion_lat": 0.0, "name": "ef46b8faff73d79119777780750eb787", "is_disabled": 0, "rental_uris": {"android": "https://dc.lft.to/lastmile_qr_scan", "ios": "https://dc.lft.to/lastmile_qr_scan"}, "fusion_lon": 0.0, "lat": 38.8919215, "bike_id": "ef46b8faff73d79119777780750eb787", "type": "electric_scooter", "is_reserved": 0, "lon": -76.99940166666667}, {"fusion_lat": 0.0, "name": "fc71ecfff033344776d64639a46a5ad4", "is_disabled": 0, "rental_uris": {"android": "https://dc.lft.to/lastmile_qr_scan", "ios": "https://dc.lft.to/lastmile_qr_scan"}, "fusion_lon": 0.0, "lat": 38.920316666666665, "bike_id": "fc71ecfff033344776d64639a46a5ad4", "type": "electric_scooter", "is_reserved": 0, "lon": -77.01761966666666}, {"fusion_lat": 0.0, "name": "b00fe8e00dc449552a3a054ee196cd49", "is_disabled": 0, "rental_uris": {"android": "https://dc.lft.to/lastmile_qr_scan", "ios": "https://dc.lft.to/lastmile_qr_scan"}, "fusion_lon": 0.0, "lat": 38.9026735, "bike_id": "b00fe8e00dc449552a3a054ee196cd49", "type": "electric_scooter", "is_reserved": 0, "lon": -77.0435265}, {"fusion_lat": 0.0, "name": "fe96558dca4f1cd4958a787993c82f7f", "is_disabled": 0, "rental_uris": {"android": "https://dc.lft.to/lastmile_qr_scan", "ios": "https://dc.lft.to/lastmile_qr_scan"}, "fusion_lon": 0.0, "lat": 38.931507833333335, "bike_id": "fe96558dca4f1cd4958a787993c82f7f", "type": "electric_scooter", "is_reserved": 0, "lon": -77.07854433333333}, {"fusion_lat": 0.0, "name": "b0b6b80ef576ba3c258d5a1a511eaf53", "is_disabled": 0, "rental_uris": {"android": "https://dc.lft.to/lastmile_qr_scan", "ios": "https://dc.lft.to/lastmile_qr_scan"}, "fusion_lon": 0.0, "lat": 38.95950366666667, "bike_id": "b0b6b80ef576ba3c258d5a1a511eaf53", "type": "electric_bike", "is_reserved": 0, "lon": -77.03057983333333}, {"fusion_lat": 0.0, "name": "746ac996e61affea4ef686482fed9472", "is_disabled": 0, "rental_uris": {"android": "https://dc.lft.to/lastmile_qr_scan", "ios": "https://dc.lft.to/lastmile_qr_scan"}, "fusion_lon": 0.0, "lat": 38.90714666666667, "bike_id": "746ac996e61affea4ef686482fed9472", "type": "electric_scooter", "is_reserved": 0, "lon": -77.04814616666667}, {"fusion_lat": 0.0, "name": "a381867f4e7e2f42c7efd85c27135032", "is_disabled": 0, "rental_uris": {"android": "https://dc.lft.to/lastmile_qr_scan", "ios": "https://dc.lft.to/lastmile_qr_scan"}, "fusion_lon": 0.0, "lat": 38.916794, "bike_id": "a381867f4e7e2f42c7efd85c27135032", "type": "electric_scooter", "is_reserved": 0, "lon": -77.02819916666667}, {"fusion_lat": 0.0, "name": "ac36f5333cf609096d5496c43a375566", "is_disabled": 0, "rental_uris": {"android": "https://dc.lft.to/lastmile_qr_scan", "ios": "https://dc.lft.to/lastmile_qr_scan"}, "fusion_lon": 0.0, "lat": 38.8662915, "bike_id": "ac36f5333cf609096d5496c43a375566", "type": "electric_scooter", "is_reserved": 0, "lon": -76.98712733333333}, {"fusion_lat": 0.0, "name": "4f35e78f8a27f631eb0b32a808e33f84", "is_disabled": 0, "rental_uris": {"android": "https://dc.lft.to/lastmile_qr_scan", "ios": "https://dc.lft.to/lastmile_qr_scan"}, "fusion_lon": 0.0, "lat": 38.91047983333333, "bike_id": "4f35e78f8a27f631eb0b32a808e33f84", "type": "electric_scooter", "is_reserved": 0, "lon": -77.01288716666667}, {"fusion_lat": 0.0, "name": "abd822e045b22fb590aa13018564f985", "is_disabled": 0, "rental_uris": {"android": "https://dc.lft.to/lastmile_qr_scan", "ios": "https://dc.lft.to/lastmile_qr_scan"}, "fusion_lon": 0.0, "lat": 38.905681, "bike_id": "abd822e045b22fb590aa13018564f985", "type": "electric_scooter", "is_reserved": 0, "lon": -77.05134766666667}, {"fusion_lat": 0.0, "name": "92f31a1437cae1628d156dab003fd1bb", "is_disabled": 0, "rental_uris": {"android": "https://dc.lft.to/lastmile_qr_scan", "ios": "https://dc.lft.to/lastmile_qr_scan"}, "fusion_lon": 0.0, "lat": 38.94187466666666, "bike_id": "92f31a1437cae1628d156dab003fd1bb", "type": "electric_scooter", "is_reserved": 0, "lon": -77.02315816666666}, {"fusion_lat": 0.0, "name": "013bf50a9459d1417e5041666a8ddccb", "is_disabled": 0, "rental_uris": {"android": "https://dc.lft.to/lastmile_qr_scan", "ios": "https://dc.lft.to/lastmile_qr_scan"}, "fusion_lon": 0.0, "lat": 38.919231333333336, "bike_id": "013bf50a9459d1417e5041666a8ddccb", "type": "electric_scooter", "is_reserved": 0, "lon": -77.00981516666667}, {"fusion_lat": 0.0, "name": "1df6ec96b28d09da4b5950fcd1867a61", "is_disabled": 0, "rental_uris": {"android": "https://dc.lft.to/lastmile_qr_scan", "ios": "https://dc.lft.to/lastmile_qr_scan"}, "fusion_lon": 0.0, "lat": 38.903775333333336, "bike_id": "1df6ec96b28d09da4b5950fcd1867a61", "type": "electric_scooter", "is_reserved": 0, "lon": -77.03577566666667}, {"fusion_lat": 0.0, "name": "451add9fb7418b0561016c6e9eca55ab", "is_disabled": 0, "rental_uris": {"android": "https://dc.lft.to/lastmile_qr_scan", "ios": "https://dc.lft.to/lastmile_qr_scan"}, "fusion_lon": 0.0, "lat": 38.813401999999996, "bike_id": "451add9fb7418b0561016c6e9eca55ab", "type": "electric_bike", "is_reserved": 0, "lon": -77.050973}, {"fusion_lat": 0.0, "name": "d2663753c26aca43badba4d29ad23fd1", "is_disabled": 0, "rental_uris": {"android": "https://dc.lft.to/lastmile_qr_scan", "ios": "https://dc.lft.to/lastmile_qr_scan"}, "fusion_lon": 0.0, "lat": 38.90012383333333, "bike_id": "d2663753c26aca43badba4d29ad23fd1", "type": "electric_scooter", "is_reserved": 0, "lon": -77.01243183333334}, {"fusion_lat": 0.0, "name": "2c69c2c417e12a705314911e743d1a03", "is_disabled": 0, "rental_uris": {"android": "https://dc.lft.to/lastmile_qr_scan", "ios": "https://dc.lft.to/lastmile_qr_scan"}, "fusion_lon": 0.0, "lat": 38.884219, "bike_id": "2c69c2c417e12a705314911e743d1a03", "type": "electric_scooter", "is_reserved": 0, "lon": -76.99211016666666}, {"fusion_lat": 0.0, "name": "ddca752f95ae62168c43dafe11dcc466", "is_disabled": 0, "rental_uris": {"android": "https://dc.lft.to/lastmile_qr_scan", "ios": "https://dc.lft.to/lastmile_qr_scan"}, "fusion_lon": 0.0, "lat": 38.914821833333335, "bike_id": "ddca752f95ae62168c43dafe11dcc466", "type": "electric_scooter", "is_reserved": 0, "lon": -77.03263}, {"fusion_lat": 0.0, "name": "15112e0a1b1799cbf9f9fde5dcf15582", "is_disabled": 0, "rental_uris": {"android": "https://dc.lft.to/lastmile_qr_scan", "ios": "https://dc.lft.to/lastmile_qr_scan"}, "fusion_lon": 0.0, "lat": 38.895304833333334, "bike_id": "15112e0a1b1799cbf9f9fde5dcf15582", "type": "electric_scooter", "is_reserved": 0, "lon": -77.01131416666666}, {"fusion_lat": 0.0, "name": "9f6d0106f6fc7b6a809dbcd0382813a4", "is_disabled": 0, "rental_uris": {"android": "https://dc.lft.to/lastmile_qr_scan", "ios": "https://dc.lft.to/lastmile_qr_scan"}, "fusion_lon": 0.0, "lat": 38.92373933333333, "bike_id": "9f6d0106f6fc7b6a809dbcd0382813a4", "type": "electric_scooter", "is_reserved": 0, "lon": -77.0352645}, {"fusion_lat": 0.0, "name": "074b5b1461b245c72cc90f7139fc2d94", "is_disabled": 0, "rental_uris": {"android": "https://dc.lft.to/lastmile_qr_scan", "ios": "https://dc.lft.to/lastmile_qr_scan"}, "fusion_lon": 0.0, "lat": 38.9461625, "bike_id": "074b5b1461b245c72cc90f7139fc2d94", "type": "electric_scooter", "is_reserved": 0, "lon": -77.08017733333334}, {"fusion_lat": 0.0, "name": "da4dfcf569d0d5bf021f416a7dd5789c", "is_disabled": 0, "rental_uris": {"android": "https://dc.lft.to/lastmile_qr_scan", "ios": "https://dc.lft.to/lastmile_qr_scan"}, "fusion_lon": 0.0, "lat": 38.936069, "bike_id": "da4dfcf569d0d5bf021f416a7dd5789c", "type": "electric_scooter", "is_reserved": 0, "lon": -77.05890183333334}, {"fusion_lat": 0.0, "name": "63ce66275787844e1656e3a2e1cb32a7", "is_disabled": 0, "rental_uris": {"android": "https://dc.lft.to/lastmile_qr_scan", "ios": "https://dc.lft.to/lastmile_qr_scan"}, "fusion_lon": 0.0, "lat": 38.9411755, "bike_id": "63ce66275787844e1656e3a2e1cb32a7", "type": "electric_scooter", "is_reserved": 0, "lon": -77.02543716666666}, {"fusion_lat": 0.0, "name": "8dd390db3f64ad2406f112c46d98ad12", "is_disabled": 0, "rental_uris": {"android": "https://dc.lft.to/lastmile_qr_scan", "ios": "https://dc.lft.to/lastmile_qr_scan"}, "fusion_lon": 0.0, "lat": 38.962272166666665, "bike_id": "8dd390db3f64ad2406f112c46d98ad12", "type": "electric_bike", "is_reserved": 0, "lon": -77.02628883333334}, {"fusion_lat": 0.0, "name": "704303e1c79dfcc9417672ddf99b03ed", "is_disabled": 0, "rental_uris": {"android": "https://dc.lft.to/lastmile_qr_scan", "ios": "https://dc.lft.to/lastmile_qr_scan"}, "fusion_lon": 0.0, "lat": 38.925438666666665, "bike_id": "704303e1c79dfcc9417672ddf99b03ed", "type": "electric_scooter", "is_reserved": 0, "lon": -77.05110416666666}, {"fusion_lat": 0.0, "name": "66dff1a1530af65e0d358365c8728fa1", "is_disabled": 0, "rental_uris": {"android": "https://dc.lft.to/lastmile_qr_scan", "ios": "https://dc.lft.to/lastmile_qr_scan"}, "fusion_lon": 0.0, "lat": 38.883658, "bike_id": "66dff1a1530af65e0d358365c8728fa1", "type": "electric_scooter", "is_reserved": 0, "lon": -76.94152633333333}, {"fusion_lat": 0.0, "name": "0f815a378bc116b05b977d65d80a1cf7", "is_disabled": 0, "rental_uris": {"android": "https://dc.lft.to/lastmile_qr_scan", "ios": "https://dc.lft.to/lastmile_qr_scan"}, "fusion_lon": 0.0, "lat": 38.9589355, "bike_id": "0f815a378bc116b05b977d65d80a1cf7", "type": "electric_bike", "is_reserved": 0, "lon": -76.924876}, {"fusion_lat": 0.0, "name": "c6f2e3388ccfffb12048a91bda240dcc", "is_disabled": 0, "rental_uris": {"android": "https://dc.lft.to/lastmile_qr_scan", "ios": "https://dc.lft.to/lastmile_qr_scan"}, "fusion_lon": 0.0, "lat": 38.92452633333333, "bike_id": "c6f2e3388ccfffb12048a91bda240dcc", "type": "electric_bike", "is_reserved": 0, "lon": -77.002078}, {"fusion_lat": 0.0, "name": "b05f357629f39721c7c481fdcb3f037e", "is_disabled": 0, "rental_uris": {"android": "https://dc.lft.to/lastmile_qr_scan", "ios": "https://dc.lft.to/lastmile_qr_scan"}, "fusion_lon": 0.0, "lat": 38.92507833333333, "bike_id": "b05f357629f39721c7c481fdcb3f037e", "type": "electric_scooter", "is_reserved": 0, "lon": -77.02327616666666}, {"fusion_lat": 0.0, "name": "32ff7b8fbce712bcb4997eeb70034617", "is_disabled": 0, "rental_uris": {"android": "https://dc.lft.to/lastmile_qr_scan", "ios": "https://dc.lft.to/lastmile_qr_scan"}, "fusion_lon": 0.0, "lat": 38.877119, "bike_id": "32ff7b8fbce712bcb4997eeb70034617", "type": "electric_scooter", "is_reserved": 0, "lon": -77.00326783333334}, {"fusion_lat": 0.0, "name": "4f6914fec64b9be042298cf855c9cf53", "is_disabled": 0, "rental_uris": {"android": "https://dc.lft.to/lastmile_qr_scan", "ios": "https://dc.lft.to/lastmile_qr_scan"}, "fusion_lon": 0.0, "lat": 38.928890833333334, "bike_id": "4f6914fec64b9be042298cf855c9cf53", "type": "electric_scooter", "is_reserved": 0, "lon": -77.0421635}, {"fusion_lat": 0.0, "name": "c6235f8789f4c492f0d1a5d2f1378f9d", "is_disabled": 0, "rental_uris": {"android": "https://dc.lft.to/lastmile_qr_scan", "ios": "https://dc.lft.to/lastmile_qr_scan"}, "fusion_lon": 0.0, "lat": 38.91962383333333, "bike_id": "c6235f8789f4c492f0d1a5d2f1378f9d", "type": "electric_scooter", "is_reserved": 0, "lon": -77.02400283333333}, {"fusion_lat": 0.0, "name": "8c09f8bf8544502ef9d8a53d0342537d", "is_disabled": 0, "rental_uris": {"android": "https://dc.lft.to/lastmile_qr_scan", "ios": "https://dc.lft.to/lastmile_qr_scan"}, "fusion_lon": 0.0, "lat": 38.843577, "bike_id": "8c09f8bf8544502ef9d8a53d0342537d", "type": "electric_bike", "is_reserved": 0, "lon": -76.97825133333333}, {"fusion_lat": 0.0, "name": "f0717f2177a8869f58fbda6e781bcf6d", "is_disabled": 0, "rental_uris": {"android": "https://dc.lft.to/lastmile_qr_scan", "ios": "https://dc.lft.to/lastmile_qr_scan"}, "fusion_lon": 0.0, "lat": 38.9614755, "bike_id": "f0717f2177a8869f58fbda6e781bcf6d", "type": "electric_bike", "is_reserved": 0, "lon": -77.032324}, {"fusion_lat": 0.0, "name": "1ec4e0a7123b925dbe4cd2e469c53346", "is_disabled": 0, "rental_uris": {"android": "https://dc.lft.to/lastmile_qr_scan", "ios": "https://dc.lft.to/lastmile_qr_scan"}, "fusion_lon": 0.0, "lat": 38.923459, "bike_id": "1ec4e0a7123b925dbe4cd2e469c53346", "type": "electric_scooter", "is_reserved": 0, "lon": -77.00187}, {"fusion_lat": 0.0, "name": "bead6c6a45a6d64c88cae9f1e1146fa1", "is_disabled": 0, "rental_uris": {"android": "https://dc.lft.to/lastmile_qr_scan", "ios": "https://dc.lft.to/lastmile_qr_scan"}, "fusion_lon": 0.0, "lat": 38.93924333333333, "bike_id": "bead6c6a45a6d64c88cae9f1e1146fa1", "type": "electric_scooter", "is_reserved": 0, "lon": -77.027983}, {"fusion_lat": 0.0, "name": "c8050fa6f13ecd18012bc62546c4eb0c", "is_disabled": 0, "rental_uris": {"android": "https://dc.lft.to/lastmile_qr_scan", "ios": "https://dc.lft.to/lastmile_qr_scan"}, "fusion_lon": 0.0, "lat": 38.920724666666665, "bike_id": "c8050fa6f13ecd18012bc62546c4eb0c", "type": "electric_scooter", "is_reserved": 0, "lon": -76.99863083333334}, {"fusion_lat": 0.0, "name": "b8a72aa90c43639df93f565d16a56f28", "is_disabled": 0, "rental_uris": {"android": "https://dc.lft.to/lastmile_qr_scan", "ios": "https://dc.lft.to/lastmile_qr_scan"}, "fusion_lon": 0.0, "lat": 38.906713, "bike_id": "b8a72aa90c43639df93f565d16a56f28", "type": "electric_scooter", "is_reserved": 0, "lon": -77.0215265}, {"fusion_lat": 0.0, "name": "3ee489db94025887baa8c9d6277451c4", "is_disabled": 0, "rental_uris": {"android": "https://dc.lft.to/lastmile_qr_scan", "ios": "https://dc.lft.to/lastmile_qr_scan"}, "fusion_lon": 0.0, "lat": 38.91029433333333, "bike_id": "3ee489db94025887baa8c9d6277451c4", "type": "electric_scooter", "is_reserved": 0, "lon": -77.00761583333333}, {"fusion_lat": 0.0, "name": "62459f940f532d9aeb761926501f343b", "is_disabled": 0, "rental_uris": {"android": "https://dc.lft.to/lastmile_qr_scan", "ios": "https://dc.lft.to/lastmile_qr_scan"}, "fusion_lon": 0.0, "lat": 38.88422416666667, "bike_id": "62459f940f532d9aeb761926501f343b", "type": "electric_scooter", "is_reserved": 0, "lon": -77.0196695}, {"fusion_lat": 0.0, "name": "9feba5c1158a2e0276d4dd308c219a95", "is_disabled": 0, "rental_uris": {"android": "https://dc.lft.to/lastmile_qr_scan", "ios": "https://dc.lft.to/lastmile_qr_scan"}, "fusion_lon": 0.0, "lat": 38.997772, "bike_id": "9feba5c1158a2e0276d4dd308c219a95", "type": "electric_bike", "is_reserved": 0, "lon": -77.04714266666667}, {"fusion_lat": 0.0, "name": "b297347a8e15be0c4cf3c25854a6fe7f", "is_disabled": 0, "rental_uris": {"android": "https://dc.lft.to/lastmile_qr_scan", "ios": "https://dc.lft.to/lastmile_qr_scan"}, "fusion_lon": 0.0, "lat": 38.901418666666665, "bike_id": "b297347a8e15be0c4cf3c25854a6fe7f", "type": "electric_scooter", "is_reserved": 0, "lon": -77.03051833333333}, {"fusion_lat": 0.0, "name": "58a8deaa383ba0a1a4cf892a05562ad1", "is_disabled": 0, "rental_uris": {"android": "https://dc.lft.to/lastmile_qr_scan", "ios": "https://dc.lft.to/lastmile_qr_scan"}, "fusion_lon": 0.0, "lat": 38.916570166666666, "bike_id": "58a8deaa383ba0a1a4cf892a05562ad1", "type": "electric_scooter", "is_reserved": 0, "lon": -77.03158566666667}, {"fusion_lat": 0.0, "name": "1259a6d7dc976c3f3fbdb7bee9facac9", "is_disabled": 0, "rental_uris": {"android": "https://dc.lft.to/lastmile_qr_scan", "ios": "https://dc.lft.to/lastmile_qr_scan"}, "fusion_lon": 0.0, "lat": 38.926429166666665, "bike_id": "1259a6d7dc976c3f3fbdb7bee9facac9", "type": "electric_scooter", "is_reserved": 0, "lon": -77.03227966666667}, {"fusion_lat": 0.0, "name": "784e79c2101a5bebf574a334246dd27d", "is_disabled": 0, "rental_uris": {"android": "https://dc.lft.to/lastmile_qr_scan", "ios": "https://dc.lft.to/lastmile_qr_scan"}, "fusion_lon": 0.0, "lat": 38.924142333333336, "bike_id": "784e79c2101a5bebf574a334246dd27d", "type": "electric_scooter", "is_reserved": 0, "lon": -77.02103733333334}, {"fusion_lat": 0.0, "name": "9e721ce8a5af2ce44ad0df59809cf2d4", "is_disabled": 0, "rental_uris": {"android": "https://dc.lft.to/lastmile_qr_scan", "ios": "https://dc.lft.to/lastmile_qr_scan"}, "fusion_lon": 0.0, "lat": 38.92174383333333, "bike_id": "9e721ce8a5af2ce44ad0df59809cf2d4", "type": "electric_scooter", "is_reserved": 0, "lon": -77.04026866666666}, {"fusion_lat": 0.0, "name": "488fd0e1d6223c360fa02e3d4fbc8369", "is_disabled": 0, "rental_uris": {"android": "https://dc.lft.to/lastmile_qr_scan", "ios": "https://dc.lft.to/lastmile_qr_scan"}, "fusion_lon": 0.0, "lat": 38.93767866666666, "bike_id": "488fd0e1d6223c360fa02e3d4fbc8369", "type": "electric_scooter", "is_reserved": 0, "lon": -77.020692}, {"fusion_lat": 0.0, "name": "998861141c48d987738ed5f2e95be161", "is_disabled": 0, "rental_uris": {"android": "https://dc.lft.to/lastmile_qr_scan", "ios": "https://dc.lft.to/lastmile_qr_scan"}, "fusion_lon": 0.0, "lat": 38.93117066666667, "bike_id": "998861141c48d987738ed5f2e95be161", "type": "electric_scooter", "is_reserved": 0, "lon": -77.02124383333333}, {"fusion_lat": 0.0, "name": "04a55e37b87ec5bdcb9f28c049423259", "is_disabled": 0, "rental_uris": {"android": "https://dc.lft.to/lastmile_qr_scan", "ios": "https://dc.lft.to/lastmile_qr_scan"}, "fusion_lon": 0.0, "lat": 38.941320833333336, "bike_id": "04a55e37b87ec5bdcb9f28c049423259", "type": "electric_scooter", "is_reserved": 0, "lon": -77.026521}, {"fusion_lat": 0.0, "name": "10c639c4ba4818ad4be02871a748b985", "is_disabled": 0, "rental_uris": {"android": "https://dc.lft.to/lastmile_qr_scan", "ios": "https://dc.lft.to/lastmile_qr_scan"}, "fusion_lon": 0.0, "lat": 38.90520266666667, "bike_id": "10c639c4ba4818ad4be02871a748b985", "type": "electric_scooter", "is_reserved": 0, "lon": -77.06503783333334}, {"fusion_lat": 0.0, "name": "1e7295b76b7e78fbf4443e39c3f17701", "is_disabled": 0, "rental_uris": {"android": "https://dc.lft.to/lastmile_qr_scan", "ios": "https://dc.lft.to/lastmile_qr_scan"}, "fusion_lon": 0.0, "lat": 38.80767866666667, "bike_id": "1e7295b76b7e78fbf4443e39c3f17701", "type": "electric_bike", "is_reserved": 0, "lon": -77.094693}, {"fusion_lat": 0.0, "name": "fb9a09b17cb83223e4b773c875ea0bb7", "is_disabled": 0, "rental_uris": {"android": "https://dc.lft.to/lastmile_qr_scan", "ios": "https://dc.lft.to/lastmile_qr_scan"}, "fusion_lon": 0.0, "lat": 38.88116083333333, "bike_id": "fb9a09b17cb83223e4b773c875ea0bb7", "type": "electric_scooter", "is_reserved": 0, "lon": -77.01644166666667}, {"fusion_lat": 0.0, "name": "a031ea60737a47363e51ce77febe93d1", "is_disabled": 0, "rental_uris": {"android": "https://dc.lft.to/lastmile_qr_scan", "ios": "https://dc.lft.to/lastmile_qr_scan"}, "fusion_lon": 0.0, "lat": 38.902911833333334, "bike_id": "a031ea60737a47363e51ce77febe93d1", "type": "electric_scooter", "is_reserved": 0, "lon": -76.976367}, {"fusion_lat": 0.0, "name": "80d74908ed3c5fe8cbda4f21ee24238b", "is_disabled": 0, "rental_uris": {"android": "https://dc.lft.to/lastmile_qr_scan", "ios": "https://dc.lft.to/lastmile_qr_scan"}, "fusion_lon": 0.0, "lat": 38.90302783333333, "bike_id": "80d74908ed3c5fe8cbda4f21ee24238b", "type": "electric_scooter", "is_reserved": 0, "lon": -76.97510283333334}, {"fusion_lat": 0.0, "name": "911534a36d105bf95aa9f33a7b7a5eb6", "is_disabled": 0, "rental_uris": {"android": "https://dc.lft.to/lastmile_qr_scan", "ios": "https://dc.lft.to/lastmile_qr_scan"}, "fusion_lon": 0.0, "lat": 38.91527683333333, "bike_id": "911534a36d105bf95aa9f33a7b7a5eb6", "type": "electric_scooter", "is_reserved": 0, "lon": -77.07272983333333}, {"fusion_lat": 0.0, "name": "e973cb2f1be0be248be5eb25a6a550ae", "is_disabled": 0, "rental_uris": {"android": "https://dc.lft.to/lastmile_qr_scan", "ios": "https://dc.lft.to/lastmile_qr_scan"}, "fusion_lon": 0.0, "lat": 38.90508916666667, "bike_id": "e973cb2f1be0be248be5eb25a6a550ae", "type": "electric_scooter", "is_reserved": 0, "lon": -77.06432833333334}, {"fusion_lat": 0.0, "name": "ca402acfc349084d5c1c870efc24914f", "is_disabled": 0, "rental_uris": {"android": "https://dc.lft.to/lastmile_qr_scan", "ios": "https://dc.lft.to/lastmile_qr_scan"}, "fusion_lon": 0.0, "lat": 38.93268466666667, "bike_id": "ca402acfc349084d5c1c870efc24914f", "type": "electric_scooter", "is_reserved": 0, "lon": -77.01916466666667}, {"fusion_lat": 0.0, "name": "5066dad5019f2dddaf3f0c14f3c19a59", "is_disabled": 0, "rental_uris": {"android": "https://dc.lft.to/lastmile_qr_scan", "ios": "https://dc.lft.to/lastmile_qr_scan"}, "fusion_lon": 0.0, "lat": 38.921073, "bike_id": "5066dad5019f2dddaf3f0c14f3c19a59", "type": "electric_scooter", "is_reserved": 0, "lon": -77.01815066666667}, {"fusion_lat": 0.0, "name": "ec78b576c4766037c10bed1d3575b701", "is_disabled": 0, "rental_uris": {"android": "https://dc.lft.to/lastmile_qr_scan", "ios": "https://dc.lft.to/lastmile_qr_scan"}, "fusion_lon": 0.0, "lat": 38.909357166666666, "bike_id": "ec78b576c4766037c10bed1d3575b701", "type": "electric_scooter", "is_reserved": 0, "lon": -77.062696}, {"fusion_lat": 0.0, "name": "af244e68840863de9ca536401bbbb379", "is_disabled": 0, "rental_uris": {"android": "https://dc.lft.to/lastmile_qr_scan", "ios": "https://dc.lft.to/lastmile_qr_scan"}, "fusion_lon": 0.0, "lat": 38.896707666666664, "bike_id": "af244e68840863de9ca536401bbbb379", "type": "electric_scooter", "is_reserved": 0, "lon": -76.9320745}, {"fusion_lat": 0.0, "name": "47179608bc001daeb1c327b6f2368f2a", "is_disabled": 0, "rental_uris": {"android": "https://dc.lft.to/lastmile_qr_scan", "ios": "https://dc.lft.to/lastmile_qr_scan"}, "fusion_lon": 0.0, "lat": 38.93969333333333, "bike_id": "47179608bc001daeb1c327b6f2368f2a", "type": "electric_scooter", "is_reserved": 0, "lon": -77.03285266666667}, {"fusion_lat": 0.0, "name": "82c931e64c78aebec51618ed693baabe", "is_disabled": 0, "rental_uris": {"android": "https://dc.lft.to/lastmile_qr_scan", "ios": "https://dc.lft.to/lastmile_qr_scan"}, "fusion_lon": 0.0, "lat": 38.9348735, "bike_id": "82c931e64c78aebec51618ed693baabe", "type": "electric_scooter", "is_reserved": 0, "lon": -77.045279}, {"fusion_lat": 0.0, "name": "37b2004b3c9cde111ef5448a9518134f", "is_disabled": 0, "rental_uris": {"android": "https://dc.lft.to/lastmile_qr_scan", "ios": "https://dc.lft.to/lastmile_qr_scan"}, "fusion_lon": 0.0, "lat": 38.936567333333336, "bike_id": "37b2004b3c9cde111ef5448a9518134f", "type": "electric_scooter", "is_reserved": 0, "lon": -77.03658933333334}, {"fusion_lat": 0.0, "name": "2c2150f5248e4645cf3cbdbca90c92c8", "is_disabled": 0, "rental_uris": {"android": "https://dc.lft.to/lastmile_qr_scan", "ios": "https://dc.lft.to/lastmile_qr_scan"}, "fusion_lon": 0.0, "lat": 38.89609083333333, "bike_id": "2c2150f5248e4645cf3cbdbca90c92c8", "type": "electric_scooter", "is_reserved": 0, "lon": -77.04973316666667}, {"fusion_lat": 0.0, "name": "c076e9cc2ae4f78087f34185d383b9eb", "is_disabled": 0, "rental_uris": {"android": "https://dc.lft.to/lastmile_qr_scan", "ios": "https://dc.lft.to/lastmile_qr_scan"}, "fusion_lon": 0.0, "lat": 38.92496366666666, "bike_id": "c076e9cc2ae4f78087f34185d383b9eb", "type": "electric_bike", "is_reserved": 0, "lon": -77.233421}, {"fusion_lat": 0.0, "name": "f3bd437cd4132c449e4ff88e444de9f4", "is_disabled": 0, "rental_uris": {"android": "https://dc.lft.to/lastmile_qr_scan", "ios": "https://dc.lft.to/lastmile_qr_scan"}, "fusion_lon": 0.0, "lat": 38.90767533333333, "bike_id": "f3bd437cd4132c449e4ff88e444de9f4", "type": "electric_scooter", "is_reserved": 0, "lon": -77.00099416666667}, {"fusion_lat": 0.0, "name": "6c15db2673a7fd841acf3fa134438052", "is_disabled": 0, "rental_uris": {"android": "https://dc.lft.to/lastmile_qr_scan", "ios": "https://dc.lft.to/lastmile_qr_scan"}, "fusion_lon": 0.0, "lat": 38.904391333333336, "bike_id": "6c15db2673a7fd841acf3fa134438052", "type": "electric_scooter", "is_reserved": 0, "lon": -77.05037333333334}, {"fusion_lat": 0.0, "name": "f74eddf11f5a5a17acc725830c14b039", "is_disabled": 0, "rental_uris": {"android": "https://dc.lft.to/lastmile_qr_scan", "ios": "https://dc.lft.to/lastmile_qr_scan"}, "fusion_lon": 0.0, "lat": 38.915237166666664, "bike_id": "f74eddf11f5a5a17acc725830c14b039", "type": "electric_scooter", "is_reserved": 0, "lon": -77.01325566666667}, {"fusion_lat": 0.0, "name": "a34086379c4350739f8c6bd074d15e39", "is_disabled": 0, "rental_uris": {"android": "https://dc.lft.to/lastmile_qr_scan", "ios": "https://dc.lft.to/lastmile_qr_scan"}, "fusion_lon": 0.0, "lat": 38.924113, "bike_id": "a34086379c4350739f8c6bd074d15e39", "type": "electric_bike", "is_reserved": 0, "lon": -77.050425}, {"fusion_lat": 0.0, "name": "faf2e1da5c5fda71e96211e31469c12b", "is_disabled": 0, "rental_uris": {"android": "https://dc.lft.to/lastmile_qr_scan", "ios": "https://dc.lft.to/lastmile_qr_scan"}, "fusion_lon": 0.0, "lat": 38.91497733333333, "bike_id": "faf2e1da5c5fda71e96211e31469c12b", "type": "electric_scooter", "is_reserved": 0, "lon": -77.024104}, {"fusion_lat": 0.0, "name": "40d30442b204f6da137a6dc5aa020a42", "is_disabled": 0, "rental_uris": {"android": "https://dc.lft.to/lastmile_qr_scan", "ios": "https://dc.lft.to/lastmile_qr_scan"}, "fusion_lon": 0.0, "lat": 38.88505583333333, "bike_id": "40d30442b204f6da137a6dc5aa020a42", "type": "electric_scooter", "is_reserved": 0, "lon": -77.00064033333334}, {"fusion_lat": 0.0, "name": "ea8837b0e26a2c729937ec1e77dfb737", "is_disabled": 0, "rental_uris": {"android": "https://dc.lft.to/lastmile_qr_scan", "ios": "https://dc.lft.to/lastmile_qr_scan"}, "fusion_lon": 0.0, "lat": 38.935337, "bike_id": "ea8837b0e26a2c729937ec1e77dfb737", "type": "electric_scooter", "is_reserved": 0, "lon": -77.02348666666667}, {"fusion_lat": 0.0, "name": "9f9c980bae440d8765a497927eca9d07", "is_disabled": 0, "rental_uris": {"android": "https://dc.lft.to/lastmile_qr_scan", "ios": "https://dc.lft.to/lastmile_qr_scan"}, "fusion_lon": 0.0, "lat": 38.953123, "bike_id": "9f9c980bae440d8765a497927eca9d07", "type": "electric_scooter", "is_reserved": 0, "lon": -77.022494}, {"fusion_lat": 0.0, "name": "023b4e69cc9726804bddf05086c44611", "is_disabled": 0, "rental_uris": {"android": "https://dc.lft.to/lastmile_qr_scan", "ios": "https://dc.lft.to/lastmile_qr_scan"}, "fusion_lon": 0.0, "lat": 38.92742233333333, "bike_id": "023b4e69cc9726804bddf05086c44611", "type": "electric_bike", "is_reserved": 0, "lon": -77.02498266666667}, {"fusion_lat": 0.0, "name": "e36bf9b85ea50c8c1d3947e7377303fb", "is_disabled": 0, "rental_uris": {"android": "https://dc.lft.to/lastmile_qr_scan", "ios": "https://dc.lft.to/lastmile_qr_scan"}, "fusion_lon": 0.0, "lat": 38.92122966666667, "bike_id": "e36bf9b85ea50c8c1d3947e7377303fb", "type": "electric_scooter", "is_reserved": 0, "lon": -77.02082766666666}, {"fusion_lat": 0.0, "name": "5b549f255c80aabbefd083b338d2843e", "is_disabled": 0, "rental_uris": {"android": "https://dc.lft.to/lastmile_qr_scan", "ios": "https://dc.lft.to/lastmile_qr_scan"}, "fusion_lon": 0.0, "lat": 38.9922665, "bike_id": "5b549f255c80aabbefd083b338d2843e", "type": "electric_bike", "is_reserved": 0, "lon": -76.94414466666667}, {"fusion_lat": 0.0, "name": "5d559d32fbf753292f06b0964fca3d54", "is_disabled": 0, "rental_uris": {"android": "https://dc.lft.to/lastmile_qr_scan", "ios": "https://dc.lft.to/lastmile_qr_scan"}, "fusion_lon": 0.0, "lat": 38.93027466666667, "bike_id": "5d559d32fbf753292f06b0964fca3d54", "type": "electric_scooter", "is_reserved": 0, "lon": -77.03794466666666}, {"fusion_lat": 0.0, "name": "4f0cdf309cf3b17061ebeb10d05d4339", "is_disabled": 0, "rental_uris": {"android": "https://dc.lft.to/lastmile_qr_scan", "ios": "https://dc.lft.to/lastmile_qr_scan"}, "fusion_lon": 0.0, "lat": 38.94517866666666, "bike_id": "4f0cdf309cf3b17061ebeb10d05d4339", "type": "electric_bike", "is_reserved": 0, "lon": -77.00679116666667}, {"fusion_lat": 0.0, "name": "7e8935454fc74dce128a2d00556ce092", "is_disabled": 0, "rental_uris": {"android": "https://dc.lft.to/lastmile_qr_scan", "ios": "https://dc.lft.to/lastmile_qr_scan"}, "fusion_lon": 0.0, "lat": 38.90656666666667, "bike_id": "7e8935454fc74dce128a2d00556ce092", "type": "electric_scooter", "is_reserved": 0, "lon": -77.029566}, {"fusion_lat": 0.0, "name": "fb5f142298b5154148ff739bb0ebae06", "is_disabled": 0, "rental_uris": {"android": "https://dc.lft.to/lastmile_qr_scan", "ios": "https://dc.lft.to/lastmile_qr_scan"}, "fusion_lon": 0.0, "lat": 38.8711205, "bike_id": "fb5f142298b5154148ff739bb0ebae06", "type": "electric_scooter", "is_reserved": 0, "lon": -76.990295}, {"fusion_lat": 0.0, "name": "83e3e7a60ee2d7e2108f4e4800bc3423", "is_disabled": 0, "rental_uris": {"android": "https://dc.lft.to/lastmile_qr_scan", "ios": "https://dc.lft.to/lastmile_qr_scan"}, "fusion_lon": 0.0, "lat": 38.94295283333334, "bike_id": "83e3e7a60ee2d7e2108f4e4800bc3423", "type": "electric_scooter", "is_reserved": 0, "lon": -77.07702733333333}, {"fusion_lat": 0.0, "name": "e3c435906462dd5bcd5a1492b78779a0", "is_disabled": 0, "rental_uris": {"android": "https://dc.lft.to/lastmile_qr_scan", "ios": "https://dc.lft.to/lastmile_qr_scan"}, "fusion_lon": 0.0, "lat": 38.8952095, "bike_id": "e3c435906462dd5bcd5a1492b78779a0", "type": "electric_scooter", "is_reserved": 0, "lon": -76.980855}, {"fusion_lat": 0.0, "name": "048ae314c13fbdae57b8384bbf3dcd2b", "is_disabled": 0, "rental_uris": {"android": "https://dc.lft.to/lastmile_qr_scan", "ios": "https://dc.lft.to/lastmile_qr_scan"}, "fusion_lon": 0.0, "lat": 38.935494166666665, "bike_id": "048ae314c13fbdae57b8384bbf3dcd2b", "type": "electric_scooter", "is_reserved": 0, "lon": -77.02221666666667}, {"fusion_lat": 0.0, "name": "e64093aa7656386dd8c9fdcd2175fd38", "is_disabled": 0, "rental_uris": {"android": "https://dc.lft.to/lastmile_qr_scan", "ios": "https://dc.lft.to/lastmile_qr_scan"}, "fusion_lon": 0.0, "lat": 38.9534755, "bike_id": "e64093aa7656386dd8c9fdcd2175fd38", "type": "electric_scooter", "is_reserved": 0, "lon": -77.07947883333334}, {"fusion_lat": 0.0, "name": "76c4e9d681a21ba30b9e419167d2edb2", "is_disabled": 0, "rental_uris": {"android": "https://dc.lft.to/lastmile_qr_scan", "ios": "https://dc.lft.to/lastmile_qr_scan"}, "fusion_lon": 0.0, "lat": 38.90804716666667, "bike_id": "76c4e9d681a21ba30b9e419167d2edb2", "type": "electric_bike", "is_reserved": 0, "lon": -77.01880483333333}, {"fusion_lat": 0.0, "name": "0f4350bb0d5933ba690ff868fdb89d6f", "is_disabled": 0, "rental_uris": {"android": "https://dc.lft.to/lastmile_qr_scan", "ios": "https://dc.lft.to/lastmile_qr_scan"}, "fusion_lon": 0.0, "lat": 38.911169, "bike_id": "0f4350bb0d5933ba690ff868fdb89d6f", "type": "electric_scooter", "is_reserved": 0, "lon": -76.99767366666667}, {"fusion_lat": 0.0, "name": "afea57ca2b7fcc6929e195578785b526", "is_disabled": 0, "rental_uris": {"android": "https://dc.lft.to/lastmile_qr_scan", "ios": "https://dc.lft.to/lastmile_qr_scan"}, "fusion_lon": 0.0, "lat": 38.916648333333335, "bike_id": "afea57ca2b7fcc6929e195578785b526", "type": "electric_bike", "is_reserved": 0, "lon": -76.982212}, {"fusion_lat": 0.0, "name": "2b49d7807191f4df92a6ae594f80ab35", "is_disabled": 0, "rental_uris": {"android": "https://dc.lft.to/lastmile_qr_scan", "ios": "https://dc.lft.to/lastmile_qr_scan"}, "fusion_lon": 0.0, "lat": 38.9306135, "bike_id": "2b49d7807191f4df92a6ae594f80ab35", "type": "electric_scooter", "is_reserved": 0, "lon": -77.03951633333334}, {"fusion_lat": 0.0, "name": "77b4f3db7222603343b45935ceda869c", "is_disabled": 0, "rental_uris": {"android": "https://dc.lft.to/lastmile_qr_scan", "ios": "https://dc.lft.to/lastmile_qr_scan"}, "fusion_lon": 0.0, "lat": 38.94982366666667, "bike_id": "77b4f3db7222603343b45935ceda869c", "type": "electric_scooter", "is_reserved": 0, "lon": -77.02699616666666}, {"fusion_lat": 0.0, "name": "b24e409de8779d1f26417112a76839f6", "is_disabled": 0, "rental_uris": {"android": "https://dc.lft.to/lastmile_qr_scan", "ios": "https://dc.lft.to/lastmile_qr_scan"}, "fusion_lon": 0.0, "lat": 38.949805166666664, "bike_id": "b24e409de8779d1f26417112a76839f6", "type": "electric_scooter", "is_reserved": 0, "lon": -77.02698}, {"fusion_lat": 0.0, "name": "0fa5d544fb301543fd48da68b9e80a22", "is_disabled": 0, "rental_uris": {"android": "https://dc.lft.to/lastmile_qr_scan", "ios": "https://dc.lft.to/lastmile_qr_scan"}, "fusion_lon": 0.0, "lat": 38.9254645, "bike_id": "0fa5d544fb301543fd48da68b9e80a22", "type": "electric_scooter", "is_reserved": 0, "lon": -77.051185}, {"fusion_lat": 0.0, "name": "d81c87732e0f42005690d118ebcbd3a4", "is_disabled": 0, "rental_uris": {"android": "https://dc.lft.to/lastmile_qr_scan", "ios": "https://dc.lft.to/lastmile_qr_scan"}, "fusion_lon": 0.0, "lat": 38.89226166666667, "bike_id": "d81c87732e0f42005690d118ebcbd3a4", "type": "electric_scooter", "is_reserved": 0, "lon": -77.01494383333333}, {"fusion_lat": 0.0, "name": "8f202c62c044d2be2d7130e29c0ec15e", "is_disabled": 0, "rental_uris": {"android": "https://dc.lft.to/lastmile_qr_scan", "ios": "https://dc.lft.to/lastmile_qr_scan"}, "fusion_lon": 0.0, "lat": 38.93388083333333, "bike_id": "8f202c62c044d2be2d7130e29c0ec15e", "type": "electric_scooter", "is_reserved": 0, "lon": -77.03288433333333}, {"fusion_lat": 0.0, "name": "0c8397bfe046fde19bdbbe16f9cebd50", "is_disabled": 0, "rental_uris": {"android": "https://dc.lft.to/lastmile_qr_scan", "ios": "https://dc.lft.to/lastmile_qr_scan"}, "fusion_lon": 0.0, "lat": 38.9573505, "bike_id": "0c8397bfe046fde19bdbbe16f9cebd50", "type": "electric_scooter", "is_reserved": 0, "lon": -77.0240435}, {"fusion_lat": 0.0, "name": "88147a2a96e63da08ca86f87e1d34178", "is_disabled": 0, "rental_uris": {"android": "https://dc.lft.to/lastmile_qr_scan", "ios": "https://dc.lft.to/lastmile_qr_scan"}, "fusion_lon": 0.0, "lat": 38.875734666666666, "bike_id": "88147a2a96e63da08ca86f87e1d34178", "type": "electric_scooter", "is_reserved": 0, "lon": -77.0073465}, {"fusion_lat": 0.0, "name": "6447823060f08bc42bad24f644ba802d", "is_disabled": 0, "rental_uris": {"android": "https://dc.lft.to/lastmile_qr_scan", "ios": "https://dc.lft.to/lastmile_qr_scan"}, "fusion_lon": 0.0, "lat": 38.915564333333336, "bike_id": "6447823060f08bc42bad24f644ba802d", "type": "electric_scooter", "is_reserved": 0, "lon": -77.03242066666667}, {"fusion_lat": 0.0, "name": "90bd10cb33ea398a7add69b991de3d36", "is_disabled": 0, "rental_uris": {"android": "https://dc.lft.to/lastmile_qr_scan", "ios": "https://dc.lft.to/lastmile_qr_scan"},