{"data": {"bikes": [{"rental_uris": {"ios": "https://dc.lft.to/lastmile_qr_scan", "android": "https://dc.lft.to/lastmile_qr_scan"}, "lon": -76.99676683333334, "type": "electric_scooter", "fusion_lat": 0.0, "lat": 38.910122, "name": "ed8cfd6ad2e30ae91687fa4dc0ab19dc", "fusion_lon": 0.0, "bike_id": "ed8cfd6ad2e30ae91687fa4dc0ab19dc", "is_disabled": 0, "is_reserved": 0}, {"rental_uris": {"ios": "https://dc.lft.to/lastmile_qr_scan", "android": "https://dc.lft.to/lastmile_qr_scan"}, "lon": -77.0258195, "type": "electric_scooter", "fusion_lat": 0.0, "lat": 38.8924515, "name": "cd8eb83e0b808a0c95bae95bfcc2c935", "fusion_lon": 0.0, "bike_id": "cd8eb83e0b808a0c95bae95bfcc2c935", "is_disabled": 0, "is_reserved": 0}, {"rental_uris": {"ios": "https://dc.lft.to/lastmile_qr_scan", "android": "https://dc.lft.to/lastmile_qr_scan"}, "lon": -76.99558883333333, "type": "electric_scooter", "fusion_lat": 0.0, "lat": 38.928634833333334, "name": "f3bbcc10cdf7883737ae4f1007e849a1", "fusion_lon": 0.0, "bike_id": "f3bbcc10cdf7883737ae4f1007e849a1", "is_disabled": 0, "is_reserved": 0}, {"rental_uris": {"ios": "https://dc.lft.to/lastmile_qr_scan", "android": "https://dc.lft.to/lastmile_qr_scan"}, "lon": -76.938668, "type": "electric_scooter", "fusion_lat": 0.0, "lat": 38.900838, "name": "f8c811479fd6b59a920bbd2d82143810", "fusion_lon": 0.0, "bike_id": "f8c811479fd6b59a920bbd2d82143810", "is_disabled": 0, "is_reserved": 0}, {"rental_uris": {"ios": "https://dc.lft.to/lastmile_qr_scan", "android": "https://dc.lft.to/lastmile_qr_scan"}, "lon": -77.01188666666667, "type": "electric_scooter", "fusion_lat": 0.0, "lat": 38.900158, "name": "abbe8d52f3475d2eb4e12e17237a2fa0", "fusion_lon": 0.0, "bike_id": "abbe8d52f3475d2eb4e12e17237a2fa0", "is_disabled": 0, "is_reserved": 0}, {"rental_uris": {"ios": "https://dc.lft.to/lastmile_qr_scan", "android": "https://dc.lft.to/lastmile_qr_scan"}, "lon": -77.03724683333333, "type": "electric_scooter", "fusion_lat": 0.0, "lat": 38.911144666666665, "name": "76fae358d68b3a856810ced2a0155eab", "fusion_lon": 0.0, "bike_id": "76fae358d68b3a856810ced2a0155eab", "is_disabled": 0, "is_reserved": 0}, {"rental_uris": {"ios": "https://dc.lft.to/lastmile_qr_scan", "android": "https://dc.lft.to/lastmile_qr_scan"}, "lon": -77.02688083333334, "type": "electric_scooter", "fusion_lat": 0.0, "lat": 38.89211316666667, "name": "b2729d1baf5970132a8bd2542598bc56", "fusion_lon": 0.0, "bike_id": "b2729d1baf5970132a8bd2542598bc56", "is_disabled": 0, "is_reserved": 0}, {"rental_uris": {"ios": "https://dc.lft.to/lastmile_qr_scan", "android": "https://dc.lft.to/lastmile_qr_scan"}, "lon": -77.0295045, "type": "electric_scooter", "fusion_lat": 0.0, "lat": 38.905009166666666, "name": "94e7b8fe2139dc3dbcff82d92c26d6f5", "fusion_lon": 0.0, "bike_id": "94e7b8fe2139dc3dbcff82d92c26d6f5", "is_disabled": 0, "is_reserved": 0}, {"rental_uris": {"ios": "https://dc.lft.to/lastmile_qr_scan", "android": "https://dc.lft.to/lastmile_qr_scan"}, "lon": -77.00647183333334, "type": "electric_scooter", "fusion_lat": 0.0, "lat": 38.9054715, "name": "b9d525b5ebe682cb91db580f805fc8e8", "fusion_lon": 0.0, "bike_id": "b9d525b5ebe682cb91db580f805fc8e8", "is_disabled": 0, "is_reserved": 0}, {"rental_uris": {"ios": "https://dc.lft.to/lastmile_qr_scan", "android": "https://dc.lft.to/lastmile_qr_scan"}, "lon": -77.04937566666666, "type": "electric_scooter", "fusion_lat": 0.0, "lat": 38.900658, "name": "8cd5ae07c27bf04595c21d1de4522505", "fusion_lon": 0.0, "bike_id": "8cd5ae07c27bf04595c21d1de4522505", "is_disabled": 0, "is_reserved": 0}, {"rental_uris": {"ios": "https://dc.lft.to/lastmile_qr_scan", "android": "https://dc.lft.to/lastmile_qr_scan"}, "lon": -77.00890933333334, "type": "electric_scooter", "fusion_lat": 0.0, "lat": 38.90511216666667, "name": "46c23a791ef567a6e93d41547038f7e2", "fusion_lon": 0.0, "bike_id": "46c23a791ef567a6e93d41547038f7e2", "is_disabled": 0, "is_reserved": 0}, {"rental_uris": {"ios": "https://dc.lft.to/lastmile_qr_scan", "android": "https://dc.lft.to/lastmile_qr_scan"}, "lon": -76.9518455, "type": "electric_scooter", "fusion_lat": 0.0, "lat": 38.89130333333333, "name": "095f0f47f69aeac8a7ca4f72c9d62c10", "fusion_lon": 0.0, "bike_id": "095f0f47f69aeac8a7ca4f72c9d62c10", "is_disabled": 0, "is_reserved": 0}, {"rental_uris": {"ios": "https://dc.lft.to/lastmile_qr_scan", "android": "https://dc.lft.to/lastmile_qr_scan"}, "lon": -77.03837766666666, "type": "electric_scooter", "fusion_lat": 0.0, "lat": 38.907508, "name": "87f681125a32f3ef2d6c2043a5cb4ae9", "fusion_lon": 0.0, "bike_id": "87f681125a32f3ef2d6c2043a5cb4ae9", "is_disabled": 0, "is_reserved": 0}, {"rental_uris": {"ios": "https://dc.lft.to/lastmile_qr_scan", "android": "https://dc.lft.to/lastmile_qr_scan"}, "lon": -77.0158975, "type": "electric_scooter", "fusion_lat": 0.0, "lat": 38.95760416666667, "name": "7f94b7952fb0898644989139bceb5d0c", "fusion_lon": 0.0, "bike_id": "7f94b7952fb0898644989139bceb5d0c", "is_disabled": 0, "is_reserved": 0}, {"rental_uris": {"ios": "https://dc.lft.to/lastmile_qr_scan", "android": "https://dc.lft.to/lastmile_qr_scan"}, "lon": -77.02694716666667, "type": "electric_scooter", "fusion_lat": 0.0, "lat": 38.90678616666667, "name": "7a0a628773bf47459e89e34f7a0caa53", "fusion_lon": 0.0, "bike_id": "7a0a628773bf47459e89e34f7a0caa53", "is_disabled": 0, "is_reserved": 0}, {"rental_uris": {"ios": "https://dc.lft.to/lastmile_qr_scan", "android": "https://dc.lft.to/lastmile_qr_scan"}, "lon": -76.94896933333334, "type": "electric_scooter", "fusion_lat": 0.0, "lat": 38.895492833333336, "name": "c3761b7f2796a0a50afbf58e51067a14", "fusion_lon": 0.0, "bike_id": "c3761b7f2796a0a50afbf58e51067a14", "is_disabled": 0, "is_reserved": 0}, {"rental_uris": {"ios": "https://dc.lft.to/lastmile_qr_scan", "android": "https://dc.lft.to/lastmile_qr_scan"}, "lon": -77.05504133333334, "type": "electric_scooter", "fusion_lat": 0.0, "lat": 38.90007666666666, "name": "a5d7538a6233ad4eb8c35ff879b1a662", "fusion_lon": 0.0, "bike_id": "a5d7538a6233ad4eb8c35ff879b1a662", "is_disabled": 0, "is_reserved": 0}, {"rental_uris": {"ios": "https://dc.lft.to/lastmile_qr_scan", "android": "https://dc.lft.to/lastmile_qr_scan"}, "lon": -77.029333, "type": "electric_scooter", "fusion_lat": 0.0, "lat": 38.933177666666666, "name": "6496d48fbd277e08203d4dd24c4b405e", "fusion_lon": 0.0, "bike_id": "6496d48fbd277e08203d4dd24c4b405e", "is_disabled": 0, "is_reserved": 0}, {"rental_uris": {"ios": "https://dc.lft.to/lastmile_qr_scan", "android": "https://dc.lft.to/lastmile_qr_scan"}, "lon": -77.01648933333334, "type": "electric_scooter", "fusion_lat": 0.0, "lat": 38.92936266666667, "name": "5d63fb84136a0d5f82e9b7d1c646d6b0", "fusion_lon": 0.0, "bike_id": "5d63fb84136a0d5f82e9b7d1c646d6b0", "is_disabled": 0, "is_reserved": 0}, {"rental_uris": {"ios": "https://dc.lft.to/lastmile_qr_scan", "android": "https://dc.lft.to/lastmile_qr_scan"}, "lon": -77.04036, "type": "electric_scooter", "fusion_lat": 0.0, "lat": 38.9243285, "name": "258304854fb3feb65c9a1d1fd8164188", "fusion_lon": 0.0, "bike_id": "258304854fb3feb65c9a1d1fd8164188", "is_disabled": 0, "is_reserved": 0}, {"rental_uris": {"ios": "https://dc.lft.to/lastmile_qr_scan", "android": "https://dc.lft.to/lastmile_qr_scan"}, "lon": -77.0352545, "type": "electric_scooter", "fusion_lat": 0.0, "lat": 38.9233405, "name": "d784662490ed9c0b237a696781e55fc0", "fusion_lon": 0.0, "bike_id": "d784662490ed9c0b237a696781e55fc0", "is_disabled": 0, "is_reserved": 0}, {"rental_uris": {"ios": "https://dc.lft.to/lastmile_qr_scan", "android": "https://dc.lft.to/lastmile_qr_scan"}, "lon": -77.02587916666667, "type": "electric_scooter", "fusion_lat": 0.0, "lat": 38.915102833333336, "name": "6cb2883bc5f1a21ee74fe5c09b6bf671", "fusion_lon": 0.0, "bike_id": "6cb2883bc5f1a21ee74fe5c09b6bf671", "is_disabled": 0, "is_reserved": 0}, {"rental_uris": {"ios": "https://dc.lft.to/lastmile_qr_scan", "android": "https://dc.lft.to/lastmile_qr_scan"}, "lon": -77.07907716666666, "type": "electric_bike", "fusion_lat": 0.0, "lat": 38.8393415, "name": "40ba665e25004e9ee7eb6ee37d88ed74", "fusion_lon": 0.0, "bike_id": "40ba665e25004e9ee7eb6ee37d88ed74", "is_disabled": 0, "is_reserved": 0}, {"rental_uris": {"ios": "https://dc.lft.to/lastmile_qr_scan", "android": "https://dc.lft.to/lastmile_qr_scan"}, "lon": -77.114072, "type": "electric_bike", "fusion_lat": 0.0, "lat": 38.842689666666665, "name": "a7cd2dc8c2996ca8aa46fa4fc4ef050f", "fusion_lon": 0.0, "bike_id": "a7cd2dc8c2996ca8aa46fa4fc4ef050f", "is_disabled": 0, "is_reserved": 0}, {"rental_uris": {"ios": "https://dc.lft.to/lastmile_qr_scan", "android": "https://dc.lft.to/lastmile_qr_scan"}, "lon": -77.00771966666667, "type": "electric_scooter", "fusion_lat": 0.0, "lat": 38.870903, "name": "85c4345eeb3462ebede7a94a7a2e9e79", "fusion_lon": 0.0, "bike_id": "85c4345eeb3462ebede7a94a7a2e9e79", "is_disabled": 0, "is_reserved": 0}, {"rental_uris": {"ios": "https://dc.lft.to/lastmile_qr_scan", "android": "https://dc.lft.to/lastmile_qr_scan"}, "lon": -77.02349366666667, "type": "electric_scooter", "fusion_lat": 0.0, "lat": 38.93380166666667, "name": "8cf8b269bbdd6f8ffcd0db97d656db52", "fusion_lon": 0.0, "bike_id": "8cf8b269bbdd6f8ffcd0db97d656db52", "is_disabled": 0, "is_reserved": 0}, {"rental_uris": {"ios": "https://dc.lft.to/lastmile_qr_scan", "android": "https://dc.lft.to/lastmile_qr_scan"}, "lon": -77.05087316666666, "type": "electric_bike", "fusion_lat": 0.0, "lat": 38.8132295, "name": "6687da9ec6ef7d67b5664a0a507406f9", "fusion_lon": 0.0, "bike_id": "6687da9ec6ef7d67b5664a0a507406f9", "is_disabled": 0, "is_reserved": 0}, {"rental_uris": {"ios": "https://dc.lft.to/lastmile_qr_scan", "android": "https://dc.lft.to/lastmile_qr_scan"}, "lon": -77.0235585, "type": "electric_scooter", "fusion_lat": 0.0, "lat": 38.931309666666664, "name": "c26cb4b70e8d9eb7a4b21344a31671de", "fusion_lon": 0.0, "bike_id": "c26cb4b70e8d9eb7a4b21344a31671de", "is_disabled": 0, "is_reserved": 0}, {"rental_uris": {"ios": "https://dc.lft.to/lastmile_qr_scan", "android": "https://dc.lft.to/lastmile_qr_scan"}, "lon": -77.01230316666667, "type": "electric_scooter", "fusion_lat": 0.0, "lat": 38.913227166666665, "name": "4d6e28825aea8505a26eee69d71ca4da", "fusion_lon": 0.0, "bike_id": "4d6e28825aea8505a26eee69d71ca4da", "is_disabled": 0, "is_reserved": 0}, {"rental_uris": {"ios": "https://dc.lft.to/lastmile_qr_scan", "android": "https://dc.lft.to/lastmile_qr_scan"}, "lon": -77.02980066666667, "type": "electric_scooter", "fusion_lat": 0.0, "lat": 38.895643, "name": "a901a301bd24149f4a87d28ec04c51c0", "fusion_lon": 0.0, "bike_id": "a901a301bd24149f4a87d28ec04c51c0", "is_disabled": 0, "is_reserved": 0}, {"rental_uris": {"ios": "https://dc.lft.to/lastmile_qr_scan", "android": "https://dc.lft.to/lastmile_qr_scan"}, "lon": -77.01530116666666, "type": "electric_scooter", "fusion_lat": 0.0, "lat": 38.887386166666666, "name": "ba1825024b2be14b85810e2cf9fc7703", "fusion_lon": 0.0, "bike_id": "ba1825024b2be14b85810e2cf9fc7703", "is_disabled": 0, "is_reserved": 0}, {"rental_uris": {"ios": "https://dc.lft.to/lastmile_qr_scan", "android": "https://dc.lft.to/lastmile_qr_scan"}, "lon": -76.972682, "type": "electric_bike", "fusion_lat": 0.0, "lat": 38.9192245, "name": "9477436ba9e323753c0f2d3b9bbb78c9", "fusion_lon": 0.0, "bike_id": "9477436ba9e323753c0f2d3b9bbb78c9", "is_disabled": 0, "is_reserved": 0}, {"rental_uris": {"ios": "https://dc.lft.to/lastmile_qr_scan", "android": "https://dc.lft.to/lastmile_qr_scan"}, "lon": -76.93615233333334, "type": "electric_bike", "fusion_lat": 0.0, "lat": 38.970546666666664, "name": "95f44ad436a9bba74d520635fb49b356", "fusion_lon": 0.0, "bike_id": "95f44ad436a9bba74d520635fb49b356", "is_disabled": 0, "is_reserved": 0}, {"rental_uris": {"ios": "https://dc.lft.to/lastmile_qr_scan", "android": "https://dc.lft.to/lastmile_qr_scan"}, "lon": -77.02712283333334, "type": "electric_scooter", "fusion_lat": 0.0, "lat": 38.881150166666664, "name": "5e1d4968682abff2d7fa1fa2a51a50b5", "fusion_lon": 0.0, "bike_id": "5e1d4968682abff2d7fa1fa2a51a50b5", "is_disabled": 0, "is_reserved": 0}, {"rental_uris": {"ios": "https://dc.lft.to/lastmile_qr_scan", "android": "https://dc.lft.to/lastmile_qr_scan"}, "lon": -77.018678, "type": "electric_scooter", "fusion_lat": 0.0, "lat": 38.9489085, "name": "a806ad6adab31db1255a9f97622c7f99", "fusion_lon": 0.0, "bike_id": "a806ad6adab31db1255a9f97622c7f99", "is_disabled": 0, "is_reserved": 0}, {"rental_uris": {"ios": "https://dc.lft.to/lastmile_qr_scan", "android": "https://dc.lft.to/lastmile_qr_scan"}, "lon": -77.04219183333333, "type": "electric_scooter", "fusion_lat": 0.0, "lat": 38.9111745, "name": "d86277aea06ef41e7d98678f90728d34", "fusion_lon": 0.0, "bike_id": "d86277aea06ef41e7d98678f90728d34", "is_disabled": 0, "is_reserved": 0}, {"rental_uris": {"ios": "https://dc.lft.to/lastmile_qr_scan", "android": "https://dc.lft.to/lastmile_qr_scan"}, "lon": -77.055559, "type": "electric_scooter", "fusion_lat": 0.0, "lat": 38.89969933333333, "name": "355b0394a42e60e9955a59d21872d208", "fusion_lon": 0.0, "bike_id": "355b0394a42e60e9955a59d21872d208", "is_disabled": 0, "is_reserved": 0}, {"rental_uris": {"ios": "https://dc.lft.to/lastmile_qr_scan", "android": "https://dc.lft.to/lastmile_qr_scan"}, "lon": -76.99338666666667, "type": "electric_bike", "fusion_lat": 0.0, "lat": 38.96193783333333, "name": "b9202d5770748059e12ff440bc98f89a", "fusion_lon": 0.0, "bike_id": "b9202d5770748059e12ff440bc98f89a", "is_disabled": 0, "is_reserved": 0}, {"rental_uris": {"ios": "https://dc.lft.to/lastmile_qr_scan", "android": "https://dc.lft.to/lastmile_qr_scan"}, "lon": -76.9763665, "type": "electric_scooter", "fusion_lat": 0.0, "lat": 38.90571816666667, "name": "1cd1eecbda43886d9c2bf7193f4a0af8", "fusion_lon": 0.0, "bike_id": "1cd1eecbda43886d9c2bf7193f4a0af8", "is_disabled": 0, "is_reserved": 0}, {"rental_uris": {"ios": "https://dc.lft.to/lastmile_qr_scan", "android": "https://dc.lft.to/lastmile_qr_scan"}, "lon": -77.0482395, "type": "electric_scooter", "fusion_lat": 0.0, "lat": 38.897302, "name": "5bec848ba8cea699d70a4918b29b4dc2", "fusion_lon": 0.0, "bike_id": "5bec848ba8cea699d70a4918b29b4dc2", "is_disabled": 0, "is_reserved": 0}, {"rental_uris": {"ios": "https://dc.lft.to/lastmile_qr_scan", "android": "https://dc.lft.to/lastmile_qr_scan"}, "lon": -77.03188683333333, "type": "electric_scooter", "fusion_lat": 0.0, "lat": 38.90847933333333, "name": "6ec8f850ee6c2cadfcb7337bd817c70a", "fusion_lon": 0.0, "bike_id": "6ec8f850ee6c2cadfcb7337bd817c70a", "is_disabled": 0, "is_reserved": 0}, {"rental_uris": {"ios": "https://dc.lft.to/lastmile_qr_scan", "android": "https://dc.lft.to/lastmile_qr_scan"}, "lon": -77.066442, "type": "electric_scooter", "fusion_lat": 0.0, "lat": 38.913798666666665, "name": "89eebe00c498a40ae2ca2daa7b4b1bbc", "fusion_lon": 0.0, "bike_id": "89eebe00c498a40ae2ca2daa7b4b1bbc", "is_disabled": 0, "is_reserved": 0}, {"rental_uris": {"ios": "https://dc.lft.to/lastmile_qr_scan", "android": "https://dc.lft.to/lastmile_qr_scan"}, "lon": -76.96523033333334, "type": "electric_scooter", "fusion_lat": 0.0, "lat": 38.876254, "name": "d3d51fae99a1134723a0820dbc379f5e", "fusion_lon": 0.0, "bike_id": "d3d51fae99a1134723a0820dbc379f5e", "is_disabled": 0, "is_reserved": 0}, {"rental_uris": {"ios": "https://dc.lft.to/lastmile_qr_scan", "android": "https://dc.lft.to/lastmile_qr_scan"}, "lon": -77.046047, "type": "electric_scooter", "fusion_lat": 0.0, "lat": 38.902402, "name": "9dc0bf691775b7797df775b15466fb44", "fusion_lon": 0.0, "bike_id": "9dc0bf691775b7797df775b15466fb44", "is_disabled": 0, "is_reserved": 0}, {"rental_uris": {"ios": "https://dc.lft.to/lastmile_qr_scan", "android": "https://dc.lft.to/lastmile_qr_scan"}, "lon": -77.01505983333334, "type": "electric_scooter", "fusion_lat": 0.0, "lat": 38.916074, "name": "245bcdfb1f2f8f16946be2c14236cd49", "fusion_lon": 0.0, "bike_id": "245bcdfb1f2f8f16946be2c14236cd49", "is_disabled": 0, "is_reserved": 0}, {"rental_uris": {"ios": "https://dc.lft.to/lastmile_qr_scan", "android": "https://dc.lft.to/lastmile_qr_scan"}, "lon": -77.07362, "type": "electric_scooter", "fusion_lat": 0.0, "lat": 38.93740666666667, "name": "b6cdc9cf693a6ca743a64f360bbc6291", "fusion_lon": 0.0, "bike_id": "b6cdc9cf693a6ca743a64f360bbc6291", "is_disabled": 0, "is_reserved": 0}, {"rental_uris": {"ios": "https://dc.lft.to/lastmile_qr_scan", "android": "https://dc.lft.to/lastmile_qr_scan"}, "lon": -77.02928, "type": "electric_scooter", "fusion_lat": 0.0, "lat": 38.8821735, "name": "bfd69d502cab82bb2a847dd041106785", "fusion_lon": 0.0, "bike_id": "bfd69d502cab82bb2a847dd041106785", "is_disabled": 0, "is_reserved": 0}, {"rental_uris": {"ios": "https://dc.lft.to/lastmile_qr_scan", "android": "https://dc.lft.to/lastmile_qr_scan"}, "lon": -77.027224, "type": "electric_scooter", "fusion_lat": 0.0, "lat": 38.909477, "name": "9b36a2e2d3b3488f03438d37f0d8f2cc", "fusion_lon": 0.0, "bike_id": "9b36a2e2d3b3488f03438d37f0d8f2cc", "is_disabled": 0, "is_reserved": 0}, {"rental_uris": {"ios": "https://dc.lft.to/lastmile_qr_scan", "android": "https://dc.lft.to/lastmile_qr_scan"}, "lon": -76.98341516666666, "type": "electric_scooter", "fusion_lat": 0.0, "lat": 38.91524666666667, "name": "0ae062839a57d0d187c3e0caee8676f8", "fusion_lon": 0.0, "bike_id": "0ae062839a57d0d187c3e0caee8676f8", "is_disabled": 0, "is_reserved": 0}, {"rental_uris": {"ios": "https://dc.lft.to/lastmile_qr_scan", "android": "https://dc.lft.to/lastmile_qr_scan"}, "lon": -77.02690016666666, "type": "electric_scooter", "fusion_lat": 0.0, "lat": 38.9067015, "name": "d9c02860c6f3569ede1c92c9c9bad378", "fusion_lon": 0.0, "bike_id": "d9c02860c6f3569ede1c92c9c9bad378", "is_disabled": 0, "is_reserved": 0}, {"rental_uris": {"ios": "https://dc.lft.to/lastmile_qr_scan", "android": "https://dc.lft.to/lastmile_qr_scan"}, "lon": -77.00679983333333, "type": "electric_scooter", "fusion_lat": 0.0, "lat": 38.87639716666666, "name": "12d585e63ecf946fdbaae4d2d6d4b153", "fusion_lon": 0.0, "bike_id": "12d585e63ecf946fdbaae4d2d6d4b153", "is_disabled": 0, "is_reserved": 0}, {"rental_uris": {"ios": "https://dc.lft.to/lastmile_qr_scan", "android": "https://dc.lft.to/lastmile_qr_scan"}, "lon": -77.02651433333334, "type": "electric_scooter", "fusion_lat": 0.0, "lat": 38.881207, "name": "d1a4f603fb2ed56c518faebb62d7f63c", "fusion_lon": 0.0, "bike_id": "d1a4f603fb2ed56c518faebb62d7f63c", "is_disabled": 0, "is_reserved": 0}, {"rental_uris": {"ios": "https://dc.lft.to/lastmile_qr_scan", "android": "https://dc.lft.to/lastmile_qr_scan"}, "lon": -77.03297816666667, "type": "electric_scooter", "fusion_lat": 0.0, "lat": 38.90896466666667, "name": "291f3bc89bbb91d2fcaa187be0b03d68", "fusion_lon": 0.0, "bike_id": "291f3bc89bbb91d2fcaa187be0b03d68", "is_disabled": 0, "is_reserved": 0}, {"rental_uris": {"ios": "https://dc.lft.to/lastmile_qr_scan", "android": "https://dc.lft.to/lastmile_qr_scan"}, "lon": -77.07308833333333, "type": "electric_scooter", "fusion_lat": 0.0, "lat": 38.93612816666667, "name": "8034eddb128e7002e2ebbfcb13b84cae", "fusion_lon": 0.0, "bike_id": "8034eddb128e7002e2ebbfcb13b84cae", "is_disabled": 0, "is_reserved": 0}, {"rental_uris": {"ios": "https://dc.lft.to/lastmile_qr_scan", "android": "https://dc.lft.to/lastmile_qr_scan"}, "lon": -76.99064716666666, "type": "electric_scooter", "fusion_lat": 0.0, "lat": 38.8635725, "name": "da4234248953f9e7a44b92e93878e544", "fusion_lon": 0.0, "bike_id": "da4234248953f9e7a44b92e93878e544", "is_disabled": 0, "is_reserved": 0}, {"rental_uris": {"ios": "https://dc.lft.to/lastmile_qr_scan", "android": "https://dc.lft.to/lastmile_qr_scan"}, "lon": -77.0363645, "type": "electric_scooter", "fusion_lat": 0.0, "lat": 38.91276383333334, "name": "63d50c19394b7ecaa66141146920704b", "fusion_lon": 0.0, "bike_id": "63d50c19394b7ecaa66141146920704b", "is_disabled": 0, "is_reserved": 0}, {"rental_uris": {"ios": "https://dc.lft.to/lastmile_qr_scan", "android": "https://dc.lft.to/lastmile_qr_scan"}, "lon": -77.032091, "type": "electric_scooter", "fusion_lat": 0.0, "lat": 38.900232, "name": "a059a2acfef79ad56f0cfd3e1404f21d", "fusion_lon": 0.0, "bike_id": "a059a2acfef79ad56f0cfd3e1404f21d", "is_disabled": 0, "is_reserved": 0}, {"rental_uris": {"ios": "https://dc.lft.to/lastmile_qr_scan", "android": "https://dc.lft.to/lastmile_qr_scan"}, "lon": -77.038567, "type": "electric_scooter", "fusion_lat": 0.0, "lat": 38.926475, "name": "9afc32b5c1aa8ccb7372cee0c60e9c29", "fusion_lon": 0.0, "bike_id": "9afc32b5c1aa8ccb7372cee0c60e9c29", "is_disabled": 0, "is_reserved": 0}, {"rental_uris": {"ios": "https://dc.lft.to/lastmile_qr_scan", "android": "https://dc.lft.to/lastmile_qr_scan"}, "lon": -77.02948566666667, "type": "electric_scooter", "fusion_lat": 0.0, "lat": 38.9040215, "name": "c18cd6a07d277d1ba1c3db113c9aec8a", "fusion_lon": 0.0, "bike_id": "c18cd6a07d277d1ba1c3db113c9aec8a", "is_disabled": 0, "is_reserved": 0}, {"rental_uris": {"ios": "https://dc.lft.to/lastmile_qr_scan", "android": "https://dc.lft.to/lastmile_qr_scan"}, "lon": -77.055076, "type": "electric_scooter", "fusion_lat": 0.0, "lat": 38.900004333333335, "name": "2fa59800bc4bc7f8655c183911dacd2a", "fusion_lon": 0.0, "bike_id": "2fa59800bc4bc7f8655c183911dacd2a", "is_disabled": 0, "is_reserved": 0}, {"rental_uris": {"ios": "https://dc.lft.to/lastmile_qr_scan", "android": "https://dc.lft.to/lastmile_qr_scan"}, "lon": -77.0454155, "type": "electric_scooter", "fusion_lat": 0.0, "lat": 38.894822833333336, "name": "22b689c93cc4d3f19c4a6cad9e09323e", "fusion_lon": 0.0, "bike_id": "22b689c93cc4d3f19c4a6cad9e09323e", "is_disabled": 0, "is_reserved": 0}, {"rental_uris": {"ios": "https://dc.lft.to/lastmile_qr_scan", "android": "https://dc.lft.to/lastmile_qr_scan"}, "lon": -77.03180733333333, "type": "electric_scooter", "fusion_lat": 0.0, "lat": 38.89829433333333, "name": "f8064a855c737b7fb465fad60d48fae0", "fusion_lon": 0.0, "bike_id": "f8064a855c737b7fb465fad60d48fae0", "is_disabled": 0, "is_reserved": 0}, {"rental_uris": {"ios": "https://dc.lft.to/lastmile_qr_scan", "android": "https://dc.lft.to/lastmile_qr_scan"}, "lon": -77.02224866666667, "type": "electric_scooter", "fusion_lat": 0.0, "lat": 38.91248083333333, "name": "820a6d313daafa39644b357fe4ad967f", "fusion_lon": 0.0, "bike_id": "820a6d313daafa39644b357fe4ad967f", "is_disabled": 0, "is_reserved": 0}, {"rental_uris": {"ios": "https://dc.lft.to/lastmile_qr_scan", "android": "https://dc.lft.to/lastmile_qr_scan"}, "lon": -77.00133616666666, "type": "electric_scooter", "fusion_lat": 0.0, "lat": 38.90712283333333, "name": "1240229ba8b3fa4c749c95f48326971a", "fusion_lon": 0.0, "bike_id": "1240229ba8b3fa4c749c95f48326971a", "is_disabled": 0, "is_reserved": 0}, {"rental_uris": {"ios": "https://dc.lft.to/lastmile_qr_scan", "android": "https://dc.lft.to/lastmile_qr_scan"}, "lon": -76.97215433333334, "type": "electric_bike", "fusion_lat": 0.0, "lat": 38.844795500000004, "name": "0680b38439f77c6583bdb44d7f5aafff", "fusion_lon": 0.0, "bike_id": "0680b38439f77c6583bdb44d7f5aafff", "is_disabled": 0, "is_reserved": 0}, {"rental_uris": {"ios": "https://dc.lft.to/lastmile_qr_scan", "android": "https://dc.lft.to/lastmile_qr_scan"}, "lon": -76.97705500000001, "type": "electric_scooter", "fusion_lat": 0.0, "lat": 38.898850333333336, "name": "20384e346048b505003adf7ff490885a", "fusion_lon": 0.0, "bike_id": "20384e346048b505003adf7ff490885a", "is_disabled": 0, "is_reserved": 0}, {"rental_uris": {"ios": "https://dc.lft.to/lastmile_qr_scan", "android": "https://dc.lft.to/lastmile_qr_scan"}, "lon": -77.02311616666667, "type": "electric_scooter", "fusion_lat": 0.0, "lat": 38.92886716666667, "name": "57890b5761f83afaed94f461ab0db1f4", "fusion_lon": 0.0, "bike_id": "57890b5761f83afaed94f461ab0db1f4", "is_disabled": 0, "is_reserved": 0}, {"rental_uris": {"ios": "https://dc.lft.to/lastmile_qr_scan", "android": "https://dc.lft.to/lastmile_qr_scan"}, "lon": -76.94439383333334, "type": "electric_bike", "fusion_lat": 0.0, "lat": 38.9029815, "name": "b7bf5db5a3029395feea47a010b3e17c", "fusion_lon": 0.0, "bike_id": "b7bf5db5a3029395feea47a010b3e17c", "is_disabled": 0, "is_reserved": 0}, {"rental_uris": {"ios": "https://dc.lft.to/lastmile_qr_scan", "android": "https://dc.lft.to/lastmile_qr_scan"}, "lon": -76.999745, "type": "electric_scooter", "fusion_lat": 0.0, "lat": 38.83834983333333, "name": "37a28bfc2fd419a7f83564af8dd3d1ed", "fusion_lon": 0.0, "bike_id": "37a28bfc2fd419a7f83564af8dd3d1ed", "is_disabled": 0, "is_reserved": 0}, {"rental_uris": {"ios": "https://dc.lft.to/lastmile_qr_scan", "android": "https://dc.lft.to/lastmile_qr_scan"}, "lon": -77.0726435, "type": "electric_scooter", "fusion_lat": 0.0, "lat": 38.93477016666667, "name": "82a6d7e84a4f33cc1581895e2ca0f7eb", "fusion_lon": 0.0, "bike_id": "82a6d7e84a4f33cc1581895e2ca0f7eb", "is_disabled": 0, "is_reserved": 0}, {"rental_uris": {"ios": "https://dc.lft.to/lastmile_qr_scan", "android": "https://dc.lft.to/lastmile_qr_scan"}, "lon": -77.0391575, "type": "electric_scooter", "fusion_lat": 0.0, "lat": 38.91109616666667, "name": "0d5826538e02118c0bffff78d48ed543", "fusion_lon": 0.0, "bike_id": "0d5826538e02118c0bffff78d48ed543", "is_disabled": 0, "is_reserved": 0}, {"rental_uris": {"ios": "https://dc.lft.to/lastmile_qr_scan", "android": "https://dc.lft.to/lastmile_qr_scan"}, "lon": -77.03418916666666, "type": "electric_scooter", "fusion_lat": 0.0, "lat": 38.91925066666667, "name": "9e9b36d0f40af9abace753f234c3d0ae", "fusion_lon": 0.0, "bike_id": "9e9b36d0f40af9abace753f234c3d0ae", "is_disabled": 0, "is_reserved": 0}, {"rental_uris": {"ios": "https://dc.lft.to/lastmile_qr_scan", "android": "https://dc.lft.to/lastmile_qr_scan"}, "lon": -77.03465166666666, "type": "electric_scooter", "fusion_lat": 0.0, "lat": 38.90895733333333, "name": "393a828d2eaa18d69ee61c6bd0965b53", "fusion_lon": 0.0, "bike_id": "393a828d2eaa18d69ee61c6bd0965b53", "is_disabled": 0, "is_reserved": 0}, {"rental_uris": {"ios": "https://dc.lft.to/lastmile_qr_scan", "android": "https://dc.lft.to/lastmile_qr_scan"}, "lon": -77.00103716666666, "type": "electric_scooter", "fusion_lat": 0.0, "lat": 38.90754616666667, "name": "a66e449cfd101902c87c058022a11114", "fusion_lon": 0.0, "bike_id": "a66e449cfd101902c87c058022a11114", "is_disabled": 0, "is_reserved": 0}, {"rental_uris": {"ios": "https://dc.lft.to/lastmile_qr_scan", "android": "https://dc.lft.to/lastmile_qr_scan"}, "lon": -77.0427435, "type": "electric_scooter", "fusion_lat": 0.0, "lat": 38.9226075, "name": "ee5060e22f07ad2df48d19f777f5928e", "fusion_lon": 0.0, "bike_id": "ee5060e22f07ad2df48d19f777f5928e", "is_disabled": 0, "is_reserved": 0}, {"rental_uris": {"ios": "https://dc.lft.to/lastmile_qr_scan", "android": "https://dc.lft.to/lastmile_qr_scan"}, "lon": -77.04031383333333, "type": "electric_scooter", "fusion_lat": 0.0, "lat": 38.923382333333336, "name": "a7e988efd1c0553c62fbbbf95a4b2ba8", "fusion_lon": 0.0, "bike_id": "a7e988efd1c0553c62fbbbf95a4b2ba8", "is_disabled": 0, "is_reserved": 0}, {"rental_uris": {"ios": "https://dc.lft.to/lastmile_qr_scan", "android": "https://dc.lft.to/lastmile_qr_scan"}, "lon": -77.00254466666667, "type": "electric_scooter", "fusion_lat": 0.0, "lat": 38.90127366666667, "name": "591c319b7e0aaf58e60a3b8ab2d055d6", "fusion_lon": 0.0, "bike_id": "591c319b7e0aaf58e60a3b8ab2d055d6", "is_disabled": 0, "is_reserved": 0}, {"rental_uris": {"ios": "https://dc.lft.to/lastmile_qr_scan", "android": "https://dc.lft.to/lastmile_qr_scan"}, "lon": -77.03186133333334, "type": "electric_scooter", "fusion_lat": 0.0, "lat": 38.917661, "name": "2da4e5cade4ebcec6d7fb2eb06cd8928", "fusion_lon": 0.0, "bike_id": "2da4e5cade4ebcec6d7fb2eb06cd8928", "is_disabled": 0, "is_reserved": 0}, {"rental_uris": {"ios": "https://dc.lft.to/lastmile_qr_scan", "android": "https://dc.lft.to/lastmile_qr_scan"}, "lon": -77.016992, "type": "electric_scooter", "fusion_lat": 0.0, "lat": 38.920166, "name": "b22b07e76709417ab20f1c0acc174ffd", "fusion_lon": 0.0, "bike_id": "b22b07e76709417ab20f1c0acc174ffd", "is_disabled": 0, "is_reserved": 0}, {"rental_uris": {"ios": "https://dc.lft.to/lastmile_qr_scan", "android": "https://dc.lft.to/lastmile_qr_scan"}, "lon": -77.03872583333333, "type": "electric_scooter", "fusion_lat": 0.0, "lat": 38.915577166666665, "name": "95737733cb1dd20a7dc74bb972f0492c", "fusion_lon": 0.0, "bike_id": "95737733cb1dd20a7dc74bb972f0492c", "is_disabled": 0, "is_reserved": 0}, {"rental_uris": {"ios": "https://dc.lft.to/lastmile_qr_scan", "android": "https://dc.lft.to/lastmile_qr_scan"}, "lon": -77.012962, "type": "electric_scooter", "fusion_lat": 0.0, "lat": 38.900419, "name": "b0ddcfa502ee8e109c1dcedc43c98a7d", "fusion_lon": 0.0, "bike_id": "b0ddcfa502ee8e109c1dcedc43c98a7d", "is_disabled": 0, "is_reserved": 0}, {"rental_uris": {"ios": "https://dc.lft.to/lastmile_qr_scan", "android": "https://dc.lft.to/lastmile_qr_scan"}, "lon": -77.028348, "type": "electric_scooter", "fusion_lat": 0.0, "lat": 38.88769966666667, "name": "ec282bc9ea541f523d10dee263766817", "fusion_lon": 0.0, "bike_id": "ec282bc9ea541f523d10dee263766817", "is_disabled": 0, "is_reserved": 0}, {"rental_uris": {"ios": "https://dc.lft.to/lastmile_qr_scan", "android": "https://dc.lft.to/lastmile_qr_scan"}, "lon": -76.999329, "type": "electric_scooter", "fusion_lat": 0.0, "lat": 38.89621733333333, "name": "ce87356f50aebee0fb147599d6acf016", "fusion_lon": 0.0, "bike_id": "ce87356f50aebee0fb147599d6acf016", "is_disabled": 0, "is_reserved": 0}, {"rental_uris": {"ios": "https://dc.lft.to/lastmile_qr_scan", "android": "https://dc.lft.to/lastmile_qr_scan"}, "lon": -77.03682216666667, "type": "electric_scooter", "fusion_lat": 0.0, "lat": 38.9225855, "name": "f2d330f03cecd8faae8129a526c83ec4", "fusion_lon": 0.0, "bike_id": "f2d330f03cecd8faae8129a526c83ec4", "is_disabled": 0, "is_reserved": 0}, {"rental_uris": {"ios": "https://dc.lft.to/lastmile_qr_scan", "android": "https://dc.lft.to/lastmile_qr_scan"}, "lon": -77.03824333333333, "type": "electric_scooter", "fusion_lat": 0.0, "lat": 38.9078525, "name": "bd4a3d0c082c8ebb9bf1e51179e0a856", "fusion_lon": 0.0, "bike_id": "bd4a3d0c082c8ebb9bf1e51179e0a856", "is_disabled": 0, "is_reserved": 0}, {"rental_uris": {"ios": "https://dc.lft.to/lastmile_qr_scan", "android": "https://dc.lft.to/lastmile_qr_scan"}, "lon": -77.02215966666667, "type": "electric_scooter", "fusion_lat": 0.0, "lat": 38.893468, "name": "fd0f723adf3f9784273e6425a0663fe4", "fusion_lon": 0.0, "bike_id": "fd0f723adf3f9784273e6425a0663fe4", "is_disabled": 0, "is_reserved": 0}, {"rental_uris": {"ios": "https://dc.lft.to/lastmile_qr_scan", "android": "https://dc.lft.to/lastmile_qr_scan"}, "lon": -77.01829683333334, "type": "electric_scooter", "fusion_lat": 0.0, "lat": 38.91254683333333, "name": "f705bcbb996c4908be453f479b23c37b", "fusion_lon": 0.0, "bike_id": "f705bcbb996c4908be453f479b23c37b", "is_disabled": 0, "is_reserved": 0}, {"rental_uris": {"ios": "https://dc.lft.to/lastmile_qr_scan", "android": "https://dc.lft.to/lastmile_qr_scan"}, "lon": -77.04568383333333, "type": "electric_scooter", "fusion_lat": 0.0, "lat": 38.9179705, "name": "ebe3234b2f79b54a40f476d3ec79ef32", "fusion_lon": 0.0, "bike_id": "ebe3234b2f79b54a40f476d3ec79ef32", "is_disabled": 0, "is_reserved": 0}, {"rental_uris": {"ios": "https://dc.lft.to/lastmile_qr_scan", "android": "https://dc.lft.to/lastmile_qr_scan"}, "lon": -77.02404166666666, "type": "electric_scooter", "fusion_lat": 0.0, "lat": 38.911040166666666, "name": "aa8ab3a6d996a3ab9e1874cd55747753", "fusion_lon": 0.0, "bike_id": "aa8ab3a6d996a3ab9e1874cd55747753", "is_disabled": 0, "is_reserved": 0}, {"rental_uris": {"ios": "https://dc.lft.to/lastmile_qr_scan", "android": "https://dc.lft.to/lastmile_qr_scan"}, "lon": -77.03130516666667, "type": "electric_scooter", "fusion_lat": 0.0, "lat": 38.923723333333335, "name": "1f4512f63808d99ec188e572498c45e7", "fusion_lon": 0.0, "bike_id": "1f4512f63808d99ec188e572498c45e7", "is_disabled": 0, "is_reserved": 0}, {"rental_uris": {"ios": "https://dc.lft.to/lastmile_qr_scan", "android": "https://dc.lft.to/lastmile_qr_scan"}, "lon": -77.00111883333334, "type": "electric_scooter", "fusion_lat": 0.0, "lat": 38.89435066666667, "name": "8738d023194773ecb08fa2a9446c23cf", "fusion_lon": 0.0, "bike_id": "8738d023194773ecb08fa2a9446c23cf", "is_disabled": 0, "is_reserved": 0}, {"rental_uris": {"ios": "https://dc.lft.to/lastmile_qr_scan", "android": "https://dc.lft.to/lastmile_qr_scan"}, "lon": -77.03425883333334, "type": "electric_scooter", "fusion_lat": 0.0, "lat": 38.919121, "name": "029736244b706e6a0cf2426da14f994c", "fusion_lon": 0.0, "bike_id": "029736244b706e6a0cf2426da14f994c", "is_disabled": 0, "is_reserved": 0}, {"rental_uris": {"ios": "https://dc.lft.to/lastmile_qr_scan", "android": "https://dc.lft.to/lastmile_qr_scan"}, "lon": -77.0442995, "type": "electric_scooter", "fusion_lat": 0.0, "lat": 38.9212705, "name": "29c1bc1db85f1d23cb24b6e617da3ad5", "fusion_lon": 0.0, "bike_id": "29c1bc1db85f1d23cb24b6e617da3ad5", "is_disabled": 0, "is_reserved": 0}, {"rental_uris": {"ios": "https://dc.lft.to/lastmile_qr_scan", "android": "https://dc.lft.to/lastmile_qr_scan"}, "lon": -77.03417333333333, "type": "electric_scooter", "fusion_lat": 0.0, "lat": 38.91925583333333, "name": "bf0aed8eecec1e417d44b2dc650eaafe", "fusion_lon": 0.0, "bike_id": "bf0aed8eecec1e417d44b2dc650eaafe", "is_disabled": 0, "is_reserved": 0}, {"rental_uris": {"ios": "https://dc.lft.to/lastmile_qr_scan", "android": "https://dc.lft.to/lastmile_qr_scan"}, "lon": -76.99487383333333, "type": "electric_scooter", "fusion_lat": 0.0, "lat": 38.932021166666665, "name": "01a4350509bce538e0851077da0598aa", "fusion_lon": 0.0, "bike_id": "01a4350509bce538e0851077da0598aa", "is_disabled": 0, "is_reserved": 0}, {"rental_uris": {"ios": "https://dc.lft.to/lastmile_qr_scan", "android": "https://dc.lft.to/lastmile_qr_scan"}, "lon": -77.02214183333334, "type": "electric_scooter", "fusion_lat": 0.0, "lat": 38.9057055, "name": "de5d34b83ee51b2200a13b5fc481fd06", "fusion_lon": 0.0, "bike_id": "de5d34b83ee51b2200a13b5fc481fd06", "is_disabled": 0, "is_reserved": 0}, {"rental_uris": {"ios": "https://dc.lft.to/lastmile_qr_scan", "android": "https://dc.lft.to/lastmile_qr_scan"}, "lon": -77.03935583333333, "type": "electric_scooter", "fusion_lat": 0.0, "lat": 38.89854366666667, "name": "c19ba91abb140794b164533eadb6d608", "fusion_lon": 0.0, "bike_id": "c19ba91abb140794b164533eadb6d608", "is_disabled": 0, "is_reserved": 0}, {"rental_uris": {"ios": "https://dc.lft.to/lastmile_qr_scan", "android": "https://dc.lft.to/lastmile_qr_scan"}, "lon": -77.05003716666667, "type": "electric_scooter", "fusion_lat": 0.0, "lat": 38.8923315, "name": "aed87ace2b4e90f64ea5bd71e149de56", "fusion_lon": 0.0, "bike_id": "aed87ace2b4e90f64ea5bd71e149de56", "is_disabled": 0, "is_reserved": 0}, {"rental_uris": {"ios": "https://dc.lft.to/lastmile_qr_scan", "android": "https://dc.lft.to/lastmile_qr_scan"}, "lon": -77.02411733333334, "type": "electric_scooter", "fusion_lat": 0.0, "lat": 38.917043, "name": "769fc652672b042088f8bea6b274ff2f", "fusion_lon": 0.0, "bike_id": "769fc652672b042088f8bea6b274ff2f", "is_disabled": 0, "is_reserved": 0}, {"rental_uris": {"ios": "https://dc.lft.to/lastmile_qr_scan", "android": "https://dc.lft.to/lastmile_qr_scan"}, "lon": -77.02513283333333, "type": "electric_scooter", "fusion_lat": 0.0, "lat": 38.930793333333334, "name": "61ffb1a04a54dfda05a3a2184e892c03", "fusion_lon": 0.0, "bike_id": "61ffb1a04a54dfda05a3a2184e892c03", "is_disabled": 0, "is_reserved": 0}, {"rental_uris": {"ios": "https://dc.lft.to/lastmile_qr_scan", "android": "https://dc.lft.to/lastmile_qr_scan"}, "lon": -76.93827733333333, "type": "electric_scooter", "fusion_lat": 0.0, "lat": 38.8975795, "name": "9d7210fe7ff0cd93350b0a05d44c5cf0", "fusion_lon": 0.0, "bike_id": "9d7210fe7ff0cd93350b0a05d44c5cf0", "is_disabled": 0, "is_reserved": 0}, {"rental_uris": {"ios": "https://dc.lft.to/lastmile_qr_scan", "android": "https://dc.lft.to/lastmile_qr_scan"}, "lon": -77.019645, "type": "electric_scooter", "fusion_lat": 0.0, "lat": 38.9297385, "name": "68e991da91e91d1f66b1040b89d10dce", "fusion_lon": 0.0, "bike_id": "68e991da91e91d1f66b1040b89d10dce", "is_disabled": 0, "is_reserved": 0}, {"rental_uris": {"ios": "https://dc.lft.to/lastmile_qr_scan", "android": "https://dc.lft.to/lastmile_qr_scan"}, "lon": -77.02712783333334, "type": "electric_scooter", "fusion_lat": 0.0, "lat": 38.9181065, "name": "776bf7088bbb3fd8d1ca5399f71c83b5", "fusion_lon": 0.0, "bike_id": "776bf7088bbb3fd8d1ca5399f71c83b5", "is_disabled": 0, "is_reserved": 0}, {"rental_uris": {"ios": "https://dc.lft.to/lastmile_qr_scan", "android": "https://dc.lft.to/lastmile_qr_scan"}, "lon": -77.01986533333333, "type": "electric_scooter", "fusion_lat": 0.0, "lat": 38.904698, "name": "58e36547228baea4991e2783dfa8f409", "fusion_lon": 0.0, "bike_id": "58e36547228baea4991e2783dfa8f409", "is_disabled": 0, "is_reserved": 0}, {"rental_uris": {"ios": "https://dc.lft.to/lastmile_qr_scan", "android": "https://dc.lft.to/lastmile_qr_scan"}, "lon": -77.0151235, "type": "electric_scooter", "fusion_lat": 0.0, "lat": 38.887296666666664, "name": "fe092edbdd293bd85d8b344f71fac725", "fusion_lon": 0.0, "bike_id": "fe092edbdd293bd85d8b344f71fac725", "is_disabled": 0, "is_reserved": 0}, {"rental_uris": {"ios": "https://dc.lft.to/lastmile_qr_scan", "android": "https://dc.lft.to/lastmile_qr_scan"}, "lon": -77.01745316666667, "type": "electric_scooter", "fusion_lat": 0.0, "lat": 38.91709433333333, "name": "2e7ab7b18cedad8eea471607bffac3ca", "fusion_lon": 0.0, "bike_id": "2e7ab7b18cedad8eea471607bffac3ca", "is_disabled": 0, "is_reserved": 0}, {"rental_uris": {"ios": "https://dc.lft.to/lastmile_qr_scan", "android": "https://dc.lft.to/lastmile_qr_scan"}, "lon": -76.904384, "type": "electric_bike", "fusion_lat": 0.0, "lat": 38.89772766666667, "name": "e41516d049616d7aac510cf8aa2510a0", "fusion_lon": 0.0, "bike_id": "e41516d049616d7aac510cf8aa2510a0", "is_disabled": 0, "is_reserved": 0}, {"rental_uris": {"ios": "https://dc.lft.to/lastmile_qr_scan", "android": "https://dc.lft.to/lastmile_qr_scan"}, "lon": -77.02336283333334, "type": "electric_scooter", "fusion_lat": 0.0, "lat": 38.929483, "name": "852855edd7210359a4c548591a2da177", "fusion_lon": 0.0, "bike_id": "852855edd7210359a4c548591a2da177", "is_disabled": 0, "is_reserved": 0}, {"rental_uris": {"ios": "https://dc.lft.to/lastmile_qr_scan", "android": "https://dc.lft.to/lastmile_qr_scan"}, "lon": -77.02609816666667, "type": "electric_scooter", "fusion_lat": 0.0, "lat": 38.919934, "name": "4337976fde152e4986fedf8cca0af41f", "fusion_lon": 0.0, "bike_id": "4337976fde152e4986fedf8cca0af41f", "is_disabled": 0, "is_reserved": 0}, {"rental_uris": {"ios": "https://dc.lft.to/lastmile_qr_scan", "android": "https://dc.lft.to/lastmile_qr_scan"}, "lon": -77.0307775, "type": "electric_scooter", "fusion_lat": 0.0, "lat": 38.909858, "name": "b55480917a94272b2f8b8a0166ba3083", "fusion_lon": 0.0, "bike_id": "b55480917a94272b2f8b8a0166ba3083", "is_disabled": 0, "is_reserved": 0}, {"rental_uris": {"ios": "https://dc.lft.to/lastmile_qr_scan", "android": "https://dc.lft.to/lastmile_qr_scan"}, "lon": -77.0120625, "type": "electric_scooter", "fusion_lat": 0.0, "lat": 38.915219, "name": "a9610525f65a73655a438de210e5c4c5", "fusion_lon": 0.0, "bike_id": "a9610525f65a73655a438de210e5c4c5", "is_disabled": 0, "is_reserved": 0}, {"rental_uris": {"ios": "https://dc.lft.to/lastmile_qr_scan", "android": "https://dc.lft.to/lastmile_qr_scan"}, "lon": -77.03597933333333, "type": "electric_scooter", "fusion_lat": 0.0, "lat": 38.9022405, "name": "b76c89f7003782fca37f57cfda755325", "fusion_lon": 0.0, "bike_id": "b76c89f7003782fca37f57cfda755325", "is_disabled": 0, "is_reserved": 0}, {"rental_uris": {"ios": "https://dc.lft.to/lastmile_qr_scan", "android": "https://dc.lft.to/lastmile_qr_scan"}, "lon": -77.04869666666667, "type": "electric_scooter", "fusion_lat": 0.0, "lat": 38.9123475, "name": "78e6138572cc1aa77573c4f4821907a0", "fusion_lon": 0.0, "bike_id": "78e6138572cc1aa77573c4f4821907a0", "is_disabled": 0, "is_reserved": 0}, {"rental_uris": {"ios": "https://dc.lft.to/lastmile_qr_scan", "android": "https://dc.lft.to/lastmile_qr_scan"}, "lon": -77.0343695, "type": "electric_scooter", "fusion_lat": 0.0, "lat": 38.903485, "name": "cd4b55248ec68b26bc28788ce16dcb94", "fusion_lon": 0.0, "bike_id": "cd4b55248ec68b26bc28788ce16dcb94", "is_disabled": 0, "is_reserved": 0}, {"rental_uris": {"ios": "https://dc.lft.to/lastmile_qr_scan", "android": "https://dc.lft.to/lastmile_qr_scan"}, "lon": -77.007261, "type": "electric_scooter", "fusion_lat": 0.0, "lat": 38.88490133333333, "name": "4738a1d16a71a37e483a1c39b38cf1c1", "fusion_lon": 0.0, "bike_id": "4738a1d16a71a37e483a1c39b38cf1c1", "is_disabled": 0, "is_reserved": 0}, {"rental_uris": {"ios": "https://dc.lft.to/lastmile_qr_scan", "android": "https://dc.lft.to/lastmile_qr_scan"}, "lon": -77.0320785, "type": "electric_scooter", "fusion_lat": 0.0, "lat": 38.92580366666667, "name": "8da4d47186083458b9272b352784d7be", "fusion_lon": 0.0, "bike_id": "8da4d47186083458b9272b352784d7be", "is_disabled": 0, "is_reserved": 0}, {"rental_uris": {"ios": "https://dc.lft.to/lastmile_qr_scan", "android": "https://dc.lft.to/lastmile_qr_scan"}, "lon": -77.01094383333333, "type": "electric_scooter", "fusion_lat": 0.0, "lat": 38.894633166666665, "name": "b562e31e8b9c8222796ec3917738a4db", "fusion_lon": 0.0, "bike_id": "b562e31e8b9c8222796ec3917738a4db", "is_disabled": 0, "is_reserved": 0}, {"rental_uris": {"ios": "https://dc.lft.to/lastmile_qr_scan", "android": "https://dc.lft.to/lastmile_qr_scan"}, "lon": -77.04217516666667, "type": "electric_scooter", "fusion_lat": 0.0, "lat": 38.911141666666666, "name": "0b209ab95a11401e3eb21627b8fd2591", "fusion_lon": 0.0, "bike_id": "0b209ab95a11401e3eb21627b8fd2591", "is_disabled": 0, "is_reserved": 0}, {"rental_uris": {"ios": "https://dc.lft.to/lastmile_qr_scan", "android": "https://dc.lft.to/lastmile_qr_scan"}, "lon": -77.075623, "type": "electric_scooter", "fusion_lat": 0.0, "lat": 38.92087566666667, "name": "6302ec3ce89f7562550362e9b39e9e83", "fusion_lon": 0.0, "bike_id": "6302ec3ce89f7562550362e9b39e9e83", "is_disabled": 0, "is_reserved": 0}, {"rental_uris": {"ios": "https://dc.lft.to/lastmile_qr_scan", "android": "https://dc.lft.to/lastmile_qr_scan"}, "lon": -76.9995485, "type": "electric_scooter", "fusion_lat": 0.0, "lat": 38.908425666666666, "name": "06a8221c09e81ee4219d5db335458cb0", "fusion_lon": 0.0, "bike_id": "06a8221c09e81ee4219d5db335458cb0", "is_disabled": 0, "is_reserved": 0}, {"rental_uris": {"ios": "https://dc.lft.to/lastmile_qr_scan", "android": "https://dc.lft.to/lastmile_qr_scan"}, "lon": -77.0180485, "type": "electric_scooter", "fusion_lat": 0.0, "lat": 38.942028666666666, "name": "a520ceb1779eb27553f37e03713d3289", "fusion_lon": 0.0, "bike_id": "a520ceb1779eb27553f37e03713d3289", "is_disabled": 0, "is_reserved": 0}, {"rental_uris": {"ios": "https://dc.lft.to/lastmile_qr_scan", "android": "https://dc.lft.to/lastmile_qr_scan"}, "lon": -77.01416516666667, "type": "electric_scooter", "fusion_lat": 0.0, "lat": 38.916966333333335, "name": "aba7fa52f77edee3165b2844ed9c6d59", "fusion_lon": 0.0, "bike_id": "aba7fa52f77edee3165b2844ed9c6d59", "is_disabled": 0, "is_reserved": 0}, {"rental_uris": {"ios": "https://dc.lft.to/lastmile_qr_scan", "android": "https://dc.lft.to/lastmile_qr_scan"}, "lon": -77.02997133333334, "type": "electric_scooter", "fusion_lat": 0.0, "lat": 38.9344945, "name": "61398745d98fa1ba99db20e9bbe98eeb", "fusion_lon": 0.0, "bike_id": "61398745d98fa1ba99db20e9bbe98eeb", "is_disabled": 0, "is_reserved": 0}, {"rental_uris": {"ios": "https://dc.lft.to/lastmile_qr_scan", "android": "https://dc.lft.to/lastmile_qr_scan"}, "lon": -77.00492, "type": "electric_scooter", "fusion_lat": 0.0, "lat": 38.87884483333333, "name": "3b9fc7bf3bc96b0f608f9d10a51d9e2a", "fusion_lon": 0.0, "bike_id": "3b9fc7bf3bc96b0f608f9d10a51d9e2a", "is_disabled": 0, "is_reserved": 0}, {"rental_uris": {"ios": "https://dc.lft.to/lastmile_qr_scan", "android": "https://dc.lft.to/lastmile_qr_scan"}, "lon": -77.03803683333334, "type": "electric_bike", "fusion_lat": 0.0, "lat": 38.93067216666667, "name": "25154c8d313ac9283169e89d29c7ca3b", "fusion_lon": 0.0, "bike_id": "25154c8d313ac9283169e89d29c7ca3b", "is_disabled": 0, "is_reserved": 0}, {"rental_uris": {"ios": "https://dc.lft.to/lastmile_qr_scan", "android": "https://dc.lft.to/lastmile_qr_scan"}, "lon": -77.0364635, "type": "electric_scooter", "fusion_lat": 0.0, "lat": 38.91297266666667, "name": "40b7716c5860e46196318d1e517a0805", "fusion_lon": 0.0, "bike_id": "40b7716c5860e46196318d1e517a0805", "is_disabled": 0, "is_reserved": 0}, {"rental_uris": {"ios": "https://dc.lft.to/lastmile_qr_scan", "android": "https://dc.lft.to/lastmile_qr_scan"}, "lon": -76.99836866666666, "type": "electric_bike", "fusion_lat": 0.0, "lat": 38.839176, "name": "d189622ce51dfebc2610b4e161a87e78", "fusion_lon": 0.0, "bike_id": "d189622ce51dfebc2610b4e161a87e78", "is_disabled": 0, "is_reserved": 0}, {"rental_uris": {"ios": "https://dc.lft.to/lastmile_qr_scan", "android": "https://dc.lft.to/lastmile_qr_scan"}, "lon": -77.02566666666667, "type": "electric_scooter", "fusion_lat": 0.0, "lat": 38.88748566666666, "name": "d535d6ae46d20af87c4b0de226f0f50e", "fusion_lon": 0.0, "bike_id": "d535d6ae46d20af87c4b0de226f0f50e", "is_disabled": 0, "is_reserved": 0}, {"rental_uris": {"ios": "https://dc.lft.to/lastmile_qr_scan", "android": "https://dc.lft.to/lastmile_qr_scan"}, "lon": -77.04103416666666, "type": "electric_scooter", "fusion_lat": 0.0, "lat": 38.923625333333334, "name": "2a88fa5fc5521c8ca25f6d8503c11c1b", "fusion_lon": 0.0, "bike_id": "2a88fa5fc5521c8ca25f6d8503c11c1b", "is_disabled": 0, "is_reserved": 0}, {"rental_uris": {"ios": "https://dc.lft.to/lastmile_qr_scan", "android": "https://dc.lft.to/lastmile_qr_scan"}, "lon": -76.93570733333334, "type": "electric_bike", "fusion_lat": 0.0, "lat": 38.885285, "name": "16037d0bcbd691c654c4f0bf24627f2d", "fusion_lon": 0.0, "bike_id": "16037d0bcbd691c654c4f0bf24627f2d", "is_disabled": 0, "is_reserved": 0}, {"rental_uris": {"ios": "https://dc.lft.to/lastmile_qr_scan", "android": "https://dc.lft.to/lastmile_qr_scan"}, "lon": -76.94971466666667, "type": "electric_scooter", "fusion_lat": 0.0, "lat": 38.893641333333335, "name": "1801d650b1c4d7a2aa80fbe2b079db38", "fusion_lon": 0.0, "bike_id": "1801d650b1c4d7a2aa80fbe2b079db38", "is_disabled": 0, "is_reserved": 0}, {"rental_uris": {"ios": "https://dc.lft.to/lastmile_qr_scan", "android": "https://dc.lft.to/lastmile_qr_scan"}, "lon": -77.041507, "type": "electric_scooter", "fusion_lat": 0.0, "lat": 38.917868, "name": "8defebd83520f6c6055a6032b47430aa", "fusion_lon": 0.0, "bike_id": "8defebd83520f6c6055a6032b47430aa", "is_disabled": 0, "is_reserved": 0}, {"rental_uris": {"ios": "https://dc.lft.to/lastmile_qr_scan", "android": "https://dc.lft.to/lastmile_qr_scan"}, "lon": -76.98022983333334, "type": "electric_scooter", "fusion_lat": 0.0, "lat": 38.903778, "name": "853e798ba19f9e062c0e6048ebbc36f4", "fusion_lon": 0.0, "bike_id": "853e798ba19f9e062c0e6048ebbc36f4", "is_disabled": 0, "is_reserved": 0}, {"rental_uris": {"ios": "https://dc.lft.to/lastmile_qr_scan", "android": "https://dc.lft.to/lastmile_qr_scan"}, "lon": -77.02489733333333, "type": "electric_scooter", "fusion_lat": 0.0, "lat": 38.901737, "name": "1fbb79c831f30eec3a7c7bdfc0c59aba", "fusion_lon": 0.0, "bike_id": "1fbb79c831f30eec3a7c7bdfc0c59aba", "is_disabled": 0, "is_reserved": 0}, {"rental_uris": {"ios": "https://dc.lft.to/lastmile_qr_scan", "android": "https://dc.lft.to/lastmile_qr_scan"}, "lon": -77.02990916666667, "type": "electric_bike", "fusion_lat": 0.0, "lat": 38.900294833333334, "name": "14a7c61ef3f691dffe354fac558086d7", "fusion_lon": 0.0, "bike_id": "14a7c61ef3f691dffe354fac558086d7", "is_disabled": 0, "is_reserved": 0}, {"rental_uris": {"ios": "https://dc.lft.to/lastmile_qr_scan", "android": "https://dc.lft.to/lastmile_qr_scan"}, "lon": -77.0380105, "type": "electric_bike", "fusion_lat": 0.0, "lat": 38.9967745, "name": "512c49068789ea7e4b3e20095b424755", "fusion_lon": 0.0, "bike_id": "512c49068789ea7e4b3e20095b424755", "is_disabled": 0, "is_reserved": 0}, {"rental_uris": {"ios": "https://dc.lft.to/lastmile_qr_scan", "android": "https://dc.lft.to/lastmile_qr_scan"}, "lon": -77.038265, "type": "electric_scooter", "fusion_lat": 0.0, "lat": 38.9216495, "name": "7b38ae6680c3557ba3086711eb6e7fd5", "fusion_lon": 0.0, "bike_id": "7b38ae6680c3557ba3086711eb6e7fd5", "is_disabled": 0, "is_reserved": 0}, {"rental_uris": {"ios": "https://dc.lft.to/lastmile_qr_scan", "android": "https://dc.lft.to/lastmile_qr_scan"}, "lon": -76.957378, "type": "electric_scooter", "fusion_lat": 0.0, "lat": 38.892201, "name": "11edf6ac4ae9e0fbed5e7e36f94cbd79", "fusion_lon": 0.0, "bike_id": "11edf6ac4ae9e0fbed5e7e36f94cbd79", "is_disabled": 0, "is_reserved": 0}, {"rental_uris": {"ios": "https://dc.lft.to/lastmile_qr_scan", "android": "https://dc.lft.to/lastmile_qr_scan"}, "lon": -77.01877816666666, "type": "electric_scooter", "fusion_lat": 0.0, "lat": 38.90623566666667, "name": "bc96698bb05223054ed2ba9d455a07b5", "fusion_lon": 0.0, "bike_id": "bc96698bb05223054ed2ba9d455a07b5", "is_disabled": 0, "is_reserved": 0}, {"rental_uris": {"ios": "https://dc.lft.to/lastmile_qr_scan", "android": "https://dc.lft.to/lastmile_qr_scan"}, "lon": -77.05004966666667, "type": "electric_scooter", "fusion_lat": 0.0, "lat": 38.89230533333333, "name": "96d413da0dae3175e34390577c101fc7", "fusion_lon": 0.0, "bike_id": "96d413da0dae3175e34390577c101fc7", "is_disabled": 0, "is_reserved": 0}, {"rental_uris": {"ios": "https://dc.lft.to/lastmile_qr_scan", "android": "https://dc.lft.to/lastmile_qr_scan"}, "lon": -77.13167616666667, "type": "electric_bike", "fusion_lat": 0.0, "lat": 38.868947166666665, "name": "9382595304bfab622e1ad34f7e960416", "fusion_lon": 0.0, "bike_id": "9382595304bfab622e1ad34f7e960416", "is_disabled": 0, "is_reserved": 0}, {"rental_uris": {"ios": "https://dc.lft.to/lastmile_qr_scan", "android": "https://dc.lft.to/lastmile_qr_scan"}, "lon": -77.0480715, "type": "electric_scooter", "fusion_lat": 0.0, "lat": 38.91650416666667, "name": "c51189c0aab3a8a7f5cb02281bae383a", "fusion_lon": 0.0, "bike_id": "c51189c0aab3a8a7f5cb02281bae383a", "is_disabled": 0, "is_reserved": 0}, {"rental_uris": {"ios": "https://dc.lft.to/lastmile_qr_scan", "android": "https://dc.lft.to/lastmile_qr_scan"}, "lon": -77.04300583333334, "type": "electric_scooter", "fusion_lat": 0.0, "lat": 38.9072705, "name": "c9d0021300fc98298d3d25dbe7af4879", "fusion_lon": 0.0, "bike_id": "c9d0021300fc98298d3d25dbe7af4879", "is_disabled": 0, "is_reserved": 0}, {"rental_uris": {"ios": "https://dc.lft.to/lastmile_qr_scan", "android": "https://dc.lft.to/lastmile_qr_scan"}, "lon": -77.01354633333334, "type": "electric_scooter", "fusion_lat": 0.0, "lat": 38.91981333333333, "name": "2d2d212476040ab2c259e0e81469d871", "fusion_lon": 0.0, "bike_id": "2d2d212476040ab2c259e0e81469d871", "is_disabled": 0, "is_reserved": 0}, {"rental_uris": {"ios": "https://dc.lft.to/lastmile_qr_scan", "android": "https://dc.lft.to/lastmile_qr_scan"}, "lon": -77.03263866666667, "type": "electric_scooter", "fusion_lat": 0.0, "lat": 38.91982316666667, "name": "83c7088748acd8da34241e3225931d08", "fusion_lon": 0.0, "bike_id": "83c7088748acd8da34241e3225931d08", "is_disabled": 0, "is_reserved": 0}, {"rental_uris": {"ios": "https://dc.lft.to/lastmile_qr_scan", "android": "https://dc.lft.to/lastmile_qr_scan"}, "lon": -77.04031383333333, "type": "electric_scooter", "fusion_lat": 0.0, "lat": 38.924304166666666, "name": "1b8072d9d6483b233dc4922d229fff6b", "fusion_lon": 0.0, "bike_id": "1b8072d9d6483b233dc4922d229fff6b", "is_disabled": 0, "is_reserved": 0}, {"rental_uris": {"ios": "https://dc.lft.to/lastmile_qr_scan", "android": "https://dc.lft.to/lastmile_qr_scan"}, "lon": -77.0333175, "type": "electric_scooter", "fusion_lat": 0.0, "lat": 38.90339516666667, "name": "1e0f8eceec33aa3846503be9036bc845", "fusion_lon": 0.0, "bike_id": "1e0f8eceec33aa3846503be9036bc845", "is_disabled": 0, "is_reserved": 0}, {"rental_uris": {"ios": "https://dc.lft.to/lastmile_qr_scan", "android": "https://dc.lft.to/lastmile_qr_scan"}, "lon": -77.02502016666666, "type": "electric_scooter", "fusion_lat": 0.0, "lat": 38.88041283333333, "name": "99a2d7012236e36d68dfae5f8b67e6c3", "fusion_lon": 0.0, "bike_id": "99a2d7012236e36d68dfae5f8b67e6c3", "is_disabled": 0, "is_reserved": 0}, {"rental_uris": {"ios": "https://dc.lft.to/lastmile_qr_scan", "android": "https://dc.lft.to/lastmile_qr_scan"}, "lon": -77.03940366666667, "type": "electric_scooter", "fusion_lat": 0.0, "lat": 38.93149233333333, "name": "17150b383613e633b0e3c1eb45c11661", "fusion_lon": 0.0, "bike_id": "17150b383613e633b0e3c1eb45c11661", "is_disabled": 0, "is_reserved": 0}, {"rental_uris": {"ios": "https://dc.lft.to/lastmile_qr_scan", "android": "https://dc.lft.to/lastmile_qr_scan"}, "lon": -76.9772925, "type": "electric_scooter", "fusion_lat": 0.0, "lat": 38.8728845, "name": "24417e5f099b875410ac7ddd56a1de8e", "fusion_lon": 0.0, "bike_id": "24417e5f099b875410ac7ddd56a1de8e", "is_disabled": 0, "is_reserved": 0}, {"rental_uris": {"ios": "https://dc.lft.to/lastmile_qr_scan", "android": "https://dc.lft.to/lastmile_qr_scan"}, "lon": -76.94944316666667, "type": "electric_scooter", "fusion_lat": 0.0, "lat": 38.88378066666667, "name": "7a69e1ed85a57a065384a103519be556", "fusion_lon": 0.0, "bike_id": "7a69e1ed85a57a065384a103519be556", "is_disabled": 0, "is_reserved": 0}, {"rental_uris": {"ios": "https://dc.lft.to/lastmile_qr_scan", "android": "https://dc.lft.to/lastmile_qr_scan"}, "lon": -77.03948483333333, "type": "electric_scooter", "fusion_lat": 0.0, "lat": 38.898595, "name": "cf4b3afe72539671d4a38b62c3e9aea8", "fusion_lon": 0.0, "bike_id": "cf4b3afe72539671d4a38b62c3e9aea8", "is_disabled": 0, "is_reserved": 0}, {"rental_uris": {"ios": "https://dc.lft.to/lastmile_qr_scan", "android": "https://dc.lft.to/lastmile_qr_scan"}, "lon": -77.05060166666667, "type": "electric_scooter", "fusion_lat": 0.0, "lat": 38.90523133333333, "name": "3bcbd2c7067e0ee13ee36a04d6d21a52", "fusion_lon": 0.0, "bike_id": "3bcbd2c7067e0ee13ee36a04d6d21a52", "is_disabled": 0, "is_reserved": 0}, {"rental_uris": {"ios": "https://dc.lft.to/lastmile_qr_scan", "android": "https://dc.lft.to/lastmile_qr_scan"}, "lon": -77.02134333333333, "type": "electric_scooter", "fusion_lat": 0.0, "lat": 38.896944166666664, "name": "0715eff76056e36f7a3fbdb12f2562d1", "fusion_lon": 0.0, "bike_id": "0715eff76056e36f7a3fbdb12f2562d1", "is_disabled": 0, "is_reserved": 0}, {"rental_uris": {"ios": "https://dc.lft.to/lastmile_qr_scan", "android": "https://dc.lft.to/lastmile_qr_scan"}, "lon": -77.02341083333333, "type": "electric_scooter", "fusion_lat": 0.0, "lat": 38.96207166666667, "name": "eaf7a5ef09a384a07998fb04e30d412b", "fusion_lon": 0.0, "bike_id": "eaf7a5ef09a384a07998fb04e30d412b", "is_disabled": 0, "is_reserved": 0}, {"rental_uris": {"ios": "https://dc.lft.to/lastmile_qr_scan", "android": "https://dc.lft.to/lastmile_qr_scan"}, "lon": -77.03895433333334, "type": "electric_scooter", "fusion_lat": 0.0, "lat": 38.923273, "name": "193325ceb7d9525baf2e1d2cd116faa5", "fusion_lon": 0.0, "bike_id": "193325ceb7d9525baf2e1d2cd116faa5", "is_disabled": 0, "is_reserved": 0}, {"rental_uris": {"ios": "https://dc.lft.to/lastmile_qr_scan", "android": "https://dc.lft.to/lastmile_qr_scan"}, "lon": -77.04214666666667, "type": "electric_scooter", "fusion_lat": 0.0, "lat": 38.90743783333333, "name": "bbc19916bbd75c9f122c077e3c85248a", "fusion_lon": 0.0, "bike_id": "bbc19916bbd75c9f122c077e3c85248a", "is_disabled": 0, "is_reserved": 0}, {"rental_uris": {"ios": "https://dc.lft.to/lastmile_qr_scan", "android": "https://dc.lft.to/lastmile_qr_scan"}, "lon": -77.02840883333333, "type": "electric_scooter", "fusion_lat": 0.0, "lat": 38.93067416666667, "name": "42218278ba94b9a3c75a78c5f0cf15a6", "fusion_lon": 0.0, "bike_id": "42218278ba94b9a3c75a78c5f0cf15a6", "is_disabled": 0, "is_reserved": 0}, {"rental_uris": {"ios": "https://dc.lft.to/lastmile_qr_scan", "android": "https://dc.lft.to/lastmile_qr_scan"}, "lon": -77.043892, "type": "electric_scooter", "fusion_lat": 0.0, "lat": 38.929417666666666, "name": "9eecaca7b76536c3c7c80ac09d3de6e0", "fusion_lon": 0.0, "bike_id": "9eecaca7b76536c3c7c80ac09d3de6e0", "is_disabled": 0, "is_reserved": 0}, {"rental_uris": {"ios": "https://dc.lft.to/lastmile_qr_scan", "android": "https://dc.lft.to/lastmile_qr_scan"}, "lon": -77.030798, "type": "electric_scooter", "fusion_lat": 0.0, "lat": 38.92237933333333, "name": "164667b582d8d2eaf81cc5b897fee200", "fusion_lon": 0.0, "bike_id": "164667b582d8d2eaf81cc5b897fee200", "is_disabled": 0, "is_reserved": 0}, {"rental_uris": {"ios": "https://dc.lft.to/lastmile_qr_scan", "android": "https://dc.lft.to/lastmile_qr_scan"}, "lon": -77.01391816666667, "type": "electric_scooter", "fusion_lat": 0.0, "lat": 38.928506166666665, "name": "9a3aef8766cf88bab193b8d04be9fd29", "fusion_lon": 0.0, "bike_id": "9a3aef8766cf88bab193b8d04be9fd29", "is_disabled": 0, "is_reserved": 0}, {"rental_uris": {"ios": "https://dc.lft.to/lastmile_qr_scan", "android": "https://dc.lft.to/lastmile_qr_scan"}, "lon": -77.0059185, "type": "electric_scooter", "fusion_lat": 0.0, "lat": 38.91564016666667, "name": "89301c0d45264c31ace529bb95fc249c", "fusion_lon": 0.0, "bike_id": "89301c0d45264c31ace529bb95fc249c", "is_disabled": 0, "is_reserved": 0}, {"rental_uris": {"ios": "https://dc.lft.to/lastmile_qr_scan", "android": "https://dc.lft.to/lastmile_qr_scan"}, "lon": -77.030094, "type": "electric_scooter", "fusion_lat": 0.0, "lat": 38.91931833333334, "name": "2c5adb9612874e81bf56df47917f6e30", "fusion_lon": 0.0, "bike_id": "2c5adb9612874e81bf56df47917f6e30", "is_disabled": 0, "is_reserved": 0}, {"rental_uris": {"ios": "https://dc.lft.to/lastmile_qr_scan", "android": "https://dc.lft.to/lastmile_qr_scan"}, "lon": -77.1250275, "type": "electric_bike", "fusion_lat": 0.0, "lat": 39.02413716666667, "name": "91d6754579479f770d89fbd500108c2c", "fusion_lon": 0.0, "bike_id": "91d6754579479f770d89fbd500108c2c", "is_disabled": 0, "is_reserved": 0}, {"rental_uris": {"ios": "https://dc.lft.to/lastmile_qr_scan", "android": "https://dc.lft.to/lastmile_qr_scan"}, "lon": -77.04983616666667, "type": "electric_scooter", "fusion_lat": 0.0, "lat": 38.90787133333333, "name": "dc92469300bec999ab95b520753196f7", "fusion_lon": 0.0, "bike_id": "dc92469300bec999ab95b520753196f7", "is_disabled": 0, "is_reserved": 0}, {"rental_uris": {"ios": "https://dc.lft.to/lastmile_qr_scan", "android": "https://dc.lft.to/lastmile_qr_scan"}, "lon": -77.0346795, "type": "electric_scooter", "fusion_lat": 0.0, "lat": 38.9169435, "name": "eacd75f4d418890ea748eabbc7fe0e1a", "fusion_lon": 0.0, "bike_id": "eacd75f4d418890ea748eabbc7fe0e1a", "is_disabled": 0, "is_reserved": 0}, {"rental_uris": {"ios": "https://dc.lft.to/lastmile_qr_scan", "android": "https://dc.lft.to/lastmile_qr_scan"}, "lon": -77.2221575, "type": "electric_bike", "fusion_lat": 0.0, "lat": 38.92081016666667, "name": "489aa0b350f312c9fdc728131dff7fb9", "fusion_lon": 0.0, "bike_id": "489aa0b350f312c9fdc728131dff7fb9", "is_disabled": 0, "is_reserved": 0}, {"rental_uris": {"ios": "https://dc.lft.to/lastmile_qr_scan", "android": "https://dc.lft.to/lastmile_qr_scan"}, "lon": -77.0317365, "type": "electric_scooter", "fusion_lat": 0.0, "lat": 38.920938, "name": "d589898d8746d26f12ddb804f5b533bf", "fusion_lon": 0.0, "bike_id": "d589898d8746d26f12ddb804f5b533bf", "is_disabled": 0, "is_reserved": 0}, {"rental_uris": {"ios": "https://dc.lft.to/lastmile_qr_scan", "android": "https://dc.lft.to/lastmile_qr_scan"}, "lon": -77.02170616666666, "type": "electric_scooter", "fusion_lat": 0.0, "lat": 38.899107666666666, "name": "558e8c908aec2fe1c940e2244afdd774", "fusion_lon": 0.0, "bike_id": "558e8c908aec2fe1c940e2244afdd774", "is_disabled": 0, "is_reserved": 0}, {"rental_uris": {"ios": "https://dc.lft.to/lastmile_qr_scan", "android": "https://dc.lft.to/lastmile_qr_scan"}, "lon": -76.93733633333333, "type": "electric_scooter", "fusion_lat": 0.0, "lat": 38.8901085, "name": "60a49f52fda3e577de611befd9b79e54", "fusion_lon": 0.0, "bike_id": "60a49f52fda3e577de611befd9b79e54", "is_disabled": 0, "is_reserved": 0}, {"rental_uris": {"ios": "https://dc.lft.to/lastmile_qr_scan", "android": "https://dc.lft.to/lastmile_qr_scan"}, "lon": -77.02017483333333, "type": "electric_scooter", "fusion_lat": 0.0, "lat": 38.94975683333333, "name": "469ed4108703b85bab307599221ed7eb", "fusion_lon": 0.0, "bike_id": "469ed4108703b85bab307599221ed7eb", "is_disabled": 0, "is_reserved": 0}, {"rental_uris": {"ios": "https://dc.lft.to/lastmile_qr_scan", "android": "https://dc.lft.to/lastmile_qr_scan"}, "lon": -77.01405916666667, "type": "electric_scooter", "fusion_lat": 0.0, "lat": 38.92817483333333, "name": "9c62973b8e4cd9b8394b2eeafdeff9c8", "fusion_lon": 0.0, "bike_id": "9c62973b8e4cd9b8394b2eeafdeff9c8", "is_disabled": 0, "is_reserved": 0}, {"rental_uris": {"ios": "https://dc.lft.to/lastmile_qr_scan", "android": "https://dc.lft.to/lastmile_qr_scan"}, "lon": -77.027635, "type": "electric_scooter", "fusion_lat": 0.0, "lat": 38.894729, "name": "07ca8ade921b3c7f782c8cda12585a8e", "fusion_lon": 0.0, "bike_id": "07ca8ade921b3c7f782c8cda12585a8e", "is_disabled": 0, "is_reserved": 0}, {"rental_uris": {"ios": "https://dc.lft.to/lastmile_qr_scan", "android": "https://dc.lft.to/lastmile_qr_scan"}, "lon": -76.94716683333333, "type": "electric_scooter", "fusion_lat": 0.0, "lat": 38.89734283333333, "name": "871498d513fa5d09e4698e367e493b7c", "fusion_lon": 0.0, "bike_id": "871498d513fa5d09e4698e367e493b7c", "is_disabled": 0, "is_reserved": 0}, {"rental_uris": {"ios": "https://dc.lft.to/lastmile_qr_scan", "android": "https://dc.lft.to/lastmile_qr_scan"}, "lon": -77.02221783333333, "type": "electric_scooter", "fusion_lat": 0.0, "lat": 38.89351083333333, "name": "57d38607bff8b90c159a572feac9ca5a", "fusion_lon": 0.0, "bike_id": "57d38607bff8b90c159a572feac9ca5a", "is_disabled": 0, "is_reserved": 0}, {"rental_uris": {"ios": "https://dc.lft.to/lastmile_qr_scan", "android": "https://dc.lft.to/lastmile_qr_scan"}, "lon": -77.0379975, "type": "electric_scooter", "fusion_lat": 0.0, "lat": 38.929938666666665, "name": "fccd230170246acb33c855d42a722943", "fusion_lon": 0.0, "bike_id": "fccd230170246acb33c855d42a722943", "is_disabled": 0, "is_reserved": 0}, {"rental_uris": {"ios": "https://dc.lft.to/lastmile_qr_scan", "android": "https://dc.lft.to/lastmile_qr_scan"}, "lon": -76.98714433333333, "type": "electric_scooter", "fusion_lat": 0.0, "lat": 38.86256366666667, "name": "5594723f585a3118d3c8a5626d4364ad", "fusion_lon": 0.0, "bike_id": "5594723f585a3118d3c8a5626d4364ad", "is_disabled": 0, "is_reserved": 0}, {"rental_uris": {"ios": "https://dc.lft.to/lastmile_qr_scan", "android": "https://dc.lft.to/lastmile_qr_scan"}, "lon": -77.04606833333334, "type": "electric_scooter", "fusion_lat": 0.0, "lat": 38.922289, "name": "8bac080a57d3b24bc783e0faedf3f241", "fusion_lon": 0.0, "bike_id": "8bac080a57d3b24bc783e0faedf3f241", "is_disabled": 0, "is_reserved": 0}, {"rental_uris": {"ios": "https://dc.lft.to/lastmile_qr_scan", "android": "https://dc.lft.to/lastmile_qr_scan"}, "lon": -77.059253, "type": "electric_scooter", "fusion_lat": 0.0, "lat": 38.90957316666667, "name": "42f833240fa4a3bb9d278af1c338778c", "fusion_lon": 0.0, "bike_id": "42f833240fa4a3bb9d278af1c338778c", "is_disabled": 0, "is_reserved": 0}, {"rental_uris": {"ios": "https://dc.lft.to/lastmile_qr_scan", "android": "https://dc.lft.to/lastmile_qr_scan"}, "lon": -77.05847, "type": "electric_scooter", "fusion_lat": 0.0, "lat": 38.93421766666667, "name": "ae0f2ad69a741e95b9c7ebda94ba5586", "fusion_lon": 0.0, "bike_id": "ae0f2ad69a741e95b9c7ebda94ba5586", "is_disabled": 0, "is_reserved": 0}, {"rental_uris": {"ios": "https://dc.lft.to/lastmile_qr_scan", "android": "https://dc.lft.to/lastmile_qr_scan"}, "lon": -77.00736216666667, "type": "electric_scooter", "fusion_lat": 0.0, "lat": 38.879121166666664, "name": "8d002bd2366af5b336bf8e8519a79bab", "fusion_lon": 0.0, "bike_id": "8d002bd2366af5b336bf8e8519a79bab", "is_disabled": 0, "is_reserved": 0}, {"rental_uris": {"ios": "https://dc.lft.to/lastmile_qr_scan", "android": "https://dc.lft.to/lastmile_qr_scan"}, "lon": -76.99692483333334, "type": "electric_scooter", "fusion_lat": 0.0, "lat": 38.900718833333336, "name": "f4b006b234f1c9a405566879da6d04d2", "fusion_lon": 0.0, "bike_id": "f4b006b234f1c9a405566879da6d04d2", "is_disabled": 0, "is_reserved": 0}, {"rental_uris": {"ios": "https://dc.lft.to/lastmile_qr_scan", "android": "https://dc.lft.to/lastmile_qr_scan"}, "lon": -76.93226116666666, "type": "electric_bike", "fusion_lat": 0.0, "lat": 38.865981, "name": "09a138b9fbc94a080bc0bfa3aace6cf3", "fusion_lon": 0.0, "bike_id": "09a138b9fbc94a080bc0bfa3aace6cf3", "is_disabled": 0, "is_reserved": 0}, {"rental_uris": {"ios": "https://dc.lft.to/lastmile_qr_scan", "android": "https://dc.lft.to/lastmile_qr_scan"}, "lon": -76.99512983333334, "type": "electric_scooter", "fusion_lat": 0.0, "lat": 38.89478866666666, "name": "32ae7a6c780613117c22bc4b0ba5ecd6", "fusion_lon": 0.0, "bike_id": "32ae7a6c780613117c22bc4b0ba5ecd6", "is_disabled": 0, "is_reserved": 0}, {"rental_uris": {"ios": "https://dc.lft.to/lastmile_qr_scan", "android": "https://dc.lft.to/lastmile_qr_scan"}, "lon": -77.03419466666666, "type": "electric_scooter", "fusion_lat": 0.0, "lat": 38.91919766666667, "name": "50ed52cad8934a5324fee041b557028a", "fusion_lon": 0.0, "bike_id": "50ed52cad8934a5324fee041b557028a", "is_disabled": 0, "is_reserved": 0}, {"rental_uris": {"ios": "https://dc.lft.to/lastmile_qr_scan", "android": "https://dc.lft.to/lastmile_qr_scan"}, "lon": -77.12960683333333, "type": "electric_bike", "fusion_lat": 0.0, "lat": 38.8521605, "name": "4ba4ee2710139a81ca0dd0d0d799d2a9", "fusion_lon": 0.0, "bike_id": "4ba4ee2710139a81ca0dd0d0d799d2a9", "is_disabled": 0, "is_reserved": 0}, {"rental_uris": {"ios": "https://dc.lft.to/lastmile_qr_scan", "android": "https://dc.lft.to/lastmile_qr_scan"}, "lon": -76.97287983333334, "type": "electric_scooter", "fusion_lat": 0.0, "lat": 38.90332133333333, "name": "cb8c82789bb95c1a3c77993eb9a9e1fc", "fusion_lon": 0.0, "bike_id": "cb8c82789bb95c1a3c77993eb9a9e1fc", "is_disabled": 0, "is_reserved": 0}, {"rental_uris": {"ios": "https://dc.lft.to/lastmile_qr_scan", "android": "https://dc.lft.to/lastmile_qr_scan"}, "lon": -77.04170283333333, "type": "electric_scooter", "fusion_lat": 0.0, "lat": 38.905565333333335, "name": "d376f78fd1417cda949602d0cae4c6e7", "fusion_lon": 0.0, "bike_id": "d376f78fd1417cda949602d0cae4c6e7", "is_disabled": 0, "is_reserved": 0}, {"rental_uris": {"ios": "https://dc.lft.to/lastmile_qr_scan", "android": "https://dc.lft.to/lastmile_qr_scan"}, "lon": -76.94212566666667, "type": "electric_scooter", "fusion_lat": 0.0, "lat": 38.896748333333335, "name": "423a312bf0d9d8c4c65c140425afa898", "fusion_lon": 0.0, "bike_id": "423a312bf0d9d8c4c65c140425afa898", "is_disabled": 0, "is_reserved": 0}, {"rental_uris": {"ios": "https://dc.lft.to/lastmile_qr_scan", "android": "https://dc.lft.to/lastmile_qr_scan"}, "lon": -77.092069, "type": "electric_scooter", "fusion_lat": 0.0, "lat": 38.94135083333333, "name": "dfeecb453223e20da700da98fbc41d67", "fusion_lon": 0.0, "bike_id": "dfeecb453223e20da700da98fbc41d67", "is_disabled": 0, "is_reserved": 0}, {"rental_uris": {"ios": "https://dc.lft.to/lastmile_qr_scan", "android": "https://dc.lft.to/lastmile_qr_scan"}, "lon": -77.00341733333333, "type": "electric_scooter", "fusion_lat": 0.0, "lat": 38.893595833333336, "name": "9b0dce389be3119b41f00a77e460b914", "fusion_lon": 0.0, "bike_id": "9b0dce389be3119b41f00a77e460b914", "is_disabled": 0, "is_reserved": 0}, {"rental_uris": {"ios": "https://dc.lft.to/lastmile_qr_scan", "android": "https://dc.lft.to/lastmile_qr_scan"}, "lon": -77.05476266666666, "type": "electric_scooter", "fusion_lat": 0.0, "lat": 38.893898666666665, "name": "17dc2069a4d473ceaaa39c4f1118ed09", "fusion_lon": 0.0, "bike_id": "17dc2069a4d473ceaaa39c4f1118ed09", "is_disabled": 0, "is_reserved": 0}, {"rental_uris": {"ios": "https://dc.lft.to/lastmile_qr_scan", "android": "https://dc.lft.to/lastmile_qr_scan"}, "lon": -77.0532885, "type": "electric_scooter", "fusion_lat": 0.0, "lat": 38.90642866666666, "name": "1ce37da16d7f3bd690bb4ca445ce9c6d", "fusion_lon": 0.0, "bike_id": "1ce37da16d7f3bd690bb4ca445ce9c6d", "is_disabled": 0, "is_reserved": 0}, {"rental_uris": {"ios": "https://dc.lft.to/lastmile_qr_scan", "android": "https://dc.lft.to/lastmile_qr_scan"}, "lon": -77.04664066666666, "type": "electric_scooter", "fusion_lat": 0.0, "lat": 38.90549766666667, "name": "bf1c4e8e56d3bbc0ca39554510207cd6", "fusion_lon": 0.0, "bike_id": "bf1c4e8e56d3bbc0ca39554510207cd6", "is_disabled": 0, "is_reserved": 0}, {"rental_uris": {"ios": "https://dc.lft.to/lastmile_qr_scan", "android": "https://dc.lft.to/lastmile_qr_scan"}, "lon": -77.01563883333333, "type": "electric_scooter", "fusion_lat": 0.0, "lat": 38.91692316666666, "name": "232b9e271096dcc3b2eb521c4244a43c", "fusion_lon": 0.0, "bike_id": "232b9e271096dcc3b2eb521c4244a43c", "is_disabled": 0, "is_reserved": 0}, {"rental_uris": {"ios": "https://dc.lft.to/lastmile_qr_scan", "android": "https://dc.lft.to/lastmile_qr_scan"}, "lon": -77.03497816666666, "type": "electric_scooter", "fusion_lat": 0.0, "lat": 38.9285985, "name": "b29f161e3c3067c328de6fe828db2e93", "fusion_lon": 0.0, "bike_id": "b29f161e3c3067c328de6fe828db2e93", "is_disabled": 0, "is_reserved": 0}, {"rental_uris": {"ios": "https://dc.lft.to/lastmile_qr_scan", "android": "https://dc.lft.to/lastmile_qr_scan"}, "lon": -77.36089533333333, "type": "electric_bike", "fusion_lat": 0.0, "lat": 38.939614166666665, "name": "ab9a4ee8c9010a6a11ced5fab4119502", "fusion_lon": 0.0, "bike_id": "ab9a4ee8c9010a6a11ced5fab4119502", "is_disabled": 0, "is_reserved": 0}, {"rental_uris": {"ios": "https://dc.lft.to/lastmile_qr_scan", "android": "https://dc.lft.to/lastmile_qr_scan"}, "lon": -76.94778066666667, "type": "electric_bike", "fusion_lat": 0.0, "lat": 38.894391, "name": "7ef74d800b9f38af7fde13a5aa58a5aa", "fusion_lon": 0.0, "bike_id": "7ef74d800b9f38af7fde13a5aa58a5aa", "is_disabled": 0, "is_reserved": 0}, {"rental_uris": {"ios": "https://dc.lft.to/lastmile_qr_scan", "android": "https://dc.lft.to/lastmile_qr_scan"}, "lon": -77.040826, "type": "electric_scooter", "fusion_lat": 0.0, "lat": 38.907119, "name": "ae7e3a29d6910b7157819fbab90993e7", "fusion_lon": 0.0, "bike_id": "ae7e3a29d6910b7157819fbab90993e7", "is_disabled": 0, "is_reserved": 0}, {"rental_uris": {"ios": "https://dc.lft.to/lastmile_qr_scan", "android": "https://dc.lft.to/lastmile_qr_scan"}, "lon": -76.97980383333334, "type": "electric_bike", "fusion_lat": 0.0, "lat": 38.877457, "name": "d37eb0eaa58726afcb5ced5a29578534", "fusion_lon": 0.0, "bike_id": "d37eb0eaa58726afcb5ced5a29578534", "is_disabled": 0, "is_reserved": 0}, {"rental_uris": {"ios": "https://dc.lft.to/lastmile_qr_scan", "android": "https://dc.lft.to/lastmile_qr_scan"}, "lon": -77.01080733333333, "type": "electric_scooter", "fusion_lat": 0.0, "lat": 38.91811083333333, "name": "a93a62135415071bc5554bb91472c459", "fusion_lon": 0.0, "bike_id": "a93a62135415071bc5554bb91472c459", "is_disabled": 0, "is_reserved": 0}, {"rental_uris": {"ios": "https://dc.lft.to/lastmile_qr_scan", "android": "https://dc.lft.to/lastmile_qr_scan"}, "lon": -77.03299166666666, "type": "electric_scooter", "fusion_lat": 0.0, "lat": 38.922180166666664, "name": "8a9ae0454940a4c8b984fc558ff63216", "fusion_lon": 0.0, "bike_id": "8a9ae0454940a4c8b984fc558ff63216", "is_disabled": 0, "is_reserved": 0}, {"rental_uris": {"ios": "https://dc.lft.to/lastmile_qr_scan", "android": "https://dc.lft.to/lastmile_qr_scan"}, "lon": -77.00105866666667, "type": "electric_scooter", "fusion_lat": 0.0, "lat": 38.894313, "name": "308e05920706f0b8632211186f1664b9", "fusion_lon": 0.0, "bike_id": "308e05920706f0b8632211186f1664b9", "is_disabled": 0, "is_reserved": 0}, {"rental_uris": {"ios": "https://dc.lft.to/lastmile_qr_scan", "android": "https://dc.lft.to/lastmile_qr_scan"}, "lon": -77.02999966666667, "type": "electric_scooter", "fusion_lat": 0.0, "lat": 38.9247505, "name": "b141fab800d18057e8fb89a434e00d76", "fusion_lon": 0.0, "bike_id": "b141fab800d18057e8fb89a434e00d76", "is_disabled": 0, "is_reserved": 0}, {"rental_uris": {"ios": "https://dc.lft.to/lastmile_qr_scan", "android": "https://dc.lft.to/lastmile_qr_scan"}, "lon": -77.020942, "type": "electric_scooter", "fusion_lat": 0.0, "lat": 38.91005216666667, "name": "5920954a3269d700e6c86149570620aa", "fusion_lon": 0.0, "bike_id": "5920954a3269d700e6c86149570620aa", "is_disabled": 0, "is_reserved": 0}, {"rental_uris": {"ios": "https://dc.lft.to/lastmile_qr_scan", "android": "https://dc.lft.to/lastmile_qr_scan"}, "lon": -77.0415135, "type": "electric_scooter", "fusion_lat": 0.0, "lat": 38.903405666666664, "name": "af98dd0a0cf388e5ee6416352e4fd3fb", "fusion_lon": 0.0, "bike_id": "af98dd0a0cf388e5ee6416352e4fd3fb", "is_disabled": 0, "is_reserved": 0}, {"rental_uris": {"ios": "https://dc.lft.to/lastmile_qr_scan", "android": "https://dc.lft.to/lastmile_qr_scan"}, "lon": -77.02580333333333, "type": "electric_scooter", "fusion_lat": 0.0, "lat": 38.89248583333333, "name": "1d0f25956fc5b89ec4f4fbd8994e7f6a", "fusion_lon": 0.0, "bike_id": "1d0f25956fc5b89ec4f4fbd8994e7f6a", "is_disabled": 0, "is_reserved": 0}, {"rental_uris": {"ios": "https://dc.lft.to/lastmile_qr_scan", "android": "https://dc.lft.to/lastmile_qr_scan"}, "lon": -77.07907566666667, "type": "electric_scooter", "fusion_lat": 0.0, "lat": 38.94802466666667, "name": "c224d06f2f311ba894dfa2802862aebd", "fusion_lon": 0.0, "bike_id": "c224d06f2f311ba894dfa2802862aebd", "is_disabled": 0, "is_reserved": 0}, {"rental_uris": {"ios": "https://dc.lft.to/lastmile_qr_scan", "android": "https://dc.lft.to/lastmile_qr_scan"}, "lon": -77.0258845, "type": "electric_scooter", "fusion_lat": 0.0, "lat": 38.90364833333334, "name": "4b4716b9dd4342f92ace92cfa9f2cc82", "fusion_lon": 0.0, "bike_id": "4b4716b9dd4342f92ace92cfa9f2cc82", "is_disabled": 0, "is_reserved": 0}, {"rental_uris": {"ios": "https://dc.lft.to/lastmile_qr_scan", "android": "https://dc.lft.to/lastmile_qr_scan"}, "lon": -77.0318155, "type": "electric_scooter", "fusion_lat": 0.0, "lat": 38.916409, "name": "37f2bd0e0cf0328771c0a02df1e45c1f", "fusion_lon": 0.0, "bike_id": "37f2bd0e0cf0328771c0a02df1e45c1f", "is_disabled": 0, "is_reserved": 0}, {"rental_uris": {"ios": "https://dc.lft.to/lastmile_qr_scan", "android": "https://dc.lft.to/lastmile_qr_scan"}, "lon": -77.0470465, "type": "electric_scooter", "fusion_lat": 0.0, "lat": 38.922388833333336, "name": "2dfb6b502d2357136127dc16d3a12148", "fusion_lon": 0.0, "bike_id": "2dfb6b502d2357136127dc16d3a12148", "is_disabled": 0, "is_reserved": 0}, {"rental_uris": {"ios": "https://dc.lft.to/lastmile_qr_scan", "android": "https://dc.lft.to/lastmile_qr_scan"}, "lon": -77.05000533333333, "type": "electric_scooter", "fusion_lat": 0.0, "lat": 38.9012005, "name": "8ce9f4a608f4dac7396468a786a3237f", "fusion_lon": 0.0, "bike_id": "8ce9f4a608f4dac7396468a786a3237f", "is_disabled": 0, "is_reserved": 0}, {"rental_uris": {"ios": "https://dc.lft.to/lastmile_qr_scan", "android": "https://dc.lft.to/lastmile_qr_scan"}, "lon": -76.948871, "type": "electric_scooter", "fusion_lat": 0.0, "lat": 38.8952315, "name": "cca3bd7dcec65fd81d0e48f0fe1966a0", "fusion_lon": 0.0, "bike_id": "cca3bd7dcec65fd81d0e48f0fe1966a0", "is_disabled": 0, "is_reserved": 0}, {"rental_uris": {"ios": "https://dc.lft.to/lastmile_qr_scan", "android": "https://dc.lft.to/lastmile_qr_scan"}, "lon": -77.032107, "type": "electric_scooter", "fusion_lat": 0.0, "lat": 38.9258155, "name": "9bcf1d5ce9c3751c4f000ab8f085991f", "fusion_lon": 0.0, "bike_id": "9bcf1d5ce9c3751c4f000ab8f085991f", "is_disabled": 0, "is_reserved": 0}, {"rental_uris": {"ios": "https://dc.lft.to/lastmile_qr_scan", "android": "https://dc.lft.to/lastmile_qr_scan"}, "lon": -77.00373133333333, "type": "electric_scooter", "fusion_lat": 0.0, "lat": 38.87662266666667, "name": "c2170f66e54aec13b8806e7a78a84e02", "fusion_lon": 0.0, "bike_id": "c2170f66e54aec13b8806e7a78a84e02", "is_disabled": 0, "is_reserved": 0}, {"rental_uris": {"ios": "https://dc.lft.to/lastmile_qr_scan", "android": "https://dc.lft.to/lastmile_qr_scan"}, "lon": -77.00983116666667, "type": "electric_scooter", "fusion_lat": 0.0, "lat": 38.8959565, "name": "d2112235236d39eb367946d9b638c01b", "fusion_lon": 0.0, "bike_id": "d2112235236d39eb367946d9b638c01b", "is_disabled": 0, "is_reserved": 0}, {"rental_uris": {"ios": "https://dc.lft.to/lastmile_qr_scan", "android": "https://dc.lft.to/lastmile_qr_scan"}, "lon": -77.04335166666667, "type": "electric_scooter", "fusion_lat": 0.0, "lat": 38.91220116666667, "name": "84cad5430ad2c0ab9609bfcb1049dbac", "fusion_lon": 0.0, "bike_id": "84cad5430ad2c0ab9609bfcb1049dbac", "is_disabled": 0, "is_reserved": 0}, {"rental_uris": {"ios": "https://dc.lft.to/lastmile_qr_scan", "android": "https://dc.lft.to/lastmile_qr_scan"}, "lon": -77.019499, "type": "electric_scooter", "fusion_lat": 0.0, "lat": 38.924158, "name": "7ea9c1006821d8597fec09686b5afbe3", "fusion_lon": 0.0, "bike_id": "7ea9c1006821d8597fec09686b5afbe3", "is_disabled": 0, "is_reserved": 0}, {"rental_uris": {"ios": "https://dc.lft.to/lastmile_qr_scan", "android": "https://dc.lft.to/lastmile_qr_scan"}, "lon": -77.00860666666667, "type": "electric_bike", "fusion_lat": 0.0, "lat": 38.82730883333333, "name": "0fc1cbb5b9c46e796e898e4b06c3cc12", "fusion_lon": 0.0, "bike_id": "0fc1cbb5b9c46e796e898e4b06c3cc12", "is_disabled": 0, "is_reserved": 0}, {"rental_uris": {"ios": "https://dc.lft.to/lastmile_qr_scan", "android": "https://dc.lft.to/lastmile_qr_scan"}, "lon": -76.98555483333334, "type": "electric_scooter", "fusion_lat": 0.0, "lat": 38.85593016666667, "name": "149da4574e011d198e717e3af481e991", "fusion_lon": 0.0, "bike_id": "149da4574e011d198e717e3af481e991", "is_disabled": 0, "is_reserved": 0}, {"rental_uris": {"ios": "https://dc.lft.to/lastmile_qr_scan", "android": "https://dc.lft.to/lastmile_qr_scan"}, "lon": -77.04495766666666, "type": "electric_scooter", "fusion_lat": 0.0, "lat": 38.91947166666667, "name": "3a645b2ee379ee8fbac38dfc54e70482", "fusion_lon": 0.0, "bike_id": "3a645b2ee379ee8fbac38dfc54e70482", "is_disabled": 0, "is_reserved": 0}, {"rental_uris": {"ios": "https://dc.lft.to/lastmile_qr_scan", "android": "https://dc.lft.to/lastmile_qr_scan"}, "lon": -76.94633516666667, "type": "electric_scooter", "fusion_lat": 0.0, "lat": 38.898295166666664, "name": "2f94984b1c7cbefd5335ba70990f457d", "fusion_lon": 0.0, "bike_id": "2f94984b1c7cbefd5335ba70990f457d", "is_disabled": 0, "is_reserved": 0}, {"rental_uris": {"ios": "https://dc.lft.to/lastmile_qr_scan", "android": "https://dc.lft.to/lastmile_qr_scan"}, "lon": -77.0385685, "type": "electric_scooter", "fusion_lat": 0.0, "lat": 38.915534, "name": "f3ce8a20b4d68a9b49326b0e200f07a6", "fusion_lon": 0.0, "bike_id": "f3ce8a20b4d68a9b49326b0e200f07a6", "is_disabled": 0, "is_reserved": 0}, {"rental_uris": {"ios": "https://dc.lft.to/lastmile_qr_scan", "android": "https://dc.lft.to/lastmile_qr_scan"}, "lon": -77.02134066666666, "type": "electric_scooter", "fusion_lat": 0.0, "lat": 38.896890666666664, "name": "26f0c93b5608c410157926770097194c", "fusion_lon": 0.0, "bike_id": "26f0c93b5608c410157926770097194c", "is_disabled": 0, "is_reserved": 0}, {"rental_uris": {"ios": "https://dc.lft.to/lastmile_qr_scan", "android": "https://dc.lft.to/lastmile_qr_scan"}, "lon": -77.09547416666666, "type": "electric_bike", "fusion_lat": 0.0, "lat": 38.837303, "name": "636aed6bb8761d10feed811216541228", "fusion_lon": 0.0, "bike_id": "636aed6bb8761d10feed811216541228", "is_disabled": 0, "is_reserved": 0}, {"rental_uris": {"ios": "https://dc.lft.to/lastmile_qr_scan", "android": "https://dc.lft.to/lastmile_qr_scan"}, "lon": -77.0037565, "type": "electric_bike", "fusion_lat": 0.0, "lat": 38.8359985, "name": "0a58fbdcdf6f28a8fae35f2195580c79", "fusion_lon": 0.0, "bike_id": "0a58fbdcdf6f28a8fae35f2195580c79", "is_disabled": 0, "is_reserved": 0}, {"rental_uris": {"ios": "https://dc.lft.to/lastmile_qr_scan", "android": "https://dc.lft.to/lastmile_qr_scan"}, "lon": -77.02796883333333, "type": "electric_scooter", "fusion_lat": 0.0, "lat": 38.96186816666667, "name": "dcfeb01db5db6128f44fdb24a97dc826", "fusion_lon": 0.0, "bike_id": "dcfeb01db5db6128f44fdb24a97dc826", "is_disabled": 0, "is_reserved": 0}, {"rental_uris": {"ios": "https://dc.lft.to/lastmile_qr_scan", "android": "https://dc.lft.to/lastmile_qr_scan"}, "lon": -77.03780283333333, "type": "electric_scooter", "fusion_lat": 0.0, "lat": 38.92219216666667, "name": "4cf47669cdb2cb1b88f7ca5efae674b6", "fusion_lon": 0.0, "bike_id": "4cf47669cdb2cb1b88f7ca5efae674b6", "is_disabled": 0, "is_reserved": 0}, {"rental_uris": {"ios": "https://dc.lft.to/lastmile_qr_scan", "android": "https://dc.lft.to/lastmile_qr_scan"}, "lon": -77.050596, "type": "electric_scooter", "fusion_lat": 0.0, "lat": 38.90516783333333, "name": "69fccca65711ffaacf4576c7f811e82a", "fusion_lon": 0.0, "bike_id": "69fccca65711ffaacf4576c7f811e82a", "is_disabled": 0, "is_reserved": 0}, {"rental_uris": {"ios": "https://dc.lft.to/lastmile_qr_scan", "android": "https://dc.lft.to/lastmile_qr_scan"}, "lon": -77.00368183333333, "type": "electric_scooter", "fusion_lat": 0.0, "lat": 38.83804516666667, "name": "cf193ab95c3b4db8fe6da3738588a51c", "fusion_lon": 0.0, "bike_id": "cf193ab95c3b4db8fe6da3738588a51c", "is_disabled": 0, "is_reserved": 0}, {"rental_uris": {"ios": "https://dc.lft.to/lastmile_qr_scan", "android": "https://dc.lft.to/lastmile_qr_scan"}, "lon": -77.0324815, "type": "electric_bike", "fusion_lat": 0.0, "lat": 38.933818333333335, "name": "2931b80034755f83fb014fadf68cca37", "fusion_lon": 0.0, "bike_id": "2931b80034755f83fb014fadf68cca37", "is_disabled": 0, "is_reserved": 0}, {"rental_uris": {"ios": "https://dc.lft.to/lastmile_qr_scan", "android": "https://dc.lft.to/lastmile_qr_scan"}, "lon": -77.018175, "type": "electric_scooter", "fusion_lat": 0.0, "lat": 38.919776166666665, "name": "6dcb90544e83e5e0dd7519c1568a572a", "fusion_lon": 0.0, "bike_id": "6dcb90544e83e5e0dd7519c1568a572a", "is_disabled": 0, "is_reserved": 0}, {"rental_uris": {"ios": "https://dc.lft.to/lastmile_qr_scan", "android": "https://dc.lft.to/lastmile_qr_scan"}, "lon": -77.0272665, "type": "electric_scooter", "fusion_lat": 0.0, "lat": 38.92482566666666, "name": "22f7977454e1da72f6c44ae622608931", "fusion_lon": 0.0, "bike_id": "22f7977454e1da72f6c44ae622608931", "is_disabled": 0, "is_reserved": 0}, {"rental_uris": {"ios": "https://dc.lft.to/lastmile_qr_scan", "android": "https://dc.lft.to/lastmile_qr_scan"}, "lon": -77.02563616666667, "type": "electric_scooter", "fusion_lat": 0.0, "lat": 38.9253515, "name": "8b0bcfea043cd4c6b422904f946d895a", "fusion_lon": 0.0, "bike_id": "8b0bcfea043cd4c6b422904f946d895a", "is_disabled": 0, "is_reserved": 0}, {"rental_uris": {"ios": "https://dc.lft.to/lastmile_qr_scan", "android": "https://dc.lft.to/lastmile_qr_scan"}, "lon": -76.9472805, "type": "electric_scooter", "fusion_lat": 0.0, "lat": 38.89673283333333, "name": "92aef938ba3e73099f3754d57502eee9", "fusion_lon": 0.0, "bike_id": "92aef938ba3e73099f3754d57502eee9", "is_disabled": 0, "is_reserved": 0}, {"rental_uris": {"ios": "https://dc.lft.to/lastmile_qr_scan", "android": "https://dc.lft.to/lastmile_qr_scan"}, "lon": -77.02725783333334, "type": "electric_scooter", "fusion_lat": 0.0, "lat": 38.92476666666666, "name": "7fc79770c7cdab88a1483d513ac44c19", "fusion_lon": 0.0, "bike_id": "7fc79770c7cdab88a1483d513ac44c19", "is_disabled": 0, "is_reserved": 0}, {"rental_uris": {"ios": "https://dc.lft.to/lastmile_qr_scan", "android": "https://dc.lft.to/lastmile_qr_scan"}, "lon": -77.04378933333334, "type": "electric_scooter", "fusion_lat": 0.0, "lat": 38.91794066666667, "name": "88a66b8231e7611388b8933aad63e49e", "fusion_lon": 0.0, "bike_id": "88a66b8231e7611388b8933aad63e49e", "is_disabled": 0, "is_reserved": 0}, {"rental_uris": {"ios": "https://dc.lft.to/lastmile_qr_scan", "android": "https://dc.lft.to/lastmile_qr_scan"}, "lon": -77.033331, "type": "electric_scooter", "fusion_lat": 0.0, "lat": 38.900310166666664, "name": "0235894646a147744934fcf4feb6828c", "fusion_lon": 0.0, "bike_id": "0235894646a147744934fcf4feb6828c", "is_disabled": 0, "is_reserved": 0}, {"rental_uris": {"ios": "https://dc.lft.to/lastmile_qr_scan", "android": "https://dc.lft.to/lastmile_qr_scan"}, "lon": -77.04646233333334, "type": "electric_bike", "fusion_lat": 0.0, "lat": 38.852097, "name": "c6dcb4b185a84040050f7e9025c91d33", "fusion_lon": 0.0, "bike_id": "c6dcb4b185a84040050f7e9025c91d33", "is_disabled": 0, "is_reserved": 0}, {"rental_uris": {"ios": "https://dc.lft.to/lastmile_qr_scan", "android": "https://dc.lft.to/lastmile_qr_scan"}, "lon": -76.9984825, "type": "electric_scooter", "fusion_lat": 0.0, "lat": 38.90005716666667, "name": "d3a63fd8079551546db763536f1ee119", "fusion_lon": 0.0, "bike_id": "d3a63fd8079551546db763536f1ee119", "is_disabled": 0, "is_reserved": 0}, {"rental_uris": {"ios": "https://dc.lft.to/lastmile_qr_scan", "android": "https://dc.lft.to/lastmile_qr_scan"}, "lon": -77.04188566666667, "type": "electric_scooter", "fusion_lat": 0.0, "lat": 38.92610783333333, "name": "c3302463c82278f5d7b461fc131f0f7b", "fusion_lon": 0.0, "bike_id": "c3302463c82278f5d7b461fc131f0f7b", "is_disabled": 0, "is_reserved": 0}, {"rental_uris": {"ios": "https://dc.lft.to/lastmile_qr_scan", "android": "https://dc.lft.to/lastmile_qr_scan"}, "lon": -77.0415485, "type": "electric_scooter", "fusion_lat": 0.0, "lat": 38.919148666666665, "name": "8221ddb1dc3e54ae19b4dc50594072c6", "fusion_lon": 0.0, "bike_id": "8221ddb1dc3e54ae19b4dc50594072c6", "is_disabled": 0, "is_reserved": 0}, {"rental_uris": {"ios": "https://dc.lft.to/lastmile_qr_scan", "android": "https://dc.lft.to/lastmile_qr_scan"}, "lon": -77.0005835, "type": "electric_scooter", "fusion_lat": 0.0, "lat": 38.90051166666667, "name": "cc91af863fb70ba6c1127cd238d960ed", "fusion_lon": 0.0, "bike_id": "cc91af863fb70ba6c1127cd238d960ed", "is_disabled": 0, "is_reserved": 0}, {"rental_uris": {"ios": "https://dc.lft.to/lastmile_qr_scan", "android": "https://dc.lft.to/lastmile_qr_scan"}, "lon": -76.96551666666667, "type": "electric_bike", "fusion_lat": 0.0, "lat": 38.95095383333334, "name": "4d8604304427e730d6574c2a23fd791c", "fusion_lon": 0.0, "bike_id": "4d8604304427e730d6574c2a23fd791c", "is_disabled": 0, "is_reserved": 0}, {"rental_uris": {"ios": "https://dc.lft.to/lastmile_qr_scan", "android": "https://dc.lft.to/lastmile_qr_scan"}, "lon": -77.01398566666667, "type": "electric_scooter", "fusion_lat": 0.0, "lat": 38.92824866666667, "name": "0bd21316bd9fc0be7080861724302127", "fusion_lon": 0.0, "bike_id": "0bd21316bd9fc0be7080861724302127", "is_disabled": 0, "is_reserved": 0}, {"rental_uris": {"ios": "https://dc.lft.to/lastmile_qr_scan", "android": "https://dc.lft.to/lastmile_qr_scan"}, "lon": -77.00261716666667, "type": "electric_scooter", "fusion_lat": 0.0, "lat": 38.877467, "name": "cb6cceec694fd0559b981286b9999053", "fusion_lon": 0.0, "bike_id": "cb6cceec694fd0559b981286b9999053", "is_disabled": 0, "is_reserved": 0}, {"rental_uris": {"ios": "https://dc.lft.to/lastmile_qr_scan", "android": "https://dc.lft.to/lastmile_qr_scan"}, "lon": -77.05153583333333, "type": "electric_scooter", "fusion_lat": 0.0, "lat": 38.897715, "name": "f138457e3dd48e5ac4abbbe5e74f8d38", "fusion_lon": 0.0, "bike_id": "f138457e3dd48e5ac4abbbe5e74f8d38", "is_disabled": 0, "is_reserved": 0}, {"rental_uris": {"ios": "https://dc.lft.to/lastmile_qr_scan", "android": "https://dc.lft.to/lastmile_qr_scan"}, "lon": -77.00318183333333, "type": "electric_scooter", "fusion_lat": 0.0, "lat": 38.901276833333334, "name": "5c743656bb277d2a1032ede3a0b3aad0", "fusion_lon": 0.0, "bike_id": "5c743656bb277d2a1032ede3a0b3aad0", "is_disabled": 0, "is_reserved": 0}, {"rental_uris": {"ios": "https://dc.lft.to/lastmile_qr_scan", "android": "https://dc.lft.to/lastmile_qr_scan"}, "lon": -77.02949, "type": "electric_scooter", "fusion_lat": 0.0, "lat": 38.90500633333333, "name": "b71fe6118054607c6eed55569601c615", "fusion_lon": 0.0, "bike_id": "b71fe6118054607c6eed55569601c615", "is_disabled": 0, "is_reserved": 0}, {"rental_uris": {"ios": "https://dc.lft.to/lastmile_qr_scan", "android": "https://dc.lft.to/lastmile_qr_scan"}, "lon": -77.02191766666667, "type": "electric_scooter", "fusion_lat": 0.0, "lat": 38.8977965, "name": "bb676106209d4c8fb7be2b9a1e730a5f", "fusion_lon": 0.0, "bike_id": "bb676106209d4c8fb7be2b9a1e730a5f", "is_disabled": 0, "is_reserved": 0}, {"rental_uris": {"ios": "https://dc.lft.to/lastmile_qr_scan", "android": "https://dc.lft.to/lastmile_qr_scan"}, "lon": -77.050273, "type": "electric_scooter", "fusion_lat": 0.0, "lat": 38.900810666666665, "name": "574556374b07d8ff560372b245e46bdf", "fusion_lon": 0.0, "bike_id": "574556374b07d8ff560372b245e46bdf", "is_disabled": 0, "is_reserved": 0}, {"rental_uris": {"ios": "https://dc.lft.to/lastmile_qr_scan", "android": "https://dc.lft.to/lastmile_qr_scan"}, "lon": -77.02211416666667, "type": "electric_scooter", "fusion_lat": 0.0, "lat": 38.887675, "name": "291931ad8cab88b6a90b04e0d7cb6d47", "fusion_lon": 0.0, "bike_id": "291931ad8cab88b6a90b04e0d7cb6d47", "is_disabled": 0, "is_reserved": 0}, {"rental_uris": {"ios": "https://dc.lft.to/lastmile_qr_scan", "android": "https://dc.lft.to/lastmile_qr_scan"}, "lon": -77.00656516666666, "type": "electric_scooter", "fusion_lat": 0.0, "lat": 38.94461183333333, "name": "98b168a0771b30130355191aa0e6e11a", "fusion_lon": 0.0, "bike_id": "98b168a0771b30130355191aa0e6e11a", "is_disabled": 0, "is_reserved": 0}, {"rental_uris": {"ios": "https://dc.lft.to/lastmile_qr_scan", "android": "https://dc.lft.to/lastmile_qr_scan"}, "lon": -76.98402766666666, "type": "electric_scooter", "fusion_lat": 0.0, "lat": 38.859685166666665, "name": "ef3d11b51f09a97a3146b898a3417308", "fusion_lon": 0.0, "bike_id": "ef3d11b51f09a97a3146b898a3417308", "is_disabled": 0, "is_reserved": 0}, {"rental_uris": {"ios": "https://dc.lft.to/lastmile_qr_scan", "android": "https://dc.lft.to/lastmile_qr_scan"}, "lon": -77.04897933333334, "type": "electric_scooter", "fusion_lat": 0.0, "lat": 38.903520666666665, "name": "65e60fde07e8b1309943f813b4f2cc85", "fusion_lon": 0.0, "bike_id": "65e60fde07e8b1309943f813b4f2cc85", "is_disabled": 0, "is_reserved": 0}, {"rental_uris": {"ios": "https://dc.lft.to/lastmile_qr_scan", "android": "https://dc.lft.to/lastmile_qr_scan"}, "lon": -77.10505566666667, "type": "electric_bike", "fusion_lat": 0.0, "lat": 38.92847666666667, "name": "0674ab3e84225ffc54c7b342d2f25e4b", "fusion_lon": 0.0, "bike_id": "0674ab3e84225ffc54c7b342d2f25e4b", "is_disabled": 0, "is_reserved": 0}, {"rental_uris": {"ios": "https://dc.lft.to/lastmile_qr_scan", "android": "https://dc.lft.to/lastmile_qr_scan"}, "lon": -77.03098683333333, "type": "electric_scooter", "fusion_lat": 0.0, "lat": 38.900234166666664, "name": "1714cb8327a117284829c726fa2a5ba0", "fusion_lon": 0.0, "bike_id": "1714cb8327a117284829c726fa2a5ba0", "is_disabled": 0, "is_reserved": 0}, {"rental_uris": {"ios": "https://dc.lft.to/lastmile_qr_scan", "android": "https://dc.lft.to/lastmile_qr_scan"}, "lon": -77.03224566666667, "type": "electric_scooter", "fusion_lat": 0.0, "lat": 38.9181245, "name": "b4ec50115041f7d080355abf2b7a8e51", "fusion_lon": 0.0, "bike_id": "b4ec50115041f7d080355abf2b7a8e51", "is_disabled": 0, "is_reserved": 0}, {"rental_uris": {"ios": "https://dc.lft.to/lastmile_qr_scan", "android": "https://dc.lft.to/lastmile_qr_scan"}, "lon": -77.04463633333333, "type": "electric_scooter", "fusion_lat": 0.0, "lat": 38.9155945, "name": "d2d3003d852f47116c9f293cbd262be8", "fusion_lon": 0.0, "bike_id": "d2d3003d852f47116c9f293cbd262be8", "is_disabled": 0, "is_reserved": 0}, {"rental_uris": {"ios": "https://dc.lft.to/lastmile_qr_scan", "android": "https://dc.lft.to/lastmile_qr_scan"}, "lon": -77.0027585, "type": "electric_scooter", "fusion_lat": 0.0, "lat": 38.89736166666667, "name": "2302cdce51f853b1221420188c7f9902", "fusion_lon": 0.0, "bike_id": "2302cdce51f853b1221420188c7f9902", "is_disabled": 0, "is_reserved": 0}, {"rental_uris": {"ios": "https://dc.lft.to/lastmile_qr_scan", "android": "https://dc.lft.to/lastmile_qr_scan"}, "lon": -77.08937583333334, "type": "electric_bike", "fusion_lat": 0.0, "lat": 38.84099366666667, "name": "edc08104d0a411f254a1bc279dfb3a39", "fusion_lon": 0.0, "bike_id": "edc08104d0a411f254a1bc279dfb3a39", "is_disabled": 0, "is_reserved": 0}, {"rental_uris": {"ios": "https://dc.lft.to/lastmile_qr_scan", "android": "https://dc.lft.to/lastmile_qr_scan"}, "lon": -77.05137983333333, "type": "electric_scooter", "fusion_lat": 0.0, "lat": 38.9052365, "name": "f3c7b83407e71f482d4f61d38c5f1870", "fusion_lon": 0.0, "bike_id": "f3c7b83407e71f482d4f61d38c5f1870", "is_disabled": 0, "is_reserved": 0}, {"rental_uris": {"ios": "https://dc.lft.to/lastmile_qr_scan", "android": "https://dc.lft.to/lastmile_qr_scan"}, "lon": -77.02953816666667, "type": "electric_scooter", "fusion_lat": 0.0, "lat": 38.915901, "name": "3cbd68b7c3cf3898c843c985846b246e", "fusion_lon": 0.0, "bike_id": "3cbd68b7c3cf3898c843c985846b246e", "is_disabled": 0, "is_reserved": 0}, {"rental_uris": {"ios": "https://dc.lft.to/lastmile_qr_scan", "android": "https://dc.lft.to/lastmile_qr_scan"}, "lon": -77.02396083333333, "type": "electric_scooter", "fusion_lat": 0.0, "lat": 38.916, "name": "c8cf8910ddf645d874142b286e11df87", "fusion_lon": 0.0, "bike_id": "c8cf8910ddf645d874142b286e11df87", "is_disabled": 0, "is_reserved": 0}, {"rental_uris": {"ios": "https://dc.lft.to/lastmile_qr_scan", "android": "https://dc.lft.to/lastmile_qr_scan"}, "lon": -77.00358583333333, "type": "electric_scooter", "fusion_lat": 0.0, "lat": 38.899315, "name": "0cc0b1493f0585c28fd85f28d23e5c98", "fusion_lon": 0.0, "bike_id": "0cc0b1493f0585c28fd85f28d23e5c98", "is_disabled": 0, "is_reserved": 0}, {"rental_uris": {"ios": "https://dc.lft.to/lastmile_qr_scan", "android": "https://dc.lft.to/lastmile_qr_scan"}, "lon": -77.0320995, "type": "electric_bike", "fusion_lat": 0.0, "lat": 38.91563583333333, "name": "40d05f46f90d5a515fc967f4d76fcb85", "fusion_lon": 0.0, "bike_id": "40d05f46f90d5a515fc967f4d76fcb85", "is_disabled": 0, "is_reserved": 0}, {"rental_uris": {"ios": "https://dc.lft.to/lastmile_qr_scan", "android": "https://dc.lft.to/lastmile_qr_scan"}, "lon": -77.04742833333333, "type": "electric_scooter", "fusion_lat": 0.0, "lat": 38.902257, "name": "64b4619ca6dd316c22756b6c0a290c51", "fusion_lon": 0.0, "bike_id": "64b4619ca6dd316c22756b6c0a290c51", "is_disabled": 0, "is_reserved": 0}, {"rental_uris": {"ios": "https://dc.lft.to/lastmile_qr_scan", "android": "https://dc.lft.to/lastmile_qr_scan"}, "lon": -77.12261533333333, "type": "electric_bike", "fusion_lat": 0.0, "lat": 38.891875, "name": "834e22d907616ae2c61bad8a3ba9fe51", "fusion_lon": 0.0, "bike_id": "834e22d907616ae2c61bad8a3ba9fe51", "is_disabled": 0, "is_reserved": 0}, {"rental_uris": {"ios": "https://dc.lft.to/lastmile_qr_scan", "android": "https://dc.lft.to/lastmile_qr_scan"}, "lon": -77.1120665, "type": "electric_bike", "fusion_lat": 0.0, "lat": 38.813104, "name": "a305c0cd1dade56a3ca4f248c290fb40", "fusion_lon": 0.0, "bike_id": "a305c0cd1dade56a3ca4f248c290fb40", "is_disabled": 0, "is_reserved": 0}, {"rental_uris": {"ios": "https://dc.lft.to/lastmile_qr_scan", "android": "https://dc.lft.to/lastmile_qr_scan"}, "lon": -77.11220466666667, "type": "electric_bike", "fusion_lat": 0.0, "lat": 38.828716166666666, "name": "f206645582e4a5abba281ed1ddee5d07", "fusion_lon": 0.0, "bike_id": "f206645582e4a5abba281ed1ddee5d07", "is_disabled": 0, "is_reserved": 0}, {"rental_uris": {"ios": "https://dc.lft.to/lastmile_qr_scan", "android": "https://dc.lft.to/lastmile_qr_scan"}, "lon": -77.05002683333333, "type": "electric_scooter", "fusion_lat": 0.0, "lat": 38.89895216666667, "name": "c9763bc37e888abc265ca2fd63d44cf2", "fusion_lon": 0.0, "bike_id": "c9763bc37e888abc265ca2fd63d44cf2", "is_disabled": 0, "is_reserved": 0}, {"rental_uris": {"ios": "https://dc.lft.to/lastmile_qr_scan", "android": "https://dc.lft.to/lastmile_qr_scan"}, "lon": -76.935403, "type": "electric_bike", "fusion_lat": 0.0, "lat": 38.955405166666665, "name": "4acc8fb25df436eb5026b066d0639cf4", "fusion_lon": 0.0, "bike_id": "4acc8fb25df436eb5026b066d0639cf4", "is_disabled": 0, "is_reserved": 0}, {"rental_uris": {"ios": "https://dc.lft.to/lastmile_qr_scan", "android": "https://dc.lft.to/lastmile_qr_scan"}, "lon": -77.02597783333333, "type": "electric_scooter", "fusion_lat": 0.0, "lat": 38.9169135, "name": "faea122d73bb8dfa4f5149d7c91e753b", "fusion_lon": 0.0, "bike_id": "faea122d73bb8dfa4f5149d7c91e753b", "is_disabled": 0, "is_reserved": 0}, {"rental_uris": {"ios": "https://dc.lft.to/lastmile_qr_scan", "android": "https://dc.lft.to/lastmile_qr_scan"}, "lon": -77.0020135, "type": "electric_scooter", "fusion_lat": 0.0, "lat": 38.900341, "name": "fad454877aeb8d88e2e0b707adbee104", "fusion_lon": 0.0, "bike_id": "fad454877aeb8d88e2e0b707adbee104", "is_disabled": 0, "is_reserved": 0}, {"rental_uris": {"ios": "https://dc.lft.to/lastmile_qr_scan", "android": "https://dc.lft.to/lastmile_qr_scan"}, "lon": -77.03352566666666, "type": "electric_scooter", "fusion_lat": 0.0, "lat": 38.9243495, "name": "ee8d013de48ff50d7b5cd09beb7dd16a", "fusion_lon": 0.0, "bike_id": "ee8d013de48ff50d7b5cd09beb7dd16a", "is_disabled": 0, "is_reserved": 0}, {"rental_uris": {"ios": "https://dc.lft.to/lastmile_qr_scan", "android": "https://dc.lft.to/lastmile_qr_scan"}, "lon": -77.07684283333333, "type": "electric_bike", "fusion_lat": 0.0, "lat": 38.8319035, "name": "cd71eef17b976f1063702b72b7409833", "fusion_lon": 0.0, "bike_id": "cd71eef17b976f1063702b72b7409833", "is_disabled": 0, "is_reserved": 0}, {"rental_uris": {"ios": "https://dc.lft.to/lastmile_qr_scan", "android": "https://dc.lft.to/lastmile_qr_scan"}, "lon": -77.0345065, "type": "electric_scooter", "fusion_lat": 0.0, "lat": 38.907371166666664, "name": "13a8857f8012aead4a1575d8c6aebf24", "fusion_lon": 0.0, "bike_id": "13a8857f8012aead4a1575d8c6aebf24", "is_disabled": 0, "is_reserved": 0}, {"rental_uris": {"ios": "https://dc.lft.to/lastmile_qr_scan", "android": "https://dc.lft.to/lastmile_qr_scan"}, "lon": -76.93174666666667, "type": "electric_scooter", "fusion_lat": 0.0, "lat": 38.898853833333334, "name": "f4c6317e8470c0221af3deb96b0c874a", "fusion_lon": 0.0, "bike_id": "f4c6317e8470c0221af3deb96b0c874a", "is_disabled": 0, "is_reserved": 0}, {"rental_uris": {"ios": "https://dc.lft.to/lastmile_qr_scan", "android": "https://dc.lft.to/lastmile_qr_scan"}, "lon": -76.99817433333334, "type": "electric_scooter", "fusion_lat": 0.0, "lat": 38.90014983333333, "name": "8d8b554359a9b7ba3f4f408f2a903f2c", "fusion_lon": 0.0, "bike_id": "8d8b554359a9b7ba3f4f408f2a903f2c", "is_disabled": 0, "is_reserved": 0}, {"rental_uris": {"ios": "https://dc.lft.to/lastmile_qr_scan", "android": "https://dc.lft.to/lastmile_qr_scan"}, "lon": -77.3531025, "type": "electric_bike", "fusion_lat": 0.0, "lat": 38.949994333333336, "name": "8d1b67b5c5eaf366cfdda6b9cd30be7e", "fusion_lon": 0.0, "bike_id": "8d1b67b5c5eaf366cfdda6b9cd30be7e", "is_disabled": 0, "is_reserved": 0}, {"rental_uris": {"ios": "https://dc.lft.to/lastmile_qr_scan", "android": "https://dc.lft.to/lastmile_qr_scan"}, "lon": -77.0283895, "type": "electric_scooter", "fusion_lat": 0.0, "lat": 38.9425935, "name": "aa4a33809458aa8b268822819b692f58", "fusion_lon": 0.0, "bike_id": "aa4a33809458aa8b268822819b692f58", "is_disabled": 0, "is_reserved": 0}, {"rental_uris": {"ios": "https://dc.lft.to/lastmile_qr_scan", "android": "https://dc.lft.to/lastmile_qr_scan"}, "lon": -77.007278, "type": "electric_scooter", "fusion_lat": 0.0, "lat": 38.88492183333334, "name": "2b408b08893c448bff3eeae01027dde9", "fusion_lon": 0.0, "bike_id": "2b408b08893c448bff3eeae01027dde9", "is_disabled": 0, "is_reserved": 0}, {"rental_uris": {"ios": "https://dc.lft.to/lastmile_qr_scan", "android": "https://dc.lft.to/lastmile_qr_scan"},