{"data": {"bikes": [{"bike_id": "0dec9f96d811c752ef9a90d91d8d38a9", "fusion_lon": 0.0, "type": "electric_scooter", "name": "0dec9f96d811c752ef9a90d91d8d38a9", "rental_uris": {"android": "https://dc.lft.to/lastmile_qr_scan", "ios": "https://dc.lft.to/lastmile_qr_scan"}, "fusion_lat": 0.0, "lat": 38.88745616666667, "is_disabled": 0, "lon": -77.02572283333333, "is_reserved": 0}, {"bike_id": "2ba8d87efbdc92b7b3acf0b021fc8a50", "fusion_lon": 0.0, "type": "electric_scooter", "name": "2ba8d87efbdc92b7b3acf0b021fc8a50", "rental_uris": {"android": "https://dc.lft.to/lastmile_qr_scan", "ios": "https://dc.lft.to/lastmile_qr_scan"}, "fusion_lat": 0.0, "lat": 38.92836533333333, "is_disabled": 0, "lon": -77.0215545, "is_reserved": 0}, {"bike_id": "238534d29117f31c90362305324dddf7", "fusion_lon": 0.0, "type": "electric_scooter", "name": "238534d29117f31c90362305324dddf7", "rental_uris": {"android": "https://dc.lft.to/lastmile_qr_scan", "ios": "https://dc.lft.to/lastmile_qr_scan"}, "fusion_lat": 0.0, "lat": 38.8446675, "is_disabled": 0, "lon": -76.99512183333333, "is_reserved": 0}, {"bike_id": "f41d04487fb333ac36f31a449258ba54", "fusion_lon": 0.0, "type": "electric_scooter", "name": "f41d04487fb333ac36f31a449258ba54", "rental_uris": {"android": "https://dc.lft.to/lastmile_qr_scan", "ios": "https://dc.lft.to/lastmile_qr_scan"}, "fusion_lat": 0.0, "lat": 38.90731133333333, "is_disabled": 0, "lon": -77.03443766666666, "is_reserved": 0}, {"bike_id": "dc778e4be754753132144e27e31f466c", "fusion_lon": 0.0, "type": "electric_scooter", "name": "dc778e4be754753132144e27e31f466c", "rental_uris": {"android": "https://dc.lft.to/lastmile_qr_scan", "ios": "https://dc.lft.to/lastmile_qr_scan"}, "fusion_lat": 0.0, "lat": 38.91760933333333, "is_disabled": 0, "lon": -77.01884116666666, "is_reserved": 0}, {"bike_id": "a01d5306d4a80b5136240416ab0cd096", "fusion_lon": 0.0, "type": "electric_bike", "name": "a01d5306d4a80b5136240416ab0cd096", "rental_uris": {"android": "https://dc.lft.to/lastmile_qr_scan", "ios": "https://dc.lft.to/lastmile_qr_scan"}, "fusion_lat": 0.0, "lat": 38.8667725, "is_disabled": 0, "lon": -76.98229733333334, "is_reserved": 0}, {"bike_id": "52c16de9d2bd475719608cbb1bc50e39", "fusion_lon": 0.0, "type": "electric_scooter", "name": "52c16de9d2bd475719608cbb1bc50e39", "rental_uris": {"android": "https://dc.lft.to/lastmile_qr_scan", "ios": "https://dc.lft.to/lastmile_qr_scan"}, "fusion_lat": 0.0, "lat": 38.929246666666664, "is_disabled": 0, "lon": -77.032799, "is_reserved": 0}, {"bike_id": "db865ad9a7bc1d28f7b16106ca90877e", "fusion_lon": 0.0, "type": "electric_scooter", "name": "db865ad9a7bc1d28f7b16106ca90877e", "rental_uris": {"android": "https://dc.lft.to/lastmile_qr_scan", "ios": "https://dc.lft.to/lastmile_qr_scan"}, "fusion_lat": 0.0, "lat": 38.96624816666667, "is_disabled": 0, "lon": -77.0275125, "is_reserved": 0}, {"bike_id": "4c6c3a91d50c7368ea3f2f138cde1a32", "fusion_lon": 0.0, "type": "electric_scooter", "name": "4c6c3a91d50c7368ea3f2f138cde1a32", "rental_uris": {"android": "https://dc.lft.to/lastmile_qr_scan", "ios": "https://dc.lft.to/lastmile_qr_scan"}, "fusion_lat": 0.0, "lat": 38.9037645, "is_disabled": 0, "lon": -77.04041416666666, "is_reserved": 0}, {"bike_id": "889eea115c8e472f3c6cb21f58d764d2", "fusion_lon": 0.0, "type": "electric_scooter", "name": "889eea115c8e472f3c6cb21f58d764d2", "rental_uris": {"android": "https://dc.lft.to/lastmile_qr_scan", "ios": "https://dc.lft.to/lastmile_qr_scan"}, "fusion_lat": 0.0, "lat": 38.90309883333333, "is_disabled": 0, "lon": -76.97027766666666, "is_reserved": 0}, {"bike_id": "9031aa1f046e7f787f3b7fec8aaf13f4", "fusion_lon": 0.0, "type": "electric_scooter", "name": "9031aa1f046e7f787f3b7fec8aaf13f4", "rental_uris": {"android": "https://dc.lft.to/lastmile_qr_scan", "ios": "https://dc.lft.to/lastmile_qr_scan"}, "fusion_lat": 0.0, "lat": 38.90939066666667, "is_disabled": 0, "lon": -76.999122, "is_reserved": 0}, {"bike_id": "2b35092a3b777831b2238586a4251518", "fusion_lon": 0.0, "type": "electric_scooter", "name": "2b35092a3b777831b2238586a4251518", "rental_uris": {"android": "https://dc.lft.to/lastmile_qr_scan", "ios": "https://dc.lft.to/lastmile_qr_scan"}, "fusion_lat": 0.0, "lat": 38.92682466666667, "is_disabled": 0, "lon": -77.02303816666667, "is_reserved": 0}, {"bike_id": "854133d4819d84b4afeab10e2be13396", "fusion_lon": 0.0, "type": "electric_bike", "name": "854133d4819d84b4afeab10e2be13396", "rental_uris": {"android": "https://dc.lft.to/lastmile_qr_scan", "ios": "https://dc.lft.to/lastmile_qr_scan"}, "fusion_lat": 0.0, "lat": 38.80294883333333, "is_disabled": 0, "lon": -77.03987483333333, "is_reserved": 0}, {"bike_id": "2f120ab2962f11373a4c4a3e21b61859", "fusion_lon": 0.0, "type": "electric_scooter", "name": "2f120ab2962f11373a4c4a3e21b61859", "rental_uris": {"android": "https://dc.lft.to/lastmile_qr_scan", "ios": "https://dc.lft.to/lastmile_qr_scan"}, "fusion_lat": 0.0, "lat": 38.929033, "is_disabled": 0, "lon": -77.06390816666666, "is_reserved": 0}, {"bike_id": "79800e40244fdccd9d3caa0f50feac61", "fusion_lon": 0.0, "type": "electric_scooter", "name": "79800e40244fdccd9d3caa0f50feac61", "rental_uris": {"android": "https://dc.lft.to/lastmile_qr_scan", "ios": "https://dc.lft.to/lastmile_qr_scan"}, "fusion_lat": 0.0, "lat": 38.92032433333333, "is_disabled": 0, "lon": -77.033931, "is_reserved": 0}, {"bike_id": "609ef5d38c15c4f1f1344b7f00c6f6df", "fusion_lon": 0.0, "type": "electric_scooter", "name": "609ef5d38c15c4f1f1344b7f00c6f6df", "rental_uris": {"android": "https://dc.lft.to/lastmile_qr_scan", "ios": "https://dc.lft.to/lastmile_qr_scan"}, "fusion_lat": 0.0, "lat": 38.865309833333335, "is_disabled": 0, "lon": -76.98708133333334, "is_reserved": 0}, {"bike_id": "7140190168238bf40f6827d9b929e674", "fusion_lon": 0.0, "type": "electric_scooter", "name": "7140190168238bf40f6827d9b929e674", "rental_uris": {"android": "https://dc.lft.to/lastmile_qr_scan", "ios": "https://dc.lft.to/lastmile_qr_scan"}, "fusion_lat": 0.0, "lat": 38.91260416666667, "is_disabled": 0, "lon": -77.03824583333333, "is_reserved": 0}, {"bike_id": "3091eb7484f1dfc4cc3d4540284e7571", "fusion_lon": 0.0, "type": "electric_bike", "name": "3091eb7484f1dfc4cc3d4540284e7571", "rental_uris": {"android": "https://dc.lft.to/lastmile_qr_scan", "ios": "https://dc.lft.to/lastmile_qr_scan"}, "fusion_lat": 0.0, "lat": 38.8652375, "is_disabled": 0, "lon": -77.12810533333334, "is_reserved": 0}, {"bike_id": "16163aab7e730cc318ab25956a8ce202", "fusion_lon": 0.0, "type": "electric_scooter", "name": "16163aab7e730cc318ab25956a8ce202", "rental_uris": {"android": "https://dc.lft.to/lastmile_qr_scan", "ios": "https://dc.lft.to/lastmile_qr_scan"}, "fusion_lat": 0.0, "lat": 38.8966395, "is_disabled": 0, "lon": -76.94717966666667, "is_reserved": 0}, {"bike_id": "523c99cc4555c9b7ddb2302c2b7dee5e", "fusion_lon": 0.0, "type": "electric_scooter", "name": "523c99cc4555c9b7ddb2302c2b7dee5e", "rental_uris": {"android": "https://dc.lft.to/lastmile_qr_scan", "ios": "https://dc.lft.to/lastmile_qr_scan"}, "fusion_lat": 0.0, "lat": 38.9050455, "is_disabled": 0, "lon": -77.01691616666666, "is_reserved": 0}, {"bike_id": "bbcd09a9a2154152f7b834d118c4990c", "fusion_lon": 0.0, "type": "electric_bike", "name": "bbcd09a9a2154152f7b834d118c4990c", "rental_uris": {"android": "https://dc.lft.to/lastmile_qr_scan", "ios": "https://dc.lft.to/lastmile_qr_scan"}, "fusion_lat": 0.0, "lat": 38.799860333333335, "is_disabled": 0, "lon": -77.1298105, "is_reserved": 0}, {"bike_id": "5425359988a06132c457169d1b252ece", "fusion_lon": 0.0, "type": "electric_scooter", "name": "5425359988a06132c457169d1b252ece", "rental_uris": {"android": "https://dc.lft.to/lastmile_qr_scan", "ios": "https://dc.lft.to/lastmile_qr_scan"}, "fusion_lat": 0.0, "lat": 38.905599, "is_disabled": 0, "lon": -77.03995666666667, "is_reserved": 0}, {"bike_id": "eb895afbaddc5d722ff56626c1248e34", "fusion_lon": 0.0, "type": "electric_scooter", "name": "eb895afbaddc5d722ff56626c1248e34", "rental_uris": {"android": "https://dc.lft.to/lastmile_qr_scan", "ios": "https://dc.lft.to/lastmile_qr_scan"}, "fusion_lat": 0.0, "lat": 38.940303166666666, "is_disabled": 0, "lon": -77.0689, "is_reserved": 0}, {"bike_id": "8aed2a34a7fe0eb2788ba80ef9b094dd", "fusion_lon": 0.0, "type": "electric_bike", "name": "8aed2a34a7fe0eb2788ba80ef9b094dd", "rental_uris": {"android": "https://dc.lft.to/lastmile_qr_scan", "ios": "https://dc.lft.to/lastmile_qr_scan"}, "fusion_lat": 0.0, "lat": 38.93402433333333, "is_disabled": 0, "lon": -77.02495466666667, "is_reserved": 0}, {"bike_id": "f5fb1caf612fafe85dadce94ec7f3630", "fusion_lon": 0.0, "type": "electric_bike", "name": "f5fb1caf612fafe85dadce94ec7f3630", "rental_uris": {"android": "https://dc.lft.to/lastmile_qr_scan", "ios": "https://dc.lft.to/lastmile_qr_scan"}, "fusion_lat": 0.0, "lat": 38.824455666666665, "is_disabled": 0, "lon": -77.0703635, "is_reserved": 0}, {"bike_id": "a31ee42a44124fc75b4bd8def97f22ae", "fusion_lon": 0.0, "type": "electric_scooter", "name": "a31ee42a44124fc75b4bd8def97f22ae", "rental_uris": {"android": "https://dc.lft.to/lastmile_qr_scan", "ios": "https://dc.lft.to/lastmile_qr_scan"}, "fusion_lat": 0.0, "lat": 38.935827833333335, "is_disabled": 0, "lon": -77.01935316666666, "is_reserved": 0}, {"bike_id": "40e7766b0f818736dd56743abd0dd564", "fusion_lon": 0.0, "type": "electric_scooter", "name": "40e7766b0f818736dd56743abd0dd564", "rental_uris": {"android": "https://dc.lft.to/lastmile_qr_scan", "ios": "https://dc.lft.to/lastmile_qr_scan"}, "fusion_lat": 0.0, "lat": 38.899555166666666, "is_disabled": 0, "lon": -76.98567933333334, "is_reserved": 0}, {"bike_id": "a45db03087514b09c1bce6c18d8f6aea", "fusion_lon": 0.0, "type": "electric_scooter", "name": "a45db03087514b09c1bce6c18d8f6aea", "rental_uris": {"android": "https://dc.lft.to/lastmile_qr_scan", "ios": "https://dc.lft.to/lastmile_qr_scan"}, "fusion_lat": 0.0, "lat": 38.91987866666667, "is_disabled": 0, "lon": -77.03965716666667, "is_reserved": 0}, {"bike_id": "1c60df6e4ad000f83de766506b41bc96", "fusion_lon": 0.0, "type": "electric_scooter", "name": "1c60df6e4ad000f83de766506b41bc96", "rental_uris": {"android": "https://dc.lft.to/lastmile_qr_scan", "ios": "https://dc.lft.to/lastmile_qr_scan"}, "fusion_lat": 0.0, "lat": 38.96204183333333, "is_disabled": 0, "lon": -77.02341666666666, "is_reserved": 0}, {"bike_id": "4174cc5bb869893262bd4963cdadd0b3", "fusion_lon": 0.0, "type": "electric_scooter", "name": "4174cc5bb869893262bd4963cdadd0b3", "rental_uris": {"android": "https://dc.lft.to/lastmile_qr_scan", "ios": "https://dc.lft.to/lastmile_qr_scan"}, "fusion_lat": 0.0, "lat": 38.9119145, "is_disabled": 0, "lon": -77.04505816666666, "is_reserved": 0}, {"bike_id": "89fbd1de57a2d04a6a5f55047b4d1ef1", "fusion_lon": 0.0, "type": "electric_scooter", "name": "89fbd1de57a2d04a6a5f55047b4d1ef1", "rental_uris": {"android": "https://dc.lft.to/lastmile_qr_scan", "ios": "https://dc.lft.to/lastmile_qr_scan"}, "fusion_lat": 0.0, "lat": 38.884166, "is_disabled": 0, "lon": -76.9954175, "is_reserved": 0}, {"bike_id": "60cbcd38f94dbf8dc37a7f825f413321", "fusion_lon": 0.0, "type": "electric_scooter", "name": "60cbcd38f94dbf8dc37a7f825f413321", "rental_uris": {"android": "https://dc.lft.to/lastmile_qr_scan", "ios": "https://dc.lft.to/lastmile_qr_scan"}, "fusion_lat": 0.0, "lat": 38.93364916666667, "is_disabled": 0, "lon": -77.05732916666666, "is_reserved": 0}, {"bike_id": "15648c52b48334e9c2d7971b67a2af58", "fusion_lon": 0.0, "type": "electric_scooter", "name": "15648c52b48334e9c2d7971b67a2af58", "rental_uris": {"android": "https://dc.lft.to/lastmile_qr_scan", "ios": "https://dc.lft.to/lastmile_qr_scan"}, "fusion_lat": 0.0, "lat": 38.904867833333334, "is_disabled": 0, "lon": -77.005807, "is_reserved": 0}, {"bike_id": "8b827d86957aa672b3403d80691c3fc7", "fusion_lon": 0.0, "type": "electric_scooter", "name": "8b827d86957aa672b3403d80691c3fc7", "rental_uris": {"android": "https://dc.lft.to/lastmile_qr_scan", "ios": "https://dc.lft.to/lastmile_qr_scan"}, "fusion_lat": 0.0, "lat": 38.936101666666666, "is_disabled": 0, "lon": -77.0365835, "is_reserved": 0}, {"bike_id": "088a35b4a9d6391ac65c6d15d7af74c3", "fusion_lon": 0.0, "type": "electric_scooter", "name": "088a35b4a9d6391ac65c6d15d7af74c3", "rental_uris": {"android": "https://dc.lft.to/lastmile_qr_scan", "ios": "https://dc.lft.to/lastmile_qr_scan"}, "fusion_lat": 0.0, "lat": 38.926775, "is_disabled": 0, "lon": -77.007571, "is_reserved": 0}, {"bike_id": "31cba589712ac25a2980b22abdc8fee9", "fusion_lon": 0.0, "type": "electric_scooter", "name": "31cba589712ac25a2980b22abdc8fee9", "rental_uris": {"android": "https://dc.lft.to/lastmile_qr_scan", "ios": "https://dc.lft.to/lastmile_qr_scan"}, "fusion_lat": 0.0, "lat": 38.903086333333334, "is_disabled": 0, "lon": -77.03477716666667, "is_reserved": 0}, {"bike_id": "d341827aefe5c05961c363db651fe99c", "fusion_lon": 0.0, "type": "electric_scooter", "name": "d341827aefe5c05961c363db651fe99c", "rental_uris": {"android": "https://dc.lft.to/lastmile_qr_scan", "ios": "https://dc.lft.to/lastmile_qr_scan"}, "fusion_lat": 0.0, "lat": 38.909611166666664, "is_disabled": 0, "lon": -77.04041483333333, "is_reserved": 0}, {"bike_id": "b206f1f9c14773ab83b7ab555aa062a0", "fusion_lon": 0.0, "type": "electric_scooter", "name": "b206f1f9c14773ab83b7ab555aa062a0", "rental_uris": {"android": "https://dc.lft.to/lastmile_qr_scan", "ios": "https://dc.lft.to/lastmile_qr_scan"}, "fusion_lat": 0.0, "lat": 38.9222535, "is_disabled": 0, "lon": -77.04325266666666, "is_reserved": 0}, {"bike_id": "2b318528216d8dff2d249438211275da", "fusion_lon": 0.0, "type": "electric_scooter", "name": "2b318528216d8dff2d249438211275da", "rental_uris": {"android": "https://dc.lft.to/lastmile_qr_scan", "ios": "https://dc.lft.to/lastmile_qr_scan"}, "fusion_lat": 0.0, "lat": 38.9003495, "is_disabled": 0, "lon": -76.9962375, "is_reserved": 0}, {"bike_id": "53c19ee176716632bd46b41e089a74de", "fusion_lon": 0.0, "type": "electric_scooter", "name": "53c19ee176716632bd46b41e089a74de", "rental_uris": {"android": "https://dc.lft.to/lastmile_qr_scan", "ios": "https://dc.lft.to/lastmile_qr_scan"}, "fusion_lat": 0.0, "lat": 38.909079166666665, "is_disabled": 0, "lon": -77.04135166666667, "is_reserved": 0}, {"bike_id": "78e5b408f92f81ad7d31b8289b573c15", "fusion_lon": 0.0, "type": "electric_scooter", "name": "78e5b408f92f81ad7d31b8289b573c15", "rental_uris": {"android": "https://dc.lft.to/lastmile_qr_scan", "ios": "https://dc.lft.to/lastmile_qr_scan"}, "fusion_lat": 0.0, "lat": 38.86443933333334, "is_disabled": 0, "lon": -76.9899395, "is_reserved": 0}, {"bike_id": "5261471633076b3da8a5fcc0861392a7", "fusion_lon": 0.0, "type": "electric_scooter", "name": "5261471633076b3da8a5fcc0861392a7", "rental_uris": {"android": "https://dc.lft.to/lastmile_qr_scan", "ios": "https://dc.lft.to/lastmile_qr_scan"}, "fusion_lat": 0.0, "lat": 38.9250075, "is_disabled": 0, "lon": -77.021501, "is_reserved": 0}, {"bike_id": "16b9f420fe1d2171c418c77dd9f2970d", "fusion_lon": 0.0, "type": "electric_bike", "name": "16b9f420fe1d2171c418c77dd9f2970d", "rental_uris": {"android": "https://dc.lft.to/lastmile_qr_scan", "ios": "https://dc.lft.to/lastmile_qr_scan"}, "fusion_lat": 0.0, "lat": 38.96765533333333, "is_disabled": 0, "lon": -77.09151, "is_reserved": 0}, {"bike_id": "29f4ccff96a230fa70422f2c78e3caf6", "fusion_lon": 0.0, "type": "electric_scooter", "name": "29f4ccff96a230fa70422f2c78e3caf6", "rental_uris": {"android": "https://dc.lft.to/lastmile_qr_scan", "ios": "https://dc.lft.to/lastmile_qr_scan"}, "fusion_lat": 0.0, "lat": 38.87423533333333, "is_disabled": 0, "lon": -77.044063, "is_reserved": 0}, {"bike_id": "daf87c816a1923581351a8647a7a403b", "fusion_lon": 0.0, "type": "electric_scooter", "name": "daf87c816a1923581351a8647a7a403b", "rental_uris": {"android": "https://dc.lft.to/lastmile_qr_scan", "ios": "https://dc.lft.to/lastmile_qr_scan"}, "fusion_lat": 0.0, "lat": 38.91175483333333, "is_disabled": 0, "lon": -77.03866116666667, "is_reserved": 0}, {"bike_id": "94667cbad56060beedece5cf6f790464", "fusion_lon": 0.0, "type": "electric_scooter", "name": "94667cbad56060beedece5cf6f790464", "rental_uris": {"android": "https://dc.lft.to/lastmile_qr_scan", "ios": "https://dc.lft.to/lastmile_qr_scan"}, "fusion_lat": 0.0, "lat": 38.85523083333333, "is_disabled": 0, "lon": -76.9691555, "is_reserved": 0}, {"bike_id": "7e8f8e22ffd72222fc14535c83284507", "fusion_lon": 0.0, "type": "electric_bike", "name": "7e8f8e22ffd72222fc14535c83284507", "rental_uris": {"android": "https://dc.lft.to/lastmile_qr_scan", "ios": "https://dc.lft.to/lastmile_qr_scan"}, "fusion_lat": 0.0, "lat": 38.962002166666664, "is_disabled": 0, "lon": -77.02618183333334, "is_reserved": 0}, {"bike_id": "9c4fdc9415777cc1e1ba615ce65dfdfc", "fusion_lon": 0.0, "type": "electric_scooter", "name": "9c4fdc9415777cc1e1ba615ce65dfdfc", "rental_uris": {"android": "https://dc.lft.to/lastmile_qr_scan", "ios": "https://dc.lft.to/lastmile_qr_scan"}, "fusion_lat": 0.0, "lat": 38.93063816666667, "is_disabled": 0, "lon": -77.03273016666667, "is_reserved": 0}, {"bike_id": "cb7594ea75e699692e50bc1ae42c688a", "fusion_lon": 0.0, "type": "electric_scooter", "name": "cb7594ea75e699692e50bc1ae42c688a", "rental_uris": {"android": "https://dc.lft.to/lastmile_qr_scan", "ios": "https://dc.lft.to/lastmile_qr_scan"}, "fusion_lat": 0.0, "lat": 38.903432, "is_disabled": 0, "lon": -77.03436616666667, "is_reserved": 0}, {"bike_id": "cc15545ce57eea1aedc2b1b3bfe4050e", "fusion_lon": 0.0, "type": "electric_scooter", "name": "cc15545ce57eea1aedc2b1b3bfe4050e", "rental_uris": {"android": "https://dc.lft.to/lastmile_qr_scan", "ios": "https://dc.lft.to/lastmile_qr_scan"}, "fusion_lat": 0.0, "lat": 38.883410833333336, "is_disabled": 0, "lon": -77.0230485, "is_reserved": 0}, {"bike_id": "3fefc3fc40ce3b525342a7dc42ed01b1", "fusion_lon": 0.0, "type": "electric_scooter", "name": "3fefc3fc40ce3b525342a7dc42ed01b1", "rental_uris": {"android": "https://dc.lft.to/lastmile_qr_scan", "ios": "https://dc.lft.to/lastmile_qr_scan"}, "fusion_lat": 0.0, "lat": 38.912581333333335, "is_disabled": 0, "lon": -77.03262283333333, "is_reserved": 0}, {"bike_id": "aaeaa67b6b4aad0823ea030594015ab2", "fusion_lon": 0.0, "type": "electric_scooter", "name": "aaeaa67b6b4aad0823ea030594015ab2", "rental_uris": {"android": "https://dc.lft.to/lastmile_qr_scan", "ios": "https://dc.lft.to/lastmile_qr_scan"}, "fusion_lat": 0.0, "lat": 38.92163166666667, "is_disabled": 0, "lon": -77.0413185, "is_reserved": 0}, {"bike_id": "8a87b96da7af47447fbd275f6afd7079", "fusion_lon": 0.0, "type": "electric_scooter", "name": "8a87b96da7af47447fbd275f6afd7079", "rental_uris": {"android": "https://dc.lft.to/lastmile_qr_scan", "ios": "https://dc.lft.to/lastmile_qr_scan"}, "fusion_lat": 0.0, "lat": 38.93697366666667, "is_disabled": 0, "lon": -77.0559345, "is_reserved": 0}, {"bike_id": "b5595d94e1601b00a993af44a2e26886", "fusion_lon": 0.0, "type": "electric_scooter", "name": "b5595d94e1601b00a993af44a2e26886", "rental_uris": {"android": "https://dc.lft.to/lastmile_qr_scan", "ios": "https://dc.lft.to/lastmile_qr_scan"}, "fusion_lat": 0.0, "lat": 38.91033866666667, "is_disabled": 0, "lon": -77.03366316666667, "is_reserved": 0}, {"bike_id": "31dbb075a07e3e4462bef92fcdd2b9a6", "fusion_lon": 0.0, "type": "electric_scooter", "name": "31dbb075a07e3e4462bef92fcdd2b9a6", "rental_uris": {"android": "https://dc.lft.to/lastmile_qr_scan", "ios": "https://dc.lft.to/lastmile_qr_scan"}, "fusion_lat": 0.0, "lat": 38.97377066666667, "is_disabled": 0, "lon": -77.03118066666667, "is_reserved": 0}, {"bike_id": "9b22a5fba4e6119e6dd4a5cc6dd07ea7", "fusion_lon": 0.0, "type": "electric_scooter", "name": "9b22a5fba4e6119e6dd4a5cc6dd07ea7", "rental_uris": {"android": "https://dc.lft.to/lastmile_qr_scan", "ios": "https://dc.lft.to/lastmile_qr_scan"}, "fusion_lat": 0.0, "lat": 38.8929975, "is_disabled": 0, "lon": -77.04655233333334, "is_reserved": 0}, {"bike_id": "81d1dd6f9a2b902beb14d73a93309c09", "fusion_lon": 0.0, "type": "electric_scooter", "name": "81d1dd6f9a2b902beb14d73a93309c09", "rental_uris": {"android": "https://dc.lft.to/lastmile_qr_scan", "ios": "https://dc.lft.to/lastmile_qr_scan"}, "fusion_lat": 0.0, "lat": 38.9375935, "is_disabled": 0, "lon": -77.03278166666666, "is_reserved": 0}, {"bike_id": "09e55c9d7320f450bce2cc516bc22ce8", "fusion_lon": 0.0, "type": "electric_scooter", "name": "09e55c9d7320f450bce2cc516bc22ce8", "rental_uris": {"android": "https://dc.lft.to/lastmile_qr_scan", "ios": "https://dc.lft.to/lastmile_qr_scan"}, "fusion_lat": 0.0, "lat": 38.907004, "is_disabled": 0, "lon": -77.04271316666667, "is_reserved": 0}, {"bike_id": "227ddf96e614466637edd9446641f4d9", "fusion_lon": 0.0, "type": "electric_scooter", "name": "227ddf96e614466637edd9446641f4d9", "rental_uris": {"android": "https://dc.lft.to/lastmile_qr_scan", "ios": "https://dc.lft.to/lastmile_qr_scan"}, "fusion_lat": 0.0, "lat": 38.89343483333333, "is_disabled": 0, "lon": -77.011579, "is_reserved": 0}, {"bike_id": "37d5572c93d20ae95d427ddec90da0dc", "fusion_lon": 0.0, "type": "electric_bike", "name": "37d5572c93d20ae95d427ddec90da0dc", "rental_uris": {"android": "https://dc.lft.to/lastmile_qr_scan", "ios": "https://dc.lft.to/lastmile_qr_scan"}, "fusion_lat": 0.0, "lat": 38.83732716666667, "is_disabled": 0, "lon": -77.095439, "is_reserved": 0}, {"bike_id": "be6d943e289ca15f2a2951749ba2a084", "fusion_lon": 0.0, "type": "electric_scooter", "name": "be6d943e289ca15f2a2951749ba2a084", "rental_uris": {"android": "https://dc.lft.to/lastmile_qr_scan", "ios": "https://dc.lft.to/lastmile_qr_scan"}, "fusion_lat": 0.0, "lat": 38.883122166666666, "is_disabled": 0, "lon": -76.94946466666667, "is_reserved": 0}, {"bike_id": "aa59366b77047accc9119ad04f777c57", "fusion_lon": 0.0, "type": "electric_scooter", "name": "aa59366b77047accc9119ad04f777c57", "rental_uris": {"android": "https://dc.lft.to/lastmile_qr_scan", "ios": "https://dc.lft.to/lastmile_qr_scan"}, "fusion_lat": 0.0, "lat": 38.95644933333333, "is_disabled": 0, "lon": -77.03285833333334, "is_reserved": 0}, {"bike_id": "7ec4476341edfb345ffb94e31e8bac0f", "fusion_lon": 0.0, "type": "electric_scooter", "name": "7ec4476341edfb345ffb94e31e8bac0f", "rental_uris": {"android": "https://dc.lft.to/lastmile_qr_scan", "ios": "https://dc.lft.to/lastmile_qr_scan"}, "fusion_lat": 0.0, "lat": 38.90864966666667, "is_disabled": 0, "lon": -77.0238425, "is_reserved": 0}, {"bike_id": "f6c9cfb5984923fcf9344012466f2623", "fusion_lon": 0.0, "type": "electric_scooter", "name": "f6c9cfb5984923fcf9344012466f2623", "rental_uris": {"android": "https://dc.lft.to/lastmile_qr_scan", "ios": "https://dc.lft.to/lastmile_qr_scan"}, "fusion_lat": 0.0, "lat": 38.844214, "is_disabled": 0, "lon": -76.99773166666667, "is_reserved": 0}, {"bike_id": "25fa6f0dab154e8775e8d07844a3b83b", "fusion_lon": 0.0, "type": "electric_bike", "name": "25fa6f0dab154e8775e8d07844a3b83b", "rental_uris": {"android": "https://dc.lft.to/lastmile_qr_scan", "ios": "https://dc.lft.to/lastmile_qr_scan"}, "fusion_lat": 0.0, "lat": 38.836067166666666, "is_disabled": 0, "lon": -77.003665, "is_reserved": 0}, {"bike_id": "02ecdc06c1b1a0bef98d07d8cdff5b4a", "fusion_lon": 0.0, "type": "electric_bike", "name": "02ecdc06c1b1a0bef98d07d8cdff5b4a", "rental_uris": {"android": "https://dc.lft.to/lastmile_qr_scan", "ios": "https://dc.lft.to/lastmile_qr_scan"}, "fusion_lat": 0.0, "lat": 38.9758815, "is_disabled": 0, "lon": -77.03512983333333, "is_reserved": 0}, {"bike_id": "cbcf23d63c593291ac9ff0933ee68d71", "fusion_lon": 0.0, "type": "electric_scooter", "name": "cbcf23d63c593291ac9ff0933ee68d71", "rental_uris": {"android": "https://dc.lft.to/lastmile_qr_scan", "ios": "https://dc.lft.to/lastmile_qr_scan"}, "fusion_lat": 0.0, "lat": 38.90004583333333, "is_disabled": 0, "lon": -77.00140316666666, "is_reserved": 0}, {"bike_id": "0177a555baed78afdebbe5e4aca8967e", "fusion_lon": 0.0, "type": "electric_scooter", "name": "0177a555baed78afdebbe5e4aca8967e", "rental_uris": {"android": "https://dc.lft.to/lastmile_qr_scan", "ios": "https://dc.lft.to/lastmile_qr_scan"}, "fusion_lat": 0.0, "lat": 38.896248, "is_disabled": 0, "lon": -76.94765166666667, "is_reserved": 0}, {"bike_id": "06e8719850b7280f323da179fa86a638", "fusion_lon": 0.0, "type": "electric_scooter", "name": "06e8719850b7280f323da179fa86a638", "rental_uris": {"android": "https://dc.lft.to/lastmile_qr_scan", "ios": "https://dc.lft.to/lastmile_qr_scan"}, "fusion_lat": 0.0, "lat": 38.884754, "is_disabled": 0, "lon": -77.02338016666667, "is_reserved": 0}, {"bike_id": "2cfef2309d93d6249d6bd4c84d5ec928", "fusion_lon": 0.0, "type": "electric_scooter", "name": "2cfef2309d93d6249d6bd4c84d5ec928", "rental_uris": {"android": "https://dc.lft.to/lastmile_qr_scan", "ios": "https://dc.lft.to/lastmile_qr_scan"}, "fusion_lat": 0.0, "lat": 38.8671035, "is_disabled": 0, "lon": -76.987294, "is_reserved": 0}, {"bike_id": "41893a1cee148d12ece8477a3bfea03a", "fusion_lon": 0.0, "type": "electric_scooter", "name": "41893a1cee148d12ece8477a3bfea03a", "rental_uris": {"android": "https://dc.lft.to/lastmile_qr_scan", "ios": "https://dc.lft.to/lastmile_qr_scan"}, "fusion_lat": 0.0, "lat": 38.946336, "is_disabled": 0, "lon": -77.0184435, "is_reserved": 0}, {"bike_id": "6391cad6f10305207d10f55c86283061", "fusion_lon": 0.0, "type": "electric_bike", "name": "6391cad6f10305207d10f55c86283061", "rental_uris": {"android": "https://dc.lft.to/lastmile_qr_scan", "ios": "https://dc.lft.to/lastmile_qr_scan"}, "fusion_lat": 0.0, "lat": 38.90966566666667, "is_disabled": 0, "lon": -77.088172, "is_reserved": 0}, {"bike_id": "9f8879fd47972f9e9b7c5769cfb344c9", "fusion_lon": 0.0, "type": "electric_scooter", "name": "9f8879fd47972f9e9b7c5769cfb344c9", "rental_uris": {"android": "https://dc.lft.to/lastmile_qr_scan", "ios": "https://dc.lft.to/lastmile_qr_scan"}, "fusion_lat": 0.0, "lat": 38.923862666666665, "is_disabled": 0, "lon": -77.0408835, "is_reserved": 0}, {"bike_id": "f64f11841e67849b0b6bf034ab99d538", "fusion_lon": 0.0, "type": "electric_scooter", "name": "f64f11841e67849b0b6bf034ab99d538", "rental_uris": {"android": "https://dc.lft.to/lastmile_qr_scan", "ios": "https://dc.lft.to/lastmile_qr_scan"}, "fusion_lat": 0.0, "lat": 38.9094445, "is_disabled": 0, "lon": -77.03208833333333, "is_reserved": 0}, {"bike_id": "b28e1ebe94d6e46756e0619ea36a190b", "fusion_lon": 0.0, "type": "electric_scooter", "name": "b28e1ebe94d6e46756e0619ea36a190b", "rental_uris": {"android": "https://dc.lft.to/lastmile_qr_scan", "ios": "https://dc.lft.to/lastmile_qr_scan"}, "fusion_lat": 0.0, "lat": 38.89999, "is_disabled": 0, "lon": -77.01971166666667, "is_reserved": 0}, {"bike_id": "04da17498c3e5a0c0b0524b10eb8b621", "fusion_lon": 0.0, "type": "electric_scooter", "name": "04da17498c3e5a0c0b0524b10eb8b621", "rental_uris": {"android": "https://dc.lft.to/lastmile_qr_scan", "ios": "https://dc.lft.to/lastmile_qr_scan"}, "fusion_lat": 0.0, "lat": 38.95851316666667, "is_disabled": 0, "lon": -77.02900883333334, "is_reserved": 0}, {"bike_id": "0a40975b0da4a8ce997fa0f9d73bd660", "fusion_lon": 0.0, "type": "electric_scooter", "name": "0a40975b0da4a8ce997fa0f9d73bd660", "rental_uris": {"android": "https://dc.lft.to/lastmile_qr_scan", "ios": "https://dc.lft.to/lastmile_qr_scan"}, "fusion_lat": 0.0, "lat": 38.89617783333333, "is_disabled": 0, "lon": -76.99934516666667, "is_reserved": 0}, {"bike_id": "b498d134b9c0f6592a49a1a47bc64d70", "fusion_lon": 0.0, "type": "electric_scooter", "name": "b498d134b9c0f6592a49a1a47bc64d70", "rental_uris": {"android": "https://dc.lft.to/lastmile_qr_scan", "ios": "https://dc.lft.to/lastmile_qr_scan"}, "fusion_lat": 0.0, "lat": 38.9148585, "is_disabled": 0, "lon": -77.01208566666666, "is_reserved": 0}, {"bike_id": "3909b0a8ae81bed09847584611abf377", "fusion_lon": 0.0, "type": "electric_scooter", "name": "3909b0a8ae81bed09847584611abf377", "rental_uris": {"android": "https://dc.lft.to/lastmile_qr_scan", "ios": "https://dc.lft.to/lastmile_qr_scan"}, "fusion_lat": 0.0, "lat": 38.90009366666666, "is_disabled": 0, "lon": -76.98851083333334, "is_reserved": 0}, {"bike_id": "430435609398526902c7e2ce4a546624", "fusion_lon": 0.0, "type": "electric_scooter", "name": "430435609398526902c7e2ce4a546624", "rental_uris": {"android": "https://dc.lft.to/lastmile_qr_scan", "ios": "https://dc.lft.to/lastmile_qr_scan"}, "fusion_lat": 0.0, "lat": 38.919436833333336, "is_disabled": 0, "lon": -77.0135395, "is_reserved": 0}, {"bike_id": "d769b8b981bdef746ddf05464a5e86e4", "fusion_lon": 0.0, "type": "electric_scooter", "name": "d769b8b981bdef746ddf05464a5e86e4", "rental_uris": {"android": "https://dc.lft.to/lastmile_qr_scan", "ios": "https://dc.lft.to/lastmile_qr_scan"}, "fusion_lat": 0.0, "lat": 38.906034166666664, "is_disabled": 0, "lon": -77.00599283333334, "is_reserved": 0}, {"bike_id": "7c051e30493952b1313b5e2ef49b6778", "fusion_lon": 0.0, "type": "electric_scooter", "name": "7c051e30493952b1313b5e2ef49b6778", "rental_uris": {"android": "https://dc.lft.to/lastmile_qr_scan", "ios": "https://dc.lft.to/lastmile_qr_scan"}, "fusion_lat": 0.0, "lat": 38.912113833333336, "is_disabled": 0, "lon": -77.03836966666667, "is_reserved": 0}, {"bike_id": "fca6ece2302fa5957fb429aa042ee177", "fusion_lon": 0.0, "type": "electric_scooter", "name": "fca6ece2302fa5957fb429aa042ee177", "rental_uris": {"android": "https://dc.lft.to/lastmile_qr_scan", "ios": "https://dc.lft.to/lastmile_qr_scan"}, "fusion_lat": 0.0, "lat": 38.922814833333334, "is_disabled": 0, "lon": -76.99399366666667, "is_reserved": 0}, {"bike_id": "24e917cda03ff6a6b1fcfa68fe868ae3", "fusion_lon": 0.0, "type": "electric_scooter", "name": "24e917cda03ff6a6b1fcfa68fe868ae3", "rental_uris": {"android": "https://dc.lft.to/lastmile_qr_scan", "ios": "https://dc.lft.to/lastmile_qr_scan"}, "fusion_lat": 0.0, "lat": 38.933369666666664, "is_disabled": 0, "lon": -77.03266766666667, "is_reserved": 0}, {"bike_id": "979f44391f892647df658e27e0ad3c1c", "fusion_lon": 0.0, "type": "electric_scooter", "name": "979f44391f892647df658e27e0ad3c1c", "rental_uris": {"android": "https://dc.lft.to/lastmile_qr_scan", "ios": "https://dc.lft.to/lastmile_qr_scan"}, "fusion_lat": 0.0, "lat": 38.8748055, "is_disabled": 0, "lon": -76.96517716666666, "is_reserved": 0}, {"bike_id": "0892a7679d95a47436485ba84c0d5704", "fusion_lon": 0.0, "type": "electric_scooter", "name": "0892a7679d95a47436485ba84c0d5704", "rental_uris": {"android": "https://dc.lft.to/lastmile_qr_scan", "ios": "https://dc.lft.to/lastmile_qr_scan"}, "fusion_lat": 0.0, "lat": 38.94999833333333, "is_disabled": 0, "lon": -77.02703266666667, "is_reserved": 0}, {"bike_id": "fed22e36606c5e64b46f79f52320038c", "fusion_lon": 0.0, "type": "electric_scooter", "name": "fed22e36606c5e64b46f79f52320038c", "rental_uris": {"android": "https://dc.lft.to/lastmile_qr_scan", "ios": "https://dc.lft.to/lastmile_qr_scan"}, "fusion_lat": 0.0, "lat": 38.91711633333333, "is_disabled": 0, "lon": -77.03866583333334, "is_reserved": 0}, {"bike_id": "cc03c17a51ccbeb41953ec478e4f7a6a", "fusion_lon": 0.0, "type": "electric_scooter", "name": "cc03c17a51ccbeb41953ec478e4f7a6a", "rental_uris": {"android": "https://dc.lft.to/lastmile_qr_scan", "ios": "https://dc.lft.to/lastmile_qr_scan"}, "fusion_lat": 0.0, "lat": 38.90864766666667, "is_disabled": 0, "lon": -77.01247083333334, "is_reserved": 0}, {"bike_id": "92b0f1388853eac2c57a56841eb4dba1", "fusion_lon": 0.0, "type": "electric_scooter", "name": "92b0f1388853eac2c57a56841eb4dba1", "rental_uris": {"android": "https://dc.lft.to/lastmile_qr_scan", "ios": "https://dc.lft.to/lastmile_qr_scan"}, "fusion_lat": 0.0, "lat": 38.91431, "is_disabled": 0, "lon": -77.0180855, "is_reserved": 0}, {"bike_id": "c26408e4b4db32a7ce448f9181dbf2b9", "fusion_lon": 0.0, "type": "electric_scooter", "name": "c26408e4b4db32a7ce448f9181dbf2b9", "rental_uris": {"android": "https://dc.lft.to/lastmile_qr_scan", "ios": "https://dc.lft.to/lastmile_qr_scan"}, "fusion_lat": 0.0, "lat": 38.89477, "is_disabled": 0, "lon": -76.995138, "is_reserved": 0}, {"bike_id": "71939aa63e2823130cea59ce219512d7", "fusion_lon": 0.0, "type": "electric_bike", "name": "71939aa63e2823130cea59ce219512d7", "rental_uris": {"android": "https://dc.lft.to/lastmile_qr_scan", "ios": "https://dc.lft.to/lastmile_qr_scan"}, "fusion_lat": 0.0, "lat": 38.90389733333333, "is_disabled": 0, "lon": -77.01771716666667, "is_reserved": 0}, {"bike_id": "eb9d6739e1a20284b86bb59997532a8c", "fusion_lon": 0.0, "type": "electric_scooter", "name": "eb9d6739e1a20284b86bb59997532a8c", "rental_uris": {"android": "https://dc.lft.to/lastmile_qr_scan", "ios": "https://dc.lft.to/lastmile_qr_scan"}, "fusion_lat": 0.0, "lat": 38.91325633333334, "is_disabled": 0, "lon": -77.04531116666666, "is_reserved": 0}, {"bike_id": "a9708df2cd1671abb33ddf6c229704e4", "fusion_lon": 0.0, "type": "electric_scooter", "name": "a9708df2cd1671abb33ddf6c229704e4", "rental_uris": {"android": "https://dc.lft.to/lastmile_qr_scan", "ios": "https://dc.lft.to/lastmile_qr_scan"}, "fusion_lat": 0.0, "lat": 38.917558166666666, "is_disabled": 0, "lon": -77.0248465, "is_reserved": 0}, {"bike_id": "87c649659d59707857afff144cf49fd2", "fusion_lon": 0.0, "type": "electric_scooter", "name": "87c649659d59707857afff144cf49fd2", "rental_uris": {"android": "https://dc.lft.to/lastmile_qr_scan", "ios": "https://dc.lft.to/lastmile_qr_scan"}, "fusion_lat": 0.0, "lat": 38.90072766666667, "is_disabled": 0, "lon": -77.00206083333333, "is_reserved": 0}, {"bike_id": "7b6a42c26d9da89096cdb88ffbdd8435", "fusion_lon": 0.0, "type": "electric_bike", "name": "7b6a42c26d9da89096cdb88ffbdd8435", "rental_uris": {"android": "https://dc.lft.to/lastmile_qr_scan", "ios": "https://dc.lft.to/lastmile_qr_scan"}, "fusion_lat": 0.0, "lat": 38.8521595, "is_disabled": 0, "lon": -77.1295785, "is_reserved": 0}, {"bike_id": "9bf0bfea8ccb4cd01729fb761eb434c9", "fusion_lon": 0.0, "type": "electric_scooter", "name": "9bf0bfea8ccb4cd01729fb761eb434c9", "rental_uris": {"android": "https://dc.lft.to/lastmile_qr_scan", "ios": "https://dc.lft.to/lastmile_qr_scan"}, "fusion_lat": 0.0, "lat": 38.90561266666667, "is_disabled": 0, "lon": -77.00598716666667, "is_reserved": 0}, {"bike_id": "e98eb30d01134f37ce3a8ec2ee49e96d", "fusion_lon": 0.0, "type": "electric_scooter", "name": "e98eb30d01134f37ce3a8ec2ee49e96d", "rental_uris": {"android": "https://dc.lft.to/lastmile_qr_scan", "ios": "https://dc.lft.to/lastmile_qr_scan"}, "fusion_lat": 0.0, "lat": 38.91430116666667, "is_disabled": 0, "lon": -77.02803883333333, "is_reserved": 0}, {"bike_id": "12bc0356b1379186dab0794b50a11364", "fusion_lon": 0.0, "type": "electric_scooter", "name": "12bc0356b1379186dab0794b50a11364", "rental_uris": {"android": "https://dc.lft.to/lastmile_qr_scan", "ios": "https://dc.lft.to/lastmile_qr_scan"}, "fusion_lat": 0.0, "lat": 38.9556595, "is_disabled": 0, "lon": -77.00633116666667, "is_reserved": 0}, {"bike_id": "5c09ecc950ad771683f5414390bb5979", "fusion_lon": 0.0, "type": "electric_scooter", "name": "5c09ecc950ad771683f5414390bb5979", "rental_uris": {"android": "https://dc.lft.to/lastmile_qr_scan", "ios": "https://dc.lft.to/lastmile_qr_scan"}, "fusion_lat": 0.0, "lat": 38.91252583333333, "is_disabled": 0, "lon": -77.00929816666667, "is_reserved": 0}, {"bike_id": "6aca3c0c75e3dcc0928b9b80a0a64e08", "fusion_lon": 0.0, "type": "electric_scooter", "name": "6aca3c0c75e3dcc0928b9b80a0a64e08", "rental_uris": {"android": "https://dc.lft.to/lastmile_qr_scan", "ios": "https://dc.lft.to/lastmile_qr_scan"}, "fusion_lat": 0.0, "lat": 38.9413245, "is_disabled": 0, "lon": -77.092041, "is_reserved": 0}, {"bike_id": "e0027a36778343e9a14bedee3493482f", "fusion_lon": 0.0, "type": "electric_bike", "name": "e0027a36778343e9a14bedee3493482f", "rental_uris": {"android": "https://dc.lft.to/lastmile_qr_scan", "ios": "https://dc.lft.to/lastmile_qr_scan"}, "fusion_lat": 0.0, "lat": 38.86600383333333, "is_disabled": 0, "lon": -76.932286, "is_reserved": 0}, {"bike_id": "db4bd6256063e802182f0a492f32277d", "fusion_lon": 0.0, "type": "electric_scooter", "name": "db4bd6256063e802182f0a492f32277d", "rental_uris": {"android": "https://dc.lft.to/lastmile_qr_scan", "ios": "https://dc.lft.to/lastmile_qr_scan"}, "fusion_lat": 0.0, "lat": 38.90500266666667, "is_disabled": 0, "lon": -77.04065133333333, "is_reserved": 0}, {"bike_id": "e87cd32cdebc7af39bee247a4b13dff0", "fusion_lon": 0.0, "type": "electric_scooter", "name": "e87cd32cdebc7af39bee247a4b13dff0", "rental_uris": {"android": "https://dc.lft.to/lastmile_qr_scan", "ios": "https://dc.lft.to/lastmile_qr_scan"}, "fusion_lat": 0.0, "lat": 38.92795316666667, "is_disabled": 0, "lon": -77.02720833333333, "is_reserved": 0}, {"bike_id": "2729a0b5ba7528dc159f5381fcf6097e", "fusion_lon": 0.0, "type": "electric_scooter", "name": "2729a0b5ba7528dc159f5381fcf6097e", "rental_uris": {"android": "https://dc.lft.to/lastmile_qr_scan", "ios": "https://dc.lft.to/lastmile_qr_scan"}, "fusion_lat": 0.0, "lat": 38.913213, "is_disabled": 0, "lon": -77.01408166666667, "is_reserved": 0}, {"bike_id": "fe7dcd316b590afb5054807bee98c9b3", "fusion_lon": 0.0, "type": "electric_scooter", "name": "fe7dcd316b590afb5054807bee98c9b3", "rental_uris": {"android": "https://dc.lft.to/lastmile_qr_scan", "ios": "https://dc.lft.to/lastmile_qr_scan"}, "fusion_lat": 0.0, "lat": 38.904443666666666, "is_disabled": 0, "lon": -76.9755795, "is_reserved": 0}, {"bike_id": "4500f6c90bf6b44aee8373fa5f78cef0", "fusion_lon": 0.0, "type": "electric_scooter", "name": "4500f6c90bf6b44aee8373fa5f78cef0", "rental_uris": {"android": "https://dc.lft.to/lastmile_qr_scan", "ios": "https://dc.lft.to/lastmile_qr_scan"}, "fusion_lat": 0.0, "lat": 38.91818333333333, "is_disabled": 0, "lon": -77.040036, "is_reserved": 0}, {"bike_id": "7ca2615a7bb3152f23f0ee3603366f73", "fusion_lon": 0.0, "type": "electric_scooter", "name": "7ca2615a7bb3152f23f0ee3603366f73", "rental_uris": {"android": "https://dc.lft.to/lastmile_qr_scan", "ios": "https://dc.lft.to/lastmile_qr_scan"}, "fusion_lat": 0.0, "lat": 38.900246, "is_disabled": 0, "lon": -77.00141616666667, "is_reserved": 0}, {"bike_id": "a9fd646de835a8d8525890b20cdb6417", "fusion_lon": 0.0, "type": "electric_scooter", "name": "a9fd646de835a8d8525890b20cdb6417", "rental_uris": {"android": "https://dc.lft.to/lastmile_qr_scan", "ios": "https://dc.lft.to/lastmile_qr_scan"}, "fusion_lat": 0.0, "lat": 38.91553966666667, "is_disabled": 0, "lon": -77.03834233333333, "is_reserved": 0}, {"bike_id": "844129ab8ea1b8ed951a17bc65960e1d", "fusion_lon": 0.0, "type": "electric_scooter", "name": "844129ab8ea1b8ed951a17bc65960e1d", "rental_uris": {"android": "https://dc.lft.to/lastmile_qr_scan", "ios": "https://dc.lft.to/lastmile_qr_scan"}, "fusion_lat": 0.0, "lat": 38.892213166666664, "is_disabled": 0, "lon": -77.02842, "is_reserved": 0}, {"bike_id": "b17bc510745f339cf82f958f4d8d7b1c", "fusion_lon": 0.0, "type": "electric_scooter", "name": "b17bc510745f339cf82f958f4d8d7b1c", "rental_uris": {"android": "https://dc.lft.to/lastmile_qr_scan", "ios": "https://dc.lft.to/lastmile_qr_scan"}, "fusion_lat": 0.0, "lat": 38.91646466666667, "is_disabled": 0, "lon": -76.982275, "is_reserved": 0}, {"bike_id": "22e7b8ebd8418332c1707f153a388d62", "fusion_lon": 0.0, "type": "electric_scooter", "name": "22e7b8ebd8418332c1707f153a388d62", "rental_uris": {"android": "https://dc.lft.to/lastmile_qr_scan", "ios": "https://dc.lft.to/lastmile_qr_scan"}, "fusion_lat": 0.0, "lat": 38.86092166666667, "is_disabled": 0, "lon": -76.98597966666667, "is_reserved": 0}, {"bike_id": "949f39dda2a79cb62f2cee7f345a7a9d", "fusion_lon": 0.0, "type": "electric_scooter", "name": "949f39dda2a79cb62f2cee7f345a7a9d", "rental_uris": {"android": "https://dc.lft.to/lastmile_qr_scan", "ios": "https://dc.lft.to/lastmile_qr_scan"}, "fusion_lat": 0.0, "lat": 38.93595583333333, "is_disabled": 0, "lon": -77.0379355, "is_reserved": 0}, {"bike_id": "b5df6c82a09bfd3e762c51eab181e77e", "fusion_lon": 0.0, "type": "electric_scooter", "name": "b5df6c82a09bfd3e762c51eab181e77e", "rental_uris": {"android": "https://dc.lft.to/lastmile_qr_scan", "ios": "https://dc.lft.to/lastmile_qr_scan"}, "fusion_lat": 0.0, "lat": 38.8711205, "is_disabled": 0, "lon": -77.01068633333334, "is_reserved": 0}, {"bike_id": "5959419decc6d082b53d9f949ba84898", "fusion_lon": 0.0, "type": "electric_scooter", "name": "5959419decc6d082b53d9f949ba84898", "rental_uris": {"android": "https://dc.lft.to/lastmile_qr_scan", "ios": "https://dc.lft.to/lastmile_qr_scan"}, "fusion_lat": 0.0, "lat": 38.9191735, "is_disabled": 0, "lon": -77.04591316666667, "is_reserved": 0}, {"bike_id": "5e4d230dca798db4397894d38c039d9f", "fusion_lon": 0.0, "type": "electric_scooter", "name": "5e4d230dca798db4397894d38c039d9f", "rental_uris": {"android": "https://dc.lft.to/lastmile_qr_scan", "ios": "https://dc.lft.to/lastmile_qr_scan"}, "fusion_lat": 0.0, "lat": 38.9002765, "is_disabled": 0, "lon": -76.98774383333334, "is_reserved": 0}, {"bike_id": "9f88b68897f98964909e462d0335f152", "fusion_lon": 0.0, "type": "electric_bike", "name": "9f88b68897f98964909e462d0335f152", "rental_uris": {"android": "https://dc.lft.to/lastmile_qr_scan", "ios": "https://dc.lft.to/lastmile_qr_scan"}, "fusion_lat": 0.0, "lat": 38.919289, "is_disabled": 0, "lon": -76.975027, "is_reserved": 0}, {"bike_id": "412ddb39d8cc49b321d4d8f9e98eded4", "fusion_lon": 0.0, "type": "electric_bike", "name": "412ddb39d8cc49b321d4d8f9e98eded4", "rental_uris": {"android": "https://dc.lft.to/lastmile_qr_scan", "ios": "https://dc.lft.to/lastmile_qr_scan"}, "fusion_lat": 0.0, "lat": 38.808422166666666, "is_disabled": 0, "lon": -77.08367566666666, "is_reserved": 0}, {"bike_id": "60a7bc59e8e61788344601d96d3a56d3", "fusion_lon": 0.0, "type": "electric_bike", "name": "60a7bc59e8e61788344601d96d3a56d3", "rental_uris": {"android": "https://dc.lft.to/lastmile_qr_scan", "ios": "https://dc.lft.to/lastmile_qr_scan"}, "fusion_lat": 0.0, "lat": 38.8459985, "is_disabled": 0, "lon": -76.96876933333333, "is_reserved": 0}, {"bike_id": "f589edfb6e57f781075041489d8a1384", "fusion_lon": 0.0, "type": "electric_scooter", "name": "f589edfb6e57f781075041489d8a1384", "rental_uris": {"android": "https://dc.lft.to/lastmile_qr_scan", "ios": "https://dc.lft.to/lastmile_qr_scan"}, "fusion_lat": 0.0, "lat": 38.916003, "is_disabled": 0, "lon": -77.02400433333334, "is_reserved": 0}, {"bike_id": "ed0149a6c96fac28146f9b981ec73078", "fusion_lon": 0.0, "type": "electric_scooter", "name": "ed0149a6c96fac28146f9b981ec73078", "rental_uris": {"android": "https://dc.lft.to/lastmile_qr_scan", "ios": "https://dc.lft.to/lastmile_qr_scan"}, "fusion_lat": 0.0, "lat": 38.9242325, "is_disabled": 0, "lon": -77.03636466666667, "is_reserved": 0}, {"bike_id": "d5a1ff98638cd4acafc8a05dd3852ed8", "fusion_lon": 0.0, "type": "electric_scooter", "name": "d5a1ff98638cd4acafc8a05dd3852ed8", "rental_uris": {"android": "https://dc.lft.to/lastmile_qr_scan", "ios": "https://dc.lft.to/lastmile_qr_scan"}, "fusion_lat": 0.0, "lat": 38.924023, "is_disabled": 0, "lon": -77.02004066666667, "is_reserved": 0}, {"bike_id": "9068bc71968cbabea67536f089f7aa40", "fusion_lon": 0.0, "type": "electric_bike", "name": "9068bc71968cbabea67536f089f7aa40", "rental_uris": {"android": "https://dc.lft.to/lastmile_qr_scan", "ios": "https://dc.lft.to/lastmile_qr_scan"}, "fusion_lat": 0.0, "lat": 38.844804333333336, "is_disabled": 0, "lon": -76.9721925, "is_reserved": 0}, {"bike_id": "aa99c78080ec24109441f018809cc68d", "fusion_lon": 0.0, "type": "electric_bike", "name": "aa99c78080ec24109441f018809cc68d", "rental_uris": {"android": "https://dc.lft.to/lastmile_qr_scan", "ios": "https://dc.lft.to/lastmile_qr_scan"}, "fusion_lat": 0.0, "lat": 38.92219383333333, "is_disabled": 0, "lon": -77.02230766666666, "is_reserved": 0}, {"bike_id": "10cd5d2c1243566c8ab44a776b97f933", "fusion_lon": 0.0, "type": "electric_scooter", "name": "10cd5d2c1243566c8ab44a776b97f933", "rental_uris": {"android": "https://dc.lft.to/lastmile_qr_scan", "ios": "https://dc.lft.to/lastmile_qr_scan"}, "fusion_lat": 0.0, "lat": 38.95968166666667, "is_disabled": 0, "lon": -77.00729016666666, "is_reserved": 0}, {"bike_id": "fd8d2a91b9809a749cbdcb112f106f37", "fusion_lon": 0.0, "type": "electric_scooter", "name": "fd8d2a91b9809a749cbdcb112f106f37", "rental_uris": {"android": "https://dc.lft.to/lastmile_qr_scan", "ios": "https://dc.lft.to/lastmile_qr_scan"}, "fusion_lat": 0.0, "lat": 38.897507166666664, "is_disabled": 0, "lon": -77.02149583333333, "is_reserved": 0}, {"bike_id": "b1300a5ebc7dad4751945bc56949f74c", "fusion_lon": 0.0, "type": "electric_scooter", "name": "b1300a5ebc7dad4751945bc56949f74c", "rental_uris": {"android": "https://dc.lft.to/lastmile_qr_scan", "ios": "https://dc.lft.to/lastmile_qr_scan"}, "fusion_lat": 0.0, "lat": 38.949603333333336, "is_disabled": 0, "lon": -77.06738483333334, "is_reserved": 0}, {"bike_id": "09878aa2b08dd17ae3f41d7552683d40", "fusion_lon": 0.0, "type": "electric_scooter", "name": "09878aa2b08dd17ae3f41d7552683d40", "rental_uris": {"android": "https://dc.lft.to/lastmile_qr_scan", "ios": "https://dc.lft.to/lastmile_qr_scan"}, "fusion_lat": 0.0, "lat": 38.900082, "is_disabled": 0, "lon": -76.99119116666667, "is_reserved": 0}, {"bike_id": "4ea5ad4bc18aabe8ba77e620d9702587", "fusion_lon": 0.0, "type": "electric_scooter", "name": "4ea5ad4bc18aabe8ba77e620d9702587", "rental_uris": {"android": "https://dc.lft.to/lastmile_qr_scan", "ios": "https://dc.lft.to/lastmile_qr_scan"}, "fusion_lat": 0.0, "lat": 38.9197825, "is_disabled": 0, "lon": -77.0183015, "is_reserved": 0}, {"bike_id": "65c6d64f267069ec069d986426fc20a2", "fusion_lon": 0.0, "type": "electric_scooter", "name": "65c6d64f267069ec069d986426fc20a2", "rental_uris": {"android": "https://dc.lft.to/lastmile_qr_scan", "ios": "https://dc.lft.to/lastmile_qr_scan"}, "fusion_lat": 0.0, "lat": 38.91431016666667, "is_disabled": 0, "lon": -77.00196383333333, "is_reserved": 0}, {"bike_id": "6b6ba3fb43f91301f66550210e9d7084", "fusion_lon": 0.0, "type": "electric_scooter", "name": "6b6ba3fb43f91301f66550210e9d7084", "rental_uris": {"android": "https://dc.lft.to/lastmile_qr_scan", "ios": "https://dc.lft.to/lastmile_qr_scan"}, "fusion_lat": 0.0, "lat": 38.930801333333335, "is_disabled": 0, "lon": -77.02794083333333, "is_reserved": 0}, {"bike_id": "81807228a23d6c7fcf31340155306979", "fusion_lon": 0.0, "type": "electric_scooter", "name": "81807228a23d6c7fcf31340155306979", "rental_uris": {"android": "https://dc.lft.to/lastmile_qr_scan", "ios": "https://dc.lft.to/lastmile_qr_scan"}, "fusion_lat": 0.0, "lat": 38.92128316666667, "is_disabled": 0, "lon": -77.0468885, "is_reserved": 0}, {"bike_id": "234af21c4662926ddcda7df738ffec3b", "fusion_lon": 0.0, "type": "electric_scooter", "name": "234af21c4662926ddcda7df738ffec3b", "rental_uris": {"android": "https://dc.lft.to/lastmile_qr_scan", "ios": "https://dc.lft.to/lastmile_qr_scan"}, "fusion_lat": 0.0, "lat": 38.9125325, "is_disabled": 0, "lon": -77.04739116666667, "is_reserved": 0}, {"bike_id": "1305fb591e84b8dd403dc113033bea17", "fusion_lon": 0.0, "type": "electric_scooter", "name": "1305fb591e84b8dd403dc113033bea17", "rental_uris": {"android": "https://dc.lft.to/lastmile_qr_scan", "ios": "https://dc.lft.to/lastmile_qr_scan"}, "fusion_lat": 0.0, "lat": 38.89868966666667, "is_disabled": 0, "lon": -76.946636, "is_reserved": 0}, {"bike_id": "b3b086413126b4ced6a1859a9fb316ff", "fusion_lon": 0.0, "type": "electric_scooter", "name": "b3b086413126b4ced6a1859a9fb316ff", "rental_uris": {"android": "https://dc.lft.to/lastmile_qr_scan", "ios": "https://dc.lft.to/lastmile_qr_scan"}, "fusion_lat": 0.0, "lat": 38.90828716666667, "is_disabled": 0, "lon": -77.03935383333334, "is_reserved": 0}, {"bike_id": "158c9b3707c2731642a31b5f0a85ac3b", "fusion_lon": 0.0, "type": "electric_scooter", "name": "158c9b3707c2731642a31b5f0a85ac3b", "rental_uris": {"android": "https://dc.lft.to/lastmile_qr_scan", "ios": "https://dc.lft.to/lastmile_qr_scan"}, "fusion_lat": 0.0, "lat": 38.89600566666667, "is_disabled": 0, "lon": -77.01155733333333, "is_reserved": 0}, {"bike_id": "08283f6dad6f506f789074cfadf38939", "fusion_lon": 0.0, "type": "electric_scooter", "name": "08283f6dad6f506f789074cfadf38939", "rental_uris": {"android": "https://dc.lft.to/lastmile_qr_scan", "ios": "https://dc.lft.to/lastmile_qr_scan"}, "fusion_lat": 0.0, "lat": 38.90676066666666, "is_disabled": 0, "lon": -77.06281766666666, "is_reserved": 0}, {"bike_id": "95c95a693274a3366b3c833b4ff52852", "fusion_lon": 0.0, "type": "electric_scooter", "name": "95c95a693274a3366b3c833b4ff52852", "rental_uris": {"android": "https://dc.lft.to/lastmile_qr_scan", "ios": "https://dc.lft.to/lastmile_qr_scan"}, "fusion_lat": 0.0, "lat": 38.9078295, "is_disabled": 0, "lon": -77.04487383333333, "is_reserved": 0}, {"bike_id": "83d4d87272644417083c6a377146ea24", "fusion_lon": 0.0, "type": "electric_scooter", "name": "83d4d87272644417083c6a377146ea24", "rental_uris": {"android": "https://dc.lft.to/lastmile_qr_scan", "ios": "https://dc.lft.to/lastmile_qr_scan"}, "fusion_lat": 0.0, "lat": 38.910146833333336, "is_disabled": 0, "lon": -77.02206183333334, "is_reserved": 0}, {"bike_id": "6d88995fe271c0ad1c5653c2e50ebd99", "fusion_lon": 0.0, "type": "electric_scooter", "name": "6d88995fe271c0ad1c5653c2e50ebd99", "rental_uris": {"android": "https://dc.lft.to/lastmile_qr_scan", "ios": "https://dc.lft.to/lastmile_qr_scan"}, "fusion_lat": 0.0, "lat": 38.865081333333336, "is_disabled": 0, "lon": -76.97343933333333, "is_reserved": 0}, {"bike_id": "d218bd71d207fdccce53db5d960a94b0", "fusion_lon": 0.0, "type": "electric_scooter", "name": "d218bd71d207fdccce53db5d960a94b0", "rental_uris": {"android": "https://dc.lft.to/lastmile_qr_scan", "ios": "https://dc.lft.to/lastmile_qr_scan"}, "fusion_lat": 0.0, "lat": 38.8931535, "is_disabled": 0, "lon": -77.02958716666667, "is_reserved": 0}, {"bike_id": "43023f8885f9e08f1f4a0d6441322c7b", "fusion_lon": 0.0, "type": "electric_scooter", "name": "43023f8885f9e08f1f4a0d6441322c7b", "rental_uris": {"android": "https://dc.lft.to/lastmile_qr_scan", "ios": "https://dc.lft.to/lastmile_qr_scan"}, "fusion_lat": 0.0, "lat": 38.92728566666667, "is_disabled": 0, "lon": -77.02278233333334, "is_reserved": 0}, {"bike_id": "38ce7cc5c133e47c497a7d7c29736cec", "fusion_lon": 0.0, "type": "electric_scooter", "name": "38ce7cc5c133e47c497a7d7c29736cec", "rental_uris": {"android": "https://dc.lft.to/lastmile_qr_scan", "ios": "https://dc.lft.to/lastmile_qr_scan"}, "fusion_lat": 0.0, "lat": 38.89245566666666, "is_disabled": 0, "lon": -77.0217405, "is_reserved": 0}, {"bike_id": "838339d45227b43f3030447dba6775f7", "fusion_lon": 0.0, "type": "electric_scooter", "name": "838339d45227b43f3030447dba6775f7", "rental_uris": {"android": "https://dc.lft.to/lastmile_qr_scan", "ios": "https://dc.lft.to/lastmile_qr_scan"}, "fusion_lat": 0.0, "lat": 38.87915566666667, "is_disabled": 0, "lon": -76.99159283333333, "is_reserved": 0}, {"bike_id": "9c19360db32677fc1a64c1a7cc08f076", "fusion_lon": 0.0, "type": "electric_scooter", "name": "9c19360db32677fc1a64c1a7cc08f076", "rental_uris": {"android": "https://dc.lft.to/lastmile_qr_scan", "ios": "https://dc.lft.to/lastmile_qr_scan"}, "fusion_lat": 0.0, "lat": 38.91018866666667, "is_disabled": 0, "lon": -77.00920016666667, "is_reserved": 0}, {"bike_id": "79a1763d8caae46effedcf12e7dddda5", "fusion_lon": 0.0, "type": "electric_scooter", "name": "79a1763d8caae46effedcf12e7dddda5", "rental_uris": {"android": "https://dc.lft.to/lastmile_qr_scan", "ios": "https://dc.lft.to/lastmile_qr_scan"}, "fusion_lat": 0.0, "lat": 38.88986766666667, "is_disabled": 0, "lon": -76.92403616666667, "is_reserved": 0}, {"bike_id": "50590d1c8c05eb1f942214acb16a85f7", "fusion_lon": 0.0, "type": "electric_scooter", "name": "50590d1c8c05eb1f942214acb16a85f7", "rental_uris": {"android": "https://dc.lft.to/lastmile_qr_scan", "ios": "https://dc.lft.to/lastmile_qr_scan"}, "fusion_lat": 0.0, "lat": 38.930397, "is_disabled": 0, "lon": -77.03214733333333, "is_reserved": 0}, {"bike_id": "4f6db0d8465647cecffd54a86578520d", "fusion_lon": 0.0, "type": "electric_scooter", "name": "4f6db0d8465647cecffd54a86578520d", "rental_uris": {"android": "https://dc.lft.to/lastmile_qr_scan", "ios": "https://dc.lft.to/lastmile_qr_scan"}, "fusion_lat": 0.0, "lat": 38.91406583333333, "is_disabled": 0, "lon": -77.03877983333334, "is_reserved": 0}, {"bike_id": "021e2ed8554b8d93c76d7657ee1b005a", "fusion_lon": 0.0, "type": "electric_scooter", "name": "021e2ed8554b8d93c76d7657ee1b005a", "rental_uris": {"android": "https://dc.lft.to/lastmile_qr_scan", "ios": "https://dc.lft.to/lastmile_qr_scan"}, "fusion_lat": 0.0, "lat": 38.89431916666667, "is_disabled": 0, "lon": -76.97901933333333, "is_reserved": 0}, {"bike_id": "eecb531372cde842afba4b5cbda3af33", "fusion_lon": 0.0, "type": "electric_scooter", "name": "eecb531372cde842afba4b5cbda3af33", "rental_uris": {"android": "https://dc.lft.to/lastmile_qr_scan", "ios": "https://dc.lft.to/lastmile_qr_scan"}, "fusion_lat": 0.0, "lat": 38.90010433333333, "is_disabled": 0, "lon": -76.99108133333333, "is_reserved": 0}, {"bike_id": "fc6aa2b23ab15f77139214500c38cc11", "fusion_lon": 0.0, "type": "electric_scooter", "name": "fc6aa2b23ab15f77139214500c38cc11", "rental_uris": {"android": "https://dc.lft.to/lastmile_qr_scan", "ios": "https://dc.lft.to/lastmile_qr_scan"}, "fusion_lat": 0.0, "lat": 38.9183805, "is_disabled": 0, "lon": -77.03913633333333, "is_reserved": 0}, {"bike_id": "c9e596d3217b1dee1658de3f61744e6c", "fusion_lon": 0.0, "type": "electric_bike", "name": "c9e596d3217b1dee1658de3f61744e6c", "rental_uris": {"android": "https://dc.lft.to/lastmile_qr_scan", "ios": "https://dc.lft.to/lastmile_qr_scan"}, "fusion_lat": 0.0, "lat": 38.935781, "is_disabled": 0, "lon": -77.10684233333333, "is_reserved": 0}, {"bike_id": "8c6dab74ecb6adc154a3c66c7a634baa", "fusion_lon": 0.0, "type": "electric_scooter", "name": "8c6dab74ecb6adc154a3c66c7a634baa", "rental_uris": {"android": "https://dc.lft.to/lastmile_qr_scan", "ios": "https://dc.lft.to/lastmile_qr_scan"}, "fusion_lat": 0.0, "lat": 38.91879633333333, "is_disabled": 0, "lon": -77.0363875, "is_reserved": 0}, {"bike_id": "96f197e16f6c4af48bc62813bd3a04d1", "fusion_lon": 0.0, "type": "electric_scooter", "name": "96f197e16f6c4af48bc62813bd3a04d1", "rental_uris": {"android": "https://dc.lft.to/lastmile_qr_scan", "ios": "https://dc.lft.to/lastmile_qr_scan"}, "fusion_lat": 0.0, "lat": 38.893397, "is_disabled": 0, "lon": -77.04659316666667, "is_reserved": 0}, {"bike_id": "f51f1e7096123059cb6a41b07ea4a5d2", "fusion_lon": 0.0, "type": "electric_scooter", "name": "f51f1e7096123059cb6a41b07ea4a5d2", "rental_uris": {"android": "https://dc.lft.to/lastmile_qr_scan", "ios": "https://dc.lft.to/lastmile_qr_scan"}, "fusion_lat": 0.0, "lat": 38.904186333333335, "is_disabled": 0, "lon": -77.0242355, "is_reserved": 0}, {"bike_id": "800693d778878105c136d3b271859c84", "fusion_lon": 0.0, "type": "electric_scooter", "name": "800693d778878105c136d3b271859c84", "rental_uris": {"android": "https://dc.lft.to/lastmile_qr_scan", "ios": "https://dc.lft.to/lastmile_qr_scan"}, "fusion_lat": 0.0, "lat": 38.902724166666665, "is_disabled": 0, "lon": -77.04508566666667, "is_reserved": 0}, {"bike_id": "401cb49ff11fa4a929b7dfaced0f8a8d", "fusion_lon": 0.0, "type": "electric_scooter", "name": "401cb49ff11fa4a929b7dfaced0f8a8d", "rental_uris": {"android": "https://dc.lft.to/lastmile_qr_scan", "ios": "https://dc.lft.to/lastmile_qr_scan"}, "fusion_lat": 0.0, "lat": 38.9211815, "is_disabled": 0, "lon": -77.01025166666666, "is_reserved": 0}, {"bike_id": "c4d78464de13c67170e88ccfae77696e", "fusion_lon": 0.0, "type": "electric_scooter", "name": "c4d78464de13c67170e88ccfae77696e", "rental_uris": {"android": "https://dc.lft.to/lastmile_qr_scan", "ios": "https://dc.lft.to/lastmile_qr_scan"}, "fusion_lat": 0.0, "lat": 38.918228666666664, "is_disabled": 0, "lon": -77.03836033333333, "is_reserved": 0}, {"bike_id": "a7cc04b8b6b79ba20a2912b55ded996c", "fusion_lon": 0.0, "type": "electric_scooter", "name": "a7cc04b8b6b79ba20a2912b55ded996c", "rental_uris": {"android": "https://dc.lft.to/lastmile_qr_scan", "ios": "https://dc.lft.to/lastmile_qr_scan"}, "fusion_lat": 0.0, "lat": 38.901594333333335, "is_disabled": 0, "lon": -77.03319133333333, "is_reserved": 0}, {"bike_id": "ff953955959a421f204d2cc3bc97ba48", "fusion_lon": 0.0, "type": "electric_scooter", "name": "ff953955959a421f204d2cc3bc97ba48", "rental_uris": {"android": "https://dc.lft.to/lastmile_qr_scan", "ios": "https://dc.lft.to/lastmile_qr_scan"}, "fusion_lat": 0.0, "lat": 38.900808166666664, "is_disabled": 0, "lon": -76.93012716666667, "is_reserved": 0}, {"bike_id": "18d89f7eed6f3337866180463be0d101", "fusion_lon": 0.0, "type": "electric_scooter", "name": "18d89f7eed6f3337866180463be0d101", "rental_uris": {"android": "https://dc.lft.to/lastmile_qr_scan", "ios": "https://dc.lft.to/lastmile_qr_scan"}, "fusion_lat": 0.0, "lat": 38.907202166666664, "is_disabled": 0, "lon": -77.04763733333333, "is_reserved": 0}, {"bike_id": "c66a27346b0632265aff80f82ea015c7", "fusion_lon": 0.0, "type": "electric_scooter", "name": "c66a27346b0632265aff80f82ea015c7", "rental_uris": {"android": "https://dc.lft.to/lastmile_qr_scan", "ios": "https://dc.lft.to/lastmile_qr_scan"}, "fusion_lat": 0.0, "lat": 38.925161, "is_disabled": 0, "lon": -77.0363625, "is_reserved": 0}, {"bike_id": "1d6847f57f6d34ef5c28badbe21031f0", "fusion_lon": 0.0, "type": "electric_scooter", "name": "1d6847f57f6d34ef5c28badbe21031f0", "rental_uris": {"android": "https://dc.lft.to/lastmile_qr_scan", "ios": "https://dc.lft.to/lastmile_qr_scan"}, "fusion_lat": 0.0, "lat": 38.88427466666667, "is_disabled": 0, "lon": -76.95756166666666, "is_reserved": 0}, {"bike_id": "6610c9c784a1aee49d33dfaaa2bab396", "fusion_lon": 0.0, "type": "electric_scooter", "name": "6610c9c784a1aee49d33dfaaa2bab396", "rental_uris": {"android": "https://dc.lft.to/lastmile_qr_scan", "ios": "https://dc.lft.to/lastmile_qr_scan"}, "fusion_lat": 0.0, "lat": 38.90616766666667, "is_disabled": 0, "lon": -77.03739816666666, "is_reserved": 0}, {"bike_id": "dadaf704cf78eb3629216b93605a73cf", "fusion_lon": 0.0, "type": "electric_bike", "name": "dadaf704cf78eb3629216b93605a73cf", "rental_uris": {"android": "https://dc.lft.to/lastmile_qr_scan", "ios": "https://dc.lft.to/lastmile_qr_scan"}, "fusion_lat": 0.0, "lat": 38.8928355, "is_disabled": 0, "lon": -76.97624333333333, "is_reserved": 0}, {"bike_id": "0647e774a0dbc69bc8a944be94b5473b", "fusion_lon": 0.0, "type": "electric_scooter", "name": "0647e774a0dbc69bc8a944be94b5473b", "rental_uris": {"android": "https://dc.lft.to/lastmile_qr_scan", "ios": "https://dc.lft.to/lastmile_qr_scan"}, "fusion_lat": 0.0, "lat": 38.92910116666667, "is_disabled": 0, "lon": -77.063966, "is_reserved": 0}, {"bike_id": "a734c08b0a472c056ba406e5bca7dd42", "fusion_lon": 0.0, "type": "electric_bike", "name": "a734c08b0a472c056ba406e5bca7dd42", "rental_uris": {"android": "https://dc.lft.to/lastmile_qr_scan", "ios": "https://dc.lft.to/lastmile_qr_scan"}, "fusion_lat": 0.0, "lat": 38.95612766666667, "is_disabled": 0, "lon": -77.036057, "is_reserved": 0}, {"bike_id": "d6feac043672d1a16fd16bd73b343301", "fusion_lon": 0.0, "type": "electric_scooter", "name": "d6feac043672d1a16fd16bd73b343301", "rental_uris": {"android": "https://dc.lft.to/lastmile_qr_scan", "ios": "https://dc.lft.to/lastmile_qr_scan"}, "fusion_lat": 0.0, "lat": 38.89920583333333, "is_disabled": 0, "lon": -76.986015, "is_reserved": 0}, {"bike_id": "0a7f21e84c4fce7a92887772e1b9a4bc", "fusion_lon": 0.0, "type": "electric_scooter", "name": "0a7f21e84c4fce7a92887772e1b9a4bc", "rental_uris": {"android": "https://dc.lft.to/lastmile_qr_scan", "ios": "https://dc.lft.to/lastmile_qr_scan"}, "fusion_lat": 0.0, "lat": 38.877849833333336, "is_disabled": 0, "lon": -76.99411033333334, "is_reserved": 0}, {"bike_id": "f152fc319a02ad807634f76c09f9e886", "fusion_lon": 0.0, "type": "electric_scooter", "name": "f152fc319a02ad807634f76c09f9e886", "rental_uris": {"android": "https://dc.lft.to/lastmile_qr_scan", "ios": "https://dc.lft.to/lastmile_qr_scan"}, "fusion_lat": 0.0, "lat": 38.89882583333333, "is_disabled": 0, "lon": -77.05296, "is_reserved": 0}, {"bike_id": "3ae4428813e94db0991782da86cb6ef0", "fusion_lon": 0.0, "type": "electric_scooter", "name": "3ae4428813e94db0991782da86cb6ef0", "rental_uris": {"android": "https://dc.lft.to/lastmile_qr_scan", "ios": "https://dc.lft.to/lastmile_qr_scan"}, "fusion_lat": 0.0, "lat": 38.91813483333333, "is_disabled": 0, "lon": -77.02700966666667, "is_reserved": 0}, {"bike_id": "a388521e1e9b7a5911b90327c67d902c", "fusion_lon": 0.0, "type": "electric_scooter", "name": "a388521e1e9b7a5911b90327c67d902c", "rental_uris": {"android": "https://dc.lft.to/lastmile_qr_scan", "ios": "https://dc.lft.to/lastmile_qr_scan"}, "fusion_lat": 0.0, "lat": 38.9196825, "is_disabled": 0, "lon": -77.04149766666667, "is_reserved": 0}, {"bike_id": "8f72df3ed29f86fa477ebe1fd4cfa7ad", "fusion_lon": 0.0, "type": "electric_scooter", "name": "8f72df3ed29f86fa477ebe1fd4cfa7ad", "rental_uris": {"android": "https://dc.lft.to/lastmile_qr_scan", "ios": "https://dc.lft.to/lastmile_qr_scan"}, "fusion_lat": 0.0, "lat": 38.933682, "is_disabled": 0, "lon": -77.03737883333334, "is_reserved": 0}, {"bike_id": "5990c70b82f71a22af0deb45a2d39666", "fusion_lon": 0.0, "type": "electric_scooter", "name": "5990c70b82f71a22af0deb45a2d39666", "rental_uris": {"android": "https://dc.lft.to/lastmile_qr_scan", "ios": "https://dc.lft.to/lastmile_qr_scan"}, "fusion_lat": 0.0, "lat": 38.907630833333336, "is_disabled": 0, "lon": -77.0320575, "is_reserved": 0}, {"bike_id": "90380903bfc2c3683d118fa789966152", "fusion_lon": 0.0, "type": "electric_scooter", "name": "90380903bfc2c3683d118fa789966152", "rental_uris": {"android": "https://dc.lft.to/lastmile_qr_scan", "ios": "https://dc.lft.to/lastmile_qr_scan"}, "fusion_lat": 0.0, "lat": 38.901617, "is_disabled": 0, "lon": -76.98087816666667, "is_reserved": 0}, {"bike_id": "a3892b0b6e2bfcd53d1f5663bc20c6ae", "fusion_lon": 0.0, "type": "electric_scooter", "name": "a3892b0b6e2bfcd53d1f5663bc20c6ae", "rental_uris": {"android": "https://dc.lft.to/lastmile_qr_scan", "ios": "https://dc.lft.to/lastmile_qr_scan"}, "fusion_lat": 0.0, "lat": 38.867149166666664, "is_disabled": 0, "lon": -76.987189, "is_reserved": 0}, {"bike_id": "e06814f3510b6f7d3cb246987843683f", "fusion_lon": 0.0, "type": "electric_scooter", "name": "e06814f3510b6f7d3cb246987843683f", "rental_uris": {"android": "https://dc.lft.to/lastmile_qr_scan", "ios": "https://dc.lft.to/lastmile_qr_scan"}, "fusion_lat": 0.0, "lat": 38.8744035, "is_disabled": 0, "lon": -77.00922966666667, "is_reserved": 0}, {"bike_id": "a7ca410a8913ce082b4f2aa5342836f7", "fusion_lon": 0.0, "type": "electric_scooter", "name": "a7ca410a8913ce082b4f2aa5342836f7", "rental_uris": {"android": "https://dc.lft.to/lastmile_qr_scan", "ios": "https://dc.lft.to/lastmile_qr_scan"}, "fusion_lat": 0.0, "lat": 38.915505833333334, "is_disabled": 0, "lon": -77.03840016666666, "is_reserved": 0}, {"bike_id": "6e6d45b90883efe798e418310dece9ad", "fusion_lon": 0.0, "type": "electric_scooter", "name": "6e6d45b90883efe798e418310dece9ad", "rental_uris": {"android": "https://dc.lft.to/lastmile_qr_scan", "ios": "https://dc.lft.to/lastmile_qr_scan"}, "fusion_lat": 0.0, "lat": 38.90510716666667, "is_disabled": 0, "lon": -77.04989766666667, "is_reserved": 0}, {"bike_id": "2283f3ace753440a555b63ccb8802dbf", "fusion_lon": 0.0, "type": "electric_scooter", "name": "2283f3ace753440a555b63ccb8802dbf", "rental_uris": {"android": "https://dc.lft.to/lastmile_qr_scan", "ios": "https://dc.lft.to/lastmile_qr_scan"}, "fusion_lat": 0.0, "lat": 38.912548, "is_disabled": 0, "lon": -77.03762416666666, "is_reserved": 0}, {"bike_id": "20791d47c6f3375d01ac955070ade6bb", "fusion_lon": 0.0, "type": "electric_scooter", "name": "20791d47c6f3375d01ac955070ade6bb", "rental_uris": {"android": "https://dc.lft.to/lastmile_qr_scan", "ios": "https://dc.lft.to/lastmile_qr_scan"}, "fusion_lat": 0.0, "lat": 38.90965966666667, "is_disabled": 0, "lon": -77.03178866666667, "is_reserved": 0}, {"bike_id": "a5dc568cd5449a2922583cca79909e55", "fusion_lon": 0.0, "type": "electric_scooter", "name": "a5dc568cd5449a2922583cca79909e55", "rental_uris": {"android": "https://dc.lft.to/lastmile_qr_scan", "ios": "https://dc.lft.to/lastmile_qr_scan"}, "fusion_lat": 0.0, "lat": 38.9248495, "is_disabled": 0, "lon": -77.034828, "is_reserved": 0}, {"bike_id": "ba59d80235d8cd5af9e90350db6308a1", "fusion_lon": 0.0, "type": "electric_scooter", "name": "ba59d80235d8cd5af9e90350db6308a1", "rental_uris": {"android": "https://dc.lft.to/lastmile_qr_scan", "ios": "https://dc.lft.to/lastmile_qr_scan"}, "fusion_lat": 0.0, "lat": 38.921873166666664, "is_disabled": 0, "lon": -77.0434375, "is_reserved": 0}, {"bike_id": "5aa63a71920c5159310942a2d73ee72a", "fusion_lon": 0.0, "type": "electric_scooter", "name": "5aa63a71920c5159310942a2d73ee72a", "rental_uris": {"android": "https://dc.lft.to/lastmile_qr_scan", "ios": "https://dc.lft.to/lastmile_qr_scan"}, "fusion_lat": 0.0, "lat": 38.93368016666667, "is_disabled": 0, "lon": -77.057311, "is_reserved": 0}, {"bike_id": "5f7b9b453baa7c022c0589d6a8acde2e", "fusion_lon": 0.0, "type": "electric_scooter", "name": "5f7b9b453baa7c022c0589d6a8acde2e", "rental_uris": {"android": "https://dc.lft.to/lastmile_qr_scan", "ios": "https://dc.lft.to/lastmile_qr_scan"}, "fusion_lat": 0.0, "lat": 38.89440833333333, "is_disabled": 0, "lon": -76.94985133333333, "is_reserved": 0}, {"bike_id": "b02171505683f89be17aec9cf942f7e3", "fusion_lon": 0.0, "type": "electric_scooter", "name": "b02171505683f89be17aec9cf942f7e3", "rental_uris": {"android": "https://dc.lft.to/lastmile_qr_scan", "ios": "https://dc.lft.to/lastmile_qr_scan"}, "fusion_lat": 0.0, "lat": 38.900088833333335, "is_disabled": 0, "lon": -76.99448116666667, "is_reserved": 0}, {"bike_id": "98eca43d8aae497d8b18b5931e6e900a", "fusion_lon": 0.0, "type": "electric_bike", "name": "98eca43d8aae497d8b18b5931e6e900a", "rental_uris": {"android": "https://dc.lft.to/lastmile_qr_scan", "ios": "https://dc.lft.to/lastmile_qr_scan"}, "fusion_lat": 0.0, "lat": 38.854926666666664, "is_disabled": 0, "lon": -77.1160865, "is_reserved": 0}, {"bike_id": "7b52cec88e49bd928e18cc7238d707d8", "fusion_lon": 0.0, "type": "electric_scooter", "name": "7b52cec88e49bd928e18cc7238d707d8", "rental_uris": {"android": "https://dc.lft.to/lastmile_qr_scan", "ios": "https://dc.lft.to/lastmile_qr_scan"}, "fusion_lat": 0.0, "lat": 38.911494166666664, "is_disabled": 0, "lon": -76.984697, "is_reserved": 0}, {"bike_id": "1b9defd994adbfb317c23d48980cd426", "fusion_lon": 0.0, "type": "electric_scooter", "name": "1b9defd994adbfb317c23d48980cd426", "rental_uris": {"android": "https://dc.lft.to/lastmile_qr_scan", "ios": "https://dc.lft.to/lastmile_qr_scan"}, "fusion_lat": 0.0, "lat": 38.895479, "is_disabled": 0, "lon": -76.99150466666667, "is_reserved": 0}, {"bike_id": "a549ec0243a62bb8304b42105b0848fa", "fusion_lon": 0.0, "type": "electric_scooter", "name": "a549ec0243a62bb8304b42105b0848fa", "rental_uris": {"android": "https://dc.lft.to/lastmile_qr_scan", "ios": "https://dc.lft.to/lastmile_qr_scan"}, "fusion_lat": 0.0, "lat": 38.9223035, "is_disabled": 0, "lon": -77.046133, "is_reserved": 0}, {"bike_id": "76156cd0146a78d72a64632616c23bab", "fusion_lon": 0.0, "type": "electric_scooter", "name": "76156cd0146a78d72a64632616c23bab", "rental_uris": {"android": "https://dc.lft.to/lastmile_qr_scan", "ios": "https://dc.lft.to/lastmile_qr_scan"}, "fusion_lat": 0.0, "lat": 38.904127333333335, "is_disabled": 0, "lon": -77.05012366666666, "is_reserved": 0}, {"bike_id": "e3c8dfda992497c923952106ab679769", "fusion_lon": 0.0, "type": "electric_scooter", "name": "e3c8dfda992497c923952106ab679769", "rental_uris": {"android": "https://dc.lft.to/lastmile_qr_scan", "ios": "https://dc.lft.to/lastmile_qr_scan"}, "fusion_lat": 0.0, "lat": 38.924193833333334, "is_disabled": 0, "lon": -77.0202745, "is_reserved": 0}, {"bike_id": "db0996fac5b6bc7ff9bff05206e6776c", "fusion_lon": 0.0, "type": "electric_scooter", "name": "db0996fac5b6bc7ff9bff05206e6776c", "rental_uris": {"android": "https://dc.lft.to/lastmile_qr_scan", "ios": "https://dc.lft.to/lastmile_qr_scan"}, "fusion_lat": 0.0, "lat": 38.88176566666667, "is_disabled": 0, "lon": -77.02806183333334, "is_reserved": 0}, {"bike_id": "0095944edbb8dc4a2253849e2013bf73", "fusion_lon": 0.0, "type": "electric_scooter", "name": "0095944edbb8dc4a2253849e2013bf73", "rental_uris": {"android": "https://dc.lft.to/lastmile_qr_scan", "ios": "https://dc.lft.to/lastmile_qr_scan"}, "fusion_lat": 0.0, "lat": 38.86405966666667, "is_disabled": 0, "lon": -76.99029816666666, "is_reserved": 0}, {"bike_id": "38817b55d687e0b7b2ce2b851822b899", "fusion_lon": 0.0, "type": "electric_scooter", "name": "38817b55d687e0b7b2ce2b851822b899", "rental_uris": {"android": "https://dc.lft.to/lastmile_qr_scan", "ios": "https://dc.lft.to/lastmile_qr_scan"}, "fusion_lat": 0.0, "lat": 38.893634666666664, "is_disabled": 0, "lon": -76.94961633333334, "is_reserved": 0}, {"bike_id": "6afc08e91e17566411d51ed72a6e0f13", "fusion_lon": 0.0, "type": "electric_scooter", "name": "6afc08e91e17566411d51ed72a6e0f13", "rental_uris": {"android": "https://dc.lft.to/lastmile_qr_scan", "ios": "https://dc.lft.to/lastmile_qr_scan"}, "fusion_lat": 0.0, "lat": 38.928483166666666, "is_disabled": 0, "lon": -77.03638866666667, "is_reserved": 0}, {"bike_id": "d6f4f5e849d4db68dae8a2df24f3e215", "fusion_lon": 0.0, "type": "electric_scooter", "name": "d6f4f5e849d4db68dae8a2df24f3e215", "rental_uris": {"android": "https://dc.lft.to/lastmile_qr_scan", "ios": "https://dc.lft.to/lastmile_qr_scan"}, "fusion_lat": 0.0, "lat": 38.934260333333334, "is_disabled": 0, "lon": -77.05847783333333, "is_reserved": 0}, {"bike_id": "0515ffb081fe61f4c4355de8fce9b89a", "fusion_lon": 0.0, "type": "electric_scooter", "name": "0515ffb081fe61f4c4355de8fce9b89a", "rental_uris": {"android": "https://dc.lft.to/lastmile_qr_scan", "ios": "https://dc.lft.to/lastmile_qr_scan"}, "fusion_lat": 0.0, "lat": 38.91265966666667, "is_disabled": 0, "lon": -77.03110883333333, "is_reserved": 0}, {"bike_id": "d221835d2f3f2322d3260cac6f49dca9", "fusion_lon": 0.0, "type": "electric_scooter", "name": "d221835d2f3f2322d3260cac6f49dca9", "rental_uris": {"android": "https://dc.lft.to/lastmile_qr_scan", "ios": "https://dc.lft.to/lastmile_qr_scan"}, "fusion_lat": 0.0, "lat": 38.8837835, "is_disabled": 0, "lon": -77.03045216666666, "is_reserved": 0}, {"bike_id": "878af78ab9c8e9b115d8760b565822f6", "fusion_lon": 0.0, "type": "electric_scooter", "name": "878af78ab9c8e9b115d8760b565822f6", "rental_uris": {"android": "https://dc.lft.to/lastmile_qr_scan", "ios": "https://dc.lft.to/lastmile_qr_scan"}, "fusion_lat": 0.0, "lat": 38.903746166666664, "is_disabled": 0, "lon": -77.067562, "is_reserved": 0}, {"bike_id": "fff60ae5372837dbf9680091f68905cf", "fusion_lon": 0.0, "type": "electric_scooter", "name": "fff60ae5372837dbf9680091f68905cf", "rental_uris": {"android": "https://dc.lft.to/lastmile_qr_scan", "ios": "https://dc.lft.to/lastmile_qr_scan"}, "fusion_lat": 0.0, "lat": 38.9282165, "is_disabled": 0, "lon": -77.01425616666667, "is_reserved": 0}, {"bike_id": "882def3629f2611a5252d72ebe4bc28d", "fusion_lon": 0.0, "type": "electric_scooter", "name": "882def3629f2611a5252d72ebe4bc28d", "rental_uris": {"android": "https://dc.lft.to/lastmile_qr_scan", "ios": "https://dc.lft.to/lastmile_qr_scan"}, "fusion_lat": 0.0, "lat": 38.94361416666667, "is_disabled": 0, "lon": -77.06111933333334, "is_reserved": 0}, {"bike_id": "674576e6f56da688932e0578f166dbbc", "fusion_lon": 0.0, "type": "electric_bike", "name": "674576e6f56da688932e0578f166dbbc", "rental_uris": {"android": "https://dc.lft.to/lastmile_qr_scan", "ios": "https://dc.lft.to/lastmile_qr_scan"}, "fusion_lat": 0.0, "lat": 39.024139166666664, "is_disabled": 0, "lon": -77.12496283333333, "is_reserved": 0}, {"bike_id": "10c7ff2a32f7d9d2f86d9aaf6086a81c", "fusion_lon": 0.0, "type": "electric_scooter", "name": "10c7ff2a32f7d9d2f86d9aaf6086a81c", "rental_uris": {"android": "https://dc.lft.to/lastmile_qr_scan", "ios": "https://dc.lft.to/lastmile_qr_scan"}, "fusion_lat": 0.0, "lat": 38.922227666666664, "is_disabled": 0, "lon": -77.04335816666666, "is_reserved": 0}, {"bike_id": "632b808ce4357390a610a57688b38ac7", "fusion_lon": 0.0, "type": "electric_scooter", "name": "632b808ce4357390a610a57688b38ac7", "rental_uris": {"android": "https://dc.lft.to/lastmile_qr_scan", "ios": "https://dc.lft.to/lastmile_qr_scan"}, "fusion_lat": 0.0, "lat": 38.96202566666667, "is_disabled": 0, "lon": -77.02344383333333, "is_reserved": 0}, {"bike_id": "3ae21c0486f7f80c76db5f5cb47b805c", "fusion_lon": 0.0, "type": "electric_scooter", "name": "3ae21c0486f7f80c76db5f5cb47b805c", "rental_uris": {"android": "https://dc.lft.to/lastmile_qr_scan", "ios": "https://dc.lft.to/lastmile_qr_scan"}, "fusion_lat": 0.0, "lat": 38.9039855, "is_disabled": 0, "lon": -77.0435255, "is_reserved": 0}, {"bike_id": "78c8fa7606c4d1718b9971319d2b0052", "fusion_lon": 0.0, "type": "electric_scooter", "name": "78c8fa7606c4d1718b9971319d2b0052", "rental_uris": {"android": "https://dc.lft.to/lastmile_qr_scan", "ios": "https://dc.lft.to/lastmile_qr_scan"}, "fusion_lat": 0.0, "lat": 38.904470833333335, "is_disabled": 0, "lon": -77.019993, "is_reserved": 0}, {"bike_id": "bbe8ccdc411fcd187102b0c793101695", "fusion_lon": 0.0, "type": "electric_scooter", "name": "bbe8ccdc411fcd187102b0c793101695", "rental_uris": {"android": "https://dc.lft.to/lastmile_qr_scan", "ios": "https://dc.lft.to/lastmile_qr_scan"}, "fusion_lat": 0.0, "lat": 38.862319166666666, "is_disabled": 0, "lon": -76.99482383333333, "is_reserved": 0}, {"bike_id": "dad3ee7346dbf9b48c008179d0aff532", "fusion_lon": 0.0, "type": "electric_scooter", "name": "dad3ee7346dbf9b48c008179d0aff532", "rental_uris": {"android": "https://dc.lft.to/lastmile_qr_scan", "ios": "https://dc.lft.to/lastmile_qr_scan"}, "fusion_lat": 0.0, "lat": 38.91557133333333, "is_disabled": 0, "lon": -77.00587866666666, "is_reserved": 0}, {"bike_id": "b0334a317a507d8a4e5753e9422073a6", "fusion_lon": 0.0, "type": "electric_scooter", "name": "b0334a317a507d8a4e5753e9422073a6", "rental_uris": {"android": "https://dc.lft.to/lastmile_qr_scan", "ios": "https://dc.lft.to/lastmile_qr_scan"}, "fusion_lat": 0.0, "lat": 38.93101716666666, "is_disabled": 0, "lon": -77.02413833333334, "is_reserved": 0}, {"bike_id": "352464370fa76698cf1e5662355547c0", "fusion_lon": 0.0, "type": "electric_scooter", "name": "352464370fa76698cf1e5662355547c0", "rental_uris": {"android": "https://dc.lft.to/lastmile_qr_scan", "ios": "https://dc.lft.to/lastmile_qr_scan"}, "fusion_lat": 0.0, "lat": 38.919701, "is_disabled": 0, "lon": -77.0713325, "is_reserved": 0}, {"bike_id": "dac7ac08891eb5824147d7fe64d003b5", "fusion_lon": 0.0, "type": "electric_bike", "name": "dac7ac08891eb5824147d7fe64d003b5", "rental_uris": {"android": "https://dc.lft.to/lastmile_qr_scan", "ios": "https://dc.lft.to/lastmile_qr_scan"}, "fusion_lat": 0.0, "lat": 38.92976083333333, "is_disabled": 0, "lon": -77.22753983333334, "is_reserved": 0}, {"bike_id": "a5f203d7cce69647df75348d41edfc43", "fusion_lon": 0.0, "type": "electric_scooter", "name": "a5f203d7cce69647df75348d41edfc43", "rental_uris": {"android": "https://dc.lft.to/lastmile_qr_scan", "ios": "https://dc.lft.to/lastmile_qr_scan"}, "fusion_lat": 0.0, "lat": 38.93284383333334, "is_disabled": 0, "lon": -77.03629216666667, "is_reserved": 0}, {"bike_id": "7fa5242c43dcf0ee1c75d8385f53f905", "fusion_lon": 0.0, "type": "electric_scooter", "name": "7fa5242c43dcf0ee1c75d8385f53f905", "rental_uris": {"android": "https://dc.lft.to/lastmile_qr_scan", "ios": "https://dc.lft.to/lastmile_qr_scan"}, "fusion_lat": 0.0, "lat": 38.93853716666667, "is_disabled": 0, "lon": -77.02648116666667, "is_reserved": 0}, {"bike_id": "88e94e0651bf4a5de20d5baf3b87461b", "fusion_lon": 0.0, "type": "electric_scooter", "name": "88e94e0651bf4a5de20d5baf3b87461b", "rental_uris": {"android": "https://dc.lft.to/lastmile_qr_scan", "ios": "https://dc.lft.to/lastmile_qr_scan"}, "fusion_lat": 0.0, "lat": 38.909267, "is_disabled": 0, "lon": -77.03854533333333, "is_reserved": 0}, {"bike_id": "35580a5dfe3220ff54b4d390bb69b9d2", "fusion_lon": 0.0, "type": "electric_scooter", "name": "35580a5dfe3220ff54b4d390bb69b9d2", "rental_uris": {"android": "https://dc.lft.to/lastmile_qr_scan", "ios": "https://dc.lft.to/lastmile_qr_scan"}, "fusion_lat": 0.0, "lat": 38.898656, "is_disabled": 0, "lon": -77.021826, "is_reserved": 0}, {"bike_id": "3b9dadff69d2e1c2c3415202913a839b", "fusion_lon": 0.0, "type": "electric_scooter", "name": "3b9dadff69d2e1c2c3415202913a839b", "rental_uris": {"android": "https://dc.lft.to/lastmile_qr_scan", "ios": "https://dc.lft.to/lastmile_qr_scan"}, "fusion_lat": 0.0, "lat": 38.92459433333333, "is_disabled": 0, "lon": -77.02154366666667, "is_reserved": 0}, {"bike_id": "d8da8b6a6a6ba3a90f7e36769f26c751", "fusion_lon": 0.0, "type": "electric_scooter", "name": "d8da8b6a6a6ba3a90f7e36769f26c751", "rental_uris": {"android": "https://dc.lft.to/lastmile_qr_scan", "ios": "https://dc.lft.to/lastmile_qr_scan"}, "fusion_lat": 0.0, "lat": 38.925578, "is_disabled": 0, "lon": -77.043655, "is_reserved": 0}, {"bike_id": "d88ea6d37bc618f9e88089972f18a681", "fusion_lon": 0.0, "type": "electric_scooter", "name": "d88ea6d37bc618f9e88089972f18a681", "rental_uris": {"android": "https://dc.lft.to/lastmile_qr_scan", "ios": "https://dc.lft.to/lastmile_qr_scan"}, "fusion_lat": 0.0, "lat": 38.92076083333333, "is_disabled": 0, "lon": -77.038099, "is_reserved": 0}, {"bike_id": "c5eeba0c674905aa08b0d8a702be2ea7", "fusion_lon": 0.0, "type": "electric_scooter", "name": "c5eeba0c674905aa08b0d8a702be2ea7", "rental_uris": {"android": "https://dc.lft.to/lastmile_qr_scan", "ios": "https://dc.lft.to/lastmile_qr_scan"}, "fusion_lat": 0.0, "lat": 38.91212816666667, "is_disabled": 0, "lon": -77.03799283333333, "is_reserved": 0}, {"bike_id": "56e8b4a6277fddd4fc9920e5a8b4908a", "fusion_lon": 0.0, "type": "electric_scooter", "name": "56e8b4a6277fddd4fc9920e5a8b4908a", "rental_uris": {"android": "https://dc.lft.to/lastmile_qr_scan", "ios": "https://dc.lft.to/lastmile_qr_scan"}, "fusion_lat": 0.0, "lat": 38.911829, "is_disabled": 0, "lon": -77.00546966666667, "is_reserved": 0}, {"bike_id": "298105807aa2f18f65e4a5deedf77fcd", "fusion_lon": 0.0, "type": "electric_scooter", "name": "298105807aa2f18f65e4a5deedf77fcd", "rental_uris": {"android": "https://dc.lft.to/lastmile_qr_scan", "ios": "https://dc.lft.to/lastmile_qr_scan"}, "fusion_lat": 0.0, "lat": 38.93564883333333, "is_disabled": 0, "lon": -77.02141766666666, "is_reserved": 0}, {"bike_id": "34ac0e8542d1e0f69329cecfc1955c6b", "fusion_lon": 0.0, "type": "electric_scooter", "name": "34ac0e8542d1e0f69329cecfc1955c6b", "rental_uris": {"android": "https://dc.lft.to/lastmile_qr_scan", "ios": "https://dc.lft.to/lastmile_qr_scan"}, "fusion_lat": 0.0, "lat": 38.84288633333333, "is_disabled": 0, "lon": -76.99947466666667, "is_reserved": 0}, {"bike_id": "8540fa8d0011c6aa2a33c868c10a77a1", "fusion_lon": 0.0, "type": "electric_scooter", "name": "8540fa8d0011c6aa2a33c868c10a77a1", "rental_uris": {"android": "https://dc.lft.to/lastmile_qr_scan", "ios": "https://dc.lft.to/lastmile_qr_scan"}, "fusion_lat": 0.0, "lat": 38.93076633333333, "is_disabled": 0, "lon": -77.03281083333333, "is_reserved": 0}, {"bike_id": "abe0d9f36578c39ddc7c85d82ee62385", "fusion_lon": 0.0, "type": "electric_scooter", "name": "abe0d9f36578c39ddc7c85d82ee62385", "rental_uris": {"android": "https://dc.lft.to/lastmile_qr_scan", "ios": "https://dc.lft.to/lastmile_qr_scan"}, "fusion_lat": 0.0, "lat": 38.90088266666667, "is_disabled": 0, "lon": -77.04782966666667, "is_reserved": 0}, {"bike_id": "306de14b0636aaad9e4841d5fa1261f4", "fusion_lon": 0.0, "type": "electric_scooter", "name": "306de14b0636aaad9e4841d5fa1261f4", "rental_uris": {"android": "https://dc.lft.to/lastmile_qr_scan", "ios": "https://dc.lft.to/lastmile_qr_scan"}, "fusion_lat": 0.0, "lat": 38.94925833333333, "is_disabled": 0, "lon": -77.01931783333333, "is_reserved": 0}, {"bike_id": "bfd5d2ef081958e0e1543a3d612d4f6a", "fusion_lon": 0.0, "type": "electric_scooter", "name": "bfd5d2ef081958e0e1543a3d612d4f6a", "rental_uris": {"android": "https://dc.lft.to/lastmile_qr_scan", "ios": "https://dc.lft.to/lastmile_qr_scan"}, "fusion_lat": 0.0, "lat": 38.8719355, "is_disabled": 0, "lon": -77.0125245, "is_reserved": 0}, {"bike_id": "c3137a409eb4d9732f7198b4aeecbd57", "fusion_lon": 0.0, "type": "electric_scooter", "name": "c3137a409eb4d9732f7198b4aeecbd57", "rental_uris": {"android": "https://dc.lft.to/lastmile_qr_scan", "ios": "https://dc.lft.to/lastmile_qr_scan"}, "fusion_lat": 0.0, "lat": 38.898546, "is_disabled": 0, "lon": -77.03311766666667, "is_reserved": 0}, {"bike_id": "9a9e38d89f29110106c4baeca1ba9937", "fusion_lon": 0.0, "type": "electric_scooter", "name": "9a9e38d89f29110106c4baeca1ba9937", "rental_uris": {"android": "https://dc.lft.to/lastmile_qr_scan", "ios": "https://dc.lft.to/lastmile_qr_scan"}, "fusion_lat": 0.0, "lat": 38.929095833333335, "is_disabled": 0, "lon": -77.02089033333333, "is_reserved": 0}, {"bike_id": "41087c3528025e36954d29a0a1177763", "fusion_lon": 0.0, "type": "electric_scooter", "name": "41087c3528025e36954d29a0a1177763", "rental_uris": {"android": "https://dc.lft.to/lastmile_qr_scan", "ios": "https://dc.lft.to/lastmile_qr_scan"}, "fusion_lat": 0.0, "lat": 38.90791433333333, "is_disabled": 0, "lon": -77.045036, "is_reserved": 0}, {"bike_id": "7b04c6435e3153273ec5dba2f0dcb14d", "fusion_lon": 0.0, "type": "electric_scooter", "name": "7b04c6435e3153273ec5dba2f0dcb14d", "rental_uris": {"android": "https://dc.lft.to/lastmile_qr_scan", "ios": "https://dc.lft.to/lastmile_qr_scan"}, "fusion_lat": 0.0, "lat": 38.908415, "is_disabled": 0, "lon": -77.026925, "is_reserved": 0}, {"bike_id": "815aafc8256dfa409e1fbd6e7a61b251", "fusion_lon": 0.0, "type": "electric_bike", "name": "815aafc8256dfa409e1fbd6e7a61b251", "rental_uris": {"android": "https://dc.lft.to/lastmile_qr_scan", "ios": "https://dc.lft.to/lastmile_qr_scan"}, "fusion_lat": 0.0, "lat": 38.91133683333334, "is_disabled": 0, "lon": -77.06576733333333, "is_reserved": 0}, {"bike_id": "8c890e0ab6c498d918820df549a010e8", "fusion_lon": 0.0, "type": "electric_scooter", "name": "8c890e0ab6c498d918820df549a010e8", "rental_uris": {"android": "https://dc.lft.to/lastmile_qr_scan", "ios": "https://dc.lft.to/lastmile_qr_scan"}, "fusion_lat": 0.0, "lat": 38.8771415, "is_disabled": 0, "lon": -77.01859516666667, "is_reserved": 0}, {"bike_id": "a15e3bb407484a10db4e7c299e88bfaa", "fusion_lon": 0.0, "type": "electric_scooter", "name": "a15e3bb407484a10db4e7c299e88bfaa", "rental_uris": {"android": "https://dc.lft.to/lastmile_qr_scan", "ios": "https://dc.lft.to/lastmile_qr_scan"}, "fusion_lat": 0.0, "lat": 38.90728, "is_disabled": 0, "lon": -77.00764233333334, "is_reserved": 0}, {"bike_id": "843d2ba7b5ac72d26a41eeae615b17ed", "fusion_lon": 0.0, "type": "electric_scooter", "name": "843d2ba7b5ac72d26a41eeae615b17ed", "rental_uris": {"android": "https://dc.lft.to/lastmile_qr_scan", "ios": "https://dc.lft.to/lastmile_qr_scan"}, "fusion_lat": 0.0, "lat": 38.897346666666664, "is_disabled": 0, "lon": -77.01305616666667, "is_reserved": 0}, {"bike_id": "f6223f52133dd70c10c7a72563e4ceff", "fusion_lon": 0.0, "type": "electric_scooter", "name": "f6223f52133dd70c10c7a72563e4ceff", "rental_uris": {"android": "https://dc.lft.to/lastmile_qr_scan", "ios": "https://dc.lft.to/lastmile_qr_scan"}, "fusion_lat": 0.0, "lat": 38.926103499999996, "is_disabled": 0, "lon": -77.02158433333334, "is_reserved": 0}, {"bike_id": "ad4a98fb37259cb9a45aa4e90eda19ac", "fusion_lon": 0.0, "type": "electric_scooter", "name": "ad4a98fb37259cb9a45aa4e90eda19ac", "rental_uris": {"android": "https://dc.lft.to/lastmile_qr_scan", "ios": "https://dc.lft.to/lastmile_qr_scan"}, "fusion_lat": 0.0, "lat": 38.9184375, "is_disabled": 0, "lon": -76.965618, "is_reserved": 0}, {"bike_id": "f4bdd9af8934afb5545fbc1a9ddf3e32", "fusion_lon": 0.0, "type": "electric_scooter", "name": "f4bdd9af8934afb5545fbc1a9ddf3e32", "rental_uris": {"android": "https://dc.lft.to/lastmile_qr_scan", "ios": "https://dc.lft.to/lastmile_qr_scan"}, "fusion_lat": 0.0, "lat": 38.95831733333333, "is_disabled": 0, "lon": -77.07155483333334, "is_reserved": 0}, {"bike_id": "0338c466f53b90197511b65026be7aee", "fusion_lon": 0.0, "type": "electric_scooter", "name": "0338c466f53b90197511b65026be7aee", "rental_uris": {"android": "https://dc.lft.to/lastmile_qr_scan", "ios": "https://dc.lft.to/lastmile_qr_scan"}, "fusion_lat": 0.0, "lat": 38.91677, "is_disabled": 0, "lon": -77.03217566666666, "is_reserved": 0}, {"bike_id": "da45173c2a561dc2353f557941c2eff8", "fusion_lon": 0.0, "type": "electric_bike", "name": "da45173c2a561dc2353f557941c2eff8", "rental_uris": {"android": "https://dc.lft.to/lastmile_qr_scan", "ios": "https://dc.lft.to/lastmile_qr_scan"}, "fusion_lat": 0.0, "lat": 39.02423683333333, "is_disabled": 0, "lon": -77.12497233333333, "is_reserved": 0}, {"bike_id": "914fd3ea7ab83114dc3fa6675c9c6095", "fusion_lon": 0.0, "type": "electric_scooter", "name": "914fd3ea7ab83114dc3fa6675c9c6095", "rental_uris": {"android": "https://dc.lft.to/lastmile_qr_scan", "ios": "https://dc.lft.to/lastmile_qr_scan"}, "fusion_lat": 0.0, "lat": 38.867007, "is_disabled": 0, "lon": -76.9870635, "is_reserved": 0}, {"bike_id": "b8d2bc6a32e5b3f3eae178afb4bc1337", "fusion_lon": 0.0, "type": "electric_scooter", "name": "b8d2bc6a32e5b3f3eae178afb4bc1337", "rental_uris": {"android": "https://dc.lft.to/lastmile_qr_scan", "ios": "https://dc.lft.to/lastmile_qr_scan"}, "fusion_lat": 0.0, "lat": 38.90515366666666, "is_disabled": 0, "lon": -77.00163183333333, "is_reserved": 0}, {"bike_id": "8687078279930bbf6851fdcdfbad9c43", "fusion_lon": 0.0, "type": "electric_scooter", "name": "8687078279930bbf6851fdcdfbad9c43", "rental_uris": {"android": "https://dc.lft.to/lastmile_qr_scan", "ios": "https://dc.lft.to/lastmile_qr_scan"}, "fusion_lat": 0.0, "lat": 38.88021583333333, "is_disabled": 0, "lon": -77.02169666666667, "is_reserved": 0}, {"bike_id": "57f51334e79bfe140b48244d193dc5c7", "fusion_lon": 0.0, "type": "electric_scooter", "name": "57f51334e79bfe140b48244d193dc5c7", "rental_uris": {"android": "https://dc.lft.to/lastmile_qr_scan", "ios": "https://dc.lft.to/lastmile_qr_scan"}, "fusion_lat": 0.0, "lat": 38.93204633333333, "is_disabled": 0, "lon": -77.03267966666667, "is_reserved": 0}, {"bike_id": "c684add7c53db13aa96384ad1ed527e8", "fusion_lon": 0.0, "type": "electric_scooter", "name": "c684add7c53db13aa96384ad1ed527e8", "rental_uris": {"android": "https://dc.lft.to/lastmile_qr_scan", "ios": "https://dc.lft.to/lastmile_qr_scan"}, "fusion_lat": 0.0, "lat": 38.902803, "is_disabled": 0, "lon": -77.01820133333334, "is_reserved": 0}, {"bike_id": "997317d98c1627600082966b15162ed3", "fusion_lon": 0.0, "type": "electric_bike", "name": "997317d98c1627600082966b15162ed3", "rental_uris": {"android": "https://dc.lft.to/lastmile_qr_scan", "ios": "https://dc.lft.to/lastmile_qr_scan"}, "fusion_lat": 0.0, "lat": 38.85553, "is_disabled": 0, "lon": -77.10718583333333, "is_reserved": 0}, {"bike_id": "bad6be9cf521002b8ef16e7ae61732c0", "fusion_lon": 0.0, "type": "electric_scooter", "name": "bad6be9cf521002b8ef16e7ae61732c0", "rental_uris": {"android": "https://dc.lft.to/lastmile_qr_scan", "ios": "https://dc.lft.to/lastmile_qr_scan"}, "fusion_lat": 0.0, "lat": 38.8969245, "is_disabled": 0, "lon": -77.021301, "is_reserved": 0}, {"bike_id": "946b2fcb071d5969d526c8b16ac88384", "fusion_lon": 0.0, "type": "electric_bike", "name": "946b2fcb071d5969d526c8b16ac88384", "rental_uris": {"android": "https://dc.lft.to/lastmile_qr_scan", "ios": "https://dc.lft.to/lastmile_qr_scan"}, "fusion_lat": 0.0, "lat": 38.841277166666664, "is_disabled": 0, "lon": -77.06312416666667, "is_reserved": 0}, {"bike_id": "b3a97a662eb90968e59c1e78cd826e99", "fusion_lon": 0.0, "type": "electric_scooter", "name": "b3a97a662eb90968e59c1e78cd826e99", "rental_uris": {"android": "https://dc.lft.to/lastmile_qr_scan", "ios": "https://dc.lft.to/lastmile_qr_scan"}, "fusion_lat": 0.0, "lat": 38.883295333333336, "is_disabled": 0, "lon": -77.00509583333333, "is_reserved": 0}, {"bike_id": "e567a053f879b9825378175159de6269", "fusion_lon": 0.0, "type": "electric_scooter", "name": "e567a053f879b9825378175159de6269", "rental_uris": {"android": "https://dc.lft.to/lastmile_qr_scan", "ios": "https://dc.lft.to/lastmile_qr_scan"}, "fusion_lat": 0.0, "lat": 38.91434916666667, "is_disabled": 0, "lon": -77.01593166666666, "is_reserved": 0}, {"bike_id": "97b65cbdffac55923cddb93572764a05", "fusion_lon": 0.0, "type": "electric_scooter", "name": "97b65cbdffac55923cddb93572764a05", "rental_uris": {"android": "https://dc.lft.to/lastmile_qr_scan", "ios": "https://dc.lft.to/lastmile_qr_scan"}, "fusion_lat": 0.0, "lat": 38.906472666666666, "is_disabled": 0, "lon": -77.05312816666667, "is_reserved": 0}, {"bike_id": "86ca712135c4f553d1c1e5bdedf52851", "fusion_lon": 0.0, "type": "electric_scooter", "name": "86ca712135c4f553d1c1e5bdedf52851", "rental_uris": {"android": "https://dc.lft.to/lastmile_qr_scan", "ios": "https://dc.lft.to/lastmile_qr_scan"}, "fusion_lat": 0.0, "lat": 38.89217416666666, "is_disabled": 0, "lon": -77.02960233333333, "is_reserved": 0}, {"bike_id": "847e513d7e103c382892c5620ed214d6", "fusion_lon": 0.0, "type": "electric_scooter", "name": "847e513d7e103c382892c5620ed214d6", "rental_uris": {"android": "https://dc.lft.to/lastmile_qr_scan", "ios": "https://dc.lft.to/lastmile_qr_scan"}, "fusion_lat": 0.0, "lat": 38.916363833333335, "is_disabled": 0, "lon": -77.02279816666666, "is_reserved": 0}, {"bike_id": "d8bf65fa1ff0940964957a2c5479cea1", "fusion_lon": 0.0, "type": "electric_bike", "name": "d8bf65fa1ff0940964957a2c5479cea1", "rental_uris": {"android": "https://dc.lft.to/lastmile_qr_scan", "ios": "https://dc.lft.to/lastmile_qr_scan"}, "fusion_lat": 0.0, "lat": 38.9511965, "is_disabled": 0, "lon": -76.965464, "is_reserved": 0}, {"bike_id": "2dd2c01e196ff82074e512adc97df3cb", "fusion_lon": 0.0, "type": "electric_scooter", "name": "2dd2c01e196ff82074e512adc97df3cb", "rental_uris": {"android": "https://dc.lft.to/lastmile_qr_scan", "ios": "https://dc.lft.to/lastmile_qr_scan"}, "fusion_lat": 0.0, "lat": 38.91034583333333, "is_disabled": 0, "lon": -77.03135283333333, "is_reserved": 0}, {"bike_id": "5ea9d6cbdae4eda789a6968b96013fc3", "fusion_lon": 0.0, "type": "electric_scooter", "name": "5ea9d6cbdae4eda789a6968b96013fc3", "rental_uris": {"android": "https://dc.lft.to/lastmile_qr_scan", "ios": "https://dc.lft.to/lastmile_qr_scan"}, "fusion_lat": 0.0, "lat": 38.84420766666667, "is_disabled": 0, "lon": -76.99823983333333, "is_reserved": 0}, {"bike_id": "3d971ee0372ecaf5bea5a2878227c85f", "fusion_lon": 0.0, "type": "electric_bike", "name": "3d971ee0372ecaf5bea5a2878227c85f", "rental_uris": {"android": "https://dc.lft.to/lastmile_qr_scan", "ios": "https://dc.lft.to/lastmile_qr_scan"}, "fusion_lat": 0.0, "lat": 39.05809466666667, "is_disabled": 0, "lon": -77.1262615, "is_reserved": 0}, {"bike_id": "31cf1e2766d24dabf108ab55a4b69d6f", "fusion_lon": 0.0, "type": "electric_bike", "name": "31cf1e2766d24dabf108ab55a4b69d6f", "rental_uris": {"android": "https://dc.lft.to/lastmile_qr_scan", "ios": "https://dc.lft.to/lastmile_qr_scan"}, "fusion_lat": 0.0, "lat": 38.8578985, "is_disabled": 0, "lon": -76.98740883333333, "is_reserved": 0}, {"bike_id": "f1bb5ed54ee696a17b3c264bc6a7ce51", "fusion_lon": 0.0, "type": "electric_scooter", "name": "f1bb5ed54ee696a17b3c264bc6a7ce51", "rental_uris": {"android": "https://dc.lft.to/lastmile_qr_scan", "ios": "https://dc.lft.to/lastmile_qr_scan"}, "fusion_lat": 0.0, "lat": 38.9311625, "is_disabled": 0, "lon": -77.03804216666667, "is_reserved": 0}, {"bike_id": "55ef4d4e8b82e35f73cf9df851ad120b", "fusion_lon": 0.0, "type": "electric_scooter", "name": "55ef4d4e8b82e35f73cf9df851ad120b", "rental_uris": {"android": "https://dc.lft.to/lastmile_qr_scan", "ios": "https://dc.lft.to/lastmile_qr_scan"}, "fusion_lat": 0.0, "lat": 38.97366366666667, "is_disabled": 0, "lon": -77.01859516666667, "is_reserved": 0}, {"bike_id": "9c370c484603608e1c72700cad6bc9c4", "fusion_lon": 0.0, "type": "electric_bike", "name": "9c370c484603608e1c72700cad6bc9c4", "rental_uris": {"android": "https://dc.lft.to/lastmile_qr_scan", "ios": "https://dc.lft.to/lastmile_qr_scan"}, "fusion_lat": 0.0, "lat": 38.92207666666667, "is_disabled": 0, "lon": -76.987933, "is_reserved": 0}, {"bike_id": "59c8037861a446130c5e66900a6c2c93", "fusion_lon": 0.0, "type": "electric_scooter", "name": "59c8037861a446130c5e66900a6c2c93", "rental_uris": {"android": "https://dc.lft.to/lastmile_qr_scan", "ios": "https://dc.lft.to/lastmile_qr_scan"}, "fusion_lat": 0.0, "lat": 38.955905333333334, "is_disabled": 0, "lon": -77.03649966666667, "is_reserved": 0}, {"bike_id": "087b3f14872fbb109845221d37632aa8", "fusion_lon": 0.0, "type": "electric_scooter", "name": "087b3f14872fbb109845221d37632aa8", "rental_uris": {"android": "https://dc.lft.to/lastmile_qr_scan", "ios": "https://dc.lft.to/lastmile_qr_scan"}, "fusion_lat": 0.0, "lat": 38.903734166666666, "is_disabled": 0, "lon": -77.04029316666667, "is_reserved": 0}, {"bike_id": "3d516da4924e0ba54e7e0a73f25938ac", "fusion_lon": 0.0, "type": "electric_scooter", "name": "3d516da4924e0ba54e7e0a73f25938ac", "rental_uris": {"android": "https://dc.lft.to/lastmile_qr_scan", "ios": "https://dc.lft.to/lastmile_qr_scan"}, "fusion_lat": 0.0, "lat": 38.914409, "is_disabled": 0, "lon": -77.04161333333333, "is_reserved": 0}, {"bike_id": "5d72d4561dda89e5c567de48af4bb9ac", "fusion_lon": 0.0, "type": "electric_bike", "name": "5d72d4561dda89e5c567de48af4bb9ac", "rental_uris": {"android": "https://dc.lft.to/lastmile_qr_scan", "ios": "https://dc.lft.to/lastmile_qr_scan"}, "fusion_lat": 0.0, "lat": 38.8774705, "is_disabled": 0, "lon": -76.97981383333334, "is_reserved": 0}, {"bike_id": "3b96571d1c89a60af2c3d33652c34b75", "fusion_lon": 0.0, "type": "electric_scooter", "name": "3b96571d1c89a60af2c3d33652c34b75", "rental_uris": {"android": "https://dc.lft.to/lastmile_qr_scan", "ios": "https://dc.lft.to/lastmile_qr_scan"}, "fusion_lat": 0.0, "lat": 38.90796366666667, "is_disabled": 0, "lon": -77.03210216666666, "is_reserved": 0}, {"bike_id": "3ef9ddfc7b0b2d490b3f1d8b05b7257d", "fusion_lon": 0.0, "type": "electric_scooter", "name": "3ef9ddfc7b0b2d490b3f1d8b05b7257d", "rental_uris": {"android": "https://dc.lft.to/lastmile_qr_scan", "ios": "https://dc.lft.to/lastmile_qr_scan"}, "fusion_lat": 0.0, "lat": 38.93427716666667, "is_disabled": 0, "lon": -77.03436666666667, "is_reserved": 0}, {"bike_id": "2f3b5a7c08c97ab47cf9dfa5b0770422", "fusion_lon": 0.0, "type": "electric_bike", "name": "2f3b5a7c08c97ab47cf9dfa5b0770422", "rental_uris": {"android": "https://dc.lft.to/lastmile_qr_scan", "ios": "https://dc.lft.to/lastmile_qr_scan"}, "fusion_lat": 0.0, "lat": 38.93954383333333, "is_disabled": 0, "lon": -77.360931, "is_reserved": 0}, {"bike_id": "9c13551ff057d6a2bc7293c11214dfb5", "fusion_lon": 0.0, "type": "electric_scooter", "name": "9c13551ff057d6a2bc7293c11214dfb5", "rental_uris": {"android": "https://dc.lft.to/lastmile_qr_scan", "ios": "https://dc.lft.to/lastmile_qr_scan"}, "fusion_lat": 0.0, "lat": 38.92791883333334, "is_disabled": 0, "lon": -77.0337025, "is_reserved": 0}, {"bike_id": "787d12d0c502374b23899a1f9690e7d8", "fusion_lon": 0.0, "type": "electric_scooter", "name": "787d12d0c502374b23899a1f9690e7d8", "rental_uris": {"android": "https://dc.lft.to/lastmile_qr_scan", "ios": "https://dc.lft.to/lastmile_qr_scan"}, "fusion_lat": 0.0, "lat": 38.907234333333335, "is_disabled": 0, "lon": -77.00503683333334, "is_reserved": 0}, {"bike_id": "dc4ea58fb2bb0dcd39ad294bf6d2e382", "fusion_lon": 0.0, "type": "electric_scooter", "name": "dc4ea58fb2bb0dcd39ad294bf6d2e382", "rental_uris": {"android": "https://dc.lft.to/lastmile_qr_scan", "ios": "https://dc.lft.to/lastmile_qr_scan"}, "fusion_lat": 0.0, "lat": 38.905018166666665, "is_disabled": 0, "lon": -76.9774075, "is_reserved": 0}, {"bike_id": "27e61cbd1ed6edfff63bbe1817d623b3", "fusion_lon": 0.0, "type": "electric_scooter", "name": "27e61cbd1ed6edfff63bbe1817d623b3", "rental_uris": {"android": "https://dc.lft.to/lastmile_qr_scan", "ios": "https://dc.lft.to/lastmile_qr_scan"}, "fusion_lat": 0.0, "lat": 38.93477716666666, "is_disabled": 0, "lon": -77.03578783333333, "is_reserved": 0}, {"bike_id": "1868c2055b0e662a5114bc6858f0c41b", "fusion_lon": 0.0, "type": "electric_scooter", "name": "1868c2055b0e662a5114bc6858f0c41b", "rental_uris": {"android": "https://dc.lft.to/lastmile_qr_scan", "ios": "https://dc.lft.to/lastmile_qr_scan"}, "fusion_lat": 0.0, "lat": 38.92209483333333, "is_disabled": 0, "lon": -77.032931, "is_reserved": 0}, {"bike_id": "4ab0fff4d9d5422601c7fa1d98afbd4e", "fusion_lon": 0.0, "type": "electric_scooter", "name": "4ab0fff4d9d5422601c7fa1d98afbd4e", "rental_uris": {"android": "https://dc.lft.to/lastmile_qr_scan", "ios": "https://dc.lft.to/lastmile_qr_scan"}, "fusion_lat": 0.0, "lat": 38.940945166666666, "is_disabled": 0, "lon": -77.02540383333333, "is_reserved": 0}, {"bike_id": "cbd93b9335cefffb3969ae806fe89d84", "fusion_lon": 0.0, "type": "electric_scooter", "name": "cbd93b9335cefffb3969ae806fe89d84", "rental_uris": {"android": "https://dc.lft.to/lastmile_qr_scan", "ios": "https://dc.lft.to/lastmile_qr_scan"}, "fusion_lat": 0.0, "lat": 38.9173475, "is_disabled": 0, "lon": -77.0211635, "is_reserved": 0}, {"bike_id": "6175f5d165ef99806f8157a3edab8a90", "fusion_lon": 0.0, "type": "electric_scooter", "name": "6175f5d165ef99806f8157a3edab8a90", "rental_uris": {"android": "https://dc.lft.to/lastmile_qr_scan", "ios": "https://dc.lft.to/lastmile_qr_scan"}, "fusion_lat": 0.0, "lat": 38.909597166666664, "is_disabled": 0, "lon": -77.02280583333334, "is_reserved": 0}, {"bike_id": "7b9ff212d0bab117f4a37c1561fbc94a", "fusion_lon": 0.0, "type": "electric_scooter", "name": "7b9ff212d0bab117f4a37c1561fbc94a", "rental_uris": {"android": "https://dc.lft.to/lastmile_qr_scan", "ios": "https://dc.lft.to/lastmile_qr_scan"}, "fusion_lat": 0.0, "lat": 38.9054025, "is_disabled": 0, "lon": -77.03789966666666, "is_reserved": 0}, {"bike_id": "24eaf44e64658d011b69538a5ea2cc96", "fusion_lon": 0.0, "type": "electric_bike", "name": "24eaf44e64658d011b69538a5ea2cc96", "rental_uris": {"android": "https://dc.lft.to/lastmile_qr_scan", "ios": "https://dc.lft.to/lastmile_qr_scan"}, "fusion_lat": 0.0, "lat": 38.999626, "is_disabled": 0, "lon": -77.05115683333334, "is_reserved": 0}, {"bike_id": "8340155d3b5743c2f90c36767f9d8b14", "fusion_lon": 0.0, "type": "electric_scooter", "name": "8340155d3b5743c2f90c36767f9d8b14", "rental_uris": {"android": "https://dc.lft.to/lastmile_qr_scan", "ios": "https://dc.lft.to/lastmile_qr_scan"}, "fusion_lat": 0.0, "lat": 38.917877, "is_disabled": 0, "lon": -76.9733915, "is_reserved": 0}, {"bike_id": "fff767059be6cc0ec4991c23436284b8", "fusion_lon": 0.0, "type": "electric_scooter", "name": "fff767059be6cc0ec4991c23436284b8", "rental_uris": {"android": "https://dc.lft.to/lastmile_qr_scan", "ios": "https://dc.lft.to/lastmile_qr_scan"}, "fusion_lat": 0.0, "lat": 38.899953, "is_disabled": 0, "lon": -77.00212616666667, "is_reserved": 0}, {"bike_id": "1e5e23514bf237ba4118cd2ddb448e38", "fusion_lon": 0.0, "type": "electric_scooter", "name": "1e5e23514bf237ba4118cd2ddb448e38", "rental_uris": {"android": "https://dc.lft.to/lastmile_qr_scan", "ios": "https://dc.lft.to/lastmile_qr_scan"}, "fusion_lat": 0.0, "lat": 38.87645116666667, "is_disabled": 0, "lon": -77.00325033333333, "is_reserved": 0}, {"bike_id": "b07d89cae1078e606735bcabc3322026", "fusion_lon": 0.0, "type": "electric_bike", "name": "b07d89cae1078e606735bcabc3322026", "rental_uris": {"android": "https://dc.lft.to/lastmile_qr_scan", "ios": "https://dc.lft.to/lastmile_qr_scan"}, "fusion_lat": 0.0, "lat": 39.115341666666666, "is_disabled": 0, "lon": -77.19537983333333, "is_reserved": 0}, {"bike_id": "7457dac9535119b2230f8efa276ded87", "fusion_lon": 0.0, "type": "electric_bike", "name": "7457dac9535119b2230f8efa276ded87", "rental_uris": {"android": "https://dc.lft.to/lastmile_qr_scan", "ios": "https://dc.lft.to/lastmile_qr_scan"}, "fusion_lat": 0.0, "lat": 38.90058766666667, "is_disabled": 0, "lon": -77.04607433333334, "is_reserved": 0},