{"data": {"bikes": [{"lon": -76.9848805, "name": "ed4a7a1a54e2063a4093e6c180f43589", "is_disabled": 0, "type": "electric_scooter", "is_reserved": 0, "fusion_lon": 0.0, "lat": 38.903643833333334, "rental_uris": {"ios": "https://dc.lft.to/lastmile_qr_scan", "android": "https://dc.lft.to/lastmile_qr_scan"}, "bike_id": "ed4a7a1a54e2063a4093e6c180f43589", "fusion_lat": 0.0}, {"lon": -77.10331216666667, "name": "160d39133e5a3591c546db9fd7c84527", "is_disabled": 0, "type": "electric_bike", "is_reserved": 0, "fusion_lon": 0.0, "lat": 38.83688266666667, "rental_uris": {"ios": "https://dc.lft.to/lastmile_qr_scan", "android": "https://dc.lft.to/lastmile_qr_scan"}, "bike_id": "160d39133e5a3591c546db9fd7c84527", "fusion_lat": 0.0}, {"lon": -77.01985, "name": "49f084c70805ca25b60cdc37992b4b02", "is_disabled": 0, "type": "electric_scooter", "is_reserved": 0, "fusion_lon": 0.0, "lat": 38.911803, "rental_uris": {"ios": "https://dc.lft.to/lastmile_qr_scan", "android": "https://dc.lft.to/lastmile_qr_scan"}, "bike_id": "49f084c70805ca25b60cdc37992b4b02", "fusion_lat": 0.0}, {"lon": -77.003246, "name": "fad4f1665909d632553ac6290b3b2387", "is_disabled": 0, "type": "electric_scooter", "is_reserved": 0, "fusion_lon": 0.0, "lat": 38.86124933333333, "rental_uris": {"ios": "https://dc.lft.to/lastmile_qr_scan", "android": "https://dc.lft.to/lastmile_qr_scan"}, "bike_id": "fad4f1665909d632553ac6290b3b2387", "fusion_lat": 0.0}, {"lon": -76.997594, "name": "cfde87d9853ec5545a760a0ed10f1998", "is_disabled": 0, "type": "electric_scooter", "is_reserved": 0, "fusion_lon": 0.0, "lat": 38.90039183333333, "rental_uris": {"ios": "https://dc.lft.to/lastmile_qr_scan", "android": "https://dc.lft.to/lastmile_qr_scan"}, "bike_id": "cfde87d9853ec5545a760a0ed10f1998", "fusion_lat": 0.0}, {"lon": -77.03833316666666, "name": "398319a63c979df75e7066caf1c71502", "is_disabled": 0, "type": "electric_scooter", "is_reserved": 0, "fusion_lon": 0.0, "lat": 38.91107866666667, "rental_uris": {"ios": "https://dc.lft.to/lastmile_qr_scan", "android": "https://dc.lft.to/lastmile_qr_scan"}, "bike_id": "398319a63c979df75e7066caf1c71502", "fusion_lat": 0.0}, {"lon": -77.03197266666666, "name": "b11e909628f342858a6468632f9c855f", "is_disabled": 0, "type": "electric_scooter", "is_reserved": 0, "fusion_lon": 0.0, "lat": 38.91625833333333, "rental_uris": {"ios": "https://dc.lft.to/lastmile_qr_scan", "android": "https://dc.lft.to/lastmile_qr_scan"}, "bike_id": "b11e909628f342858a6468632f9c855f", "fusion_lat": 0.0}, {"lon": -76.98543483333333, "name": "880573214fe7d79b9f5de5e3b7036a72", "is_disabled": 0, "type": "electric_scooter", "is_reserved": 0, "fusion_lon": 0.0, "lat": 38.886066166666666, "rental_uris": {"ios": "https://dc.lft.to/lastmile_qr_scan", "android": "https://dc.lft.to/lastmile_qr_scan"}, "bike_id": "880573214fe7d79b9f5de5e3b7036a72", "fusion_lat": 0.0}, {"lon": -77.04232883333333, "name": "cdf9fd68f303ae3109d873637ed396de", "is_disabled": 0, "type": "electric_scooter", "is_reserved": 0, "fusion_lon": 0.0, "lat": 38.92154766666667, "rental_uris": {"ios": "https://dc.lft.to/lastmile_qr_scan", "android": "https://dc.lft.to/lastmile_qr_scan"}, "bike_id": "cdf9fd68f303ae3109d873637ed396de", "fusion_lat": 0.0}, {"lon": -77.00919016666667, "name": "c2e73b36590f4b77f9574e6e9216489d", "is_disabled": 0, "type": "electric_scooter", "is_reserved": 0, "fusion_lon": 0.0, "lat": 38.895952333333334, "rental_uris": {"ios": "https://dc.lft.to/lastmile_qr_scan", "android": "https://dc.lft.to/lastmile_qr_scan"}, "bike_id": "c2e73b36590f4b77f9574e6e9216489d", "fusion_lat": 0.0}, {"lon": -77.01710533333333, "name": "1e871b9dae98f6d43a093313d9b5327f", "is_disabled": 0, "type": "electric_scooter", "is_reserved": 0, "fusion_lon": 0.0, "lat": 38.8874715, "rental_uris": {"ios": "https://dc.lft.to/lastmile_qr_scan", "android": "https://dc.lft.to/lastmile_qr_scan"}, "bike_id": "1e871b9dae98f6d43a093313d9b5327f", "fusion_lat": 0.0}, {"lon": -77.07237133333334, "name": "b3e439ba4ddcda11fd2bfd5aeb334d69", "is_disabled": 0, "type": "electric_scooter", "is_reserved": 0, "fusion_lon": 0.0, "lat": 38.921511, "rental_uris": {"ios": "https://dc.lft.to/lastmile_qr_scan", "android": "https://dc.lft.to/lastmile_qr_scan"}, "bike_id": "b3e439ba4ddcda11fd2bfd5aeb334d69", "fusion_lat": 0.0}, {"lon": -77.02213966666666, "name": "8ee26dde5c9aed4abbbf513a16ee24ed", "is_disabled": 0, "type": "electric_scooter", "is_reserved": 0, "fusion_lon": 0.0, "lat": 38.924748666666666, "rental_uris": {"ios": "https://dc.lft.to/lastmile_qr_scan", "android": "https://dc.lft.to/lastmile_qr_scan"}, "bike_id": "8ee26dde5c9aed4abbbf513a16ee24ed", "fusion_lat": 0.0}, {"lon": -77.023154, "name": "71f0c3cc5f66db9a7090e6da718bc501", "is_disabled": 0, "type": "electric_scooter", "is_reserved": 0, "fusion_lon": 0.0, "lat": 38.9207565, "rental_uris": {"ios": "https://dc.lft.to/lastmile_qr_scan", "android": "https://dc.lft.to/lastmile_qr_scan"}, "bike_id": "71f0c3cc5f66db9a7090e6da718bc501", "fusion_lat": 0.0}, {"lon": -77.03523566666667, "name": "3571a35aa28a15ecf0f51a32827f702f", "is_disabled": 0, "type": "electric_scooter", "is_reserved": 0, "fusion_lon": 0.0, "lat": 38.93275383333334, "rental_uris": {"ios": "https://dc.lft.to/lastmile_qr_scan", "android": "https://dc.lft.to/lastmile_qr_scan"}, "bike_id": "3571a35aa28a15ecf0f51a32827f702f", "fusion_lat": 0.0}, {"lon": -77.04186416666667, "name": "05a270f7e666c8f5ad548350b9773c1c", "is_disabled": 0, "type": "electric_scooter", "is_reserved": 0, "fusion_lon": 0.0, "lat": 38.920477, "rental_uris": {"ios": "https://dc.lft.to/lastmile_qr_scan", "android": "https://dc.lft.to/lastmile_qr_scan"}, "bike_id": "05a270f7e666c8f5ad548350b9773c1c", "fusion_lat": 0.0}, {"lon": -77.04460033333334, "name": "cb9e6e9593d39bcf67f62a87e4645e74", "is_disabled": 0, "type": "electric_scooter", "is_reserved": 0, "fusion_lon": 0.0, "lat": 38.9231755, "rental_uris": {"ios": "https://dc.lft.to/lastmile_qr_scan", "android": "https://dc.lft.to/lastmile_qr_scan"}, "bike_id": "cb9e6e9593d39bcf67f62a87e4645e74", "fusion_lat": 0.0}, {"lon": -77.090235, "name": "5ec86932b1bf12eb0f31e8ebad1e0c73", "is_disabled": 0, "type": "electric_bike", "is_reserved": 0, "fusion_lon": 0.0, "lat": 38.92647433333333, "rental_uris": {"ios": "https://dc.lft.to/lastmile_qr_scan", "android": "https://dc.lft.to/lastmile_qr_scan"}, "bike_id": "5ec86932b1bf12eb0f31e8ebad1e0c73", "fusion_lat": 0.0}, {"lon": -77.0049885, "name": "f6c51fef21c3aa2d90aa3acd7ed126d9", "is_disabled": 0, "type": "electric_scooter", "is_reserved": 0, "fusion_lon": 0.0, "lat": 38.9162485, "rental_uris": {"ios": "https://dc.lft.to/lastmile_qr_scan", "android": "https://dc.lft.to/lastmile_qr_scan"}, "bike_id": "f6c51fef21c3aa2d90aa3acd7ed126d9", "fusion_lat": 0.0}, {"lon": -77.02129783333334, "name": "a462b951f5bd1855c989201871ff323a", "is_disabled": 0, "type": "electric_scooter", "is_reserved": 0, "fusion_lon": 0.0, "lat": 38.922726833333336, "rental_uris": {"ios": "https://dc.lft.to/lastmile_qr_scan", "android": "https://dc.lft.to/lastmile_qr_scan"}, "bike_id": "a462b951f5bd1855c989201871ff323a", "fusion_lat": 0.0}, {"lon": -77.048967, "name": "cb92aedcbdbd7a308e524fe135406afd", "is_disabled": 0, "type": "electric_scooter", "is_reserved": 0, "fusion_lon": 0.0, "lat": 38.900633, "rental_uris": {"ios": "https://dc.lft.to/lastmile_qr_scan", "android": "https://dc.lft.to/lastmile_qr_scan"}, "bike_id": "cb92aedcbdbd7a308e524fe135406afd", "fusion_lat": 0.0}, {"lon": -76.998318, "name": "2a452054639c785742f03b11c8b56181", "is_disabled": 0, "type": "electric_scooter", "is_reserved": 0, "fusion_lon": 0.0, "lat": 38.9071855, "rental_uris": {"ios": "https://dc.lft.to/lastmile_qr_scan", "android": "https://dc.lft.to/lastmile_qr_scan"}, "bike_id": "2a452054639c785742f03b11c8b56181", "fusion_lat": 0.0}, {"lon": -77.01608566666667, "name": "bfa298a89e6bdd5b5084225b5537dbdb", "is_disabled": 0, "type": "electric_scooter", "is_reserved": 0, "fusion_lon": 0.0, "lat": 38.91949983333333, "rental_uris": {"ios": "https://dc.lft.to/lastmile_qr_scan", "android": "https://dc.lft.to/lastmile_qr_scan"}, "bike_id": "bfa298a89e6bdd5b5084225b5537dbdb", "fusion_lat": 0.0}, {"lon": -77.021614, "name": "ba6f0771ebe4dffe27277c09d2fbad48", "is_disabled": 0, "type": "electric_scooter", "is_reserved": 0, "fusion_lon": 0.0, "lat": 38.886310333333334, "rental_uris": {"ios": "https://dc.lft.to/lastmile_qr_scan", "android": "https://dc.lft.to/lastmile_qr_scan"}, "bike_id": "ba6f0771ebe4dffe27277c09d2fbad48", "fusion_lat": 0.0}, {"lon": -77.02951966666667, "name": "cecc35d09919be8b4ee49431b9c4c568", "is_disabled": 0, "type": "electric_scooter", "is_reserved": 0, "fusion_lon": 0.0, "lat": 38.94306683333333, "rental_uris": {"ios": "https://dc.lft.to/lastmile_qr_scan", "android": "https://dc.lft.to/lastmile_qr_scan"}, "bike_id": "cecc35d09919be8b4ee49431b9c4c568", "fusion_lat": 0.0}, {"lon": -77.02146216666667, "name": "d3b161ba6623d3058d2ca1df4e41dbb4", "is_disabled": 0, "type": "electric_scooter", "is_reserved": 0, "fusion_lon": 0.0, "lat": 38.92446616666667, "rental_uris": {"ios": "https://dc.lft.to/lastmile_qr_scan", "android": "https://dc.lft.to/lastmile_qr_scan"}, "bike_id": "d3b161ba6623d3058d2ca1df4e41dbb4", "fusion_lat": 0.0}, {"lon": -77.06305716666667, "name": "10b6e3ba391272a76b7740d2d8137294", "is_disabled": 0, "type": "electric_scooter", "is_reserved": 0, "fusion_lon": 0.0, "lat": 38.90785616666667, "rental_uris": {"ios": "https://dc.lft.to/lastmile_qr_scan", "android": "https://dc.lft.to/lastmile_qr_scan"}, "bike_id": "10b6e3ba391272a76b7740d2d8137294", "fusion_lat": 0.0}, {"lon": -77.03169483333333, "name": "e053d7c02b0ea8ce2ff774ec6730bdb5", "is_disabled": 0, "type": "electric_scooter", "is_reserved": 0, "fusion_lon": 0.0, "lat": 38.8838925, "rental_uris": {"ios": "https://dc.lft.to/lastmile_qr_scan", "android": "https://dc.lft.to/lastmile_qr_scan"}, "bike_id": "e053d7c02b0ea8ce2ff774ec6730bdb5", "fusion_lat": 0.0}, {"lon": -77.02319033333333, "name": "88e00e84c3437634c8eb91bfe67e4d06", "is_disabled": 0, "type": "electric_scooter", "is_reserved": 0, "fusion_lon": 0.0, "lat": 38.93984366666667, "rental_uris": {"ios": "https://dc.lft.to/lastmile_qr_scan", "android": "https://dc.lft.to/lastmile_qr_scan"}, "bike_id": "88e00e84c3437634c8eb91bfe67e4d06", "fusion_lat": 0.0}, {"lon": -77.0380355, "name": "128ca158f9deb1378623cd7d92996026", "is_disabled": 0, "type": "electric_scooter", "is_reserved": 0, "fusion_lon": 0.0, "lat": 38.925480666666665, "rental_uris": {"ios": "https://dc.lft.to/lastmile_qr_scan", "android": "https://dc.lft.to/lastmile_qr_scan"}, "bike_id": "128ca158f9deb1378623cd7d92996026", "fusion_lat": 0.0}, {"lon": -76.99849966666666, "name": "8bd7e53b8e76afd62316d7f2ac337dcb", "is_disabled": 0, "type": "electric_scooter", "is_reserved": 0, "fusion_lon": 0.0, "lat": 38.901209, "rental_uris": {"ios": "https://dc.lft.to/lastmile_qr_scan", "android": "https://dc.lft.to/lastmile_qr_scan"}, "bike_id": "8bd7e53b8e76afd62316d7f2ac337dcb", "fusion_lat": 0.0}, {"lon": -77.02509666666667, "name": "0f8603d3144b52f51719bcb1ec5f8be8", "is_disabled": 0, "type": "electric_scooter", "is_reserved": 0, "fusion_lon": 0.0, "lat": 38.917077, "rental_uris": {"ios": "https://dc.lft.to/lastmile_qr_scan", "android": "https://dc.lft.to/lastmile_qr_scan"}, "bike_id": "0f8603d3144b52f51719bcb1ec5f8be8", "fusion_lat": 0.0}, {"lon": -76.99564683333334, "name": "70faf88a6dc07d3c7e6acabe7e146180", "is_disabled": 0, "type": "electric_scooter", "is_reserved": 0, "fusion_lon": 0.0, "lat": 38.950703833333336, "rental_uris": {"ios": "https://dc.lft.to/lastmile_qr_scan", "android": "https://dc.lft.to/lastmile_qr_scan"}, "bike_id": "70faf88a6dc07d3c7e6acabe7e146180", "fusion_lat": 0.0}, {"lon": -77.032472, "name": "db246d9525754805120b2ac6ed93f947", "is_disabled": 0, "type": "electric_scooter", "is_reserved": 0, "fusion_lon": 0.0, "lat": 38.9022505, "rental_uris": {"ios": "https://dc.lft.to/lastmile_qr_scan", "android": "https://dc.lft.to/lastmile_qr_scan"}, "bike_id": "db246d9525754805120b2ac6ed93f947", "fusion_lat": 0.0}, {"lon": -77.05087266666666, "name": "fde7040e4c3fc20b8c515f71786a5ca0", "is_disabled": 0, "type": "electric_scooter", "is_reserved": 0, "fusion_lon": 0.0, "lat": 38.9006525, "rental_uris": {"ios": "https://dc.lft.to/lastmile_qr_scan", "android": "https://dc.lft.to/lastmile_qr_scan"}, "bike_id": "fde7040e4c3fc20b8c515f71786a5ca0", "fusion_lat": 0.0}, {"lon": -77.00906233333333, "name": "42486c9636cbccba91c3cfb627363084", "is_disabled": 0, "type": "electric_scooter", "is_reserved": 0, "fusion_lon": 0.0, "lat": 38.909850666666664, "rental_uris": {"ios": "https://dc.lft.to/lastmile_qr_scan", "android": "https://dc.lft.to/lastmile_qr_scan"}, "bike_id": "42486c9636cbccba91c3cfb627363084", "fusion_lat": 0.0}, {"lon": -76.92630416666667, "name": "916bdd90eb06d8ac86ca2b4c35db6901", "is_disabled": 0, "type": "electric_scooter", "is_reserved": 0, "fusion_lon": 0.0, "lat": 38.88619666666666, "rental_uris": {"ios": "https://dc.lft.to/lastmile_qr_scan", "android": "https://dc.lft.to/lastmile_qr_scan"}, "bike_id": "916bdd90eb06d8ac86ca2b4c35db6901", "fusion_lat": 0.0}, {"lon": -77.00981033333333, "name": "8bcbf42bce904a8bc017560ac51be720", "is_disabled": 0, "type": "electric_scooter", "is_reserved": 0, "fusion_lon": 0.0, "lat": 38.913964166666666, "rental_uris": {"ios": "https://dc.lft.to/lastmile_qr_scan", "android": "https://dc.lft.to/lastmile_qr_scan"}, "bike_id": "8bcbf42bce904a8bc017560ac51be720", "fusion_lat": 0.0}, {"lon": -77.067762, "name": "7173ab66df9ef37599b610ebaf218024", "is_disabled": 0, "type": "electric_scooter", "is_reserved": 0, "fusion_lon": 0.0, "lat": 38.952136333333335, "rental_uris": {"ios": "https://dc.lft.to/lastmile_qr_scan", "android": "https://dc.lft.to/lastmile_qr_scan"}, "bike_id": "7173ab66df9ef37599b610ebaf218024", "fusion_lat": 0.0}, {"lon": -76.98472083333333, "name": "76c397ff171f76c2cb507175d0bc0566", "is_disabled": 0, "type": "electric_bike", "is_reserved": 0, "fusion_lon": 0.0, "lat": 38.91273783333333, "rental_uris": {"ios": "https://dc.lft.to/lastmile_qr_scan", "android": "https://dc.lft.to/lastmile_qr_scan"}, "bike_id": "76c397ff171f76c2cb507175d0bc0566", "fusion_lat": 0.0}, {"lon": -77.00674716666667, "name": "6cf27df333f775b3aaef426504dbbf4f", "is_disabled": 0, "type": "electric_bike", "is_reserved": 0, "fusion_lon": 0.0, "lat": 38.94507883333333, "rental_uris": {"ios": "https://dc.lft.to/lastmile_qr_scan", "android": "https://dc.lft.to/lastmile_qr_scan"}, "bike_id": "6cf27df333f775b3aaef426504dbbf4f", "fusion_lat": 0.0}, {"lon": -77.0789975, "name": "b70785b89bcf602636240dd41d81632a", "is_disabled": 0, "type": "electric_bike", "is_reserved": 0, "fusion_lon": 0.0, "lat": 38.83934983333333, "rental_uris": {"ios": "https://dc.lft.to/lastmile_qr_scan", "android": "https://dc.lft.to/lastmile_qr_scan"}, "bike_id": "b70785b89bcf602636240dd41d81632a", "fusion_lat": 0.0}, {"lon": -77.03357583333333, "name": "d35b4b372fe8f6654451ef153415fa86", "is_disabled": 0, "type": "electric_scooter", "is_reserved": 0, "fusion_lon": 0.0, "lat": 38.9275325, "rental_uris": {"ios": "https://dc.lft.to/lastmile_qr_scan", "android": "https://dc.lft.to/lastmile_qr_scan"}, "bike_id": "d35b4b372fe8f6654451ef153415fa86", "fusion_lat": 0.0}, {"lon": -76.99305466666667, "name": "8f9716bca0b10070e6dd42b82bd2a0da", "is_disabled": 0, "type": "electric_scooter", "is_reserved": 0, "fusion_lon": 0.0, "lat": 38.93773266666667, "rental_uris": {"ios": "https://dc.lft.to/lastmile_qr_scan", "android": "https://dc.lft.to/lastmile_qr_scan"}, "bike_id": "8f9716bca0b10070e6dd42b82bd2a0da", "fusion_lat": 0.0}, {"lon": -77.02201033333333, "name": "592259423d91114682ff9f9c0fe44951", "is_disabled": 0, "type": "electric_scooter", "is_reserved": 0, "fusion_lon": 0.0, "lat": 38.8960925, "rental_uris": {"ios": "https://dc.lft.to/lastmile_qr_scan", "android": "https://dc.lft.to/lastmile_qr_scan"}, "bike_id": "592259423d91114682ff9f9c0fe44951", "fusion_lat": 0.0}, {"lon": -77.02657166666667, "name": "071f267af62bebcf07d7c99c424ddf6e", "is_disabled": 0, "type": "electric_scooter", "is_reserved": 0, "fusion_lon": 0.0, "lat": 38.9238155, "rental_uris": {"ios": "https://dc.lft.to/lastmile_qr_scan", "android": "https://dc.lft.to/lastmile_qr_scan"}, "bike_id": "071f267af62bebcf07d7c99c424ddf6e", "fusion_lat": 0.0}, {"lon": -76.9978455, "name": "0625a057c412670be08fc1fd9edd2b69", "is_disabled": 0, "type": "electric_scooter", "is_reserved": 0, "fusion_lon": 0.0, "lat": 38.93216433333333, "rental_uris": {"ios": "https://dc.lft.to/lastmile_qr_scan", "android": "https://dc.lft.to/lastmile_qr_scan"}, "bike_id": "0625a057c412670be08fc1fd9edd2b69", "fusion_lat": 0.0}, {"lon": -77.02063716666666, "name": "3ffbf1e3b4ed875e6affa79f9d83f376", "is_disabled": 0, "type": "electric_scooter", "is_reserved": 0, "fusion_lon": 0.0, "lat": 38.93259066666667, "rental_uris": {"ios": "https://dc.lft.to/lastmile_qr_scan", "android": "https://dc.lft.to/lastmile_qr_scan"}, "bike_id": "3ffbf1e3b4ed875e6affa79f9d83f376", "fusion_lat": 0.0}, {"lon": -77.04017133333333, "name": "8977fa1d9a24cb82c2c39294a8f18143", "is_disabled": 0, "type": "electric_scooter", "is_reserved": 0, "fusion_lon": 0.0, "lat": 38.90480383333333, "rental_uris": {"ios": "https://dc.lft.to/lastmile_qr_scan", "android": "https://dc.lft.to/lastmile_qr_scan"}, "bike_id": "8977fa1d9a24cb82c2c39294a8f18143", "fusion_lat": 0.0}, {"lon": -77.02167516666667, "name": "78250e822e9fbc2982167dad821d4f70", "is_disabled": 0, "type": "electric_scooter", "is_reserved": 0, "fusion_lon": 0.0, "lat": 38.914071, "rental_uris": {"ios": "https://dc.lft.to/lastmile_qr_scan", "android": "https://dc.lft.to/lastmile_qr_scan"}, "bike_id": "78250e822e9fbc2982167dad821d4f70", "fusion_lat": 0.0}, {"lon": -76.933927, "name": "14df5cbcedb41c2a73161661e21bb7cf", "is_disabled": 0, "type": "electric_scooter", "is_reserved": 0, "fusion_lon": 0.0, "lat": 38.899119166666665, "rental_uris": {"ios": "https://dc.lft.to/lastmile_qr_scan", "android": "https://dc.lft.to/lastmile_qr_scan"}, "bike_id": "14df5cbcedb41c2a73161661e21bb7cf", "fusion_lat": 0.0}, {"lon": -77.04229566666666, "name": "5c0d40ed6cd81b325e5f0806fe33d04f", "is_disabled": 0, "type": "electric_scooter", "is_reserved": 0, "fusion_lon": 0.0, "lat": 38.921438333333334, "rental_uris": {"ios": "https://dc.lft.to/lastmile_qr_scan", "android": "https://dc.lft.to/lastmile_qr_scan"}, "bike_id": "5c0d40ed6cd81b325e5f0806fe33d04f", "fusion_lat": 0.0}, {"lon": -77.04323616666667, "name": "96d4455420b86a639345082fb5b96139", "is_disabled": 0, "type": "electric_scooter", "is_reserved": 0, "fusion_lon": 0.0, "lat": 38.896837833333336, "rental_uris": {"ios": "https://dc.lft.to/lastmile_qr_scan", "android": "https://dc.lft.to/lastmile_qr_scan"}, "bike_id": "96d4455420b86a639345082fb5b96139", "fusion_lat": 0.0}, {"lon": -77.053058, "name": "b9a1a8baff48041ba689a695a181d095", "is_disabled": 0, "type": "electric_scooter", "is_reserved": 0, "fusion_lon": 0.0, "lat": 38.934539666666666, "rental_uris": {"ios": "https://dc.lft.to/lastmile_qr_scan", "android": "https://dc.lft.to/lastmile_qr_scan"}, "bike_id": "b9a1a8baff48041ba689a695a181d095", "fusion_lat": 0.0}, {"lon": -77.0033065, "name": "f7a7e5e16db203317fdfa959aea8d0fb", "is_disabled": 0, "type": "electric_scooter", "is_reserved": 0, "fusion_lon": 0.0, "lat": 38.89363633333333, "rental_uris": {"ios": "https://dc.lft.to/lastmile_qr_scan", "android": "https://dc.lft.to/lastmile_qr_scan"}, "bike_id": "f7a7e5e16db203317fdfa959aea8d0fb", "fusion_lat": 0.0}, {"lon": -77.001801, "name": "fd9abd75f3b190520738ae3e2002cd7e", "is_disabled": 0, "type": "electric_scooter", "is_reserved": 0, "fusion_lon": 0.0, "lat": 38.8738915, "rental_uris": {"ios": "https://dc.lft.to/lastmile_qr_scan", "android": "https://dc.lft.to/lastmile_qr_scan"}, "bike_id": "fd9abd75f3b190520738ae3e2002cd7e", "fusion_lat": 0.0}, {"lon": -77.025641, "name": "0287d875b4679bfce78d79d814757cfe", "is_disabled": 0, "type": "electric_scooter", "is_reserved": 0, "fusion_lon": 0.0, "lat": 38.89596266666667, "rental_uris": {"ios": "https://dc.lft.to/lastmile_qr_scan", "android": "https://dc.lft.to/lastmile_qr_scan"}, "bike_id": "0287d875b4679bfce78d79d814757cfe", "fusion_lat": 0.0}, {"lon": -77.03369016666667, "name": "caf39bf8ebc0dcb69ca2d72eaded8165", "is_disabled": 0, "type": "electric_scooter", "is_reserved": 0, "fusion_lon": 0.0, "lat": 38.9307445, "rental_uris": {"ios": "https://dc.lft.to/lastmile_qr_scan", "android": "https://dc.lft.to/lastmile_qr_scan"}, "bike_id": "caf39bf8ebc0dcb69ca2d72eaded8165", "fusion_lat": 0.0}, {"lon": -77.0006545, "name": "8954feba9991fe0971fb0164ee59b180", "is_disabled": 0, "type": "electric_scooter", "is_reserved": 0, "fusion_lon": 0.0, "lat": 38.92435233333333, "rental_uris": {"ios": "https://dc.lft.to/lastmile_qr_scan", "android": "https://dc.lft.to/lastmile_qr_scan"}, "bike_id": "8954feba9991fe0971fb0164ee59b180", "fusion_lat": 0.0}, {"lon": -77.04903916666666, "name": "9bb8738d66903d0435a975124998f9c7", "is_disabled": 0, "type": "electric_scooter", "is_reserved": 0, "fusion_lon": 0.0, "lat": 38.91593566666667, "rental_uris": {"ios": "https://dc.lft.to/lastmile_qr_scan", "android": "https://dc.lft.to/lastmile_qr_scan"}, "bike_id": "9bb8738d66903d0435a975124998f9c7", "fusion_lat": 0.0}, {"lon": -77.007591, "name": "96db46b9d8398e528626cee946a50a6a", "is_disabled": 0, "type": "electric_scooter", "is_reserved": 0, "fusion_lon": 0.0, "lat": 38.904722666666665, "rental_uris": {"ios": "https://dc.lft.to/lastmile_qr_scan", "android": "https://dc.lft.to/lastmile_qr_scan"}, "bike_id": "96db46b9d8398e528626cee946a50a6a", "fusion_lat": 0.0}, {"lon": -77.01534216666667, "name": "5777f30eef69649d552979528b5614f1", "is_disabled": 0, "type": "electric_scooter", "is_reserved": 0, "fusion_lon": 0.0, "lat": 38.92059533333333, "rental_uris": {"ios": "https://dc.lft.to/lastmile_qr_scan", "android": "https://dc.lft.to/lastmile_qr_scan"}, "bike_id": "5777f30eef69649d552979528b5614f1", "fusion_lat": 0.0}, {"lon": -77.03198733333333, "name": "3e165f667d9de86acb040d18ee6ed356", "is_disabled": 0, "type": "electric_scooter", "is_reserved": 0, "fusion_lon": 0.0, "lat": 38.920501333333334, "rental_uris": {"ios": "https://dc.lft.to/lastmile_qr_scan", "android": "https://dc.lft.to/lastmile_qr_scan"}, "bike_id": "3e165f667d9de86acb040d18ee6ed356", "fusion_lat": 0.0}, {"lon": -76.947941, "name": "49e6167a0fdaccd2b0e29e55c84e4ca4", "is_disabled": 0, "type": "electric_bike", "is_reserved": 0, "fusion_lon": 0.0, "lat": 38.8935315, "rental_uris": {"ios": "https://dc.lft.to/lastmile_qr_scan", "android": "https://dc.lft.to/lastmile_qr_scan"}, "bike_id": "49e6167a0fdaccd2b0e29e55c84e4ca4", "fusion_lat": 0.0}, {"lon": -77.02966216666667, "name": "060b5257540b757e0476211fc7e97a04", "is_disabled": 0, "type": "electric_scooter", "is_reserved": 0, "fusion_lon": 0.0, "lat": 38.92587666666667, "rental_uris": {"ios": "https://dc.lft.to/lastmile_qr_scan", "android": "https://dc.lft.to/lastmile_qr_scan"}, "bike_id": "060b5257540b757e0476211fc7e97a04", "fusion_lat": 0.0}, {"lon": -76.94155333333333, "name": "9aeed5d751bf03826414d75d0f5dd24d", "is_disabled": 0, "type": "electric_bike", "is_reserved": 0, "fusion_lon": 0.0, "lat": 38.86551583333333, "rental_uris": {"ios": "https://dc.lft.to/lastmile_qr_scan", "android": "https://dc.lft.to/lastmile_qr_scan"}, "bike_id": "9aeed5d751bf03826414d75d0f5dd24d", "fusion_lat": 0.0}, {"lon": -77.02844116666667, "name": "0da4b661842c1e2d3ca49e2a6ec24b7a", "is_disabled": 0, "type": "electric_scooter", "is_reserved": 0, "fusion_lon": 0.0, "lat": 38.935309833333335, "rental_uris": {"ios": "https://dc.lft.to/lastmile_qr_scan", "android": "https://dc.lft.to/lastmile_qr_scan"}, "bike_id": "0da4b661842c1e2d3ca49e2a6ec24b7a", "fusion_lat": 0.0}, {"lon": -77.04125333333333, "name": "639a01b3349c5f9bb54991fd0153b927", "is_disabled": 0, "type": "electric_scooter", "is_reserved": 0, "fusion_lon": 0.0, "lat": 38.91890733333334, "rental_uris": {"ios": "https://dc.lft.to/lastmile_qr_scan", "android": "https://dc.lft.to/lastmile_qr_scan"}, "bike_id": "639a01b3349c5f9bb54991fd0153b927", "fusion_lat": 0.0}, {"lon": -77.0297025, "name": "6858e008770eace4280d65b7fe77e772", "is_disabled": 0, "type": "electric_scooter", "is_reserved": 0, "fusion_lon": 0.0, "lat": 38.90485866666667, "rental_uris": {"ios": "https://dc.lft.to/lastmile_qr_scan", "android": "https://dc.lft.to/lastmile_qr_scan"}, "bike_id": "6858e008770eace4280d65b7fe77e772", "fusion_lat": 0.0}, {"lon": -77.02197066666666, "name": "f87ba2314c483830286b94bf7f0a4aa8", "is_disabled": 0, "type": "electric_scooter", "is_reserved": 0, "fusion_lon": 0.0, "lat": 38.91011783333333, "rental_uris": {"ios": "https://dc.lft.to/lastmile_qr_scan", "android": "https://dc.lft.to/lastmile_qr_scan"}, "bike_id": "f87ba2314c483830286b94bf7f0a4aa8", "fusion_lat": 0.0}, {"lon": -77.01608483333334, "name": "d2fcc7632ef04ab3c54cb7a7ae57ca1b", "is_disabled": 0, "type": "electric_scooter", "is_reserved": 0, "fusion_lon": 0.0, "lat": 38.910687833333334, "rental_uris": {"ios": "https://dc.lft.to/lastmile_qr_scan", "android": "https://dc.lft.to/lastmile_qr_scan"}, "bike_id": "d2fcc7632ef04ab3c54cb7a7ae57ca1b", "fusion_lat": 0.0}, {"lon": -77.050811, "name": "04429ed76eb6eb5c3b0994214401b081", "is_disabled": 0, "type": "electric_bike", "is_reserved": 0, "fusion_lon": 0.0, "lat": 38.81330483333333, "rental_uris": {"ios": "https://dc.lft.to/lastmile_qr_scan", "android": "https://dc.lft.to/lastmile_qr_scan"}, "bike_id": "04429ed76eb6eb5c3b0994214401b081", "fusion_lat": 0.0}, {"lon": -77.0254015, "name": "c3905dea2d8de75a19eead5d29677f48", "is_disabled": 0, "type": "electric_scooter", "is_reserved": 0, "fusion_lon": 0.0, "lat": 38.9071945, "rental_uris": {"ios": "https://dc.lft.to/lastmile_qr_scan", "android": "https://dc.lft.to/lastmile_qr_scan"}, "bike_id": "c3905dea2d8de75a19eead5d29677f48", "fusion_lat": 0.0}, {"lon": -77.020425, "name": "1babf9a82bf9c2f53c60c6ce17720b26", "is_disabled": 0, "type": "electric_scooter", "is_reserved": 0, "fusion_lon": 0.0, "lat": 38.9217145, "rental_uris": {"ios": "https://dc.lft.to/lastmile_qr_scan", "android": "https://dc.lft.to/lastmile_qr_scan"}, "bike_id": "1babf9a82bf9c2f53c60c6ce17720b26", "fusion_lat": 0.0}, {"lon": -77.08490333333333, "name": "f1b3a9e818de8d18735da97f3450fd34", "is_disabled": 0, "type": "electric_scooter", "is_reserved": 0, "fusion_lon": 0.0, "lat": 38.9589055, "rental_uris": {"ios": "https://dc.lft.to/lastmile_qr_scan", "android": "https://dc.lft.to/lastmile_qr_scan"}, "bike_id": "f1b3a9e818de8d18735da97f3450fd34", "fusion_lat": 0.0}, {"lon": -77.03829933333333, "name": "4465cce353dfc957f411644abea2aa01", "is_disabled": 0, "type": "electric_scooter", "is_reserved": 0, "fusion_lon": 0.0, "lat": 38.911088166666666, "rental_uris": {"ios": "https://dc.lft.to/lastmile_qr_scan", "android": "https://dc.lft.to/lastmile_qr_scan"}, "bike_id": "4465cce353dfc957f411644abea2aa01", "fusion_lat": 0.0}, {"lon": -77.0431415, "name": "03bfa85c2e657c2604884156ce730053", "is_disabled": 0, "type": "electric_scooter", "is_reserved": 0, "fusion_lon": 0.0, "lat": 38.92209033333334, "rental_uris": {"ios": "https://dc.lft.to/lastmile_qr_scan", "android": "https://dc.lft.to/lastmile_qr_scan"}, "bike_id": "03bfa85c2e657c2604884156ce730053", "fusion_lat": 0.0}, {"lon": -77.0268875, "name": "674cad96fac5308176ade4b4ccf60068", "is_disabled": 0, "type": "electric_scooter", "is_reserved": 0, "fusion_lon": 0.0, "lat": 38.916904833333334, "rental_uris": {"ios": "https://dc.lft.to/lastmile_qr_scan", "android": "https://dc.lft.to/lastmile_qr_scan"}, "bike_id": "674cad96fac5308176ade4b4ccf60068", "fusion_lat": 0.0}, {"lon": -77.02156233333334, "name": "a5868b89a256110dbaa094fc6ee4af01", "is_disabled": 0, "type": "electric_scooter", "is_reserved": 0, "fusion_lon": 0.0, "lat": 38.92612833333333, "rental_uris": {"ios": "https://dc.lft.to/lastmile_qr_scan", "android": "https://dc.lft.to/lastmile_qr_scan"}, "bike_id": "a5868b89a256110dbaa094fc6ee4af01", "fusion_lat": 0.0}, {"lon": -77.061341, "name": "3dc04ce5a8959050d35608610d339215", "is_disabled": 0, "type": "electric_scooter", "is_reserved": 0, "fusion_lon": 0.0, "lat": 38.940873833333335, "rental_uris": {"ios": "https://dc.lft.to/lastmile_qr_scan", "android": "https://dc.lft.to/lastmile_qr_scan"}, "bike_id": "3dc04ce5a8959050d35608610d339215", "fusion_lat": 0.0}, {"lon": -77.04691266666667, "name": "c001deb56dceedc7ecedc35475f39108", "is_disabled": 0, "type": "electric_scooter", "is_reserved": 0, "fusion_lon": 0.0, "lat": 38.921626, "rental_uris": {"ios": "https://dc.lft.to/lastmile_qr_scan", "android": "https://dc.lft.to/lastmile_qr_scan"}, "bike_id": "c001deb56dceedc7ecedc35475f39108", "fusion_lat": 0.0}, {"lon": -77.0188, "name": "ac5b72f0c95aaaeed44a89c0b584f03c", "is_disabled": 0, "type": "electric_scooter", "is_reserved": 0, "fusion_lon": 0.0, "lat": 38.9193665, "rental_uris": {"ios": "https://dc.lft.to/lastmile_qr_scan", "android": "https://dc.lft.to/lastmile_qr_scan"}, "bike_id": "ac5b72f0c95aaaeed44a89c0b584f03c", "fusion_lat": 0.0}, {"lon": -77.0171755, "name": "ab54ff47a2efb0818b15283fd8bc687a", "is_disabled": 0, "type": "electric_scooter", "is_reserved": 0, "fusion_lon": 0.0, "lat": 38.9135655, "rental_uris": {"ios": "https://dc.lft.to/lastmile_qr_scan", "android": "https://dc.lft.to/lastmile_qr_scan"}, "bike_id": "ab54ff47a2efb0818b15283fd8bc687a", "fusion_lat": 0.0}, {"lon": -77.0294825, "name": "54af98c1af85a6561eee713eb663df5f", "is_disabled": 0, "type": "electric_scooter", "is_reserved": 0, "fusion_lon": 0.0, "lat": 38.927688833333335, "rental_uris": {"ios": "https://dc.lft.to/lastmile_qr_scan", "android": "https://dc.lft.to/lastmile_qr_scan"}, "bike_id": "54af98c1af85a6561eee713eb663df5f", "fusion_lat": 0.0}, {"lon": -77.0017375, "name": "02d71034d5b5d36e61c37ba737742848", "is_disabled": 0, "type": "electric_scooter", "is_reserved": 0, "fusion_lon": 0.0, "lat": 38.888685333333335, "rental_uris": {"ios": "https://dc.lft.to/lastmile_qr_scan", "android": "https://dc.lft.to/lastmile_qr_scan"}, "bike_id": "02d71034d5b5d36e61c37ba737742848", "fusion_lat": 0.0}, {"lon": -76.998413, "name": "b3229fa5d18769b6b83c94fae2427a84", "is_disabled": 0, "type": "electric_scooter", "is_reserved": 0, "fusion_lon": 0.0, "lat": 38.9000725, "rental_uris": {"ios": "https://dc.lft.to/lastmile_qr_scan", "android": "https://dc.lft.to/lastmile_qr_scan"}, "bike_id": "b3229fa5d18769b6b83c94fae2427a84", "fusion_lat": 0.0}, {"lon": -77.02282383333333, "name": "23db5fa5aeef3b8cd6408fe319fb9b5d", "is_disabled": 0, "type": "electric_scooter", "is_reserved": 0, "fusion_lon": 0.0, "lat": 38.916557166666664, "rental_uris": {"ios": "https://dc.lft.to/lastmile_qr_scan", "android": "https://dc.lft.to/lastmile_qr_scan"}, "bike_id": "23db5fa5aeef3b8cd6408fe319fb9b5d", "fusion_lat": 0.0}, {"lon": -77.0057605, "name": "7ab90850022d9f225706a25d2c3757b6", "is_disabled": 0, "type": "electric_scooter", "is_reserved": 0, "fusion_lon": 0.0, "lat": 38.872124166666666, "rental_uris": {"ios": "https://dc.lft.to/lastmile_qr_scan", "android": "https://dc.lft.to/lastmile_qr_scan"}, "bike_id": "7ab90850022d9f225706a25d2c3757b6", "fusion_lat": 0.0}, {"lon": -77.018395, "name": "0e3586d1e8b5a712145aec59c90d4029", "is_disabled": 0, "type": "electric_scooter", "is_reserved": 0, "fusion_lon": 0.0, "lat": 38.897395833333334, "rental_uris": {"ios": "https://dc.lft.to/lastmile_qr_scan", "android": "https://dc.lft.to/lastmile_qr_scan"}, "bike_id": "0e3586d1e8b5a712145aec59c90d4029", "fusion_lat": 0.0}, {"lon": -77.02638033333334, "name": "e9416809043213d9e4f810dfddebcbd2", "is_disabled": 0, "type": "electric_scooter", "is_reserved": 0, "fusion_lon": 0.0, "lat": 38.9110015, "rental_uris": {"ios": "https://dc.lft.to/lastmile_qr_scan", "android": "https://dc.lft.to/lastmile_qr_scan"}, "bike_id": "e9416809043213d9e4f810dfddebcbd2", "fusion_lat": 0.0}, {"lon": -77.0787, "name": "3f9c675b1789cb760172834416ab6123", "is_disabled": 0, "type": "electric_scooter", "is_reserved": 0, "fusion_lon": 0.0, "lat": 38.919553666666665, "rental_uris": {"ios": "https://dc.lft.to/lastmile_qr_scan", "android": "https://dc.lft.to/lastmile_qr_scan"}, "bike_id": "3f9c675b1789cb760172834416ab6123", "fusion_lat": 0.0}, {"lon": -77.049991, "name": "9f455630864f6f8018f3c560e515be65", "is_disabled": 0, "type": "electric_scooter", "is_reserved": 0, "fusion_lon": 0.0, "lat": 38.89234, "rental_uris": {"ios": "https://dc.lft.to/lastmile_qr_scan", "android": "https://dc.lft.to/lastmile_qr_scan"}, "bike_id": "9f455630864f6f8018f3c560e515be65", "fusion_lat": 0.0}, {"lon": -77.0153005, "name": "ad6e6dd60a1c548eaceb529f0d85f3c2", "is_disabled": 0, "type": "electric_scooter", "is_reserved": 0, "fusion_lon": 0.0, "lat": 38.902591, "rental_uris": {"ios": "https://dc.lft.to/lastmile_qr_scan", "android": "https://dc.lft.to/lastmile_qr_scan"}, "bike_id": "ad6e6dd60a1c548eaceb529f0d85f3c2", "fusion_lat": 0.0}, {"lon": -77.003591, "name": "8125ddfb4cf5a1f9e462df595f8e2b46", "is_disabled": 0, "type": "electric_scooter", "is_reserved": 0, "fusion_lon": 0.0, "lat": 38.89752383333333, "rental_uris": {"ios": "https://dc.lft.to/lastmile_qr_scan", "android": "https://dc.lft.to/lastmile_qr_scan"}, "bike_id": "8125ddfb4cf5a1f9e462df595f8e2b46", "fusion_lat": 0.0}, {"lon": -77.00678516666666, "name": "e8a27a94c4a98c2d5438fdeb8eae3f16", "is_disabled": 0, "type": "electric_scooter", "is_reserved": 0, "fusion_lon": 0.0, "lat": 38.90010916666667, "rental_uris": {"ios": "https://dc.lft.to/lastmile_qr_scan", "android": "https://dc.lft.to/lastmile_qr_scan"}, "bike_id": "e8a27a94c4a98c2d5438fdeb8eae3f16", "fusion_lat": 0.0}, {"lon": -77.04045, "name": "d347ef66d1f43ce3ea25dd78933191b1", "is_disabled": 0, "type": "electric_scooter", "is_reserved": 0, "fusion_lon": 0.0, "lat": 38.9170335, "rental_uris": {"ios": "https://dc.lft.to/lastmile_qr_scan", "android": "https://dc.lft.to/lastmile_qr_scan"}, "bike_id": "d347ef66d1f43ce3ea25dd78933191b1", "fusion_lat": 0.0}, {"lon": -77.03968933333333, "name": "5b27f2df748a43b40335ffb99b581178", "is_disabled": 0, "type": "electric_scooter", "is_reserved": 0, "fusion_lon": 0.0, "lat": 38.919785, "rental_uris": {"ios": "https://dc.lft.to/lastmile_qr_scan", "android": "https://dc.lft.to/lastmile_qr_scan"}, "bike_id": "5b27f2df748a43b40335ffb99b581178", "fusion_lat": 0.0}, {"lon": -77.0079985, "name": "17ec58284e3aa0e027c40c912eede04b", "is_disabled": 0, "type": "electric_scooter", "is_reserved": 0, "fusion_lon": 0.0, "lat": 38.8971475, "rental_uris": {"ios": "https://dc.lft.to/lastmile_qr_scan", "android": "https://dc.lft.to/lastmile_qr_scan"}, "bike_id": "17ec58284e3aa0e027c40c912eede04b", "fusion_lat": 0.0}, {"lon": -77.0463165, "name": "961b9c7514858b15d19e1c96d164ebb7", "is_disabled": 0, "type": "electric_scooter", "is_reserved": 0, "fusion_lon": 0.0, "lat": 38.9095595, "rental_uris": {"ios": "https://dc.lft.to/lastmile_qr_scan", "android": "https://dc.lft.to/lastmile_qr_scan"}, "bike_id": "961b9c7514858b15d19e1c96d164ebb7", "fusion_lat": 0.0}, {"lon": -76.98275633333333, "name": "6d3d5e75c9af146ae8b97e3151f6646e", "is_disabled": 0, "type": "electric_scooter", "is_reserved": 0, "fusion_lon": 0.0, "lat": 38.90340066666667, "rental_uris": {"ios": "https://dc.lft.to/lastmile_qr_scan", "android": "https://dc.lft.to/lastmile_qr_scan"}, "bike_id": "6d3d5e75c9af146ae8b97e3151f6646e", "fusion_lat": 0.0}, {"lon": -76.9306025, "name": "5f33fbe1b7b6b867b8f5726f1c82aec2", "is_disabled": 0, "type": "electric_scooter", "is_reserved": 0, "fusion_lon": 0.0, "lat": 38.895622333333336, "rental_uris": {"ios": "https://dc.lft.to/lastmile_qr_scan", "android": "https://dc.lft.to/lastmile_qr_scan"}, "bike_id": "5f33fbe1b7b6b867b8f5726f1c82aec2", "fusion_lat": 0.0}, {"lon": -77.03444533333334, "name": "86fb80dd92bf18889ec4730ca077a37d", "is_disabled": 0, "type": "electric_scooter", "is_reserved": 0, "fusion_lon": 0.0, "lat": 38.902354333333335, "rental_uris": {"ios": "https://dc.lft.to/lastmile_qr_scan", "android": "https://dc.lft.to/lastmile_qr_scan"}, "bike_id": "86fb80dd92bf18889ec4730ca077a37d", "fusion_lat": 0.0}, {"lon": -77.02204283333333, "name": "fef906e008a285176a5373a334ba8734", "is_disabled": 0, "type": "electric_scooter", "is_reserved": 0, "fusion_lon": 0.0, "lat": 38.90556616666667, "rental_uris": {"ios": "https://dc.lft.to/lastmile_qr_scan", "android": "https://dc.lft.to/lastmile_qr_scan"}, "bike_id": "fef906e008a285176a5373a334ba8734", "fusion_lat": 0.0}, {"lon": -77.04244316666667, "name": "c37d8ea38358a57f9cd275a7af16a6a1", "is_disabled": 0, "type": "electric_scooter", "is_reserved": 0, "fusion_lon": 0.0, "lat": 38.92068, "rental_uris": {"ios": "https://dc.lft.to/lastmile_qr_scan", "android": "https://dc.lft.to/lastmile_qr_scan"}, "bike_id": "c37d8ea38358a57f9cd275a7af16a6a1", "fusion_lat": 0.0}, {"lon": -77.017767, "name": "c7a4b5a2ba4c22bab056a54c4e2defc3", "is_disabled": 0, "type": "electric_scooter", "is_reserved": 0, "fusion_lon": 0.0, "lat": 38.9199705, "rental_uris": {"ios": "https://dc.lft.to/lastmile_qr_scan", "android": "https://dc.lft.to/lastmile_qr_scan"}, "bike_id": "c7a4b5a2ba4c22bab056a54c4e2defc3", "fusion_lat": 0.0}, {"lon": -77.0143645, "name": "91c7c834c802e9539ecedd988e292431", "is_disabled": 0, "type": "electric_scooter", "is_reserved": 0, "fusion_lon": 0.0, "lat": 38.919571833333336, "rental_uris": {"ios": "https://dc.lft.to/lastmile_qr_scan", "android": "https://dc.lft.to/lastmile_qr_scan"}, "bike_id": "91c7c834c802e9539ecedd988e292431", "fusion_lat": 0.0}, {"lon": -77.05323683333333, "name": "fc635f6e03b9fa284c146cd159d11cca", "is_disabled": 0, "type": "electric_scooter", "is_reserved": 0, "fusion_lon": 0.0, "lat": 38.90423766666667, "rental_uris": {"ios": "https://dc.lft.to/lastmile_qr_scan", "android": "https://dc.lft.to/lastmile_qr_scan"}, "bike_id": "fc635f6e03b9fa284c146cd159d11cca", "fusion_lat": 0.0}, {"lon": -77.00323783333333, "name": "2093ee8093658000201ab18c1b25f358", "is_disabled": 0, "type": "electric_scooter", "is_reserved": 0, "fusion_lon": 0.0, "lat": 38.9012355, "rental_uris": {"ios": "https://dc.lft.to/lastmile_qr_scan", "android": "https://dc.lft.to/lastmile_qr_scan"}, "bike_id": "2093ee8093658000201ab18c1b25f358", "fusion_lat": 0.0}, {"lon": -77.03603983333333, "name": "09b9ac35715991980e4da14a9405b964", "is_disabled": 0, "type": "electric_scooter", "is_reserved": 0, "fusion_lon": 0.0, "lat": 38.90232783333333, "rental_uris": {"ios": "https://dc.lft.to/lastmile_qr_scan", "android": "https://dc.lft.to/lastmile_qr_scan"}, "bike_id": "09b9ac35715991980e4da14a9405b964", "fusion_lat": 0.0}, {"lon": -76.95834116666667, "name": "592875078f9b581a834f205dd311c1bd", "is_disabled": 0, "type": "electric_bike", "is_reserved": 0, "fusion_lon": 0.0, "lat": 38.8505915, "rental_uris": {"ios": "https://dc.lft.to/lastmile_qr_scan", "android": "https://dc.lft.to/lastmile_qr_scan"}, "bike_id": "592875078f9b581a834f205dd311c1bd", "fusion_lat": 0.0}, {"lon": -77.039254, "name": "98847eeb499a59bc9b701ae638754e34", "is_disabled": 0, "type": "electric_scooter", "is_reserved": 0, "fusion_lon": 0.0, "lat": 38.91635733333333, "rental_uris": {"ios": "https://dc.lft.to/lastmile_qr_scan", "android": "https://dc.lft.to/lastmile_qr_scan"}, "bike_id": "98847eeb499a59bc9b701ae638754e34", "fusion_lat": 0.0}, {"lon": -77.03651316666667, "name": "b22163aaba1c5188e14b04622124b6fa", "is_disabled": 0, "type": "electric_scooter", "is_reserved": 0, "fusion_lon": 0.0, "lat": 38.93347716666667, "rental_uris": {"ios": "https://dc.lft.to/lastmile_qr_scan", "android": "https://dc.lft.to/lastmile_qr_scan"}, "bike_id": "b22163aaba1c5188e14b04622124b6fa", "fusion_lat": 0.0}, {"lon": -76.93739416666666, "name": "65e55fb4d24993d5a56053739fad914f", "is_disabled": 0, "type": "electric_scooter", "is_reserved": 0, "fusion_lon": 0.0, "lat": 38.89006233333333, "rental_uris": {"ios": "https://dc.lft.to/lastmile_qr_scan", "android": "https://dc.lft.to/lastmile_qr_scan"}, "bike_id": "65e55fb4d24993d5a56053739fad914f", "fusion_lat": 0.0}, {"lon": -76.9837995, "name": "7ae939aa79d4fc41d3616421275846e9", "is_disabled": 0, "type": "electric_scooter", "is_reserved": 0, "fusion_lon": 0.0, "lat": 38.860799, "rental_uris": {"ios": "https://dc.lft.to/lastmile_qr_scan", "android": "https://dc.lft.to/lastmile_qr_scan"}, "bike_id": "7ae939aa79d4fc41d3616421275846e9", "fusion_lat": 0.0}, {"lon": -77.0217275, "name": "09d07986266d919f8a617f69142e7aab", "is_disabled": 0, "type": "electric_scooter", "is_reserved": 0, "fusion_lon": 0.0, "lat": 38.899693, "rental_uris": {"ios": "https://dc.lft.to/lastmile_qr_scan", "android": "https://dc.lft.to/lastmile_qr_scan"}, "bike_id": "09d07986266d919f8a617f69142e7aab", "fusion_lat": 0.0}, {"lon": -77.02352, "name": "6907e9de7a0d1c3f373bb488680970a6", "is_disabled": 0, "type": "electric_scooter", "is_reserved": 0, "fusion_lon": 0.0, "lat": 38.91778383333333, "rental_uris": {"ios": "https://dc.lft.to/lastmile_qr_scan", "android": "https://dc.lft.to/lastmile_qr_scan"}, "bike_id": "6907e9de7a0d1c3f373bb488680970a6", "fusion_lat": 0.0}, {"lon": -77.02535066666667, "name": "689bff8d289d80229295dc811b26bf2f", "is_disabled": 0, "type": "electric_scooter", "is_reserved": 0, "fusion_lon": 0.0, "lat": 38.920807333333336, "rental_uris": {"ios": "https://dc.lft.to/lastmile_qr_scan", "android": "https://dc.lft.to/lastmile_qr_scan"}, "bike_id": "689bff8d289d80229295dc811b26bf2f", "fusion_lat": 0.0}, {"lon": -77.05453683333333, "name": "a46a56cc2384dec3b7537292d75dfffc", "is_disabled": 0, "type": "electric_scooter", "is_reserved": 0, "fusion_lon": 0.0, "lat": 38.92898, "rental_uris": {"ios": "https://dc.lft.to/lastmile_qr_scan", "android": "https://dc.lft.to/lastmile_qr_scan"}, "bike_id": "a46a56cc2384dec3b7537292d75dfffc", "fusion_lat": 0.0}, {"lon": -77.00721883333334, "name": "9a14bee875c0d1d6c04da09b7d8c86db", "is_disabled": 0, "type": "electric_scooter", "is_reserved": 0, "fusion_lon": 0.0, "lat": 38.87864616666667, "rental_uris": {"ios": "https://dc.lft.to/lastmile_qr_scan", "android": "https://dc.lft.to/lastmile_qr_scan"}, "bike_id": "9a14bee875c0d1d6c04da09b7d8c86db", "fusion_lat": 0.0}, {"lon": -77.0382935, "name": "822e3ec1a9680c92893e86332376451d", "is_disabled": 0, "type": "electric_scooter", "is_reserved": 0, "fusion_lon": 0.0, "lat": 38.911112833333334, "rental_uris": {"ios": "https://dc.lft.to/lastmile_qr_scan", "android": "https://dc.lft.to/lastmile_qr_scan"}, "bike_id": "822e3ec1a9680c92893e86332376451d", "fusion_lat": 0.0}, {"lon": -77.032639, "name": "1370a7c916ddcb9cab744bdb18c86f9b", "is_disabled": 0, "type": "electric_scooter", "is_reserved": 0, "fusion_lon": 0.0, "lat": 38.93786816666667, "rental_uris": {"ios": "https://dc.lft.to/lastmile_qr_scan", "android": "https://dc.lft.to/lastmile_qr_scan"}, "bike_id": "1370a7c916ddcb9cab744bdb18c86f9b", "fusion_lat": 0.0}, {"lon": -77.032041, "name": "6a34cb4f762b1747e8ad20bf70b24081", "is_disabled": 0, "type": "electric_scooter", "is_reserved": 0, "fusion_lon": 0.0, "lat": 38.91905166666667, "rental_uris": {"ios": "https://dc.lft.to/lastmile_qr_scan", "android": "https://dc.lft.to/lastmile_qr_scan"}, "bike_id": "6a34cb4f762b1747e8ad20bf70b24081", "fusion_lat": 0.0}, {"lon": -77.0181545, "name": "8458d991df43074b5048e02efac16e29", "is_disabled": 0, "type": "electric_scooter", "is_reserved": 0, "fusion_lon": 0.0, "lat": 38.92060566666667, "rental_uris": {"ios": "https://dc.lft.to/lastmile_qr_scan", "android": "https://dc.lft.to/lastmile_qr_scan"}, "bike_id": "8458d991df43074b5048e02efac16e29", "fusion_lat": 0.0}, {"lon": -77.00533033333333, "name": "fa3d47a1815ec623fc794dc3659e4268", "is_disabled": 0, "type": "electric_scooter", "is_reserved": 0, "fusion_lon": 0.0, "lat": 38.8754475, "rental_uris": {"ios": "https://dc.lft.to/lastmile_qr_scan", "android": "https://dc.lft.to/lastmile_qr_scan"}, "bike_id": "fa3d47a1815ec623fc794dc3659e4268", "fusion_lat": 0.0}, {"lon": -77.0173525, "name": "975b9fffe6145c410b410c1614d0adc7", "is_disabled": 0, "type": "electric_scooter", "is_reserved": 0, "fusion_lon": 0.0, "lat": 38.877048333333335, "rental_uris": {"ios": "https://dc.lft.to/lastmile_qr_scan", "android": "https://dc.lft.to/lastmile_qr_scan"}, "bike_id": "975b9fffe6145c410b410c1614d0adc7", "fusion_lat": 0.0}, {"lon": -76.948476, "name": "45bc93cefa94c3313ace6ea1df418746", "is_disabled": 0, "type": "electric_scooter", "is_reserved": 0, "fusion_lon": 0.0, "lat": 38.89606666666667, "rental_uris": {"ios": "https://dc.lft.to/lastmile_qr_scan", "android": "https://dc.lft.to/lastmile_qr_scan"}, "bike_id": "45bc93cefa94c3313ace6ea1df418746", "fusion_lat": 0.0}, {"lon": -77.03141983333333, "name": "26ada9029ad2e66f7b8c9fcc020a62ef", "is_disabled": 0, "type": "electric_scooter", "is_reserved": 0, "fusion_lon": 0.0, "lat": 38.94195283333333, "rental_uris": {"ios": "https://dc.lft.to/lastmile_qr_scan", "android": "https://dc.lft.to/lastmile_qr_scan"}, "bike_id": "26ada9029ad2e66f7b8c9fcc020a62ef", "fusion_lat": 0.0}, {"lon": -77.01737333333334, "name": "bdd59d5dcdef39d759e18c5be21dacbb", "is_disabled": 0, "type": "electric_bike", "is_reserved": 0, "fusion_lon": 0.0, "lat": 38.9751215, "rental_uris": {"ios": "https://dc.lft.to/lastmile_qr_scan", "android": "https://dc.lft.to/lastmile_qr_scan"}, "bike_id": "bdd59d5dcdef39d759e18c5be21dacbb", "fusion_lat": 0.0}, {"lon": -77.00137083333334, "name": "7af84929c17339b14aeb9c99c9ff9b9f", "is_disabled": 0, "type": "electric_bike", "is_reserved": 0, "fusion_lon": 0.0, "lat": 38.99500833333333, "rental_uris": {"ios": "https://dc.lft.to/lastmile_qr_scan", "android": "https://dc.lft.to/lastmile_qr_scan"}, "bike_id": "7af84929c17339b14aeb9c99c9ff9b9f", "fusion_lat": 0.0}, {"lon": -77.02587833333334, "name": "28b83c728102b2b28b2554be4c240d4a", "is_disabled": 0, "type": "electric_scooter", "is_reserved": 0, "fusion_lon": 0.0, "lat": 38.9041755, "rental_uris": {"ios": "https://dc.lft.to/lastmile_qr_scan", "android": "https://dc.lft.to/lastmile_qr_scan"}, "bike_id": "28b83c728102b2b28b2554be4c240d4a", "fusion_lat": 0.0}, {"lon": -76.96261416666667, "name": "4993a65f97af6219fc3acd9fc26d3f42", "is_disabled": 0, "type": "electric_bike", "is_reserved": 0, "fusion_lon": 0.0, "lat": 38.882411833333336, "rental_uris": {"ios": "https://dc.lft.to/lastmile_qr_scan", "android": "https://dc.lft.to/lastmile_qr_scan"}, "bike_id": "4993a65f97af6219fc3acd9fc26d3f42", "fusion_lat": 0.0}, {"lon": -76.98937133333334, "name": "6a86c2ab96c32b738686d01a0c8ff865", "is_disabled": 0, "type": "electric_scooter", "is_reserved": 0, "fusion_lon": 0.0, "lat": 38.900029833333335, "rental_uris": {"ios": "https://dc.lft.to/lastmile_qr_scan", "android": "https://dc.lft.to/lastmile_qr_scan"}, "bike_id": "6a86c2ab96c32b738686d01a0c8ff865", "fusion_lat": 0.0}, {"lon": -77.02795966666666, "name": "9a4211057933b4a0e689b78904a83415", "is_disabled": 0, "type": "electric_scooter", "is_reserved": 0, "fusion_lon": 0.0, "lat": 38.938272, "rental_uris": {"ios": "https://dc.lft.to/lastmile_qr_scan", "android": "https://dc.lft.to/lastmile_qr_scan"}, "bike_id": "9a4211057933b4a0e689b78904a83415", "fusion_lat": 0.0}, {"lon": -77.01200383333334, "name": "80f06a6c74bc8649a3de5d3425078f30", "is_disabled": 0, "type": "electric_scooter", "is_reserved": 0, "fusion_lon": 0.0, "lat": 38.87092283333333, "rental_uris": {"ios": "https://dc.lft.to/lastmile_qr_scan", "android": "https://dc.lft.to/lastmile_qr_scan"}, "bike_id": "80f06a6c74bc8649a3de5d3425078f30", "fusion_lat": 0.0}, {"lon": -76.9851535, "name": "60106a8a3d2d80e530a022f5b0b2dd7b", "is_disabled": 0, "type": "electric_scooter", "is_reserved": 0, "fusion_lon": 0.0, "lat": 38.86001066666667, "rental_uris": {"ios": "https://dc.lft.to/lastmile_qr_scan", "android": "https://dc.lft.to/lastmile_qr_scan"}, "bike_id": "60106a8a3d2d80e530a022f5b0b2dd7b", "fusion_lat": 0.0}, {"lon": -77.02129716666667, "name": "17fb96d48596939e6366b914f74a79e8", "is_disabled": 0, "type": "electric_scooter", "is_reserved": 0, "fusion_lon": 0.0, "lat": 38.92417283333333, "rental_uris": {"ios": "https://dc.lft.to/lastmile_qr_scan", "android": "https://dc.lft.to/lastmile_qr_scan"}, "bike_id": "17fb96d48596939e6366b914f74a79e8", "fusion_lat": 0.0}, {"lon": -77.03469866666667, "name": "fb146bf5e6bb8fcb380368cd341946f7", "is_disabled": 0, "type": "electric_scooter", "is_reserved": 0, "fusion_lon": 0.0, "lat": 38.92979116666667, "rental_uris": {"ios": "https://dc.lft.to/lastmile_qr_scan", "android": "https://dc.lft.to/lastmile_qr_scan"}, "bike_id": "fb146bf5e6bb8fcb380368cd341946f7", "fusion_lat": 0.0}, {"lon": -77.034394, "name": "b8c3ce8bbe7efb0d182e6b58a05dc460", "is_disabled": 0, "type": "electric_scooter", "is_reserved": 0, "fusion_lon": 0.0, "lat": 38.9215885, "rental_uris": {"ios": "https://dc.lft.to/lastmile_qr_scan", "android": "https://dc.lft.to/lastmile_qr_scan"}, "bike_id": "b8c3ce8bbe7efb0d182e6b58a05dc460", "fusion_lat": 0.0}, {"lon": -77.03408033333334, "name": "760241e97420cfa67594e66bd1ebc308", "is_disabled": 0, "type": "electric_scooter", "is_reserved": 0, "fusion_lon": 0.0, "lat": 38.923433333333335, "rental_uris": {"ios": "https://dc.lft.to/lastmile_qr_scan", "android": "https://dc.lft.to/lastmile_qr_scan"}, "bike_id": "760241e97420cfa67594e66bd1ebc308", "fusion_lat": 0.0}, {"lon": -77.12885283333334, "name": "688547c23343385c2e0ba297c3f18cf3", "is_disabled": 0, "type": "electric_bike", "is_reserved": 0, "fusion_lon": 0.0, "lat": 38.9060705, "rental_uris": {"ios": "https://dc.lft.to/lastmile_qr_scan", "android": "https://dc.lft.to/lastmile_qr_scan"}, "bike_id": "688547c23343385c2e0ba297c3f18cf3", "fusion_lat": 0.0}, {"lon": -77.03197633333333, "name": "64b909d26da903b23fb48d87517e6459", "is_disabled": 0, "type": "electric_scooter", "is_reserved": 0, "fusion_lon": 0.0, "lat": 38.9161475, "rental_uris": {"ios": "https://dc.lft.to/lastmile_qr_scan", "android": "https://dc.lft.to/lastmile_qr_scan"}, "bike_id": "64b909d26da903b23fb48d87517e6459", "fusion_lat": 0.0}, {"lon": -77.005692, "name": "64b32c43e7692c227fa9f2b25a997ee2", "is_disabled": 0, "type": "electric_scooter", "is_reserved": 0, "fusion_lon": 0.0, "lat": 38.906324833333336, "rental_uris": {"ios": "https://dc.lft.to/lastmile_qr_scan", "android": "https://dc.lft.to/lastmile_qr_scan"}, "bike_id": "64b32c43e7692c227fa9f2b25a997ee2", "fusion_lat": 0.0}, {"lon": -76.97680266666667, "name": "821709b30913a8c68762352dd467465b", "is_disabled": 0, "type": "electric_scooter", "is_reserved": 0, "fusion_lon": 0.0, "lat": 38.900922, "rental_uris": {"ios": "https://dc.lft.to/lastmile_qr_scan", "android": "https://dc.lft.to/lastmile_qr_scan"}, "bike_id": "821709b30913a8c68762352dd467465b", "fusion_lat": 0.0}, {"lon": -77.009101, "name": "8f344d197c6042a9f9962d334c2b74b6", "is_disabled": 0, "type": "electric_scooter", "is_reserved": 0, "fusion_lon": 0.0, "lat": 38.895469166666665, "rental_uris": {"ios": "https://dc.lft.to/lastmile_qr_scan", "android": "https://dc.lft.to/lastmile_qr_scan"}, "bike_id": "8f344d197c6042a9f9962d334c2b74b6", "fusion_lat": 0.0}, {"lon": -77.00128983333333, "name": "bd6e3e896ca7ee94010db097a59741b0", "is_disabled": 0, "type": "electric_scooter", "is_reserved": 0, "fusion_lon": 0.0, "lat": 38.87380666666667, "rental_uris": {"ios": "https://dc.lft.to/lastmile_qr_scan", "android": "https://dc.lft.to/lastmile_qr_scan"}, "bike_id": "bd6e3e896ca7ee94010db097a59741b0", "fusion_lat": 0.0}, {"lon": -77.03250483333333, "name": "448cb7f7ccb1b355dd2219e7110bc502", "is_disabled": 0, "type": "electric_scooter", "is_reserved": 0, "fusion_lon": 0.0, "lat": 38.92098266666667, "rental_uris": {"ios": "https://dc.lft.to/lastmile_qr_scan", "android": "https://dc.lft.to/lastmile_qr_scan"}, "bike_id": "448cb7f7ccb1b355dd2219e7110bc502", "fusion_lat": 0.0}, {"lon": -77.01716583333334, "name": "783784e8dffda44624704c2605dd0dbf", "is_disabled": 0, "type": "electric_scooter", "is_reserved": 0, "fusion_lon": 0.0, "lat": 38.9072775, "rental_uris": {"ios": "https://dc.lft.to/lastmile_qr_scan", "android": "https://dc.lft.to/lastmile_qr_scan"}, "bike_id": "783784e8dffda44624704c2605dd0dbf", "fusion_lat": 0.0}, {"lon": -77.04251416666666, "name": "af85c853cc9adf7c33f55e34084eb6bd", "is_disabled": 0, "type": "electric_scooter", "is_reserved": 0, "fusion_lon": 0.0, "lat": 38.92051383333333, "rental_uris": {"ios": "https://dc.lft.to/lastmile_qr_scan", "android": "https://dc.lft.to/lastmile_qr_scan"}, "bike_id": "af85c853cc9adf7c33f55e34084eb6bd", "fusion_lat": 0.0}, {"lon": -76.989268, "name": "86105d596e2148cf12a30a1e9b198b39", "is_disabled": 0, "type": "electric_scooter", "is_reserved": 0, "fusion_lon": 0.0, "lat": 38.88285416666667, "rental_uris": {"ios": "https://dc.lft.to/lastmile_qr_scan", "android": "https://dc.lft.to/lastmile_qr_scan"}, "bike_id": "86105d596e2148cf12a30a1e9b198b39", "fusion_lat": 0.0}, {"lon": -77.03151533333333, "name": "ef6637a20fee49b7fe07d3d850dfa76a", "is_disabled": 0, "type": "electric_scooter", "is_reserved": 0, "fusion_lon": 0.0, "lat": 38.92783516666667, "rental_uris": {"ios": "https://dc.lft.to/lastmile_qr_scan", "android": "https://dc.lft.to/lastmile_qr_scan"}, "bike_id": "ef6637a20fee49b7fe07d3d850dfa76a", "fusion_lat": 0.0}, {"lon": -77.05312716666667, "name": "fd3e73767ca4f97f6ead1b6f99e0e7b8", "is_disabled": 0, "type": "electric_scooter", "is_reserved": 0, "fusion_lon": 0.0, "lat": 38.901537, "rental_uris": {"ios": "https://dc.lft.to/lastmile_qr_scan", "android": "https://dc.lft.to/lastmile_qr_scan"}, "bike_id": "fd3e73767ca4f97f6ead1b6f99e0e7b8", "fusion_lat": 0.0}, {"lon": -77.03183066666666, "name": "d62eb6320897e3b2d6fcc28cb647eeca", "is_disabled": 0, "type": "electric_scooter", "is_reserved": 0, "fusion_lon": 0.0, "lat": 38.919442, "rental_uris": {"ios": "https://dc.lft.to/lastmile_qr_scan", "android": "https://dc.lft.to/lastmile_qr_scan"}, "bike_id": "d62eb6320897e3b2d6fcc28cb647eeca", "fusion_lat": 0.0}, {"lon": -77.01985166666667, "name": "e3cd697d3ce7d2a8fe2f023ac5cf8093", "is_disabled": 0, "type": "electric_scooter", "is_reserved": 0, "fusion_lon": 0.0, "lat": 38.931876833333334, "rental_uris": {"ios": "https://dc.lft.to/lastmile_qr_scan", "android": "https://dc.lft.to/lastmile_qr_scan"}, "bike_id": "e3cd697d3ce7d2a8fe2f023ac5cf8093", "fusion_lat": 0.0}, {"lon": -77.01973966666667, "name": "b3d782f773b86bd6833055e3cddd5160", "is_disabled": 0, "type": "electric_scooter", "is_reserved": 0, "fusion_lon": 0.0, "lat": 38.876355, "rental_uris": {"ios": "https://dc.lft.to/lastmile_qr_scan", "android": "https://dc.lft.to/lastmile_qr_scan"}, "bike_id": "b3d782f773b86bd6833055e3cddd5160", "fusion_lat": 0.0}, {"lon": -76.99020266666666, "name": "29a432ec643ec0569ab9e9511ac59445", "is_disabled": 0, "type": "electric_scooter", "is_reserved": 0, "fusion_lon": 0.0, "lat": 38.86515716666667, "rental_uris": {"ios": "https://dc.lft.to/lastmile_qr_scan", "android": "https://dc.lft.to/lastmile_qr_scan"}, "bike_id": "29a432ec643ec0569ab9e9511ac59445", "fusion_lat": 0.0}, {"lon": -77.02410433333333, "name": "d3cd180561391842e9ea84bbaa55507a", "is_disabled": 0, "type": "electric_scooter", "is_reserved": 0, "fusion_lon": 0.0, "lat": 38.9096105, "rental_uris": {"ios": "https://dc.lft.to/lastmile_qr_scan", "android": "https://dc.lft.to/lastmile_qr_scan"}, "bike_id": "d3cd180561391842e9ea84bbaa55507a", "fusion_lat": 0.0}, {"lon": -76.9953135, "name": "e85d6f52ea9fa2844cf78344956ee86b", "is_disabled": 0, "type": "electric_scooter", "is_reserved": 0, "fusion_lon": 0.0, "lat": 38.887641, "rental_uris": {"ios": "https://dc.lft.to/lastmile_qr_scan", "android": "https://dc.lft.to/lastmile_qr_scan"}, "bike_id": "e85d6f52ea9fa2844cf78344956ee86b", "fusion_lat": 0.0}, {"lon": -77.0227365, "name": "cac4b09d7fbb2d432f769d97213626bf", "is_disabled": 0, "type": "electric_scooter", "is_reserved": 0, "fusion_lon": 0.0, "lat": 38.916415, "rental_uris": {"ios": "https://dc.lft.to/lastmile_qr_scan", "android": "https://dc.lft.to/lastmile_qr_scan"}, "bike_id": "cac4b09d7fbb2d432f769d97213626bf", "fusion_lat": 0.0}, {"lon": -76.998618, "name": "5a05d9d10c0941ad0612e2eac34e8412", "is_disabled": 0, "type": "electric_scooter", "is_reserved": 0, "fusion_lon": 0.0, "lat": 38.90257116666667, "rental_uris": {"ios": "https://dc.lft.to/lastmile_qr_scan", "android": "https://dc.lft.to/lastmile_qr_scan"}, "bike_id": "5a05d9d10c0941ad0612e2eac34e8412", "fusion_lat": 0.0}, {"lon": -77.0181465, "name": "e90cbc5101d9a7516f695dc27475eb4a", "is_disabled": 0, "type": "electric_scooter", "is_reserved": 0, "fusion_lon": 0.0, "lat": 38.921375166666664, "rental_uris": {"ios": "https://dc.lft.to/lastmile_qr_scan", "android": "https://dc.lft.to/lastmile_qr_scan"}, "bike_id": "e90cbc5101d9a7516f695dc27475eb4a", "fusion_lat": 0.0}, {"lon": -77.00059333333333, "name": "7bda626ffdf3231ea934f7ce19d12b60", "is_disabled": 0, "type": "electric_scooter", "is_reserved": 0, "fusion_lon": 0.0, "lat": 38.887733, "rental_uris": {"ios": "https://dc.lft.to/lastmile_qr_scan", "android": "https://dc.lft.to/lastmile_qr_scan"}, "bike_id": "7bda626ffdf3231ea934f7ce19d12b60", "fusion_lat": 0.0}, {"lon": -77.00169, "name": "91cab3c770f9deadb525ebd32a4327c0", "is_disabled": 0, "type": "electric_scooter", "is_reserved": 0, "fusion_lon": 0.0, "lat": 38.9406735, "rental_uris": {"ios": "https://dc.lft.to/lastmile_qr_scan", "android": "https://dc.lft.to/lastmile_qr_scan"}, "bike_id": "91cab3c770f9deadb525ebd32a4327c0", "fusion_lat": 0.0}, {"lon": -76.984204, "name": "4f564a50989253b9188e536886cf0122", "is_disabled": 0, "type": "electric_bike", "is_reserved": 0, "fusion_lon": 0.0, "lat": 38.910000833333335, "rental_uris": {"ios": "https://dc.lft.to/lastmile_qr_scan", "android": "https://dc.lft.to/lastmile_qr_scan"}, "bike_id": "4f564a50989253b9188e536886cf0122", "fusion_lat": 0.0}, {"lon": -77.03043533333333, "name": "b96e0969c30d4df596e813f0faebfa2b", "is_disabled": 0, "type": "electric_scooter", "is_reserved": 0, "fusion_lon": 0.0, "lat": 38.88419916666667, "rental_uris": {"ios": "https://dc.lft.to/lastmile_qr_scan", "android": "https://dc.lft.to/lastmile_qr_scan"}, "bike_id": "b96e0969c30d4df596e813f0faebfa2b", "fusion_lat": 0.0}, {"lon": -77.02130216666667, "name": "7ca5b6b4af733c821e1d0e4787e5c072", "is_disabled": 0, "type": "electric_scooter", "is_reserved": 0, "fusion_lon": 0.0, "lat": 38.9239455, "rental_uris": {"ios": "https://dc.lft.to/lastmile_qr_scan", "android": "https://dc.lft.to/lastmile_qr_scan"}, "bike_id": "7ca5b6b4af733c821e1d0e4787e5c072", "fusion_lat": 0.0}, {"lon": -77.01232883333333, "name": "ed02c1446edd7a03c386b5ea3b73f0a0", "is_disabled": 0, "type": "electric_scooter", "is_reserved": 0, "fusion_lon": 0.0, "lat": 38.90012483333334, "rental_uris": {"ios": "https://dc.lft.to/lastmile_qr_scan", "android": "https://dc.lft.to/lastmile_qr_scan"}, "bike_id": "ed02c1446edd7a03c386b5ea3b73f0a0", "fusion_lat": 0.0}, {"lon": -77.02158466666667, "name": "0c011728036ad620f8b9243a92e9b900", "is_disabled": 0, "type": "electric_scooter", "is_reserved": 0, "fusion_lon": 0.0, "lat": 38.926118833333334, "rental_uris": {"ios": "https://dc.lft.to/lastmile_qr_scan", "android": "https://dc.lft.to/lastmile_qr_scan"}, "bike_id": "0c011728036ad620f8b9243a92e9b900", "fusion_lat": 0.0}, {"lon": -76.98195366666667, "name": "070273cb6ee06d7c5e0141ca67949b97", "is_disabled": 0, "type": "electric_bike", "is_reserved": 0, "fusion_lon": 0.0, "lat": 38.9850195, "rental_uris": {"ios": "https://dc.lft.to/lastmile_qr_scan", "android": "https://dc.lft.to/lastmile_qr_scan"}, "bike_id": "070273cb6ee06d7c5e0141ca67949b97", "fusion_lat": 0.0}, {"lon": -77.02031666666667, "name": "46bd6b830104b69ad605f94018f974b7", "is_disabled": 0, "type": "electric_scooter", "is_reserved": 0, "fusion_lon": 0.0, "lat": 38.924369166666665, "rental_uris": {"ios": "https://dc.lft.to/lastmile_qr_scan", "android": "https://dc.lft.to/lastmile_qr_scan"}, "bike_id": "46bd6b830104b69ad605f94018f974b7", "fusion_lat": 0.0}, {"lon": -77.03517083333334, "name": "a31c900b0418b27793d4c87b529f7946", "is_disabled": 0, "type": "electric_scooter", "is_reserved": 0, "fusion_lon": 0.0, "lat": 38.92243216666667, "rental_uris": {"ios": "https://dc.lft.to/lastmile_qr_scan", "android": "https://dc.lft.to/lastmile_qr_scan"}, "bike_id": "a31c900b0418b27793d4c87b529f7946", "fusion_lat": 0.0}, {"lon": -77.02196433333333, "name": "05f81880a5ea29472c9552a9c782fef9", "is_disabled": 0, "type": "electric_scooter", "is_reserved": 0, "fusion_lon": 0.0, "lat": 38.91118983333333, "rental_uris": {"ios": "https://dc.lft.to/lastmile_qr_scan", "android": "https://dc.lft.to/lastmile_qr_scan"}, "bike_id": "05f81880a5ea29472c9552a9c782fef9", "fusion_lat": 0.0}, {"lon": -77.02263433333333, "name": "84ddfc7032496b356dc8eaf337a7b442", "is_disabled": 0, "type": "electric_scooter", "is_reserved": 0, "fusion_lon": 0.0, "lat": 38.9273955, "rental_uris": {"ios": "https://dc.lft.to/lastmile_qr_scan", "android": "https://dc.lft.to/lastmile_qr_scan"}, "bike_id": "84ddfc7032496b356dc8eaf337a7b442", "fusion_lat": 0.0}, {"lon": -77.00145283333333, "name": "4d4d9e72abce8031123315186e727c90", "is_disabled": 0, "type": "electric_scooter", "is_reserved": 0, "fusion_lon": 0.0, "lat": 38.894774166666664, "rental_uris": {"ios": "https://dc.lft.to/lastmile_qr_scan", "android": "https://dc.lft.to/lastmile_qr_scan"}, "bike_id": "4d4d9e72abce8031123315186e727c90", "fusion_lat": 0.0}, {"lon": -77.0415525, "name": "048a092740ea7400df244becc68ff227", "is_disabled": 0, "type": "electric_scooter", "is_reserved": 0, "fusion_lon": 0.0, "lat": 38.91596966666667, "rental_uris": {"ios": "https://dc.lft.to/lastmile_qr_scan", "android": "https://dc.lft.to/lastmile_qr_scan"}, "bike_id": "048a092740ea7400df244becc68ff227", "fusion_lat": 0.0}, {"lon": -77.0438285, "name": "7e4d49d0ae93defa32251cea2796a28e", "is_disabled": 0, "type": "electric_scooter", "is_reserved": 0, "fusion_lon": 0.0, "lat": 38.92065266666667, "rental_uris": {"ios": "https://dc.lft.to/lastmile_qr_scan", "android": "https://dc.lft.to/lastmile_qr_scan"}, "bike_id": "7e4d49d0ae93defa32251cea2796a28e", "fusion_lat": 0.0}, {"lon": -77.021817, "name": "72a83da31f10935516054b9bddb2a825", "is_disabled": 0, "type": "electric_scooter", "is_reserved": 0, "fusion_lon": 0.0, "lat": 38.90574383333333, "rental_uris": {"ios": "https://dc.lft.to/lastmile_qr_scan", "android": "https://dc.lft.to/lastmile_qr_scan"}, "bike_id": "72a83da31f10935516054b9bddb2a825", "fusion_lat": 0.0}, {"lon": -77.02586583333333, "name": "c09d19505480d4e50b6af19c87d33eeb", "is_disabled": 0, "type": "electric_scooter", "is_reserved": 0, "fusion_lon": 0.0, "lat": 38.883675, "rental_uris": {"ios": "https://dc.lft.to/lastmile_qr_scan", "android": "https://dc.lft.to/lastmile_qr_scan"}, "bike_id": "c09d19505480d4e50b6af19c87d33eeb", "fusion_lat": 0.0}, {"lon": -77.02804816666666, "name": "6b089d36fbac7ae7ce33f5abc45a3cbd", "is_disabled": 0, "type": "electric_scooter", "is_reserved": 0, "fusion_lon": 0.0, "lat": 38.92776083333333, "rental_uris": {"ios": "https://dc.lft.to/lastmile_qr_scan", "android": "https://dc.lft.to/lastmile_qr_scan"}, "bike_id": "6b089d36fbac7ae7ce33f5abc45a3cbd", "fusion_lat": 0.0}, {"lon": -77.05871416666666, "name": "b6af7c4254b1e78e4da4da0cdd5c84cc", "is_disabled": 0, "type": "electric_bike", "is_reserved": 0, "fusion_lon": 0.0, "lat": 38.827080333333335, "rental_uris": {"ios": "https://dc.lft.to/lastmile_qr_scan", "android": "https://dc.lft.to/lastmile_qr_scan"}, "bike_id": "b6af7c4254b1e78e4da4da0cdd5c84cc", "fusion_lat": 0.0}, {"lon": -77.0373765, "name": "606ac36142c1efd18aa6865ab0251708", "is_disabled": 0, "type": "electric_scooter", "is_reserved": 0, "fusion_lon": 0.0, "lat": 38.92858866666667, "rental_uris": {"ios": "https://dc.lft.to/lastmile_qr_scan", "android": "https://dc.lft.to/lastmile_qr_scan"}, "bike_id": "606ac36142c1efd18aa6865ab0251708", "fusion_lat": 0.0}, {"lon": -76.992224, "name": "6f4fbaf461ee8a1234d07671f65f2233", "is_disabled": 0, "type": "electric_scooter", "is_reserved": 0, "fusion_lon": 0.0, "lat": 38.89738633333333, "rental_uris": {"ios": "https://dc.lft.to/lastmile_qr_scan", "android": "https://dc.lft.to/lastmile_qr_scan"}, "bike_id": "6f4fbaf461ee8a1234d07671f65f2233", "fusion_lat": 0.0}, {"lon": -76.99610483333333, "name": "c32d639a7d05f17bde057696705cdb85", "is_disabled": 0, "type": "electric_scooter", "is_reserved": 0, "fusion_lon": 0.0, "lat": 38.90139216666667, "rental_uris": {"ios": "https://dc.lft.to/lastmile_qr_scan", "android": "https://dc.lft.to/lastmile_qr_scan"}, "bike_id": "c32d639a7d05f17bde057696705cdb85", "fusion_lat": 0.0}, {"lon": -77.02395916666667, "name": "b4e868c08d4bbcfd6da21dbdd30aaccf", "is_disabled": 0, "type": "electric_scooter", "is_reserved": 0, "fusion_lon": 0.0, "lat": 38.92079416666667, "rental_uris": {"ios": "https://dc.lft.to/lastmile_qr_scan", "android": "https://dc.lft.to/lastmile_qr_scan"}, "bike_id": "b4e868c08d4bbcfd6da21dbdd30aaccf", "fusion_lat": 0.0}, {"lon": -77.03986516666667, "name": "45b60979f71aac0886fc69e316ee2ee5", "is_disabled": 0, "type": "electric_bike", "is_reserved": 0, "fusion_lon": 0.0, "lat": 38.933350833333336, "rental_uris": {"ios": "https://dc.lft.to/lastmile_qr_scan", "android": "https://dc.lft.to/lastmile_qr_scan"}, "bike_id": "45b60979f71aac0886fc69e316ee2ee5", "fusion_lat": 0.0}, {"lon": -77.02693766666667, "name": "da6eab2d3f30165d8bda7e75cb302319", "is_disabled": 0, "type": "electric_scooter", "is_reserved": 0, "fusion_lon": 0.0, "lat": 38.905941, "rental_uris": {"ios": "https://dc.lft.to/lastmile_qr_scan", "android": "https://dc.lft.to/lastmile_qr_scan"}, "bike_id": "da6eab2d3f30165d8bda7e75cb302319", "fusion_lat": 0.0}, {"lon": -77.06873866666666, "name": "c87560cc139dc7c7e9d560ad80a1546a", "is_disabled": 0, "type": "electric_scooter", "is_reserved": 0, "fusion_lon": 0.0, "lat": 38.90516816666667, "rental_uris": {"ios": "https://dc.lft.to/lastmile_qr_scan", "android": "https://dc.lft.to/lastmile_qr_scan"}, "bike_id": "c87560cc139dc7c7e9d560ad80a1546a", "fusion_lat": 0.0}, {"lon": -77.03189716666667, "name": "482c8ceea740d45df8077d2a1cf62c6d", "is_disabled": 0, "type": "electric_scooter", "is_reserved": 0, "fusion_lon": 0.0, "lat": 38.909995333333335, "rental_uris": {"ios": "https://dc.lft.to/lastmile_qr_scan", "android": "https://dc.lft.to/lastmile_qr_scan"}, "bike_id": "482c8ceea740d45df8077d2a1cf62c6d", "fusion_lat": 0.0}, {"lon": -77.03576216666667, "name": "8da71ef76ba6c095c92fef37fc924cae", "is_disabled": 0, "type": "electric_scooter", "is_reserved": 0, "fusion_lon": 0.0, "lat": 38.919157166666665, "rental_uris": {"ios": "https://dc.lft.to/lastmile_qr_scan", "android": "https://dc.lft.to/lastmile_qr_scan"}, "bike_id": "8da71ef76ba6c095c92fef37fc924cae", "fusion_lat": 0.0}, {"lon": -77.02224266666667, "name": "bbafae4dcf4c50b471e61c2a6f9f1cff", "is_disabled": 0, "type": "electric_scooter", "is_reserved": 0, "fusion_lon": 0.0, "lat": 38.899604333333336, "rental_uris": {"ios": "https://dc.lft.to/lastmile_qr_scan", "android": "https://dc.lft.to/lastmile_qr_scan"}, "bike_id": "bbafae4dcf4c50b471e61c2a6f9f1cff", "fusion_lat": 0.0}, {"lon": -77.02160816666667, "name": "c4d64f931164a476d06a13f04be2d5f4", "is_disabled": 0, "type": "electric_scooter", "is_reserved": 0, "fusion_lon": 0.0, "lat": 38.930634, "rental_uris": {"ios": "https://dc.lft.to/lastmile_qr_scan", "android": "https://dc.lft.to/lastmile_qr_scan"}, "bike_id": "c4d64f931164a476d06a13f04be2d5f4", "fusion_lat": 0.0}, {"lon": -77.028124, "name": "09711444a662f61b48db4233c5a2c5a8", "is_disabled": 0, "type": "electric_scooter", "is_reserved": 0, "fusion_lon": 0.0, "lat": 38.9223075, "rental_uris": {"ios": "https://dc.lft.to/lastmile_qr_scan", "android": "https://dc.lft.to/lastmile_qr_scan"}, "bike_id": "09711444a662f61b48db4233c5a2c5a8", "fusion_lat": 0.0}, {"lon": -77.02694283333334, "name": "14af16ad1df4825cf6b3a00f19eacc2f", "is_disabled": 0, "type": "electric_scooter", "is_reserved": 0, "fusion_lon": 0.0, "lat": 38.898570166666666, "rental_uris": {"ios": "https://dc.lft.to/lastmile_qr_scan", "android": "https://dc.lft.to/lastmile_qr_scan"}, "bike_id": "14af16ad1df4825cf6b3a00f19eacc2f", "fusion_lat": 0.0}, {"lon": -77.0319005, "name": "12779eb48323f2f4e2f4e5ca8a1c8bdd", "is_disabled": 0, "type": "electric_scooter", "is_reserved": 0, "fusion_lon": 0.0, "lat": 38.892373666666664, "rental_uris": {"ios": "https://dc.lft.to/lastmile_qr_scan", "android": "https://dc.lft.to/lastmile_qr_scan"}, "bike_id": "12779eb48323f2f4e2f4e5ca8a1c8bdd", "fusion_lat": 0.0}, {"lon": -76.9320735, "name": "dabdcdc93dafd87453a68d059a51090e", "is_disabled": 0, "type": "electric_scooter", "is_reserved": 0, "fusion_lon": 0.0, "lat": 38.89849933333333, "rental_uris": {"ios": "https://dc.lft.to/lastmile_qr_scan", "android": "https://dc.lft.to/lastmile_qr_scan"}, "bike_id": "dabdcdc93dafd87453a68d059a51090e", "fusion_lat": 0.0}, {"lon": -76.9536475, "name": "7a85b9406358d54f34937b802206bcee", "is_disabled": 0, "type": "electric_scooter", "is_reserved": 0, "fusion_lon": 0.0, "lat": 38.889626666666665, "rental_uris": {"ios": "https://dc.lft.to/lastmile_qr_scan", "android": "https://dc.lft.to/lastmile_qr_scan"}, "bike_id": "7a85b9406358d54f34937b802206bcee", "fusion_lat": 0.0}, {"lon": -76.9902505, "name": "8a55f42f09edbff1e6555c7a1368bd07", "is_disabled": 0, "type": "electric_scooter", "is_reserved": 0, "fusion_lon": 0.0, "lat": 38.8652295, "rental_uris": {"ios": "https://dc.lft.to/lastmile_qr_scan", "android": "https://dc.lft.to/lastmile_qr_scan"}, "bike_id": "8a55f42f09edbff1e6555c7a1368bd07", "fusion_lat": 0.0}, {"lon": -76.93138616666667, "name": "9b1b6086b016b8c00b6fdd9782be5ebd", "is_disabled": 0, "type": "electric_scooter", "is_reserved": 0, "fusion_lon": 0.0, "lat": 38.8833885, "rental_uris": {"ios": "https://dc.lft.to/lastmile_qr_scan", "android": "https://dc.lft.to/lastmile_qr_scan"}, "bike_id": "9b1b6086b016b8c00b6fdd9782be5ebd", "fusion_lat": 0.0}, {"lon": -77.031891, "name": "2fb6c7a9ca9cc5e29221f4fc5e8e0d1f", "is_disabled": 0, "type": "electric_scooter", "is_reserved": 0, "fusion_lon": 0.0, "lat": 38.9142, "rental_uris": {"ios": "https://dc.lft.to/lastmile_qr_scan", "android": "https://dc.lft.to/lastmile_qr_scan"}, "bike_id": "2fb6c7a9ca9cc5e29221f4fc5e8e0d1f", "fusion_lat": 0.0}, {"lon": -77.0592545, "name": "8b06d2db5a3e460fe80c74682a985022", "is_disabled": 0, "type": "electric_scooter", "is_reserved": 0, "fusion_lon": 0.0, "lat": 38.942976333333334, "rental_uris": {"ios": "https://dc.lft.to/lastmile_qr_scan", "android": "https://dc.lft.to/lastmile_qr_scan"}, "bike_id": "8b06d2db5a3e460fe80c74682a985022", "fusion_lat": 0.0}, {"lon": -77.036573, "name": "4af3266d6b1e3e5de4654dc8ac070a48", "is_disabled": 0, "type": "electric_scooter", "is_reserved": 0, "fusion_lon": 0.0, "lat": 38.92330316666666, "rental_uris": {"ios": "https://dc.lft.to/lastmile_qr_scan", "android": "https://dc.lft.to/lastmile_qr_scan"}, "bike_id": "4af3266d6b1e3e5de4654dc8ac070a48", "fusion_lat": 0.0}, {"lon": -77.03209616666666, "name": "99044f9d2ed72765eb7a8287ed0e843d", "is_disabled": 0, "type": "electric_scooter", "is_reserved": 0, "fusion_lon": 0.0, "lat": 38.91734183333333, "rental_uris": {"ios": "https://dc.lft.to/lastmile_qr_scan", "android": "https://dc.lft.to/lastmile_qr_scan"}, "bike_id": "99044f9d2ed72765eb7a8287ed0e843d", "fusion_lat": 0.0}, {"lon": -76.99833516666666, "name": "0f14040df23085fd7b4071e769097f5d", "is_disabled": 0, "type": "electric_scooter", "is_reserved": 0, "fusion_lon": 0.0, "lat": 38.9071265, "rental_uris": {"ios": "https://dc.lft.to/lastmile_qr_scan", "android": "https://dc.lft.to/lastmile_qr_scan"}, "bike_id": "0f14040df23085fd7b4071e769097f5d", "fusion_lat": 0.0}, {"lon": -77.01208216666667, "name": "9c1bef3c2d9d6c7d375bfa3694e47764", "is_disabled": 0, "type": "electric_scooter", "is_reserved": 0, "fusion_lon": 0.0, "lat": 38.918241333333334, "rental_uris": {"ios": "https://dc.lft.to/lastmile_qr_scan", "android": "https://dc.lft.to/lastmile_qr_scan"}, "bike_id": "9c1bef3c2d9d6c7d375bfa3694e47764", "fusion_lat": 0.0}, {"lon": -77.04122816666667, "name": "49659e8ab9bc22c66808dcb28416ca08", "is_disabled": 0, "type": "electric_scooter", "is_reserved": 0, "fusion_lon": 0.0, "lat": 38.93221416666667, "rental_uris": {"ios": "https://dc.lft.to/lastmile_qr_scan", "android": "https://dc.lft.to/lastmile_qr_scan"}, "bike_id": "49659e8ab9bc22c66808dcb28416ca08", "fusion_lat": 0.0}, {"lon": -77.03190583333334, "name": "6a1705d2cae508a9cac77f8ab8a8b608", "is_disabled": 0, "type": "electric_scooter", "is_reserved": 0, "fusion_lon": 0.0, "lat": 38.908009666666665, "rental_uris": {"ios": "https://dc.lft.to/lastmile_qr_scan", "android": "https://dc.lft.to/lastmile_qr_scan"}, "bike_id": "6a1705d2cae508a9cac77f8ab8a8b608", "fusion_lat": 0.0}, {"lon": -77.0742705, "name": "c3df7fa84355398be943e73998c4e7f3", "is_disabled": 0, "type": "electric_scooter", "is_reserved": 0, "fusion_lon": 0.0, "lat": 38.93584666666667, "rental_uris": {"ios": "https://dc.lft.to/lastmile_qr_scan", "android": "https://dc.lft.to/lastmile_qr_scan"}, "bike_id": "c3df7fa84355398be943e73998c4e7f3", "fusion_lat": 0.0}, {"lon": -77.032008, "name": "1c8ca9daa4eb719e02f5d8f5a6f62326", "is_disabled": 0, "type": "electric_scooter", "is_reserved": 0, "fusion_lon": 0.0, "lat": 38.91810683333333, "rental_uris": {"ios": "https://dc.lft.to/lastmile_qr_scan", "android": "https://dc.lft.to/lastmile_qr_scan"}, "bike_id": "1c8ca9daa4eb719e02f5d8f5a6f62326", "fusion_lat": 0.0}, {"lon": -77.05422816666666, "name": "f2e619e331dd2861fb410914a2fbe903", "is_disabled": 0, "type": "electric_scooter", "is_reserved": 0, "fusion_lon": 0.0, "lat": 38.9852, "rental_uris": {"ios": "https://dc.lft.to/lastmile_qr_scan", "android": "https://dc.lft.to/lastmile_qr_scan"}, "bike_id": "f2e619e331dd2861fb410914a2fbe903", "fusion_lat": 0.0}, {"lon": -76.986251, "name": "796af2b76281b8400e27317248e7af33", "is_disabled": 0, "type": "electric_scooter", "is_reserved": 0, "fusion_lon": 0.0, "lat": 38.905879666666664, "rental_uris": {"ios": "https://dc.lft.to/lastmile_qr_scan", "android": "https://dc.lft.to/lastmile_qr_scan"}, "bike_id": "796af2b76281b8400e27317248e7af33", "fusion_lat": 0.0}, {"lon": -77.04308516666667, "name": "4208305f9c1efab2f3835edb99d40527", "is_disabled": 0, "type": "electric_bike", "is_reserved": 0, "fusion_lon": 0.0, "lat": 39.03423033333333, "rental_uris": {"ios": "https://dc.lft.to/lastmile_qr_scan", "android": "https://dc.lft.to/lastmile_qr_scan"}, "bike_id": "4208305f9c1efab2f3835edb99d40527", "fusion_lat": 0.0}, {"lon": -77.01771233333334, "name": "61e5e3d0224b3461d39850faae34b5f4", "is_disabled": 0, "type": "electric_scooter", "is_reserved": 0, "fusion_lon": 0.0, "lat": 38.88324466666667, "rental_uris": {"ios": "https://dc.lft.to/lastmile_qr_scan", "android": "https://dc.lft.to/lastmile_qr_scan"}, "bike_id": "61e5e3d0224b3461d39850faae34b5f4", "fusion_lat": 0.0}, {"lon": -76.9466595, "name": "53a20b6bc3b543fc4e14c01cefc3d9a3", "is_disabled": 0, "type": "electric_scooter", "is_reserved": 0, "fusion_lon": 0.0, "lat": 38.89871616666667, "rental_uris": {"ios": "https://dc.lft.to/lastmile_qr_scan", "android": "https://dc.lft.to/lastmile_qr_scan"}, "bike_id": "53a20b6bc3b543fc4e14c01cefc3d9a3", "fusion_lat": 0.0}, {"lon": -77.00120383333334, "name": "37edf411a9115ba886b0e054514603a4", "is_disabled": 0, "type": "electric_scooter", "is_reserved": 0, "fusion_lon": 0.0, "lat": 38.873735833333335, "rental_uris": {"ios": "https://dc.lft.to/lastmile_qr_scan", "android": "https://dc.lft.to/lastmile_qr_scan"}, "bike_id": "37edf411a9115ba886b0e054514603a4", "fusion_lat": 0.0}, {"lon": -77.03918166666666, "name": "ec616f3687b1699265f12231009a0dda", "is_disabled": 0, "type": "electric_scooter", "is_reserved": 0, "fusion_lon": 0.0, "lat": 38.89856116666667, "rental_uris": {"ios": "https://dc.lft.to/lastmile_qr_scan", "android": "https://dc.lft.to/lastmile_qr_scan"}, "bike_id": "ec616f3687b1699265f12231009a0dda", "fusion_lat": 0.0}, {"lon": -77.027098, "name": "2dce0c464633e8fbb2d27d86bfb26b0a", "is_disabled": 0, "type": "electric_scooter", "is_reserved": 0, "fusion_lon": 0.0, "lat": 38.916877166666666, "rental_uris": {"ios": "https://dc.lft.to/lastmile_qr_scan", "android": "https://dc.lft.to/lastmile_qr_scan"}, "bike_id": "2dce0c464633e8fbb2d27d86bfb26b0a", "fusion_lat": 0.0}, {"lon": -77.03206166666666, "name": "e9582a13626b7a49dccdd7b2b1fee8f6", "is_disabled": 0, "type": "electric_scooter", "is_reserved": 0, "fusion_lon": 0.0, "lat": 38.912325, "rental_uris": {"ios": "https://dc.lft.to/lastmile_qr_scan", "android": "https://dc.lft.to/lastmile_qr_scan"}, "bike_id": "e9582a13626b7a49dccdd7b2b1fee8f6", "fusion_lat": 0.0}, {"lon": -77.021253, "name": "eb217b35c0c9a4cd741663aec28e4ce5", "is_disabled": 0, "type": "electric_scooter", "is_reserved": 0, "fusion_lon": 0.0, "lat": 38.9236775, "rental_uris": {"ios": "https://dc.lft.to/lastmile_qr_scan", "android": "https://dc.lft.to/lastmile_qr_scan"}, "bike_id": "eb217b35c0c9a4cd741663aec28e4ce5", "fusion_lat": 0.0}, {"lon": -77.02809433333333, "name": "b94201aceca3feb358901a5840b6bc19", "is_disabled": 0, "type": "electric_scooter", "is_reserved": 0, "fusion_lon": 0.0, "lat": 38.907008, "rental_uris": {"ios": "https://dc.lft.to/lastmile_qr_scan", "android": "https://dc.lft.to/lastmile_qr_scan"}, "bike_id": "b94201aceca3feb358901a5840b6bc19", "fusion_lat": 0.0}, {"lon": -77.00410033333333, "name": "1cc0d16d962de8cb36cdb22ef7762154", "is_disabled": 0, "type": "electric_bike", "is_reserved": 0, "fusion_lon": 0.0, "lat": 38.98535666666667, "rental_uris": {"ios": "https://dc.lft.to/lastmile_qr_scan", "android": "https://dc.lft.to/lastmile_qr_scan"}, "bike_id": "1cc0d16d962de8cb36cdb22ef7762154", "fusion_lat": 0.0}, {"lon": -76.932101, "name": "55b75772c9f75f76ab543e6cd08218c9", "is_disabled": 0, "type": "electric_scooter", "is_reserved": 0, "fusion_lon": 0.0, "lat": 38.89664916666667, "rental_uris": {"ios": "https://dc.lft.to/lastmile_qr_scan", "android": "https://dc.lft.to/lastmile_qr_scan"}, "bike_id": "55b75772c9f75f76ab543e6cd08218c9", "fusion_lat": 0.0}, {"lon": -77.032158, "name": "2e4f130fe411e88c2c0c1de3c77b0182", "is_disabled": 0, "type": "electric_scooter", "is_reserved": 0, "fusion_lon": 0.0, "lat": 38.910025166666664, "rental_uris": {"ios": "https://dc.lft.to/lastmile_qr_scan", "android": "https://dc.lft.to/lastmile_qr_scan"}, "bike_id": "2e4f130fe411e88c2c0c1de3c77b0182", "fusion_lat": 0.0}, {"lon": -77.04895216666667, "name": "e318308880a7c5765f8fefecaf70de5d", "is_disabled": 0, "type": "electric_scooter", "is_reserved": 0, "fusion_lon": 0.0, "lat": 38.915932166666664, "rental_uris": {"ios": "https://dc.lft.to/lastmile_qr_scan", "android": "https://dc.lft.to/lastmile_qr_scan"}, "bike_id": "e318308880a7c5765f8fefecaf70de5d", "fusion_lat": 0.0}, {"lon": -77.04172033333333, "name": "c5b097da52787661f8a8da4a04847c19", "is_disabled": 0, "type": "electric_scooter", "is_reserved": 0, "fusion_lon": 0.0, "lat": 38.91649733333333, "rental_uris": {"ios": "https://dc.lft.to/lastmile_qr_scan", "android": "https://dc.lft.to/lastmile_qr_scan"}, "bike_id": "c5b097da52787661f8a8da4a04847c19", "fusion_lat": 0.0}, {"lon": -77.01948483333334, "name": "4b66726ab8f6469c1984a05c398ee784", "is_disabled": 0, "type": "electric_scooter", "is_reserved": 0, "fusion_lon": 0.0, "lat": 38.92421816666667, "rental_uris": {"ios": "https://dc.lft.to/lastmile_qr_scan", "android": "https://dc.lft.to/lastmile_qr_scan"}, "bike_id": "4b66726ab8f6469c1984a05c398ee784", "fusion_lat": 0.0}, {"lon": -77.03870316666666, "name": "d3cd3d1d3dde4576be4b0ddb46fb8bc4", "is_disabled": 0, "type": "electric_scooter", "is_reserved": 0, "fusion_lon": 0.0, "lat": 38.912620833333335, "rental_uris": {"ios": "https://dc.lft.to/lastmile_qr_scan", "android": "https://dc.lft.to/lastmile_qr_scan"}, "bike_id": "d3cd3d1d3dde4576be4b0ddb46fb8bc4", "fusion_lat": 0.0}, {"lon": -77.02414216666666, "name": "c2c60f999c16a3c0cf8c34356a19f8da", "is_disabled": 0, "type": "electric_scooter", "is_reserved": 0, "fusion_lon": 0.0, "lat": 38.920848666666664, "rental_uris": {"ios": "https://dc.lft.to/lastmile_qr_scan", "android": "https://dc.lft.to/lastmile_qr_scan"}, "bike_id": "c2c60f999c16a3c0cf8c34356a19f8da", "fusion_lat": 0.0}, {"lon": -77.00338016666667, "name": "ff419bad1f8303116ec06e2978ee27a1", "is_disabled": 0, "type": "electric_scooter", "is_reserved": 0, "fusion_lon": 0.0, "lat": 38.89356316666667, "rental_uris": {"ios": "https://dc.lft.to/lastmile_qr_scan", "android": "https://dc.lft.to/lastmile_qr_scan"}, "bike_id": "ff419bad1f8303116ec06e2978ee27a1", "fusion_lat": 0.0}, {"lon": -76.9790795, "name": "e5e22185fef2a6d48452f918b8b70404", "is_disabled": 0, "type": "electric_scooter", "is_reserved": 0, "fusion_lon": 0.0, "lat": 38.8886285, "rental_uris": {"ios": "https://dc.lft.to/lastmile_qr_scan", "android": "https://dc.lft.to/lastmile_qr_scan"}, "bike_id": "e5e22185fef2a6d48452f918b8b70404", "fusion_lat": 0.0}, {"lon": -77.02185916666667, "name": "e06a600fc50ddab6292d72ccbb9e4236", "is_disabled": 0, "type": "electric_scooter", "is_reserved": 0, "fusion_lon": 0.0, "lat": 38.915464166666666, "rental_uris": {"ios": "https://dc.lft.to/lastmile_qr_scan", "android": "https://dc.lft.to/lastmile_qr_scan"}, "bike_id": "e06a600fc50ddab6292d72ccbb9e4236", "fusion_lat": 0.0}, {"lon": -77.023834, "name": "39065e2580f7c30ae89b69b7978bc3af", "is_disabled": 0, "type": "electric_scooter", "is_reserved": 0, "fusion_lon": 0.0, "lat": 38.908517833333335, "rental_uris": {"ios": "https://dc.lft.to/lastmile_qr_scan", "android": "https://dc.lft.to/lastmile_qr_scan"}, "bike_id": "39065e2580f7c30ae89b69b7978bc3af", "fusion_lat": 0.0}, {"lon": -77.23407116666667, "name": "c39fff30cdfa222f19069df4ec72fd2b", "is_disabled": 0, "type": "electric_bike", "is_reserved": 0, "fusion_lon": 0.0, "lat": 38.875763666666664, "rental_uris": {"ios": "https://dc.lft.to/lastmile_qr_scan", "android": "https://dc.lft.to/lastmile_qr_scan"}, "bike_id": "c39fff30cdfa222f19069df4ec72fd2b", "fusion_lat": 0.0}, {"lon": -77.0769825, "name": "5949ed2b9e595661125c7ceed9e01bb2", "is_disabled": 0, "type": "electric_scooter", "is_reserved": 0, "fusion_lon": 0.0, "lat": 38.92243716666667, "rental_uris": {"ios": "https://dc.lft.to/lastmile_qr_scan", "android": "https://dc.lft.to/lastmile_qr_scan"}, "bike_id": "5949ed2b9e595661125c7ceed9e01bb2", "fusion_lat": 0.0}, {"lon": -76.93928433333333, "name": "c45059b15807ff15ca2ab7e2fe101f31", "is_disabled": 0, "type": "electric_scooter", "is_reserved": 0, "fusion_lon": 0.0, "lat": 38.893316666666664, "rental_uris": {"ios": "https://dc.lft.to/lastmile_qr_scan", "android": "https://dc.lft.to/lastmile_qr_scan"}, "bike_id": "c45059b15807ff15ca2ab7e2fe101f31", "fusion_lat": 0.0}, {"lon": -77.002339, "name": "63a4512b5768c762909921610b873118", "is_disabled": 0, "type": "electric_scooter", "is_reserved": 0, "fusion_lon": 0.0, "lat": 38.9076715, "rental_uris": {"ios": "https://dc.lft.to/lastmile_qr_scan", "android": "https://dc.lft.to/lastmile_qr_scan"}, "bike_id": "63a4512b5768c762909921610b873118", "fusion_lat": 0.0}, {"lon": -77.0431605, "name": "6a45a5d0e30e032268062ab81462891b", "is_disabled": 0, "type": "electric_scooter", "is_reserved": 0, "fusion_lon": 0.0, "lat": 38.9240175, "rental_uris": {"ios": "https://dc.lft.to/lastmile_qr_scan", "android": "https://dc.lft.to/lastmile_qr_scan"}, "bike_id": "6a45a5d0e30e032268062ab81462891b", "fusion_lat": 0.0}, {"lon": -77.00566916666666, "name": "3aa896a4fb4a4162f5eaf2c84b038c1b", "is_disabled": 0, "type": "electric_scooter", "is_reserved": 0, "fusion_lon": 0.0, "lat": 38.88497916666667, "rental_uris": {"ios": "https://dc.lft.to/lastmile_qr_scan", "android": "https://dc.lft.to/lastmile_qr_scan"}, "bike_id": "3aa896a4fb4a4162f5eaf2c84b038c1b", "fusion_lat": 0.0}, {"lon": -77.019681, "name": "f412413183bbdab6c9e4fc94bc560c7f", "is_disabled": 0, "type": "electric_scooter", "is_reserved": 0, "fusion_lon": 0.0, "lat": 38.87839183333333, "rental_uris": {"ios": "https://dc.lft.to/lastmile_qr_scan", "android": "https://dc.lft.to/lastmile_qr_scan"}, "bike_id": "f412413183bbdab6c9e4fc94bc560c7f", "fusion_lat": 0.0}, {"lon": -76.99841083333334, "name": "647ead0bdf7e9218874888f8f41c444b", "is_disabled": 0, "type": "electric_scooter", "is_reserved": 0, "fusion_lon": 0.0, "lat": 38.925492166666665, "rental_uris": {"ios": "https://dc.lft.to/lastmile_qr_scan", "android": "https://dc.lft.to/lastmile_qr_scan"}, "bike_id": "647ead0bdf7e9218874888f8f41c444b", "fusion_lat": 0.0}, {"lon": -77.06435766666667, "name": "5d9eaa3eb6c3f45ba8220aea5becb085", "is_disabled": 0, "type": "electric_scooter", "is_reserved": 0, "fusion_lon": 0.0, "lat": 38.9052315, "rental_uris": {"ios": "https://dc.lft.to/lastmile_qr_scan", "android": "https://dc.lft.to/lastmile_qr_scan"}, "bike_id": "5d9eaa3eb6c3f45ba8220aea5becb085", "fusion_lat": 0.0}, {"lon": -77.02131833333334, "name": "5880a4dfeef548ec33594a5dd9407775", "is_disabled": 0, "type": "electric_scooter", "is_reserved": 0, "fusion_lon": 0.0, "lat": 38.924149, "rental_uris": {"ios": "https://dc.lft.to/lastmile_qr_scan", "android": "https://dc.lft.to/lastmile_qr_scan"}, "bike_id": "5880a4dfeef548ec33594a5dd9407775", "fusion_lat": 0.0}, {"lon": -77.04571783333333, "name": "3bdc785f0140d5d03e79bfbd4f8f0c29", "is_disabled": 0, "type": "electric_scooter", "is_reserved": 0, "fusion_lon": 0.0, "lat": 38.9105415, "rental_uris": {"ios": "https://dc.lft.to/lastmile_qr_scan", "android": "https://dc.lft.to/lastmile_qr_scan"}, "bike_id": "3bdc785f0140d5d03e79bfbd4f8f0c29", "fusion_lat": 0.0}, {"lon": -77.03167733333333, "name": "4e9d430ca7be19fa31866ae757cb573a", "is_disabled": 0, "type": "electric_scooter", "is_reserved": 0, "fusion_lon": 0.0, "lat": 38.89346233333333, "rental_uris": {"ios": "https://dc.lft.to/lastmile_qr_scan", "android": "https://dc.lft.to/lastmile_qr_scan"}, "bike_id": "4e9d430ca7be19fa31866ae757cb573a", "fusion_lat": 0.0}, {"lon": -77.02701066666667, "name": "dfe2a240f2a8623c61069af9532a1769", "is_disabled": 0, "type": "electric_scooter", "is_reserved": 0, "fusion_lon": 0.0, "lat": 38.89558066666667, "rental_uris": {"ios": "https://dc.lft.to/lastmile_qr_scan", "android": "https://dc.lft.to/lastmile_qr_scan"}, "bike_id": "dfe2a240f2a8623c61069af9532a1769", "fusion_lat": 0.0}, {"lon": -77.03930983333333, "name": "6bdd897f23df51e96c6a8a2beda7cf0b", "is_disabled": 0, "type": "electric_scooter", "is_reserved": 0, "fusion_lon": 0.0, "lat": 38.9248985, "rental_uris": {"ios": "https://dc.lft.to/lastmile_qr_scan", "android": "https://dc.lft.to/lastmile_qr_scan"}, "bike_id": "6bdd897f23df51e96c6a8a2beda7cf0b", "fusion_lat": 0.0}, {"lon": -77.02611666666667, "name": "b883f02caacd8a67909e405d4aeb43ce", "is_disabled": 0, "type": "electric_scooter", "is_reserved": 0, "fusion_lon": 0.0, "lat": 38.900531666666666, "rental_uris": {"ios": "https://dc.lft.to/lastmile_qr_scan", "android": "https://dc.lft.to/lastmile_qr_scan"}, "bike_id": "b883f02caacd8a67909e405d4aeb43ce", "fusion_lat": 0.0}, {"lon": -77.044717, "name": "40a6b5dcd2cb470da3a954a8950c94bd", "is_disabled": 0, "type": "electric_scooter", "is_reserved": 0, "fusion_lon": 0.0, "lat": 38.918947333333335, "rental_uris": {"ios": "https://dc.lft.to/lastmile_qr_scan", "android": "https://dc.lft.to/lastmile_qr_scan"}, "bike_id": "40a6b5dcd2cb470da3a954a8950c94bd", "fusion_lat": 0.0}, {"lon": -77.03489133333333, "name": "e97069537d855c1c61f0f6c17beeecdf", "is_disabled": 0, "type": "electric_scooter", "is_reserved": 0, "fusion_lon": 0.0, "lat": 38.929254666666665, "rental_uris": {"ios": "https://dc.lft.to/lastmile_qr_scan", "android": "https://dc.lft.to/lastmile_qr_scan"}, "bike_id": "e97069537d855c1c61f0f6c17beeecdf", "fusion_lat": 0.0}, {"lon": -76.93523583333334, "name": "d69a6190646fb4b8d91dcae6a5522494", "is_disabled": 0, "type": "electric_scooter", "is_reserved": 0, "fusion_lon": 0.0, "lat": 38.8789655, "rental_uris": {"ios": "https://dc.lft.to/lastmile_qr_scan", "android": "https://dc.lft.to/lastmile_qr_scan"}, "bike_id": "d69a6190646fb4b8d91dcae6a5522494", "fusion_lat": 0.0}, {"lon": -77.040085, "name": "277c45ad886db9acb3028b2e1ba2e049", "is_disabled": 0, "type": "electric_scooter", "is_reserved": 0, "fusion_lon": 0.0, "lat": 38.902750833333336, "rental_uris": {"ios": "https://dc.lft.to/lastmile_qr_scan", "android": "https://dc.lft.to/lastmile_qr_scan"}, "bike_id": "277c45ad886db9acb3028b2e1ba2e049", "fusion_lat": 0.0}, {"lon": -77.0252725, "name": "548da664adac00e5e44aa305d2d91646", "is_disabled": 0, "type": "electric_scooter", "is_reserved": 0, "fusion_lon": 0.0, "lat": 38.967322, "rental_uris": {"ios": "https://dc.lft.to/lastmile_qr_scan", "android": "https://dc.lft.to/lastmile_qr_scan"}, "bike_id": "548da664adac00e5e44aa305d2d91646", "fusion_lat": 0.0}, {"lon": -77.07229266666667, "name": "72b59c6623052243dbab70a7ee554a2f", "is_disabled": 0, "type": "electric_scooter", "is_reserved": 0, "fusion_lon": 0.0, "lat": 38.92363066666667, "rental_uris": {"ios": "https://dc.lft.to/lastmile_qr_scan", "android": "https://dc.lft.to/lastmile_qr_scan"}, "bike_id": "72b59c6623052243dbab70a7ee554a2f", "fusion_lat": 0.0}, {"lon": -77.02228383333333, "name": "6e993ce822a7ce21c4c70dc9121c0fb6", "is_disabled": 0, "type": "electric_scooter", "is_reserved": 0, "fusion_lon": 0.0, "lat": 38.89958383333333, "rental_uris": {"ios": "https://dc.lft.to/lastmile_qr_scan", "android": "https://dc.lft.to/lastmile_qr_scan"}, "bike_id": "6e993ce822a7ce21c4c70dc9121c0fb6", "fusion_lat": 0.0}, {"lon": -77.02281433333333, "name": "62b38339ffa0ddce962c340fd7845a10", "is_disabled": 0, "type": "electric_scooter", "is_reserved": 0, "fusion_lon": 0.0, "lat": 38.91665616666667, "rental_uris": {"ios": "https://dc.lft.to/lastmile_qr_scan", "android": "https://dc.lft.to/lastmile_qr_scan"}, "bike_id": "62b38339ffa0ddce962c340fd7845a10", "fusion_lat": 0.0}, {"lon": -76.985422, "name": "05b728ec0470bd1408fb49eb6eb6cb55", "is_disabled": 0, "type": "electric_scooter", "is_reserved": 0, "fusion_lon": 0.0, "lat": 38.905902833333336, "rental_uris": {"ios": "https://dc.lft.to/lastmile_qr_scan", "android": "https://dc.lft.to/lastmile_qr_scan"}, "bike_id": "05b728ec0470bd1408fb49eb6eb6cb55", "fusion_lat": 0.0}, {"lon": -77.022268, "name": "8f5abd8a1ea48875a42b241b9752fe55", "is_disabled": 0, "type": "electric_bike", "is_reserved": 0, "fusion_lon": 0.0, "lat": 38.956897833333336, "rental_uris": {"ios": "https://dc.lft.to/lastmile_qr_scan", "android": "https://dc.lft.to/lastmile_qr_scan"}, "bike_id": "8f5abd8a1ea48875a42b241b9752fe55", "fusion_lat": 0.0}, {"lon": -77.03581033333333, "name": "9c6e6447896a9d41e41613e77ce2923e", "is_disabled": 0, "type": "electric_scooter", "is_reserved": 0, "fusion_lon": 0.0, "lat": 38.908092833333335, "rental_uris": {"ios": "https://dc.lft.to/lastmile_qr_scan", "android": "https://dc.lft.to/lastmile_qr_scan"}, "bike_id": "9c6e6447896a9d41e41613e77ce2923e", "fusion_lat": 0.0}, {"lon": -77.02273183333334, "name": "05f87f925ab6295c79987081854d2c6e", "is_disabled": 0, "type": "electric_scooter", "is_reserved": 0, "fusion_lon": 0.0, "lat": 38.88133933333334, "rental_uris": {"ios": "https://dc.lft.to/lastmile_qr_scan", "android": "https://dc.lft.to/lastmile_qr_scan"}, "bike_id": "05f87f925ab6295c79987081854d2c6e", "fusion_lat": 0.0}, {"lon": -77.02606833333333, "name": "7ee2fb49926beda194b7eb22e1d8647d", "is_disabled": 0, "type": "electric_scooter", "is_reserved": 0, "fusion_lon": 0.0, "lat": 38.90602416666667, "rental_uris": {"ios": "https://dc.lft.to/lastmile_qr_scan", "android": "https://dc.lft.to/lastmile_qr_scan"}, "bike_id": "7ee2fb49926beda194b7eb22e1d8647d", "fusion_lat": 0.0}, {"lon": -77.029695, "name": "a5396d010adce73c7383b946551da262", "is_disabled": 0, "type": "electric_scooter", "is_reserved": 0, "fusion_lon": 0.0, "lat": 38.904862, "rental_uris": {"ios": "https://dc.lft.to/lastmile_qr_scan", "android": "https://dc.lft.to/lastmile_qr_scan"}, "bike_id": "a5396d010adce73c7383b946551da262", "fusion_lat": 0.0}, {"lon": -77.07503483333333, "name": "093e4fe8c98c7a16916aeb2ead0dc87d", "is_disabled": 0, "type": "electric_scooter", "is_reserved": 0, "fusion_lon": 0.0, "lat": 38.91187816666667, "rental_uris": {"ios": "https://dc.lft.to/lastmile_qr_scan", "android": "https://dc.lft.to/lastmile_qr_scan"}, "bike_id": "093e4fe8c98c7a16916aeb2ead0dc87d", "fusion_lat": 0.0}, {"lon": -77.14872866666667, "name": "f467a6088f557aa241fe675639b1b005", "is_disabled": 0, "type": "electric_bike", "is_reserved": 0, "fusion_lon": 0.0, "lat": 38.87737933333333, "rental_uris": {"ios": "https://dc.lft.to/lastmile_qr_scan", "android": "https://dc.lft.to/lastmile_qr_scan"}, "bike_id": "f467a6088f557aa241fe675639b1b005", "fusion_lat": 0.0}, {"lon": -77.01940866666666, "name": "5c57ea4b3321cb0a13761be6d216424d", "is_disabled": 0, "type": "electric_scooter", "is_reserved": 0, "fusion_lon": 0.0, "lat": 38.956389, "rental_uris": {"ios": "https://dc.lft.to/lastmile_qr_scan", "android": "https://dc.lft.to/lastmile_qr_scan"}, "bike_id": "5c57ea4b3321cb0a13761be6d216424d", "fusion_lat": 0.0}, {"lon": -77.03434366666667, "name": "4ed55794eb1dc7ef30cdf2dd36f7740d", "is_disabled": 0, "type": "electric_scooter", "is_reserved": 0, "fusion_lon": 0.0, "lat": 38.900860333333334, "rental_uris": {"ios": "https://dc.lft.to/lastmile_qr_scan", "android": "https://dc.lft.to/lastmile_qr_scan"}, "bike_id": "4ed55794eb1dc7ef30cdf2dd36f7740d", "fusion_lat": 0.0}, {"lon": -77.0327125, "name": "7451b7649e95f9ec1edfaff404816e30", "is_disabled": 0, "type": "electric_scooter", "is_reserved": 0, "fusion_lon": 0.0, "lat": 38.93247216666666, "rental_uris": {"ios": "https://dc.lft.to/lastmile_qr_scan", "android": "https://dc.lft.to/lastmile_qr_scan"}, "bike_id": "7451b7649e95f9ec1edfaff404816e30", "fusion_lat": 0.0}, {"lon": -77.0033125, "name": "23f2f75ed3fbf765659e07eadd0cbada", "is_disabled": 0, "type": "electric_scooter", "is_reserved": 0, "fusion_lon": 0.0, "lat": 38.89359433333333, "rental_uris": {"ios": "https://dc.lft.to/lastmile_qr_scan", "android": "https://dc.lft.to/lastmile_qr_scan"}, "bike_id": "23f2f75ed3fbf765659e07eadd0cbada", "fusion_lat": 0.0}, {"lon": -77.025989, "name": "b383dc5a60179df780a0373e8340f028", "is_disabled": 0, "type": "electric_scooter", "is_reserved": 0, "fusion_lon": 0.0, "lat": 38.904273, "rental_uris": {"ios": "https://dc.lft.to/lastmile_qr_scan", "android": "https://dc.lft.to/lastmile_qr_scan"}, "bike_id": "b383dc5a60179df780a0373e8340f028", "fusion_lat": 0.0}, {"lon": -77.007149, "name": "66cdfb3b611181c48e5793c18e7d050c", "is_disabled": 0, "type": "electric_scooter", "is_reserved": 0, "fusion_lon": 0.0, "lat": 38.911896166666665, "rental_uris": {"ios": "https://dc.lft.to/lastmile_qr_scan", "android": "https://dc.lft.to/lastmile_qr_scan"}, "bike_id": "66cdfb3b611181c48e5793c18e7d050c", "fusion_lat": 0.0}, {"lon": -76.948878, "name": "185d07276b56f57da2e46b0f09271ac1", "is_disabled": 0, "type": "electric_scooter", "is_reserved": 0, "fusion_lon": 0.0, "lat": 38.895132, "rental_uris": {"ios": "https://dc.lft.to/lastmile_qr_scan", "android": "https://dc.lft.to/lastmile_qr_scan"}, "bike_id": "185d07276b56f57da2e46b0f09271ac1", "fusion_lat": 0.0}, {"lon": -77.036116, "name": "fb2646f4699483702b26aa15ace1d79d", "is_disabled": 0, "type": "electric_scooter", "is_reserved": 0, "fusion_lon": 0.0, "lat": 38.90554016666667, "rental_uris": {"ios": "https://dc.lft.to/lastmile_qr_scan", "android": "https://dc.lft.to/lastmile_qr_scan"}, "bike_id": "fb2646f4699483702b26aa15ace1d79d", "fusion_lat": 0.0}, {"lon": -77.02403716666667, "name": "6e1e496fd568c6ce2ee941a1518eec9e", "is_disabled": 0, "type": "electric_scooter", "is_reserved": 0, "fusion_lon": 0.0, "lat": 38.941809666666664, "rental_uris": {"ios": "https://dc.lft.to/lastmile_qr_scan", "android": "https://dc.lft.to/lastmile_qr_scan"}, "bike_id": "6e1e496fd568c6ce2ee941a1518eec9e", "fusion_lat": 0.0}, {"lon": -76.973131, "name": "5e16a9157a5f4c37bec10e361499cd46", "is_disabled": 0, "type": "electric_bike", "is_reserved": 0, "fusion_lon": 0.0, "lat": 38.86514533333333, "rental_uris": {"ios": "https://dc.lft.to/lastmile_qr_scan", "android": "https://dc.lft.to/lastmile_qr_scan"}, "bike_id": "5e16a9157a5f4c37bec10e361499cd46", "fusion_lat": 0.0}, {"lon": -77.01697233333333, "name": "963af7fc3a06e2887f6313c381cb0596", "is_disabled": 0, "type": "electric_scooter", "is_reserved": 0, "fusion_lon": 0.0, "lat": 38.90754716666667, "rental_uris": {"ios": "https://dc.lft.to/lastmile_qr_scan", "android": "https://dc.lft.to/lastmile_qr_scan"}, "bike_id": "963af7fc3a06e2887f6313c381cb0596", "fusion_lat": 0.0}, {"lon": -77.01514016666667, "name": "c04ae85d97956995d89270b1dd9d1986", "is_disabled": 0, "type": "electric_scooter", "is_reserved": 0, "fusion_lon": 0.0, "lat": 38.913263, "rental_uris": {"ios": "https://dc.lft.to/lastmile_qr_scan", "android": "https://dc.lft.to/lastmile_qr_scan"}, "bike_id": "c04ae85d97956995d89270b1dd9d1986", "fusion_lat": 0.0}, {"lon": -77.031717, "name": "8c7b2b799e4786b5841162d748edc267", "is_disabled": 0, "type": "electric_scooter", "is_reserved": 0, "fusion_lon": 0.0, "lat": 38.916249, "rental_uris": {"ios": "https://dc.lft.to/lastmile_qr_scan", "android": "https://dc.lft.to/lastmile_qr_scan"}, "bike_id": "8c7b2b799e4786b5841162d748edc267", "fusion_lat": 0.0}, {"lon": -77.06981616666667, "name": "569dca2edb07ad499f627b1bd05e0b58", "is_disabled": 0, "type": "electric_scooter", "is_reserved": 0, "fusion_lon": 0.0, "lat": 38.952999166666665, "rental_uris": {"ios": "https://dc.lft.to/lastmile_qr_scan", "android": "https://dc.lft.to/lastmile_qr_scan"}, "bike_id": "569dca2edb07ad499f627b1bd05e0b58", "fusion_lat": 0.0}, {"lon": -77.00505233333334, "name": "b2627bdd71fcdd79ce751005803cb96c", "is_disabled": 0, "type": "electric_scooter", "is_reserved": 0, "fusion_lon": 0.0, "lat": 38.875341166666665, "rental_uris": {"ios": "https://dc.lft.to/lastmile_qr_scan", "android": "https://dc.lft.to/lastmile_qr_scan"}, "bike_id": "b2627bdd71fcdd79ce751005803cb96c", "fusion_lat": 0.0}, {"lon": -77.00292083333333, "name": "2f3c772db879d187b566f15ebdb60b9a", "is_disabled": 0, "type": "electric_scooter", "is_reserved": 0, "fusion_lon": 0.0, "lat": 38.911062, "rental_uris": {"ios": "https://dc.lft.to/lastmile_qr_scan", "android": "https://dc.lft.to/lastmile_qr_scan"}, "bike_id": "2f3c772db879d187b566f15ebdb60b9a", "fusion_lat": 0.0}, {"lon": -77.03932983333333, "name": "e01dc26f62e5608ac7d9442fae1a6cb6", "is_disabled": 0, "type": "electric_scooter", "is_reserved": 0, "fusion_lon": 0.0, "lat": 38.92462866666666, "rental_uris": {"ios": "https://dc.lft.to/lastmile_qr_scan", "android": "https://dc.lft.to/lastmile_qr_scan"}, "bike_id": "e01dc26f62e5608ac7d9442fae1a6cb6", "fusion_lat": 0.0}, {"lon": -76.9733165, "name": "2dfac8d7e4170ce9cb4757e61fe5fdaf", "is_disabled": 0, "type": "electric_scooter", "is_reserved": 0, "fusion_lon": 0.0, "lat": 38.9041115, "rental_uris": {"ios": "https://dc.lft.to/lastmile_qr_scan", "android": "https://dc.lft.to/lastmile_qr_scan"}, "bike_id": "2dfac8d7e4170ce9cb4757e61fe5fdaf", "fusion_lat": 0.0}, {"lon": -77.0177405, "name": "65fec1858a5efa059c27faf3e88fcd37", "is_disabled": 0, "type": "electric_scooter", "is_reserved": 0, "fusion_lon": 0.0, "lat": 38.9210645, "rental_uris": {"ios": "https://dc.lft.to/lastmile_qr_scan", "android": "https://dc.lft.to/lastmile_qr_scan"}, "bike_id": "65fec1858a5efa059c27faf3e88fcd37", "fusion_lat": 0.0}, {"lon": -76.99562116666667, "name": "5d5ac9a3c9dd9dcc25f5e6300c2834d0", "is_disabled": 0, "type": "electric_scooter", "is_reserved": 0, "fusion_lon": 0.0, "lat": 38.900102, "rental_uris": {"ios": "https://dc.lft.to/lastmile_qr_scan", "android": "https://dc.lft.to/lastmile_qr_scan"}, "bike_id": "5d5ac9a3c9dd9dcc25f5e6300c2834d0", "fusion_lat": 0.0}, {"lon": -77.02794866666666, "name": "79f5a44cf01c4ff13384ef93729922b2", "is_disabled": 0, "type": "electric_scooter", "is_reserved": 0, "fusion_lon": 0.0, "lat": 38.93452766666667, "rental_uris": {"ios": "https://dc.lft.to/lastmile_qr_scan", "android": "https://dc.lft.to/lastmile_qr_scan"}, "bike_id": "79f5a44cf01c4ff13384ef93729922b2", "fusion_lat": 0.0},