{"data": {"bikes": [{"fusion_lat": 0.0, "name": "3c6de8813d4a9b998a9e0f8a3f65f0c6", "is_disabled": 0, "rental_uris": {"android": "https://dc.lft.to/lastmile_qr_scan", "ios": "https://dc.lft.to/lastmile_qr_scan"}, "fusion_lon": 0.0, "lat": 38.88611516666667, "bike_id": "3c6de8813d4a9b998a9e0f8a3f65f0c6", "type": "electric_scooter", "is_reserved": 0, "lon": -77.015584}, {"fusion_lat": 0.0, "name": "7ea7f8fe044af9369bd70e9bd4d5dd9e", "is_disabled": 0, "rental_uris": {"android": "https://dc.lft.to/lastmile_qr_scan", "ios": "https://dc.lft.to/lastmile_qr_scan"}, "fusion_lon": 0.0, "lat": 38.922386833333334, "bike_id": "7ea7f8fe044af9369bd70e9bd4d5dd9e", "type": "electric_scooter", "is_reserved": 0, "lon": -77.0425015}, {"fusion_lat": 0.0, "name": "760dd5fa1e998381b8ec6ce81e685ca2", "is_disabled": 0, "rental_uris": {"android": "https://dc.lft.to/lastmile_qr_scan", "ios": "https://dc.lft.to/lastmile_qr_scan"}, "fusion_lon": 0.0, "lat": 38.9482475, "bike_id": "760dd5fa1e998381b8ec6ce81e685ca2", "type": "electric_scooter", "is_reserved": 0, "lon": -77.026149}, {"fusion_lat": 0.0, "name": "67ac6a11af787374877b3cb60db2d520", "is_disabled": 0, "rental_uris": {"android": "https://dc.lft.to/lastmile_qr_scan", "ios": "https://dc.lft.to/lastmile_qr_scan"}, "fusion_lon": 0.0, "lat": 38.88475716666667, "bike_id": "67ac6a11af787374877b3cb60db2d520", "type": "electric_scooter", "is_reserved": 0, "lon": -76.996751}, {"fusion_lat": 0.0, "name": "2de2edafb8c5bcac680b6f105f26715c", "is_disabled": 0, "rental_uris": {"android": "https://dc.lft.to/lastmile_qr_scan", "ios": "https://dc.lft.to/lastmile_qr_scan"}, "fusion_lon": 0.0, "lat": 38.91552766666667, "bike_id": "2de2edafb8c5bcac680b6f105f26715c", "type": "electric_scooter", "is_reserved": 0, "lon": -77.01200033333333}, {"fusion_lat": 0.0, "name": "5463420a43ed8243bb8120e9abd6b09d", "is_disabled": 0, "rental_uris": {"android": "https://dc.lft.to/lastmile_qr_scan", "ios": "https://dc.lft.to/lastmile_qr_scan"}, "fusion_lon": 0.0, "lat": 38.921128333333336, "bike_id": "5463420a43ed8243bb8120e9abd6b09d", "type": "electric_scooter", "is_reserved": 0, "lon": -77.04207483333333}, {"fusion_lat": 0.0, "name": "b7a6dbf902bb028b9688e7f81510f8cc", "is_disabled": 0, "rental_uris": {"android": "https://dc.lft.to/lastmile_qr_scan", "ios": "https://dc.lft.to/lastmile_qr_scan"}, "fusion_lon": 0.0, "lat": 38.93431016666667, "bike_id": "b7a6dbf902bb028b9688e7f81510f8cc", "type": "electric_scooter", "is_reserved": 0, "lon": -77.039984}, {"fusion_lat": 0.0, "name": "875451c1fe947e08b104dec16b695fe2", "is_disabled": 0, "rental_uris": {"android": "https://dc.lft.to/lastmile_qr_scan", "ios": "https://dc.lft.to/lastmile_qr_scan"}, "fusion_lon": 0.0, "lat": 38.835458, "bike_id": "875451c1fe947e08b104dec16b695fe2", "type": "electric_bike", "is_reserved": 0, "lon": -76.98727983333333}, {"fusion_lat": 0.0, "name": "79ad98556b3c961d6bd37cac237c26f1", "is_disabled": 0, "rental_uris": {"android": "https://dc.lft.to/lastmile_qr_scan", "ios": "https://dc.lft.to/lastmile_qr_scan"}, "fusion_lon": 0.0, "lat": 38.90063266666667, "bike_id": "79ad98556b3c961d6bd37cac237c26f1", "type": "electric_scooter", "is_reserved": 0, "lon": -76.93385883333333}, {"fusion_lat": 0.0, "name": "cb4c3f3ccd8e0c572042de0a81ba3297", "is_disabled": 0, "rental_uris": {"android": "https://dc.lft.to/lastmile_qr_scan", "ios": "https://dc.lft.to/lastmile_qr_scan"}, "fusion_lon": 0.0, "lat": 38.90767616666667, "bike_id": "cb4c3f3ccd8e0c572042de0a81ba3297", "type": "electric_scooter", "is_reserved": 0, "lon": -77.05595983333333}, {"fusion_lat": 0.0, "name": "9c0d017ee3ebe285be91426188c17312", "is_disabled": 0, "rental_uris": {"android": "https://dc.lft.to/lastmile_qr_scan", "ios": "https://dc.lft.to/lastmile_qr_scan"}, "fusion_lon": 0.0, "lat": 38.90583516666667, "bike_id": "9c0d017ee3ebe285be91426188c17312", "type": "electric_scooter", "is_reserved": 0, "lon": -77.03853633333334}, {"fusion_lat": 0.0, "name": "fdc7e0f7f077e7658158b90de1e2dc5c", "is_disabled": 0, "rental_uris": {"android": "https://dc.lft.to/lastmile_qr_scan", "ios": "https://dc.lft.to/lastmile_qr_scan"}, "fusion_lon": 0.0, "lat": 38.90023266666667, "bike_id": "fdc7e0f7f077e7658158b90de1e2dc5c", "type": "electric_scooter", "is_reserved": 0, "lon": -77.03999066666667}, {"fusion_lat": 0.0, "name": "989c8f307d8843b16e1c4090d6f528b3", "is_disabled": 0, "rental_uris": {"android": "https://dc.lft.to/lastmile_qr_scan", "ios": "https://dc.lft.to/lastmile_qr_scan"}, "fusion_lon": 0.0, "lat": 38.91118816666667, "bike_id": "989c8f307d8843b16e1c4090d6f528b3", "type": "electric_scooter", "is_reserved": 0, "lon": -77.003645}, {"fusion_lat": 0.0, "name": "8109041151403e80ad9e6d7a92016e4d", "is_disabled": 0, "rental_uris": {"android": "https://dc.lft.to/lastmile_qr_scan", "ios": "https://dc.lft.to/lastmile_qr_scan"}, "fusion_lon": 0.0, "lat": 38.892062, "bike_id": "8109041151403e80ad9e6d7a92016e4d", "type": "electric_scooter", "is_reserved": 0, "lon": -76.97703266666667}, {"fusion_lat": 0.0, "name": "07198a66e05e9306fc31e17c55602c39", "is_disabled": 0, "rental_uris": {"android": "https://dc.lft.to/lastmile_qr_scan", "ios": "https://dc.lft.to/lastmile_qr_scan"}, "fusion_lon": 0.0, "lat": 38.904104833333335, "bike_id": "07198a66e05e9306fc31e17c55602c39", "type": "electric_scooter", "is_reserved": 0, "lon": -76.97330316666667}, {"fusion_lat": 0.0, "name": "cdbb41e7be00f21d62680e1d41d0b5de", "is_disabled": 0, "rental_uris": {"android": "https://dc.lft.to/lastmile_qr_scan", "ios": "https://dc.lft.to/lastmile_qr_scan"}, "fusion_lon": 0.0, "lat": 38.905319666666664, "bike_id": "cdbb41e7be00f21d62680e1d41d0b5de", "type": "electric_scooter", "is_reserved": 0, "lon": -77.05662933333333}, {"fusion_lat": 0.0, "name": "ff9ff8d5d1e60cc5af2446d3a6466074", "is_disabled": 0, "rental_uris": {"android": "https://dc.lft.to/lastmile_qr_scan", "ios": "https://dc.lft.to/lastmile_qr_scan"}, "fusion_lon": 0.0, "lat": 38.90711566666667, "bike_id": "ff9ff8d5d1e60cc5af2446d3a6466074", "type": "electric_scooter", "is_reserved": 0, "lon": -77.05134933333333}, {"fusion_lat": 0.0, "name": "0e29489e67d984f79f6857def9c6e15e", "is_disabled": 0, "rental_uris": {"android": "https://dc.lft.to/lastmile_qr_scan", "ios": "https://dc.lft.to/lastmile_qr_scan"}, "fusion_lon": 0.0, "lat": 38.86216616666667, "bike_id": "0e29489e67d984f79f6857def9c6e15e", "type": "electric_bike", "is_reserved": 0, "lon": -76.99567166666667}, {"fusion_lat": 0.0, "name": "1ae0c6fddc328c12996a6fbf44d2e1a7", "is_disabled": 0, "rental_uris": {"android": "https://dc.lft.to/lastmile_qr_scan", "ios": "https://dc.lft.to/lastmile_qr_scan"}, "fusion_lon": 0.0, "lat": 38.88740033333333, "bike_id": "1ae0c6fddc328c12996a6fbf44d2e1a7", "type": "electric_scooter", "is_reserved": 0, "lon": -77.02207083333333}, {"fusion_lat": 0.0, "name": "e91b4be0de0eee633c1fd26b183ba260", "is_disabled": 0, "rental_uris": {"android": "https://dc.lft.to/lastmile_qr_scan", "ios": "https://dc.lft.to/lastmile_qr_scan"}, "fusion_lon": 0.0, "lat": 38.877654166666666, "bike_id": "e91b4be0de0eee633c1fd26b183ba260", "type": "electric_scooter", "is_reserved": 0, "lon": -76.99383983333334}, {"fusion_lat": 0.0, "name": "a3b4c93b5ef1629e31c751175e2de7dd", "is_disabled": 0, "rental_uris": {"android": "https://dc.lft.to/lastmile_qr_scan", "ios": "https://dc.lft.to/lastmile_qr_scan"}, "fusion_lon": 0.0, "lat": 38.9330945, "bike_id": "a3b4c93b5ef1629e31c751175e2de7dd", "type": "electric_scooter", "is_reserved": 0, "lon": -77.0309215}, {"fusion_lat": 0.0, "name": "55112f1312b7d7d339bd1aebbb79ade2", "is_disabled": 0, "rental_uris": {"android": "https://dc.lft.to/lastmile_qr_scan", "ios": "https://dc.lft.to/lastmile_qr_scan"}, "fusion_lon": 0.0, "lat": 38.899453, "bike_id": "55112f1312b7d7d339bd1aebbb79ade2", "type": "electric_scooter", "is_reserved": 0, "lon": -77.04161933333333}, {"fusion_lat": 0.0, "name": "5cf68e5706f52f534571a16a9b15dc57", "is_disabled": 0, "rental_uris": {"android": "https://dc.lft.to/lastmile_qr_scan", "ios": "https://dc.lft.to/lastmile_qr_scan"}, "fusion_lon": 0.0, "lat": 38.9196295, "bike_id": "5cf68e5706f52f534571a16a9b15dc57", "type": "electric_scooter", "is_reserved": 0, "lon": -77.070908}, {"fusion_lat": 0.0, "name": "5377fe8a557b6d233ae8c88c5e6173e0", "is_disabled": 0, "rental_uris": {"android": "https://dc.lft.to/lastmile_qr_scan", "ios": "https://dc.lft.to/lastmile_qr_scan"}, "fusion_lon": 0.0, "lat": 38.8928625, "bike_id": "5377fe8a557b6d233ae8c88c5e6173e0", "type": "electric_scooter", "is_reserved": 0, "lon": -76.9830565}, {"fusion_lat": 0.0, "name": "62019196183aa1247eb43e40ca98031d", "is_disabled": 0, "rental_uris": {"android": "https://dc.lft.to/lastmile_qr_scan", "ios": "https://dc.lft.to/lastmile_qr_scan"}, "fusion_lon": 0.0, "lat": 38.917865666666664, "bike_id": "62019196183aa1247eb43e40ca98031d", "type": "electric_scooter", "is_reserved": 0, "lon": -77.02313816666667}, {"fusion_lat": 0.0, "name": "3de99667edfdffe6a36c64d6305829cd", "is_disabled": 0, "rental_uris": {"android": "https://dc.lft.to/lastmile_qr_scan", "ios": "https://dc.lft.to/lastmile_qr_scan"}, "fusion_lon": 0.0, "lat": 38.935962833333335, "bike_id": "3de99667edfdffe6a36c64d6305829cd", "type": "electric_scooter", "is_reserved": 0, "lon": -77.02286033333333}, {"fusion_lat": 0.0, "name": "96b6c3846754cab22ce6db073dce393b", "is_disabled": 0, "rental_uris": {"android": "https://dc.lft.to/lastmile_qr_scan", "ios": "https://dc.lft.to/lastmile_qr_scan"}, "fusion_lon": 0.0, "lat": 38.942348833333334, "bike_id": "96b6c3846754cab22ce6db073dce393b", "type": "electric_bike", "is_reserved": 0, "lon": -77.01386616666667}, {"fusion_lat": 0.0, "name": "e1d0d717bac9c9299e51ecbf8a888e57", "is_disabled": 0, "rental_uris": {"android": "https://dc.lft.to/lastmile_qr_scan", "ios": "https://dc.lft.to/lastmile_qr_scan"}, "fusion_lon": 0.0, "lat": 38.9200505, "bike_id": "e1d0d717bac9c9299e51ecbf8a888e57", "type": "electric_scooter", "is_reserved": 0, "lon": -77.03135633333333}, {"fusion_lat": 0.0, "name": "773098b85a8bc81fde9e6736e4c5d98b", "is_disabled": 0, "rental_uris": {"android": "https://dc.lft.to/lastmile_qr_scan", "ios": "https://dc.lft.to/lastmile_qr_scan"}, "fusion_lon": 0.0, "lat": 38.91882416666667, "bike_id": "773098b85a8bc81fde9e6736e4c5d98b", "type": "electric_scooter", "is_reserved": 0, "lon": -77.0349155}, {"fusion_lat": 0.0, "name": "33886d51d803ee2b3e5ec15e152ad18a", "is_disabled": 0, "rental_uris": {"android": "https://dc.lft.to/lastmile_qr_scan", "ios": "https://dc.lft.to/lastmile_qr_scan"}, "fusion_lon": 0.0, "lat": 38.90963716666667, "bike_id": "33886d51d803ee2b3e5ec15e152ad18a", "type": "electric_scooter", "is_reserved": 0, "lon": -77.035475}, {"fusion_lat": 0.0, "name": "90fbd55b49df6c9bed349d62383d87af", "is_disabled": 0, "rental_uris": {"android": "https://dc.lft.to/lastmile_qr_scan", "ios": "https://dc.lft.to/lastmile_qr_scan"}, "fusion_lon": 0.0, "lat": 38.89973466666667, "bike_id": "90fbd55b49df6c9bed349d62383d87af", "type": "electric_scooter", "is_reserved": 0, "lon": -77.0240725}, {"fusion_lat": 0.0, "name": "80c1c01abb518207271936314445ec48", "is_disabled": 0, "rental_uris": {"android": "https://dc.lft.to/lastmile_qr_scan", "ios": "https://dc.lft.to/lastmile_qr_scan"}, "fusion_lon": 0.0, "lat": 38.9279125, "bike_id": "80c1c01abb518207271936314445ec48", "type": "electric_scooter", "is_reserved": 0, "lon": -77.03217733333334}, {"fusion_lat": 0.0, "name": "bd77c0ec9745491c46b57b30b555ce51", "is_disabled": 0, "rental_uris": {"android": "https://dc.lft.to/lastmile_qr_scan", "ios": "https://dc.lft.to/lastmile_qr_scan"}, "fusion_lon": 0.0, "lat": 38.804951, "bike_id": "bd77c0ec9745491c46b57b30b555ce51", "type": "electric_bike", "is_reserved": 0, "lon": -77.10161316666667}, {"fusion_lat": 0.0, "name": "6c5ba17971338d6be8fc4700aa7b32a1", "is_disabled": 0, "rental_uris": {"android": "https://dc.lft.to/lastmile_qr_scan", "ios": "https://dc.lft.to/lastmile_qr_scan"}, "fusion_lon": 0.0, "lat": 38.92049933333333, "bike_id": "6c5ba17971338d6be8fc4700aa7b32a1", "type": "electric_scooter", "is_reserved": 0, "lon": -77.00209516666666}, {"fusion_lat": 0.0, "name": "d7ef19e4f11bd162b39d6e50de5b30fa", "is_disabled": 0, "rental_uris": {"android": "https://dc.lft.to/lastmile_qr_scan", "ios": "https://dc.lft.to/lastmile_qr_scan"}, "fusion_lon": 0.0, "lat": 38.91834583333333, "bike_id": "d7ef19e4f11bd162b39d6e50de5b30fa", "type": "electric_scooter", "is_reserved": 0, "lon": -77.0351}, {"fusion_lat": 0.0, "name": "a484f04cf96769725805753c8bef48dc", "is_disabled": 0, "rental_uris": {"android": "https://dc.lft.to/lastmile_qr_scan", "ios": "https://dc.lft.to/lastmile_qr_scan"}, "fusion_lon": 0.0, "lat": 38.91303166666667, "bike_id": "a484f04cf96769725805753c8bef48dc", "type": "electric_scooter", "is_reserved": 0, "lon": -77.04870816666667}, {"fusion_lat": 0.0, "name": "e0938c8f5454052dd4b7b754bd15c3f9", "is_disabled": 0, "rental_uris": {"android": "https://dc.lft.to/lastmile_qr_scan", "ios": "https://dc.lft.to/lastmile_qr_scan"}, "fusion_lon": 0.0, "lat": 38.9250125, "bike_id": "e0938c8f5454052dd4b7b754bd15c3f9", "type": "electric_scooter", "is_reserved": 0, "lon": -77.02143516666666}, {"fusion_lat": 0.0, "name": "2e51f569eb8b22073f4565a492b32bf8", "is_disabled": 0, "rental_uris": {"android": "https://dc.lft.to/lastmile_qr_scan", "ios": "https://dc.lft.to/lastmile_qr_scan"}, "fusion_lon": 0.0, "lat": 38.917656666666666, "bike_id": "2e51f569eb8b22073f4565a492b32bf8", "type": "electric_scooter", "is_reserved": 0, "lon": -77.03640516666667}, {"fusion_lat": 0.0, "name": "f12aa67c16e392a2613fb3a1b291d4d4", "is_disabled": 0, "rental_uris": {"android": "https://dc.lft.to/lastmile_qr_scan", "ios": "https://dc.lft.to/lastmile_qr_scan"}, "fusion_lon": 0.0, "lat": 38.861682333333334, "bike_id": "f12aa67c16e392a2613fb3a1b291d4d4", "type": "electric_scooter", "is_reserved": 0, "lon": -76.98369833333334}, {"fusion_lat": 0.0, "name": "e83afbfcc414637ecb30e8b419dec354", "is_disabled": 0, "rental_uris": {"android": "https://dc.lft.to/lastmile_qr_scan", "ios": "https://dc.lft.to/lastmile_qr_scan"}, "fusion_lon": 0.0, "lat": 38.914123333333336, "bike_id": "e83afbfcc414637ecb30e8b419dec354", "type": "electric_scooter", "is_reserved": 0, "lon": -77.022154}, {"fusion_lat": 0.0, "name": "843f964e3e615d8e7ac03ddfe1123009", "is_disabled": 0, "rental_uris": {"android": "https://dc.lft.to/lastmile_qr_scan", "ios": "https://dc.lft.to/lastmile_qr_scan"}, "fusion_lon": 0.0, "lat": 38.94088966666666, "bike_id": "843f964e3e615d8e7ac03ddfe1123009", "type": "electric_scooter", "is_reserved": 0, "lon": -77.0618205}, {"fusion_lat": 0.0, "name": "386bfb365a6bb79b8cbcc94a6478ebac", "is_disabled": 0, "rental_uris": {"android": "https://dc.lft.to/lastmile_qr_scan", "ios": "https://dc.lft.to/lastmile_qr_scan"}, "fusion_lon": 0.0, "lat": 38.9339715, "bike_id": "386bfb365a6bb79b8cbcc94a6478ebac", "type": "electric_scooter", "is_reserved": 0, "lon": -77.02846566666666}, {"fusion_lat": 0.0, "name": "5adfb273e4dddcdfc559f1921589e445", "is_disabled": 0, "rental_uris": {"android": "https://dc.lft.to/lastmile_qr_scan", "ios": "https://dc.lft.to/lastmile_qr_scan"}, "fusion_lon": 0.0, "lat": 38.857697333333334, "bike_id": "5adfb273e4dddcdfc559f1921589e445", "type": "electric_bike", "is_reserved": 0, "lon": -76.9877275}, {"fusion_lat": 0.0, "name": "f43aad0cd028d3689430f73c59162ca5", "is_disabled": 0, "rental_uris": {"android": "https://dc.lft.to/lastmile_qr_scan", "ios": "https://dc.lft.to/lastmile_qr_scan"}, "fusion_lon": 0.0, "lat": 38.9086935, "bike_id": "f43aad0cd028d3689430f73c59162ca5", "type": "electric_scooter", "is_reserved": 0, "lon": -77.0322425}, {"fusion_lat": 0.0, "name": "a1eb1a5ca4bc3008cfae7147533848f1", "is_disabled": 0, "rental_uris": {"android": "https://dc.lft.to/lastmile_qr_scan", "ios": "https://dc.lft.to/lastmile_qr_scan"}, "fusion_lon": 0.0, "lat": 38.902454166666665, "bike_id": "a1eb1a5ca4bc3008cfae7147533848f1", "type": "electric_scooter", "is_reserved": 0, "lon": -77.02597066666667}, {"fusion_lat": 0.0, "name": "ca9b9e408c198f9e271ded66b15cad9f", "is_disabled": 0, "rental_uris": {"android": "https://dc.lft.to/lastmile_qr_scan", "ios": "https://dc.lft.to/lastmile_qr_scan"}, "fusion_lon": 0.0, "lat": 38.912174666666665, "bike_id": "ca9b9e408c198f9e271ded66b15cad9f", "type": "electric_scooter", "is_reserved": 0, "lon": -77.04497116666667}, {"fusion_lat": 0.0, "name": "dbb22446f87d9fade1ae2846f2e3043f", "is_disabled": 0, "rental_uris": {"android": "https://dc.lft.to/lastmile_qr_scan", "ios": "https://dc.lft.to/lastmile_qr_scan"}, "fusion_lon": 0.0, "lat": 38.91403616666667, "bike_id": "dbb22446f87d9fade1ae2846f2e3043f", "type": "electric_scooter", "is_reserved": 0, "lon": -77.03322866666667}, {"fusion_lat": 0.0, "name": "0a62448035d926cad22090fe9e02ad8a", "is_disabled": 0, "rental_uris": {"android": "https://dc.lft.to/lastmile_qr_scan", "ios": "https://dc.lft.to/lastmile_qr_scan"}, "fusion_lon": 0.0, "lat": 38.93277716666667, "bike_id": "0a62448035d926cad22090fe9e02ad8a", "type": "electric_scooter", "is_reserved": 0, "lon": -77.025644}, {"fusion_lat": 0.0, "name": "b1b7b5bebebe8586c91222d63c08bcda", "is_disabled": 0, "rental_uris": {"android": "https://dc.lft.to/lastmile_qr_scan", "ios": "https://dc.lft.to/lastmile_qr_scan"}, "fusion_lon": 0.0, "lat": 38.915525, "bike_id": "b1b7b5bebebe8586c91222d63c08bcda", "type": "electric_scooter", "is_reserved": 0, "lon": -77.0322485}, {"fusion_lat": 0.0, "name": "c530b881490e2b8abbed66fd9b6fdb01", "is_disabled": 0, "rental_uris": {"android": "https://dc.lft.to/lastmile_qr_scan", "ios": "https://dc.lft.to/lastmile_qr_scan"}, "fusion_lon": 0.0, "lat": 38.883942833333336, "bike_id": "c530b881490e2b8abbed66fd9b6fdb01", "type": "electric_scooter", "is_reserved": 0, "lon": -76.93048183333333}, {"fusion_lat": 0.0, "name": "432184ac0f5d91cac05460de5eae3ad8", "is_disabled": 0, "rental_uris": {"android": "https://dc.lft.to/lastmile_qr_scan", "ios": "https://dc.lft.to/lastmile_qr_scan"}, "fusion_lon": 0.0, "lat": 38.87721466666667, "bike_id": "432184ac0f5d91cac05460de5eae3ad8", "type": "electric_scooter", "is_reserved": 0, "lon": -77.01763316666667}, {"fusion_lat": 0.0, "name": "6bf678d9e0212934902f872e53a1d3bf", "is_disabled": 0, "rental_uris": {"android": "https://dc.lft.to/lastmile_qr_scan", "ios": "https://dc.lft.to/lastmile_qr_scan"}, "fusion_lon": 0.0, "lat": 38.9172695, "bike_id": "6bf678d9e0212934902f872e53a1d3bf", "type": "electric_scooter", "is_reserved": 0, "lon": -77.03232966666667}, {"fusion_lat": 0.0, "name": "1fc7b4e52c101083c9bff61871724402", "is_disabled": 0, "rental_uris": {"android": "https://dc.lft.to/lastmile_qr_scan", "ios": "https://dc.lft.to/lastmile_qr_scan"}, "fusion_lon": 0.0, "lat": 38.91663666666667, "bike_id": "1fc7b4e52c101083c9bff61871724402", "type": "electric_scooter", "is_reserved": 0, "lon": -77.0385625}, {"fusion_lat": 0.0, "name": "776cfcfb110514e4580532f7563a412b", "is_disabled": 0, "rental_uris": {"android": "https://dc.lft.to/lastmile_qr_scan", "ios": "https://dc.lft.to/lastmile_qr_scan"}, "fusion_lon": 0.0, "lat": 38.8860965, "bike_id": "776cfcfb110514e4580532f7563a412b", "type": "electric_scooter", "is_reserved": 0, "lon": -77.01560366666666}, {"fusion_lat": 0.0, "name": "89e92085b833922cdf1df051989bf291", "is_disabled": 0, "rental_uris": {"android": "https://dc.lft.to/lastmile_qr_scan", "ios": "https://dc.lft.to/lastmile_qr_scan"}, "fusion_lon": 0.0, "lat": 38.90241233333333, "bike_id": "89e92085b833922cdf1df051989bf291", "type": "electric_bike", "is_reserved": 0, "lon": -77.03746516666666}, {"fusion_lat": 0.0, "name": "ba1925af0c827fb708b130e3984bc6e5", "is_disabled": 0, "rental_uris": {"android": "https://dc.lft.to/lastmile_qr_scan", "ios": "https://dc.lft.to/lastmile_qr_scan"}, "fusion_lon": 0.0, "lat": 38.89228833333333, "bike_id": "ba1925af0c827fb708b130e3984bc6e5", "type": "electric_scooter", "is_reserved": 0, "lon": -77.01713466666666}, {"fusion_lat": 0.0, "name": "b765006098a936131600a959f4362cd5", "is_disabled": 0, "rental_uris": {"android": "https://dc.lft.to/lastmile_qr_scan", "ios": "https://dc.lft.to/lastmile_qr_scan"}, "fusion_lon": 0.0, "lat": 38.896360333333334, "bike_id": "b765006098a936131600a959f4362cd5", "type": "electric_scooter", "is_reserved": 0, "lon": -77.00926383333334}, {"fusion_lat": 0.0, "name": "716922f9a132386d5145812a4c5c86a9", "is_disabled": 0, "rental_uris": {"android": "https://dc.lft.to/lastmile_qr_scan", "ios": "https://dc.lft.to/lastmile_qr_scan"}, "fusion_lon": 0.0, "lat": 38.854594, "bike_id": "716922f9a132386d5145812a4c5c86a9", "type": "electric_scooter", "is_reserved": 0, "lon": -76.97235216666667}, {"fusion_lat": 0.0, "name": "89dde54d7cf26b8957119209eb8b6dc7", "is_disabled": 0, "rental_uris": {"android": "https://dc.lft.to/lastmile_qr_scan", "ios": "https://dc.lft.to/lastmile_qr_scan"}, "fusion_lon": 0.0, "lat": 38.909787, "bike_id": "89dde54d7cf26b8957119209eb8b6dc7", "type": "electric_scooter", "is_reserved": 0, "lon": -77.00891066666667}, {"fusion_lat": 0.0, "name": "af34b44869315b4c069ea7977a42d380", "is_disabled": 0, "rental_uris": {"android": "https://dc.lft.to/lastmile_qr_scan", "ios": "https://dc.lft.to/lastmile_qr_scan"}, "fusion_lon": 0.0, "lat": 38.8737755, "bike_id": "af34b44869315b4c069ea7977a42d380", "type": "electric_scooter", "is_reserved": 0, "lon": -77.00087816666667}, {"fusion_lat": 0.0, "name": "1c2c609f3114fcdb9f00042fe08123ec", "is_disabled": 0, "rental_uris": {"android": "https://dc.lft.to/lastmile_qr_scan", "ios": "https://dc.lft.to/lastmile_qr_scan"}, "fusion_lon": 0.0, "lat": 38.8848115, "bike_id": "1c2c609f3114fcdb9f00042fe08123ec", "type": "electric_scooter", "is_reserved": 0, "lon": -76.995983}, {"fusion_lat": 0.0, "name": "6e9edd1efa0bf29b85153b1f6d7817d2", "is_disabled": 0, "rental_uris": {"android": "https://dc.lft.to/lastmile_qr_scan", "ios": "https://dc.lft.to/lastmile_qr_scan"}, "fusion_lon": 0.0, "lat": 38.96370916666667, "bike_id": "6e9edd1efa0bf29b85153b1f6d7817d2", "type": "electric_scooter", "is_reserved": 0, "lon": -77.02047216666666}, {"fusion_lat": 0.0, "name": "0814c05bdf8a2a9bfa97268de8d8ad6d", "is_disabled": 0, "rental_uris": {"android": "https://dc.lft.to/lastmile_qr_scan", "ios": "https://dc.lft.to/lastmile_qr_scan"}, "fusion_lon": 0.0, "lat": 38.92850033333333, "bike_id": "0814c05bdf8a2a9bfa97268de8d8ad6d", "type": "electric_scooter", "is_reserved": 0, "lon": -77.02440533333333}, {"fusion_lat": 0.0, "name": "9f3fd0ed32eb7cf8efa48c9acb957754", "is_disabled": 0, "rental_uris": {"android": "https://dc.lft.to/lastmile_qr_scan", "ios": "https://dc.lft.to/lastmile_qr_scan"}, "fusion_lon": 0.0, "lat": 38.92134083333333, "bike_id": "9f3fd0ed32eb7cf8efa48c9acb957754", "type": "electric_scooter", "is_reserved": 0, "lon": -77.00956333333333}, {"fusion_lat": 0.0, "name": "3370db015d857bf452502ee5a0e2c4c8", "is_disabled": 0, "rental_uris": {"android": "https://dc.lft.to/lastmile_qr_scan", "ios": "https://dc.lft.to/lastmile_qr_scan"}, "fusion_lon": 0.0, "lat": 38.8876885, "bike_id": "3370db015d857bf452502ee5a0e2c4c8", "type": "electric_scooter", "is_reserved": 0, "lon": -76.97748716666666}, {"fusion_lat": 0.0, "name": "3da9833e03142e40a860d6d11942593b", "is_disabled": 0, "rental_uris": {"android": "https://dc.lft.to/lastmile_qr_scan", "ios": "https://dc.lft.to/lastmile_qr_scan"}, "fusion_lon": 0.0, "lat": 38.908688833333336, "bike_id": "3da9833e03142e40a860d6d11942593b", "type": "electric_scooter", "is_reserved": 0, "lon": -77.04270133333333}, {"fusion_lat": 0.0, "name": "55949fe2f2440361f48444a10bbb725e", "is_disabled": 0, "rental_uris": {"android": "https://dc.lft.to/lastmile_qr_scan", "ios": "https://dc.lft.to/lastmile_qr_scan"}, "fusion_lon": 0.0, "lat": 38.923641333333336, "bike_id": "55949fe2f2440361f48444a10bbb725e", "type": "electric_scooter", "is_reserved": 0, "lon": -77.04323933333333}, {"fusion_lat": 0.0, "name": "be9044b779514ca4b1605611cdf58694", "is_disabled": 0, "rental_uris": {"android": "https://dc.lft.to/lastmile_qr_scan", "ios": "https://dc.lft.to/lastmile_qr_scan"}, "fusion_lon": 0.0, "lat": 38.916850333333336, "bike_id": "be9044b779514ca4b1605611cdf58694", "type": "electric_scooter", "is_reserved": 0, "lon": -77.041424}, {"fusion_lat": 0.0, "name": "5ae5cbe408914dae830d036e581ae537", "is_disabled": 0, "rental_uris": {"android": "https://dc.lft.to/lastmile_qr_scan", "ios": "https://dc.lft.to/lastmile_qr_scan"}, "fusion_lon": 0.0, "lat": 38.906093, "bike_id": "5ae5cbe408914dae830d036e581ae537", "type": "electric_scooter", "is_reserved": 0, "lon": -77.0589725}, {"fusion_lat": 0.0, "name": "5c44e720e576b06f52ffd753f28f03cd", "is_disabled": 0, "rental_uris": {"android": "https://dc.lft.to/lastmile_qr_scan", "ios": "https://dc.lft.to/lastmile_qr_scan"}, "fusion_lon": 0.0, "lat": 38.92979666666667, "bike_id": "5c44e720e576b06f52ffd753f28f03cd", "type": "electric_scooter", "is_reserved": 0, "lon": -77.02531433333333}, {"fusion_lat": 0.0, "name": "724132a06fc82ce141ab834813f07a9d", "is_disabled": 0, "rental_uris": {"android": "https://dc.lft.to/lastmile_qr_scan", "ios": "https://dc.lft.to/lastmile_qr_scan"}, "fusion_lon": 0.0, "lat": 38.90026066666667, "bike_id": "724132a06fc82ce141ab834813f07a9d", "type": "electric_bike", "is_reserved": 0, "lon": -76.98755983333334}, {"fusion_lat": 0.0, "name": "4024affca162ea5b1e0d2b210e87b76a", "is_disabled": 0, "rental_uris": {"android": "https://dc.lft.to/lastmile_qr_scan", "ios": "https://dc.lft.to/lastmile_qr_scan"}, "fusion_lon": 0.0, "lat": 38.91641166666667, "bike_id": "4024affca162ea5b1e0d2b210e87b76a", "type": "electric_scooter", "is_reserved": 0, "lon": -77.04793366666667}, {"fusion_lat": 0.0, "name": "be37f083b5f03bc280432fa9948d6391", "is_disabled": 0, "rental_uris": {"android": "https://dc.lft.to/lastmile_qr_scan", "ios": "https://dc.lft.to/lastmile_qr_scan"}, "fusion_lon": 0.0, "lat": 38.924173333333336, "bike_id": "be37f083b5f03bc280432fa9948d6391", "type": "electric_scooter", "is_reserved": 0, "lon": -77.0364195}, {"fusion_lat": 0.0, "name": "0c60622ae5db62a3eaa955b81f856709", "is_disabled": 0, "rental_uris": {"android": "https://dc.lft.to/lastmile_qr_scan", "ios": "https://dc.lft.to/lastmile_qr_scan"}, "fusion_lon": 0.0, "lat": 38.89991966666667, "bike_id": "0c60622ae5db62a3eaa955b81f856709", "type": "electric_scooter", "is_reserved": 0, "lon": -76.98439466666666}, {"fusion_lat": 0.0, "name": "ee30862ff073fefd7da1a7d2b963c17c", "is_disabled": 0, "rental_uris": {"android": "https://dc.lft.to/lastmile_qr_scan", "ios": "https://dc.lft.to/lastmile_qr_scan"}, "fusion_lon": 0.0, "lat": 38.9283015, "bike_id": "ee30862ff073fefd7da1a7d2b963c17c", "type": "electric_scooter", "is_reserved": 0, "lon": -77.05977533333333}, {"fusion_lat": 0.0, "name": "00a3d085cd51feee5b2462a27c68d7be", "is_disabled": 0, "rental_uris": {"android": "https://dc.lft.to/lastmile_qr_scan", "ios": "https://dc.lft.to/lastmile_qr_scan"}, "fusion_lon": 0.0, "lat": 38.9141525, "bike_id": "00a3d085cd51feee5b2462a27c68d7be", "type": "electric_scooter", "is_reserved": 0, "lon": -77.04501683333334}, {"fusion_lat": 0.0, "name": "9958e72da5445168524b017eea2b8d46", "is_disabled": 0, "rental_uris": {"android": "https://dc.lft.to/lastmile_qr_scan", "ios": "https://dc.lft.to/lastmile_qr_scan"}, "fusion_lon": 0.0, "lat": 38.900212833333335, "bike_id": "9958e72da5445168524b017eea2b8d46", "type": "electric_scooter", "is_reserved": 0, "lon": -77.00186816666667}, {"fusion_lat": 0.0, "name": "7af712140dd8b59c7f97b0fa52543f65", "is_disabled": 0, "rental_uris": {"android": "https://dc.lft.to/lastmile_qr_scan", "ios": "https://dc.lft.to/lastmile_qr_scan"}, "fusion_lon": 0.0, "lat": 39.036081833333334, "bike_id": "7af712140dd8b59c7f97b0fa52543f65", "type": "electric_bike", "is_reserved": 0, "lon": -77.055484}, {"fusion_lat": 0.0, "name": "209dff0877731c13c9e67b9533052389", "is_disabled": 0, "rental_uris": {"android": "https://dc.lft.to/lastmile_qr_scan", "ios": "https://dc.lft.to/lastmile_qr_scan"}, "fusion_lon": 0.0, "lat": 38.902745333333336, "bike_id": "209dff0877731c13c9e67b9533052389", "type": "electric_scooter", "is_reserved": 0, "lon": -76.9767245}, {"fusion_lat": 0.0, "name": "ce431b57c6e48e0fc4764b971041dd73", "is_disabled": 0, "rental_uris": {"android": "https://dc.lft.to/lastmile_qr_scan", "ios": "https://dc.lft.to/lastmile_qr_scan"}, "fusion_lon": 0.0, "lat": 38.892209, "bike_id": "ce431b57c6e48e0fc4764b971041dd73", "type": "electric_scooter", "is_reserved": 0, "lon": -77.0440505}, {"fusion_lat": 0.0, "name": "44df0ca67fb3f2eafbff729c4504e14d", "is_disabled": 0, "rental_uris": {"android": "https://dc.lft.to/lastmile_qr_scan", "ios": "https://dc.lft.to/lastmile_qr_scan"}, "fusion_lon": 0.0, "lat": 38.93493983333333, "bike_id": "44df0ca67fb3f2eafbff729c4504e14d", "type": "electric_scooter", "is_reserved": 0, "lon": -77.045413}, {"fusion_lat": 0.0, "name": "fe8f9cefaa14dda3aaf4840311862776", "is_disabled": 0, "rental_uris": {"android": "https://dc.lft.to/lastmile_qr_scan", "ios": "https://dc.lft.to/lastmile_qr_scan"}, "fusion_lon": 0.0, "lat": 38.89671283333333, "bike_id": "fe8f9cefaa14dda3aaf4840311862776", "type": "electric_scooter", "is_reserved": 0, "lon": -76.932111}, {"fusion_lat": 0.0, "name": "30bd8dcf0c73c061dc7cf9217f4c25c3", "is_disabled": 0, "rental_uris": {"android": "https://dc.lft.to/lastmile_qr_scan", "ios": "https://dc.lft.to/lastmile_qr_scan"}, "fusion_lon": 0.0, "lat": 38.92454266666667, "bike_id": "30bd8dcf0c73c061dc7cf9217f4c25c3", "type": "electric_scooter", "is_reserved": 0, "lon": -77.02403266666667}, {"fusion_lat": 0.0, "name": "2e52264c05f140c1fe8930f1c5b8908b", "is_disabled": 0, "rental_uris": {"android": "https://dc.lft.to/lastmile_qr_scan", "ios": "https://dc.lft.to/lastmile_qr_scan"}, "fusion_lon": 0.0, "lat": 38.905373, "bike_id": "2e52264c05f140c1fe8930f1c5b8908b", "type": "electric_scooter", "is_reserved": 0, "lon": -76.99834883333334}, {"fusion_lat": 0.0, "name": "7fb9f75e13033594bf1132e5e2811474", "is_disabled": 0, "rental_uris": {"android": "https://dc.lft.to/lastmile_qr_scan", "ios": "https://dc.lft.to/lastmile_qr_scan"}, "fusion_lon": 0.0, "lat": 38.871775166666666, "bike_id": "7fb9f75e13033594bf1132e5e2811474", "type": "electric_scooter", "is_reserved": 0, "lon": -77.006174}, {"fusion_lat": 0.0, "name": "55d66f86c3584924bea989d2bbb7ffaa", "is_disabled": 0, "rental_uris": {"android": "https://dc.lft.to/lastmile_qr_scan", "ios": "https://dc.lft.to/lastmile_qr_scan"}, "fusion_lon": 0.0, "lat": 38.95375966666667, "bike_id": "55d66f86c3584924bea989d2bbb7ffaa", "type": "electric_bike", "is_reserved": 0, "lon": -76.97959866666666}, {"fusion_lat": 0.0, "name": "a245430eb15e405ce9362933cf575beb", "is_disabled": 0, "rental_uris": {"android": "https://dc.lft.to/lastmile_qr_scan", "ios": "https://dc.lft.to/lastmile_qr_scan"}, "fusion_lon": 0.0, "lat": 38.9046115, "bike_id": "a245430eb15e405ce9362933cf575beb", "type": "electric_scooter", "is_reserved": 0, "lon": -77.00342166666667}, {"fusion_lat": 0.0, "name": "48c916520225a13780834d9fe87b1cf1", "is_disabled": 0, "rental_uris": {"android": "https://dc.lft.to/lastmile_qr_scan", "ios": "https://dc.lft.to/lastmile_qr_scan"}, "fusion_lon": 0.0, "lat": 38.92703316666667, "bike_id": "48c916520225a13780834d9fe87b1cf1", "type": "electric_scooter", "is_reserved": 0, "lon": -77.020726}, {"fusion_lat": 0.0, "name": "218c4e7db3e109869eedbc1fde5d4732", "is_disabled": 0, "rental_uris": {"android": "https://dc.lft.to/lastmile_qr_scan", "ios": "https://dc.lft.to/lastmile_qr_scan"}, "fusion_lon": 0.0, "lat": 38.915222166666666, "bike_id": "218c4e7db3e109869eedbc1fde5d4732", "type": "electric_scooter", "is_reserved": 0, "lon": -77.07274433333333}, {"fusion_lat": 0.0, "name": "79a7992cb7804b30eb799a87f501ad73", "is_disabled": 0, "rental_uris": {"android": "https://dc.lft.to/lastmile_qr_scan", "ios": "https://dc.lft.to/lastmile_qr_scan"}, "fusion_lon": 0.0, "lat": 38.92346166666667, "bike_id": "79a7992cb7804b30eb799a87f501ad73", "type": "electric_scooter", "is_reserved": 0, "lon": -77.020168}, {"fusion_lat": 0.0, "name": "3a50035625b37de38c88fab7e675f45a", "is_disabled": 0, "rental_uris": {"android": "https://dc.lft.to/lastmile_qr_scan", "ios": "https://dc.lft.to/lastmile_qr_scan"}, "fusion_lon": 0.0, "lat": 38.922212333333334, "bike_id": "3a50035625b37de38c88fab7e675f45a", "type": "electric_scooter", "is_reserved": 0, "lon": -76.983785}, {"fusion_lat": 0.0, "name": "604906336ebf90f9c7efe54f42a1dbe1", "is_disabled": 0, "rental_uris": {"android": "https://dc.lft.to/lastmile_qr_scan", "ios": "https://dc.lft.to/lastmile_qr_scan"}, "fusion_lon": 0.0, "lat": 38.87659266666667, "bike_id": "604906336ebf90f9c7efe54f42a1dbe1", "type": "electric_scooter", "is_reserved": 0, "lon": -77.001185}, {"fusion_lat": 0.0, "name": "f46a3986361b968ec0ac84247cb17f62", "is_disabled": 0, "rental_uris": {"android": "https://dc.lft.to/lastmile_qr_scan", "ios": "https://dc.lft.to/lastmile_qr_scan"}, "fusion_lon": 0.0, "lat": 38.93125666666667, "bike_id": "f46a3986361b968ec0ac84247cb17f62", "type": "electric_scooter", "is_reserved": 0, "lon": -77.038537}, {"fusion_lat": 0.0, "name": "374f6d1e72795014a5fd6a85b45e3795", "is_disabled": 0, "rental_uris": {"android": "https://dc.lft.to/lastmile_qr_scan", "ios": "https://dc.lft.to/lastmile_qr_scan"}, "fusion_lon": 0.0, "lat": 38.9061765, "bike_id": "374f6d1e72795014a5fd6a85b45e3795", "type": "electric_scooter", "is_reserved": 0, "lon": -77.05048133333334}, {"fusion_lat": 0.0, "name": "fea3bc1e52f03d316dac44ed14b7c743", "is_disabled": 0, "rental_uris": {"android": "https://dc.lft.to/lastmile_qr_scan", "ios": "https://dc.lft.to/lastmile_qr_scan"}, "fusion_lon": 0.0, "lat": 38.908666833333335, "bike_id": "fea3bc1e52f03d316dac44ed14b7c743", "type": "electric_bike", "is_reserved": 0, "lon": -77.03215933333334}, {"fusion_lat": 0.0, "name": "c1ddf10502cdaf2e46582b9e289e2703", "is_disabled": 0, "rental_uris": {"android": "https://dc.lft.to/lastmile_qr_scan", "ios": "https://dc.lft.to/lastmile_qr_scan"}, "fusion_lon": 0.0, "lat": 38.9086505, "bike_id": "c1ddf10502cdaf2e46582b9e289e2703", "type": "electric_scooter", "is_reserved": 0, "lon": -77.00933333333333}, {"fusion_lat": 0.0, "name": "06af97427c726efd5006230d38f53ee1", "is_disabled": 0, "rental_uris": {"android": "https://dc.lft.to/lastmile_qr_scan", "ios": "https://dc.lft.to/lastmile_qr_scan"}, "fusion_lon": 0.0, "lat": 38.919578333333334, "bike_id": "06af97427c726efd5006230d38f53ee1", "type": "electric_bike", "is_reserved": 0, "lon": -77.10111316666666}, {"fusion_lat": 0.0, "name": "663ad422d3de59d3f852df0a118e2594", "is_disabled": 0, "rental_uris": {"android": "https://dc.lft.to/lastmile_qr_scan", "ios": "https://dc.lft.to/lastmile_qr_scan"}, "fusion_lon": 0.0, "lat": 38.90658633333334, "bike_id": "663ad422d3de59d3f852df0a118e2594", "type": "electric_scooter", "is_reserved": 0, "lon": -77.01411916666666}, {"fusion_lat": 0.0, "name": "ef88a120db39288eed6125c436284a28", "is_disabled": 0, "rental_uris": {"android": "https://dc.lft.to/lastmile_qr_scan", "ios": "https://dc.lft.to/lastmile_qr_scan"}, "fusion_lon": 0.0, "lat": 38.9361425, "bike_id": "ef88a120db39288eed6125c436284a28", "type": "electric_scooter", "is_reserved": 0, "lon": -77.081813}, {"fusion_lat": 0.0, "name": "25d1ac0867a3c507dd5a64a0aff295dc", "is_disabled": 0, "rental_uris": {"android": "https://dc.lft.to/lastmile_qr_scan", "ios": "https://dc.lft.to/lastmile_qr_scan"}, "fusion_lon": 0.0, "lat": 38.9024975, "bike_id": "25d1ac0867a3c507dd5a64a0aff295dc", "type": "electric_scooter", "is_reserved": 0, "lon": -77.0275885}, {"fusion_lat": 0.0, "name": "827c88ae43399ccd8cccdd5b67345c11", "is_disabled": 0, "rental_uris": {"android": "https://dc.lft.to/lastmile_qr_scan", "ios": "https://dc.lft.to/lastmile_qr_scan"}, "fusion_lon": 0.0, "lat": 38.9279195, "bike_id": "827c88ae43399ccd8cccdd5b67345c11", "type": "electric_scooter", "is_reserved": 0, "lon": -76.99563866666666}, {"fusion_lat": 0.0, "name": "da89de8f9d34c488e7d6d64aac5160aa", "is_disabled": 0, "rental_uris": {"android": "https://dc.lft.to/lastmile_qr_scan", "ios": "https://dc.lft.to/lastmile_qr_scan"}, "fusion_lon": 0.0, "lat": 38.983917166666664, "bike_id": "da89de8f9d34c488e7d6d64aac5160aa", "type": "electric_scooter", "is_reserved": 0, "lon": -77.0263475}, {"fusion_lat": 0.0, "name": "8095717e127dad6eecf6148666b26d78", "is_disabled": 0, "rental_uris": {"android": "https://dc.lft.to/lastmile_qr_scan", "ios": "https://dc.lft.to/lastmile_qr_scan"}, "fusion_lon": 0.0, "lat": 38.92798483333333, "bike_id": "8095717e127dad6eecf6148666b26d78", "type": "electric_scooter", "is_reserved": 0, "lon": -77.03253983333333}, {"fusion_lat": 0.0, "name": "2c335c74dc47183ba220a8562c7bf4e6", "is_disabled": 0, "rental_uris": {"android": "https://dc.lft.to/lastmile_qr_scan", "ios": "https://dc.lft.to/lastmile_qr_scan"}, "fusion_lon": 0.0, "lat": 38.92626516666667, "bike_id": "2c335c74dc47183ba220a8562c7bf4e6", "type": "electric_scooter", "is_reserved": 0, "lon": -77.03931666666666}, {"fusion_lat": 0.0, "name": "4dc3352d542712bc5b2fae273c536b48", "is_disabled": 0, "rental_uris": {"android": "https://dc.lft.to/lastmile_qr_scan", "ios": "https://dc.lft.to/lastmile_qr_scan"}, "fusion_lon": 0.0, "lat": 38.907331, "bike_id": "4dc3352d542712bc5b2fae273c536b48", "type": "electric_scooter", "is_reserved": 0, "lon": -77.00710633333334}, {"fusion_lat": 0.0, "name": "74a9b8f8ce6ff19524c9bd178fd017a7", "is_disabled": 0, "rental_uris": {"android": "https://dc.lft.to/lastmile_qr_scan", "ios": "https://dc.lft.to/lastmile_qr_scan"}, "fusion_lon": 0.0, "lat": 38.94524083333334, "bike_id": "74a9b8f8ce6ff19524c9bd178fd017a7", "type": "electric_scooter", "is_reserved": 0, "lon": -77.02273}, {"fusion_lat": 0.0, "name": "670e1171a259fbe3d3f27b08fd2be086", "is_disabled": 0, "rental_uris": {"android": "https://dc.lft.to/lastmile_qr_scan", "ios": "https://dc.lft.to/lastmile_qr_scan"}, "fusion_lon": 0.0, "lat": 38.91907966666667, "bike_id": "670e1171a259fbe3d3f27b08fd2be086", "type": "electric_scooter", "is_reserved": 0, "lon": -77.01229966666666}, {"fusion_lat": 0.0, "name": "91d43e1c0c547ae3722602999da1a62b", "is_disabled": 0, "rental_uris": {"android": "https://dc.lft.to/lastmile_qr_scan", "ios": "https://dc.lft.to/lastmile_qr_scan"}, "fusion_lon": 0.0, "lat": 38.87163533333333, "bike_id": "91d43e1c0c547ae3722602999da1a62b", "type": "electric_scooter", "is_reserved": 0, "lon": -76.97731933333333}, {"fusion_lat": 0.0, "name": "47cfee2760e3518a21a9da260fca8a8d", "is_disabled": 0, "rental_uris": {"android": "https://dc.lft.to/lastmile_qr_scan", "ios": "https://dc.lft.to/lastmile_qr_scan"}, "fusion_lon": 0.0, "lat": 38.9072635, "bike_id": "47cfee2760e3518a21a9da260fca8a8d", "type": "electric_scooter", "is_reserved": 0, "lon": -77.02976183333334}, {"fusion_lat": 0.0, "name": "c66c9e69c9ab5ce493e860dbbb6f56ad", "is_disabled": 0, "rental_uris": {"android": "https://dc.lft.to/lastmile_qr_scan", "ios": "https://dc.lft.to/lastmile_qr_scan"}, "fusion_lon": 0.0, "lat": 38.88713933333333, "bike_id": "c66c9e69c9ab5ce493e860dbbb6f56ad", "type": "electric_scooter", "is_reserved": 0, "lon": -77.01778183333333}, {"fusion_lat": 0.0, "name": "fd1f078d3b7fa8ec9f44b9760057cd8d", "is_disabled": 0, "rental_uris": {"android": "https://dc.lft.to/lastmile_qr_scan", "ios": "https://dc.lft.to/lastmile_qr_scan"}, "fusion_lon": 0.0, "lat": 38.867664166666664, "bike_id": "fd1f078d3b7fa8ec9f44b9760057cd8d", "type": "electric_scooter", "is_reserved": 0, "lon": -76.98272583333333}, {"fusion_lat": 0.0, "name": "8d9331fdb2a5f22200060ad6597f0984", "is_disabled": 0, "rental_uris": {"android": "https://dc.lft.to/lastmile_qr_scan", "ios": "https://dc.lft.to/lastmile_qr_scan"}, "fusion_lon": 0.0, "lat": 38.874443, "bike_id": "8d9331fdb2a5f22200060ad6597f0984", "type": "electric_scooter", "is_reserved": 0, "lon": -77.0007295}, {"fusion_lat": 0.0, "name": "e04ea167310240f15c90a8ed82a45dcf", "is_disabled": 0, "rental_uris": {"android": "https://dc.lft.to/lastmile_qr_scan", "ios": "https://dc.lft.to/lastmile_qr_scan"}, "fusion_lon": 0.0, "lat": 38.889070833333335, "bike_id": "e04ea167310240f15c90a8ed82a45dcf", "type": "electric_scooter", "is_reserved": 0, "lon": -76.97737516666666}, {"fusion_lat": 0.0, "name": "5812017e3bb7aa189ba6efeb55472af2", "is_disabled": 0, "rental_uris": {"android": "https://dc.lft.to/lastmile_qr_scan", "ios": "https://dc.lft.to/lastmile_qr_scan"}, "fusion_lon": 0.0, "lat": 38.92797316666667, "bike_id": "5812017e3bb7aa189ba6efeb55472af2", "type": "electric_scooter", "is_reserved": 0, "lon": -77.02395466666667}, {"fusion_lat": 0.0, "name": "fbf5fb218c7d3d5a3690a1bae24c4cb8", "is_disabled": 0, "rental_uris": {"android": "https://dc.lft.to/lastmile_qr_scan", "ios": "https://dc.lft.to/lastmile_qr_scan"}, "fusion_lon": 0.0, "lat": 38.91635466666666, "bike_id": "fbf5fb218c7d3d5a3690a1bae24c4cb8", "type": "electric_scooter", "is_reserved": 0, "lon": -77.045257}, {"fusion_lat": 0.0, "name": "86dc42640cf845503c5f870e4bcbe3c2", "is_disabled": 0, "rental_uris": {"android": "https://dc.lft.to/lastmile_qr_scan", "ios": "https://dc.lft.to/lastmile_qr_scan"}, "fusion_lon": 0.0, "lat": 38.93527533333334, "bike_id": "86dc42640cf845503c5f870e4bcbe3c2", "type": "electric_scooter", "is_reserved": 0, "lon": -77.072658}, {"fusion_lat": 0.0, "name": "7bf59803876ca0c100b4f71764542f57", "is_disabled": 0, "rental_uris": {"android": "https://dc.lft.to/lastmile_qr_scan", "ios": "https://dc.lft.to/lastmile_qr_scan"}, "fusion_lon": 0.0, "lat": 38.898734166666664, "bike_id": "7bf59803876ca0c100b4f71764542f57", "type": "electric_scooter", "is_reserved": 0, "lon": -76.93185583333333}, {"fusion_lat": 0.0, "name": "27b22359d2e36cd990dfcd2cf9956a2a", "is_disabled": 0, "rental_uris": {"android": "https://dc.lft.to/lastmile_qr_scan", "ios": "https://dc.lft.to/lastmile_qr_scan"}, "fusion_lon": 0.0, "lat": 38.86245133333333, "bike_id": "27b22359d2e36cd990dfcd2cf9956a2a", "type": "electric_scooter", "is_reserved": 0, "lon": -76.99499516666667}, {"fusion_lat": 0.0, "name": "b3c8a93f73944913b11891fc6a45dd27", "is_disabled": 0, "rental_uris": {"android": "https://dc.lft.to/lastmile_qr_scan", "ios": "https://dc.lft.to/lastmile_qr_scan"}, "fusion_lon": 0.0, "lat": 38.8833735, "bike_id": "b3c8a93f73944913b11891fc6a45dd27", "type": "electric_scooter", "is_reserved": 0, "lon": -77.01761883333333}, {"fusion_lat": 0.0, "name": "f2e86db82d2d11c659982e7b3f38ce16", "is_disabled": 0, "rental_uris": {"android": "https://dc.lft.to/lastmile_qr_scan", "ios": "https://dc.lft.to/lastmile_qr_scan"}, "fusion_lon": 0.0, "lat": 38.90028183333333, "bike_id": "f2e86db82d2d11c659982e7b3f38ce16", "type": "electric_scooter", "is_reserved": 0, "lon": -77.03324583333334}, {"fusion_lat": 0.0, "name": "8d0a887b0c6332b673a64ea6f5faed78", "is_disabled": 0, "rental_uris": {"android": "https://dc.lft.to/lastmile_qr_scan", "ios": "https://dc.lft.to/lastmile_qr_scan"}, "fusion_lon": 0.0, "lat": 38.908131833333336, "bike_id": "8d0a887b0c6332b673a64ea6f5faed78", "type": "electric_scooter", "is_reserved": 0, "lon": -77.03430166666666}, {"fusion_lat": 0.0, "name": "473880958f91b7160adf4d93bca2abe2", "is_disabled": 0, "rental_uris": {"android": "https://dc.lft.to/lastmile_qr_scan", "ios": "https://dc.lft.to/lastmile_qr_scan"}, "fusion_lon": 0.0, "lat": 38.874059333333335, "bike_id": "473880958f91b7160adf4d93bca2abe2", "type": "electric_scooter", "is_reserved": 0, "lon": -76.99997583333334}, {"fusion_lat": 0.0, "name": "b95c0ecdd574710cc9f3c6f2b01ac38b", "is_disabled": 0, "rental_uris": {"android": "https://dc.lft.to/lastmile_qr_scan", "ios": "https://dc.lft.to/lastmile_qr_scan"}, "fusion_lon": 0.0, "lat": 39.05252516666667, "bike_id": "b95c0ecdd574710cc9f3c6f2b01ac38b", "type": "electric_bike", "is_reserved": 0, "lon": -77.08067433333333}, {"fusion_lat": 0.0, "name": "6527fc83014268971de0a104ed620713", "is_disabled": 0, "rental_uris": {"android": "https://dc.lft.to/lastmile_qr_scan", "ios": "https://dc.lft.to/lastmile_qr_scan"}, "fusion_lon": 0.0, "lat": 38.92746833333333, "bike_id": "6527fc83014268971de0a104ed620713", "type": "electric_scooter", "is_reserved": 0, "lon": -77.02434816666667}, {"fusion_lat": 0.0, "name": "8a20ace8c9902209b0dcbb0f16bd09a4", "is_disabled": 0, "rental_uris": {"android": "https://dc.lft.to/lastmile_qr_scan", "ios": "https://dc.lft.to/lastmile_qr_scan"}, "fusion_lon": 0.0, "lat": 38.899318, "bike_id": "8a20ace8c9902209b0dcbb0f16bd09a4", "type": "electric_scooter", "is_reserved": 0, "lon": -77.00361666666667}, {"fusion_lat": 0.0, "name": "499455503c51e084f84e06ac9d774617", "is_disabled": 0, "rental_uris": {"android": "https://dc.lft.to/lastmile_qr_scan", "ios": "https://dc.lft.to/lastmile_qr_scan"}, "fusion_lon": 0.0, "lat": 38.88331733333333, "bike_id": "499455503c51e084f84e06ac9d774617", "type": "electric_scooter", "is_reserved": 0, "lon": -77.01776316666667}, {"fusion_lat": 0.0, "name": "91468257335116ce115dd1a5a52ff2b0", "is_disabled": 0, "rental_uris": {"android": "https://dc.lft.to/lastmile_qr_scan", "ios": "https://dc.lft.to/lastmile_qr_scan"}, "fusion_lon": 0.0, "lat": 38.89620266666667, "bike_id": "91468257335116ce115dd1a5a52ff2b0", "type": "electric_scooter", "is_reserved": 0, "lon": -77.00919483333334}, {"fusion_lat": 0.0, "name": "1ca8614f0797d87c454e1d02e0f50302", "is_disabled": 0, "rental_uris": {"android": "https://dc.lft.to/lastmile_qr_scan", "ios": "https://dc.lft.to/lastmile_qr_scan"}, "fusion_lon": 0.0, "lat": 38.92682683333334, "bike_id": "1ca8614f0797d87c454e1d02e0f50302", "type": "electric_scooter", "is_reserved": 0, "lon": -77.0314455}, {"fusion_lat": 0.0, "name": "ef5722d58d0a60361d49a905bd460ada", "is_disabled": 0, "rental_uris": {"android": "https://dc.lft.to/lastmile_qr_scan", "ios": "https://dc.lft.to/lastmile_qr_scan"}, "fusion_lon": 0.0, "lat": 38.9320295, "bike_id": "ef5722d58d0a60361d49a905bd460ada", "type": "electric_scooter", "is_reserved": 0, "lon": -77.03856433333333}, {"fusion_lat": 0.0, "name": "311fae744431db0dd1bd9181be89cce7", "is_disabled": 0, "rental_uris": {"android": "https://dc.lft.to/lastmile_qr_scan", "ios": "https://dc.lft.to/lastmile_qr_scan"}, "fusion_lon": 0.0, "lat": 38.9166825, "bike_id": "311fae744431db0dd1bd9181be89cce7", "type": "electric_scooter", "is_reserved": 0, "lon": -77.03852616666667}, {"fusion_lat": 0.0, "name": "628d6d85e955612262f7c13d55c23314", "is_disabled": 0, "rental_uris": {"android": "https://dc.lft.to/lastmile_qr_scan", "ios": "https://dc.lft.to/lastmile_qr_scan"}, "fusion_lon": 0.0, "lat": 38.90699633333333, "bike_id": "628d6d85e955612262f7c13d55c23314", "type": "electric_scooter", "is_reserved": 0, "lon": -77.07481566666667}, {"fusion_lat": 0.0, "name": "31ea0e3a403f6f080d169d95f0e9e4bd", "is_disabled": 0, "rental_uris": {"android": "https://dc.lft.to/lastmile_qr_scan", "ios": "https://dc.lft.to/lastmile_qr_scan"}, "fusion_lon": 0.0, "lat": 38.901349, "bike_id": "31ea0e3a403f6f080d169d95f0e9e4bd", "type": "electric_scooter", "is_reserved": 0, "lon": -77.03846916666667}, {"fusion_lat": 0.0, "name": "77c9713fb93bd880c6c91f3ae16e1001", "is_disabled": 0, "rental_uris": {"android": "https://dc.lft.to/lastmile_qr_scan", "ios": "https://dc.lft.to/lastmile_qr_scan"}, "fusion_lon": 0.0, "lat": 38.8663645, "bike_id": "77c9713fb93bd880c6c91f3ae16e1001", "type": "electric_scooter", "is_reserved": 0, "lon": -76.98306016666666}, {"fusion_lat": 0.0, "name": "2dfd77f2c5efaef6a4fdd3b82b88f11c", "is_disabled": 0, "rental_uris": {"android": "https://dc.lft.to/lastmile_qr_scan", "ios": "https://dc.lft.to/lastmile_qr_scan"}, "fusion_lon": 0.0, "lat": 38.90958533333333, "bike_id": "2dfd77f2c5efaef6a4fdd3b82b88f11c", "type": "electric_scooter", "is_reserved": 0, "lon": -77.03481}, {"fusion_lat": 0.0, "name": "a97b0aaf48a36d732de8dfe5881aaa04", "is_disabled": 0, "rental_uris": {"android": "https://dc.lft.to/lastmile_qr_scan", "ios": "https://dc.lft.to/lastmile_qr_scan"}, "fusion_lon": 0.0, "lat": 38.941652833333336, "bike_id": "a97b0aaf48a36d732de8dfe5881aaa04", "type": "electric_scooter", "is_reserved": 0, "lon": -77.025146}, {"fusion_lat": 0.0, "name": "75a69c6215db06381662f6794cb687f0", "is_disabled": 0, "rental_uris": {"android": "https://dc.lft.to/lastmile_qr_scan", "ios": "https://dc.lft.to/lastmile_qr_scan"}, "fusion_lon": 0.0, "lat": 38.893622, "bike_id": "75a69c6215db06381662f6794cb687f0", "type": "electric_scooter", "is_reserved": 0, "lon": -77.02804316666666}, {"fusion_lat": 0.0, "name": "f9d022914a26b4f44990d241d6a82658", "is_disabled": 0, "rental_uris": {"android": "https://dc.lft.to/lastmile_qr_scan", "ios": "https://dc.lft.to/lastmile_qr_scan"}, "fusion_lon": 0.0, "lat": 38.907760833333334, "bike_id": "f9d022914a26b4f44990d241d6a82658", "type": "electric_bike", "is_reserved": 0, "lon": -76.99856566666666}, {"fusion_lat": 0.0, "name": "c93a9ab42bdbd209db90f2cdf0672aa4", "is_disabled": 0, "rental_uris": {"android": "https://dc.lft.to/lastmile_qr_scan", "ios": "https://dc.lft.to/lastmile_qr_scan"}, "fusion_lon": 0.0, "lat": 38.8881195, "bike_id": "c93a9ab42bdbd209db90f2cdf0672aa4", "type": "electric_scooter", "is_reserved": 0, "lon": -76.983539}, {"fusion_lat": 0.0, "name": "495950cd8ad12e592a1f5d08c08f3270", "is_disabled": 0, "rental_uris": {"android": "https://dc.lft.to/lastmile_qr_scan", "ios": "https://dc.lft.to/lastmile_qr_scan"}, "fusion_lon": 0.0, "lat": 38.904313, "bike_id": "495950cd8ad12e592a1f5d08c08f3270", "type": "electric_scooter", "is_reserved": 0, "lon": -77.03837816666666}, {"fusion_lat": 0.0, "name": "d08b19dbf821b1cd4bc57e6cc5fdde38", "is_disabled": 0, "rental_uris": {"android": "https://dc.lft.to/lastmile_qr_scan", "ios": "https://dc.lft.to/lastmile_qr_scan"}, "fusion_lon": 0.0, "lat": 38.92555483333334, "bike_id": "d08b19dbf821b1cd4bc57e6cc5fdde38", "type": "electric_scooter", "is_reserved": 0, "lon": -76.98301733333334}, {"fusion_lat": 0.0, "name": "a4afa18ded359b555dbbc4b2028cf454", "is_disabled": 0, "rental_uris": {"android": "https://dc.lft.to/lastmile_qr_scan", "ios": "https://dc.lft.to/lastmile_qr_scan"}, "fusion_lon": 0.0, "lat": 38.91268433333333, "bike_id": "a4afa18ded359b555dbbc4b2028cf454", "type": "electric_scooter", "is_reserved": 0, "lon": -77.03145233333333}, {"fusion_lat": 0.0, "name": "4321ac24bdabf75befa35ff2aa5c4084", "is_disabled": 0, "rental_uris": {"android": "https://dc.lft.to/lastmile_qr_scan", "ios": "https://dc.lft.to/lastmile_qr_scan"}, "fusion_lon": 0.0, "lat": 38.93140116666667, "bike_id": "4321ac24bdabf75befa35ff2aa5c4084", "type": "electric_scooter", "is_reserved": 0, "lon": -77.02199033333333}, {"fusion_lat": 0.0, "name": "c24d22708e7affa12332943b6f5bb943", "is_disabled": 0, "rental_uris": {"android": "https://dc.lft.to/lastmile_qr_scan", "ios": "https://dc.lft.to/lastmile_qr_scan"}, "fusion_lon": 0.0, "lat": 38.91970216666667, "bike_id": "c24d22708e7affa12332943b6f5bb943", "type": "electric_scooter", "is_reserved": 0, "lon": -77.0238825}, {"fusion_lat": 0.0, "name": "80e31b980fc2003815ffef01f6dc464c", "is_disabled": 0, "rental_uris": {"android": "https://dc.lft.to/lastmile_qr_scan", "ios": "https://dc.lft.to/lastmile_qr_scan"}, "fusion_lon": 0.0, "lat": 38.89905066666667, "bike_id": "80e31b980fc2003815ffef01f6dc464c", "type": "electric_scooter", "is_reserved": 0, "lon": -76.9335065}, {"fusion_lat": 0.0, "name": "66c65dabf957199ec36b21f470d1ef63", "is_disabled": 0, "rental_uris": {"android": "https://dc.lft.to/lastmile_qr_scan", "ios": "https://dc.lft.to/lastmile_qr_scan"}, "fusion_lon": 0.0, "lat": 38.9361545, "bike_id": "66c65dabf957199ec36b21f470d1ef63", "type": "electric_scooter", "is_reserved": 0, "lon": -77.03195316666667}, {"fusion_lat": 0.0, "name": "3257e32d251fc37c88b69efc013e2dbd", "is_disabled": 0, "rental_uris": {"android": "https://dc.lft.to/lastmile_qr_scan", "ios": "https://dc.lft.to/lastmile_qr_scan"}, "fusion_lon": 0.0, "lat": 38.884929666666665, "bike_id": "3257e32d251fc37c88b69efc013e2dbd", "type": "electric_scooter", "is_reserved": 0, "lon": -77.00727483333333}, {"fusion_lat": 0.0, "name": "caba834a75642ebde01652b8c9d459c4", "is_disabled": 0, "rental_uris": {"android": "https://dc.lft.to/lastmile_qr_scan", "ios": "https://dc.lft.to/lastmile_qr_scan"}, "fusion_lon": 0.0, "lat": 38.928536, "bike_id": "caba834a75642ebde01652b8c9d459c4", "type": "electric_scooter", "is_reserved": 0, "lon": -77.03105183333334}, {"fusion_lat": 0.0, "name": "4ab30629af44ed7de8ae96871e86ff9e", "is_disabled": 0, "rental_uris": {"android": "https://dc.lft.to/lastmile_qr_scan", "ios": "https://dc.lft.to/lastmile_qr_scan"}, "fusion_lon": 0.0, "lat": 38.91998933333333, "bike_id": "4ab30629af44ed7de8ae96871e86ff9e", "type": "electric_scooter", "is_reserved": 0, "lon": -77.01810316666666}, {"fusion_lat": 0.0, "name": "09efe6c8d224699f04d9c064537c5367", "is_disabled": 0, "rental_uris": {"android": "https://dc.lft.to/lastmile_qr_scan", "ios": "https://dc.lft.to/lastmile_qr_scan"}, "fusion_lon": 0.0, "lat": 38.920394, "bike_id": "09efe6c8d224699f04d9c064537c5367", "type": "electric_scooter", "is_reserved": 0, "lon": -77.04819316666666}, {"fusion_lat": 0.0, "name": "fc4996b5bc0dfb7b3324ee66d7ed8570", "is_disabled": 0, "rental_uris": {"android": "https://dc.lft.to/lastmile_qr_scan", "ios": "https://dc.lft.to/lastmile_qr_scan"}, "fusion_lon": 0.0, "lat": 38.957575, "bike_id": "fc4996b5bc0dfb7b3324ee66d7ed8570", "type": "electric_bike", "is_reserved": 0, "lon": -76.98093333333334}, {"fusion_lat": 0.0, "name": "75e7bf6a86b9b923fd737fea52776038", "is_disabled": 0, "rental_uris": {"android": "https://dc.lft.to/lastmile_qr_scan", "ios": "https://dc.lft.to/lastmile_qr_scan"}, "fusion_lon": 0.0, "lat": 38.929056333333335, "bike_id": "75e7bf6a86b9b923fd737fea52776038", "type": "electric_scooter", "is_reserved": 0, "lon": -77.06404416666666}, {"fusion_lat": 0.0, "name": "c8b857d1460de6ec53a0891d9b7c806a", "is_disabled": 0, "rental_uris": {"android": "https://dc.lft.to/lastmile_qr_scan", "ios": "https://dc.lft.to/lastmile_qr_scan"}, "fusion_lon": 0.0, "lat": 38.91762383333333, "bike_id": "c8b857d1460de6ec53a0891d9b7c806a", "type": "electric_scooter", "is_reserved": 0, "lon": -77.0269995}, {"fusion_lat": 0.0, "name": "f7e221024cb8af39983e98076067506a", "is_disabled": 0, "rental_uris": {"android": "https://dc.lft.to/lastmile_qr_scan", "ios": "https://dc.lft.to/lastmile_qr_scan"}, "fusion_lon": 0.0, "lat": 38.90535116666667, "bike_id": "f7e221024cb8af39983e98076067506a", "type": "electric_scooter", "is_reserved": 0, "lon": -77.04909466666666}, {"fusion_lat": 0.0, "name": "4f502af0f961c1527f8c784dbf09869c", "is_disabled": 0, "rental_uris": {"android": "https://dc.lft.to/lastmile_qr_scan", "ios": "https://dc.lft.to/lastmile_qr_scan"}, "fusion_lon": 0.0, "lat": 38.959557, "bike_id": "4f502af0f961c1527f8c784dbf09869c", "type": "electric_bike", "is_reserved": 0, "lon": -76.9817245}, {"fusion_lat": 0.0, "name": "aafe203f014247cafd6e20792b059d96", "is_disabled": 0, "rental_uris": {"android": "https://dc.lft.to/lastmile_qr_scan", "ios": "https://dc.lft.to/lastmile_qr_scan"}, "fusion_lon": 0.0, "lat": 38.923198666666664, "bike_id": "aafe203f014247cafd6e20792b059d96", "type": "electric_scooter", "is_reserved": 0, "lon": -77.021371}, {"fusion_lat": 0.0, "name": "d3cfbfac3896e1c72707242e63b6b74f", "is_disabled": 0, "rental_uris": {"android": "https://dc.lft.to/lastmile_qr_scan", "ios": "https://dc.lft.to/lastmile_qr_scan"}, "fusion_lon": 0.0, "lat": 38.91695166666667, "bike_id": "d3cfbfac3896e1c72707242e63b6b74f", "type": "electric_scooter", "is_reserved": 0, "lon": -77.04047566666667}, {"fusion_lat": 0.0, "name": "5de691d1c7e1187371153418db2adeee", "is_disabled": 0, "rental_uris": {"android": "https://dc.lft.to/lastmile_qr_scan", "ios": "https://dc.lft.to/lastmile_qr_scan"}, "fusion_lon": 0.0, "lat": 38.92506083333333, "bike_id": "5de691d1c7e1187371153418db2adeee", "type": "electric_scooter", "is_reserved": 0, "lon": -77.02166166666666}, {"fusion_lat": 0.0, "name": "168e057f605912b38f9cc593c820cc77", "is_disabled": 0, "rental_uris": {"android": "https://dc.lft.to/lastmile_qr_scan", "ios": "https://dc.lft.to/lastmile_qr_scan"}, "fusion_lon": 0.0, "lat": 38.855505, "bike_id": "168e057f605912b38f9cc593c820cc77", "type": "electric_scooter", "is_reserved": 0, "lon": -76.987591}, {"fusion_lat": 0.0, "name": "738b70b67a18e578b82e29d5d7bdf76e", "is_disabled": 0, "rental_uris": {"android": "https://dc.lft.to/lastmile_qr_scan", "ios": "https://dc.lft.to/lastmile_qr_scan"}, "fusion_lon": 0.0, "lat": 38.93842316666667, "bike_id": "738b70b67a18e578b82e29d5d7bdf76e", "type": "electric_scooter", "is_reserved": 0, "lon": -77.06241366666667}, {"fusion_lat": 0.0, "name": "b170e7c97ad4b2397f4163e1a3299b38", "is_disabled": 0, "rental_uris": {"android": "https://dc.lft.to/lastmile_qr_scan", "ios": "https://dc.lft.to/lastmile_qr_scan"}, "fusion_lon": 0.0, "lat": 38.84085666666667, "bike_id": "b170e7c97ad4b2397f4163e1a3299b38", "type": "electric_bike", "is_reserved": 0, "lon": -76.97033716666667}, {"fusion_lat": 0.0, "name": "7e0c5631fa01f86aeb49c887aac4ebd3", "is_disabled": 0, "rental_uris": {"android": "https://dc.lft.to/lastmile_qr_scan", "ios": "https://dc.lft.to/lastmile_qr_scan"}, "fusion_lon": 0.0, "lat": 38.903269, "bike_id": "7e0c5631fa01f86aeb49c887aac4ebd3", "type": "electric_scooter", "is_reserved": 0, "lon": -77.04496466666667}, {"fusion_lat": 0.0, "name": "1d730e5c038801cfa7a7a44dfb4032ed", "is_disabled": 0, "rental_uris": {"android": "https://dc.lft.to/lastmile_qr_scan", "ios": "https://dc.lft.to/lastmile_qr_scan"}, "fusion_lon": 0.0, "lat": 38.9112395, "bike_id": "1d730e5c038801cfa7a7a44dfb4032ed", "type": "electric_scooter", "is_reserved": 0, "lon": -77.0364405}, {"fusion_lat": 0.0, "name": "47c8b944ac1864e84d2b98b2e5e87a57", "is_disabled": 0, "rental_uris": {"android": "https://dc.lft.to/lastmile_qr_scan", "ios": "https://dc.lft.to/lastmile_qr_scan"}, "fusion_lon": 0.0, "lat": 38.92000616666667, "bike_id": "47c8b944ac1864e84d2b98b2e5e87a57", "type": "electric_scooter", "is_reserved": 0, "lon": -77.07143416666666}, {"fusion_lat": 0.0, "name": "56811925883ebc90ad1f8926b32bf3a1", "is_disabled": 0, "rental_uris": {"android": "https://dc.lft.to/lastmile_qr_scan", "ios": "https://dc.lft.to/lastmile_qr_scan"}, "fusion_lon": 0.0, "lat": 38.900367833333334, "bike_id": "56811925883ebc90ad1f8926b32bf3a1", "type": "electric_scooter", "is_reserved": 0, "lon": -77.00024}, {"fusion_lat": 0.0, "name": "a26b6d8c547103360150b4a9022ba678", "is_disabled": 0, "rental_uris": {"android": "https://dc.lft.to/lastmile_qr_scan", "ios": "https://dc.lft.to/lastmile_qr_scan"}, "fusion_lon": 0.0, "lat": 38.95330383333334, "bike_id": "a26b6d8c547103360150b4a9022ba678", "type": "electric_bike", "is_reserved": 0, "lon": -76.98255333333333}, {"fusion_lat": 0.0, "name": "b4a2876873b544a1f374100526fa7368", "is_disabled": 0, "rental_uris": {"android": "https://dc.lft.to/lastmile_qr_scan", "ios": "https://dc.lft.to/lastmile_qr_scan"}, "fusion_lon": 0.0, "lat": 38.93113966666667, "bike_id": "b4a2876873b544a1f374100526fa7368", "type": "electric_scooter", "is_reserved": 0, "lon": -77.02097166666667}, {"fusion_lat": 0.0, "name": "dfd5551f9af100b72e144c59fb10748d", "is_disabled": 0, "rental_uris": {"android": "https://dc.lft.to/lastmile_qr_scan", "ios": "https://dc.lft.to/lastmile_qr_scan"}, "fusion_lon": 0.0, "lat": 38.9060425, "bike_id": "dfd5551f9af100b72e144c59fb10748d", "type": "electric_scooter", "is_reserved": 0, "lon": -77.0569315}, {"fusion_lat": 0.0, "name": "e3597240487ac069a0180e2ca1edc751", "is_disabled": 0, "rental_uris": {"android": "https://dc.lft.to/lastmile_qr_scan", "ios": "https://dc.lft.to/lastmile_qr_scan"}, "fusion_lon": 0.0, "lat": 38.90643383333333, "bike_id": "e3597240487ac069a0180e2ca1edc751", "type": "electric_scooter", "is_reserved": 0, "lon": -77.01140666666667}, {"fusion_lat": 0.0, "name": "55b9602912310433f16154d0876b4780", "is_disabled": 0, "rental_uris": {"android": "https://dc.lft.to/lastmile_qr_scan", "ios": "https://dc.lft.to/lastmile_qr_scan"}, "fusion_lon": 0.0, "lat": 38.92512, "bike_id": "55b9602912310433f16154d0876b4780", "type": "electric_scooter", "is_reserved": 0, "lon": -77.002245}, {"fusion_lat": 0.0, "name": "471c328c2c8ebf2157d6da0c8773cb30", "is_disabled": 0, "rental_uris": {"android": "https://dc.lft.to/lastmile_qr_scan", "ios": "https://dc.lft.to/lastmile_qr_scan"}, "fusion_lon": 0.0, "lat": 38.91422333333333, "bike_id": "471c328c2c8ebf2157d6da0c8773cb30", "type": "electric_scooter", "is_reserved": 0, "lon": -77.0317375}, {"fusion_lat": 0.0, "name": "bb00523e7df4354b064a27215637ef35", "is_disabled": 0, "rental_uris": {"android": "https://dc.lft.to/lastmile_qr_scan", "ios": "https://dc.lft.to/lastmile_qr_scan"}, "fusion_lon": 0.0, "lat": 38.9207625, "bike_id": "bb00523e7df4354b064a27215637ef35", "type": "electric_bike", "is_reserved": 0, "lon": -76.9894755}, {"fusion_lat": 0.0, "name": "f7912beb8e204e1151ed865cc68e1c2c", "is_disabled": 0, "rental_uris": {"android": "https://dc.lft.to/lastmile_qr_scan", "ios": "https://dc.lft.to/lastmile_qr_scan"}, "fusion_lon": 0.0, "lat": 38.934758, "bike_id": "f7912beb8e204e1151ed865cc68e1c2c", "type": "electric_scooter", "is_reserved": 0, "lon": -77.02842966666667}, {"fusion_lat": 0.0, "name": "46d9b2d67abda416a2045e1967a8e182", "is_disabled": 0, "rental_uris": {"android": "https://dc.lft.to/lastmile_qr_scan", "ios": "https://dc.lft.to/lastmile_qr_scan"}, "fusion_lon": 0.0, "lat": 38.89230583333333, "bike_id": "46d9b2d67abda416a2045e1967a8e182", "type": "electric_scooter", "is_reserved": 0, "lon": -77.028268}, {"fusion_lat": 0.0, "name": "bd0a6987c45ea293750a56ad3291abb7", "is_disabled": 0, "rental_uris": {"android": "https://dc.lft.to/lastmile_qr_scan", "ios": "https://dc.lft.to/lastmile_qr_scan"}, "fusion_lon": 0.0, "lat": 38.8606085, "bike_id": "bd0a6987c45ea293750a56ad3291abb7", "type": "electric_scooter", "is_reserved": 0, "lon": -76.98500566666667}, {"fusion_lat": 0.0, "name": "9e23873dbf823002dbed4d84c58545d7", "is_disabled": 0, "rental_uris": {"android": "https://dc.lft.to/lastmile_qr_scan", "ios": "https://dc.lft.to/lastmile_qr_scan"}, "fusion_lon": 0.0, "lat": 38.91429483333334, "bike_id": "9e23873dbf823002dbed4d84c58545d7", "type": "electric_scooter", "is_reserved": 0, "lon": -77.064242}, {"fusion_lat": 0.0, "name": "7ef6124cde5ef884cf9e3bc8bcb53643", "is_disabled": 0, "rental_uris": {"android": "https://dc.lft.to/lastmile_qr_scan", "ios": "https://dc.lft.to/lastmile_qr_scan"}, "fusion_lon": 0.0, "lat": 38.8785085, "bike_id": "7ef6124cde5ef884cf9e3bc8bcb53643", "type": "electric_scooter", "is_reserved": 0, "lon": -77.01311666666666}, {"fusion_lat": 0.0, "name": "ffcd53ef78c0ff84e754aa70ccf0be0b", "is_disabled": 0, "rental_uris": {"android": "https://dc.lft.to/lastmile_qr_scan", "ios": "https://dc.lft.to/lastmile_qr_scan"}, "fusion_lon": 0.0, "lat": 38.90615416666667, "bike_id": "ffcd53ef78c0ff84e754aa70ccf0be0b", "type": "electric_scooter", "is_reserved": 0, "lon": -77.023668}, {"fusion_lat": 0.0, "name": "1555206f59a27752e081a99c137e8f1c", "is_disabled": 0, "rental_uris": {"android": "https://dc.lft.to/lastmile_qr_scan", "ios": "https://dc.lft.to/lastmile_qr_scan"}, "fusion_lon": 0.0, "lat": 38.8745965, "bike_id": "1555206f59a27752e081a99c137e8f1c", "type": "electric_scooter", "is_reserved": 0, "lon": -77.00968433333334}, {"fusion_lat": 0.0, "name": "59379c5434727355c1cdac665194f221", "is_disabled": 0, "rental_uris": {"android": "https://dc.lft.to/lastmile_qr_scan", "ios": "https://dc.lft.to/lastmile_qr_scan"}, "fusion_lon": 0.0, "lat": 38.91338666666667, "bike_id": "59379c5434727355c1cdac665194f221", "type": "electric_scooter", "is_reserved": 0, "lon": -77.03194783333333}, {"fusion_lat": 0.0, "name": "ec5aab6e12801d38e0c40651fe357363", "is_disabled": 0, "rental_uris": {"android": "https://dc.lft.to/lastmile_qr_scan", "ios": "https://dc.lft.to/lastmile_qr_scan"}, "fusion_lon": 0.0, "lat": 38.878784833333334, "bike_id": "ec5aab6e12801d38e0c40651fe357363", "type": "electric_scooter", "is_reserved": 0, "lon": -77.02232733333334}, {"fusion_lat": 0.0, "name": "d598f50c9a92f8a96c16cb30758a4f64", "is_disabled": 0, "rental_uris": {"android": "https://dc.lft.to/lastmile_qr_scan", "ios": "https://dc.lft.to/lastmile_qr_scan"}, "fusion_lon": 0.0, "lat": 38.898768, "bike_id": "d598f50c9a92f8a96c16cb30758a4f64", "type": "electric_scooter", "is_reserved": 0, "lon": -76.9318365}, {"fusion_lat": 0.0, "name": "283ca20b7bdaae496d783699b24eb7d5", "is_disabled": 0, "rental_uris": {"android": "https://dc.lft.to/lastmile_qr_scan", "ios": "https://dc.lft.to/lastmile_qr_scan"}, "fusion_lon": 0.0, "lat": 38.88232816666667, "bike_id": "283ca20b7bdaae496d783699b24eb7d5", "type": "electric_scooter", "is_reserved": 0, "lon": -77.026171}, {"fusion_lat": 0.0, "name": "4e042996bb0f55bef4a21405b41bdbc4", "is_disabled": 0, "rental_uris": {"android": "https://dc.lft.to/lastmile_qr_scan", "ios": "https://dc.lft.to/lastmile_qr_scan"}, "fusion_lon": 0.0, "lat": 38.914724166666666, "bike_id": "4e042996bb0f55bef4a21405b41bdbc4", "type": "electric_scooter", "is_reserved": 0, "lon": -77.0219695}, {"fusion_lat": 0.0, "name": "5f48cc743d8044938b913572f64a6240", "is_disabled": 0, "rental_uris": {"android": "https://dc.lft.to/lastmile_qr_scan", "ios": "https://dc.lft.to/lastmile_qr_scan"}, "fusion_lon": 0.0, "lat": 38.985024333333335, "bike_id": "5f48cc743d8044938b913572f64a6240", "type": "electric_bike", "is_reserved": 0, "lon": -76.98202083333334}, {"fusion_lat": 0.0, "name": "00956e68a5f5465c755df61df6a9be86", "is_disabled": 0, "rental_uris": {"android": "https://dc.lft.to/lastmile_qr_scan", "ios": "https://dc.lft.to/lastmile_qr_scan"}, "fusion_lon": 0.0, "lat": 38.916958, "bike_id": "00956e68a5f5465c755df61df6a9be86", "type": "electric_scooter", "is_reserved": 0, "lon": -77.02524816666667}, {"fusion_lat": 0.0, "name": "ec5b3aa9c14316973b8dc358887af3ec", "is_disabled": 0, "rental_uris": {"android": "https://dc.lft.to/lastmile_qr_scan", "ios": "https://dc.lft.to/lastmile_qr_scan"}, "fusion_lon": 0.0, "lat": 38.89910883333334, "bike_id": "ec5b3aa9c14316973b8dc358887af3ec", "type": "electric_scooter", "is_reserved": 0, "lon": -77.03294933333333}, {"fusion_lat": 0.0, "name": "022153976416b762169a9de4db4a3f4b", "is_disabled": 0, "rental_uris": {"android": "https://dc.lft.to/lastmile_qr_scan", "ios": "https://dc.lft.to/lastmile_qr_scan"}, "fusion_lon": 0.0, "lat": 38.904048333333336, "bike_id": "022153976416b762169a9de4db4a3f4b", "type": "electric_scooter", "is_reserved": 0, "lon": -77.025096}, {"fusion_lat": 0.0, "name": "9c80ce2529be6277a11c000482e9867c", "is_disabled": 0, "rental_uris": {"android": "https://dc.lft.to/lastmile_qr_scan", "ios": "https://dc.lft.to/lastmile_qr_scan"}, "fusion_lon": 0.0, "lat": 38.91667733333333, "bike_id": "9c80ce2529be6277a11c000482e9867c", "type": "electric_scooter", "is_reserved": 0, "lon": -77.034649}, {"fusion_lat": 0.0, "name": "8126fb68a1cb2623a0cd7b41d7d6f1b7", "is_disabled": 0, "rental_uris": {"android": "https://dc.lft.to/lastmile_qr_scan", "ios": "https://dc.lft.to/lastmile_qr_scan"}, "fusion_lon": 0.0, "lat": 38.91689183333333, "bike_id": "8126fb68a1cb2623a0cd7b41d7d6f1b7", "type": "electric_scooter", "is_reserved": 0, "lon": -77.02894266666667}, {"fusion_lat": 0.0, "name": "0d96ecbac6a6c272c64516a4d7d70a10", "is_disabled": 0, "rental_uris": {"android": "https://dc.lft.to/lastmile_qr_scan", "ios": "https://dc.lft.to/lastmile_qr_scan"}, "fusion_lon": 0.0, "lat": 38.88738166666667, "bike_id": "0d96ecbac6a6c272c64516a4d7d70a10", "type": "electric_scooter", "is_reserved": 0, "lon": -77.01472366666667}, {"fusion_lat": 0.0, "name": "de3da26d37b91aba6622512b297c1128", "is_disabled": 0, "rental_uris": {"android": "https://dc.lft.to/lastmile_qr_scan", "ios": "https://dc.lft.to/lastmile_qr_scan"}, "fusion_lon": 0.0, "lat": 38.90256333333333, "bike_id": "de3da26d37b91aba6622512b297c1128", "type": "electric_scooter", "is_reserved": 0, "lon": -77.04457433333333}, {"fusion_lat": 0.0, "name": "92d6c4a2d3e440f0a3a943f4622607c9", "is_disabled": 0, "rental_uris": {"android": "https://dc.lft.to/lastmile_qr_scan", "ios": "https://dc.lft.to/lastmile_qr_scan"}, "fusion_lon": 0.0, "lat": 38.940519, "bike_id": "92d6c4a2d3e440f0a3a943f4622607c9", "type": "electric_bike", "is_reserved": 0, "lon": -76.90420716666667}, {"fusion_lat": 0.0, "name": "bac7ad73a4cf7f6391cda024a7c483e8", "is_disabled": 0, "rental_uris": {"android": "https://dc.lft.to/lastmile_qr_scan", "ios": "https://dc.lft.to/lastmile_qr_scan"}, "fusion_lon": 0.0, "lat": 38.994457833333335, "bike_id": "bac7ad73a4cf7f6391cda024a7c483e8", "type": "electric_bike", "is_reserved": 0, "lon": -76.99593233333333}, {"fusion_lat": 0.0, "name": "ef365a5d3edcd7028019d769b1d66ca2", "is_disabled": 0, "rental_uris": {"android": "https://dc.lft.to/lastmile_qr_scan", "ios": "https://dc.lft.to/lastmile_qr_scan"}, "fusion_lon": 0.0, "lat": 38.98667916666667, "bike_id": "ef365a5d3edcd7028019d769b1d66ca2", "type": "electric_bike", "is_reserved": 0, "lon": -76.999984}, {"fusion_lat": 0.0, "name": "991fc90364583fd1cc4e2e1342c9c680", "is_disabled": 0, "rental_uris": {"android": "https://dc.lft.to/lastmile_qr_scan", "ios": "https://dc.lft.to/lastmile_qr_scan"}, "fusion_lon": 0.0, "lat": 38.93549183333333, "bike_id": "991fc90364583fd1cc4e2e1342c9c680", "type": "electric_scooter", "is_reserved": 0, "lon": -77.0326305}, {"fusion_lat": 0.0, "name": "6e0fbba914ab2e8dbc4bc0d9d3d05f88", "is_disabled": 0, "rental_uris": {"android": "https://dc.lft.to/lastmile_qr_scan", "ios": "https://dc.lft.to/lastmile_qr_scan"}, "fusion_lon": 0.0, "lat": 38.90042566666666, "bike_id": "6e0fbba914ab2e8dbc4bc0d9d3d05f88", "type": "electric_scooter", "is_reserved": 0, "lon": -77.00204983333333}, {"fusion_lat": 0.0, "name": "026b5a9dada751dc436a2e70a0b10b74", "is_disabled": 0, "rental_uris": {"android": "https://dc.lft.to/lastmile_qr_scan", "ios": "https://dc.lft.to/lastmile_qr_scan"}, "fusion_lon": 0.0, "lat": 38.91776133333333, "bike_id": "026b5a9dada751dc436a2e70a0b10b74", "type": "electric_scooter", "is_reserved": 0, "lon": -77.0231245}, {"fusion_lat": 0.0, "name": "3df836e1a9fe9a4b28df42258952ec20", "is_disabled": 0, "rental_uris": {"android": "https://dc.lft.to/lastmile_qr_scan", "ios": "https://dc.lft.to/lastmile_qr_scan"}, "fusion_lon": 0.0, "lat": 38.91019516666667, "bike_id": "3df836e1a9fe9a4b28df42258952ec20", "type": "electric_scooter", "is_reserved": 0, "lon": -77.0430315}, {"fusion_lat": 0.0, "name": "633492f7fdf7c711a3c40a490b207e96", "is_disabled": 0, "rental_uris": {"android": "https://dc.lft.to/lastmile_qr_scan", "ios": "https://dc.lft.to/lastmile_qr_scan"}, "fusion_lon": 0.0, "lat": 38.8973195, "bike_id": "633492f7fdf7c711a3c40a490b207e96", "type": "electric_scooter", "is_reserved": 0, "lon": -77.049911}, {"fusion_lat": 0.0, "name": "f5665ec522dc86335352f5ce77abe644", "is_disabled": 0, "rental_uris": {"android": "https://dc.lft.to/lastmile_qr_scan", "ios": "https://dc.lft.to/lastmile_qr_scan"}, "fusion_lon": 0.0, "lat": 38.9211025, "bike_id": "f5665ec522dc86335352f5ce77abe644", "type": "electric_scooter", "is_reserved": 0, "lon": -77.046942}, {"fusion_lat": 0.0, "name": "6573f79258c29043e5a9c4cacb4b2fc8", "is_disabled": 0, "rental_uris": {"android": "https://dc.lft.to/lastmile_qr_scan", "ios": "https://dc.lft.to/lastmile_qr_scan"}, "fusion_lon": 0.0, "lat": 38.884496166666665, "bike_id": "6573f79258c29043e5a9c4cacb4b2fc8", "type": "electric_scooter", "is_reserved": 0, "lon": -76.99389733333334}, {"fusion_lat": 0.0, "name": "586b36702d97604afb7352d7494dd4b1", "is_disabled": 0, "rental_uris": {"android": "https://dc.lft.to/lastmile_qr_scan", "ios": "https://dc.lft.to/lastmile_qr_scan"}, "fusion_lon": 0.0, "lat": 38.907324, "bike_id": "586b36702d97604afb7352d7494dd4b1", "type": "electric_scooter", "is_reserved": 0, "lon": -77.04354033333334}, {"fusion_lat": 0.0, "name": "73ecd83970c5d0ff128fe61697721e10", "is_disabled": 0, "rental_uris": {"android": "https://dc.lft.to/lastmile_qr_scan", "ios": "https://dc.lft.to/lastmile_qr_scan"}, "fusion_lon": 0.0, "lat": 38.956275833333336, "bike_id": "73ecd83970c5d0ff128fe61697721e10", "type": "electric_bike", "is_reserved": 0, "lon": -76.93873566666667}, {"fusion_lat": 0.0, "name": "6a63e6bb6c61a14b1f08e34931adacd5", "is_disabled": 0, "rental_uris": {"android": "https://dc.lft.to/lastmile_qr_scan", "ios": "https://dc.lft.to/lastmile_qr_scan"}, "fusion_lon": 0.0, "lat": 38.902466833333335, "bike_id": "6a63e6bb6c61a14b1f08e34931adacd5", "type": "electric_scooter", "is_reserved": 0, "lon": -77.01796}, {"fusion_lat": 0.0, "name": "e9a905ec0d657c00bbdf024ba00af36d", "is_disabled": 0, "rental_uris": {"android": "https://dc.lft.to/lastmile_qr_scan", "ios": "https://dc.lft.to/lastmile_qr_scan"}, "fusion_lon": 0.0, "lat": 38.88755666666667, "bike_id": "e9a905ec0d657c00bbdf024ba00af36d", "type": "electric_scooter", "is_reserved": 0, "lon": -76.99837033333333}, {"fusion_lat": 0.0, "name": "a44aa6598ff6843a12ba952fc679f76f", "is_disabled": 0, "rental_uris": {"android": "https://dc.lft.to/lastmile_qr_scan", "ios": "https://dc.lft.to/lastmile_qr_scan"}, "fusion_lon": 0.0, "lat": 38.806728166666666, "bike_id": "a44aa6598ff6843a12ba952fc679f76f", "type": "electric_bike", "is_reserved": 0, "lon": -77.06918416666667}, {"fusion_lat": 0.0, "name": "cf3e818298efe8eb536b0737119eed31", "is_disabled": 0, "rental_uris": {"android": "https://dc.lft.to/lastmile_qr_scan", "ios": "https://dc.lft.to/lastmile_qr_scan"}, "fusion_lon": 0.0, "lat": 38.92061, "bike_id": "cf3e818298efe8eb536b0737119eed31", "type": "electric_scooter", "is_reserved": 0, "lon": -77.041884}, {"fusion_lat": 0.0, "name": "5f30f779596fa577943a7b58062853e1", "is_disabled": 0, "rental_uris": {"android": "https://dc.lft.to/lastmile_qr_scan", "ios": "https://dc.lft.to/lastmile_qr_scan"}, "fusion_lon": 0.0, "lat": 38.925572333333335, "bike_id": "5f30f779596fa577943a7b58062853e1", "type": "electric_scooter", "is_reserved": 0, "lon": -76.98307216666667}, {"fusion_lat": 0.0, "name": "ff7eede45c010d78a43b34772382fd95", "is_disabled": 0, "rental_uris": {"android": "https://dc.lft.to/lastmile_qr_scan", "ios": "https://dc.lft.to/lastmile_qr_scan"}, "fusion_lon": 0.0, "lat": 38.8961245, "bike_id": "ff7eede45c010d78a43b34772382fd95", "type": "electric_scooter", "is_reserved": 0, "lon": -76.94813416666666}, {"fusion_lat": 0.0, "name": "ac4278e26b84172cd3b9e505761f6e7a", "is_disabled": 0, "rental_uris": {"android": "https://dc.lft.to/lastmile_qr_scan", "ios": "https://dc.lft.to/lastmile_qr_scan"}, "fusion_lon": 0.0, "lat": 38.91704333333333, "bike_id": "ac4278e26b84172cd3b9e505761f6e7a", "type": "electric_scooter", "is_reserved": 0, "lon": -77.02373416666667}, {"fusion_lat": 0.0, "name": "69fbb48fd65142dcad79bbd3a8bc4728", "is_disabled": 0, "rental_uris": {"android": "https://dc.lft.to/lastmile_qr_scan", "ios": "https://dc.lft.to/lastmile_qr_scan"}, "fusion_lon": 0.0, "lat": 38.86332383333333, "bike_id": "69fbb48fd65142dcad79bbd3a8bc4728", "type": "electric_bike", "is_reserved": 0, "lon": -76.98723866666667}, {"fusion_lat": 0.0, "name": "86b84ee53a8c03ccd5dcb0be419bcbbf", "is_disabled": 0, "rental_uris": {"android": "https://dc.lft.to/lastmile_qr_scan", "ios": "https://dc.lft.to/lastmile_qr_scan"}, "fusion_lon": 0.0, "lat": 38.8825895, "bike_id": "86b84ee53a8c03ccd5dcb0be419bcbbf", "type": "electric_scooter", "is_reserved": 0, "lon": -76.9949055}, {"fusion_lat": 0.0, "name": "1cd3e7bd7f6168d9e688cb023841827f", "is_disabled": 0, "rental_uris": {"android": "https://dc.lft.to/lastmile_qr_scan", "ios": "https://dc.lft.to/lastmile_qr_scan"}, "fusion_lon": 0.0, "lat": 38.86558933333333, "bike_id": "1cd3e7bd7f6168d9e688cb023841827f", "type": "electric_scooter", "is_reserved": 0, "lon": -76.983571}, {"fusion_lat": 0.0, "name": "53b82baaa3f230e42927bc9759f48655", "is_disabled": 0, "rental_uris": {"android": "https://dc.lft.to/lastmile_qr_scan", "ios": "https://dc.lft.to/lastmile_qr_scan"}, "fusion_lon": 0.0, "lat": 38.90997216666667, "bike_id": "53b82baaa3f230e42927bc9759f48655", "type": "electric_scooter", "is_reserved": 0, "lon": -77.0448}, {"fusion_lat": 0.0, "name": "59ddb7a521d0f900b92c7d2ad547e97a", "is_disabled": 0, "rental_uris": {"android": "https://dc.lft.to/lastmile_qr_scan", "ios": "https://dc.lft.to/lastmile_qr_scan"}, "fusion_lon": 0.0, "lat": 38.914869333333336, "bike_id": "59ddb7a521d0f900b92c7d2ad547e97a", "type": "electric_scooter", "is_reserved": 0, "lon": -77.02185333333334}, {"fusion_lat": 0.0, "name": "15cc56b20f0549982fed43c24fc87615", "is_disabled": 0, "rental_uris": {"android": "https://dc.lft.to/lastmile_qr_scan", "ios": "https://dc.lft.to/lastmile_qr_scan"}, "fusion_lon": 0.0, "lat": 38.90836683333333, "bike_id": "15cc56b20f0549982fed43c24fc87615", "type": "electric_scooter", "is_reserved": 0, "lon": -77.038588}, {"fusion_lat": 0.0, "name": "307b6478f2d109755291295d5fbf1c56", "is_disabled": 0, "rental_uris": {"android": "https://dc.lft.to/lastmile_qr_scan", "ios": "https://dc.lft.to/lastmile_qr_scan"}, "fusion_lon": 0.0, "lat": 38.9319875, "bike_id": "307b6478f2d109755291295d5fbf1c56", "type": "electric_scooter", "is_reserved": 0, "lon": -77.0280135}, {"fusion_lat": 0.0, "name": "2558422baa51a3678b78ee2d69b7a600", "is_disabled": 0, "rental_uris": {"android": "https://dc.lft.to/lastmile_qr_scan", "ios": "https://dc.lft.to/lastmile_qr_scan"}, "fusion_lon": 0.0, "lat": 38.899298333333334, "bike_id": "2558422baa51a3678b78ee2d69b7a600", "type": "electric_scooter", "is_reserved": 0, "lon": -77.00355233333333}, {"fusion_lat": 0.0, "name": "ace7c31486285429beda848a3c308701", "is_disabled": 0, "rental_uris": {"android": "https://dc.lft.to/lastmile_qr_scan", "ios": "https://dc.lft.to/lastmile_qr_scan"}, "fusion_lon": 0.0, "lat": 38.925186333333336, "bike_id": "ace7c31486285429beda848a3c308701", "type": "electric_scooter", "is_reserved": 0, "lon": -76.99572466666666}, {"fusion_lat": 0.0, "name": "61a935548e8e7389b1b1173eec604432", "is_disabled": 0, "rental_uris": {"android": "https://dc.lft.to/lastmile_qr_scan", "ios": "https://dc.lft.to/lastmile_qr_scan"}, "fusion_lon": 0.0, "lat": 38.9563995, "bike_id": "61a935548e8e7389b1b1173eec604432", "type": "electric_scooter", "is_reserved": 0, "lon": -77.02410583333334}, {"fusion_lat": 0.0, "name": "f81d42764b46867a637f752e502b26db", "is_disabled": 0, "rental_uris": {"android": "https://dc.lft.to/lastmile_qr_scan", "ios": "https://dc.lft.to/lastmile_qr_scan"}, "fusion_lon": 0.0, "lat": 38.89544583333333, "bike_id": "f81d42764b46867a637f752e502b26db", "type": "electric_scooter", "is_reserved": 0, "lon": -77.01218633333333}, {"fusion_lat": 0.0, "name": "ae73ce03809928bbd7670dd4748f3d0d", "is_disabled": 0, "rental_uris": {"android": "https://dc.lft.to/lastmile_qr_scan", "ios": "https://dc.lft.to/lastmile_qr_scan"}, "fusion_lon": 0.0, "lat": 38.875539833333335, "bike_id": "ae73ce03809928bbd7670dd4748f3d0d", "type": "electric_scooter", "is_reserved": 0, "lon": -77.0056865}, {"fusion_lat": 0.0, "name": "caf855a6c85ed950b2237c60e2f9df81", "is_disabled": 0, "rental_uris": {"android": "https://dc.lft.to/lastmile_qr_scan", "ios": "https://dc.lft.to/lastmile_qr_scan"}, "fusion_lon": 0.0, "lat": 38.913911666666664, "bike_id": "caf855a6c85ed950b2237c60e2f9df81", "type": "electric_scooter", "is_reserved": 0, "lon": -77.03329216666667}, {"fusion_lat": 0.0, "name": "d54cb04c6e520e507436945702b45686", "is_disabled": 0, "rental_uris": {"android": "https://dc.lft.to/lastmile_qr_scan", "ios": "https://dc.lft.to/lastmile_qr_scan"}, "fusion_lon": 0.0, "lat": 38.899026166666665, "bike_id": "d54cb04c6e520e507436945702b45686", "type": "electric_scooter", "is_reserved": 0, "lon": -77.05671483333333}, {"fusion_lat": 0.0, "name": "6d35ba29bc829251b3be2cb96a930839", "is_disabled": 0, "rental_uris": {"android": "https://dc.lft.to/lastmile_qr_scan", "ios": "https://dc.lft.to/lastmile_qr_scan"}, "fusion_lon": 0.0, "lat": 38.89071783333333, "bike_id": "6d35ba29bc829251b3be2cb96a930839", "type": "electric_scooter", "is_reserved": 0, "lon": -76.94453366666667}, {"fusion_lat": 0.0, "name": "b34299e3366fa64ec7f56d9705466b92", "is_disabled": 0, "rental_uris": {"android": "https://dc.lft.to/lastmile_qr_scan", "ios": "https://dc.lft.to/lastmile_qr_scan"}, "fusion_lon": 0.0, "lat": 38.9247885, "bike_id": "b34299e3366fa64ec7f56d9705466b92", "type": "electric_scooter", "is_reserved": 0, "lon": -77.02649733333334}, {"fusion_lat": 0.0, "name": "ec213724f36083f6af95f67eebe65782", "is_disabled": 0, "rental_uris": {"android": "https://dc.lft.to/lastmile_qr_scan", "ios": "https://dc.lft.to/lastmile_qr_scan"}, "fusion_lon": 0.0, "lat": 38.8917055, "bike_id": "ec213724f36083f6af95f67eebe65782", "type": "electric_scooter", "is_reserved": 0, "lon": -76.994681}, {"fusion_lat": 0.0, "name": "a5cc8661f8575d0fb03d21585a32f191", "is_disabled": 0, "rental_uris": {"android": "https://dc.lft.to/lastmile_qr_scan", "ios": "https://dc.lft.to/lastmile_qr_scan"}, "fusion_lon": 0.0, "lat": 38.90309033333333, "bike_id": "a5cc8661f8575d0fb03d21585a32f191", "type": "electric_scooter", "is_reserved": 0, "lon": -77.0222675}, {"fusion_lat": 0.0, "name": "458919e8eb974c00956d77106c6170eb", "is_disabled": 0, "rental_uris": {"android": "https://dc.lft.to/lastmile_qr_scan", "ios": "https://dc.lft.to/lastmile_qr_scan"}, "fusion_lon": 0.0, "lat": 38.91906516666667, "bike_id": "458919e8eb974c00956d77106c6170eb", "type": "electric_scooter", "is_reserved": 0, "lon": -77.00214066666666}, {"fusion_lat": 0.0, "name": "db00b3120f2f849d4445bee3e5b5f53d", "is_disabled": 0, "rental_uris": {"android": "https://dc.lft.to/lastmile_qr_scan", "ios": "https://dc.lft.to/lastmile_qr_scan"}, "fusion_lon": 0.0, "lat": 38.909228666666664, "bike_id": "db00b3120f2f849d4445bee3e5b5f53d", "type": "electric_scooter", "is_reserved": 0, "lon": -77.072753}, {"fusion_lat": 0.0, "name": "d62ae1bc3fdb15d7eb6fd0fc90bd4479", "is_disabled": 0, "rental_uris": {"android": "https://dc.lft.to/lastmile_qr_scan", "ios": "https://dc.lft.to/lastmile_qr_scan"}, "fusion_lon": 0.0, "lat": 38.908637, "bike_id": "d62ae1bc3fdb15d7eb6fd0fc90bd4479", "type": "electric_scooter", "is_reserved": 0, "lon": -77.04271616666666}, {"fusion_lat": 0.0, "name": "b339a8bd547ebb7c274eee2276fbe4f4", "is_disabled": 0, "rental_uris": {"android": "https://dc.lft.to/lastmile_qr_scan", "ios": "https://dc.lft.to/lastmile_qr_scan"}, "fusion_lon": 0.0, "lat": 38.896991166666666, "bike_id": "b339a8bd547ebb7c274eee2276fbe4f4", "type": "electric_scooter", "is_reserved": 0, "lon": -77.0435025}, {"fusion_lat": 0.0, "name": "0e70992f6a269a97b454cd460192613c", "is_disabled": 0, "rental_uris": {"android": "https://dc.lft.to/lastmile_qr_scan", "ios": "https://dc.lft.to/lastmile_qr_scan"}, "fusion_lon": 0.0, "lat": 38.930529166666666, "bike_id": "0e70992f6a269a97b454cd460192613c", "type": "electric_scooter", "is_reserved": 0, "lon": -77.04054416666666}, {"fusion_lat": 0.0, "name": "91de5f37b6693ee0effe96e0654cbc67", "is_disabled": 0, "rental_uris": {"android": "https://dc.lft.to/lastmile_qr_scan", "ios": "https://dc.lft.to/lastmile_qr_scan"}, "fusion_lon": 0.0, "lat": 38.911254, "bike_id": "91de5f37b6693ee0effe96e0654cbc67", "type": "electric_scooter", "is_reserved": 0, "lon": -77.02096416666667}, {"fusion_lat": 0.0, "name": "1d2429bc39b2ec89b14e8b270bd476cf", "is_disabled": 0, "rental_uris": {"android": "https://dc.lft.to/lastmile_qr_scan", "ios": "https://dc.lft.to/lastmile_qr_scan"}, "fusion_lon": 0.0, "lat": 38.89115366666667, "bike_id": "1d2429bc39b2ec89b14e8b270bd476cf", "type": "electric_scooter", "is_reserved": 0, "lon": -76.9438315}, {"fusion_lat": 0.0, "name": "88e625f2783a5f144b2fe03cbbcd2234", "is_disabled": 0, "rental_uris": {"android": "https://dc.lft.to/lastmile_qr_scan", "ios": "https://dc.lft.to/lastmile_qr_scan"}, "fusion_lon": 0.0, "lat": 38.96993333333333, "bike_id": "88e625f2783a5f144b2fe03cbbcd2234", "type": "electric_scooter", "is_reserved": 0, "lon": -77.0116245}, {"fusion_lat": 0.0, "name": "2c7afaee54b99aef971e726ee0dda207", "is_disabled": 0, "rental_uris": {"android": "https://dc.lft.to/lastmile_qr_scan", "ios": "https://dc.lft.to/lastmile_qr_scan"}, "fusion_lon": 0.0, "lat": 38.897339, "bike_id": "2c7afaee54b99aef971e726ee0dda207", "type": "electric_bike", "is_reserved": 0, "lon": -76.92048}, {"fusion_lat": 0.0, "name": "d60c999fd17c19ef3ecfbfc6b11c6a65", "is_disabled": 0, "rental_uris": {"android": "https://dc.lft.to/lastmile_qr_scan", "ios": "https://dc.lft.to/lastmile_qr_scan"}, "fusion_lon": 0.0, "lat": 38.91119883333333, "bike_id": "d60c999fd17c19ef3ecfbfc6b11c6a65", "type": "electric_scooter", "is_reserved": 0, "lon": -77.04467816666667}, {"fusion_lat": 0.0, "name": "7c4e86650a82cf390fc83e21d1e60174", "is_disabled": 0, "rental_uris": {"android": "https://dc.lft.to/lastmile_qr_scan", "ios": "https://dc.lft.to/lastmile_qr_scan"}, "fusion_lon": 0.0, "lat": 38.892232666666665, "bike_id": "7c4e86650a82cf390fc83e21d1e60174", "type": "electric_scooter", "is_reserved": 0, "lon": -77.03338883333333}, {"fusion_lat": 0.0, "name": "b82e172ee829f856061d23cd331275d5", "is_disabled": 0, "rental_uris": {"android": "https://dc.lft.to/lastmile_qr_scan", "ios": "https://dc.lft.to/lastmile_qr_scan"}, "fusion_lon": 0.0, "lat": 38.974624166666665, "bike_id": "b82e172ee829f856061d23cd331275d5", "type": "electric_scooter", "is_reserved": 0, "lon": -77.01319516666666}, {"fusion_lat": 0.0, "name": "32ca57d023fff896e325831bc5e5ae67", "is_disabled": 0, "rental_uris": {"android": "https://dc.lft.to/lastmile_qr_scan", "ios": "https://dc.lft.to/lastmile_qr_scan"}, "fusion_lon": 0.0, "lat": 38.911067333333335, "bike_id": "32ca57d023fff896e325831bc5e5ae67", "type": "electric_scooter", "is_reserved": 0, "lon": -77.02772733333333}, {"fusion_lat": 0.0, "name": "a99dd89a3937fb59302d676c3fb65f36", "is_disabled": 0, "rental_uris": {"android": "https://dc.lft.to/lastmile_qr_scan", "ios": "https://dc.lft.to/lastmile_qr_scan"}, "fusion_lon": 0.0, "lat": 38.96183083333333, "bike_id": "a99dd89a3937fb59302d676c3fb65f36", "type": "electric_bike", "is_reserved": 0, "lon": -77.05266883333333}, {"fusion_lat": 0.0, "name": "fc632c5ec4db84f1ec4346f442a9543a", "is_disabled": 0, "rental_uris": {"android": "https://dc.lft.to/lastmile_qr_scan", "ios": "https://dc.lft.to/lastmile_qr_scan"}, "fusion_lon": 0.0, "lat": 38.901772, "bike_id": "fc632c5ec4db84f1ec4346f442a9543a", "type": "electric_scooter", "is_reserved": 0, "lon": -76.94147533333333}, {"fusion_lat": 0.0, "name": "29b0a4b43c3d62cbe412ec489c7e6135", "is_disabled": 0, "rental_uris": {"android": "https://dc.lft.to/lastmile_qr_scan", "ios": "https://dc.lft.to/lastmile_qr_scan"}, "fusion_lon": 0.0, "lat": 38.930618833333334, "bike_id": "29b0a4b43c3d62cbe412ec489c7e6135", "type": "electric_scooter", "is_reserved": 0, "lon": -77.039441}, {"fusion_lat": 0.0, "name": "4e5c19703f3cec8efe0921f0bd749358", "is_disabled": 0, "rental_uris": {"android": "https://dc.lft.to/lastmile_qr_scan", "ios": "https://dc.lft.to/lastmile_qr_scan"}, "fusion_lon": 0.0, "lat": 38.881234166666665, "bike_id": "4e5c19703f3cec8efe0921f0bd749358", "type": "electric_scooter", "is_reserved": 0, "lon": -76.992841}, {"fusion_lat": 0.0, "name": "48a2c894b2a84b43df72d717c58d01dd", "is_disabled": 0, "rental_uris": {"android": "https://dc.lft.to/lastmile_qr_scan", "ios": "https://dc.lft.to/lastmile_qr_scan"}, "fusion_lon": 0.0, "lat": 38.90033616666667, "bike_id": "48a2c894b2a84b43df72d717c58d01dd", "type": "electric_scooter", "is_reserved": 0, "lon": -77.01183716666667}, {"fusion_lat": 0.0, "name": "ff3c17458d76dfff982fa1ef027da8a2", "is_disabled": 0, "rental_uris": {"android": "https://dc.lft.to/lastmile_qr_scan", "ios": "https://dc.lft.to/lastmile_qr_scan"}, "fusion_lon": 0.0, "lat": 38.905356, "bike_id": "ff3c17458d76dfff982fa1ef027da8a2", "type": "electric_scooter", "is_reserved": 0, "lon": -77.03491066666666}, {"fusion_lat": 0.0, "name": "e839e6f5400863955a8885751227602b", "is_disabled": 0, "rental_uris": {"android": "https://dc.lft.to/lastmile_qr_scan", "ios": "https://dc.lft.to/lastmile_qr_scan"}, "fusion_lon": 0.0, "lat": 38.9451, "bike_id": "e839e6f5400863955a8885751227602b", "type": "electric_bike", "is_reserved": 0, "lon": -77.00677516666667}, {"fusion_lat": 0.0, "name": "cac68deda1e22b001f9e7e6fcf374673", "is_disabled": 0, "rental_uris": {"android": "https://dc.lft.to/lastmile_qr_scan", "ios": "https://dc.lft.to/lastmile_qr_scan"}, "fusion_lon": 0.0, "lat": 38.89729466666667, "bike_id": "cac68deda1e22b001f9e7e6fcf374673", "type": "electric_scooter", "is_reserved": 0, "lon": -77.02325733333333}, {"fusion_lat": 0.0, "name": "939bb0e9097d33d9d96e599e1779745c", "is_disabled": 0, "rental_uris": {"android": "https://dc.lft.to/lastmile_qr_scan", "ios": "https://dc.lft.to/lastmile_qr_scan"}, "fusion_lon": 0.0, "lat": 38.9573245, "bike_id": "939bb0e9097d33d9d96e599e1779745c", "type": "electric_scooter", "is_reserved": 0, "lon": -77.02406}, {"fusion_lat": 0.0, "name": "f53d66ae588079fc0a7c0a23e59e8698", "is_disabled": 0, "rental_uris": {"android": "https://dc.lft.to/lastmile_qr_scan", "ios": "https://dc.lft.to/lastmile_qr_scan"}, "fusion_lon": 0.0, "lat": 38.935216, "bike_id": "f53d66ae588079fc0a7c0a23e59e8698", "type": "electric_scooter", "is_reserved": 0, "lon": -77.087004}, {"fusion_lat": 0.0, "name": "a1c107a5043086d1974e561d7140b7b6", "is_disabled": 0, "rental_uris": {"android": "https://dc.lft.to/lastmile_qr_scan", "ios": "https://dc.lft.to/lastmile_qr_scan"}, "fusion_lon": 0.0, "lat": 38.87662816666667, "bike_id": "a1c107a5043086d1974e561d7140b7b6", "type": "electric_scooter", "is_reserved": 0, "lon": -77.0011855}, {"fusion_lat": 0.0, "name": "0cf849a207cc31de5900e3e21c0960e4", "is_disabled": 0, "rental_uris": {"android": "https://dc.lft.to/lastmile_qr_scan", "ios": "https://dc.lft.to/lastmile_qr_scan"}, "fusion_lon": 0.0, "lat": 38.897418333333334, "bike_id": "0cf849a207cc31de5900e3e21c0960e4", "type": "electric_scooter", "is_reserved": 0, "lon": -77.00004316666667}, {"fusion_lat": 0.0, "name": "2e061ed6093dced0c857cf306e66121f", "is_disabled": 0, "rental_uris": {"android": "https://dc.lft.to/lastmile_qr_scan", "ios": "https://dc.lft.to/lastmile_qr_scan"}, "fusion_lon": 0.0, "lat": 38.91826283333333, "bike_id": "2e061ed6093dced0c857cf306e66121f", "type": "electric_scooter", "is_reserved": 0, "lon": -77.02407833333334}, {"fusion_lat": 0.0, "name": "0658abdfc40ddbb837d964848d45848d", "is_disabled": 0, "rental_uris": {"android": "https://dc.lft.to/lastmile_qr_scan", "ios": "https://dc.lft.to/lastmile_qr_scan"}, "fusion_lon": 0.0, "lat": 38.935199, "bike_id": "0658abdfc40ddbb837d964848d45848d", "type": "electric_scooter", "is_reserved": 0, "lon": -77.07280716666666}, {"fusion_lat": 0.0, "name": "1eb40d17b559a8cf206b7701bef43741", "is_disabled": 0, "rental_uris": {"android": "https://dc.lft.to/lastmile_qr_scan", "ios": "https://dc.lft.to/lastmile_qr_scan"}, "fusion_lon": 0.0, "lat": 38.861390166666666, "bike_id": "1eb40d17b559a8cf206b7701bef43741", "type": "electric_bike", "is_reserved": 0, "lon": -76.97173083333334}, {"fusion_lat": 0.0, "name": "9ba3887259cad07e9088e1263632dc29", "is_disabled": 0, "rental_uris": {"android": "https://dc.lft.to/lastmile_qr_scan", "ios": "https://dc.lft.to/lastmile_qr_scan"}, "fusion_lon": 0.0, "lat": 38.94296166666667, "bike_id": "9ba3887259cad07e9088e1263632dc29", "type": "electric_scooter", "is_reserved": 0, "lon": -77.02169583333334}, {"fusion_lat": 0.0, "name": "117caf3c79734e8a7a562f15513f310d", "is_disabled": 0, "rental_uris": {"android": "https://dc.lft.to/lastmile_qr_scan", "ios": "https://dc.lft.to/lastmile_qr_scan"}, "fusion_lon": 0.0, "lat": 38.92414933333333, "bike_id": "117caf3c79734e8a7a562f15513f310d", "type": "electric_scooter", "is_reserved": 0, "lon": -77.0201135}, {"fusion_lat": 0.0, "name": "b383036eac4dd15f39426a610e45b1b8", "is_disabled": 0, "rental_uris": {"android": "https://dc.lft.to/lastmile_qr_scan", "ios": "https://dc.lft.to/lastmile_qr_scan"}, "fusion_lon": 0.0, "lat": 38.9050595, "bike_id": "b383036eac4dd15f39426a610e45b1b8", "type": "electric_scooter", "is_reserved": 0, "lon": -76.97959366666667}, {"fusion_lat": 0.0, "name": "f19ba37743bab59bbef974e21a5ed0dc", "is_disabled": 0, "rental_uris": {"android": "https://dc.lft.to/lastmile_qr_scan", "ios": "https://dc.lft.to/lastmile_qr_scan"}, "fusion_lon": 0.0, "lat": 38.900425166666665, "bike_id": "f19ba37743bab59bbef974e21a5ed0dc", "type": "electric_scooter", "is_reserved": 0, "lon": -76.99259066666667}, {"fusion_lat": 0.0, "name": "56a90c830afdf5038f5e350db2a80f98", "is_disabled": 0, "rental_uris": {"android": "https://dc.lft.to/lastmile_qr_scan", "ios": "https://dc.lft.to/lastmile_qr_scan"}, "fusion_lon": 0.0, "lat": 38.90814833333334, "bike_id": "56a90c830afdf5038f5e350db2a80f98", "type": "electric_scooter", "is_reserved": 0, "lon": -77.03429983333334}, {"fusion_lat": 0.0, "name": "f3e6bfb0c705417a311ddf5f19a004e8", "is_disabled": 0, "rental_uris": {"android": "https://dc.lft.to/lastmile_qr_scan", "ios": "https://dc.lft.to/lastmile_qr_scan"}, "fusion_lon": 0.0, "lat": 38.91179733333333, "bike_id": "f3e6bfb0c705417a311ddf5f19a004e8", "type": "electric_scooter", "is_reserved": 0, "lon": -77.068596}, {"fusion_lat": 0.0, "name": "4e8d12966cdd54d253b62a6d38f8f56d", "is_disabled": 0, "rental_uris": {"android": "https://dc.lft.to/lastmile_qr_scan", "ios": "https://dc.lft.to/lastmile_qr_scan"}, "fusion_lon": 0.0, "lat": 38.926602, "bike_id": "4e8d12966cdd54d253b62a6d38f8f56d", "type": "electric_scooter", "is_reserved": 0, "lon": -77.024277}, {"fusion_lat": 0.0, "name": "24cd7f072e1af1919c879175973dda88", "is_disabled": 0, "rental_uris": {"android": "https://dc.lft.to/lastmile_qr_scan", "ios": "https://dc.lft.to/lastmile_qr_scan"}, "fusion_lon": 0.0, "lat": 38.8990475, "bike_id": "24cd7f072e1af1919c879175973dda88", "type": "electric_scooter", "is_reserved": 0, "lon": -76.97616566666667}, {"fusion_lat": 0.0, "name": "0c778c8e2eda4b88b7ad7fc123426fdc", "is_disabled": 0, "rental_uris": {"android": "https://dc.lft.to/lastmile_qr_scan", "ios": "https://dc.lft.to/lastmile_qr_scan"}, "fusion_lon": 0.0, "lat": 38.937332, "bike_id": "0c778c8e2eda4b88b7ad7fc123426fdc", "type": "electric_scooter", "is_reserved": 0, "lon": -77.01923183333334}, {"fusion_lat": 0.0, "name": "dbbfe6c4352546e289abac1a4adb7372", "is_disabled": 0, "rental_uris": {"android": "https://dc.lft.to/lastmile_qr_scan", "ios": "https://dc.lft.to/lastmile_qr_scan"}, "fusion_lon": 0.0, "lat": 38.990961666666664, "bike_id": "dbbfe6c4352546e289abac1a4adb7372", "type": "electric_bike", "is_reserved": 0, "lon": -76.9937895}, {"fusion_lat": 0.0, "name": "3ca79e179f07ac7efde03426d25ace95", "is_disabled": 0, "rental_uris": {"android": "https://dc.lft.to/lastmile_qr_scan", "ios": "https://dc.lft.to/lastmile_qr_scan"}, "fusion_lon": 0.0, "lat": 38.929053333333336, "bike_id": "3ca79e179f07ac7efde03426d25ace95", "type": "electric_scooter", "is_reserved": 0, "lon": -77.03280033333333}, {"fusion_lat": 0.0, "name": "386598da54e4edd076bf31dfbd49c645", "is_disabled": 0, "rental_uris": {"android": "https://dc.lft.to/lastmile_qr_scan", "ios": "https://dc.lft.to/lastmile_qr_scan"}, "fusion_lon": 0.0, "lat": 38.8971, "bike_id": "386598da54e4edd076bf31dfbd49c645", "type": "electric_scooter", "is_reserved": 0, "lon": -77.00721416666667}, {"fusion_lat": 0.0, "name": "42e2db38a91586fa44afc9bf0d894a39", "is_disabled": 0, "rental_uris": {"android": "https://dc.lft.to/lastmile_qr_scan", "ios": "https://dc.lft.to/lastmile_qr_scan"}, "fusion_lon": 0.0, "lat": 38.9208545, "bike_id": "42e2db38a91586fa44afc9bf0d894a39", "type": "electric_scooter", "is_reserved": 0, "lon": -76.99486783333333}, {"fusion_lat": 0.0, "name": "52bb97ad1976182970fe92294936af43", "is_disabled": 0, "rental_uris": {"android": "https://dc.lft.to/lastmile_qr_scan", "ios": "https://dc.lft.to/lastmile_qr_scan"}, "fusion_lon": 0.0, "lat": 38.89013033333333, "bike_id": "52bb97ad1976182970fe92294936af43", "type": "electric_scooter", "is_reserved": 0, "lon": -76.93737316666666}, {"fusion_lat": 0.0, "name": "889e6b9e96de49f140f5161e59366522", "is_disabled": 0, "rental_uris": {"android": "https://dc.lft.to/lastmile_qr_scan", "ios": "https://dc.lft.to/lastmile_qr_scan"}, "fusion_lon": 0.0, "lat": 38.99364833333333, "bike_id": "889e6b9e96de49f140f5161e59366522", "type": "electric_bike", "is_reserved": 0, "lon": -77.02601366666667}, {"fusion_lat": 0.0, "name": "a3020df192c2db64e2eb94ae960b1bab", "is_disabled": 0, "rental_uris": {"android": "https://dc.lft.to/lastmile_qr_scan", "ios": "https://dc.lft.to/lastmile_qr_scan"}, "fusion_lon": 0.0, "lat": 38.9017995, "bike_id": "a3020df192c2db64e2eb94ae960b1bab", "type": "electric_scooter", "is_reserved": 0, "lon": -76.92901083333334}, {"fusion_lat": 0.0, "name": "dd2dd5f329721923645f9a5027b05fe0", "is_disabled": 0, "rental_uris": {"android": "https://dc.lft.to/lastmile_qr_scan", "ios": "https://dc.lft.to/lastmile_qr_scan"}, "fusion_lon": 0.0, "lat": 38.90721633333333, "bike_id": "dd2dd5f329721923645f9a5027b05fe0", "type": "electric_scooter", "is_reserved": 0, "lon": -77.025469}, {"fusion_lat": 0.0, "name": "961efc15a251718b13f7e4224b351889", "is_disabled": 0, "rental_uris": {"android": "https://dc.lft.to/lastmile_qr_scan", "ios": "https://dc.lft.to/lastmile_qr_scan"}, "fusion_lon": 0.0, "lat": 38.92050016666666, "bike_id": "961efc15a251718b13f7e4224b351889", "type": "electric_scooter", "is_reserved": 0, "lon": -77.00208133333334}, {"fusion_lat": 0.0, "name": "d56e5c9fbffaedd536a2929e88147955", "is_disabled": 0, "rental_uris": {"android": "https://dc.lft.to/lastmile_qr_scan", "ios": "https://dc.lft.to/lastmile_qr_scan"}, "fusion_lon": 0.0, "lat": 38.92830166666667, "bike_id": "d56e5c9fbffaedd536a2929e88147955", "type": "electric_scooter", "is_reserved": 0, "lon": -77.0543825}, {"fusion_lat": 0.0, "name": "b9c097a469a4cf2743d17f5d382abed1", "is_disabled": 0, "rental_uris": {"android": "https://dc.lft.to/lastmile_qr_scan", "ios": "https://dc.lft.to/lastmile_qr_scan"}, "fusion_lon": 0.0, "lat": 38.903178, "bike_id": "b9c097a469a4cf2743d17f5d382abed1", "type": "electric_scooter", "is_reserved": 0, "lon": -76.97799616666667}, {"fusion_lat": 0.0, "name": "fa87e4d39583089e0b2ba758e5520792", "is_disabled": 0, "rental_uris": {"android": "https://dc.lft.to/lastmile_qr_scan", "ios": "https://dc.lft.to/lastmile_qr_scan"}, "fusion_lon": 0.0, "lat": 38.946258, "bike_id": "fa87e4d39583089e0b2ba758e5520792", "type": "electric_scooter", "is_reserved": 0, "lon": -77.03282866666666}, {"fusion_lat": 0.0, "name": "ca30782a6618715bc514695da0d0a664", "is_disabled": 0, "rental_uris": {"android": "https://dc.lft.to/lastmile_qr_scan", "ios": "https://dc.lft.to/lastmile_qr_scan"}, "fusion_lon": 0.0, "lat": 38.905758166666665, "bike_id": "ca30782a6618715bc514695da0d0a664", "type": "electric_scooter", "is_reserved": 0, "lon": -77.03060833333333}, {"fusion_lat": 0.0, "name": "f3a0573f5e57a8988319bdc1dc1dc2ff", "is_disabled": 0, "rental_uris": {"android": "https://dc.lft.to/lastmile_qr_scan", "ios": "https://dc.lft.to/lastmile_qr_scan"}, "fusion_lon": 0.0, "lat": 38.88013333333333, "bike_id": "f3a0573f5e57a8988319bdc1dc1dc2ff", "type": "electric_scooter", "is_reserved": 0, "lon": -76.93112216666667}, {"fusion_lat": 0.0, "name": "22d8291de9083332ab6c5ed6cf80111e", "is_disabled": 0, "rental_uris": {"android": "https://dc.lft.to/lastmile_qr_scan", "ios": "https://dc.lft.to/lastmile_qr_scan"}, "fusion_lon": 0.0, "lat": 38.88359333333333, "bike_id": "22d8291de9083332ab6c5ed6cf80111e", "type": "electric_scooter", "is_reserved": 0, "lon": -76.9948775}, {"fusion_lat": 0.0, "name": "5c9c45527e36aa515afcb3fa95af1df1", "is_disabled": 0, "rental_uris": {"android": "https://dc.lft.to/lastmile_qr_scan", "ios": "https://dc.lft.to/lastmile_qr_scan"}, "fusion_lon": 0.0, "lat": 38.888764333333334, "bike_id": "5c9c45527e36aa515afcb3fa95af1df1", "type": "electric_scooter", "is_reserved": 0, "lon": -76.984609}, {"fusion_lat": 0.0, "name": "e36b6100c6f447ab4cf3a7fccaa15b00", "is_disabled": 0, "rental_uris": {"android": "https://dc.lft.to/lastmile_qr_scan", "ios": "https://dc.lft.to/lastmile_qr_scan"}, "fusion_lon": 0.0, "lat": 38.919645333333335, "bike_id": "e36b6100c6f447ab4cf3a7fccaa15b00", "type": "electric_scooter", "is_reserved": 0, "lon": -77.001014}, {"fusion_lat": 0.0, "name": "526ef5055d79397c71bfa4da8e659e96", "is_disabled": 0, "rental_uris": {"android": "https://dc.lft.to/lastmile_qr_scan", "ios": "https://dc.lft.to/lastmile_qr_scan"},