{"data": {"bikes": [{"fusion_lat": 0.0, "lat": 38.931014833333336, "rental_uris": {"ios": "https://dc.lft.to/lastmile_qr_scan", "android": "https://dc.lft.to/lastmile_qr_scan"}, "name": "e23451dfe4b7301a56088b4696159de8", "type": "electric_scooter", "fusion_lon": 0.0, "is_disabled": 0, "is_reserved": 0, "bike_id": "e23451dfe4b7301a56088b4696159de8", "lon": -77.024726}, {"fusion_lat": 0.0, "lat": 38.89860066666667, "rental_uris": {"ios": "https://dc.lft.to/lastmile_qr_scan", "android": "https://dc.lft.to/lastmile_qr_scan"}, "name": "2c367b9642f430bfabd0b503259698b5", "type": "electric_scooter", "fusion_lon": 0.0, "is_disabled": 0, "is_reserved": 0, "bike_id": "2c367b9642f430bfabd0b503259698b5", "lon": -77.02768}, {"fusion_lat": 0.0, "lat": 38.898583, "rental_uris": {"ios": "https://dc.lft.to/lastmile_qr_scan", "android": "https://dc.lft.to/lastmile_qr_scan"}, "name": "98fa59ebac7acb2dd86142c852828043", "type": "electric_scooter", "fusion_lon": 0.0, "is_disabled": 0, "is_reserved": 0, "bike_id": "98fa59ebac7acb2dd86142c852828043", "lon": -77.0286705}, {"fusion_lat": 0.0, "lat": 39.003862833333336, "rental_uris": {"ios": "https://dc.lft.to/lastmile_qr_scan", "android": "https://dc.lft.to/lastmile_qr_scan"}, "name": "b1a1a18a9fe1dcbba3395fd5e99c0b01", "type": "electric_bike", "fusion_lon": 0.0, "is_disabled": 0, "is_reserved": 0, "bike_id": "b1a1a18a9fe1dcbba3395fd5e99c0b01", "lon": -77.01277366666666}, {"fusion_lat": 0.0, "lat": 38.9155985, "rental_uris": {"ios": "https://dc.lft.to/lastmile_qr_scan", "android": "https://dc.lft.to/lastmile_qr_scan"}, "name": "cfa773caea832650c0281e4ee5c50bac", "type": "electric_scooter", "fusion_lon": 0.0, "is_disabled": 0, "is_reserved": 0, "bike_id": "cfa773caea832650c0281e4ee5c50bac", "lon": -77.01583316666667}, {"fusion_lat": 0.0, "lat": 39.012209666666664, "rental_uris": {"ios": "https://dc.lft.to/lastmile_qr_scan", "android": "https://dc.lft.to/lastmile_qr_scan"}, "name": "a5ddd3fc7f611ddfe986d3fed7d32e57", "type": "electric_bike", "fusion_lon": 0.0, "is_disabled": 0, "is_reserved": 0, "bike_id": "a5ddd3fc7f611ddfe986d3fed7d32e57", "lon": -77.11085716666666}, {"fusion_lat": 0.0, "lat": 38.8846635, "rental_uris": {"ios": "https://dc.lft.to/lastmile_qr_scan", "android": "https://dc.lft.to/lastmile_qr_scan"}, "name": "ffe54c14b0b8b1044bf45c1e50324282", "type": "electric_scooter", "fusion_lon": 0.0, "is_disabled": 0, "is_reserved": 0, "bike_id": "ffe54c14b0b8b1044bf45c1e50324282", "lon": -77.015204}, {"fusion_lat": 0.0, "lat": 38.91278, "rental_uris": {"ios": "https://dc.lft.to/lastmile_qr_scan", "android": "https://dc.lft.to/lastmile_qr_scan"}, "name": "3ce3b5d97faa103940a369727cf24c61", "type": "electric_scooter", "fusion_lon": 0.0, "is_disabled": 0, "is_reserved": 0, "bike_id": "3ce3b5d97faa103940a369727cf24c61", "lon": -76.9847095}, {"fusion_lat": 0.0, "lat": 38.92367133333333, "rental_uris": {"ios": "https://dc.lft.to/lastmile_qr_scan", "android": "https://dc.lft.to/lastmile_qr_scan"}, "name": "b49688deb530a1a16c5aca970e2f16d0", "type": "electric_scooter", "fusion_lon": 0.0, "is_disabled": 0, "is_reserved": 0, "bike_id": "b49688deb530a1a16c5aca970e2f16d0", "lon": -77.05025116666667}, {"fusion_lat": 0.0, "lat": 38.936408166666666, "rental_uris": {"ios": "https://dc.lft.to/lastmile_qr_scan", "android": "https://dc.lft.to/lastmile_qr_scan"}, "name": "aa03f617aa09719a173fb0f31894b875", "type": "electric_scooter", "fusion_lon": 0.0, "is_disabled": 0, "is_reserved": 0, "bike_id": "aa03f617aa09719a173fb0f31894b875", "lon": -77.05997233333333}, {"fusion_lat": 0.0, "lat": 38.92368483333333, "rental_uris": {"ios": "https://dc.lft.to/lastmile_qr_scan", "android": "https://dc.lft.to/lastmile_qr_scan"}, "name": "d0955970fca8d1a582de5083a84ab440", "type": "electric_scooter", "fusion_lon": 0.0, "is_disabled": 0, "is_reserved": 0, "bike_id": "d0955970fca8d1a582de5083a84ab440", "lon": -77.01903483333334}, {"fusion_lat": 0.0, "lat": 38.94485, "rental_uris": {"ios": "https://dc.lft.to/lastmile_qr_scan", "android": "https://dc.lft.to/lastmile_qr_scan"}, "name": "ba63db78bd3bd4c040cb81cdf51bae3e", "type": "electric_scooter", "fusion_lon": 0.0, "is_disabled": 0, "is_reserved": 0, "bike_id": "ba63db78bd3bd4c040cb81cdf51bae3e", "lon": -77.06379466666667}, {"fusion_lat": 0.0, "lat": 38.92210883333333, "rental_uris": {"ios": "https://dc.lft.to/lastmile_qr_scan", "android": "https://dc.lft.to/lastmile_qr_scan"}, "name": "3f89aa802c1e18732a36e246a4f5c0ef", "type": "electric_scooter", "fusion_lon": 0.0, "is_disabled": 0, "is_reserved": 0, "bike_id": "3f89aa802c1e18732a36e246a4f5c0ef", "lon": -77.03662816666667}, {"fusion_lat": 0.0, "lat": 38.8960335, "rental_uris": {"ios": "https://dc.lft.to/lastmile_qr_scan", "android": "https://dc.lft.to/lastmile_qr_scan"}, "name": "bfde79d94104035b676e3d7934c3d321", "type": "electric_scooter", "fusion_lon": 0.0, "is_disabled": 0, "is_reserved": 0, "bike_id": "bfde79d94104035b676e3d7934c3d321", "lon": -77.01483116666667}, {"fusion_lat": 0.0, "lat": 38.864491666666666, "rental_uris": {"ios": "https://dc.lft.to/lastmile_qr_scan", "android": "https://dc.lft.to/lastmile_qr_scan"}, "name": "14b634b30b7371fd6882b153096f5e06", "type": "electric_bike", "fusion_lon": 0.0, "is_disabled": 0, "is_reserved": 0, "bike_id": "14b634b30b7371fd6882b153096f5e06", "lon": -77.10686216666667}, {"fusion_lat": 0.0, "lat": 38.87695683333333, "rental_uris": {"ios": "https://dc.lft.to/lastmile_qr_scan", "android": "https://dc.lft.to/lastmile_qr_scan"}, "name": "c16dcf3961d0771a0ebb340257bd2c90", "type": "electric_scooter", "fusion_lon": 0.0, "is_disabled": 0, "is_reserved": 0, "bike_id": "c16dcf3961d0771a0ebb340257bd2c90", "lon": -77.00429466666667}, {"fusion_lat": 0.0, "lat": 38.895336, "rental_uris": {"ios": "https://dc.lft.to/lastmile_qr_scan", "android": "https://dc.lft.to/lastmile_qr_scan"}, "name": "63579012e4c20fa0f21706a8501392b1", "type": "electric_scooter", "fusion_lon": 0.0, "is_disabled": 0, "is_reserved": 0, "bike_id": "63579012e4c20fa0f21706a8501392b1", "lon": -77.04837966666666}, {"fusion_lat": 0.0, "lat": 38.887445, "rental_uris": {"ios": "https://dc.lft.to/lastmile_qr_scan", "android": "https://dc.lft.to/lastmile_qr_scan"}, "name": "d2565bd22eb6a69bd4b86264c0ae0be5", "type": "electric_scooter", "fusion_lon": 0.0, "is_disabled": 0, "is_reserved": 0, "bike_id": "d2565bd22eb6a69bd4b86264c0ae0be5", "lon": -77.0284365}, {"fusion_lat": 0.0, "lat": 38.8770195, "rental_uris": {"ios": "https://dc.lft.to/lastmile_qr_scan", "android": "https://dc.lft.to/lastmile_qr_scan"}, "name": "9be4675b41890c8d017af80409b4903b", "type": "electric_scooter", "fusion_lon": 0.0, "is_disabled": 0, "is_reserved": 0, "bike_id": "9be4675b41890c8d017af80409b4903b", "lon": -77.0043775}, {"fusion_lat": 0.0, "lat": 38.934776666666664, "rental_uris": {"ios": "https://dc.lft.to/lastmile_qr_scan", "android": "https://dc.lft.to/lastmile_qr_scan"}, "name": "ec03e19db701fb4f43daf67d3f771139", "type": "electric_scooter", "fusion_lon": 0.0, "is_disabled": 0, "is_reserved": 0, "bike_id": "ec03e19db701fb4f43daf67d3f771139", "lon": -77.08662233333334}, {"fusion_lat": 0.0, "lat": 38.93925766666667, "rental_uris": {"ios": "https://dc.lft.to/lastmile_qr_scan", "android": "https://dc.lft.to/lastmile_qr_scan"}, "name": "1b6584c0f99ace6dd7c4235e5e3d8bd8", "type": "electric_scooter", "fusion_lon": 0.0, "is_disabled": 0, "is_reserved": 0, "bike_id": "1b6584c0f99ace6dd7c4235e5e3d8bd8", "lon": -77.02793183333333}, {"fusion_lat": 0.0, "lat": 38.906267, "rental_uris": {"ios": "https://dc.lft.to/lastmile_qr_scan", "android": "https://dc.lft.to/lastmile_qr_scan"}, "name": "70f3d47c71c475d898acd87983bc0f8d", "type": "electric_scooter", "fusion_lon": 0.0, "is_disabled": 0, "is_reserved": 0, "bike_id": "70f3d47c71c475d898acd87983bc0f8d", "lon": -77.01013583333334}, {"fusion_lat": 0.0, "lat": 38.90259866666667, "rental_uris": {"ios": "https://dc.lft.to/lastmile_qr_scan", "android": "https://dc.lft.to/lastmile_qr_scan"}, "name": "6dbe691c80b59b53926b8c54cd54b168", "type": "electric_scooter", "fusion_lon": 0.0, "is_disabled": 0, "is_reserved": 0, "bike_id": "6dbe691c80b59b53926b8c54cd54b168", "lon": -77.030055}, {"fusion_lat": 0.0, "lat": 38.934320166666666, "rental_uris": {"ios": "https://dc.lft.to/lastmile_qr_scan", "android": "https://dc.lft.to/lastmile_qr_scan"}, "name": "82b9519239589f563c73b34368a1873d", "type": "electric_scooter", "fusion_lon": 0.0, "is_disabled": 0, "is_reserved": 0, "bike_id": "82b9519239589f563c73b34368a1873d", "lon": -77.05583883333334}, {"fusion_lat": 0.0, "lat": 38.900906166666665, "rental_uris": {"ios": "https://dc.lft.to/lastmile_qr_scan", "android": "https://dc.lft.to/lastmile_qr_scan"}, "name": "20c3af01adefce49feb73e32824b5d87", "type": "electric_scooter", "fusion_lon": 0.0, "is_disabled": 0, "is_reserved": 0, "bike_id": "20c3af01adefce49feb73e32824b5d87", "lon": -77.02693916666666}, {"fusion_lat": 0.0, "lat": 38.91977633333333, "rental_uris": {"ios": "https://dc.lft.to/lastmile_qr_scan", "android": "https://dc.lft.to/lastmile_qr_scan"}, "name": "1378906964302deda1acd1dc5652edd8", "type": "electric_scooter", "fusion_lon": 0.0, "is_disabled": 0, "is_reserved": 0, "bike_id": "1378906964302deda1acd1dc5652edd8", "lon": -77.021797}, {"fusion_lat": 0.0, "lat": 38.91720933333333, "rental_uris": {"ios": "https://dc.lft.to/lastmile_qr_scan", "android": "https://dc.lft.to/lastmile_qr_scan"}, "name": "7ae64d750e2ef692799450a017f6d253", "type": "electric_scooter", "fusion_lon": 0.0, "is_disabled": 0, "is_reserved": 0, "bike_id": "7ae64d750e2ef692799450a017f6d253", "lon": -77.02304183333334}, {"fusion_lat": 0.0, "lat": 38.90869816666667, "rental_uris": {"ios": "https://dc.lft.to/lastmile_qr_scan", "android": "https://dc.lft.to/lastmile_qr_scan"}, "name": "b615121e1956c43272e3d5bf53d85ec1", "type": "electric_scooter", "fusion_lon": 0.0, "is_disabled": 0, "is_reserved": 0, "bike_id": "b615121e1956c43272e3d5bf53d85ec1", "lon": -77.07164783333333}, {"fusion_lat": 0.0, "lat": 38.92880616666667, "rental_uris": {"ios": "https://dc.lft.to/lastmile_qr_scan", "android": "https://dc.lft.to/lastmile_qr_scan"}, "name": "596b2c93d334ec88d8026c218850e6c2", "type": "electric_scooter", "fusion_lon": 0.0, "is_disabled": 0, "is_reserved": 0, "bike_id": "596b2c93d334ec88d8026c218850e6c2", "lon": -77.03319833333333}, {"fusion_lat": 0.0, "lat": 38.8778415, "rental_uris": {"ios": "https://dc.lft.to/lastmile_qr_scan", "android": "https://dc.lft.to/lastmile_qr_scan"}, "name": "54329f06bc2fba58d03e11c5cb912c15", "type": "electric_scooter", "fusion_lon": 0.0, "is_disabled": 0, "is_reserved": 0, "bike_id": "54329f06bc2fba58d03e11c5cb912c15", "lon": -76.99406783333333}, {"fusion_lat": 0.0, "lat": 38.9085265, "rental_uris": {"ios": "https://dc.lft.to/lastmile_qr_scan", "android": "https://dc.lft.to/lastmile_qr_scan"}, "name": "0fb2a46d247a48af187ad2687dad0fb1", "type": "electric_scooter", "fusion_lon": 0.0, "is_disabled": 0, "is_reserved": 0, "bike_id": "0fb2a46d247a48af187ad2687dad0fb1", "lon": -77.01970333333334}, {"fusion_lat": 0.0, "lat": 38.8998135, "rental_uris": {"ios": "https://dc.lft.to/lastmile_qr_scan", "android": "https://dc.lft.to/lastmile_qr_scan"}, "name": "b90daaf9ba67764f5c5c4ac8bdd979c1", "type": "electric_scooter", "fusion_lon": 0.0, "is_disabled": 0, "is_reserved": 0, "bike_id": "b90daaf9ba67764f5c5c4ac8bdd979c1", "lon": -77.041423}, {"fusion_lat": 0.0, "lat": 38.920469, "rental_uris": {"ios": "https://dc.lft.to/lastmile_qr_scan", "android": "https://dc.lft.to/lastmile_qr_scan"}, "name": "a5dd4fbcd953f690a891db314bba6893", "type": "electric_scooter", "fusion_lon": 0.0, "is_disabled": 0, "is_reserved": 0, "bike_id": "a5dd4fbcd953f690a891db314bba6893", "lon": -77.0344505}, {"fusion_lat": 0.0, "lat": 38.949184833333334, "rental_uris": {"ios": "https://dc.lft.to/lastmile_qr_scan", "android": "https://dc.lft.to/lastmile_qr_scan"}, "name": "5999be15e7318c4d8ed51323d8d9ddaf", "type": "electric_bike", "fusion_lon": 0.0, "is_disabled": 0, "is_reserved": 0, "bike_id": "5999be15e7318c4d8ed51323d8d9ddaf", "lon": -77.07844866666667}, {"fusion_lat": 0.0, "lat": 38.910456, "rental_uris": {"ios": "https://dc.lft.to/lastmile_qr_scan", "android": "https://dc.lft.to/lastmile_qr_scan"}, "name": "ebdaf7e958691c87d95b0bdda344a3a4", "type": "electric_scooter", "fusion_lon": 0.0, "is_disabled": 0, "is_reserved": 0, "bike_id": "ebdaf7e958691c87d95b0bdda344a3a4", "lon": -77.00456783333334}, {"fusion_lat": 0.0, "lat": 38.899174333333335, "rental_uris": {"ios": "https://dc.lft.to/lastmile_qr_scan", "android": "https://dc.lft.to/lastmile_qr_scan"}, "name": "bd45f42cb1864ae819983c2213d7512e", "type": "electric_scooter", "fusion_lon": 0.0, "is_disabled": 0, "is_reserved": 0, "bike_id": "bd45f42cb1864ae819983c2213d7512e", "lon": -77.02808816666666}, {"fusion_lat": 0.0, "lat": 38.907734, "rental_uris": {"ios": "https://dc.lft.to/lastmile_qr_scan", "android": "https://dc.lft.to/lastmile_qr_scan"}, "name": "52742f48e93d57ef9e5484e6166cf368", "type": "electric_scooter", "fusion_lon": 0.0, "is_disabled": 0, "is_reserved": 0, "bike_id": "52742f48e93d57ef9e5484e6166cf368", "lon": -77.071404}, {"fusion_lat": 0.0, "lat": 38.95452383333333, "rental_uris": {"ios": "https://dc.lft.to/lastmile_qr_scan", "android": "https://dc.lft.to/lastmile_qr_scan"}, "name": "5dd4813a1b76c080d1d493ee26f46400", "type": "electric_scooter", "fusion_lon": 0.0, "is_disabled": 0, "is_reserved": 0, "bike_id": "5dd4813a1b76c080d1d493ee26f46400", "lon": -77.02216216666666}, {"fusion_lat": 0.0, "lat": 38.90411016666667, "rental_uris": {"ios": "https://dc.lft.to/lastmile_qr_scan", "android": "https://dc.lft.to/lastmile_qr_scan"}, "name": "d5befd40b5e0e703ea784366b921e483", "type": "electric_scooter", "fusion_lon": 0.0, "is_disabled": 0, "is_reserved": 0, "bike_id": "d5befd40b5e0e703ea784366b921e483", "lon": -76.97331216666667}, {"fusion_lat": 0.0, "lat": 38.908262666666666, "rental_uris": {"ios": "https://dc.lft.to/lastmile_qr_scan", "android": "https://dc.lft.to/lastmile_qr_scan"}, "name": "fa68c8c414a55dcaec6bce68775b3988", "type": "electric_scooter", "fusion_lon": 0.0, "is_disabled": 0, "is_reserved": 0, "bike_id": "fa68c8c414a55dcaec6bce68775b3988", "lon": -77.03963483333334}, {"fusion_lat": 0.0, "lat": 38.9036455, "rental_uris": {"ios": "https://dc.lft.to/lastmile_qr_scan", "android": "https://dc.lft.to/lastmile_qr_scan"}, "name": "bfd0177604aff71ff05d0bd41b331e43", "type": "electric_scooter", "fusion_lon": 0.0, "is_disabled": 0, "is_reserved": 0, "bike_id": "bfd0177604aff71ff05d0bd41b331e43", "lon": -77.00340066666666}, {"fusion_lat": 0.0, "lat": 38.9170855, "rental_uris": {"ios": "https://dc.lft.to/lastmile_qr_scan", "android": "https://dc.lft.to/lastmile_qr_scan"}, "name": "e17404bf5e844ac721033dfa1131b4a8", "type": "electric_scooter", "fusion_lon": 0.0, "is_disabled": 0, "is_reserved": 0, "bike_id": "e17404bf5e844ac721033dfa1131b4a8", "lon": -77.0278975}, {"fusion_lat": 0.0, "lat": 38.9015095, "rental_uris": {"ios": "https://dc.lft.to/lastmile_qr_scan", "android": "https://dc.lft.to/lastmile_qr_scan"}, "name": "2eb02ad04cfb023f456b841f6d04b59e", "type": "electric_scooter", "fusion_lon": 0.0, "is_disabled": 0, "is_reserved": 0, "bike_id": "2eb02ad04cfb023f456b841f6d04b59e", "lon": -77.05919716666666}, {"fusion_lat": 0.0, "lat": 38.892380833333334, "rental_uris": {"ios": "https://dc.lft.to/lastmile_qr_scan", "android": "https://dc.lft.to/lastmile_qr_scan"}, "name": "45812525fc0811c03920bf617e363eaf", "type": "electric_scooter", "fusion_lon": 0.0, "is_disabled": 0, "is_reserved": 0, "bike_id": "45812525fc0811c03920bf617e363eaf", "lon": -77.04874533333333}, {"fusion_lat": 0.0, "lat": 38.93377233333333, "rental_uris": {"ios": "https://dc.lft.to/lastmile_qr_scan", "android": "https://dc.lft.to/lastmile_qr_scan"}, "name": "8f6b413c945509905741906be6d31399", "type": "electric_scooter", "fusion_lon": 0.0, "is_disabled": 0, "is_reserved": 0, "bike_id": "8f6b413c945509905741906be6d31399", "lon": -77.03678333333333}, {"fusion_lat": 0.0, "lat": 38.8861895, "rental_uris": {"ios": "https://dc.lft.to/lastmile_qr_scan", "android": "https://dc.lft.to/lastmile_qr_scan"}, "name": "ca8ff771ebb0424c0a02254e3cd3dba9", "type": "electric_scooter", "fusion_lon": 0.0, "is_disabled": 0, "is_reserved": 0, "bike_id": "ca8ff771ebb0424c0a02254e3cd3dba9", "lon": -77.01537583333334}, {"fusion_lat": 0.0, "lat": 38.91552133333333, "rental_uris": {"ios": "https://dc.lft.to/lastmile_qr_scan", "android": "https://dc.lft.to/lastmile_qr_scan"}, "name": "dc9e68d3da7f22deccd538392a465d10", "type": "electric_scooter", "fusion_lon": 0.0, "is_disabled": 0, "is_reserved": 0, "bike_id": "dc9e68d3da7f22deccd538392a465d10", "lon": -77.03770133333333}, {"fusion_lat": 0.0, "lat": 38.90046316666667, "rental_uris": {"ios": "https://dc.lft.to/lastmile_qr_scan", "android": "https://dc.lft.to/lastmile_qr_scan"}, "name": "2a9705cd25b235c07608ea7c7dae2ce1", "type": "electric_scooter", "fusion_lon": 0.0, "is_disabled": 0, "is_reserved": 0, "bike_id": "2a9705cd25b235c07608ea7c7dae2ce1", "lon": -76.98818366666667}, {"fusion_lat": 0.0, "lat": 38.924224333333335, "rental_uris": {"ios": "https://dc.lft.to/lastmile_qr_scan", "android": "https://dc.lft.to/lastmile_qr_scan"}, "name": "61181a10c8aacd174f40810e2c421ff8", "type": "electric_scooter", "fusion_lon": 0.0, "is_disabled": 0, "is_reserved": 0, "bike_id": "61181a10c8aacd174f40810e2c421ff8", "lon": -77.05754883333333}, {"fusion_lat": 0.0, "lat": 38.9042715, "rental_uris": {"ios": "https://dc.lft.to/lastmile_qr_scan", "android": "https://dc.lft.to/lastmile_qr_scan"}, "name": "461c730509f21f964ba99279aa70a413", "type": "electric_scooter", "fusion_lon": 0.0, "is_disabled": 0, "is_reserved": 0, "bike_id": "461c730509f21f964ba99279aa70a413", "lon": -77.0591335}, {"fusion_lat": 0.0, "lat": 38.92522, "rental_uris": {"ios": "https://dc.lft.to/lastmile_qr_scan", "android": "https://dc.lft.to/lastmile_qr_scan"}, "name": "4a10f9e6d618566fb41e475b4155fecf", "type": "electric_scooter", "fusion_lon": 0.0, "is_disabled": 0, "is_reserved": 0, "bike_id": "4a10f9e6d618566fb41e475b4155fecf", "lon": -77.02144883333334}, {"fusion_lat": 0.0, "lat": 38.9525085, "rental_uris": {"ios": "https://dc.lft.to/lastmile_qr_scan", "android": "https://dc.lft.to/lastmile_qr_scan"}, "name": "d13d8358553f971ad2bc8ddbea3c7a2b", "type": "electric_scooter", "fusion_lon": 0.0, "is_disabled": 0, "is_reserved": 0, "bike_id": "d13d8358553f971ad2bc8ddbea3c7a2b", "lon": -77.00213566666666}, {"fusion_lat": 0.0, "lat": 38.92365816666667, "rental_uris": {"ios": "https://dc.lft.to/lastmile_qr_scan", "android": "https://dc.lft.to/lastmile_qr_scan"}, "name": "2e8bbbb61849a2c5d8215d3a175e88f9", "type": "electric_scooter", "fusion_lon": 0.0, "is_disabled": 0, "is_reserved": 0, "bike_id": "2e8bbbb61849a2c5d8215d3a175e88f9", "lon": -77.0503375}, {"fusion_lat": 0.0, "lat": 38.876574833333336, "rental_uris": {"ios": "https://dc.lft.to/lastmile_qr_scan", "android": "https://dc.lft.to/lastmile_qr_scan"}, "name": "a4afad1375038a30d281efad25f80835", "type": "electric_scooter", "fusion_lon": 0.0, "is_disabled": 0, "is_reserved": 0, "bike_id": "a4afad1375038a30d281efad25f80835", "lon": -77.005215}, {"fusion_lat": 0.0, "lat": 38.8966235, "rental_uris": {"ios": "https://dc.lft.to/lastmile_qr_scan", "android": "https://dc.lft.to/lastmile_qr_scan"}, "name": "848ffb3d6a93c65b580dcda1baed0fed", "type": "electric_scooter", "fusion_lon": 0.0, "is_disabled": 0, "is_reserved": 0, "bike_id": "848ffb3d6a93c65b580dcda1baed0fed", "lon": -77.0262555}, {"fusion_lat": 0.0, "lat": 38.905673666666665, "rental_uris": {"ios": "https://dc.lft.to/lastmile_qr_scan", "android": "https://dc.lft.to/lastmile_qr_scan"}, "name": "197f8cbd1500f40e3e4c2cf224f08f7d", "type": "electric_scooter", "fusion_lon": 0.0, "is_disabled": 0, "is_reserved": 0, "bike_id": "197f8cbd1500f40e3e4c2cf224f08f7d", "lon": -77.00302733333334}, {"fusion_lat": 0.0, "lat": 38.901317166666665, "rental_uris": {"ios": "https://dc.lft.to/lastmile_qr_scan", "android": "https://dc.lft.to/lastmile_qr_scan"}, "name": "cafc2188a5d6c0cd03d3d660b2850154", "type": "electric_scooter", "fusion_lon": 0.0, "is_disabled": 0, "is_reserved": 0, "bike_id": "cafc2188a5d6c0cd03d3d660b2850154", "lon": -77.01674316666667}, {"fusion_lat": 0.0, "lat": 38.874712, "rental_uris": {"ios": "https://dc.lft.to/lastmile_qr_scan", "android": "https://dc.lft.to/lastmile_qr_scan"}, "name": "db790dde47d690675f25078b9989e000", "type": "electric_scooter", "fusion_lon": 0.0, "is_disabled": 0, "is_reserved": 0, "bike_id": "db790dde47d690675f25078b9989e000", "lon": -77.008331}, {"fusion_lat": 0.0, "lat": 38.9081175, "rental_uris": {"ios": "https://dc.lft.to/lastmile_qr_scan", "android": "https://dc.lft.to/lastmile_qr_scan"}, "name": "10cb0b9f5130d6db66169ca6d9612dc7", "type": "electric_scooter", "fusion_lon": 0.0, "is_disabled": 0, "is_reserved": 0, "bike_id": "10cb0b9f5130d6db66169ca6d9612dc7", "lon": -77.005975}, {"fusion_lat": 0.0, "lat": 38.91657083333333, "rental_uris": {"ios": "https://dc.lft.to/lastmile_qr_scan", "android": "https://dc.lft.to/lastmile_qr_scan"}, "name": "da030085a40625e52c0e887df4d22e1f", "type": "electric_scooter", "fusion_lon": 0.0, "is_disabled": 0, "is_reserved": 0, "bike_id": "da030085a40625e52c0e887df4d22e1f", "lon": -77.03204083333334}, {"fusion_lat": 0.0, "lat": 38.95355883333333, "rental_uris": {"ios": "https://dc.lft.to/lastmile_qr_scan", "android": "https://dc.lft.to/lastmile_qr_scan"}, "name": "866abd31e7c39b3dc87e4dbbbbbcbcf9", "type": "electric_bike", "fusion_lon": 0.0, "is_disabled": 0, "is_reserved": 0, "bike_id": "866abd31e7c39b3dc87e4dbbbbbcbcf9", "lon": -76.9809515}, {"fusion_lat": 0.0, "lat": 38.8970635, "rental_uris": {"ios": "https://dc.lft.to/lastmile_qr_scan", "android": "https://dc.lft.to/lastmile_qr_scan"}, "name": "d4ec974f8abbc2fb06b7aaac93b1047d", "type": "electric_scooter", "fusion_lon": 0.0, "is_disabled": 0, "is_reserved": 0, "bike_id": "d4ec974f8abbc2fb06b7aaac93b1047d", "lon": -77.01642866666667}, {"fusion_lat": 0.0, "lat": 38.902880333333336, "rental_uris": {"ios": "https://dc.lft.to/lastmile_qr_scan", "android": "https://dc.lft.to/lastmile_qr_scan"}, "name": "e850732e05080531806ac5f772e8085e", "type": "electric_scooter", "fusion_lon": 0.0, "is_disabled": 0, "is_reserved": 0, "bike_id": "e850732e05080531806ac5f772e8085e", "lon": -77.046777}, {"fusion_lat": 0.0, "lat": 38.8932925, "rental_uris": {"ios": "https://dc.lft.to/lastmile_qr_scan", "android": "https://dc.lft.to/lastmile_qr_scan"}, "name": "a41d4e36ae579334e99f954c46412ccb", "type": "electric_scooter", "fusion_lon": 0.0, "is_disabled": 0, "is_reserved": 0, "bike_id": "a41d4e36ae579334e99f954c46412ccb", "lon": -76.9392775}, {"fusion_lat": 0.0, "lat": 38.9142025, "rental_uris": {"ios": "https://dc.lft.to/lastmile_qr_scan", "android": "https://dc.lft.to/lastmile_qr_scan"}, "name": "0f9bba8040d51d658f0b13fd4c38dfc1", "type": "electric_scooter", "fusion_lon": 0.0, "is_disabled": 0, "is_reserved": 0, "bike_id": "0f9bba8040d51d658f0b13fd4c38dfc1", "lon": -77.03171383333333}, {"fusion_lat": 0.0, "lat": 38.9368365, "rental_uris": {"ios": "https://dc.lft.to/lastmile_qr_scan", "android": "https://dc.lft.to/lastmile_qr_scan"}, "name": "d0b4317550b2f50fc491e2093c50b5d5", "type": "electric_scooter", "fusion_lon": 0.0, "is_disabled": 0, "is_reserved": 0, "bike_id": "d0b4317550b2f50fc491e2093c50b5d5", "lon": -77.03624083333334}, {"fusion_lat": 0.0, "lat": 39.084531, "rental_uris": {"ios": "https://dc.lft.to/lastmile_qr_scan", "android": "https://dc.lft.to/lastmile_qr_scan"}, "name": "351f268bbbdeb361972b9ff4b258db68", "type": "electric_bike", "fusion_lon": 0.0, "is_disabled": 0, "is_reserved": 0, "bike_id": "351f268bbbdeb361972b9ff4b258db68", "lon": -76.9520065}, {"fusion_lat": 0.0, "lat": 38.93537, "rental_uris": {"ios": "https://dc.lft.to/lastmile_qr_scan", "android": "https://dc.lft.to/lastmile_qr_scan"}, "name": "77edf3cfb078b65aaeeafcc4268c207f", "type": "electric_scooter", "fusion_lon": 0.0, "is_disabled": 0, "is_reserved": 0, "bike_id": "77edf3cfb078b65aaeeafcc4268c207f", "lon": -77.05827066666667}, {"fusion_lat": 0.0, "lat": 38.9349125, "rental_uris": {"ios": "https://dc.lft.to/lastmile_qr_scan", "android": "https://dc.lft.to/lastmile_qr_scan"}, "name": "0207b3c947aca0bbc453cca753888307", "type": "electric_scooter", "fusion_lon": 0.0, "is_disabled": 0, "is_reserved": 0, "bike_id": "0207b3c947aca0bbc453cca753888307", "lon": -77.045326}, {"fusion_lat": 0.0, "lat": 38.90066916666667, "rental_uris": {"ios": "https://dc.lft.to/lastmile_qr_scan", "android": "https://dc.lft.to/lastmile_qr_scan"}, "name": "0dce7c0e2edf392c17f98b4831b906e8", "type": "electric_scooter", "fusion_lon": 0.0, "is_disabled": 0, "is_reserved": 0, "bike_id": "0dce7c0e2edf392c17f98b4831b906e8", "lon": -77.04761133333334}, {"fusion_lat": 0.0, "lat": 38.89354066666667, "rental_uris": {"ios": "https://dc.lft.to/lastmile_qr_scan", "android": "https://dc.lft.to/lastmile_qr_scan"}, "name": "36d1069d4d6ad6decf49f289c93fd1c1", "type": "electric_bike", "fusion_lon": 0.0, "is_disabled": 0, "is_reserved": 0, "bike_id": "36d1069d4d6ad6decf49f289c93fd1c1", "lon": -77.187412}, {"fusion_lat": 0.0, "lat": 38.89242633333333, "rental_uris": {"ios": "https://dc.lft.to/lastmile_qr_scan", "android": "https://dc.lft.to/lastmile_qr_scan"}, "name": "57f0e143f11f8af82adeb4be5d5e96ca", "type": "electric_scooter", "fusion_lon": 0.0, "is_disabled": 0, "is_reserved": 0, "bike_id": "57f0e143f11f8af82adeb4be5d5e96ca", "lon": -77.039565}, {"fusion_lat": 0.0, "lat": 38.90692816666667, "rental_uris": {"ios": "https://dc.lft.to/lastmile_qr_scan", "android": "https://dc.lft.to/lastmile_qr_scan"}, "name": "32dc89e2b09233b5bfb9cc6da491adfc", "type": "electric_scooter", "fusion_lon": 0.0, "is_disabled": 0, "is_reserved": 0, "bike_id": "32dc89e2b09233b5bfb9cc6da491adfc", "lon": -77.05722533333334}, {"fusion_lat": 0.0, "lat": 38.9561665, "rental_uris": {"ios": "https://dc.lft.to/lastmile_qr_scan", "android": "https://dc.lft.to/lastmile_qr_scan"}, "name": "ea93580507350dc342c3b86a895f6898", "type": "electric_scooter", "fusion_lon": 0.0, "is_disabled": 0, "is_reserved": 0, "bike_id": "ea93580507350dc342c3b86a895f6898", "lon": -77.0282285}, {"fusion_lat": 0.0, "lat": 38.92665983333333, "rental_uris": {"ios": "https://dc.lft.to/lastmile_qr_scan", "android": "https://dc.lft.to/lastmile_qr_scan"}, "name": "0a966539b7a29a93dc5cfaec821d9e44", "type": "electric_scooter", "fusion_lon": 0.0, "is_disabled": 0, "is_reserved": 0, "bike_id": "0a966539b7a29a93dc5cfaec821d9e44", "lon": -77.04308}, {"fusion_lat": 0.0, "lat": 38.90013733333333, "rental_uris": {"ios": "https://dc.lft.to/lastmile_qr_scan", "android": "https://dc.lft.to/lastmile_qr_scan"}, "name": "4bb832382b9faf03881afb944ed1bca4", "type": "electric_scooter", "fusion_lon": 0.0, "is_disabled": 0, "is_reserved": 0, "bike_id": "4bb832382b9faf03881afb944ed1bca4", "lon": -76.987918}, {"fusion_lat": 0.0, "lat": 38.952377, "rental_uris": {"ios": "https://dc.lft.to/lastmile_qr_scan", "android": "https://dc.lft.to/lastmile_qr_scan"}, "name": "29e43f82d7f73a49db8c8f3c866623cd", "type": "electric_bike", "fusion_lon": 0.0, "is_disabled": 0, "is_reserved": 0, "bike_id": "29e43f82d7f73a49db8c8f3c866623cd", "lon": -77.00269783333333}, {"fusion_lat": 0.0, "lat": 38.904129833333336, "rental_uris": {"ios": "https://dc.lft.to/lastmile_qr_scan", "android": "https://dc.lft.to/lastmile_qr_scan"}, "name": "0957a26f4519ed062be53cf6308cde7a", "type": "electric_scooter", "fusion_lon": 0.0, "is_disabled": 0, "is_reserved": 0, "bike_id": "0957a26f4519ed062be53cf6308cde7a", "lon": -77.04660183333333}, {"fusion_lat": 0.0, "lat": 38.84440883333333, "rental_uris": {"ios": "https://dc.lft.to/lastmile_qr_scan", "android": "https://dc.lft.to/lastmile_qr_scan"}, "name": "a3a8bf2689ad96bc9984607d5540fedc", "type": "electric_scooter", "fusion_lon": 0.0, "is_disabled": 0, "is_reserved": 0, "bike_id": "a3a8bf2689ad96bc9984607d5540fedc", "lon": -76.997738}, {"fusion_lat": 0.0, "lat": 38.91422933333333, "rental_uris": {"ios": "https://dc.lft.to/lastmile_qr_scan", "android": "https://dc.lft.to/lastmile_qr_scan"}, "name": "5f8f1d4928788e3530c1d7754fff77fc", "type": "electric_scooter", "fusion_lon": 0.0, "is_disabled": 0, "is_reserved": 0, "bike_id": "5f8f1d4928788e3530c1d7754fff77fc", "lon": -77.03188583333333}, {"fusion_lat": 0.0, "lat": 38.923561166666666, "rental_uris": {"ios": "https://dc.lft.to/lastmile_qr_scan", "android": "https://dc.lft.to/lastmile_qr_scan"}, "name": "c470fa1fd84f26c400e45a6643c4ff77", "type": "electric_scooter", "fusion_lon": 0.0, "is_disabled": 0, "is_reserved": 0, "bike_id": "c470fa1fd84f26c400e45a6643c4ff77", "lon": -77.05121816666667}, {"fusion_lat": 0.0, "lat": 38.91679083333333, "rental_uris": {"ios": "https://dc.lft.to/lastmile_qr_scan", "android": "https://dc.lft.to/lastmile_qr_scan"}, "name": "2aec3f710f9dcbc08c3b39bff72581d8", "type": "electric_scooter", "fusion_lon": 0.0, "is_disabled": 0, "is_reserved": 0, "bike_id": "2aec3f710f9dcbc08c3b39bff72581d8", "lon": -77.02394133333334}, {"fusion_lat": 0.0, "lat": 38.875491333333336, "rental_uris": {"ios": "https://dc.lft.to/lastmile_qr_scan", "android": "https://dc.lft.to/lastmile_qr_scan"}, "name": "49da5b1713e8803777b78c1d63569193", "type": "electric_scooter", "fusion_lon": 0.0, "is_disabled": 0, "is_reserved": 0, "bike_id": "49da5b1713e8803777b78c1d63569193", "lon": -77.00566316666666}, {"fusion_lat": 0.0, "lat": 38.88724166666667, "rental_uris": {"ios": "https://dc.lft.to/lastmile_qr_scan", "android": "https://dc.lft.to/lastmile_qr_scan"}, "name": "c425b91a7ac12c7dfcbcbae4d35337bb", "type": "electric_scooter", "fusion_lon": 0.0, "is_disabled": 0, "is_reserved": 0, "bike_id": "c425b91a7ac12c7dfcbcbae4d35337bb", "lon": -76.99615}, {"fusion_lat": 0.0, "lat": 38.897276166666664, "rental_uris": {"ios": "https://dc.lft.to/lastmile_qr_scan", "android": "https://dc.lft.to/lastmile_qr_scan"}, "name": "d81decbd705341c407afcf80508f5379", "type": "electric_scooter", "fusion_lon": 0.0, "is_disabled": 0, "is_reserved": 0, "bike_id": "d81decbd705341c407afcf80508f5379", "lon": -77.05524266666667}, {"fusion_lat": 0.0, "lat": 38.88872, "rental_uris": {"ios": "https://dc.lft.to/lastmile_qr_scan", "android": "https://dc.lft.to/lastmile_qr_scan"}, "name": "81294c67891e29d8c48fb6ba98765f7c", "type": "electric_bike", "fusion_lon": 0.0, "is_disabled": 0, "is_reserved": 0, "bike_id": "81294c67891e29d8c48fb6ba98765f7c", "lon": -77.040015}, {"fusion_lat": 0.0, "lat": 39.03428666666667, "rental_uris": {"ios": "https://dc.lft.to/lastmile_qr_scan", "android": "https://dc.lft.to/lastmile_qr_scan"}, "name": "8f96a758c716b62fbb46af8bfb54b0a2", "type": "electric_bike", "fusion_lon": 0.0, "is_disabled": 0, "is_reserved": 0, "bike_id": "8f96a758c716b62fbb46af8bfb54b0a2", "lon": -77.04314433333333}, {"fusion_lat": 0.0, "lat": 38.9507465, "rental_uris": {"ios": "https://dc.lft.to/lastmile_qr_scan", "android": "https://dc.lft.to/lastmile_qr_scan"}, "name": "3a19263c9551e308fa7f0a2edb3974ed", "type": "electric_scooter", "fusion_lon": 0.0, "is_disabled": 0, "is_reserved": 0, "bike_id": "3a19263c9551e308fa7f0a2edb3974ed", "lon": -76.996206}, {"fusion_lat": 0.0, "lat": 38.919089, "rental_uris": {"ios": "https://dc.lft.to/lastmile_qr_scan", "android": "https://dc.lft.to/lastmile_qr_scan"}, "name": "4919bd5fb6791d9b89dbfc4a498fc169", "type": "electric_scooter", "fusion_lon": 0.0, "is_disabled": 0, "is_reserved": 0, "bike_id": "4919bd5fb6791d9b89dbfc4a498fc169", "lon": -77.02411833333333}, {"fusion_lat": 0.0, "lat": 38.9051605, "rental_uris": {"ios": "https://dc.lft.to/lastmile_qr_scan", "android": "https://dc.lft.to/lastmile_qr_scan"}, "name": "74ed80d27ebff028cfdb4b80d40dace7", "type": "electric_scooter", "fusion_lon": 0.0, "is_disabled": 0, "is_reserved": 0, "bike_id": "74ed80d27ebff028cfdb4b80d40dace7", "lon": -77.06138183333333}, {"fusion_lat": 0.0, "lat": 38.93583866666667, "rental_uris": {"ios": "https://dc.lft.to/lastmile_qr_scan", "android": "https://dc.lft.to/lastmile_qr_scan"}, "name": "ad4aaf7850f566e1ad5123c121830c7f", "type": "electric_scooter", "fusion_lon": 0.0, "is_disabled": 0, "is_reserved": 0, "bike_id": "ad4aaf7850f566e1ad5123c121830c7f", "lon": -77.03346933333333}, {"fusion_lat": 0.0, "lat": 38.97259916666667, "rental_uris": {"ios": "https://dc.lft.to/lastmile_qr_scan", "android": "https://dc.lft.to/lastmile_qr_scan"}, "name": "1bf2a2d8c460ac66d5014ef5544b46ba", "type": "electric_bike", "fusion_lon": 0.0, "is_disabled": 0, "is_reserved": 0, "bike_id": "1bf2a2d8c460ac66d5014ef5544b46ba", "lon": -76.9927965}, {"fusion_lat": 0.0, "lat": 38.894319, "rental_uris": {"ios": "https://dc.lft.to/lastmile_qr_scan", "android": "https://dc.lft.to/lastmile_qr_scan"}, "name": "48f4d07b53d490930f8dbcec7047b8c7", "type": "electric_scooter", "fusion_lon": 0.0, "is_disabled": 0, "is_reserved": 0, "bike_id": "48f4d07b53d490930f8dbcec7047b8c7", "lon": -77.0308635}, {"fusion_lat": 0.0, "lat": 38.9254155, "rental_uris": {"ios": "https://dc.lft.to/lastmile_qr_scan", "android": "https://dc.lft.to/lastmile_qr_scan"}, "name": "d35be8804dbdb3cf1ccc4835234ec702", "type": "electric_scooter", "fusion_lon": 0.0, "is_disabled": 0, "is_reserved": 0, "bike_id": "d35be8804dbdb3cf1ccc4835234ec702", "lon": -77.03382716666667}, {"fusion_lat": 0.0, "lat": 38.8983435, "rental_uris": {"ios": "https://dc.lft.to/lastmile_qr_scan", "android": "https://dc.lft.to/lastmile_qr_scan"}, "name": "4de8c3d9a46f4ad481c57f54cb00bcdc", "type": "electric_scooter", "fusion_lon": 0.0, "is_disabled": 0, "is_reserved": 0, "bike_id": "4de8c3d9a46f4ad481c57f54cb00bcdc", "lon": -77.03179933333334}, {"fusion_lat": 0.0, "lat": 38.896011, "rental_uris": {"ios": "https://dc.lft.to/lastmile_qr_scan", "android": "https://dc.lft.to/lastmile_qr_scan"}, "name": "158599a0b915b6662fb92cf944b7e63d", "type": "electric_scooter", "fusion_lon": 0.0, "is_disabled": 0, "is_reserved": 0, "bike_id": "158599a0b915b6662fb92cf944b7e63d", "lon": -77.04090416666666}, {"fusion_lat": 0.0, "lat": 38.9038235, "rental_uris": {"ios": "https://dc.lft.to/lastmile_qr_scan", "android": "https://dc.lft.to/lastmile_qr_scan"}, "name": "1b478eb618fd81937cecf1b84001141d", "type": "electric_scooter", "fusion_lon": 0.0, "is_disabled": 0, "is_reserved": 0, "bike_id": "1b478eb618fd81937cecf1b84001141d", "lon": -77.0652425}, {"fusion_lat": 0.0, "lat": 38.92727516666667, "rental_uris": {"ios": "https://dc.lft.to/lastmile_qr_scan", "android": "https://dc.lft.to/lastmile_qr_scan"}, "name": "4bd17d93791be7736f937bb5bc642ed5", "type": "electric_scooter", "fusion_lon": 0.0, "is_disabled": 0, "is_reserved": 0, "bike_id": "4bd17d93791be7736f937bb5bc642ed5", "lon": -77.03248166666667}, {"fusion_lat": 0.0, "lat": 38.909500333333334, "rental_uris": {"ios": "https://dc.lft.to/lastmile_qr_scan", "android": "https://dc.lft.to/lastmile_qr_scan"}, "name": "46b230b3e70df4939e72d3dfc6309d47", "type": "electric_scooter", "fusion_lon": 0.0, "is_disabled": 0, "is_reserved": 0, "bike_id": "46b230b3e70df4939e72d3dfc6309d47", "lon": -77.031799}, {"fusion_lat": 0.0, "lat": 38.92364966666667, "rental_uris": {"ios": "https://dc.lft.to/lastmile_qr_scan", "android": "https://dc.lft.to/lastmile_qr_scan"}, "name": "8e5c7401f63bafeec37991a4d05cd766", "type": "electric_scooter", "fusion_lon": 0.0, "is_disabled": 0, "is_reserved": 0, "bike_id": "8e5c7401f63bafeec37991a4d05cd766", "lon": -77.05053016666666}, {"fusion_lat": 0.0, "lat": 38.91458516666667, "rental_uris": {"ios": "https://dc.lft.to/lastmile_qr_scan", "android": "https://dc.lft.to/lastmile_qr_scan"}, "name": "1f4f01baf206f47169e8d8e447cf02b0", "type": "electric_scooter", "fusion_lon": 0.0, "is_disabled": 0, "is_reserved": 0, "bike_id": "1f4f01baf206f47169e8d8e447cf02b0", "lon": -77.03187466666667}, {"fusion_lat": 0.0, "lat": 38.8565325, "rental_uris": {"ios": "https://dc.lft.to/lastmile_qr_scan", "android": "https://dc.lft.to/lastmile_qr_scan"}, "name": "e1917cfa2f862aedfac4d9bf8e5bde14", "type": "electric_scooter", "fusion_lon": 0.0, "is_disabled": 0, "is_reserved": 0, "bike_id": "e1917cfa2f862aedfac4d9bf8e5bde14", "lon": -76.99676866666667}, {"fusion_lat": 0.0, "lat": 38.90833883333333, "rental_uris": {"ios": "https://dc.lft.to/lastmile_qr_scan", "android": "https://dc.lft.to/lastmile_qr_scan"}, "name": "47406c63862fedc80adaa40024fa4c71", "type": "electric_scooter", "fusion_lon": 0.0, "is_disabled": 0, "is_reserved": 0, "bike_id": "47406c63862fedc80adaa40024fa4c71", "lon": -77.03197816666666}, {"fusion_lat": 0.0, "lat": 38.897349, "rental_uris": {"ios": "https://dc.lft.to/lastmile_qr_scan", "android": "https://dc.lft.to/lastmile_qr_scan"}, "name": "cacfa0e2f59549e4a3121540bd144526", "type": "electric_scooter", "fusion_lon": 0.0, "is_disabled": 0, "is_reserved": 0, "bike_id": "cacfa0e2f59549e4a3121540bd144526", "lon": -77.00372416666667}, {"fusion_lat": 0.0, "lat": 38.956864833333334, "rental_uris": {"ios": "https://dc.lft.to/lastmile_qr_scan", "android": "https://dc.lft.to/lastmile_qr_scan"}, "name": "eac8b36903e9f3706642c847b500fe5f", "type": "electric_scooter", "fusion_lon": 0.0, "is_disabled": 0, "is_reserved": 0, "bike_id": "eac8b36903e9f3706642c847b500fe5f", "lon": -77.01928366666667}, {"fusion_lat": 0.0, "lat": 38.8747075, "rental_uris": {"ios": "https://dc.lft.to/lastmile_qr_scan", "android": "https://dc.lft.to/lastmile_qr_scan"}, "name": "817671819fac7af530bac3060d3fc256", "type": "electric_scooter", "fusion_lon": 0.0, "is_disabled": 0, "is_reserved": 0, "bike_id": "817671819fac7af530bac3060d3fc256", "lon": -77.00559283333334}, {"fusion_lat": 0.0, "lat": 38.901157166666664, "rental_uris": {"ios": "https://dc.lft.to/lastmile_qr_scan", "android": "https://dc.lft.to/lastmile_qr_scan"}, "name": "cefb73096f03e6e84d68cfaa2115debf", "type": "electric_scooter", "fusion_lon": 0.0, "is_disabled": 0, "is_reserved": 0, "bike_id": "cefb73096f03e6e84d68cfaa2115debf", "lon": -77.04486}, {"fusion_lat": 0.0, "lat": 38.84643116666667, "rental_uris": {"ios": "https://dc.lft.to/lastmile_qr_scan", "android": "https://dc.lft.to/lastmile_qr_scan"}, "name": "fa64e8925fd13a320d75fc68b40e75c0", "type": "electric_scooter", "fusion_lon": 0.0, "is_disabled": 0, "is_reserved": 0, "bike_id": "fa64e8925fd13a320d75fc68b40e75c0", "lon": -77.00384716666667}, {"fusion_lat": 0.0, "lat": 38.915815333333335, "rental_uris": {"ios": "https://dc.lft.to/lastmile_qr_scan", "android": "https://dc.lft.to/lastmile_qr_scan"}, "name": "85b72137fd32afefdb273bd1982ba325", "type": "electric_scooter", "fusion_lon": 0.0, "is_disabled": 0, "is_reserved": 0, "bike_id": "85b72137fd32afefdb273bd1982ba325", "lon": -77.031878}, {"fusion_lat": 0.0, "lat": 38.89734716666667, "rental_uris": {"ios": "https://dc.lft.to/lastmile_qr_scan", "android": "https://dc.lft.to/lastmile_qr_scan"}, "name": "637ccd4b9641c5fca3f315a5ef9225f8", "type": "electric_bike", "fusion_lon": 0.0, "is_disabled": 0, "is_reserved": 0, "bike_id": "637ccd4b9641c5fca3f315a5ef9225f8", "lon": -76.920447}, {"fusion_lat": 0.0, "lat": 38.90193, "rental_uris": {"ios": "https://dc.lft.to/lastmile_qr_scan", "android": "https://dc.lft.to/lastmile_qr_scan"}, "name": "5c30f8d682e7f59a480dc91c7ccf51f5", "type": "electric_scooter", "fusion_lon": 0.0, "is_disabled": 0, "is_reserved": 0, "bike_id": "5c30f8d682e7f59a480dc91c7ccf51f5", "lon": -76.9263655}, {"fusion_lat": 0.0, "lat": 38.956435166666665, "rental_uris": {"ios": "https://dc.lft.to/lastmile_qr_scan", "android": "https://dc.lft.to/lastmile_qr_scan"}, "name": "da13a5d29c015e29e851e47f5e100565", "type": "electric_scooter", "fusion_lon": 0.0, "is_disabled": 0, "is_reserved": 0, "bike_id": "da13a5d29c015e29e851e47f5e100565", "lon": -76.997937}, {"fusion_lat": 0.0, "lat": 38.915444666666666, "rental_uris": {"ios": "https://dc.lft.to/lastmile_qr_scan", "android": "https://dc.lft.to/lastmile_qr_scan"}, "name": "ca4447d9985ff958068339445f3cd54e", "type": "electric_scooter", "fusion_lon": 0.0, "is_disabled": 0, "is_reserved": 0, "bike_id": "ca4447d9985ff958068339445f3cd54e", "lon": -76.98366683333333}, {"fusion_lat": 0.0, "lat": 38.93990983333333, "rental_uris": {"ios": "https://dc.lft.to/lastmile_qr_scan", "android": "https://dc.lft.to/lastmile_qr_scan"}, "name": "89391cf1beda9b4770c8dcc918a7409c", "type": "electric_scooter", "fusion_lon": 0.0, "is_disabled": 0, "is_reserved": 0, "bike_id": "89391cf1beda9b4770c8dcc918a7409c", "lon": -77.03265216666667}, {"fusion_lat": 0.0, "lat": 38.91612133333334, "rental_uris": {"ios": "https://dc.lft.to/lastmile_qr_scan", "android": "https://dc.lft.to/lastmile_qr_scan"}, "name": "827e62f33193e0a1cf0814106149fcef", "type": "electric_scooter", "fusion_lon": 0.0, "is_disabled": 0, "is_reserved": 0, "bike_id": "827e62f33193e0a1cf0814106149fcef", "lon": -77.022921}, {"fusion_lat": 0.0, "lat": 38.84917466666667, "rental_uris": {"ios": "https://dc.lft.to/lastmile_qr_scan", "android": "https://dc.lft.to/lastmile_qr_scan"}, "name": "deea5c54056a625283f77d9d4712fd58", "type": "electric_bike", "fusion_lon": 0.0, "is_disabled": 0, "is_reserved": 0, "bike_id": "deea5c54056a625283f77d9d4712fd58", "lon": -77.07930183333333}, {"fusion_lat": 0.0, "lat": 38.9231805, "rental_uris": {"ios": "https://dc.lft.to/lastmile_qr_scan", "android": "https://dc.lft.to/lastmile_qr_scan"}, "name": "d8842fa39a836102da267f9c9693932c", "type": "electric_scooter", "fusion_lon": 0.0, "is_disabled": 0, "is_reserved": 0, "bike_id": "d8842fa39a836102da267f9c9693932c", "lon": -77.0340855}, {"fusion_lat": 0.0, "lat": 38.9311295, "rental_uris": {"ios": "https://dc.lft.to/lastmile_qr_scan", "android": "https://dc.lft.to/lastmile_qr_scan"}, "name": "500f83a1d916b45a4994f5314c549c12", "type": "electric_scooter", "fusion_lon": 0.0, "is_disabled": 0, "is_reserved": 0, "bike_id": "500f83a1d916b45a4994f5314c549c12", "lon": -77.03817183333334}, {"fusion_lat": 0.0, "lat": 38.938659666666666, "rental_uris": {"ios": "https://dc.lft.to/lastmile_qr_scan", "android": "https://dc.lft.to/lastmile_qr_scan"}, "name": "f98ca3bd6d65bd92c46f67f20b66decc", "type": "electric_scooter", "fusion_lon": 0.0, "is_disabled": 0, "is_reserved": 0, "bike_id": "f98ca3bd6d65bd92c46f67f20b66decc", "lon": -77.02631583333333}, {"fusion_lat": 0.0, "lat": 38.909733333333335, "rental_uris": {"ios": "https://dc.lft.to/lastmile_qr_scan", "android": "https://dc.lft.to/lastmile_qr_scan"}, "name": "c379fab5eca869a22f70de531a534dad", "type": "electric_scooter", "fusion_lon": 0.0, "is_disabled": 0, "is_reserved": 0, "bike_id": "c379fab5eca869a22f70de531a534dad", "lon": -77.045174}, {"fusion_lat": 0.0, "lat": 38.92742283333333, "rental_uris": {"ios": "https://dc.lft.to/lastmile_qr_scan", "android": "https://dc.lft.to/lastmile_qr_scan"}, "name": "2ccc0badd1e921461d632de1744b1236", "type": "electric_scooter", "fusion_lon": 0.0, "is_disabled": 0, "is_reserved": 0, "bike_id": "2ccc0badd1e921461d632de1744b1236", "lon": -77.02491283333333}, {"fusion_lat": 0.0, "lat": 38.8913485, "rental_uris": {"ios": "https://dc.lft.to/lastmile_qr_scan", "android": "https://dc.lft.to/lastmile_qr_scan"}, "name": "fd3f379481c423a6fc20c590eaf58483", "type": "electric_scooter", "fusion_lon": 0.0, "is_disabled": 0, "is_reserved": 0, "bike_id": "fd3f379481c423a6fc20c590eaf58483", "lon": -76.990936}, {"fusion_lat": 0.0, "lat": 38.853159833333336, "rental_uris": {"ios": "https://dc.lft.to/lastmile_qr_scan", "android": "https://dc.lft.to/lastmile_qr_scan"}, "name": "ccf055585ee77449def8b7af3edc0c95", "type": "electric_bike", "fusion_lon": 0.0, "is_disabled": 0, "is_reserved": 0, "bike_id": "ccf055585ee77449def8b7af3edc0c95", "lon": -76.98010066666667}, {"fusion_lat": 0.0, "lat": 38.984627333333336, "rental_uris": {"ios": "https://dc.lft.to/lastmile_qr_scan", "android": "https://dc.lft.to/lastmile_qr_scan"}, "name": "c144f0f1fff3afb03d7636f2b653ad34", "type": "electric_bike", "fusion_lon": 0.0, "is_disabled": 0, "is_reserved": 0, "bike_id": "c144f0f1fff3afb03d7636f2b653ad34", "lon": -76.97054016666667}, {"fusion_lat": 0.0, "lat": 38.88262266666667, "rental_uris": {"ios": "https://dc.lft.to/lastmile_qr_scan", "android": "https://dc.lft.to/lastmile_qr_scan"}, "name": "635e5a331cf3a27689c971e6d9162caa", "type": "electric_bike", "fusion_lon": 0.0, "is_disabled": 0, "is_reserved": 0, "bike_id": "635e5a331cf3a27689c971e6d9162caa", "lon": -76.9103785}, {"fusion_lat": 0.0, "lat": 38.885185, "rental_uris": {"ios": "https://dc.lft.to/lastmile_qr_scan", "android": "https://dc.lft.to/lastmile_qr_scan"}, "name": "df83059ac76e73af8800f6f713299c93", "type": "electric_scooter", "fusion_lon": 0.0, "is_disabled": 0, "is_reserved": 0, "bike_id": "df83059ac76e73af8800f6f713299c93", "lon": -77.0057655}, {"fusion_lat": 0.0, "lat": 38.900379666666666, "rental_uris": {"ios": "https://dc.lft.to/lastmile_qr_scan", "android": "https://dc.lft.to/lastmile_qr_scan"}, "name": "a2b074208147bc2ce558eca297046e28", "type": "electric_scooter", "fusion_lon": 0.0, "is_disabled": 0, "is_reserved": 0, "bike_id": "a2b074208147bc2ce558eca297046e28", "lon": -76.9994255}, {"fusion_lat": 0.0, "lat": 38.90127016666667, "rental_uris": {"ios": "https://dc.lft.to/lastmile_qr_scan", "android": "https://dc.lft.to/lastmile_qr_scan"}, "name": "0b1a12c0378e28012eed2abec9837bde", "type": "electric_scooter", "fusion_lon": 0.0, "is_disabled": 0, "is_reserved": 0, "bike_id": "0b1a12c0378e28012eed2abec9837bde", "lon": -77.01787983333334}, {"fusion_lat": 0.0, "lat": 38.89718216666667, "rental_uris": {"ios": "https://dc.lft.to/lastmile_qr_scan", "android": "https://dc.lft.to/lastmile_qr_scan"}, "name": "47ca7c6427219434bf96256e182fff59", "type": "electric_scooter", "fusion_lon": 0.0, "is_disabled": 0, "is_reserved": 0, "bike_id": "47ca7c6427219434bf96256e182fff59", "lon": -77.008378}, {"fusion_lat": 0.0, "lat": 38.92230716666667, "rental_uris": {"ios": "https://dc.lft.to/lastmile_qr_scan", "android": "https://dc.lft.to/lastmile_qr_scan"}, "name": "855bb5cbdc8f0b0c8a567c2ba0c11b0f", "type": "electric_scooter", "fusion_lon": 0.0, "is_disabled": 0, "is_reserved": 0, "bike_id": "855bb5cbdc8f0b0c8a567c2ba0c11b0f", "lon": -77.0464365}, {"fusion_lat": 0.0, "lat": 38.9077125, "rental_uris": {"ios": "https://dc.lft.to/lastmile_qr_scan", "android": "https://dc.lft.to/lastmile_qr_scan"}, "name": "84b1c72ab9915067ed846a9855a9241e", "type": "electric_scooter", "fusion_lon": 0.0, "is_disabled": 0, "is_reserved": 0, "bike_id": "84b1c72ab9915067ed846a9855a9241e", "lon": -77.03209766666667}, {"fusion_lat": 0.0, "lat": 38.90463366666667, "rental_uris": {"ios": "https://dc.lft.to/lastmile_qr_scan", "android": "https://dc.lft.to/lastmile_qr_scan"}, "name": "345b1d76bad7d105a0565684a9b5ce46", "type": "electric_scooter", "fusion_lon": 0.0, "is_disabled": 0, "is_reserved": 0, "bike_id": "345b1d76bad7d105a0565684a9b5ce46", "lon": -77.0346675}, {"fusion_lat": 0.0, "lat": 38.90552, "rental_uris": {"ios": "https://dc.lft.to/lastmile_qr_scan", "android": "https://dc.lft.to/lastmile_qr_scan"}, "name": "990ef16444ba878f6dd84d2ff5f0c2e9", "type": "electric_scooter", "fusion_lon": 0.0, "is_disabled": 0, "is_reserved": 0, "bike_id": "990ef16444ba878f6dd84d2ff5f0c2e9", "lon": -77.03463583333334}, {"fusion_lat": 0.0, "lat": 38.9418755, "rental_uris": {"ios": "https://dc.lft.to/lastmile_qr_scan", "android": "https://dc.lft.to/lastmile_qr_scan"}, "name": "7a937152ab8db628e4f68e634ff4042c", "type": "electric_scooter", "fusion_lon": 0.0, "is_disabled": 0, "is_reserved": 0, "bike_id": "7a937152ab8db628e4f68e634ff4042c", "lon": -77.0384285}, {"fusion_lat": 0.0, "lat": 38.91158033333333, "rental_uris": {"ios": "https://dc.lft.to/lastmile_qr_scan", "android": "https://dc.lft.to/lastmile_qr_scan"}, "name": "f902e65fac69836b6869efa76b125b54", "type": "electric_scooter", "fusion_lon": 0.0, "is_disabled": 0, "is_reserved": 0, "bike_id": "f902e65fac69836b6869efa76b125b54", "lon": -77.02380916666667}, {"fusion_lat": 0.0, "lat": 38.879774, "rental_uris": {"ios": "https://dc.lft.to/lastmile_qr_scan", "android": "https://dc.lft.to/lastmile_qr_scan"}, "name": "c8ecb08b8a4fbbc49386df62634bb510", "type": "electric_scooter", "fusion_lon": 0.0, "is_disabled": 0, "is_reserved": 0, "bike_id": "c8ecb08b8a4fbbc49386df62634bb510", "lon": -77.024273}, {"fusion_lat": 0.0, "lat": 38.91695933333333, "rental_uris": {"ios": "https://dc.lft.to/lastmile_qr_scan", "android": "https://dc.lft.to/lastmile_qr_scan"}, "name": "942f9157c87346716456929d83cf2f93", "type": "electric_scooter", "fusion_lon": 0.0, "is_disabled": 0, "is_reserved": 0, "bike_id": "942f9157c87346716456929d83cf2f93", "lon": -77.03769233333334}, {"fusion_lat": 0.0, "lat": 38.9026195, "rental_uris": {"ios": "https://dc.lft.to/lastmile_qr_scan", "android": "https://dc.lft.to/lastmile_qr_scan"}, "name": "c805d659712c3584a9a6cdb4dfd66d7f", "type": "electric_scooter", "fusion_lon": 0.0, "is_disabled": 0, "is_reserved": 0, "bike_id": "c805d659712c3584a9a6cdb4dfd66d7f", "lon": -77.010026}, {"fusion_lat": 0.0, "lat": 38.90572566666667, "rental_uris": {"ios": "https://dc.lft.to/lastmile_qr_scan", "android": "https://dc.lft.to/lastmile_qr_scan"}, "name": "30a2d98c25ff59cb780e69579379f877", "type": "electric_scooter", "fusion_lon": 0.0, "is_disabled": 0, "is_reserved": 0, "bike_id": "30a2d98c25ff59cb780e69579379f877", "lon": -77.00398}, {"fusion_lat": 0.0, "lat": 38.897484166666665, "rental_uris": {"ios": "https://dc.lft.to/lastmile_qr_scan", "android": "https://dc.lft.to/lastmile_qr_scan"}, "name": "1d6f46070210bd96fe9ee17e8a6b3b5b", "type": "electric_scooter", "fusion_lon": 0.0, "is_disabled": 0, "is_reserved": 0, "bike_id": "1d6f46070210bd96fe9ee17e8a6b3b5b", "lon": -76.97975766666667}, {"fusion_lat": 0.0, "lat": 38.92159233333334, "rental_uris": {"ios": "https://dc.lft.to/lastmile_qr_scan", "android": "https://dc.lft.to/lastmile_qr_scan"}, "name": "3b7daff17c64aa5f621e5442accecd3c", "type": "electric_scooter", "fusion_lon": 0.0, "is_disabled": 0, "is_reserved": 0, "bike_id": "3b7daff17c64aa5f621e5442accecd3c", "lon": -77.04685033333334}, {"fusion_lat": 0.0, "lat": 38.94523516666667, "rental_uris": {"ios": "https://dc.lft.to/lastmile_qr_scan", "android": "https://dc.lft.to/lastmile_qr_scan"}, "name": "87648d056a2e0d726858e56427126d7e", "type": "electric_scooter", "fusion_lon": 0.0, "is_disabled": 0, "is_reserved": 0, "bike_id": "87648d056a2e0d726858e56427126d7e", "lon": -77.064069}, {"fusion_lat": 0.0, "lat": 38.897540666666664, "rental_uris": {"ios": "https://dc.lft.to/lastmile_qr_scan", "android": "https://dc.lft.to/lastmile_qr_scan"}, "name": "72f292b19818b258bea349bf46537a61", "type": "electric_scooter", "fusion_lon": 0.0, "is_disabled": 0, "is_reserved": 0, "bike_id": "72f292b19818b258bea349bf46537a61", "lon": -77.05149933333334}, {"fusion_lat": 0.0, "lat": 38.8964525, "rental_uris": {"ios": "https://dc.lft.to/lastmile_qr_scan", "android": "https://dc.lft.to/lastmile_qr_scan"}, "name": "5c2faeed90a3a287bdd2aebe373c699d", "type": "electric_scooter", "fusion_lon": 0.0, "is_disabled": 0, "is_reserved": 0, "bike_id": "5c2faeed90a3a287bdd2aebe373c699d", "lon": -77.00915916666666}, {"fusion_lat": 0.0, "lat": 38.89787166666667, "rental_uris": {"ios": "https://dc.lft.to/lastmile_qr_scan", "android": "https://dc.lft.to/lastmile_qr_scan"}, "name": "dcf6b5df95a32cda878d58ad2c3e9256", "type": "electric_scooter", "fusion_lon": 0.0, "is_disabled": 0, "is_reserved": 0, "bike_id": "dcf6b5df95a32cda878d58ad2c3e9256", "lon": -77.0240495}, {"fusion_lat": 0.0, "lat": 38.89159183333334, "rental_uris": {"ios": "https://dc.lft.to/lastmile_qr_scan", "android": "https://dc.lft.to/lastmile_qr_scan"}, "name": "7f1fc0c4c3595c299cc05566d6acc61f", "type": "electric_scooter", "fusion_lon": 0.0, "is_disabled": 0, "is_reserved": 0, "bike_id": "7f1fc0c4c3595c299cc05566d6acc61f", "lon": -76.99941333333334}, {"fusion_lat": 0.0, "lat": 38.89223966666667, "rental_uris": {"ios": "https://dc.lft.to/lastmile_qr_scan", "android": "https://dc.lft.to/lastmile_qr_scan"}, "name": "f196d6713125cea42f2ecae638dd63e9", "type": "electric_scooter", "fusion_lon": 0.0, "is_disabled": 0, "is_reserved": 0, "bike_id": "f196d6713125cea42f2ecae638dd63e9", "lon": -77.04511833333333}, {"fusion_lat": 0.0, "lat": 38.91387916666667, "rental_uris": {"ios": "https://dc.lft.to/lastmile_qr_scan", "android": "https://dc.lft.to/lastmile_qr_scan"}, "name": "343cbc89c7fad063627893c9c6de06cd", "type": "electric_scooter", "fusion_lon": 0.0, "is_disabled": 0, "is_reserved": 0, "bike_id": "343cbc89c7fad063627893c9c6de06cd", "lon": -77.03662666666666}, {"fusion_lat": 0.0, "lat": 38.91186283333333, "rental_uris": {"ios": "https://dc.lft.to/lastmile_qr_scan", "android": "https://dc.lft.to/lastmile_qr_scan"}, "name": "9d7aafa367e9f5a57f183f42de582a9a", "type": "electric_scooter", "fusion_lon": 0.0, "is_disabled": 0, "is_reserved": 0, "bike_id": "9d7aafa367e9f5a57f183f42de582a9a", "lon": -77.03837566666667}, {"fusion_lat": 0.0, "lat": 38.9006015, "rental_uris": {"ios": "https://dc.lft.to/lastmile_qr_scan", "android": "https://dc.lft.to/lastmile_qr_scan"}, "name": "3e588fa441dcef1a6f521bdcf1dc5964", "type": "electric_scooter", "fusion_lon": 0.0, "is_disabled": 0, "is_reserved": 0, "bike_id": "3e588fa441dcef1a6f521bdcf1dc5964", "lon": -77.0296975}, {"fusion_lat": 0.0, "lat": 38.92097866666667, "rental_uris": {"ios": "https://dc.lft.to/lastmile_qr_scan", "android": "https://dc.lft.to/lastmile_qr_scan"}, "name": "02a8c876d9d426c8233431ef03d2fbd7", "type": "electric_scooter", "fusion_lon": 0.0, "is_disabled": 0, "is_reserved": 0, "bike_id": "02a8c876d9d426c8233431ef03d2fbd7", "lon": -77.02227983333333}, {"fusion_lat": 0.0, "lat": 38.91982016666667, "rental_uris": {"ios": "https://dc.lft.to/lastmile_qr_scan", "android": "https://dc.lft.to/lastmile_qr_scan"}, "name": "95a7d9f89e5c95147feea4f3bf357247", "type": "electric_scooter", "fusion_lon": 0.0, "is_disabled": 0, "is_reserved": 0, "bike_id": "95a7d9f89e5c95147feea4f3bf357247", "lon": -77.02508116666667}, {"fusion_lat": 0.0, "lat": 38.887370833333335, "rental_uris": {"ios": "https://dc.lft.to/lastmile_qr_scan", "android": "https://dc.lft.to/lastmile_qr_scan"}, "name": "8723f79d40d586cac2a4b03fa66a12e9", "type": "electric_scooter", "fusion_lon": 0.0, "is_disabled": 0, "is_reserved": 0, "bike_id": "8723f79d40d586cac2a4b03fa66a12e9", "lon": -77.0258145}, {"fusion_lat": 0.0, "lat": 38.90152283333333, "rental_uris": {"ios": "https://dc.lft.to/lastmile_qr_scan", "android": "https://dc.lft.to/lastmile_qr_scan"}, "name": "73b6ea476899447880cfdd4a326ae917", "type": "electric_scooter", "fusion_lon": 0.0, "is_disabled": 0, "is_reserved": 0, "bike_id": "73b6ea476899447880cfdd4a326ae917", "lon": -77.03554466666667}, {"fusion_lat": 0.0, "lat": 38.86683, "rental_uris": {"ios": "https://dc.lft.to/lastmile_qr_scan", "android": "https://dc.lft.to/lastmile_qr_scan"}, "name": "1cc0be6549d9fe2ec9c734fe3846808b", "type": "electric_scooter", "fusion_lon": 0.0, "is_disabled": 0, "is_reserved": 0, "bike_id": "1cc0be6549d9fe2ec9c734fe3846808b", "lon": -76.98571783333334}, {"fusion_lat": 0.0, "lat": 38.89900033333333, "rental_uris": {"ios": "https://dc.lft.to/lastmile_qr_scan", "android": "https://dc.lft.to/lastmile_qr_scan"}, "name": "54c97b3a0c6b954228dea452bae96f75", "type": "electric_scooter", "fusion_lon": 0.0, "is_disabled": 0, "is_reserved": 0, "bike_id": "54c97b3a0c6b954228dea452bae96f75", "lon": -77.031553}, {"fusion_lat": 0.0, "lat": 38.89480666666667, "rental_uris": {"ios": "https://dc.lft.to/lastmile_qr_scan", "android": "https://dc.lft.to/lastmile_qr_scan"}, "name": "ddc697e6a0891aee87088ba24c0d75e2", "type": "electric_scooter", "fusion_lon": 0.0, "is_disabled": 0, "is_reserved": 0, "bike_id": "ddc697e6a0891aee87088ba24c0d75e2", "lon": -77.01111966666667}, {"fusion_lat": 0.0, "lat": 38.9369955, "rental_uris": {"ios": "https://dc.lft.to/lastmile_qr_scan", "android": "https://dc.lft.to/lastmile_qr_scan"}, "name": "8951c261e06e49c6e7d4c2b26653a39c", "type": "electric_scooter", "fusion_lon": 0.0, "is_disabled": 0, "is_reserved": 0, "bike_id": "8951c261e06e49c6e7d4c2b26653a39c", "lon": -77.03284516666666}, {"fusion_lat": 0.0, "lat": 38.937340666666664, "rental_uris": {"ios": "https://dc.lft.to/lastmile_qr_scan", "android": "https://dc.lft.to/lastmile_qr_scan"}, "name": "6bc8959f5a194245e616f1d55292081c", "type": "electric_scooter", "fusion_lon": 0.0, "is_disabled": 0, "is_reserved": 0, "bike_id": "6bc8959f5a194245e616f1d55292081c", "lon": -77.024577}, {"fusion_lat": 0.0, "lat": 38.902186, "rental_uris": {"ios": "https://dc.lft.to/lastmile_qr_scan", "android": "https://dc.lft.to/lastmile_qr_scan"}, "name": "ea68171e37f2c8c8894bf41123f2384f", "type": "electric_scooter", "fusion_lon": 0.0, "is_disabled": 0, "is_reserved": 0, "bike_id": "ea68171e37f2c8c8894bf41123f2384f", "lon": -77.01786883333334}, {"fusion_lat": 0.0, "lat": 38.91113333333333, "rental_uris": {"ios": "https://dc.lft.to/lastmile_qr_scan", "android": "https://dc.lft.to/lastmile_qr_scan"}, "name": "fd0335ce50e43b67df8e4afb82a9c1ca", "type": "electric_scooter", "fusion_lon": 0.0, "is_disabled": 0, "is_reserved": 0, "bike_id": "fd0335ce50e43b67df8e4afb82a9c1ca", "lon": -77.044617}, {"fusion_lat": 0.0, "lat": 38.858065, "rental_uris": {"ios": "https://dc.lft.to/lastmile_qr_scan", "android": "https://dc.lft.to/lastmile_qr_scan"}, "name": "f5c92782551bee9d23689eea8745fd89", "type": "electric_scooter", "fusion_lon": 0.0, "is_disabled": 0, "is_reserved": 0, "bike_id": "f5c92782551bee9d23689eea8745fd89", "lon": -76.986574}, {"fusion_lat": 0.0, "lat": 38.92405083333333, "rental_uris": {"ios": "https://dc.lft.to/lastmile_qr_scan", "android": "https://dc.lft.to/lastmile_qr_scan"}, "name": "7ea1a884f0a862422b2bd02a5fbaf651", "type": "electric_scooter", "fusion_lon": 0.0, "is_disabled": 0, "is_reserved": 0, "bike_id": "7ea1a884f0a862422b2bd02a5fbaf651", "lon": -77.02378233333333}, {"fusion_lat": 0.0, "lat": 38.89228516666667, "rental_uris": {"ios": "https://dc.lft.to/lastmile_qr_scan", "android": "https://dc.lft.to/lastmile_qr_scan"}, "name": "1af152d8fb182f27efae3fc874b4b116", "type": "electric_scooter", "fusion_lon": 0.0, "is_disabled": 0, "is_reserved": 0, "bike_id": "1af152d8fb182f27efae3fc874b4b116", "lon": -77.0220705}, {"fusion_lat": 0.0, "lat": 38.91814383333333, "rental_uris": {"ios": "https://dc.lft.to/lastmile_qr_scan", "android": "https://dc.lft.to/lastmile_qr_scan"}, "name": "000470bd48d00c95e04e36bf6c3c2256", "type": "electric_scooter", "fusion_lon": 0.0, "is_disabled": 0, "is_reserved": 0, "bike_id": "000470bd48d00c95e04e36bf6c3c2256", "lon": -77.0256145}, {"fusion_lat": 0.0, "lat": 38.86630183333333, "rental_uris": {"ios": "https://dc.lft.to/lastmile_qr_scan", "android": "https://dc.lft.to/lastmile_qr_scan"}, "name": "c7c44122c83496e5a04ca73cf3898261", "type": "electric_scooter", "fusion_lon": 0.0, "is_disabled": 0, "is_reserved": 0, "bike_id": "c7c44122c83496e5a04ca73cf3898261", "lon": -76.98710466666667}, {"fusion_lat": 0.0, "lat": 38.88746416666667, "rental_uris": {"ios": "https://dc.lft.to/lastmile_qr_scan", "android": "https://dc.lft.to/lastmile_qr_scan"}, "name": "9df684648b8742a48784b7644fd9ae7f", "type": "electric_scooter", "fusion_lon": 0.0, "is_disabled": 0, "is_reserved": 0, "bike_id": "9df684648b8742a48784b7644fd9ae7f", "lon": -77.01733333333334}, {"fusion_lat": 0.0, "lat": 38.8668055, "rental_uris": {"ios": "https://dc.lft.to/lastmile_qr_scan", "android": "https://dc.lft.to/lastmile_qr_scan"}, "name": "664fc5504bcfcf9a84dc5c1ec87ad8fb", "type": "electric_scooter", "fusion_lon": 0.0, "is_disabled": 0, "is_reserved": 0, "bike_id": "664fc5504bcfcf9a84dc5c1ec87ad8fb", "lon": -76.9857355}, {"fusion_lat": 0.0, "lat": 38.90997633333333, "rental_uris": {"ios": "https://dc.lft.to/lastmile_qr_scan", "android": "https://dc.lft.to/lastmile_qr_scan"}, "name": "18a9960daec820b6448775d2c4272560", "type": "electric_scooter", "fusion_lon": 0.0, "is_disabled": 0, "is_reserved": 0, "bike_id": "18a9960daec820b6448775d2c4272560", "lon": -77.06607616666666}, {"fusion_lat": 0.0, "lat": 38.923208, "rental_uris": {"ios": "https://dc.lft.to/lastmile_qr_scan", "android": "https://dc.lft.to/lastmile_qr_scan"}, "name": "fc379145ec95b09f4047d7fb05b86c87", "type": "electric_bike", "fusion_lon": 0.0, "is_disabled": 0, "is_reserved": 0, "bike_id": "fc379145ec95b09f4047d7fb05b86c87", "lon": -77.03545033333333}, {"fusion_lat": 0.0, "lat": 38.884089, "rental_uris": {"ios": "https://dc.lft.to/lastmile_qr_scan", "android": "https://dc.lft.to/lastmile_qr_scan"}, "name": "b988731d5920b90036582f0c7fc140a5", "type": "electric_scooter", "fusion_lon": 0.0, "is_disabled": 0, "is_reserved": 0, "bike_id": "b988731d5920b90036582f0c7fc140a5", "lon": -77.01519416666666}, {"fusion_lat": 0.0, "lat": 38.898026333333334, "rental_uris": {"ios": "https://dc.lft.to/lastmile_qr_scan", "android": "https://dc.lft.to/lastmile_qr_scan"}, "name": "3f6c48d0f57e8837d621f214cfc15a62", "type": "electric_scooter", "fusion_lon": 0.0, "is_disabled": 0, "is_reserved": 0, "bike_id": "3f6c48d0f57e8837d621f214cfc15a62", "lon": -77.03175783333333}, {"fusion_lat": 0.0, "lat": 38.885038, "rental_uris": {"ios": "https://dc.lft.to/lastmile_qr_scan", "android": "https://dc.lft.to/lastmile_qr_scan"}, "name": "ac6b4c92f3393507d4561078bb511198", "type": "electric_scooter", "fusion_lon": 0.0, "is_disabled": 0, "is_reserved": 0, "bike_id": "ac6b4c92f3393507d4561078bb511198", "lon": -77.00700083333334}, {"fusion_lat": 0.0, "lat": 38.871269, "rental_uris": {"ios": "https://dc.lft.to/lastmile_qr_scan", "android": "https://dc.lft.to/lastmile_qr_scan"}, "name": "f10f0b387c4a0abd86beebcfaebbd231", "type": "electric_scooter", "fusion_lon": 0.0, "is_disabled": 0, "is_reserved": 0, "bike_id": "f10f0b387c4a0abd86beebcfaebbd231", "lon": -77.00599466666667}, {"fusion_lat": 0.0, "lat": 38.827884166666664, "rental_uris": {"ios": "https://dc.lft.to/lastmile_qr_scan", "android": "https://dc.lft.to/lastmile_qr_scan"}, "name": "d9a5614366e6248e25f1d00057e0cf4f", "type": "electric_bike", "fusion_lon": 0.0, "is_disabled": 0, "is_reserved": 0, "bike_id": "d9a5614366e6248e25f1d00057e0cf4f", "lon": -77.12487966666667}, {"fusion_lat": 0.0, "lat": 38.900459166666664, "rental_uris": {"ios": "https://dc.lft.to/lastmile_qr_scan", "android": "https://dc.lft.to/lastmile_qr_scan"}, "name": "f137a6b44a8c73ac54947327e7eeb951", "type": "electric_scooter", "fusion_lon": 0.0, "is_disabled": 0, "is_reserved": 0, "bike_id": "f137a6b44a8c73ac54947327e7eeb951", "lon": -77.0070365}, {"fusion_lat": 0.0, "lat": 38.89818533333333, "rental_uris": {"ios": "https://dc.lft.to/lastmile_qr_scan", "android": "https://dc.lft.to/lastmile_qr_scan"}, "name": "44ce51f180a1c7c4afba69bc41a1eda7", "type": "electric_scooter", "fusion_lon": 0.0, "is_disabled": 0, "is_reserved": 0, "bike_id": "44ce51f180a1c7c4afba69bc41a1eda7", "lon": -77.03334066666666}, {"fusion_lat": 0.0, "lat": 38.909629333333335, "rental_uris": {"ios": "https://dc.lft.to/lastmile_qr_scan", "android": "https://dc.lft.to/lastmile_qr_scan"}, "name": "fcc078b43feb3ee8bdd940200a0955fc", "type": "electric_bike", "fusion_lon": 0.0, "is_disabled": 0, "is_reserved": 0, "bike_id": "fcc078b43feb3ee8bdd940200a0955fc", "lon": -76.9844355}, {"fusion_lat": 0.0, "lat": 38.86518016666667, "rental_uris": {"ios": "https://dc.lft.to/lastmile_qr_scan", "android": "https://dc.lft.to/lastmile_qr_scan"}, "name": "6122cc7186f7cbad4120a95ec7933a67", "type": "electric_bike", "fusion_lon": 0.0, "is_disabled": 0, "is_reserved": 0, "bike_id": "6122cc7186f7cbad4120a95ec7933a67", "lon": -76.97333733333333}, {"fusion_lat": 0.0, "lat": 38.899564833333336, "rental_uris": {"ios": "https://dc.lft.to/lastmile_qr_scan", "android": "https://dc.lft.to/lastmile_qr_scan"}, "name": "f0286816ea64638cf066fa328758ff8f", "type": "electric_scooter", "fusion_lon": 0.0, "is_disabled": 0, "is_reserved": 0, "bike_id": "f0286816ea64638cf066fa328758ff8f", "lon": -77.02407366666667}, {"fusion_lat": 0.0, "lat": 38.915909, "rental_uris": {"ios": "https://dc.lft.to/lastmile_qr_scan", "android": "https://dc.lft.to/lastmile_qr_scan"}, "name": "c7a94df4c919b2b61c1f857b589c9624", "type": "electric_scooter", "fusion_lon": 0.0, "is_disabled": 0, "is_reserved": 0, "bike_id": "c7a94df4c919b2b61c1f857b589c9624", "lon": -77.02112566666666}, {"fusion_lat": 0.0, "lat": 38.905755166666665, "rental_uris": {"ios": "https://dc.lft.to/lastmile_qr_scan", "android": "https://dc.lft.to/lastmile_qr_scan"}, "name": "0ef8eca30de5f2ca154cb876c3af25ad", "type": "electric_scooter", "fusion_lon": 0.0, "is_disabled": 0, "is_reserved": 0, "bike_id": "0ef8eca30de5f2ca154cb876c3af25ad", "lon": -77.00610216666666}, {"fusion_lat": 0.0, "lat": 38.916810166666664, "rental_uris": {"ios": "https://dc.lft.to/lastmile_qr_scan", "android": "https://dc.lft.to/lastmile_qr_scan"}, "name": "6a27695ca2450ed744181472f3129ec9", "type": "electric_scooter", "fusion_lon": 0.0, "is_disabled": 0, "is_reserved": 0, "bike_id": "6a27695ca2450ed744181472f3129ec9", "lon": -77.01582416666666}, {"fusion_lat": 0.0, "lat": 38.89832666666667, "rental_uris": {"ios": "https://dc.lft.to/lastmile_qr_scan", "android": "https://dc.lft.to/lastmile_qr_scan"}, "name": "7461f7150bf2aaa6be5f31931fd13d64", "type": "electric_scooter", "fusion_lon": 0.0, "is_disabled": 0, "is_reserved": 0, "bike_id": "7461f7150bf2aaa6be5f31931fd13d64", "lon": -77.0481535}, {"fusion_lat": 0.0, "lat": 38.887521, "rental_uris": {"ios": "https://dc.lft.to/lastmile_qr_scan", "android": "https://dc.lft.to/lastmile_qr_scan"}, "name": "daf012318ffd1bbb1ca12ede781357a5", "type": "electric_scooter", "fusion_lon": 0.0, "is_disabled": 0, "is_reserved": 0, "bike_id": "daf012318ffd1bbb1ca12ede781357a5", "lon": -77.02118383333334}, {"fusion_lat": 0.0, "lat": 38.905695333333334, "rental_uris": {"ios": "https://dc.lft.to/lastmile_qr_scan", "android": "https://dc.lft.to/lastmile_qr_scan"}, "name": "a2e4ae8535b20ca5c1b0c061691bf9e5", "type": "electric_scooter", "fusion_lon": 0.0, "is_disabled": 0, "is_reserved": 0, "bike_id": "a2e4ae8535b20ca5c1b0c061691bf9e5", "lon": -77.003889}, {"fusion_lat": 0.0, "lat": 38.90270133333333, "rental_uris": {"ios": "https://dc.lft.to/lastmile_qr_scan", "android": "https://dc.lft.to/lastmile_qr_scan"}, "name": "e4a8d2216aa8354138532a3c0ee66bbd", "type": "electric_scooter", "fusion_lon": 0.0, "is_disabled": 0, "is_reserved": 0, "bike_id": "e4a8d2216aa8354138532a3c0ee66bbd", "lon": -77.03973216666667}, {"fusion_lat": 0.0, "lat": 38.906743, "rental_uris": {"ios": "https://dc.lft.to/lastmile_qr_scan", "android": "https://dc.lft.to/lastmile_qr_scan"}, "name": "c4f36de80377cd0f1f245b7f98a3efbb", "type": "electric_scooter", "fusion_lon": 0.0, "is_disabled": 0, "is_reserved": 0, "bike_id": "c4f36de80377cd0f1f245b7f98a3efbb", "lon": -77.0718045}, {"fusion_lat": 0.0, "lat": 38.914555166666666, "rental_uris": {"ios": "https://dc.lft.to/lastmile_qr_scan", "android": "https://dc.lft.to/lastmile_qr_scan"}, "name": "9885baa84d98983160c698a812e40f6b", "type": "electric_scooter", "fusion_lon": 0.0, "is_disabled": 0, "is_reserved": 0, "bike_id": "9885baa84d98983160c698a812e40f6b", "lon": -77.04625816666666}, {"fusion_lat": 0.0, "lat": 38.8842205, "rental_uris": {"ios": "https://dc.lft.to/lastmile_qr_scan", "android": "https://dc.lft.to/lastmile_qr_scan"}, "name": "f7201f8390ad0379adc3a83d356bef16", "type": "electric_bike", "fusion_lon": 0.0, "is_disabled": 0, "is_reserved": 0, "bike_id": "f7201f8390ad0379adc3a83d356bef16", "lon": -76.95404666666667}, {"fusion_lat": 0.0, "lat": 38.86537366666667, "rental_uris": {"ios": "https://dc.lft.to/lastmile_qr_scan", "android": "https://dc.lft.to/lastmile_qr_scan"}, "name": "11f273b66878ea6aa28d799f50146344", "type": "electric_scooter", "fusion_lon": 0.0, "is_disabled": 0, "is_reserved": 0, "bike_id": "11f273b66878ea6aa28d799f50146344", "lon": -76.989692}, {"fusion_lat": 0.0, "lat": 38.87782166666667, "rental_uris": {"ios": "https://dc.lft.to/lastmile_qr_scan", "android": "https://dc.lft.to/lastmile_qr_scan"}, "name": "8c60a8c230cffbb4c75272b871f3e520", "type": "electric_scooter", "fusion_lon": 0.0, "is_disabled": 0, "is_reserved": 0, "bike_id": "8c60a8c230cffbb4c75272b871f3e520", "lon": -76.995105}, {"fusion_lat": 0.0, "lat": 38.926596833333335, "rental_uris": {"ios": "https://dc.lft.to/lastmile_qr_scan", "android": "https://dc.lft.to/lastmile_qr_scan"}, "name": "b328806bc7e59a730df95d2b3a53d1f2", "type": "electric_scooter", "fusion_lon": 0.0, "is_disabled": 0, "is_reserved": 0, "bike_id": "b328806bc7e59a730df95d2b3a53d1f2", "lon": -77.02384783333333}, {"fusion_lat": 0.0, "lat": 38.904893666666666, "rental_uris": {"ios": "https://dc.lft.to/lastmile_qr_scan", "android": "https://dc.lft.to/lastmile_qr_scan"}, "name": "21a6570d1e4544d5709faf11d9221fe2", "type": "electric_scooter", "fusion_lon": 0.0, "is_disabled": 0, "is_reserved": 0, "bike_id": "21a6570d1e4544d5709faf11d9221fe2", "lon": -77.05377833333333}, {"fusion_lat": 0.0, "lat": 38.9143705, "rental_uris": {"ios": "https://dc.lft.to/lastmile_qr_scan", "android": "https://dc.lft.to/lastmile_qr_scan"}, "name": "d02df7401bed5d2a1ab68838b3dad27a", "type": "electric_scooter", "fusion_lon": 0.0, "is_disabled": 0, "is_reserved": 0, "bike_id": "d02df7401bed5d2a1ab68838b3dad27a", "lon": -77.0228975}, {"fusion_lat": 0.0, "lat": 38.90621733333333, "rental_uris": {"ios": "https://dc.lft.to/lastmile_qr_scan", "android": "https://dc.lft.to/lastmile_qr_scan"}, "name": "702c1a9544bd6bc57eb6ca40660fcab0", "type": "electric_scooter", "fusion_lon": 0.0, "is_disabled": 0, "is_reserved": 0, "bike_id": "702c1a9544bd6bc57eb6ca40660fcab0", "lon": -77.05009666666666}, {"fusion_lat": 0.0, "lat": 38.90373066666667, "rental_uris": {"ios": "https://dc.lft.to/lastmile_qr_scan", "android": "https://dc.lft.to/lastmile_qr_scan"}, "name": "1bd0e2b0d14928e667b2d9b353df7ae4", "type": "electric_scooter", "fusion_lon": 0.0, "is_disabled": 0, "is_reserved": 0, "bike_id": "1bd0e2b0d14928e667b2d9b353df7ae4", "lon": -77.01636433333333}, {"fusion_lat": 0.0, "lat": 38.920349333333334, "rental_uris": {"ios": "https://dc.lft.to/lastmile_qr_scan", "android": "https://dc.lft.to/lastmile_qr_scan"}, "name": "89b8fb45f28514d0835b2a8f9e68f8b3", "type": "electric_scooter", "fusion_lon": 0.0, "is_disabled": 0, "is_reserved": 0, "bike_id": "89b8fb45f28514d0835b2a8f9e68f8b3", "lon": -77.01678083333333}, {"fusion_lat": 0.0, "lat": 38.90491633333333, "rental_uris": {"ios": "https://dc.lft.to/lastmile_qr_scan", "android": "https://dc.lft.to/lastmile_qr_scan"}, "name": "73aae21171f82fe45b01d4fdb1ad47cd", "type": "electric_bike", "fusion_lon": 0.0, "is_disabled": 0, "is_reserved": 0, "bike_id": "73aae21171f82fe45b01d4fdb1ad47cd", "lon": -76.97423433333333}, {"fusion_lat": 0.0, "lat": 38.937068833333335, "rental_uris": {"ios": "https://dc.lft.to/lastmile_qr_scan", "android": "https://dc.lft.to/lastmile_qr_scan"}, "name": "db9e0eb8456e081a66ef178010d28aa3", "type": "electric_scooter", "fusion_lon": 0.0, "is_disabled": 0, "is_reserved": 0, "bike_id": "db9e0eb8456e081a66ef178010d28aa3", "lon": -77.0323015}, {"fusion_lat": 0.0, "lat": 38.90030566666667, "rental_uris": {"ios": "https://dc.lft.to/lastmile_qr_scan", "android": "https://dc.lft.to/lastmile_qr_scan"}, "name": "1a9181c9504c33867d15e1ea2fe87ce0", "type": "electric_scooter", "fusion_lon": 0.0, "is_disabled": 0, "is_reserved": 0, "bike_id": "1a9181c9504c33867d15e1ea2fe87ce0", "lon": -76.98811}, {"fusion_lat": 0.0, "lat": 38.9279475, "rental_uris": {"ios": "https://dc.lft.to/lastmile_qr_scan", "android": "https://dc.lft.to/lastmile_qr_scan"}, "name": "132a67543172121f60827cf2f2a112e1", "type": "electric_bike", "fusion_lon": 0.0, "is_disabled": 0, "is_reserved": 0, "bike_id": "132a67543172121f60827cf2f2a112e1", "lon": -77.05354183333333}, {"fusion_lat": 0.0, "lat": 38.9028805, "rental_uris": {"ios": "https://dc.lft.to/lastmile_qr_scan", "android": "https://dc.lft.to/lastmile_qr_scan"}, "name": "006e43258fb5484e8d6c12e7c29f5b0c", "type": "electric_scooter", "fusion_lon": 0.0, "is_disabled": 0, "is_reserved": 0, "bike_id": "006e43258fb5484e8d6c12e7c29f5b0c", "lon": -77.046731}, {"fusion_lat": 0.0, "lat": 38.949192, "rental_uris": {"ios": "https://dc.lft.to/lastmile_qr_scan", "android": "https://dc.lft.to/lastmile_qr_scan"}, "name": "93e6c274964a19dba03c100debf25735", "type": "electric_bike", "fusion_lon": 0.0, "is_disabled": 0, "is_reserved": 0, "bike_id": "93e6c274964a19dba03c100debf25735", "lon": -77.006509}, {"fusion_lat": 0.0, "lat": 38.90818216666667, "rental_uris": {"ios": "https://dc.lft.to/lastmile_qr_scan", "android": "https://dc.lft.to/lastmile_qr_scan"}, "name": "ff24481627443154e2ceafddcffa9ff8", "type": "electric_scooter", "fusion_lon": 0.0, "is_disabled": 0, "is_reserved": 0, "bike_id": "ff24481627443154e2ceafddcffa9ff8", "lon": -77.054747}, {"fusion_lat": 0.0, "lat": 38.932225, "rental_uris": {"ios": "https://dc.lft.to/lastmile_qr_scan", "android": "https://dc.lft.to/lastmile_qr_scan"}, "name": "389d385710a9f4f4aac7326e361c5b01", "type": "electric_scooter", "fusion_lon": 0.0, "is_disabled": 0, "is_reserved": 0, "bike_id": "389d385710a9f4f4aac7326e361c5b01", "lon": -77.03274366666666}, {"fusion_lat": 0.0, "lat": 38.89835433333333, "rental_uris": {"ios": "https://dc.lft.to/lastmile_qr_scan", "android": "https://dc.lft.to/lastmile_qr_scan"}, "name": "b0132a08d61e2f963ed690a05774b0e0", "type": "electric_scooter", "fusion_lon": 0.0, "is_disabled": 0, "is_reserved": 0, "bike_id": "b0132a08d61e2f963ed690a05774b0e0", "lon": -77.04358616666667}, {"fusion_lat": 0.0, "lat": 38.90005, "rental_uris": {"ios": "https://dc.lft.to/lastmile_qr_scan", "android": "https://dc.lft.to/lastmile_qr_scan"}, "name": "b43b10f56f21958d1d9931e383657332", "type": "electric_scooter", "fusion_lon": 0.0, "is_disabled": 0, "is_reserved": 0, "bike_id": "b43b10f56f21958d1d9931e383657332", "lon": -77.01126116666667}, {"fusion_lat": 0.0, "lat": 38.8650995, "rental_uris": {"ios": "https://dc.lft.to/lastmile_qr_scan", "android": "https://dc.lft.to/lastmile_qr_scan"}, "name": "7689e7c6481c93d15fea7329e435e52a", "type": "electric_scooter", "fusion_lon": 0.0, "is_disabled": 0, "is_reserved": 0, "bike_id": "7689e7c6481c93d15fea7329e435e52a", "lon": -76.99002933333334}, {"fusion_lat": 0.0, "lat": 38.91771383333333, "rental_uris": {"ios": "https://dc.lft.to/lastmile_qr_scan", "android": "https://dc.lft.to/lastmile_qr_scan"}, "name": "babaa93efb1d6c9e3468dfb83e1eb31e", "type": "electric_scooter", "fusion_lon": 0.0, "is_disabled": 0, "is_reserved": 0, "bike_id": "babaa93efb1d6c9e3468dfb83e1eb31e", "lon": -77.0405835}, {"fusion_lat": 0.0, "lat": 38.90454166666667, "rental_uris": {"ios": "https://dc.lft.to/lastmile_qr_scan", "android": "https://dc.lft.to/lastmile_qr_scan"}, "name": "ef03531030d0d56e46e7dd6d553a4480", "type": "electric_scooter", "fusion_lon": 0.0, "is_disabled": 0, "is_reserved": 0, "bike_id": "ef03531030d0d56e46e7dd6d553a4480", "lon": -76.9825195}, {"fusion_lat": 0.0, "lat": 38.907310833333334, "rental_uris": {"ios": "https://dc.lft.to/lastmile_qr_scan", "android": "https://dc.lft.to/lastmile_qr_scan"}, "name": "ba3ecd7e43e8738f71194b074575e700", "type": "electric_scooter", "fusion_lon": 0.0, "is_disabled": 0, "is_reserved": 0, "bike_id": "ba3ecd7e43e8738f71194b074575e700", "lon": -76.98618516666667}, {"fusion_lat": 0.0, "lat": 38.901162, "rental_uris": {"ios": "https://dc.lft.to/lastmile_qr_scan", "android": "https://dc.lft.to/lastmile_qr_scan"}, "name": "eee556be4f89781540e652643647ad8f", "type": "electric_scooter", "fusion_lon": 0.0, "is_disabled": 0, "is_reserved": 0, "bike_id": "eee556be4f89781540e652643647ad8f", "lon": -77.03184383333334}, {"fusion_lat": 0.0, "lat": 38.84280416666667, "rental_uris": {"ios": "https://dc.lft.to/lastmile_qr_scan", "android": "https://dc.lft.to/lastmile_qr_scan"}, "name": "b93aa4255ea34c2404bb756ac36d255d", "type": "electric_bike", "fusion_lon": 0.0, "is_disabled": 0, "is_reserved": 0, "bike_id": "b93aa4255ea34c2404bb756ac36d255d", "lon": -76.98838616666667}, {"fusion_lat": 0.0, "lat": 38.9030545, "rental_uris": {"ios": "https://dc.lft.to/lastmile_qr_scan", "android": "https://dc.lft.to/lastmile_qr_scan"}, "name": "7f9263acb7ab27eacc7f76c0362fec3b", "type": "electric_scooter", "fusion_lon": 0.0, "is_disabled": 0, "is_reserved": 0, "bike_id": "7f9263acb7ab27eacc7f76c0362fec3b", "lon": -77.02319733333333}, {"fusion_lat": 0.0, "lat": 38.9039715, "rental_uris": {"ios": "https://dc.lft.to/lastmile_qr_scan", "android": "https://dc.lft.to/lastmile_qr_scan"}, "name": "753b6d1173a5a85d479ad79784be9da0", "type": "electric_scooter", "fusion_lon": 0.0, "is_disabled": 0, "is_reserved": 0, "bike_id": "753b6d1173a5a85d479ad79784be9da0", "lon": -77.043547}, {"fusion_lat": 0.0, "lat": 38.922348, "rental_uris": {"ios": "https://dc.lft.to/lastmile_qr_scan", "android": "https://dc.lft.to/lastmile_qr_scan"}, "name": "f1e56c008553dc3ee29ef83ca81bcea9", "type": "electric_scooter", "fusion_lon": 0.0, "is_disabled": 0, "is_reserved": 0, "bike_id": "f1e56c008553dc3ee29ef83ca81bcea9", "lon": -77.04244033333333}, {"fusion_lat": 0.0, "lat": 38.914036, "rental_uris": {"ios": "https://dc.lft.to/lastmile_qr_scan", "android": "https://dc.lft.to/lastmile_qr_scan"}, "name": "73defa345bf3d30cb27dc6349a910edb", "type": "electric_scooter", "fusion_lon": 0.0, "is_disabled": 0, "is_reserved": 0, "bike_id": "73defa345bf3d30cb27dc6349a910edb", "lon": -77.03901716666667}, {"fusion_lat": 0.0, "lat": 38.926595666666664, "rental_uris": {"ios": "https://dc.lft.to/lastmile_qr_scan", "android": "https://dc.lft.to/lastmile_qr_scan"}, "name": "c477674eacf530d9a5aa531624824e99", "type": "electric_scooter", "fusion_lon": 0.0, "is_disabled": 0, "is_reserved": 0, "bike_id": "c477674eacf530d9a5aa531624824e99", "lon": -77.02306683333333}, {"fusion_lat": 0.0, "lat": 38.906283333333334, "rental_uris": {"ios": "https://dc.lft.to/lastmile_qr_scan", "android": "https://dc.lft.to/lastmile_qr_scan"}, "name": "978d85f72169170a70a8e0d219b01130", "type": "electric_scooter", "fusion_lon": 0.0, "is_disabled": 0, "is_reserved": 0, "bike_id": "978d85f72169170a70a8e0d219b01130", "lon": -77.04182216666666}, {"fusion_lat": 0.0, "lat": 38.920307333333334, "rental_uris": {"ios": "https://dc.lft.to/lastmile_qr_scan", "android": "https://dc.lft.to/lastmile_qr_scan"}, "name": "8b4c22060687ef80b8ffe37ff43e9273", "type": "electric_scooter", "fusion_lon": 0.0, "is_disabled": 0, "is_reserved": 0, "bike_id": "8b4c22060687ef80b8ffe37ff43e9273", "lon": -77.01069816666667}, {"fusion_lat": 0.0, "lat": 38.9287895, "rental_uris": {"ios": "https://dc.lft.to/lastmile_qr_scan", "android": "https://dc.lft.to/lastmile_qr_scan"}, "name": "6048bbdaf3d15a313604d176eb90d1a5", "type": "electric_scooter", "fusion_lon": 0.0, "is_disabled": 0, "is_reserved": 0, "bike_id": "6048bbdaf3d15a313604d176eb90d1a5", "lon": -77.03315666666667}, {"fusion_lat": 0.0, "lat": 38.857704, "rental_uris": {"ios": "https://dc.lft.to/lastmile_qr_scan", "android": "https://dc.lft.to/lastmile_qr_scan"}, "name": "f3b238d1c028c092e1aa1b5689c23373", "type": "electric_bike", "fusion_lon": 0.0, "is_disabled": 0, "is_reserved": 0, "bike_id": "f3b238d1c028c092e1aa1b5689c23373", "lon": -76.98758166666667}, {"fusion_lat": 0.0, "lat": 38.924739, "rental_uris": {"ios": "https://dc.lft.to/lastmile_qr_scan", "android": "https://dc.lft.to/lastmile_qr_scan"}, "name": "a2e22d3f508f49c2908bc638291005ed", "type": "electric_scooter", "fusion_lon": 0.0, "is_disabled": 0, "is_reserved": 0, "bike_id": "a2e22d3f508f49c2908bc638291005ed", "lon": -77.0220445}, {"fusion_lat": 0.0, "lat": 38.899999666666666, "rental_uris": {"ios": "https://dc.lft.to/lastmile_qr_scan", "android": "https://dc.lft.to/lastmile_qr_scan"}, "name": "a671b79f17eeeef33ebd9942f6d6c2d6", "type": "electric_scooter", "fusion_lon": 0.0, "is_disabled": 0, "is_reserved": 0, "bike_id": "a671b79f17eeeef33ebd9942f6d6c2d6", "lon": -77.02092216666667}, {"fusion_lat": 0.0, "lat": 38.902466, "rental_uris": {"ios": "https://dc.lft.to/lastmile_qr_scan", "android": "https://dc.lft.to/lastmile_qr_scan"}, "name": "230ba1efaf1651ddc0ee5f5cae8cafe0", "type": "electric_scooter", "fusion_lon": 0.0, "is_disabled": 0, "is_reserved": 0, "bike_id": "230ba1efaf1651ddc0ee5f5cae8cafe0", "lon": -77.03056133333334}, {"fusion_lat": 0.0, "lat": 38.91044083333333, "rental_uris": {"ios": "https://dc.lft.to/lastmile_qr_scan", "android": "https://dc.lft.to/lastmile_qr_scan"}, "name": "8e7c12e7f08ab1d5ab6439dea18363ea", "type": "electric_scooter", "fusion_lon": 0.0, "is_disabled": 0, "is_reserved": 0, "bike_id": "8e7c12e7f08ab1d5ab6439dea18363ea", "lon": -77.04392533333333}, {"fusion_lat": 0.0, "lat": 38.912349166666665, "rental_uris": {"ios": "https://dc.lft.to/lastmile_qr_scan", "android": "https://dc.lft.to/lastmile_qr_scan"}, "name": "3f147c5916e7cfb21af3cba8e4ade062", "type": "electric_scooter", "fusion_lon": 0.0, "is_disabled": 0, "is_reserved": 0, "bike_id": "3f147c5916e7cfb21af3cba8e4ade062", "lon": -77.04883533333333}, {"fusion_lat": 0.0, "lat": 38.914711, "rental_uris": {"ios": "https://dc.lft.to/lastmile_qr_scan", "android": "https://dc.lft.to/lastmile_qr_scan"}, "name": "be09cf0b6ae9b08d85a5f67e479bb49f", "type": "electric_scooter", "fusion_lon": 0.0, "is_disabled": 0, "is_reserved": 0, "bike_id": "be09cf0b6ae9b08d85a5f67e479bb49f", "lon": -76.98113133333334}, {"fusion_lat": 0.0, "lat": 38.892225, "rental_uris": {"ios": "https://dc.lft.to/lastmile_qr_scan", "android": "https://dc.lft.to/lastmile_qr_scan"}, "name": "d62a409f8e0a34dc98bd5a11c8d62adc", "type": "electric_scooter", "fusion_lon": 0.0, "is_disabled": 0, "is_reserved": 0, "bike_id": "d62a409f8e0a34dc98bd5a11c8d62adc", "lon": -77.04195616666667}, {"fusion_lat": 0.0, "lat": 38.905165333333336, "rental_uris": {"ios": "https://dc.lft.to/lastmile_qr_scan", "android": "https://dc.lft.to/lastmile_qr_scan"}, "name": "53cdbb80803c3adeacd2fb25e5abb2be", "type": "electric_scooter", "fusion_lon": 0.0, "is_disabled": 0, "is_reserved": 0, "bike_id": "53cdbb80803c3adeacd2fb25e5abb2be", "lon": -77.04347216666666}, {"fusion_lat": 0.0, "lat": 38.901728, "rental_uris": {"ios": "https://dc.lft.to/lastmile_qr_scan", "android": "https://dc.lft.to/lastmile_qr_scan"}, "name": "b9db9342a131347fd68f0c550cbc6e4d", "type": "electric_scooter", "fusion_lon": 0.0, "is_disabled": 0, "is_reserved": 0, "bike_id": "b9db9342a131347fd68f0c550cbc6e4d", "lon": -77.02480016666667}, {"fusion_lat": 0.0, "lat": 38.900280333333335, "rental_uris": {"ios": "https://dc.lft.to/lastmile_qr_scan", "android": "https://dc.lft.to/lastmile_qr_scan"}, "name": "9b22457250ce2ed24d0abe2dd79241c1", "type": "electric_scooter", "fusion_lon": 0.0, "is_disabled": 0, "is_reserved": 0, "bike_id": "9b22457250ce2ed24d0abe2dd79241c1", "lon": -76.98701016666666}, {"fusion_lat": 0.0, "lat": 38.924491833333335, "rental_uris": {"ios": "https://dc.lft.to/lastmile_qr_scan", "android": "https://dc.lft.to/lastmile_qr_scan"}, "name": "faf3c63c90f2366bc7dee895711253eb", "type": "electric_scooter", "fusion_lon": 0.0, "is_disabled": 0, "is_reserved": 0, "bike_id": "faf3c63c90f2366bc7dee895711253eb", "lon": -77.02143883333333}, {"fusion_lat": 0.0, "lat": 38.93057483333333, "rental_uris": {"ios": "https://dc.lft.to/lastmile_qr_scan", "android": "https://dc.lft.to/lastmile_qr_scan"}, "name": "5666d30196253e6aebe8182e111c0ca2", "type": "electric_scooter", "fusion_lon": 0.0, "is_disabled": 0, "is_reserved": 0, "bike_id": "5666d30196253e6aebe8182e111c0ca2", "lon": -77.01867766666666}, {"fusion_lat": 0.0, "lat": 38.9001545, "rental_uris": {"ios": "https://dc.lft.to/lastmile_qr_scan", "android": "https://dc.lft.to/lastmile_qr_scan"}, "name": "1dc2a124e078ef977dd3009fde4afd59", "type": "electric_scooter", "fusion_lon": 0.0, "is_disabled": 0, "is_reserved": 0, "bike_id": "1dc2a124e078ef977dd3009fde4afd59", "lon": -77.04507866666667}, {"fusion_lat": 0.0, "lat": 38.890448666666664, "rental_uris": {"ios": "https://dc.lft.to/lastmile_qr_scan", "android": "https://dc.lft.to/lastmile_qr_scan"}, "name": "a33281d4087d17b0af50eb4b8bb7af8a", "type": "electric_scooter", "fusion_lon": 0.0, "is_disabled": 0, "is_reserved": 0, "bike_id": "a33281d4087d17b0af50eb4b8bb7af8a", "lon": -76.9524475}, {"fusion_lat": 0.0, "lat": 38.92785416666667, "rental_uris": {"ios": "https://dc.lft.to/lastmile_qr_scan", "android": "https://dc.lft.to/lastmile_qr_scan"}, "name": "4512945db681cdf69e555802004f4fb5", "type": "electric_scooter", "fusion_lon": 0.0, "is_disabled": 0, "is_reserved": 0, "bike_id": "4512945db681cdf69e555802004f4fb5", "lon": -77.020991}, {"fusion_lat": 0.0, "lat": 38.9096945, "rental_uris": {"ios": "https://dc.lft.to/lastmile_qr_scan", "android": "https://dc.lft.to/lastmile_qr_scan"}, "name": "37cf8163ae2e3d34a02f6f322ba99629", "type": "electric_scooter", "fusion_lon": 0.0, "is_disabled": 0, "is_reserved": 0, "bike_id": "37cf8163ae2e3d34a02f6f322ba99629", "lon": -77.04520616666667}, {"fusion_lat": 0.0, "lat": 38.90833033333333, "rental_uris": {"ios": "https://dc.lft.to/lastmile_qr_scan", "android": "https://dc.lft.to/lastmile_qr_scan"}, "name": "ac3d42a7371983fa2a43847df16603f2", "type": "electric_scooter", "fusion_lon": 0.0, "is_disabled": 0, "is_reserved": 0, "bike_id": "ac3d42a7371983fa2a43847df16603f2", "lon": -77.03946833333333}, {"fusion_lat": 0.0, "lat": 38.899574333333334, "rental_uris": {"ios": "https://dc.lft.to/lastmile_qr_scan", "android": "https://dc.lft.to/lastmile_qr_scan"}, "name": "a662ba375d87dce186842d69bdde98ae", "type": "electric_scooter", "fusion_lon": 0.0, "is_disabled": 0, "is_reserved": 0, "bike_id": "a662ba375d87dce186842d69bdde98ae", "lon": -76.9815235}, {"fusion_lat": 0.0, "lat": 38.92935266666667, "rental_uris": {"ios": "https://dc.lft.to/lastmile_qr_scan", "android": "https://dc.lft.to/lastmile_qr_scan"}, "name": "aefcfdef8d75640cccab436f8a47a1c4", "type": "electric_scooter", "fusion_lon": 0.0, "is_disabled": 0, "is_reserved": 0, "bike_id": "aefcfdef8d75640cccab436f8a47a1c4", "lon": -77.03265683333333}, {"fusion_lat": 0.0, "lat": 38.90787183333333, "rental_uris": {"ios": "https://dc.lft.to/lastmile_qr_scan", "android": "https://dc.lft.to/lastmile_qr_scan"}, "name": "9a96abd3ce2c3003cb5373c138e3e07a", "type": "electric_scooter", "fusion_lon": 0.0, "is_disabled": 0, "is_reserved": 0, "bike_id": "9a96abd3ce2c3003cb5373c138e3e07a", "lon": -77.02717433333333}, {"fusion_lat": 0.0, "lat": 38.9192975, "rental_uris": {"ios": "https://dc.lft.to/lastmile_qr_scan", "android": "https://dc.lft.to/lastmile_qr_scan"}, "name": "f8a624470869f70069ac23437806d985", "type": "electric_scooter", "fusion_lon": 0.0, "is_disabled": 0, "is_reserved": 0, "bike_id": "f8a624470869f70069ac23437806d985", "lon": -77.028167}, {"fusion_lat": 0.0, "lat": 38.887202333333335, "rental_uris": {"ios": "https://dc.lft.to/lastmile_qr_scan", "android": "https://dc.lft.to/lastmile_qr_scan"}, "name": "c98d3c601f30a81f7f4be194c340d706", "type": "electric_scooter", "fusion_lon": 0.0, "is_disabled": 0, "is_reserved": 0, "bike_id": "c98d3c601f30a81f7f4be194c340d706", "lon": -76.99686}, {"fusion_lat": 0.0, "lat": 38.79699633333333, "rental_uris": {"ios": "https://dc.lft.to/lastmile_qr_scan", "android": "https://dc.lft.to/lastmile_qr_scan"}, "name": "d285d9fc276f291d4c84b8761ecda287", "type": "electric_bike", "fusion_lon": 0.0, "is_disabled": 0, "is_reserved": 0, "bike_id": "d285d9fc276f291d4c84b8761ecda287", "lon": -77.00371433333333}, {"fusion_lat": 0.0, "lat": 38.924379, "rental_uris": {"ios": "https://dc.lft.to/lastmile_qr_scan", "android": "https://dc.lft.to/lastmile_qr_scan"}, "name": "7da02e0faab97085e51b0a4f31c86984", "type": "electric_scooter", "fusion_lon": 0.0, "is_disabled": 0, "is_reserved": 0, "bike_id": "7da02e0faab97085e51b0a4f31c86984", "lon": -77.03406116666666}, {"fusion_lat": 0.0, "lat": 38.86550016666666, "rental_uris": {"ios": "https://dc.lft.to/lastmile_qr_scan", "android": "https://dc.lft.to/lastmile_qr_scan"}, "name": "b3f87da9d702ab0f58fc722bb11dd4a1", "type": "electric_scooter", "fusion_lon": 0.0, "is_disabled": 0, "is_reserved": 0, "bike_id": "b3f87da9d702ab0f58fc722bb11dd4a1", "lon": -76.9786025}, {"fusion_lat": 0.0, "lat": 38.91710416666667, "rental_uris": {"ios": "https://dc.lft.to/lastmile_qr_scan", "android": "https://dc.lft.to/lastmile_qr_scan"}, "name": "805bac1272960bc9370a78325d1f5c82", "type": "electric_scooter", "fusion_lon": 0.0, "is_disabled": 0, "is_reserved": 0, "bike_id": "805bac1272960bc9370a78325d1f5c82", "lon": -77.04700516666666}, {"fusion_lat": 0.0, "lat": 38.898243, "rental_uris": {"ios": "https://dc.lft.to/lastmile_qr_scan", "android": "https://dc.lft.to/lastmile_qr_scan"}, "name": "7ead734b46cac84cc5161aef29d3dc60", "type": "electric_scooter", "fusion_lon": 0.0, "is_disabled": 0, "is_reserved": 0, "bike_id": "7ead734b46cac84cc5161aef29d3dc60", "lon": -77.03329083333334}, {"fusion_lat": 0.0, "lat": 38.905002333333336, "rental_uris": {"ios": "https://dc.lft.to/lastmile_qr_scan", "android": "https://dc.lft.to/lastmile_qr_scan"}, "name": "fd36c36df48548e4f2024fe4439c98da", "type": "electric_scooter", "fusion_lon": 0.0, "is_disabled": 0, "is_reserved": 0, "bike_id": "fd36c36df48548e4f2024fe4439c98da", "lon": -77.06124166666666}, {"fusion_lat": 0.0, "lat": 38.924484166666666, "rental_uris": {"ios": "https://dc.lft.to/lastmile_qr_scan", "android": "https://dc.lft.to/lastmile_qr_scan"}, "name": "550d5b26fba8840c0b592e8402dc062e", "type": "electric_scooter", "fusion_lon": 0.0, "is_disabled": 0, "is_reserved": 0, "bike_id": "550d5b26fba8840c0b592e8402dc062e", "lon": -77.02147916666667}, {"fusion_lat": 0.0, "lat": 38.920499, "rental_uris": {"ios": "https://dc.lft.to/lastmile_qr_scan", "android": "https://dc.lft.to/lastmile_qr_scan"}, "name": "7e6086c77f790002f091f04c34fdf58e", "type": "electric_scooter", "fusion_lon": 0.0, "is_disabled": 0, "is_reserved": 0, "bike_id": "7e6086c77f790002f091f04c34fdf58e", "lon": -77.03823733333333}, {"fusion_lat": 0.0, "lat": 38.8660005, "rental_uris": {"ios": "https://dc.lft.to/lastmile_qr_scan", "android": "https://dc.lft.to/lastmile_qr_scan"}, "name": "77975900064ffaac2028398290ed3e81", "type": "electric_scooter", "fusion_lon": 0.0, "is_disabled": 0, "is_reserved": 0, "bike_id": "77975900064ffaac2028398290ed3e81", "lon": -76.982084}, {"fusion_lat": 0.0, "lat": 38.904151, "rental_uris": {"ios": "https://dc.lft.to/lastmile_qr_scan", "android": "https://dc.lft.to/lastmile_qr_scan"}, "name": "bc9e35320d5e25296b0ae28774ef4517", "type": "electric_scooter", "fusion_lon": 0.0, "is_disabled": 0, "is_reserved": 0, "bike_id": "bc9e35320d5e25296b0ae28774ef4517", "lon": -77.0435305}, {"fusion_lat": 0.0, "lat": 38.931718000000004, "rental_uris": {"ios": "https://dc.lft.to/lastmile_qr_scan", "android": "https://dc.lft.to/lastmile_qr_scan"}, "name": "adc3641efe309c5fe233da0fccfd6efc", "type": "electric_scooter", "fusion_lon": 0.0, "is_disabled": 0, "is_reserved": 0, "bike_id": "adc3641efe309c5fe233da0fccfd6efc", "lon": -77.07070466666667}, {"fusion_lat": 0.0, "lat": 38.877008000000004, "rental_uris": {"ios": "https://dc.lft.to/lastmile_qr_scan", "android": "https://dc.lft.to/lastmile_qr_scan"}, "name": "9c3abfc84a3acc7bd8d3812e0f6701ae", "type": "electric_scooter", "fusion_lon": 0.0, "is_disabled": 0, "is_reserved": 0, "bike_id": "9c3abfc84a3acc7bd8d3812e0f6701ae", "lon": -77.004482}, {"fusion_lat": 0.0, "lat": 38.9011005, "rental_uris": {"ios": "https://dc.lft.to/lastmile_qr_scan", "android": "https://dc.lft.to/lastmile_qr_scan"}, "name": "3678445612e3f4fef90aef3eeaf42473", "type": "electric_scooter", "fusion_lon": 0.0, "is_disabled": 0, "is_reserved": 0, "bike_id": "3678445612e3f4fef90aef3eeaf42473", "lon": -77.03249516666666}, {"fusion_lat": 0.0, "lat": 38.902835333333336, "rental_uris": {"ios": "https://dc.lft.to/lastmile_qr_scan", "android": "https://dc.lft.to/lastmile_qr_scan"}, "name": "7014411ff833b46db7433da9be303db0", "type": "electric_scooter", "fusion_lon": 0.0, "is_disabled": 0, "is_reserved": 0, "bike_id": "7014411ff833b46db7433da9be303db0", "lon": -77.02281866666667}, {"fusion_lat": 0.0, "lat": 38.894388166666666, "rental_uris": {"ios": "https://dc.lft.to/lastmile_qr_scan", "android": "https://dc.lft.to/lastmile_qr_scan"}, "name": "476b2e5353de376b544c549031ba0086", "type": "electric_scooter", "fusion_lon": 0.0, "is_disabled": 0, "is_reserved": 0, "bike_id": "476b2e5353de376b544c549031ba0086", "lon": -77.02632283333334}, {"fusion_lat": 0.0, "lat": 38.957382333333335, "rental_uris": {"ios": "https://dc.lft.to/lastmile_qr_scan", "android": "https://dc.lft.to/lastmile_qr_scan"}, "name": "bb12f72bbadbcc58ea921380c8036a03", "type": "electric_bike", "fusion_lon": 0.0, "is_disabled": 0, "is_reserved": 0, "bike_id": "bb12f72bbadbcc58ea921380c8036a03", "lon": -76.972553}, {"fusion_lat": 0.0, "lat": 38.915225666666664, "rental_uris": {"ios": "https://dc.lft.to/lastmile_qr_scan", "android": "https://dc.lft.to/lastmile_qr_scan"}, "name": "a0c8ed0d6ec0889189cadcb0e25e6394", "type": "electric_scooter", "fusion_lon": 0.0, "is_disabled": 0, "is_reserved": 0, "bike_id": "a0c8ed0d6ec0889189cadcb0e25e6394", "lon": -77.04158833333334}, {"fusion_lat": 0.0, "lat": 38.9067305, "rental_uris": {"ios": "https://dc.lft.to/lastmile_qr_scan", "android": "https://dc.lft.to/lastmile_qr_scan"}, "name": "465d033c8b54a3a9cc8e0886bd247638", "type": "electric_scooter", "fusion_lon": 0.0, "is_disabled": 0, "is_reserved": 0, "bike_id": "465d033c8b54a3a9cc8e0886bd247638", "lon": -77.02598033333334}, {"fusion_lat": 0.0, "lat": 38.9042115, "rental_uris": {"ios": "https://dc.lft.to/lastmile_qr_scan", "android": "https://dc.lft.to/lastmile_qr_scan"}, "name": "4c99cbdaf77de96f8c28503dc3d0c484", "type": "electric_scooter", "fusion_lon": 0.0, "is_disabled": 0, "is_reserved": 0, "bike_id": "4c99cbdaf77de96f8c28503dc3d0c484", "lon": -77.04354216666667}, {"fusion_lat": 0.0, "lat": 38.900289, "rental_uris": {"ios": "https://dc.lft.to/lastmile_qr_scan", "android": "https://dc.lft.to/lastmile_qr_scan"}, "name": "3f0fc6f99198639d66b183db2bb30b24", "type": "electric_scooter", "fusion_lon": 0.0, "is_disabled": 0, "is_reserved": 0, "bike_id": "3f0fc6f99198639d66b183db2bb30b24", "lon": -76.9990165}, {"fusion_lat": 0.0, "lat": 38.9574855, "rental_uris": {"ios": "https://dc.lft.to/lastmile_qr_scan", "android": "https://dc.lft.to/lastmile_qr_scan"}, "name": "3f125e2d7b5be590b2e52ab90c68de8a", "type": "electric_bike", "fusion_lon": 0.0, "is_disabled": 0, "is_reserved": 0, "bike_id": "3f125e2d7b5be590b2e52ab90c68de8a", "lon": -76.97251133333333}, {"fusion_lat": 0.0, "lat": 38.92554416666667, "rental_uris": {"ios": "https://dc.lft.to/lastmile_qr_scan", "android": "https://dc.lft.to/lastmile_qr_scan"}, "name": "ec58dd600c1b16fca73145bf990859d9", "type": "electric_scooter", "fusion_lon": 0.0, "is_disabled": 0, "is_reserved": 0, "bike_id": "ec58dd600c1b16fca73145bf990859d9", "lon": -77.000718}, {"fusion_lat": 0.0, "lat": 38.914108, "rental_uris": {"ios": "https://dc.lft.to/lastmile_qr_scan", "android": "https://dc.lft.to/lastmile_qr_scan"}, "name": "59c41e883614472c0d685fd79ec9fb8c", "type": "electric_scooter", "fusion_lon": 0.0, "is_disabled": 0, "is_reserved": 0, "bike_id": "59c41e883614472c0d685fd79ec9fb8c", "lon": -77.01482616666667}, {"fusion_lat": 0.0, "lat": 38.90053183333333, "rental_uris": {"ios": "https://dc.lft.to/lastmile_qr_scan", "android": "https://dc.lft.to/lastmile_qr_scan"}, "name": "39574087173de81359b7cb89a0f168b8", "type": "electric_scooter", "fusion_lon": 0.0, "is_disabled": 0, "is_reserved": 0, "bike_id": "39574087173de81359b7cb89a0f168b8", "lon": -77.00101966666666}, {"fusion_lat": 0.0, "lat": 38.874134, "rental_uris": {"ios": "https://dc.lft.to/lastmile_qr_scan", "android": "https://dc.lft.to/lastmile_qr_scan"}, "name": "1c92d24686454ceb0fc1cfec714b2366", "type": "electric_scooter", "fusion_lon": 0.0, "is_disabled": 0, "is_reserved": 0, "bike_id": "1c92d24686454ceb0fc1cfec714b2366", "lon": -76.99962583333334}, {"fusion_lat": 0.0, "lat": 38.918122, "rental_uris": {"ios": "https://dc.lft.to/lastmile_qr_scan", "android": "https://dc.lft.to/lastmile_qr_scan"}, "name": "33008a4dcde353fa4b8ff94576dad51f", "type": "electric_scooter", "fusion_lon": 0.0, "is_disabled": 0, "is_reserved": 0, "bike_id": "33008a4dcde353fa4b8ff94576dad51f", "lon": -77.03169716666666}, {"fusion_lat": 0.0, "lat": 38.89526766666667, "rental_uris": {"ios": "https://dc.lft.to/lastmile_qr_scan", "android": "https://dc.lft.to/lastmile_qr_scan"}, "name": "0893b36f506fc288b28677ed16dd0d29", "type": "electric_scooter", "fusion_lon": 0.0, "is_disabled": 0, "is_reserved": 0, "bike_id": "0893b36f506fc288b28677ed16dd0d29", "lon": -77.00212233333333}, {"fusion_lat": 0.0, "lat": 38.917728, "rental_uris": {"ios": "https://dc.lft.to/lastmile_qr_scan", "android": "https://dc.lft.to/lastmile_qr_scan"}, "name": "3cc88229b8cf36614c407187e6d9e864", "type": "electric_scooter", "fusion_lon": 0.0, "is_disabled": 0, "is_reserved": 0, "bike_id": "3cc88229b8cf36614c407187e6d9e864", "lon": -77.0190985}, {"fusion_lat": 0.0, "lat": 38.909135, "rental_uris": {"ios": "https://dc.lft.to/lastmile_qr_scan", "android": "https://dc.lft.to/lastmile_qr_scan"}, "name": "a950e949e1e8cbdaef1110b38b1ce700", "type": "electric_scooter", "fusion_lon": 0.0, "is_disabled": 0, "is_reserved": 0, "bike_id": "a950e949e1e8cbdaef1110b38b1ce700", "lon": -76.9863455}, {"fusion_lat": 0.0, "lat": 38.81613933333333, "rental_uris": {"ios": "https://dc.lft.to/lastmile_qr_scan", "android": "https://dc.lft.to/lastmile_qr_scan"}, "name": "2ace931e5f0ae3445ee8241b7b57acbe", "type": "electric_bike", "fusion_lon": 0.0, "is_disabled": 0, "is_reserved": 0, "bike_id": "2ace931e5f0ae3445ee8241b7b57acbe", "lon": -76.9965505}, {"fusion_lat": 0.0, "lat": 38.96113716666667, "rental_uris": {"ios": "https://dc.lft.to/lastmile_qr_scan", "android": "https://dc.lft.to/lastmile_qr_scan"}, "name": "808c6e850912c09026c331a65f84f9d5", "type": "electric_scooter", "fusion_lon": 0.0, "is_disabled": 0, "is_reserved": 0, "bike_id": "808c6e850912c09026c331a65f84f9d5", "lon": -77.009479}, {"fusion_lat": 0.0, "lat": 39.01419883333333, "rental_uris": {"ios": "https://dc.lft.to/lastmile_qr_scan", "android": "https://dc.lft.to/lastmile_qr_scan"}, "name": "ba7e653b42bf93a251e7b9699b493cab", "type": "electric_bike", "fusion_lon": 0.0, "is_disabled": 0, "is_reserved": 0, "bike_id": "ba7e653b42bf93a251e7b9699b493cab", "lon": -77.04498616666666}, {"fusion_lat": 0.0, "lat": 38.857914, "rental_uris": {"ios": "https://dc.lft.to/lastmile_qr_scan", "android": "https://dc.lft.to/lastmile_qr_scan"}, "name": "f7318726cef1762236313b8df8ac82db", "type": "electric_bike", "fusion_lon": 0.0, "is_disabled": 0, "is_reserved": 0, "bike_id": "f7318726cef1762236313b8df8ac82db", "lon": -77.09960516666666}, {"fusion_lat": 0.0, "lat": 38.93047083333333, "rental_uris": {"ios": "https://dc.lft.to/lastmile_qr_scan", "android": "https://dc.lft.to/lastmile_qr_scan"}, "name": "a46849e430ec550a4b15a490bf54bfb7", "type": "electric_bike", "fusion_lon": 0.0, "is_disabled": 0, "is_reserved": 0, "bike_id": "a46849e430ec550a4b15a490bf54bfb7", "lon": -76.95835716666667}, {"fusion_lat": 0.0, "lat": 38.921228666666664, "rental_uris": {"ios": "https://dc.lft.to/lastmile_qr_scan", "android": "https://dc.lft.to/lastmile_qr_scan"}, "name": "1c5f6f4b45bd81a3aad7ce6ef1a25dbb", "type": "electric_scooter", "fusion_lon": 0.0, "is_disabled": 0, "is_reserved": 0, "bike_id": "1c5f6f4b45bd81a3aad7ce6ef1a25dbb", "lon": -76.99647833333333}, {"fusion_lat": 0.0, "lat": 38.92182, "rental_uris": {"ios": "https://dc.lft.to/lastmile_qr_scan", "android": "https://dc.lft.to/lastmile_qr_scan"}, "name": "5fadf432663578b6d49336a812d07e82", "type": "electric_scooter", "fusion_lon": 0.0, "is_disabled": 0, "is_reserved": 0, "bike_id": "5fadf432663578b6d49336a812d07e82", "lon": -77.04700766666667}, {"fusion_lat": 0.0, "lat": 38.932196833333336, "rental_uris": {"ios": "https://dc.lft.to/lastmile_qr_scan", "android": "https://dc.lft.to/lastmile_qr_scan"}, "name": "b5fac269e8655719c75c765348eb9902", "type": "electric_scooter", "fusion_lon": 0.0, "is_disabled": 0, "is_reserved": 0, "bike_id": "b5fac269e8655719c75c765348eb9902", "lon": -77.03366783333334}, {"fusion_lat": 0.0, "lat": 38.876688, "rental_uris": {"ios": "https://dc.lft.to/lastmile_qr_scan", "android": "https://dc.lft.to/lastmile_qr_scan"}, "name": "63b0a2e7cdc2400c9d611f13a9aeeaa6", "type": "electric_scooter", "fusion_lon": 0.0, "is_disabled": 0, "is_reserved": 0, "bike_id": "63b0a2e7cdc2400c9d611f13a9aeeaa6", "lon": -77.00592866666666},